,time.ms,stateEstimate.x,stateEstimate.y,stateEstimate.z,stabilizer.roll,stabilizer.pitch,stabilizer.yaw,pm.vbat,drone_id,node_name,wind_speed,global_wind_direction,relative_wind_direction,travel_dist,waiting_time
0,0,1.6719731092453003,1.1531124114990234,-0.0293358378112316,-0.3527705669403076,0.9490858912467957,3.8499674797058105,4.12109375,0,"['A1', 'B2', 'F2']",6.1,90,0.0,0.0595134847360637,[100|0|0]
1,100,1.672228455543518,1.1528741121292114,-0.0292214229702949,-0.0428630821406841,0.114026628434658,3.9059531688690186,4.12109375,0,"['A1', 'B2', 'F2']",6.1,90,0.0,0.0598810157925649,[200|0|0]
2,200,1.671963453292847,1.152074933052063,-0.0289649125188589,-0.0932920649647712,0.2853214144706726,4.047378063201904,4.12890625,0,"['A1', 'B2', 'F2']",6.1,90,0.0,0.060761192480457,[300|0|0]
3,300,1.6721051931381226,1.152468204498291,-0.0289077386260032,-0.324363112449646,0.4820324778556824,4.092121601104736,4.12109375,0,"['A1', 'B2', 'F2']",6.1,90,0.0,0.0611831183841195,[400|0|0]
4,400,1.6719337701797483,1.1530033349990845,-0.0292395707219839,-0.4534924030303955,0.654519259929657,4.057102680206299,4.12109375,0,"['A1', 'B2', 'F2']",6.1,90,0.0,0.0618357001977337,[500|0|0]
5,500,1.671890139579773,1.1528348922729492,-0.0294228252023458,-0.4464625418186188,0.7642366290092468,4.035120010375977,4.12109375,0,"['A1', 'B2', 'F2']",6.1,90,0.0,0.0620884031573817,[600|0|0]
6,600,1.6718637943267822,1.152767777442932,-0.0295077487826347,-0.4389672577381134,0.8203073143959045,3.978257179260254,4.12890625,0,"['A1', 'B2', 'F2']",6.1,90,0.0,0.0621998055238397,[700|0|0]
7,700,1.6719720363616943,1.1527259349822998,-0.0294587109237909,-0.4296128153800964,0.8541935086250305,3.9594438076019287,4.12109375,0,"['A1', 'B2', 'F2']",6.1,90,0.0,0.0623257890197178,[800|0|0]
8,800,1.6722090244293213,1.1529098749160769,-0.0294835343956947,-0.4243055880069732,0.8630374670028687,3.9232122898101807,4.12890625,0,"['A1', 'B2', 'F2']",6.1,90,0.0,0.0626268096970686,[900|0|0]
9,900,1.6718347072601318,1.1528159379959106,-0.0294590387493371,-0.4152610599994659,0.8999643325805664,3.912607908248901,4.12109375,0,"['A1', 'B2', 'F2']",6.1,90,0.0,0.063013510517873,[1000|0|0]
10,1000,1.6719805002212524,1.1527886390686035,-0.0290774200111627,-0.4051749110221863,0.9137699007987976,3.909778594970703,4.12890625,0,"['A1', 'B2', 'F2']",6.1,90,0.0,0.0634229414403377,[1100|0|0]
11,1100,1.6717267036437988,1.1527228355407717,-0.0298257935792207,-0.3921841979026794,0.9315447807312012,3.909517288208008,4.12890625,0,"['A1', 'B2', 'F2']",6.1,90,0.0,0.06421591420429,[1200|0|0]
12,1200,1.6719677448272705,1.1529490947723389,-0.0295608974993228,-0.3876065015792846,0.92549067735672,3.894141674041748,4.12109375,0,"['A1', 'B2', 'F2']",6.1,90,0.0,0.0646395461496673,[1300|0|0]
13,1300,1.6720930337905884,1.152835488319397,-0.0291022844612598,-0.379146546125412,0.9325392246246338,3.8855364322662354,4.12109375,0,"['A1', 'B2', 'F2']",6.1,90,0.0,0.0651283504757127,[1400|0|0]
14,1400,1.6720573902130127,1.1530604362487793,-0.029136199504137,-0.3783018887042999,0.9343303442001344,3.8680169582366943,4.12109375,0,"['A1', 'B2', 'F2']",6.1,90,0.0,0.065358616117286,[1500|0|0]
15,1500,1.6721413135528564,1.1527531147003174,-0.029500626027584,-0.3679735958576202,0.933650016784668,3.853347063064575,4.12109375,0,"['A1', 'B2', 'F2']",6.1,90,0.0,0.0658426578015563,[1600|0|0]
16,1600,1.6722548007965088,1.152883768081665,-0.0294564608484506,-0.3722601234912872,0.941669464111328,3.8460285663604736,4.12109375,0,"['A1', 'B2', 'F2']",6.1,90,0.0,0.0660212641384463,[1700|0|0]
17,1700,1.6719359159469604,1.1524776220321655,-0.0294977575540542,-0.3689393997192383,0.94942045211792,3.846105813980103,4.12890625,0,"['A1', 'B2', 'F2']",6.1,90,0.0,0.0665392868972989,[1800|0|0]
18,1800,1.6720489263534546,1.1528548002243042,-0.0295656025409698,-0.3789148926734924,0.9443721175193788,3.849843978881836,4.12109375,0,"['A1', 'B2', 'F2']",6.1,90,0.0,0.0669388337441774,[1900|0|0]
19,1900,1.6718696355819702,1.152576923370361,-0.0293147340416908,-0.3745149374008178,0.9481293559074402,3.859184741973877,4.12109375,0,"['A1', 'B2', 'F2']",6.1,90,0.0,0.0673539189530528,[2000|0|0]
20,2000,1.672000765800476,1.1524285078048706,-0.0295216813683509,-0.3727664649486542,0.945231318473816,3.875093936920166,4.12109375,0,"['A1', 'B2', 'F2']",6.1,90,0.0,0.0676403618100018,[2100|0|0]
21,2100,1.6718757152557373,1.1525906324386597,-0.0292490404099226,-0.3823429644107818,0.950770378112793,3.881150960922241,4.12109375,0,"['A1', 'B2', 'F2']",6.1,90,0.0,0.0679813238721634,[2200|0|0]
22,2200,1.6718486547470093,1.1528100967407229,-0.0292076505720615,-0.379497230052948,0.959466516971588,3.871917486190796,4.12109375,0,"['A1', 'B2', 'F2']",6.1,90,0.0,0.0682062904689967,[2300|0|0]
23,2300,1.67239511013031,1.1529461145401,-0.0291653908789157,-0.3755809366703033,0.9429318904876708,3.878131628036499,4.12109375,0,"['A1', 'B2', 'F2']",6.1,90,0.0,0.0687710029704969,[2400|0|0]
24,2400,1.6719897985458374,1.1527721881866455,-0.0296529531478881,-0.3773314356803894,0.9622244834899902,3.8827157020568848,4.12109375,0,"['A1', 'B2', 'F2']",6.1,90,0.0,0.069428456256335,[2500|0|0]
25,2500,1.6717745065689087,1.1529455184936523,-0.0295708086341619,-0.377039223909378,0.9650212526321412,3.865967988967896,4.12109375,0,"['A1', 'B2', 'F2']",6.1,90,0.0,0.0697167993710305,[2600|0|0]
26,2600,1.6723780632019043,1.15325927734375,-0.0287728458642959,-0.3821905851364136,0.9528684616088868,3.830995798110962,4.12109375,0,"['A1', 'B2', 'F2']",6.1,90,0.0,0.0707653554293029,[2700|0|0]
27,2700,1.671952247619629,1.1533931493759155,-0.0291520301252603,-0.3789833188056946,0.962274432182312,3.793115139007568,4.12109375,0,"['A1', 'B2', 'F2']",6.1,90,0.0,0.0713510356619109,[2800|0|0]
28,2800,1.6724787950515747,1.153519630432129,-0.0292575228959321,-0.3756491839885711,0.9444082975387572,3.773163318634033,4.12109375,0,"['A1', 'B2', 'F2']",6.1,90,0.0,0.071902740637721,[2900|0|0]
29,2900,1.671990156173706,1.1526554822921753,-0.0292278826236724,-0.3560120761394501,0.9600025415420532,3.81933069229126,4.12109375,0,"['A1', 'B2', 'F2']",6.1,90,0.0,0.07289591660727,[3000|0|0]
30,3000,1.6720454692840576,1.152794599533081,-0.0292046405375003,-0.3572451472282409,0.9576207399368286,3.80873703956604,4.12109375,0,"['A1', 'B2', 'F2']",6.1,90,0.0,0.0730474202094174,[3100|0|0]
31,3100,1.6723835468292236,1.1532386541366575,-0.029080506414175,-0.3731441795825958,0.9449437856674194,3.7751641273498535,4.12109375,0,"['A1', 'B2', 'F2']",6.1,90,0.0,0.0736191633318743,[3200|0|0]
32,3200,1.6720571517944336,1.1529535055160522,-0.0286659933626651,-0.3696268498897552,0.9574576020240784,3.779642105102539,4.12109375,0,"['A1', 'B2', 'F2']",6.1,90,0.0,0.0742188837037484,[3300|0|0]
33,3300,1.6719831228256226,1.1527760028839111,-0.0288159362971782,-0.3663434982299804,0.9551146030426024,3.7761518955230713,4.12109375,0,"['A1', 'B2', 'F2']",6.1,90,0.0,0.0744627491507692,[3400|0|0]
34,3400,1.6723178625106812,1.1529868841171265,-0.0290338117629289,-0.378357321023941,0.9484907984733582,3.792313814163208,4.12109375,0,"['A1', 'B2', 'F2']",6.1,90,0.0,0.0749144030778546,[3500|0|0]
35,3500,1.6721515655517578,1.153236746788025,-0.0292098354548215,-0.3821887969970703,0.9440682530403136,3.777546167373657,4.12109375,0,"['A1', 'B2', 'F2']",6.1,90,0.0,0.0752623547597921,[3600|0|0]
36,3600,1.6721268892288208,1.1535568237304688,-0.0287978388369083,-0.3850309550762176,0.9398016333580016,3.766644954681397,4.12109375,0,"['A1', 'B2', 'F2']",6.1,90,0.0,0.0757846567635886,[3700|0|0]
37,3700,1.672238826751709,1.1535742282867432,-0.0288839545100927,-0.3817715346813202,0.9358257055282592,3.740180253982544,4.12109375,0,"['A1', 'B2', 'F2']",6.1,90,0.0,0.0759269551710901,[3800|0|0]
38,3801,1.6720759868621826,1.1529147624969482,-0.0289699770510196,-0.3632752895355224,0.9445615410804749,3.778618812561035,4.12109375,0,"['A1', 'B2', 'F2']",6.1,90,0.0,0.0766116535244387,[3900|0|0]
39,3900,1.672609806060791,1.152941107749939,-0.0287904627621173,-0.3596806228160858,0.9271185994148254,3.796033143997192,4.12109375,0,"['A1', 'B2', 'F2']",6.1,90,0.0,0.0771754641212513,[4000|0|0]
40,4000,1.6723265647888184,1.153279185295105,-0.0288568995893001,-0.3671528100967407,0.9407318234443665,3.781107902526856,4.12109375,0,"['A1', 'B2', 'F2']",6.1,90,0.0,0.0776214864264113,[4100|0|0]
41,4100,1.6722813844680786,1.1528651714324951,-0.0288154575973749,-0.3563722372055053,0.9447447657585144,3.77542781829834,4.12109375,0,"['A1', 'B2', 'F2']",6.1,90,0.0,0.0780400150138579,[4200|0|0]
42,4201,1.6722441911697388,1.1531212329864502,-0.0287841688841581,-0.3624395430088043,0.9427857995033264,3.7856526374816895,4.12109375,0,"['A1', 'B2', 'F2']",6.1,90,0.0,0.0783006485581879,[4300|0|0]
43,4300,1.6721532344818115,1.1532589197158811,-0.0291284620761871,-0.3691395223140716,0.943105399608612,3.781860589981079,4.12109375,0,"['A1', 'B2', 'F2']",6.1,90,0.0,0.0786824450440514,[4400|0|0]
44,4401,1.672271490097046,1.1533517837524414,-0.029351856559515,-0.3721621930599212,0.942089855670929,3.802539825439453,4.12109375,0,"['A1', 'B2', 'F2']",6.1,90,0.0,0.0789517278229326,[4500|0|0]
45,4501,1.6721158027648926,1.153040051460266,-0.0289363600313663,-0.3577775657176971,0.9416733384132384,3.81451153755188,4.12109375,0,"['A1', 'B2', 'F2']",6.1,90,0.0,0.0794939943001202,[4600|0|0]
46,4601,1.671728491783142,1.1532032489776611,-0.0291287470608949,-0.3611916005611419,0.950446605682373,3.82357120513916,4.12109375,0,"['A1', 'B2', 'F2']",6.1,90,0.0,0.07995622367543,[4700|0|0]
47,4701,1.672081708908081,1.1529953479766846,-0.028858819976449,-0.3523344695568084,0.9375147223472596,3.809142589569092,4.12109375,0,"['A1', 'B2', 'F2']",6.1,90,0.0,0.0804469841001534,[4800|0|0]
48,4801,1.671947956085205,1.1532013416290283,-0.0288461688905954,-0.3600368797779083,0.9372435212135316,3.7871389389038086,4.12109375,0,"['A1', 'B2', 'F2']",6.1,90,0.0,0.080692917530997,[4900|0|0]
49,4901,1.6720808744430542,1.1530051231384275,-0.0295472741127014,-0.3506218194961548,0.9335213899612428,3.7884790897369385,4.12109375,0,"['A1', 'B2', 'F2']",6.1,90,0.0,0.0814329969310421,[5000|0|0]
50,5001,1.672215700149536,1.1531633138656616,-0.0292934458702802,-0.3557398319244385,0.9245006442070008,3.77860689163208,4.12109375,0,"['A1', 'B2', 'F2']",6.1,90,0.0,0.0817610686518011,[5100|0|0]
51,5101,1.672369360923767,1.153236746788025,-0.0288996435701847,-0.3652859330177307,0.9166825413703918,3.806438684463501,4.12109375,0,"['A1', 'B2', 'F2']",6.1,90,0.0,0.082190119090776,[5200|0|0]
52,5202,1.672016143798828,1.1529059410095217,-0.0286068432033061,-0.3643825352191925,0.9301179051399232,3.8233642578125,4.12109375,0,"['A1', 'B2', 'F2']",6.1,90,0.0,0.0827557398606259,[5300|0|0]
53,5302,1.6722915172576904,1.1533063650131226,-0.0290112774819135,-0.3648740351200104,0.9238461852073668,3.797671318054199,4.12109375,0,"['A1', 'B2', 'F2']",6.1,90,0.0,0.0833879874467964,[5400|0|0]
54,5402,1.6721543073654177,1.1530213356018066,-0.0290125291794538,-0.3630217313766479,0.9339762330055236,3.80614709854126,4.12109375,0,"['A1', 'B2', 'F2']",6.1,90,0.0,0.0837043256939297,[5500|0|0]
55,5502,1.6719952821731567,1.1528974771499634,-0.02875467389822,-0.3534462749958038,0.9441524744033812,3.795125722885132,4.12109375,0,"['A1', 'B2', 'F2']",6.1,90,0.0,0.0840316165033435,[5600|0|0]
56,5600,1.6719998121261597,1.1532278060913086,-0.0288949180394411,-0.3649044930934906,0.9455487132072448,3.762609720230103,4.12109375,0,"['A1', 'B2', 'F2']",6.1,90,0.0,0.0843905122390541,[5700|0|0]
57,5700,1.6726902723312378,1.153261661529541,-0.0290358550846576,-0.369293749332428,0.9287214875221252,3.769041538238525,4.12109375,0,"['A1', 'B2', 'F2']",6.1,90,0.0,0.0850960225056051,[5800|0|0]
58,5800,1.6718461513519287,1.153180718421936,-0.0290183778852224,-0.3592360615730285,0.9537814259529114,3.765900135040283,4.12109375,0,"['A1', 'B2', 'F2']",6.1,90,0.0,0.0859441955226709,[5900|0|0]
59,5900,1.6721880435943604,1.153407335281372,-0.0289763044565916,-0.3666324019432068,0.9422873258590698,3.778319120407105,4.12109375,0,"['A1', 'B2', 'F2']",6.1,90,0.0,0.0863565250993597,[6000|0|0]
60,6002,1.6721489429473877,1.1531732082366943,-0.0287840366363525,-0.3617794513702392,0.9459580183029176,3.793130874633789,4.12109375,0,"['A1', 'B2', 'F2']",6.1,90,0.0,0.0866619939985012,[6100|0|0]
61,6102,1.6720706224441528,1.1529968976974487,-0.0288939476013183,-0.357006698846817,0.947030544281006,3.792490959167481,4.12109375,0,"['A1', 'B2', 'F2']",6.1,90,0.0,0.0868840298687919,[6200|0|0]
62,6200,1.672136306762695,1.1528854370117188,-0.0291072372347116,-0.3560500741004944,0.948780357837677,3.800089120864868,4.12109375,0,"['A1', 'B2', 'F2']",6.1,90,0.0,0.0871334900497403,[6300|0|0]
63,6300,1.6722358465194702,1.153149962425232,-0.0287368204444646,-0.3686612546443939,0.943024516105652,3.798597574234009,4.12109375,0,"['A1', 'B2', 'F2']",6.1,90,0.0,0.0875994197183278,[6400|0|0]
64,6400,1.6719295978546145,1.1529287099838257,-0.0288894027471542,-0.36801478266716,0.9470945596694946,3.799304962158203,4.12109375,0,"['A1', 'B2', 'F2']",6.1,90,0.0,0.0880068779942878,[6500|0|0]
65,6500,1.6720691919326782,1.1533201932907104,-0.0290374662727117,-0.3779526054859161,0.9435383677482604,3.8044638633728023,4.12109375,0,"['A1', 'B2', 'F2']",6.1,90,0.0,0.0884480905210824,[6600|0|0]
66,6600,1.67246675491333,1.1532478332519531,-0.0285946242511272,-0.3776349425315857,0.9327943921089172,3.814919471740722,4.12109375,0,"['A1', 'B2', 'F2']",6.1,90,0.0,0.0890475914425786,[6700|0|0]
67,6700,1.671879529953003,1.153149962425232,-0.0290697813034057,-0.378170907497406,0.9499003887176514,3.805176258087158,4.12109375,0,"['A1', 'B2', 'F2']",6.1,90,0.0,0.0898092909089591,[6800|0|0]
68,6800,1.6721186637878418,1.1527388095855713,-0.0288502369076013,-0.3655798435211181,0.9431168437004088,3.790669918060303,4.12109375,0,"['A1', 'B2', 'F2']",6.1,90,0.0,0.0903331529043881,[6900|0|0]
69,6900,1.6722384691238403,1.153305172920227,-0.0289213228970766,-0.3715063631534576,0.9341448545455932,3.801782131195069,4.12109375,0,"['A1', 'B2', 'F2']",6.1,90,0.0,0.0909163972470746,[7000|0|0]
70,7000,1.6717827320098877,1.1529831886291504,-0.0290195867419242,-0.363224059343338,0.9406797289848328,3.776608943939209,4.12109375,0,"['A1', 'B2', 'F2']",6.1,90,0.0,0.0914829887965512,[7100|0|0]
71,7100,1.672505259513855,1.1532769203186035,-0.0285435765981674,-0.3721751570701599,0.9255275130271912,3.77715802192688,4.12109375,0,"['A1', 'B2', 'F2']",6.1,90,0.0,0.0923967228696478,[7200|0|0]
72,7200,1.6722699403762815,1.153254508972168,-0.0291425380855798,-0.3748664855957031,0.9297299981117249,3.7890992164611816,4.12109375,0,"['A1', 'B2', 'F2']",6.1,90,0.0,0.0930406422965644,[7300|0|0]
73,7300,1.6721519231796265,1.1530101299285889,-0.028790894895792,-0.3693878054618835,0.9346333146095276,3.78459358215332,4.12109375,0,"['A1', 'B2', 'F2']",6.1,90,0.0,0.0934848293163783,[7400|0|0]
74,7400,1.6723694801330566,1.1532968282699585,-0.0291573125869035,-0.3748638331890106,0.9301306009292604,3.762648105621338,4.12109375,0,"['A1', 'B2', 'F2']",6.1,90,0.0,0.0939984331435539,[7500|0|0]
75,7500,1.6720818281173706,1.1531925201416016,-0.0286737289279699,-0.3750202357769012,0.9470269083976746,3.775501728057861,4.12109375,0,"['A1', 'B2', 'F2']",6.1,90,0.0,0.0945706892251793,[7600|0|0]
76,7600,1.6721863746643066,1.153028130531311,-0.0289040394127368,-0.381510853767395,0.9455311894416808,3.79619812965393,4.12109375,0,"['A1', 'B2', 'F2']",6.1,90,0.0,0.0948723460564318,[7700|0|0]
77,7700,1.6718175411224363,1.1530530452728271,-0.0291878432035446,-0.3736474812030792,0.9537559151649476,3.8118643760681152,4.12109375,0,"['A1', 'B2', 'F2']",6.1,90,0.0,0.0953383970382247,[7800|0|0]
78,7800,1.6720330715179443,1.1531823873519895,-0.0291614737361669,-0.3793925344944,0.948380172252655,3.81322193145752,4.12109375,0,"['A1', 'B2', 'F2']",6.1,90,0.0,0.0955911381580284,[7900|0|0]
79,7900,1.6722346544265747,1.153124451637268,-0.0292325504124164,-0.3796824514865875,0.9421820640563964,3.822820425033569,4.12109375,0,"['A1', 'B2', 'F2']",6.1,90,0.0,0.0958125972061589,[8000|0|0]
80,8000,1.6719622611999512,1.1529260873794556,-0.0291513428092002,-0.3713661432266235,0.952692687511444,3.81857967376709,4.12109375,0,"['A1', 'B2', 'F2']",6.1,90,0.0,0.0961592110020586,[8100|0|0]
81,8100,1.672010898590088,1.1527594327926636,-0.0287311654537916,-0.3695325553417206,0.9440864324569702,3.810100555419922,4.12109375,0,"['A1', 'B2', 'F2']",6.1,90,0.0,0.096613840914203,[8200|0|0]
82,8200,1.672136902809143,1.1530834436416626,-0.0290405210107564,-0.3770520687103271,0.938703179359436,3.813825845718384,4.12109375,0,"['A1', 'B2', 'F2']",6.1,90,0.0,0.0970792020149772,[8300|0|0]
83,8300,1.6723291873931885,1.1534638404846191,-0.0290599837899208,-0.3867253363132477,0.9375157952308656,3.8296377658844,4.12109375,0,"['A1', 'B2', 'F2']",6.1,90,0.0,0.0975058797846883,[8400|0|0]
84,8400,1.6722277402877808,1.1528451442718506,-0.0290204063057899,-0.367932915687561,0.9418134689331056,3.837343454360962,4.12109375,0,"['A1', 'B2', 'F2']",6.1,90,0.0,0.0981340858783708,[8500|0|0]
85,8500,1.672110676765442,1.1532115936279297,-0.0290973298251628,-0.3810626864433288,0.9407172203063964,3.816248893737793,4.12109375,0,"['A1', 'B2', 'F2']",6.1,90,0.0,0.0985263947192932,[8600|0|0]
86,8600,1.6722947359085083,1.1532180309295654,-0.028913015499711,-0.3777220249176025,0.9384579062461852,3.803625345230103,4.12109375,0,"['A1', 'B2', 'F2']",6.1,90,0.0,0.098786953690671,[8700|0|0]
87,8700,1.672362208366394,1.1531753540039062,-0.0286786817014217,-0.3819129765033722,0.9354337453842164,3.81279969215393,4.12109375,0,"['A1', 'B2', 'F2']",6.1,90,0.0,0.0990345141511197,[8800|0|0]
88,8800,1.6722254753112793,1.153243064880371,-0.0290752369910478,-0.3771315813064575,0.942930281162262,3.835156202316284,4.12109375,0,"['A1', 'B2', 'F2']",6.1,90,0.0,0.0994594103606616,[8900|0|0]
89,8900,1.6721352338790894,1.1532652378082275,-0.0288096610456705,-0.3741450011730194,0.9475297927856444,3.821589231491089,4.12109375,0,"['A1', 'B2', 'F2']",6.1,90,0.0,0.0997407744265558,[9000|0|0]
90,9000,1.6719558238983154,1.1528011560440063,-0.0286404676735401,-0.3657815754413605,0.9564483165740968,3.8389413356781006,4.12109375,0,"['A1', 'B2', 'F2']",6.1,90,0.0,0.1002663086521366,[9100|0|0]
91,9100,1.6722339391708374,1.1531833410263062,-0.0290367528796196,-0.3710839748382568,0.9452861547470092,3.808460712432861,4.12109375,0,"['A1', 'B2', 'F2']",6.1,90,0.0,0.1008831193443777,[9200|0|0]
92,9200,1.672165870666504,1.1531559228897097,-0.0289977490901947,-0.3688163757324219,0.9492021203041076,3.8125503063201904,4.12109375,0,"['A1', 'B2', 'F2']",6.1,90,0.0,0.1009662239235905,[9300|0|0]
93,9300,1.6721855401992798,1.1529037952423096,-0.02883174829185,-0.3642193973064422,0.949412167072296,3.810732126235962,4.12109375,0,"['A1', 'B2', 'F2']",6.1,90,0.0,0.1012687326113237,[9400|0|0]
94,9400,1.6722012758255005,1.153037190437317,-0.0291086956858634,-0.3656169176101684,0.9441086053848268,3.8100266456604,4.12109375,0,"['A1', 'B2', 'F2']",6.1,90,0.0,0.1015765340847354,[9500|0|0]
95,9500,1.6720337867736816,1.152944564819336,-0.0286110769957304,-0.3695035576820373,0.9535543322563172,3.798872470855713,4.12109375,0,"['A1', 'B2', 'F2']",6.1,90,0.0,0.1021096911426042,[9600|0|0]
96,9600,1.6720983982086182,1.1531559228897097,-0.0285829827189445,-0.3769090175628662,0.9525079131126404,3.783486604690552,4.12109375,0,"['A1', 'B2', 'F2']",6.1,90,0.0,0.1023324828835299,[9700|0|0]
97,9700,1.6718937158584597,1.1528578996658323,-0.0290571972727775,-0.3683976829051971,0.9608054161071776,3.789763927459717,4.12109375,0,"['A1', 'B2', 'F2']",6.1,90,0.0,0.1029287983616986,[9800|0|0]
98,9800,1.6721947193145752,1.153140902519226,-0.0290137771517038,-0.3801211714744568,0.9588698148727416,3.781511068344116,4.12109375,0,"['A1', 'B2', 'F2']",6.1,90,0.0,0.1033442246518351,[9900|0|0]
99,9900,1.6724913120269775,1.1531034708023071,-0.0292386952787637,-0.3721981048583984,0.946084439754486,3.771461725234986,4.12109375,0,"['A1', 'B2', 'F2']",6.1,90,0.0,0.1037183323026013,[10000|0|0]
100,10000,1.6722304821014404,1.1531623601913452,-0.0286899656057357,-0.3719190061092376,0.9548011422157288,3.772359848022461,4.12109375,0,"['A1', 'B2', 'F2']",6.1,90,0.0,0.1043287456578438,[10100|0|0]
101,10100,1.6719045639038086,1.1533567905426023,-0.0290528275072574,-0.3721131384372711,0.9615235924720764,3.755488872528076,4.12109375,0,"['A1', 'B2', 'F2']",6.1,90,0.0,0.1048538119323402,[10200|0|0]
102,10200,1.671919584274292,1.1532657146453855,-0.0290012806653976,-0.3740941882133484,0.9538080096244812,3.778375387191773,4.12109375,0,"['A1', 'B2', 'F2']",6.1,90,0.0,0.1049595356642504,[10300|0|0]
103,10300,1.6722562313079834,1.1532634496688845,-0.0288986228406429,-0.376534640789032,0.942351460456848,3.8207154273986816,4.12109375,0,"['A1', 'B2', 'F2']",6.1,90,0.0,0.1053114944464894,[10400|0|0]
104,10400,1.6720647811889648,1.153035044670105,-0.0285323616117239,-0.3686447441577911,0.9464293718338012,3.8089401721954346,4.12109375,0,"['A1', 'B2', 'F2']",6.1,90,0.0,0.1057836906761957,[10500|0|0]
105,10500,1.6721960306167605,1.153268814086914,-0.0286111291497945,-0.3731144666671753,0.945700466632843,3.7936196327209473,4.12109375,0,"['A1', 'B2', 'F2']",6.1,90,0.0,0.1060631166549192,[10600|0|0]
106,10600,1.6723768711090088,1.1531763076782229,-0.0290135648101568,-0.3651519417762756,0.9481011629104614,3.8111634254455566,4.12109375,0,"['A1', 'B2', 'F2']",6.1,90,0.0,0.1065139105989966,[10700|0|0]
107,10700,1.672355055809021,1.1527386903762815,-0.0288728605955839,-0.3542906045913696,0.9533006548881532,3.809780359268189,4.12109375,0,"['A1', 'B2', 'F2']",6.1,90,0.0,0.1069741089108907,[10800|0|0]
108,10800,1.6720885038375854,1.153096079826355,-0.0290157496929168,-0.3678685128688812,0.9594904184341432,3.83735466003418,4.12109375,0,"['A1', 'B2', 'F2']",6.1,90,0.0,0.1074422909979428,[10900|0|0]
109,10900,1.672214388847351,1.152862310409546,-0.028686573728919,-0.3702540993690491,0.9568109512329102,3.847686052322388,4.12109375,0,"['A1', 'B2', 'F2']",6.1,90,0.0,0.1078651999611877,[11000|0|0]
110,11000,1.6720912456512451,1.1528805494308472,-0.0287676118314266,-0.3747867047786712,0.9564172625541688,3.8407697677612314,4.12109375,0,"['A1', 'B2', 'F2']",6.1,90,0.0,0.1080137397965964,[11100|0|0]
111,11100,1.6722151041030884,1.152829885482788,-0.0287827663123607,-0.3794534802436828,0.954087495803833,3.8522794246673584,4.12109375,0,"['A1', 'B2', 'F2']",6.1,90,0.0,0.1081484149985392,[11200|0|0]
112,11200,1.672395944595337,1.1532835960388184,-0.0285905823111534,-0.3873520493507385,0.9513818025588988,3.850288391113281,4.12109375,0,"['A1', 'B2', 'F2']",6.1,90,0.0,0.1086732875950901,[11300|0|0]
113,11300,1.672365665435791,1.1530523300170898,-0.0286495629698038,-0.3723394274711609,0.9592182636260986,3.845223903656006,4.12109375,0,"['A1', 'B2', 'F2']",6.1,90,0.0,0.1089138692203314,[11400|0|0]
114,11400,1.672480225563049,1.1533957719802856,-0.0286559164524078,-0.3780523240566253,0.9580841064453124,3.84932541847229,4.12109375,0,"['A1', 'B2', 'F2']",6.1,90,0.0,0.1092759697196164,[11500|0|0]
115,11500,1.6722124814987185,1.152823805809021,-0.0288025438785552,-0.3622962832450866,0.9639233946800232,3.826148748397827,4.12109375,0,"['A1', 'B2', 'F2']",6.1,90,0.0,0.1099242997182701,[11600|0|0]
116,11600,1.6723127365112305,1.1531647443771362,-0.0289015751332044,-0.3678449392318725,0.9545137882232666,3.8090081214904794,4.12109375,0,"['A1', 'B2', 'F2']",6.1,90,0.0,0.1102932134807671,[11700|0|0]
117,11700,1.6719366312026978,1.152962565422058,-0.0288249626755714,-0.3634457588195801,0.964382827281952,3.812646389007568,4.12109375,0,"['A1', 'B2', 'F2']",6.1,90,0.0,0.1107270348744852,[11800|0|0]
118,11800,1.6725441217422483,1.1529825925827026,-0.0290403421968221,-0.3601404726505279,0.945554792881012,3.829981803894043,4.12109375,0,"['A1', 'B2', 'F2']",6.1,90,0.0,0.1113718869357996,[11900|0|0]
119,11900,1.6722197532653809,1.153137445449829,-0.0286215785890817,-0.3722515106201172,0.9495211243629456,3.8433024883270255,4.12109375,0,"['A1', 'B2', 'F2']",6.1,90,0.0,0.1119237540198067,[12000|0|0]
120,12000,1.6719216108322144,1.15290629863739,-0.0288745928555727,-0.3664605021476745,0.9623907804489136,3.8203940391540527,4.12109375,0,"['A1', 'B2', 'F2']",6.1,90,0.0,0.1123779940206906,[12100|0|0]
121,12100,1.6720911264419556,1.15312659740448,-0.0291956532746553,-0.3696288466453552,0.9580627679824828,3.824162483215332,4.12109375,0,"['A1', 'B2', 'F2']",6.1,90,0.0,0.112802666696323,[12200|0|0]
122,12200,1.6720190048217771,1.1531082391738892,-0.0291028562933206,-0.3670981228351593,0.9542784690856934,3.80225133895874,4.12109375,0,"['A1', 'B2', 'F2']",6.1,90,0.0,0.1129216197646836,[12300|0|0]
123,12300,1.6720842123031616,1.1528414487838743,-0.0290440935641527,-0.3644299507141113,0.95164155960083,3.814477205276489,4.12109375,0,"['A1', 'B2', 'F2']",6.1,90,0.0,0.1132024794915436,[12400|0|0]
124,12400,1.6722983121871948,1.1531217098236084,-0.0288128890097141,-0.3608794510364532,0.9412130117416382,3.819722414016724,4.12109375,0,"['A1', 'B2', 'F2']",6.1,90,0.0,0.1136241909530062,[12500|0|0]
125,12500,1.6723071336746216,1.1527047157287598,-0.0288749169558286,-0.3530629873275757,0.9510629177093506,3.837169647216797,4.12109375,0,"['A1', 'B2', 'F2']",6.1,90,0.0,0.1140458654244628,[12600|0|0]
126,12600,1.672233819961548,1.1532385349273682,-0.0289270132780075,-0.3724833130836487,0.9508960843086244,3.8338370323181152,4.12109375,0,"['A1', 'B2', 'F2']",6.1,90,0.0,0.1145872080739115,[12700|0|0]
127,12700,1.6721141338348389,1.1530286073684692,-0.0292837582528591,-0.3696840405464172,0.9553801417350768,3.835318326950073,4.12109375,0,"['A1', 'B2', 'F2']",6.1,90,0.0,0.1150180924272985,[12800|0|0]
128,12800,1.6723055839538574,1.153439164161682,-0.0288518257439136,-0.3777737617492676,0.9457263946533204,3.83253026008606,4.12109375,0,"['A1', 'B2', 'F2']",6.1,90,0.0,0.1156440123269737,[12900|0|0]
129,12900,1.67235004901886,1.1532096862792969,-0.0288556423038244,-0.38013955950737,0.9379279017448424,3.835707664489746,4.12109375,0,"['A1', 'B2', 'F2']",6.1,90,0.0,0.1158777895855752,[13000|0|0]
130,13000,1.6722816228866575,1.1530240774154663,-0.0289163962006568,-0.3721741139888763,0.936633050441742,3.84104585647583,4.12109375,0,"['A1', 'B2', 'F2']",6.1,90,0.0,0.1160847287599259,[13100|0|0]
131,13100,1.6720304489135742,1.152922749519348,-0.0293282102793455,-0.3734888434410095,0.9457657933235168,3.806290864944458,4.12109375,0,"['A1', 'B2', 'F2']",6.1,90,0.0,0.116577624836896,[13200|0|0]
132,13200,1.6721596717834473,1.152849793434143,-0.028856623917818,-0.3762756288051605,0.9411494135856628,3.7910330295562735,4.12109375,0,"['A1', 'B2', 'F2']",6.1,90,0.0,0.1170720081263034,[13300|0|0]
133,13300,1.6722511053085327,1.1530753374099731,-0.02916045114398,-0.3803288042545318,0.9340549111366272,3.779603719711304,4.12109375,0,"['A1', 'B2', 'F2']",6.1,90,0.0,0.1174612910027571,[13400|0|0]
134,13400,1.6720540523529053,1.153149962425232,-0.0289070028811693,-0.3788771331310272,0.9320257902145386,3.78360915184021,4.12109375,0,"['A1', 'B2', 'F2']",6.1,90,0.0,0.1177908889125588,[13500|0|0]
135,13500,1.6719266176223757,1.152657389640808,-0.0286678969860076,-0.3603876829147339,0.9433737397193908,3.7826409339904794,4.12109375,0,"['A1', 'B2', 'F2']",6.1,90,0.0,0.1183530625401876,[13600|0|0]
136,13600,1.6722819805145264,1.1531548500061035,-0.0291714072227478,-0.3735456168651581,0.9366649985313416,3.785702228546143,4.12109375,0,"['A1', 'B2', 'F2']",6.1,90,0.0,0.1191450676908399,[13700|0|0]
137,13700,1.6723748445510864,1.1532931327819824,-0.029037931933999,-0.3791223168373108,0.939058005809784,3.8273308277130127,4.12109375,0,"['A1', 'B2', 'F2']",6.1,90,0.0,0.1193585191094287,[13800|0|0]
138,13800,1.6719646453857422,1.1530416011810305,-0.0291149877011775,-0.3757250607013702,0.9572368860244752,3.83587384223938,4.12109375,0,"['A1', 'B2', 'F2']",6.1,90,0.0,0.119845827115501,[13900|0|0]
139,13900,1.6721662282943726,1.1526165008544922,-0.0287913717329502,-0.3589172959327698,0.9462385773658752,3.828978300094605,4.12109375,0,"['A1', 'B2', 'F2']",6.1,90,0.0,0.1204168553561042,[14000|0|0]
140,14000,1.6725859642028809,1.1530333757400513,-0.0288402028381824,-0.3689418137073517,0.9370447993278505,3.84765100479126,4.12109375,0,"['A1', 'B2', 'F2']",6.1,90,0.0,0.1210104439172637,[14100|0|0]
141,14100,1.672005534172058,1.153014898300171,-0.028631480410695,-0.3698721826076507,0.9542168378829956,3.842936992645264,4.12109375,0,"['A1', 'B2', 'F2']",6.1,90,0.0,0.1216275383089103,[14200|0|0]
142,14200,1.672091722488403,1.1528300046920776,-0.0288071688264608,-0.3580249845981598,0.9501364827156068,3.817124366760254,4.12109375,0,"['A1', 'B2', 'F2']",6.1,90,0.0,0.121896760320682,[14300|0|0]
143,14300,1.6722087860107422,1.152604103088379,-0.0288261696696281,-0.3466239869594574,0.9481595754623412,3.804075002670288,4.12109375,0,"['A1', 'B2', 'F2']",6.1,90,0.0,0.1221519003505815,[14400|0|0]
144,14400,1.6724258661270142,1.153068780899048,-0.0285099297761917,-0.3683721125125885,0.942504584789276,3.81945276260376,4.12109375,0,"['A1', 'B2', 'F2']",6.1,90,0.0,0.1227544423945996,[14500|0|0]
145,14500,1.6724039316177368,1.1530647277832031,-0.0284632667899131,-0.3765910565853119,0.942616879940033,3.819049596786499,4.12109375,0,"['A1', 'B2', 'F2']",6.1,90,0.0,0.1228061626491786,[14600|0|0]
146,14600,1.6720949411392212,1.152790904045105,-0.0288256928324699,-0.3682122826576233,0.9527044296264648,3.7999444007873535,4.12109375,0,"['A1', 'B2', 'F2']",6.1,90,0.0,0.1233555324624034,[14700|0|0]
147,14700,1.6718833446502686,1.1530460119247437,-0.0289959199726581,-0.3780155479907989,0.953873872756958,3.790925025939941,4.12109375,0,"['A1', 'B2', 'F2']",6.1,90,0.0,0.1237281319573675,[14800|0|0]
148,14800,1.6720975637435913,1.153229594230652,-0.0291014611721038,-0.387069970369339,0.9424742460250854,3.7717416286468506,4.12109375,0,"['A1', 'B2', 'F2']",6.1,90,0.0,0.1240293482048825,[14900|0|0]
149,14900,1.6722452640533447,1.153319001197815,-0.0286174435168504,-0.3934361040592193,0.9365968108177184,3.8030014038085938,4.12109375,0,"['A1', 'B2', 'F2']",6.1,90,0.0,0.1245432373737464,[15000|0|0]
150,15000,1.6720150709152222,1.1533455848693848,-0.0291465148329734,-0.3876156210899353,0.943810760974884,3.798160314559937,4.12109375,0,"['A1', 'B2', 'F2']",6.1,90,0.0,0.1251208289508811,[15100|0|0]
151,15100,1.6723880767822266,1.1534178256988523,-0.0291660763323307,-0.3881860375404358,0.933238685131073,3.798844814300537,4.12109375,0,"['A1', 'B2', 'F2']",6.1,90,0.0,0.1255012691781429,[15200|0|0]
152,15200,1.6721004247665403,1.1526658535003662,-0.0286669824272394,-0.3725140690803528,0.9451254606246948,3.797820568084717,4.12109375,0,"['A1', 'B2', 'F2']",6.1,90,0.0,0.1264485286967142,[15300|0|0]
153,15300,1.6721287965774536,1.152666449546814,-0.0288395881652832,-0.3719832301139831,0.94940584897995,3.811689376831055,4.12109375,0,"['A1', 'B2', 'F2']",6.1,90,0.0,0.1266234516961496,[15400|0|0]
154,15400,1.6722415685653689,1.1530953645706177,-0.0289137419313192,-0.3790732324123382,0.942027747631073,3.822328567504883,4.12109375,0,"['A1', 'B2', 'F2']",6.1,90,0.0,0.1270731008926575,[15500|0|0]
155,15500,1.6720857620239258,1.1529890298843384,-0.029071632772684,-0.3717864751815796,0.9437551498413086,3.830031394958496,4.12109375,0,"['A1', 'B2', 'F2']",6.1,90,0.0,0.1273190932942665,[15600|0|0]
156,15600,1.6723506450653076,1.1531178951263428,-0.0288253091275692,-0.3762228488922119,0.931648850440979,3.8281192779541016,4.12109375,0,"['A1', 'B2', 'F2']",6.1,90,0.0,0.1277030784689169,[15700|0|0]
157,15700,1.6721357107162476,1.1530519723892212,-0.0284841768443584,-0.3761120736598968,0.93893963098526,3.839808702468872,4.12109375,0,"['A1', 'B2', 'F2']",6.1,90,0.0,0.1281116293425226,[15800|0|0]
158,15800,1.6723641157150269,1.1526362895965576,-0.0289212185889482,-0.3662015199661255,0.935538113117218,3.826911687850952,4.12109375,0,"['A1', 'B2', 'F2']",6.1,90,0.0,0.1287565840030206,[15900|0|0]
159,15900,1.6724199056625366,1.1530104875564575,-0.0290012061595916,-0.3745843470096588,0.929321587085724,3.850703716278076,4.12109375,0,"['A1', 'B2', 'F2']",6.1,90,0.0,0.1291432810975194,[16000|0|0]
160,16000,1.672258377075195,1.1529403924942017,-0.0289010480046272,-0.3702662885189056,0.933540403842926,3.832207679748535,4.12109375,0,"['A1', 'B2', 'F2']",6.1,90,0.0,0.1293458556721506,[16100|0|0]
161,16100,1.6719539165496826,1.153190851211548,-0.0289230160415172,-0.3773013949394226,0.9366326332092284,3.832721710205078,4.12109375,0,"['A1', 'B2', 'F2']",6.1,90,0.0,0.1297407080183954,[16200|0|0]
162,16200,1.6721192598342896,1.1531645059585571,-0.028845589607954,-0.378976821899414,0.9348527193069458,3.8375611305236816,4.12109375,0,"['A1', 'B2', 'F2']",6.1,90,0.0,0.1299251729926698,[16300|0|0]
163,16300,1.6721785068511963,1.15325129032135,-0.0287174079567194,-0.3803341388702392,0.9354659914970398,3.849639892578125,4.12109375,0,"['A1', 'B2', 'F2']",6.1,90,0.0,0.1300909206030628,[16400|0|0]
164,16400,1.6721709966659546,1.1529477834701538,-0.0291137564927339,-0.3756259977817535,0.9372313618659972,3.8521125316619873,4.12109375,0,"['A1', 'B2', 'F2']",6.1,90,0.0,0.1305901850356096,[16500|0|0]
165,16500,1.6721768379211426,1.1529098749160769,-0.0288697909563779,-0.3698236346244812,0.9421438574790956,3.856599569320679,4.12109375,0,"['A1', 'B2', 'F2']",6.1,90,0.0,0.1308371473033022,[16600|0|0]
166,16600,1.6720832586288452,1.1530154943466189,-0.0291154123842716,-0.3747032284736633,0.9432359337806702,3.847421407699585,4.12109375,0,"['A1', 'B2', 'F2']",6.1,90,0.0,0.1311204182582118,[16700|0|0]
167,16700,1.672099232673645,1.1530771255493164,-0.029082715511322,-0.3723551034927368,0.9374985098838806,3.848377227783203,4.12109375,0,"['A1', 'B2', 'F2']",6.1,90,0.0,0.1311919910236601,[16800|0|0]
168,16800,1.6720672845840454,1.1527867317199707,-0.0288395695388317,-0.3610336780548095,0.9360068440437316,3.8539340496063232,4.12109375,0,"['A1', 'B2', 'F2']",6.1,90,0.0,0.1315720820923389,[16900|0|0]
169,16900,1.6723517179489136,1.1528124809265137,-0.0289102867245674,-0.3623313307762146,0.9255467057228088,3.872676134109497,4.12109375,0,"['A1', 'B2', 'F2']",6.1,90,0.0,0.1318663035753176,[17000|0|0]
170,17000,1.6721640825271606,1.1531939506530762,-0.0287093427032232,-0.371448814868927,0.9371164441108704,3.8717057704925537,4.12109375,0,"['A1', 'B2', 'F2']",6.1,90,0.0,0.1323365212945648,[17100|0|0]
171,17100,1.6722888946533203,1.1526916027069092,-0.0288536883890628,-0.3584153354167938,0.9391202330589294,3.8652615547180176,4.12109375,0,"['A1', 'B2', 'F2']",6.1,90,0.0,0.1328738919328353,[17200|0|0]
172,17200,1.6722877025604248,1.153345823287964,-0.0288540553301572,-0.3761549592018127,0.9365946650505066,3.816232681274414,4.12109375,0,"['A1', 'B2', 'F2']",6.1,90,0.0,0.1335281137028848,[17300|0|0]
173,17300,1.6721166372299194,1.1533998250961304,-0.0287418831139802,-0.372490257024765,0.9428578019142152,3.808998107910156,4.12109375,0,"['A1', 'B2', 'F2']",6.1,90,0.0,0.1337396843735087,[17400|0|0]
174,17400,1.6721432209014893,1.1531751155853271,-0.0290217790752649,-0.3638468086719513,0.944165289402008,3.788532733917236,4.12109375,0,"['A1', 'B2', 'F2']",6.1,90,0.0,0.1340996049272188,[17500|0|0]
175,17500,1.6722699403762815,1.1533596515655518,-0.0289367977529764,-0.3646989166736603,0.9417569041252136,3.8013975620269775,4.12109375,0,"['A1', 'B2', 'F2']",6.1,90,0.0,0.1343390484036951,[17600|0|0]
176,17600,1.671971082687378,1.1530101299285889,-0.0288864318281412,-0.3599877655506134,0.952011227607727,3.812103033065796,4.12109375,0,"['A1', 'B2', 'F2']",6.1,90,0.0,0.1348016692195979,[17700|0|0]
177,17700,1.6722480058670044,1.1530706882476809,-0.0287703499197959,-0.3607570230960846,0.9492031931877136,3.816281318664551,4.12109375,0,"['A1', 'B2', 'F2']",6.1,90,0.0,0.1351079840362012,[17800|0|0]
178,17800,1.6723401546478271,1.1534398794174194,-0.0285784248262643,-0.3723516464233398,0.9389511942863464,3.7782866954803462,4.12109375,0,"['A1', 'B2', 'F2']",6.1,90,0.0,0.1355341632932602,[17900|0|0]
179,17900,1.672204852104187,1.1532917022705078,-0.0289192628115415,-0.3641710579395294,0.9557192921638488,3.724812269210816,4.12109375,0,"['A1', 'B2', 'F2']",6.1,90,0.0,0.1359296803945215,[18000|0|0]
180,18000,1.6725842952728271,1.1530543565750122,-0.0296651776880025,-0.3493752479553222,0.9399899244308472,3.7972118854522714,4.12109375,0,"['A1', 'B2', 'F2']",6.1,90,0.0,0.136799564927275,[18100|0|0]
181,18100,1.6733591556549072,1.1532015800476074,-0.0287558138370513,-0.3214174807071686,0.9139651656150818,3.723445892333984,4.12109375,0,"['A1', 'B2', 'F2']",6.1,90,0.0,0.1380033198757662,[18200|0|0]
182,18200,1.673546552658081,1.1528414487838743,-0.0293775610625743,-0.3181580305099487,0.9302628636360168,3.6040191650390634,4.12109375,0,"['A1', 'B2', 'F2']",6.1,90,0.0,0.1387458707335275,[18300|0|0]
183,18300,1.673702359199524,1.1532270908355713,-0.0298433136194944,-0.3230641186237335,0.9318979382514954,3.501321315765381,4.12109375,0,"['A1', 'B2', 'F2']",6.1,90,0.0,0.1393703072112183,[18400|0|0]
184,18400,1.6738873720169067,1.1529990434646606,-0.0295814145356416,-0.2780245542526245,0.929526388645172,3.429405212402344,4.12109375,0,"['A1', 'B2', 'F2']",6.1,90,0.0,0.1397637871676304,[18500|0|0]
185,18500,1.6734243631362915,1.1531434059143066,-0.0292623545974493,-0.2902432680130005,0.9376502633094788,3.373817205429077,4.12109375,0,"['A1', 'B2', 'F2']",6.1,90,0.0,0.1403443188072123,[18600|0|0]
186,18600,1.673192024230957,1.1535797119140625,-0.0286089126020669,-0.3108652234077453,0.9361506700515748,3.3124334812164307,4.12109375,0,"['A1', 'B2', 'F2']",6.1,90,0.0,0.1411636665561469,[18700|0|0]
187,18700,1.6702052354812622,1.1536040306091309,-0.0271599106490612,-0.2939158678054809,0.9721357822418212,3.253164052963257,4.12109375,0,"['A1', 'B2', 'F2']",6.1,90,0.0,0.1444834715344624,[18800|0|0]
188,18800,1.6665823459625244,1.154013752937317,-0.0254509318619966,-0.3153632581233978,0.9988622665405272,3.2048377990722656,4.12109375,0,"['A1', 'B2', 'F2']",6.1,90,0.0,0.1485101090083146,[18900|0|0]
189,18900,1.6627318859100342,1.1548047065734863,-0.0229666791856288,-0.3364092707633972,1.000190258026123,3.165682315826416,4.12109375,0,"['A1', 'B2', 'F2']",6.1,90,0.0,0.1531601801508277,[19000|0|0]
190,19000,1.6559830904006958,1.1559165716171265,-0.0189300067722797,-0.3514043092727661,1.0236021280288696,3.1284666061401367,4.12109375,0,"['A1', 'B2', 'F2']",6.1,90,0.0,0.1611022962967191,[19100|0|0]
191,19100,1.649433135986328,1.156997561454773,-0.015492096543312,-0.3583629727363586,1.0377109050750732,3.1096200942993164,4.12109375,0,"['A1', 'B2', 'F2']",6.1,90,0.0,0.1685782356090617,[19200|0|0]
192,19200,1.6406515836715698,1.1577413082122805,-0.0099850771948695,-0.3389073312282562,1.050988793373108,3.1098978519439697,4.12109375,0,"['A1', 'B2', 'F2']",6.1,90,0.0,0.1789703519671603,[19300|0|0]
193,19300,1.6270517110824585,1.159442901611328,-0.0024319416843354,-0.3431295156478882,1.093974232673645,3.0976431369781494,4.12109375,0,"['A1', 'B2', 'F2']",6.1,90,0.0,0.1946196909492463,[19400|0|0]
194,19400,1.610538363456726,1.16149640083313,0.0067639593034982,-0.3550148606300354,1.129799723625183,3.0866801738739014,4.12109375,0,"['A1', 'B2', 'F2']",6.1,90,0.0,0.2136321106753165,[19500|0|0]
195,19500,1.592047095298767,1.1641508340835571,0.0172707792371511,-0.3762382268905639,1.1615716218948364,3.065214872360229,4.12109375,0,"['A1', 'B2', 'F2']",6.1,90,0.0,0.2350649424781541,[19600|0|0]
196,19600,1.5725891590118408,1.1671572923660278,0.028600038960576,-0.3981764614582062,1.179634690284729,3.052561044692993,4.12109375,0,"['A1', 'B2', 'F2']",6.1,90,0.0,0.257780624326409,[19700|0|0]
197,19700,1.5514816045761108,1.170284390449524,0.0410227142274379,-0.3989512622356415,1.1943871974945068,3.063420534133911,4.12109375,0,"['A1', 'B2', 'F2']",6.1,90,0.0,0.2824713200935803,[19800|0|0]
198,19800,1.5271782875061035,1.1735457181930542,0.0544847622513771,-0.3907021582126617,1.225495457649231,3.066035509109497,4.12109375,0,"['A1', 'B2', 'F2']",6.1,90,0.0,0.3104447756587205,[19900|0|0]
199,19900,1.506029725074768,1.176496982574463,0.0670401602983474,-0.3895070850849151,1.220671772956848,3.131263971328736,4.12109375,0,"['A1', 'B2', 'F2']",6.1,90,0.0,0.335215921665293,[20000|0|0]
200,20000,1.4921398162841797,1.1783794164657593,0.0749521628022193,-0.3934012651443481,1.2130213975906372,3.0994017124176025,4.12109375,0,"['A1', 'B2', 'F2']",6.1,90,0.0,0.3513116635614356,[20100|0|0]
201,20101,1.4702837467193604,1.1817004680633545,0.0873244926333427,-0.4099055528640747,1.215108036994934,3.141807079315185,4.12109375,0,"['A1', 'B2', 'F2']",6.1,90,0.0,0.3766452717921282,[20200|0|0]
202,20200,1.6717289686203003,1.152551770210266,-0.0291350204497575,-0.3427607417106628,1.0028793811798096,3.3753886222839355,4.12109375,0,"['A1', 'B2', 'F2']",6.1,90,0.0,0.6111503723780267,[20300|0|0]
203,20300,1.671710729598999,1.1525261402130127,-0.0294083431363105,-0.3584111630916595,0.9900935888290404,3.5072836875915527,4.12109375,0,"['A1', 'B2', 'F2']",6.1,90,0.0,0.6114254993480638,[20400|0|0]
204,20400,1.6718083620071411,1.1524676084518433,-0.029110973700881,-0.3752381801605224,0.9879027009010316,3.5846614837646484,4.12109375,0,"['A1', 'B2', 'F2']",6.1,90,0.0,0.6117439120288931,[20500|0|0]
205,20501,1.671660542488098,1.1525367498397827,-0.029525713995099,-0.3952475786209106,0.9844585657119752,3.676459789276123,4.12109375,0,"['A1', 'B2', 'F2']",6.1,90,0.0,0.6121896032374494,[20600|0|0]
206,20601,1.6716814041137695,1.1531047821044922,-0.0295573193579912,-0.4198766946792602,0.9810490608215332,3.7201545238494873,4.12109375,0,"['A1', 'B2', 'F2']",6.1,90,0.0,0.6127588964484929,[20700|0|0]
207,20700,1.6720291376113892,1.1532137393951416,-0.029589407145977,-0.4264060854911804,0.9691694378852844,3.757439613342285,4.12109375,0,"['A1', 'B2', 'F2']",6.1,90,0.0,0.6131247104759581,[20800|0|0]
208,20801,1.6717915534973145,1.1529903411865234,-0.02955356054008,-0.4209877550601959,0.9748891592025756,3.763236284255981,4.12109375,0,"['A1', 'B2', 'F2']",6.1,90,0.0,0.6134527927065478,[20900|0|0]
209,20901,1.672023892402649,1.15302574634552,-0.0286775883287191,-0.4331775307655334,0.9624300599098206,3.75891637802124,4.12109375,0,"['A1', 'B2', 'F2']",6.1,90,0.0,0.6143597448592506,[21000|0|0]
210,21001,1.6720536947250366,1.1529377698898315,-0.0294107813388109,-0.4271363914012909,0.965273141860962,3.802288055419922,4.12109375,0,"['A1', 'B2', 'F2']",6.1,90,0.0,0.6150987983249908,[21100|0|0]
211,21102,1.6716870069503784,1.1526985168457031,-0.0294901076704263,-0.4196466505527496,0.9710578918457032,3.790196418762207,4.12109375,0,"['A1', 'B2', 'F2']",6.1,90,0.0,0.6155437641777212,[21200|0|0]
212,21201,1.672016143798828,1.152642846107483,-0.0295280497521162,-0.4152855575084686,0.9631941914558412,3.808616161346436,4.12109375,0,"['A1', 'B2', 'F2']",6.1,90,0.0,0.6158797253327143,[21300|0|0]
213,21301,1.672075867652893,1.1527223587036133,-0.0294377300888299,-0.4126080870628357,0.9624596238136292,3.812730550765991,4.12109375,0,"['A1', 'B2', 'F2']",6.1,90,0.0,0.6160140638352514,[21400|0|0]
214,21401,1.6721938848495483,1.152838110923767,-0.0292787700891494,-0.4124040603637695,0.9600223898887634,3.809466600418091,4.12109375,0,"['A1', 'B2', 'F2']",6.1,90,0.0,0.6162433996516328,[21500|0|0]
215,21501,1.6719852685928345,1.1526154279708862,-0.0285864435136318,-0.4111518561840057,0.9643936157226562,3.784744262695313,4.12109375,0,"['A1', 'B2', 'F2']",6.1,90,0.0,0.6169999870737044,[21600|0|0]
216,21602,1.6718575954437256,1.1529929637908936,-0.0295370295643806,-0.4069775640964508,0.9679276943206788,3.816143989562988,4.12109375,0,"['A1', 'B2', 'F2']",6.1,90,0.0,0.6180307380466703,[21700|0|0]
217,21702,1.671755313873291,1.1530826091766355,-0.0294509995728731,-0.4034371972084045,0.9757033586502076,3.818226337432861,4.12109375,0,"['A1', 'B2', 'F2']",6.1,90,0.0,0.6181916696292581,[21800|0|0]
218,21801,1.6718112230300903,1.1532078981399536,-0.0295141637325286,-0.4034670889377594,0.9719281792640686,3.819457769393921,4.12109375,0,"['A1', 'B2', 'F2']",6.1,90,0.0,0.6183427089261588,[21900|0|0]
219,21902,1.6718624830245972,1.1533606052398682,-0.0295747648924589,-0.3977366089820862,0.9561582207679749,3.807061910629273,4.12109375,0,"['A1', 'B2', 'F2']",6.1,90,0.0,0.6185148122264934,[22000|0|0]
220,22002,1.6717129945755005,1.1531881093978882,-0.0294368676841259,-0.3869022727012634,0.9607473611831664,3.808051824569702,4.12109375,0,"['A1', 'B2', 'F2']",6.1,90,0.0,0.6187814904070402,[22100|0|0]
221,22100,1.6719812154769895,1.1528176069259644,-0.0294563844799995,-0.3765159845352173,0.9524238109588624,3.8263792991638175,4.12109375,0,"['A1', 'B2', 'F2']",6.1,90,0.0,0.6192393063515185,[22200|0|0]
222,22200,1.6720802783966064,1.1529606580734253,-0.0296631008386611,-0.374760627746582,0.9393941760063172,3.841326713562012,4.12109375,0,"['A1', 'B2', 'F2']",6.1,90,0.0,0.6195095076575317,[22300|0|0]
223,22300,1.6719155311584473,1.1530424356460571,-0.0297566894441843,-0.3799604475498199,0.9413795471191406,3.837963342666626,4.12109375,0,"['A1', 'B2', 'F2']",6.1,90,0.0,0.6197158763832398,[22400|0|0]
224,22400,1.6720492839813232,1.1527655124664309,-0.029279176145792,-0.3714532256126404,0.9286515712738036,3.837211132049561,4.12109375,0,"['A1', 'B2', 'F2']",6.1,90,0.0,0.6202838510439274,[22500|0|0]
225,22500,1.671995759010315,1.1526615619659424,-0.0295766629278659,-0.3738380670547485,0.92464280128479,3.83240008354187,4.12109375,0,"['A1', 'B2', 'F2']",6.1,90,0.0,0.6206034899254513,[22600|0|0]
226,22600,1.6716394424438477,1.153337836265564,-0.0296234525740146,-0.3828018605709076,0.932088315486908,3.832303285598755,4.12109375,0,"['A1', 'B2', 'F2']",6.1,90,0.0,0.6213693213003991,[22700|0|0]
227,22700,1.6717116832733154,1.1530909538269043,-0.0291669219732284,-0.3707909882068634,0.9338657855987548,3.825564384460449,4.12109375,0,"['A1', 'B2', 'F2']",6.1,90,0.0,0.6218933345305899,[22800|0|0]
228,22800,1.6719070672988892,1.1526873111724854,-0.0292974170297384,-0.359584242105484,0.9345144629478456,3.825194835662842,4.12109375,0,"['A1', 'B2', 'F2']",6.1,90,0.0,0.6223603797850239,[22900|0|0]
229,22900,1.6719937324523926,1.1531294584274292,-0.0293285734951496,-0.3698253035545349,0.9337383508682252,3.840749740600586,4.12109375,0,"['A1', 'B2', 'F2']",6.1,90,0.0,0.6228120165519319,[23000|0|0]
230,23000,1.6717067956924438,1.1532801389694214,-0.0296520981937646,-0.3648584485054016,0.946658730506897,3.848278999328613,4.12109375,0,"['A1', 'B2', 'F2']",6.1,90,0.0,0.6232699527489712,[23100|0|0]
231,23100,1.672111749649048,1.1529743671417236,-0.029154447838664,-0.3528133034706116,0.9417045712471008,3.8637523651123047,4.12109375,0,"['A1', 'B2', 'F2']",6.1,90,0.0,0.6239806847614167,[23200|0|0]
232,23200,1.6717010736465454,1.1527280807495115,-0.029218390583992,-0.3547562062740326,0.950793981552124,3.862692832946777,4.12109375,0,"['A1', 'B2', 'F2']",6.1,90,0.0,0.6244638001106866,[23300|0|0]
233,23300,1.672141194343567,1.153254508972168,-0.02974858507514,-0.3597480654716491,0.9383917450904846,3.863097906112671,4.12109375,0,"['A1', 'B2', 'F2']",6.1,90,0.0,0.6253309443316784,[23400|0|0]
234,23400,1.671900987625122,1.1530753374099731,-0.0290320105850696,-0.3609219789505005,0.949778974056244,3.877271890640259,4.12109375,0,"['A1', 'B2', 'F2']",6.1,90,0.0,0.6261076558071342,[23500|0|0]
235,23500,1.6716618537902832,1.152955174446106,-0.0293465498834848,-0.3593722283840179,0.9506588578224182,3.8674821853637695,4.12109375,0,"['A1', 'B2', 'F2']",6.1,90,0.0,0.6265206438203956,[23600|0|0]
236,23600,1.6715866327285769,1.1531696319580078,-0.0296266563236713,-0.3670369684696197,0.9493165016174316,3.8532984256744394,4.12109375,0,"['A1', 'B2', 'F2']",6.1,90,0.0,0.6268813512508283,[23700|0|0]
237,23700,1.6719261407852173,1.1527698040008545,-0.0291884019970893,-0.3537453711032867,0.9315470457077026,3.849367618560791,4.12109375,0,"['A1', 'B2', 'F2']",6.1,90,0.0,0.6275648678714113,[23800|0|0]
238,23800,1.6718661785125732,1.1525365114212036,-0.0296615716069936,-0.3459571599960327,0.9345269203186036,3.843021869659424,4.12109375,0,"['A1', 'B2', 'F2']",6.1,90,0.0,0.628095820205993,[23900|0|0]
239,23900,1.6718144416809082,1.1526297330856323,-0.0291819982230663,-0.3504366278648376,0.9308023452758788,3.831443548202514,4.12109375,0,"['A1', 'B2', 'F2']",6.1,90,0.0,0.6285871018045097,[24000|0|0]
240,24000,1.671882390975952,1.1531990766525269,-0.0293298996984958,-0.3655519187450409,0.9306013584136964,3.827051162719727,4.12109375,0,"['A1', 'B2', 'F2']",6.1,90,0.0,0.6291792538544896,[24100|0|0]
241,24100,1.6720415353775024,1.1531974077224731,-0.02912506647408,-0.3665823638439178,0.937597632408142,3.860205888748169,4.12109375,0,"['A1', 'B2', 'F2']",6.1,90,0.0,0.6294386500296674,[24200|0|0]
242,24200,1.672144651412964,1.153014063835144,-0.0296666249632835,-0.3689441978931427,0.9265645146369934,3.854191541671753,4.12109375,0,"['A1', 'B2', 'F2']",6.1,90,0.0,0.6300196263588053,[24300|0|0]
243,24300,1.6716766357421875,1.1530182361602783,-0.0292505677789449,-0.3673084080219269,0.9433081150054932,3.848476648330689,4.12109375,0,"['A1', 'B2', 'F2']",6.1,90,0.0,0.6306458528809432,[24400|0|0]
244,24400,1.6716538667678833,1.1531898975372314,-0.0296858772635459,-0.3690014183521271,0.943272352218628,3.8202714920043945,4.12109375,0,"['A1', 'B2', 'F2']",6.1,90,0.0,0.631114340236068,[24500|0|0]
245,24500,1.671621322631836,1.1530451774597168,-0.0296298451721668,-0.3660759031772613,0.9485734105110168,3.8184566497802734,4.12109375,0,"['A1', 'B2', 'F2']",6.1,90,0.0,0.6312729044719197,[24600|0|0]
246,24600,1.6718473434448242,1.1528195142745972,-0.0292879994958639,-0.363608181476593,0.9416062235832214,3.806570529937744,4.12109375,0,"['A1', 'B2', 'F2']",6.1,90,0.0,0.6317407375056285,[24700|0|0]
247,24700,1.6719993352890017,1.1532809734344482,-0.0294596496969461,-0.3692897856235504,0.9367433190345764,3.8132030963897705,4.12109375,0,"['A1', 'B2', 'F2']",6.1,90,0.0,0.632256014002704,[24800|0|0]
248,24800,1.6718579530715942,1.1526659727096558,-0.029561074450612,-0.3522568345069885,0.939945638179779,3.843296766281128,4.12109375,0,"['A1', 'B2', 'F2']",6.1,90,0.0,0.632895155460873,[24900|0|0]
249,24900,1.671730637550354,1.15291166305542,-0.029224906116724,-0.3579036593437195,0.9485161900520324,3.85837197303772,4.12109375,0,"['A1', 'B2', 'F2']",6.1,90,0.0,0.6333305657692713,[25000|0|0]
250,25000,1.672028660774231,1.153152346611023,-0.029534388333559,-0.372053325176239,0.934650421142578,3.875229358673096,4.12109375,0,"['A1', 'B2', 'F2']",6.1,90,0.0,0.6338230347108755,[25100|0|0]
251,25100,1.6720521450042725,1.1530630588531494,-0.0295523237437009,-0.370451271533966,0.940246045589447,3.866111040115357,4.12109375,0,"['A1', 'B2', 'F2']",6.1,90,0.0,0.6339170851851098,[25200|0|0]
252,25200,1.671780705451965,1.1531767845153809,-0.0295209493488073,-0.3716161549091339,0.950753092765808,3.859817743301392,4.12109375,0,"['A1', 'B2', 'F2']",6.1,90,0.0,0.6342130536115705,[25300|0|0]
253,25300,1.6718477010726929,1.1529250144958496,-0.0290202908217906,-0.3557142913341522,0.9490002989768982,3.8465404510498047,4.12109375,0,"['A1', 'B2', 'F2']",6.1,90,0.0,0.6347774431194513,[25400|0|0]
254,25400,1.6715164184570312,1.1532180309295654,-0.0297007579356431,-0.3629326522350311,0.9547954201698304,3.8739171028137207,4.12109375,0,"['A1', 'B2', 'F2']",6.1,90,0.0,0.6355890109200089,[25500|0|0]
255,25500,1.6719931364059448,1.1529734134674072,-0.0290500335395336,-0.3585440516471863,0.9381110668182372,3.877169370651245,4.12109375,0,"['A1', 'B2', 'F2']",6.1,90,0.0,0.636431946235025,[25600|0|0]
256,25600,1.672202229499817,1.1529775857925415,-0.0295776333659887,-0.3590088188648224,0.932105541229248,3.86005973815918,4.12109375,0,"['A1', 'B2', 'F2']",6.1,90,0.0,0.6369994838171087,[25700|0|0]
257,25700,1.6722182035446167,1.1525228023529053,-0.0294266548007726,-0.343781441450119,0.9366374611854552,3.864357233047485,4.12109375,0,"['A1', 'B2', 'F2']",6.1,90,0.0,0.6374789394190463,[25800|0|0]
258,25800,1.6720614433288574,1.153105616569519,-0.029443722218275,-0.358214795589447,0.9503833055496216,3.843276262283325,4.12109375,0,"['A1', 'B2', 'F2']",6.1,90,0.0,0.6380827088063725,[25900|0|0]
259,25900,1.6716432571411133,1.1531517505645752,-0.0294950231909751,-0.3574464023113251,0.9567925930023192,3.867965459823608,4.12109375,0,"['A1', 'B2', 'F2']",6.1,90,0.0,0.6385065481897713,[26000|0|0]
260,26000,1.671870231628418,1.1525909900665283,-0.0295711196959018,-0.3421234488487243,0.9456826448440552,3.851647138595581,4.12109375,0,"['A1', 'B2', 'F2']",6.1,90,0.0,0.6391162697919136,[26100|0|0]
261,26100,1.6716922521591189,1.1528630256652832,-0.0293316431343555,-0.3501721918582916,0.9478801488876344,3.853617191314697,4.12109375,0,"['A1', 'B2', 'F2']",6.1,90,0.0,0.6395200383915001,[26200|0|0]
262,26200,1.6719257831573486,1.1527986526489258,-0.0291230678558349,-0.348909854888916,0.94874906539917,3.84679126739502,4.12109375,0,"['A1', 'B2', 'F2']",6.1,90,0.0,0.6398397011187286,[26300|0|0]
263,26300,1.6720227003097534,1.153024673461914,-0.0294738449156284,-0.3606728017330169,0.9515559673309326,3.849065065383911,4.12109375,0,"['A1', 'B2', 'F2']",6.1,90,0.0,0.6402680968330062,[26400|0|0]
264,26400,1.6720051765441897,1.1526620388031006,-0.0293422322720289,-0.3537123501300812,0.951154887676239,3.857767820358277,4.12109375,0,"['A1', 'B2', 'F2']",6.1,90,0.0,0.6406542740799894,[26500|0|0]
265,26500,1.671744465827942,1.1527115106582642,-0.0293969567865133,-0.3556472659111023,0.9636009931564332,3.8766798973083496,4.12109375,0,"['A1', 'B2', 'F2']",6.1,90,0.0,0.6409252211495532,[26600|0|0]
266,26600,1.6716866493225098,1.1526780128479004,-0.0292047560214996,-0.3519458770751953,0.9577599167823792,3.850348949432373,4.12109375,0,"['A1', 'B2', 'F2']",6.1,90,0.0,0.6411287057575004,[26700|0|0]
267,26700,1.6720353364944458,1.152600884437561,-0.0294611789286136,-0.3524780571460724,0.9517940878868104,3.860499858856201,4.12109375,0,"['A1', 'B2', 'F2']",6.1,90,0.0,0.6415683467961296,[26800|0|0]
268,26800,1.6719155311584473,1.1530930995941162,-0.0295073501765728,-0.3634470999240875,0.9594221115112304,3.870613813400269,4.12109375,0,"['A1', 'B2', 'F2']",6.1,90,0.0,0.6420770322225127,[26900|0|0]
269,26900,1.671952486038208,1.1530402898788452,-0.0296443607658147,-0.3614631295204162,0.9553067088127136,3.83257508277893,4.12109375,0,"['A1', 'B2', 'F2']",6.1,90,0.0,0.6422284469864215,[27000|0|0]
270,27000,1.672155261039734,1.1527010202407837,-0.0294854529201984,-0.3529522120952606,0.955602765083313,3.8529696464538574,4.12109375,0,"['A1', 'B2', 'F2']",6.1,90,0.0,0.6426544438079502,[27100|0|0]
271,27100,1.671941876411438,1.1529648303985596,-0.0293385814875364,-0.3787145018577575,0.9554594159126282,3.875208854675293,4.12109375,0,"['A1', 'B2', 'F2']",6.1,90,0.0,0.6430241734614417,[27200|0|0]
272,27200,1.6717760562896729,1.152931809425354,-0.0293156541883945,-0.3864257633686065,0.9581435918807985,3.8956029415130615,4.12109375,0,"['A1', 'B2', 'F2']",6.1,90,0.0,0.6431947969020927,[27300|0|0]
273,27300,1.6720311641693115,1.1529529094696045,-0.0289998762309551,-0.3960059881210327,0.948516011238098,3.8831164836883545,4.12109375,0,"['A1', 'B2', 'F2']",6.1,90,0.0,0.6436012953160204,[27400|0|0]
274,27400,1.6721251010894775,1.1526482105255127,-0.029280561953783,-0.3904874622821808,0.9494524598121644,3.903162956237793,4.12109375,0,"['A1', 'B2', 'F2']",6.1,90,0.0,0.6440260894620492,[27500|0|0]
275,27500,1.671812653541565,1.15252947807312,-0.0291816443204879,-0.3826605677604675,0.9598063826560974,3.901862382888794,4.12109375,0,"['A1', 'B2', 'F2']",6.1,90,0.0,0.6443746659437923,[27600|0|0]
276,27600,1.671865940093994,1.1524205207824707,-0.0292977802455425,-0.3769167065620422,0.9578498601913452,3.8931870460510254,4.12109375,0,"['A1', 'B2', 'F2']",6.1,90,0.0,0.6445425906321015,[27700|0|0]
277,27700,1.6719555854797363,1.1530009508132937,-0.0295125264674425,-0.3961652517318725,0.9516778588294984,3.860548973083496,4.12109375,0,"['A1', 'B2', 'F2']",6.1,90,0.0,0.6451679315436738,[27800|0|0]
278,27800,1.6721587181091309,1.1529067754745483,-0.0292124785482883,-0.3884662985801697,0.947901725769043,3.8328254222869873,4.12109375,0,"['A1', 'B2', 'F2']",6.1,90,0.0,0.6455423118494342,[27900|0|0]
279,27900,1.6723034381866455,1.1531988382339478,-0.029606994241476,-0.3863688707351684,0.9467124938964844,3.8286871910095215,4.12109375,0,"['A1', 'B2', 'F2']",6.1,90,0.0,0.6460540609954376,[28000|0|0]
280,28000,1.6718075275421145,1.1530817747116089,-0.0295881871134042,-0.3768202066421509,0.9590438604354858,3.852358818054199,4.12109375,0,"['A1', 'B2', 'F2']",6.1,90,0.0,0.6465639481826546,[28100|0|0]
281,28100,1.672141671180725,1.1529982089996338,-0.0296415723860263,-0.3673728704452514,0.9484432339668274,3.860591411590576,4.12109375,0,"['A1', 'B2', 'F2']",6.1,90,0.0,0.6469124954345086,[28200|0|0]
282,28200,1.6722500324249268,1.1530046463012695,-0.0293873455375432,-0.3637299835681915,0.942661464214325,3.861281633377075,4.12109375,0,"['A1', 'B2', 'F2']",6.1,90,0.0,0.6471889278649268,[28300|0|0]
283,28300,1.6721251010894775,1.1529319286346436,-0.0292555205523967,-0.3622690439224243,0.9520000219345092,3.869335651397705,4.12109375,0,"['A1', 'B2', 'F2']",6.1,90,0.0,0.6473845640689523,[28400|0|0]
284,28400,1.6719403266906738,1.153147578239441,-0.0295061226934194,-0.3730830252170563,0.948450803756714,3.857899904251098,4.12109375,0,"['A1', 'B2', 'F2']",6.1,90,0.0,0.6477633090538533,[28500|0|0]
285,28500,1.6717143058776855,1.153036117553711,-0.0295164491981267,-0.3720119595527649,0.957436978816986,3.855029821395874,4.12109375,0,"['A1', 'B2', 'F2']",6.1,90,0.0,0.64801553024461,[28600|0|0]
286,28600,1.671783685684204,1.1526578664779663,-0.0293148010969162,-0.3600919842720032,0.956188440322876,3.871255874633789,4.12109375,0,"['A1', 'B2', 'F2']",6.1,90,0.0,0.6484497529876536,[28700|0|0]
287,28700,1.672171711921692,1.152961015701294,-0.0290284249931573,-0.3685811460018158,0.9418964982032776,3.868900775909424,4.12109375,0,"['A1', 'B2', 'F2']",6.1,90,0.0,0.6490193801335896,[28800|0|0]
288,28800,1.6719486713409424,1.1529052257537842,-0.0290499702095985,-0.3647140860557556,0.946988582611084,3.864881038665772,4.12109375,0,"['A1', 'B2', 'F2']",6.1,90,0.0,0.6492502996331034,[28900|0|0]
289,28900,1.6717545986175537,1.153060793876648,-0.0296653304249048,-0.364071249961853,0.950697898864746,3.855759382247925,4.12109375,0,"['A1', 'B2', 'F2']",6.1,90,0.0,0.6499140268793399,[29000|0|0]
290,29000,1.6718497276306152,1.152736783027649,-0.0295332670211792,-0.3581377565860748,0.9436228275299072,3.86324954032898,4.12109375,0,"['A1', 'B2', 'F2']",6.1,90,0.0,0.6502766193530604,[29100|0|0]
291,29100,1.6720640659332275,1.1529000997543335,-0.029567027464509,-0.3607397377490997,0.9377838373184204,3.864015817642212,4.12109375,0,"['A1', 'B2', 'F2']",6.1,90,0.0,0.6505481944416004,[29200|0|0]
292,29200,1.6720277070999146,1.1531612873077393,-0.0292515456676483,-0.3657210767269134,0.936811089515686,3.85664176940918,4.12109375,0,"['A1', 'B2', 'F2']",6.1,90,0.0,0.6509593752618783,[29300|0|0]
293,29300,1.6718822717666626,1.1526697874069214,-0.0293146204203367,-0.3581438064575195,0.9459270238876344,3.872271060943604,4.12109375,0,"['A1', 'B2', 'F2']",6.1,90,0.0,0.6514758072642647,[29400|0|0]
294,29400,1.6718342304229736,1.153071045875549,-0.0294138584285974,-0.3605795800685882,0.9410674571990968,3.878672122955322,4.12109375,0,"['A1', 'B2', 'F2']",6.1,90,0.0,0.6518919376664617,[29500|0|0]
295,29500,1.6720153093338013,1.152807593345642,-0.0290660392493009,-0.3565216660499573,0.9362544417381288,3.854341745376587,4.12109375,0,"['A1', 'B2', 'F2']",6.1,90,0.0,0.6523643516681038,[29600|0|0]
296,29600,1.671985387802124,1.1527748107910156,-0.0294584054499864,-0.3500652611255646,0.9351359605789183,3.888104677200317,4.12109375,0,"['A1', 'B2', 'F2']",6.1,90,0.0,0.6527592202910484,[29700|0|0]
297,29700,1.6717971563339231,1.1529357433319092,-0.0294317211955785,-0.3640763163566589,0.9403625726699828,3.8759605884552,4.12109375,0,"['A1', 'B2', 'F2']",6.1,90,0.0,0.653008303445382,[29800|0|0]
298,29800,1.6720869541168213,1.1528500318527222,-0.0290897376835346,-0.3665456771850586,0.9370233416557312,3.8517496585845943,4.12109375,0,"['A1', 'B2', 'F2']",6.1,90,0.0,0.6534646826026043,[29900|0|0]
299,29900,1.6717528104782104,1.1532450914382937,-0.0292843896895647,-0.3714174628257751,0.9542373418807985,3.848897695541382,4.12109375,0,"['A1', 'B2', 'F2']",6.1,90,0.0,0.6540175057667602,[30000|0|0]
