,time.ms,stateEstimate.x,stateEstimate.y,stateEstimate.z,stabilizer.roll,stabilizer.pitch,stabilizer.yaw,pm.vbat,drone_id,node_name,wind_speed,global_wind_direction,relative_wind_direction,travel_dist,waiting_time
0,0,1.6721489429473877,1.1531732082366943,0.0,-0.3617794513702392,0.9459580183029176,3.793130874633789,4.12109375,0,"['A1', 'B2', 'F2']",6.1,0,450.0,0.0,[6100|0|0]
1,100,1.6720706224441528,1.1529968976974487,0.0,-0.357006698846817,0.947030544281006,3.792490959167481,4.12109375,0,"['A1', 'B2', 'F2']",6.1,0,450.0,0.0001929235793676,[6200|0|0]
2,198,1.672136306762695,1.1528854370117188,0.0,-0.3560500741004944,0.948780357837677,3.800089120864868,4.12109375,0,"['A1', 'B2', 'F2']",6.1,0,450.0,0.0003222986703464,[6300|0|0]
3,298,1.6722358465194702,1.153149962425232,0.0,-0.3686612546443939,0.943024516105652,3.798597574234009,4.12109375,0,"['A1', 'B2', 'F2']",6.1,0,450.0,0.0006049324573804,[6400|0|0]
4,398,1.6719295978546145,1.1529287099838257,0.0,-0.36801478266716,0.9470945596694946,3.799304962158203,4.12109375,0,"['A1', 'B2', 'F2']",6.1,0,450.0,0.0009827431077783,[6500|0|0]
5,498,1.6720691919326782,1.1533201932907104,0.0,-0.3779526054859161,0.9435383677482604,3.8044638633728014,4.12109375,0,"['A1', 'B2', 'F2']",6.1,0,450.0,0.0013983699671124,[6600|0|0]
6,598,1.67246675491333,1.1532478332519531,0.0,-0.3776349425315857,0.9327943921089172,3.814919471740722,4.12109375,0,"['A1', 'B2', 'F2']",6.1,0,450.0,0.0018024643852794,[6700|0|0]
7,698,1.671879529953003,1.153149962425232,0.0,-0.378170907497406,0.9499003887176514,3.805176258087158,4.12109375,0,"['A1', 'B2', 'F2']",6.1,0,450.0,0.0023977893828684,[6800|0|0]
8,798,1.6721186637878418,1.1527388095855713,0.0,-0.3655798435211181,0.9431168437004088,3.790669918060303,4.12109375,0,"['A1', 'B2', 'F2']",6.1,0,450.0,0.0028734275315968,[6900|0|0]
9,898,1.6722384691238403,1.153305172920227,0.0,-0.3715063631534576,0.9341448545455932,3.801782131195069,4.12109375,0,"['A1', 'B2', 'F2']",6.1,0,450.0,0.0034523236754569,[7000|0|0]
10,998,1.6717827320098877,1.1529831886291504,0.0,-0.363224059343338,0.9406797289848328,3.776608943939209,4.12109375,0,"['A1', 'B2', 'F2']",6.1,0,450.0,0.0040103292316425,[7100|0|0]
11,1098,1.672505259513855,1.1532769203186035,0.0,-0.3721751570701599,0.9255275130271912,3.77715802192688,4.12109375,0,"['A1', 'B2', 'F2']",6.1,0,450.0,0.0047902807040933,[7200|0|0]
12,1198,1.6722699403762815,1.153254508972168,0.0,-0.3748664855957031,0.9297299981117249,3.7890992164611816,4.12109375,0,"['A1', 'B2', 'F2']",6.1,0,450.0,0.0050266646395825,[7300|0|0]
13,1298,1.6721519231796265,1.1530101299285889,0.0,-0.3693878054618835,0.9346333146095276,3.78459358215332,4.12109375,0,"['A1', 'B2', 'F2']",6.1,0,450.0,0.0052980484556935,[7400|0|0]
14,1398,1.6723694801330566,1.1532968282699585,0.0,-0.3748638331890106,0.9301306009292604,3.762648105621338,4.12109375,0,"['A1', 'B2', 'F2']",6.1,0,450.0,0.0056579470065796,[7500|0|0]
15,1498,1.6720818281173706,1.1531925201416016,0.0,-0.3750202357769012,0.9470269083976746,3.775501728057861,4.12109375,0,"['A1', 'B2', 'F2']",6.1,0,450.0,0.0059639271820315,[7600|0|0]
16,1598,1.6721863746643066,1.153028130531311,0.0,-0.381510853767395,0.9455311894416808,3.79619812965393,4.12109375,0,"['A1', 'B2', 'F2']",6.1,0,450.0,0.0061587448517838,[7700|0|0]
17,1698,1.6718175411224363,1.1530530452728271,0.0,-0.3736474812030792,0.9537559151649476,3.8118643760681152,4.12109375,0,"['A1', 'B2', 'F2']",6.1,0,450.0,0.0065284189325001,[7800|0|0]
18,1798,1.6720330715179443,1.1531823873519895,0.0,-0.3793925344944,0.948380172252655,3.81322193145752,4.12109375,0,"['A1', 'B2', 'F2']",6.1,0,450.0,0.0067797806734829,[7900|0|0]
19,1898,1.6722346544265747,1.153124451637268,0.0,-0.3796824514865875,0.9421820640563964,3.822820425033569,4.12109375,0,"['A1', 'B2', 'F2']",6.1,0,450.0,0.006989523888134,[8000|0|0]
20,1998,1.6719622611999512,1.1529260873794556,0.0,-0.3713661432266235,0.952692687511444,3.81857967376709,4.12109375,0,"['A1', 'B2', 'F2']",6.1,0,450.0,0.0073264904275528,[8100|0|0]
21,2098,1.672010898590088,1.1527594327926636,0.0,-0.3695325553417206,0.9440864324569702,3.810100555419922,4.12109375,0,"['A1', 'B2', 'F2']",6.1,0,450.0,0.0075000973024688,[8200|0|0]
22,2198,1.672136902809143,1.1530834436416626,0.0,-0.3770520687103271,0.938703179359436,3.813825845718384,4.12109375,0,"['A1', 'B2', 'F2']",6.1,0,450.0,0.0078477466854523,[8300|0|0]
23,2298,1.6723291873931885,1.1534638404846191,0.0,-0.3867253363132477,0.9375157952308656,3.8296377658844,4.12109375,0,"['A1', 'B2', 'F2']",6.1,0,450.0,0.0082739803295875,[8400|0|0]
24,2398,1.6722277402877808,1.1528451442718506,0.0,-0.367932915687561,0.9418134689331056,3.837343454360962,4.12109375,0,"['A1', 'B2', 'F2']",6.1,0,450.0,0.0089009384772256,[8500|0|0]
25,2498,1.672110676765442,1.1532115936279297,0.0,-0.3810626864433288,0.9407172203063964,3.816248893737793,4.12109375,0,"['A1', 'B2', 'F2']",6.1,0,450.0,0.0092856318601076,[8600|0|0]
26,2598,1.6722947359085083,1.1532180309295654,0.0,-0.3777220249176025,0.9384579062461852,3.803625345230103,4.12109375,0,"['A1', 'B2', 'F2']",6.1,0,450.0,0.0094698035381655,[8700|0|0]
27,2698,1.672362208366394,1.1531753540039062,0.0,-0.3819129765033722,0.9354337453842164,3.81279969215393,4.12109375,0,"['A1', 'B2', 'F2']",6.1,0,450.0,0.0095496399493879,[8800|0|0]
28,2798,1.6722254753112793,1.153243064880371,0.0,-0.3771315813064575,0.942930281162262,3.835156202316284,4.12109375,0,"['A1', 'B2', 'F2']",6.1,0,450.0,0.0097022200632712,[8900|0|0]
29,2898,1.6721352338790894,1.1532652378082275,0.0,-0.3741450011730194,0.9475297927856444,3.821589231491089,4.12109375,0,"['A1', 'B2', 'F2']",6.1,0,450.0,0.0097951455969711,[9000|0|0]
30,2998,1.6719558238983154,1.1528011560440063,0.0,-0.3657815754413605,0.9564483165740968,3.8389413356781006,4.12109375,0,"['A1', 'B2', 'F2']",6.1,0,450.0,0.0102926994383632,[9100|0|0]
31,3098,1.6722339391708374,1.1531833410263062,0.0,-0.3710839748382568,0.9452861547470092,3.808460712432861,4.12109375,0,"['A1', 'B2', 'F2']",6.1,0,450.0,0.0107653657746994,[9200|0|0]
32,3198,1.672165870666504,1.1531559228897097,0.0,-0.3688163757324219,0.9492021203041076,3.8125503063201904,4.12109375,0,"['A1', 'B2', 'F2']",6.1,0,450.0,0.0108387488483378,[9300|0|0]
33,3298,1.6721855401992798,1.1529037952423096,0.0,-0.3642193973064422,0.949412167072296,3.810732126235962,4.12109375,0,"['A1', 'B2', 'F2']",6.1,0,450.0,0.0110916425831418,[9400|0|0]
34,3398,1.6722012758255005,1.153037190437317,0.0,-0.3656169176101684,0.9441086053848268,3.8100266456604,4.12109375,0,"['A1', 'B2', 'F2']",6.1,0,450.0,0.0112259626783756,[9500|0|0]
35,3498,1.6720337867736816,1.152944564819336,0.0,-0.3695035576820373,0.9535543322563172,3.798872470855713,4.12109375,0,"['A1', 'B2', 'F2']",6.1,0,450.0,0.0114173577869482,[9600|0|0]
36,3598,1.6720983982086182,1.1531559228897097,0.0,-0.3769090175628662,0.9525079131126404,3.783486604690552,4.12109375,0,"['A1', 'B2', 'F2']",6.1,0,450.0,0.0116383710703424,[9700|0|0]
37,3698,1.6718937158584597,1.1528578996658323,0.0,-0.3683976829051971,0.9608054161071776,3.789763927459717,4.12109375,0,"['A1', 'B2', 'F2']",6.1,0,450.0,0.0119999131929736,[9800|0|0]
38,3798,1.6721947193145752,1.153140902519226,0.0,-0.3801211714744568,0.9588698148727416,3.781511068344116,4.12109375,0,"['A1', 'B2', 'F2']",6.1,0,450.0,0.0124130641286163,[9900|0|0]
39,3898,1.6724913120269775,1.1531034708023071,0.0,-0.3721981048583984,0.946084439754486,3.771461725234986,4.12109375,0,"['A1', 'B2', 'F2']",6.1,0,450.0,0.0127120095592248,[10000|0|0]
40,3998,1.6722304821014404,1.1531623601913452,0.0,-0.3719190061092376,0.9548011422157288,3.772359848022461,4.12109375,0,"['A1', 'B2', 'F2']",6.1,0,450.0,0.012979404791413,[10100|0|0]
41,4098,1.6719045639038086,1.1533567905426023,0.0,-0.3721131384372711,0.9615235924720764,3.755488872528076,4.12109375,0,"['A1', 'B2', 'F2']",6.1,0,450.0,0.0133589121471224,[10200|0|0]
42,4198,1.671919584274292,1.1532657146453855,0.0,-0.3740941882133484,0.9538080096244812,3.778375387191773,4.12109375,0,"['A1', 'B2', 'F2']",6.1,0,450.0,0.01345121832559,[10300|0|0]
43,4298,1.6722562313079834,1.1532634496688845,0.0,-0.376534640789032,0.942351460456848,3.8207154273986816,4.12109375,0,"['A1', 'B2', 'F2']",6.1,0,450.0,0.0137878729786275,[10400|0|0]
44,4398,1.6720647811889648,1.153035044670105,0.0,-0.3686447441577911,0.9464293718338012,3.8089401721954346,4.12109375,0,"['A1', 'B2', 'F2']",6.1,0,450.0,0.0140859031642458,[10500|0|0]
45,4498,1.6721960306167605,1.153268814086914,0.0,-0.3731144666671753,0.945700466632843,3.7936196327209473,4.12109375,0,"['A1', 'B2', 'F2']",6.1,0,450.0,0.0143539974620814,[10600|0|0]
46,4598,1.6723768711090088,1.1531763076782229,0.0,-0.3651519417762756,0.9481011629104614,3.8111634254455566,4.12109375,0,"['A1', 'B2', 'F2']",6.1,0,450.0,0.0145571248095399,[10700|0|0]
47,4698,1.672355055809021,1.1527386903762815,0.0,-0.3542906045913696,0.9533006548881532,3.809780359268189,4.12109375,0,"['A1', 'B2', 'F2']",6.1,0,450.0,0.0149952855223749,[10800|0|0]
48,4798,1.6720885038375854,1.153096079826355,0.0,-0.3678685128688812,0.9594904184341432,3.83735466003418,4.12109375,0,"['A1', 'B2', 'F2']",6.1,0,450.0,0.0154411298589992,[10900|0|0]
49,4898,1.672214388847351,1.152862310409546,0.0,-0.3702540993690491,0.9568109512329102,3.847686052322388,4.12109375,0,"['A1', 'B2', 'F2']",6.1,0,450.0,0.0157066391355206,[11000|0|0]
50,4998,1.6720912456512451,1.1528805494308472,0.0,-0.3747867047786712,0.9564172625541688,3.840769767761232,4.12109375,0,"['A1', 'B2', 'F2']",6.1,0,450.0,0.0158311257157019,[11100|0|0]
51,5098,1.6722151041030884,1.152829885482788,0.0,-0.3794534802436828,0.954087495803833,3.8522794246673584,4.12109375,0,"['A1', 'B2', 'F2']",6.1,0,450.0,0.0159649455637288,[11200|0|0]
52,5198,1.672395944595337,1.1532835960388184,0.0,-0.3873520493507385,0.9513818025588988,3.850288391113281,4.12109375,0,"['A1', 'B2', 'F2']",6.1,0,450.0,0.0164533680778393,[11300|0|0]
53,5298,1.672365665435791,1.1530523300170898,0.0,-0.3723394274711609,0.9592182636260986,3.845223903656006,4.12109375,0,"['A1', 'B2', 'F2']",6.1,0,450.0,0.0166866078692749,[11400|0|0]
54,5398,1.672480225563049,1.1533957719802856,0.0,-0.3780523240566253,0.9580841064453124,3.84932541847229,4.12109375,0,"['A1', 'B2', 'F2']",6.1,0,450.0,0.0170486526245762,[11500|0|0]
55,5498,1.6722124814987185,1.152823805809021,0.0,-0.3622962832450866,0.9639233946800232,3.826148748397827,4.12109375,0,"['A1', 'B2', 'F2']",6.1,0,450.0,0.0176801842429892,[11600|0|0]
56,5598,1.6723127365112305,1.1531647443771362,0.0,-0.3678449392318725,0.9545137882232666,3.80900812149048,4.12109375,0,"['A1', 'B2', 'F2']",6.1,0,450.0,0.0180355575323094,[11700|0|0]
57,5698,1.6719366312026978,1.152962565422058,0.0,-0.3634457588195801,0.964382827281952,3.812646389007568,4.12109375,0,"['A1', 'B2', 'F2']",6.1,0,450.0,0.0184625604983213,[11800|0|0]
58,5798,1.6725441217422483,1.1529825925827026,0.0,-0.3601404726505279,0.945554792881012,3.829981803894043,4.12109375,0,"['A1', 'B2', 'F2']",6.1,0,450.0,0.0190703810662581,[11900|0|0]
59,5898,1.6722197532653809,1.153137445449829,0.0,-0.3722515106201172,0.9495211243629456,3.8433024883270255,4.12109375,0,"['A1', 'B2', 'F2']",6.1,0,450.0,0.0194298171791385,[12000|0|0]
60,5998,1.6719216108322144,1.15290629863739,0.0,-0.3664605021476745,0.9623907804489136,3.8203940391540527,4.12109375,0,"['A1', 'B2', 'F2']",6.1,0,450.0,0.0198070674400466,[12100|0|0]
61,6098,1.6720911264419556,1.15312659740448,0.0,-0.3696288466453552,0.9580627679824828,3.824162483215332,4.12109375,0,"['A1', 'B2', 'F2']",6.1,0,450.0,0.0200850370224245,[12200|0|0]
62,6198,1.6720190048217771,1.1531082391738892,0.0,-0.3670981228351593,0.9542784690856934,3.80225133895874,4.12109375,0,"['A1', 'B2', 'F2']",6.1,0,450.0,0.020159458475834,[12300|0|0]
63,6298,1.6720842123031616,1.1528414487838743,0.0,-0.3644299507141113,0.95164155960083,3.814477205276489,4.12109375,0,"['A1', 'B2', 'F2']",6.1,0,450.0,0.0204341021137229,[12400|0|0]
64,6398,1.6722983121871948,1.1531217098236084,0.0,-0.3608794510364532,0.9412130117416382,3.819722414016724,4.12109375,0,"['A1', 'B2', 'F2']",6.1,0,450.0,0.0207867847057739,[12500|0|0]
65,6498,1.6723071336746216,1.1527047157287598,0.0,-0.3530629873275757,0.9510629177093506,3.837169647216797,4.12109375,0,"['A1', 'B2', 'F2']",6.1,0,450.0,0.0212038720992289,[12600|0|0]
66,6598,1.672233819961548,1.1532385349273682,0.0,-0.3724833130836487,0.9508960843086244,3.8338370323181152,4.12109375,0,"['A1', 'B2', 'F2']",6.1,0,450.0,0.0217427021627253,[12700|0|0]
67,6698,1.6721141338348389,1.1530286073684692,0.0,-0.3696840405464172,0.9553801417350768,3.835318326950073,4.12109375,0,"['A1', 'B2', 'F2']",6.1,0,450.0,0.0219843513897299,[12800|0|0]
68,6798,1.6723055839538574,1.153439164161682,0.0,-0.3777737617492676,0.9457263946533204,3.83253026008606,4.12109375,0,"['A1', 'B2', 'F2']",6.1,0,450.0,0.0224373525249661,[12900|0|0]
69,6898,1.67235004901886,1.1532096862792969,0.0,-0.38013955950737,0.9379279017448424,3.835707664489746,4.12109375,0,"['A1', 'B2', 'F2']",6.1,0,450.0,0.022671098627628,[13000|0|0]
70,6998,1.6722816228866575,1.1530240774154663,0.0,-0.3721741139888763,0.936633050441742,3.84104585647583,4.12109375,0,"['A1', 'B2', 'F2']",6.1,0,450.0,0.0228689187123026,[13100|0|0]
71,7098,1.6720304489135742,1.152922749519348,0.0,-0.3734888434410095,0.9457657933235168,3.806290864944458,4.12109375,0,"['A1', 'B2', 'F2']",6.1,0,450.0,0.0231397612999549,[13200|0|0]
72,7198,1.6721596717834473,1.152849793434143,0.0,-0.3762756288051605,0.9411494135856628,3.7910330295562735,4.12109375,0,"['A1', 'B2', 'F2']",6.1,0,450.0,0.0232881565170835,[13300|0|0]
73,7298,1.6722511053085327,1.1530753374099731,0.0,-0.3803288042545318,0.9340549111366272,3.779603719711304,4.12109375,0,"['A1', 'B2', 'F2']",6.1,0,450.0,0.0235315290186994,[13400|0|0]
74,7398,1.6720540523529053,1.153149962425232,0.0,-0.3788771331310272,0.9320257902145386,3.78360915184021,4.12109375,0,"['A1', 'B2', 'F2']",6.1,0,450.0,0.0237422391518774,[13500|0|0]
75,7498,1.6719266176223757,1.152657389640808,0.0,-0.3603876829147339,0.9433737397193908,3.78264093399048,4.12109375,0,"['A1', 'B2', 'F2']",6.1,0,450.0,0.0242510294411914,[13600|0|0]
76,7598,1.6722819805145264,1.1531548500061035,0.0,-0.3735456168651581,0.9366649985313416,3.785702228546143,4.12109375,0,"['A1', 'B2', 'F2']",6.1,0,450.0,0.0248623800772077,[13700|0|0]
77,7698,1.6723748445510864,1.1532931327819824,0.0,-0.3791223168373108,0.939058005809784,3.8273308277130127,4.12109375,0,"['A1', 'B2', 'F2']",6.1,0,450.0,0.0250289509491842,[13800|0|0]
78,7798,1.6719646453857422,1.1530416011810305,0.0,-0.3757250607013702,0.9572368860244752,3.83587384223938,4.12109375,0,"['A1', 'B2', 'F2']",6.1,0,450.0,0.0255101281530567,[13900|0|0]
79,7898,1.6721662282943726,1.1526165008544922,0.0,-0.3589172959327698,0.9462385773658752,3.828978300094605,4.12109375,0,"['A1', 'B2', 'F2']",6.1,0,450.0,0.0259806023358498,[14000|0|0]
80,7998,1.6725859642028809,1.1530333757400513,0.0,-0.3689418137073517,0.9370447993278505,3.84765100479126,4.12109375,0,"['A1', 'B2', 'F2']",6.1,0,450.0,0.026572178960727,[14100|0|0]
81,8098,1.672005534172058,1.153014898300171,0.0,-0.3698721826076507,0.9542168378829956,3.842936992645264,4.12109375,0,"['A1', 'B2', 'F2']",6.1,0,450.0,0.0271529030229678,[14200|0|0]
82,8198,1.672091722488403,1.1528300046920776,0.0,-0.3580249845981598,0.9501364827156068,3.817124366760254,4.12109375,0,"['A1', 'B2', 'F2']",6.1,0,450.0,0.027356898297884,[14300|0|0]
83,8298,1.6722087860107422,1.152604103088379,0.0,-0.3466239869594574,0.9481595754623412,3.804075002670288,4.12109375,0,"['A1', 'B2', 'F2']",6.1,0,450.0,0.0276113298266223,[14400|0|0]
84,8398,1.6724258661270142,1.153068780899048,0.0,-0.3683721125125885,0.942504584789276,3.81945276260376,4.12109375,0,"['A1', 'B2', 'F2']",6.1,0,450.0,0.0281242130926867,[14500|0|0]
85,8498,1.6724039316177368,1.1530647277832031,0.0,-0.3765910565853119,0.942616879940033,3.819049596786499,4.12109375,0,"['A1', 'B2', 'F2']",6.1,0,450.0,0.0281465189315029,[14600|0|0]
86,8598,1.6720949411392212,1.152790904045105,0.0,-0.3682122826576233,0.9527044296264648,3.7999444007873535,4.12109375,0,"['A1', 'B2', 'F2']",6.1,0,450.0,0.0285593803554206,[14700|0|0]
87,8698,1.6718833446502686,1.1530460119247437,0.0,-0.3780155479907989,0.953873872756958,3.790925025939941,4.12109375,0,"['A1', 'B2', 'F2']",6.1,0,450.0,0.0288908213070105,[14800|0|0]
88,8798,1.6720975637435913,1.153229594230652,0.0,-0.387069970369339,0.9424742460250854,3.7717416286468506,4.12109375,0,"['A1', 'B2', 'F2']",6.1,0,450.0,0.029172942350158,[14900|0|0]
89,8898,1.6722452640533447,1.153319001197815,0.0,-0.3934361040592193,0.9365968108177184,3.8030014038085938,4.12109375,0,"['A1', 'B2', 'F2']",6.1,0,450.0,0.0293455951441653,[15000|0|0]
90,8998,1.6720150709152222,1.1533455848693848,0.0,-0.3876156210899353,0.943810760974884,3.798160314559937,4.12109375,0,"['A1', 'B2', 'F2']",6.1,0,450.0,0.0295773181953123,[15100|0|0]
91,9098,1.6723880767822266,1.1534178256988523,0.0,-0.3881860375404358,0.933238685131073,3.798844814300537,4.12109375,0,"['A1', 'B2', 'F2']",6.1,0,450.0,0.0299572551825376,[15200|0|0]
92,9198,1.6721004247665403,1.1526658535003662,0.0,-0.3725140690803528,0.9451254606246948,3.797820568084717,4.12109375,0,"['A1', 'B2', 'F2']",6.1,0,450.0,0.0307623675159572,[15300|0|0]
93,9298,1.6721287965774536,1.152666449546814,0.0,-0.3719832301139831,0.94940584897995,3.811689376831055,4.12109375,0,"['A1', 'B2', 'F2']",6.1,0,450.0,0.0307907455871719,[15400|0|0]
94,9398,1.6722415685653689,1.1530953645706177,0.0,-0.3790732324123382,0.942027747631073,3.822328567504883,4.12109375,0,"['A1', 'B2', 'F2']",6.1,0,450.0,0.0312342381112385,[15500|0|0]
95,9498,1.6720857620239258,1.1529890298843384,0.0,-0.3717864751815796,0.9437551498413086,3.830031394958496,4.12109375,0,"['A1', 'B2', 'F2']",6.1,0,450.0,0.0314228719996641,[15600|0|0]
96,9598,1.6723506450653076,1.1531178951263428,0.0,-0.3762228488922119,0.931648850440979,3.8281192779541016,4.12109375,0,"['A1', 'B2', 'F2']",6.1,0,450.0,0.0317174382506307,[15700|0|0]
97,9698,1.6721357107162476,1.1530519723892212,0.0,-0.3761120736598968,0.93893963098526,3.839808702468872,4.12109375,0,"['A1', 'B2', 'F2']",6.1,0,450.0,0.0319422550241942,[15800|0|0]
98,9798,1.6723641157150269,1.1526362895965576,0.0,-0.3662015199661255,0.935538113117218,3.826911687850952,4.12109375,0,"['A1', 'B2', 'F2']",6.1,0,450.0,0.0324165555909068,[15900|0|0]
99,9898,1.6724199056625366,1.1530104875564575,0.0,-0.3745843470096588,0.929321587085724,3.850703716278076,4.12109375,0,"['A1', 'B2', 'F2']",6.1,0,450.0,0.0327948896118941,[16000|0|0]
100,9998,1.672258377075195,1.1529403924942017,0.0,-0.3702662885189056,0.933540403842926,3.832207679748535,4.12109375,0,"['A1', 'B2', 'F2']",6.1,0,450.0,0.0329709714175448,[16100|0|0]
101,10098,1.6719539165496826,1.153190851211548,0.0,-0.3773013949394226,0.9366326332092284,3.832721710205078,4.12109375,0,"['A1', 'B2', 'F2']",6.1,0,450.0,0.0333652121824209,[16200|0|0]
102,10198,1.6721192598342896,1.1531645059585571,0.0,-0.378976821899414,0.9348527193069458,3.8375611305236816,4.12109375,0,"['A1', 'B2', 'F2']",6.1,0,450.0,0.0335326411946015,[16300|0|0]
103,10298,1.6721785068511963,1.15325129032135,0.0,-0.3803341388702392,0.9354659914970398,3.849639892578125,4.12109375,0,"['A1', 'B2', 'F2']",6.1,0,450.0,0.033637720853136,[16400|0|0]
104,10398,1.6721709966659546,1.1529477834701538,0.0,-0.3756259977817535,0.9372313618659972,3.8521125316619873,4.12109375,0,"['A1', 'B2', 'F2']",6.1,0,450.0,0.0339413206087444,[16500|0|0]
105,10498,1.6721768379211426,1.1529098749160769,0.0,-0.3698236346244812,0.9421438574790956,3.856599569320679,4.12109375,0,"['A1', 'B2', 'F2']",6.1,0,450.0,0.0339796765565801,[16600|0|0]
106,10598,1.6720832586288452,1.1530154943466189,0.0,-0.3747032284736633,0.9432359337806702,3.847421407699585,4.12109375,0,"['A1', 'B2', 'F2']",6.1,0,450.0,0.0341207883847693,[16700|0|0]
107,10698,1.672099232673645,1.1530771255493164,0.0,-0.3723551034927368,0.9374985098838806,3.848377227783203,4.12109375,0,"['A1', 'B2', 'F2']",6.1,0,450.0,0.0341844560787216,[16800|0|0]
108,10798,1.6720672845840454,1.1527867317199707,0.0,-0.3610336780548095,0.9360068440437316,3.8539340496063232,4.12109375,0,"['A1', 'B2', 'F2']",6.1,0,450.0,0.0344766020294913,[16900|0|0]
109,10898,1.6723517179489136,1.1528124809265137,0.0,-0.3623313307762146,0.9255467057228088,3.872676134109497,4.12109375,0,"['A1', 'B2', 'F2']",6.1,0,450.0,0.0347621985292734,[17000|0|0]
110,10998,1.6721640825271606,1.1531939506530762,0.0,-0.371448814868927,0.9371164441108704,3.8717057704925537,4.12109375,0,"['A1', 'B2', 'F2']",6.1,0,450.0,0.0351873175758711,[17100|0|0]
111,11098,1.6722888946533203,1.1526916027069092,0.0,-0.3584153354167938,0.9391202330589294,3.8652615547180176,4.12109375,0,"['A1', 'B2', 'F2']",6.1,0,450.0,0.0357049386011924,[17200|0|0]
112,11198,1.6722877025604248,1.153345823287964,0.0,-0.3761549592018127,0.9365946650505066,3.816232681274414,4.12109375,0,"['A1', 'B2', 'F2']",6.1,0,450.0,0.0363591602683369,[17300|0|0]
113,11298,1.6721166372299194,1.1533998250961304,0.0,-0.372490257024765,0.9428578019142152,3.808998107910156,4.12109375,0,"['A1', 'B2', 'F2']",6.1,0,450.0,0.0365385468413744,[17400|0|0]
114,11398,1.6721432209014893,1.1531751155853271,0.0,-0.3638468086719513,0.944165289402008,3.788532733917236,4.12109375,0,"['A1', 'B2', 'F2']",6.1,0,450.0,0.0367648233444399,[17500|0|0]
115,11498,1.6722699403762815,1.1533596515655518,0.0,-0.3646989166736603,0.9417569041252136,3.8013975620269775,4.12109375,0,"['A1', 'B2', 'F2']",6.1,0,450.0,0.0369886789972367,[17600|0|0]
116,11598,1.671971082687378,1.1530101299285889,0.0,-0.3599877655506134,0.952011227607727,3.812103033065796,4.12109375,0,"['A1', 'B2', 'F2']",6.1,0,450.0,0.0374485499497027,[17700|0|0]
117,11698,1.6722480058670044,1.1530706882476809,0.0,-0.3607570230960846,0.9492031931877136,3.816281318664551,4.12109375,0,"['A1', 'B2', 'F2']",6.1,0,450.0,0.0377320173330569,[17800|0|0]
118,11798,1.6723401546478271,1.1534398794174194,0.0,-0.3723516464233398,0.9389511942863464,3.778286695480346,4.12109375,0,"['A1', 'B2', 'F2']",6.1,0,450.0,0.0381125347671122,[17900|0|0]
119,11898,1.672204852104187,1.1532917022705078,0.0,-0.3641710579395294,0.9557192921638488,3.724812269210816,4.12109375,0,"['A1', 'B2', 'F2']",6.1,0,450.0,0.0383131918008348,[18000|0|0]
120,11998,1.6725842952728271,1.1530543565750122,0.0,-0.3493752479553222,0.9399899244308472,3.797211885452272,4.12109375,0,"['A1', 'B2', 'F2']",6.1,0,450.0,0.0387607519614814,[18100|0|0]
121,12098,1.6733591556549072,1.1532015800476074,0.0,-0.3214174807071686,0.9139651656150818,3.723445892333984,4.12109375,0,"['A1', 'B2', 'F2']",6.1,0,450.0,0.0395494745759665,[18200|0|0]
122,12198,1.673546552658081,1.1528414487838743,0.0,-0.3181580305099487,0.9302628636360168,3.604019165039064,4.12109375,0,"['A1', 'B2', 'F2']",6.1,0,450.0,0.0399554452201227,[18300|0|0]
123,12298,1.673702359199524,1.1532270908355713,0.0,-0.3230641186237335,0.9318979382514954,3.501321315765381,4.12109375,0,"['A1', 'B2', 'F2']",6.1,0,450.0,0.040371372461829,[18400|0|0]
124,12398,1.6738873720169067,1.1529990434646606,0.0,-0.2780245542526245,0.929526388645172,3.429405212402344,4.12109375,0,"['A1', 'B2', 'F2']",6.1,0,450.0,0.0406650310152124,[18500|0|0]
125,12498,1.6734243631362915,1.1531434059143066,0.0,-0.2902432680130005,0.9376502633094788,3.373817205429077,4.12109375,0,"['A1', 'B2', 'F2']",6.1,0,450.0,0.0411500235310271,[18600|0|0]
126,12598,1.673192024230957,1.1535797119140625,0.0,-0.3108652234077453,0.9361506700515748,3.3124334812164307,4.12109375,0,"['A1', 'B2', 'F2']",6.1,0,450.0,0.0416443354693363,[18700|0|0]
127,12698,1.6702052354812622,1.1536040306091309,0.0,-0.2939158678054809,0.9721357822418212,3.253164052963257,4.12109375,0,"['A1', 'B2', 'F2']",6.1,0,450.0,0.0446312232198609,[18800|0|0]
128,12798,1.6665823459625244,1.154013752937317,0.0,-0.3153632581233978,0.9988622665405272,3.2048377990722656,4.12109375,0,"['A1', 'B2', 'F2']",6.1,0,450.0,0.0482772074287123,[18900|0|0]
129,12898,1.6627318859100342,1.1548047065734863,0.0,-0.3364092707633972,1.000190258026123,3.165682315826416,4.12109375,0,"['A1', 'B2', 'F2']",6.1,0,450.0,0.0522080661479228,[19000|0|0]
130,12998,1.6559830904006958,1.1559165716171265,0.0,-0.3514043092727661,1.0236021280288696,3.1284666061401367,4.12109375,0,"['A1', 'B2', 'F2']",6.1,0,450.0,0.0590478384176796,[19100|0|0]
131,13098,1.649433135986328,1.156997561454773,0.0,-0.3583629727363586,1.0377109050750732,3.1096200942993164,4.12109375,0,"['A1', 'B2', 'F2']",6.1,0,450.0,0.06568639562986,[19200|0|0]
132,13198,1.6406515836715698,1.1577413082122805,0.0,-0.3389073312282562,1.050988793373108,3.1098978519439697,4.12109375,0,"['A1', 'B2', 'F2']",6.1,0,450.0,0.074499387193236,[19300|0|0]
133,13298,1.6270517110824585,1.159442901611328,0.0,-0.3431295156478882,1.093974232673645,3.0976431369781494,4.12109375,0,"['A1', 'B2', 'F2']",6.1,0,450.0,0.088205296668194,[19400|0|0]
134,13398,1.610538363456726,1.16149640083313,0.0067639593034982,-0.3550148606300354,1.129799723625183,3.0866801738739014,4.12109375,0,"['A1', 'B2', 'F2']",6.1,0,450.0,0.1061679984227076,[19500|0|0]
135,13498,1.592047095298767,1.1641508340835571,0.0172707792371511,-0.3762382268905639,1.1615716218948364,3.065214872360229,4.12109375,0,"['A1', 'B2', 'F2']",6.1,0,450.0,0.1276008302255452,[19600|0|0]
136,13598,1.5725891590118408,1.1671572923660278,0.028600038960576,-0.3981764614582062,1.179634690284729,3.052561044692993,4.12109375,0,"['A1', 'B2', 'F2']",6.1,0,450.0,0.1503165120738,[19700|0|0]
137,13698,1.5514816045761108,1.170284390449524,0.0410227142274379,-0.3989512622356415,1.1943871974945068,3.063420534133911,4.12109375,0,"['A1', 'B2', 'F2']",6.1,0,450.0,0.1750072078409713,[19800|0|0]
138,13798,1.5271782875061035,1.1735457181930542,0.0544847622513771,-0.3907021582126617,1.225495457649231,3.066035509109497,4.12109375,0,"['A1', 'B2', 'F2']",6.1,0,450.0,0.2029806634061116,[19900|0|0]
139,13898,1.506029725074768,1.176496982574463,0.0670401602983474,-0.3895070850849151,1.220671772956848,3.131263971328736,4.12109375,0,"['A1', 'B2', 'F2']",6.1,0,450.0,0.227751809412684,[20000|0|0]
140,13998,1.4921398162841797,1.1783794164657593,0.0749521628022193,-0.3934012651443481,1.2130213975906372,3.0994017124176025,4.12109375,0,"['A1', 'B2', 'F2']",6.1,0,450.0,0.2438475513088266,[20100|0|0]
141,14099,1.4702837467193604,1.1817004680633545,0.0873244926333427,-0.4099055528640747,1.215108036994934,3.141807079315185,4.12109375,0,"['A1', 'B2', 'F2']",6.1,0,450.0,0.2691811595395193,[20200|0|0]
142,14198,1.6717289686203003,1.152551770210266,0.0,-0.3427607417106628,1.0028793811798096,3.3753886222839355,4.12109375,0,"['A1', 'B2', 'F2']",6.1,0,450.0,0.4906656759891355,[20300|0|0]
143,14298,1.671710729598999,1.1525261402130127,0.0,-0.3584111630916595,0.9900935888290404,3.5072836875915527,4.12109375,0,"['A1', 'B2', 'F2']",6.1,0,450.0,0.4906971332404017,[20400|0|0]
144,14398,1.6718083620071411,1.1524676084518433,0.0,-0.3752381801605224,0.9879027009010316,3.5846614837646484,4.12109375,0,"['A1', 'B2', 'F2']",6.1,0,450.0,0.4908109666897267,[20500|0|0]
145,14499,1.671660542488098,1.1525367498397827,0.0,-0.3952475786209106,0.9844585657119752,3.676459789276123,4.12109375,0,"['A1', 'B2', 'F2']",6.1,0,450.0,0.4909741571972214,[20600|0|0]
146,14599,1.6716814041137695,1.1531047821044922,0.0,-0.4198766946792602,0.9810490608215332,3.7201545238494873,4.12109375,0,"['A1', 'B2', 'F2']",6.1,0,450.0,0.4915425724162089,[20700|0|0]
147,14698,1.6720291376113892,1.1532137393951416,0.0,-0.4264060854911804,0.9691694378852844,3.757439613342285,4.12109375,0,"['A1', 'B2', 'F2']",6.1,0,450.0,0.4919069764180426,[20800|0|0]
148,14799,1.6717915534973145,1.1529903411865234,0.0,-0.4209877550601959,0.9748891592025756,3.763236284255981,4.12109375,0,"['A1', 'B2', 'F2']",6.1,0,450.0,0.4922330944501636,[20900|0|0]
149,14899,1.672023892402649,1.15302574634552,0.0,-0.4331775307655334,0.9624300599098206,3.75891637802124,4.12109375,0,"['A1', 'B2', 'F2']",6.1,0,450.0,0.4924681154964884,[21000|0|0]
150,14999,1.6720536947250366,1.1529377698898315,0.0,-0.4271363914012909,0.965273141860962,3.802288055419922,4.12109375,0,"['A1', 'B2', 'F2']",6.1,0,450.0,0.4925610027139901,[21100|0|0]
151,15100,1.6716870069503784,1.1526985168457031,0.0,-0.4196466505527496,0.9710578918457032,3.790196418762207,4.12109375,0,"['A1', 'B2', 'F2']",6.1,0,450.0,0.4929988405186718,[21200|0|0]
152,15199,1.672016143798828,1.152642846107483,0.0,-0.4152855575084686,0.9631941914558412,3.808616161346436,4.12109375,0,"['A1', 'B2', 'F2']",6.1,0,450.0,0.4933326522861415,[21300|0|0]
153,15299,1.672075867652893,1.1527223587036133,0.0,-0.4126080870628357,0.9624596238136292,3.812730550765991,4.12109375,0,"['A1', 'B2', 'F2']",6.1,0,450.0,0.4934320967012074,[21400|0|0]
154,15399,1.6721938848495483,1.152838110923767,0.0,-0.4124040603637695,0.9600223898887634,3.809466600418091,4.12109375,0,"['A1', 'B2', 'F2']",6.1,0,450.0,0.4935974043996878,[21500|0|0]
155,15499,1.6719852685928345,1.1526154279708862,0.0,-0.4111518561840057,0.9643936157226562,3.784744262695313,4.12109375,0,"['A1', 'B2', 'F2']",6.1,0,450.0,0.4939025411560268,[21600|0|0]
156,15600,1.6718575954437256,1.1529929637908936,0.0,-0.4069775640964508,0.9679276943206788,3.816143989562988,4.12109375,0,"['A1', 'B2', 'F2']",6.1,0,450.0,0.49430108065017,[21700|0|0]
157,15700,1.671755313873291,1.1530826091766355,0.0,-0.4034371972084045,0.9757033586502076,3.818226337432861,4.12109375,0,"['A1', 'B2', 'F2']",6.1,0,450.0,0.4944370873221953,[21800|0|0]
158,15799,1.6718112230300903,1.1532078981399536,0.0,-0.4034670889377594,0.9719281792640686,3.819457769393921,4.12109375,0,"['A1', 'B2', 'F2']",6.1,0,450.0,0.4945742848372724,[21900|0|0]
159,15900,1.6718624830245972,1.1533606052398682,0.0,-0.3977366089820862,0.9561582207679749,3.807061910629273,4.12109375,0,"['A1', 'B2', 'F2']",6.1,0,450.0,0.494735365703303,[22000|0|0]
160,16000,1.6717129945755005,1.1531881093978882,0.0,-0.3869022727012634,0.9607473611831664,3.808051824569702,4.12109375,0,"['A1', 'B2', 'F2']",6.1,0,450.0,0.4949636234784471,[22100|0|0]
161,16098,1.6719812154769895,1.1528176069259644,0.0,-0.3765159845352173,0.9524238109588624,3.8263792991638175,4.12109375,0,"['A1', 'B2', 'F2']",6.1,0,450.0,0.4954210232310675,[22200|0|0]
162,16198,1.6720802783966064,1.1529606580734253,0.0,-0.374760627746582,0.9393941760063172,3.841326713562012,4.12109375,0,"['A1', 'B2', 'F2']",6.1,0,450.0,0.4955950263713636,[22300|0|0]
163,16298,1.6719155311584473,1.1530424356460571,0.0,-0.3799604475498199,0.9413795471191406,3.837963342666626,4.12109375,0,"['A1', 'B2', 'F2']",6.1,0,450.0,0.4957789535957396,[22400|0|0]
164,16398,1.6720492839813232,1.1527655124664309,0.0,-0.3714532256126404,0.9286515712738036,3.837211132049561,4.12109375,0,"['A1', 'B2', 'F2']",6.1,0,450.0,0.4960864861388006,[22500|0|0]
165,16498,1.671995759010315,1.1526615619659424,0.0,-0.3738380670547485,0.92464280128479,3.83240008354187,4.12109375,0,"['A1', 'B2', 'F2']",6.1,0,450.0,0.496203407604209,[22600|0|0]
166,16598,1.6716394424438477,1.153337836265564,0.0,-0.3828018605709076,0.932088315486908,3.832303285598755,4.12109375,0,"['A1', 'B2', 'F2']",6.1,0,450.0,0.4969678083000929,[22700|0|0]
167,16698,1.6717116832733154,1.1530909538269043,0.0,-0.3707909882068634,0.9338657855987548,3.825564384460449,4.12109375,0,"['A1', 'B2', 'F2']",6.1,0,450.0,0.4972250429710856,[22800|0|0]
168,16798,1.6719070672988892,1.1526873111724854,0.0,-0.359584242105484,0.9345144629478456,3.825194835662842,4.12109375,0,"['A1', 'B2', 'F2']",6.1,0,450.0,0.4976734872930652,[22900|0|0]
169,16898,1.6719937324523926,1.1531294584274292,0.0,-0.3698253035545349,0.9337383508682252,3.840749740600586,4.12109375,0,"['A1', 'B2', 'F2']",6.1,0,450.0,0.498124048103485,[23000|0|0]
170,16998,1.6717067956924438,1.1532801389694214,0.0,-0.3648584485054016,0.946658730506897,3.848278999328613,4.12109375,0,"['A1', 'B2', 'F2']",6.1,0,450.0,0.4984481427346423,[23100|0|0]
171,17098,1.672111749649048,1.1529743671417236,0.0,-0.3528133034706116,0.9417045712471008,3.8637523651123047,4.12109375,0,"['A1', 'B2', 'F2']",6.1,0,450.0,0.4989555716632451,[23200|0|0]
172,17198,1.6717010736465454,1.1527280807495115,0.0,-0.3547562062740326,0.950793981552124,3.862692832946777,4.12109375,0,"['A1', 'B2', 'F2']",6.1,0,450.0,0.4994344367444741,[23300|0|0]
173,17298,1.672141194343567,1.153254508972168,0.0,-0.3597480654716491,0.9383917450904846,3.863097906112671,4.12109375,0,"['A1', 'B2', 'F2']",6.1,0,450.0,0.5001206093915214,[23400|0|0]
174,17398,1.671900987625122,1.1530753374099731,0.0,-0.3609219789505005,0.949778974056244,3.877271890640259,4.12109375,0,"['A1', 'B2', 'F2']",6.1,0,450.0,0.5004202787364423,[23500|0|0]
175,17498,1.6716618537902832,1.152955174446106,0.0,-0.3593722283840179,0.9506588578224182,3.8674821853637695,4.12109375,0,"['A1', 'B2', 'F2']",6.1,0,450.0,0.5006879055827229,[23600|0|0]
176,17598,1.6715866327285769,1.1531696319580078,0.0,-0.3670369684696197,0.9493165016174316,3.85329842567444,4.12109375,0,"['A1', 'B2', 'F2']",6.1,0,450.0,0.5009151724578618,[23700|0|0]
177,17698,1.6719261407852173,1.1527698040008545,0.0,-0.3537453711032867,0.9315470457077026,3.849367618560791,4.12109375,0,"['A1', 'B2', 'F2']",6.1,0,450.0,0.5014396990213885,[23800|0|0]
178,17798,1.6718661785125732,1.1525365114212036,0.0,-0.3459571599960327,0.9345269203186036,3.843021869659424,4.12109375,0,"['A1', 'B2', 'F2']",6.1,0,450.0,0.5016805743041819,[23900|0|0]
179,17898,1.6718144416809082,1.1526297330856323,0.0,-0.3504366278648376,0.9308023452758788,3.831443548202514,4.12109375,0,"['A1', 'B2', 'F2']",6.1,0,450.0,0.5017871903370738,[24000|0|0]
180,17998,1.671882390975952,1.1531990766525269,0.0,-0.3655519187450409,0.9306013584136964,3.827051162719727,4.12109375,0,"['A1', 'B2', 'F2']",6.1,0,450.0,0.5023605743304509,[24100|0|0]
181,18098,1.6720415353775024,1.1531974077224731,0.0,-0.3665823638439178,0.937597632408142,3.860205888748169,4.12109375,0,"['A1', 'B2', 'F2']",6.1,0,450.0,0.5025197274827049,[24200|0|0]
182,18198,1.672144651412964,1.153014063835144,0.0,-0.3689441978931427,0.9265645146369934,3.854191541671753,4.12109375,0,"['A1', 'B2', 'F2']",6.1,0,450.0,0.5027300793255546,[24300|0|0]
183,18298,1.6716766357421875,1.1530182361602783,0.0,-0.3673084080219269,0.9433081150054932,3.848476648330689,4.12109375,0,"['A1', 'B2', 'F2']",6.1,0,450.0,0.5031981135939468,[24400|0|0]
184,18398,1.6716538667678833,1.1531898975372314,0.0,-0.3690014183521271,0.943272352218628,3.8202714920043945,4.12109375,0,"['A1', 'B2', 'F2']",6.1,0,450.0,0.5033712784129151,[24500|0|0]
185,18498,1.671621322631836,1.1530451774597168,0.0,-0.3660759031772613,0.9485734105110168,3.8184566497802734,4.12109375,0,"['A1', 'B2', 'F2']",6.1,0,450.0,0.5035196125682095,[24600|0|0]
186,18598,1.6718473434448242,1.1528195142745972,0.0,-0.363608181476593,0.9416062235832214,3.806570529937744,4.12109375,0,"['A1', 'B2', 'F2']",6.1,0,450.0,0.5038390014863363,[24700|0|0]
187,18698,1.6719993352890017,1.1532809734344482,0.0,-0.3692897856235504,0.9367433190345764,3.8132030963897705,4.12109375,0,"['A1', 'B2', 'F2']",6.1,0,450.0,0.5043248472199874,[24800|0|0]
188,18798,1.6718579530715942,1.1526659727096558,0.0,-0.3522568345069885,0.939945638179779,3.843296766281128,4.12109375,0,"['A1', 'B2', 'F2']",6.1,0,450.0,0.5049558898674323,[24900|0|0]
189,18898,1.671730637550354,1.15291166305542,0.0,-0.3579036593437195,0.9485161900520324,3.85837197303772,4.12109375,0,"['A1', 'B2', 'F2']",6.1,0,450.0,0.5052326081139402,[25000|0|0]
190,18998,1.672028660774231,1.153152346611023,0.0,-0.372053325176239,0.934650421142578,3.875229358673096,4.12109375,0,"['A1', 'B2', 'F2']",6.1,0,450.0,0.5056156830621001,[25100|0|0]
191,19098,1.6720521450042725,1.1530630588531494,0.0,-0.370451271533966,0.940246045589447,3.866111040115357,4.12109375,0,"['A1', 'B2', 'F2']",6.1,0,450.0,0.5057080075592107,[25200|0|0]
192,19198,1.671780705451965,1.1531767845153809,0.0,-0.3716161549091339,0.950753092765808,3.859817743301392,4.12109375,0,"['A1', 'B2', 'F2']",6.1,0,450.0,0.5060023083522895,[25300|0|0]
193,19298,1.6718477010726929,1.1529250144958496,0.0,-0.3557142913341522,0.9490002989768982,3.8465404510498047,4.12109375,0,"['A1', 'B2', 'F2']",6.1,0,450.0,0.506262839647783,[25400|0|0]
194,19398,1.6715164184570312,1.1532180309295654,0.0,-0.3629326522350311,0.9547954201698304,3.8739171028137207,4.12109375,0,"['A1', 'B2', 'F2']",6.1,0,450.0,0.5067051142252427,[25500|0|0]
195,19498,1.6719931364059448,1.1529734134674072,0.0,-0.3585440516471863,0.9381110668182372,3.877169370651245,4.12109375,0,"['A1', 'B2', 'F2']",6.1,0,450.0,0.5072409292172027,[25600|0|0]
196,19598,1.672202229499817,1.1529775857925415,0.0,-0.3590088188648224,0.932105541229248,3.86005973815918,4.12109375,0,"['A1', 'B2', 'F2']",6.1,0,450.0,0.5074500639350331,[25700|0|0]
197,19698,1.6722182035446167,1.1525228023529053,0.0,-0.343781441450119,0.9366374611854552,3.864357233047485,4.12109375,0,"['A1', 'B2', 'F2']",6.1,0,450.0,0.5079051278284312,[25800|0|0]
198,19798,1.6720614433288574,1.153105616569519,0.0,-0.358214795589447,0.9503833055496216,3.843276262283325,4.12109375,0,"['A1', 'B2', 'F2']",6.1,0,450.0,0.5085086559357568,[25900|0|0]
199,19898,1.6716432571411133,1.1531517505645752,0.0,-0.3574464023113251,0.9567925930023192,3.867965459823608,4.12109375,0,"['A1', 'B2', 'F2']",6.1,0,450.0,0.508929379162023,[26000|0|0]
200,19998,1.671870231628418,1.1525909900665283,0.0,-0.3421234488487243,0.9456826448440552,3.851647138595581,4.12109375,0,"['A1', 'B2', 'F2']",6.1,0,450.0,0.5095343335024959,[26100|0|0]
201,20098,1.6716922521591189,1.1528630256652832,0.0,-0.3501721918582916,0.9478801488876344,3.853617191314697,4.12109375,0,"['A1', 'B2', 'F2']",6.1,0,450.0,0.5098594181968171,[26200|0|0]
202,20198,1.6719257831573486,1.1527986526489258,0.0,-0.348909854888916,0.94874906539917,3.84679126739502,4.12109375,0,"['A1', 'B2', 'F2']",6.1,0,450.0,0.5101016590116464,[26300|0|0]
203,20298,1.6720227003097534,1.153024673461914,0.0,-0.3606728017330169,0.9515559673309326,3.849065065383911,4.12109375,0,"['A1', 'B2', 'F2']",6.1,0,450.0,0.5103475824597642,[26400|0|0]
204,20398,1.6720051765441897,1.1526620388031006,0.0,-0.3537123501300812,0.951154887676239,3.857767820358277,4.12109375,0,"['A1', 'B2', 'F2']",6.1,0,450.0,0.5107106402762788,[26500|0|0]
205,20498,1.671744465827942,1.1527115106582642,0.0,-0.3556472659111023,0.9636009931564332,3.8766798973083496,4.12109375,0,"['A1', 'B2', 'F2']",6.1,0,450.0,0.5109760033144355,[26600|0|0]
206,20598,1.6716866493225098,1.1526780128479004,0.0,-0.3519458770751953,0.9577599167823792,3.850348949432373,4.12109375,0,"['A1', 'B2', 'F2']",6.1,0,450.0,0.511042822859477,[26700|0|0]
207,20698,1.6720353364944458,1.152600884437561,0.0,-0.3524780571460724,0.9517940878868104,3.860499858856201,4.12109375,0,"['A1', 'B2', 'F2']",6.1,0,450.0,0.5113999384367824,[26800|0|0]
208,20798,1.6719155311584473,1.1530930995941162,0.0,-0.3634470999240875,0.9594221115112304,3.870613813400269,4.12109375,0,"['A1', 'B2', 'F2']",6.1,0,450.0,0.5119065241441177,[26900|0|0]
209,20898,1.671952486038208,1.1530402898788452,0.0,-0.3614631295204162,0.9553067088127136,3.83257508277893,4.12109375,0,"['A1', 'B2', 'F2']",6.1,0,450.0,0.5119709797813043,[27000|0|0]
210,20998,1.672155261039734,1.1527010202407837,0.0,-0.3529522120952606,0.955602765083313,3.8529696464538574,4.12109375,0,"['A1', 'B2', 'F2']",6.1,0,450.0,0.5123662285492395,[27100|0|0]
211,21098,1.671941876411438,1.1529648303985596,0.0,-0.3787145018577575,0.9554594159126282,3.875208854675293,4.12109375,0,"['A1', 'B2', 'F2']",6.1,0,450.0,0.5127055348989278,[27200|0|0]
212,21198,1.6717760562896729,1.152931809425354,0.0,-0.3864257633686065,0.9581435918807985,3.8956029415130615,4.12109375,0,"['A1', 'B2', 'F2']",6.1,0,450.0,0.5128746109098035,[27300|0|0]
213,21298,1.6720311641693115,1.1529529094696045,0.0,-0.3960059881210327,0.948516011238098,3.8831164836883545,4.12109375,0,"['A1', 'B2', 'F2']",6.1,0,450.0,0.513130589897459,[27400|0|0]
214,21398,1.6721251010894775,1.1526482105255127,0.0,-0.3904874622821808,0.9494524598121644,3.903162956237793,4.12109375,0,"['A1', 'B2', 'F2']",6.1,0,450.0,0.5134494403192886,[27500|0|0]
215,21498,1.671812653541565,1.15252947807312,0.0,-0.3826605677604675,0.9598063826560974,3.901862382888794,4.12109375,0,"['A1', 'B2', 'F2']",6.1,0,450.0,0.5137836870327321,[27600|0|0]
216,21598,1.671865940093994,1.1524205207824707,0.0,-0.3769167065620422,0.9578498601913452,3.8931870460510254,4.12109375,0,"['A1', 'B2', 'F2']",6.1,0,450.0,0.5139049765535301,[27700|0|0]
217,21698,1.6719555854797363,1.1530009508132937,0.0,-0.3961652517318725,0.9516778588294984,3.860548973083496,4.12109375,0,"['A1', 'B2', 'F2']",6.1,0,450.0,0.514492288494381,[27800|0|0]
218,21798,1.6721587181091309,1.1529067754745483,0.0,-0.3884662985801697,0.947901725769043,3.8328254222869873,4.12109375,0,"['A1', 'B2', 'F2']",6.1,0,450.0,0.514716189944918,[27900|0|0]
219,21898,1.6723034381866455,1.1531988382339478,0.0,-0.3863688707351684,0.9467124938964844,3.8286871910095215,4.12109375,0,"['A1', 'B2', 'F2']",6.1,0,450.0,0.515042141714761,[28000|0|0]
220,21998,1.6718075275421145,1.1530817747116089,0.0,-0.3768202066421509,0.9590438604354858,3.852358818054199,4.12109375,0,"['A1', 'B2', 'F2']",6.1,0,450.0,0.5155516819345882,[28100|0|0]
221,22098,1.672141671180725,1.1529982089996338,0.0,-0.3673728704452514,0.9484432339668274,3.860591411590576,4.12109375,0,"['A1', 'B2', 'F2']",6.1,0,450.0,0.5158961165429565,[28200|0|0]
222,22198,1.6722500324249268,1.1530046463012695,0.0,-0.3637299835681915,0.942661464214325,3.861281633377075,4.12109375,0,"['A1', 'B2', 'F2']",6.1,0,450.0,0.516004668825739,[28300|0|0]
223,22298,1.6721251010894775,1.1529319286346436,0.0,-0.3622690439224243,0.9520000219345092,3.869335651397705,4.12109375,0,"['A1', 'B2', 'F2']",6.1,0,450.0,0.5161492222678172,[28400|0|0]
224,22398,1.6719403266906738,1.153147578239441,0.0,-0.3730830252170563,0.948450803756714,3.857899904251098,4.12109375,0,"['A1', 'B2', 'F2']",6.1,0,450.0,0.5164332052435439,[28500|0|0]
225,22498,1.6717143058776855,1.153036117553711,0.0,-0.3720119595527649,0.957436978816986,3.855029821395874,4.12109375,0,"['A1', 'B2', 'F2']",6.1,0,450.0,0.5166852149504348,[28600|0|0]
226,22598,1.671783685684204,1.1526578664779663,0.0,-0.3600919842720032,0.956188440322876,3.871255874633789,4.12109375,0,"['A1', 'B2', 'F2']",6.1,0,450.0,0.5170697763029581,[28700|0|0]
227,22698,1.672171711921692,1.152961015701294,0.0,-0.3685811460018158,0.9418964982032776,3.868900775909424,4.12109375,0,"['A1', 'B2', 'F2']",6.1,0,450.0,0.517562182448922,[28800|0|0]
228,22798,1.6719486713409424,1.1529052257537842,0.0,-0.3647140860557556,0.946988582611084,3.864881038665772,4.12109375,0,"['A1', 'B2', 'F2']",6.1,0,450.0,0.5177920946471722,[28900|0|0]
229,22898,1.6717545986175537,1.153060793876648,0.0,-0.364071249961853,0.950697898864746,3.855759382247925,4.12109375,0,"['A1', 'B2', 'F2']",6.1,0,450.0,0.5180408227372925,[29000|0|0]
230,22998,1.6718497276306152,1.152736783027649,0.0,-0.3581377565860748,0.9436228275299072,3.86324954032898,4.12109375,0,"['A1', 'B2', 'F2']",6.1,0,450.0,0.5183785098104758,[29100|0|0]
231,23098,1.6720640659332275,1.1529000997543335,0.0,-0.3607397377490997,0.9377838373184204,3.864015817642212,4.12109375,0,"['A1', 'B2', 'F2']",6.1,0,450.0,0.518647978289489,[29200|0|0]
232,23198,1.6720277070999146,1.1531612873077393,0.0,-0.3657210767269134,0.936811089515686,3.85664176940918,4.12109375,0,"['A1', 'B2', 'F2']",6.1,0,450.0,0.5189116843812162,[29300|0|0]
233,23298,1.6718822717666626,1.1526697874069214,0.0,-0.3581438064575195,0.9459270238876344,3.872271060943604,4.12109375,0,"['A1', 'B2', 'F2']",6.1,0,450.0,0.5194242500732617,[29400|0|0]
234,23398,1.6718342304229736,1.153071045875549,0.0,-0.3605795800685882,0.9410674571990968,3.878672122955322,4.12109375,0,"['A1', 'B2', 'F2']",6.1,0,450.0,0.5198283742241718,[29500|0|0]
235,23498,1.6720153093338013,1.152807593345642,0.0,-0.3565216660499573,0.9362544417381288,3.854341745376587,4.12109375,0,"['A1', 'B2', 'F2']",6.1,0,450.0,0.5201480565781749,[29600|0|0]
236,23598,1.671985387802124,1.1527748107910156,0.0,-0.3500652611255646,0.9351359605789183,3.888104677200317,4.12109375,0,"['A1', 'B2', 'F2']",6.1,0,450.0,0.5201924411920151,[29700|0|0]
237,23698,1.6717971563339231,1.1529357433319092,0.0,-0.3640763163566589,0.9403625726699828,3.8759605884552,4.12109375,0,"['A1', 'B2', 'F2']",6.1,0,450.0,0.5204400908807683,[29800|0|0]
238,23798,1.6720869541168213,1.1528500318527222,0.0,-0.3665456771850586,0.9370233416557312,3.8517496585845934,4.12109375,0,"['A1', 'B2', 'F2']",6.1,0,450.0,0.5207422981153559,[29900|0|0]
239,23898,1.6717528104782104,1.1532450914382937,0.0,-0.3714174628257751,0.9542373418807985,3.848897695541382,4.12109375,0,"['A1', 'B2', 'F2']",6.1,0,450.0,0.5212597186864352,[30000|0|0]
240,23998,1.672013759613037,1.1528615951538086,0.0,-0.3630185723304748,0.9476410746574402,3.847614765167236,4.12109375,0,"['A1', 'B2', 'F2']",6.1,0,450.0,0.521723576262832,[30100|0|0]
241,24098,1.6719725131988523,1.1532907485961914,0.0,-0.3716018497943878,0.948403298854828,3.85370397567749,4.12109375,0,"['A1', 'B2', 'F2']",6.1,0,450.0,0.5221547072682028,[30200|0|0]
242,24198,1.671940803527832,1.1529229879379272,0.0,-0.3599007725715637,0.9543853998184204,3.8423256874084473,4.12109375,0,"['A1', 'B2', 'F2']",6.1,0,450.0,0.522523832456998,[30300|0|0]
243,24298,1.6721079349517822,1.1528089046478271,0.0,-0.3633249998092651,0.95090913772583,3.8523707389831534,4.12109375,0,"['A1', 'B2', 'F2']",6.1,0,450.0,0.5227261883562243,[30400|0|0]
244,24398,1.6717160940170288,1.1531749963760376,0.0,-0.3722287714481354,0.9639655947685242,3.849658727645874,4.12109375,0,"['A1', 'B2', 'F2']",6.1,0,450.0,0.5232624368728773,[30500|0|0]
245,24498,1.6718862056732178,1.1528520584106443,0.0,-0.3728247582912445,0.957835018634796,3.858794927597046,4.12109375,0,"['A1', 'B2', 'F2']",6.1,0,450.0,0.5236274394825443,[30600|0|0]
246,24598,1.6717259883880615,1.1529732942581177,0.0,-0.3725730180740356,0.9601653218269348,3.8674705028533936,4.12109375,0,"['A1', 'B2', 'F2']",6.1,0,450.0,0.5238283566524812,[30700|0|0]
247,24698,1.6718177795410156,1.153152585029602,0.0,-0.3739500343799591,0.9549026489257812,3.8663082122802734,4.12109375,0,"['A1', 'B2', 'F2']",6.1,0,450.0,0.5240297785889729,[30800|0|0]
248,24798,1.6721196174621582,1.1526429653167725,0.0,-0.3534355461597442,0.942883312702179,3.858197689056397,4.12109375,0,"['A1', 'B2', 'F2']",6.1,0,450.0,0.5246220778227595,[30900|0|0]
249,24898,1.6720010042190552,1.1531763076782229,0.0,-0.3614777028560638,0.9512538313865662,3.843015432357788,4.12109375,0,"['A1', 'B2', 'F2']",6.1,0,450.0,0.5251684505672819,[31000|0|0]
250,24998,1.6721887588500977,1.1528960466384888,0.0,-0.3605169355869293,0.943889856338501,3.864332675933838,4.12109375,0,"['A1', 'B2', 'F2']",6.1,0,450.0,0.5255057902356738,[31100|0|0]
251,25098,1.6719945669174194,1.1532180309295654,0.0,-0.3631787598133087,0.9511493444442748,3.850445032119751,4.12109375,0,"['A1', 'B2', 'F2']",6.1,0,450.0,0.5258818013929782,[31200|0|0]
252,25198,1.671836495399475,1.1527647972106934,0.0,-0.3511256277561188,0.9602868556976318,3.84684681892395,4.12109375,0,"['A1', 'B2', 'F2']",6.1,0,450.0,0.5263618091103202,[31300|0|0]
253,25298,1.672050952911377,1.1527730226516724,0.0,-0.358591616153717,0.9597068428993224,3.854324579238892,4.12109375,0,"['A1', 'B2', 'F2']",6.1,0,450.0,0.5265764243061718,[31400|0|0]
254,25398,1.671927809715271,1.152631402015686,0.0,-0.3579124808311462,0.9657517671585084,3.859312057495117,4.12109375,0,"['A1', 'B2', 'F2']",6.1,0,450.0,0.5267640959643527,[31500|0|0]
255,25498,1.6719800233840942,1.1526765823364258,0.0,-0.3613722026348114,0.9632198214530944,3.860615968704224,4.12109375,0,"['A1', 'B2', 'F2']",6.1,0,450.0,0.5268331432567988,[31600|0|0]
256,25598,1.672214150428772,1.1527210474014282,0.0,-0.365477591753006,0.9489864110946656,3.857345342636109,4.12109375,0,"['A1', 'B2', 'F2']",6.1,0,450.0,0.5270714552687814,[31700|0|0]
257,25698,1.671831488609314,1.1528955698013306,0.0,-0.3756036162376404,0.9564017653465272,3.8453736305236816,4.12109375,0,"['A1', 'B2', 'F2']",6.1,0,450.0,0.5274920359817707,[31800|0|0]
258,25798,1.6717205047607422,1.1527005434036257,0.0,-0.3684908747673034,0.950785219669342,3.854744672775269,4.12109375,0,"['A1', 'B2', 'F2']",6.1,0,450.0,0.5277164300780512,[31900|0|0]
259,25898,1.6718441247940063,1.1526062488555908,0.0,-0.3652764856815338,0.9414941668510436,3.855014801025391,4.12109375,0,"['A1', 'B2', 'F2']",6.1,0,450.0,0.5278719079684837,[32000|0|0]
260,25998,1.672095775604248,1.1528400182724,0.0,-0.3764780163764953,0.9397820830345154,3.876719474792481,4.12109375,0,"['A1', 'B2', 'F2']",6.1,0,450.0,0.5282153847079153,[32100|0|0]
261,26098,1.6717381477355957,1.1526795625686646,0.0,-0.3757627606391907,0.9512479901313782,3.8878228664398193,4.12109375,0,"['A1', 'B2', 'F2']",6.1,0,450.0,0.5286073588464729,[32200|0|0]
262,26198,1.6718231439590454,1.1528106927871704,0.0,-0.3775007724761963,0.951309323310852,3.867072343826294,4.12109375,0,"['A1', 'B2', 'F2']",6.1,0,450.0,0.5287636262205665,[32300|0|0]
263,26298,1.6718533039093018,1.152936935424805,0.0,-0.3760817348957062,0.9484360814094543,3.837589740753174,4.12109375,0,"['A1', 'B2', 'F2']",6.1,0,450.0,0.5288934215446593,[32400|0|0]
264,26398,1.672115445137024,1.1527711153030396,0.0,-0.369875967502594,0.9442282319068908,3.827850341796875,4.12109375,0,"['A1', 'B2', 'F2']",6.1,0,450.0,0.5292036059028303,[32500|0|0]
265,26498,1.6721479892730713,1.152979850769043,0.0,-0.3724962174892425,0.94468754529953,3.8335189819335938,4.12109375,0,"['A1', 'B2', 'F2']",6.1,0,450.0,0.5294148631288813,[32600|0|0]
266,26598,1.6720125675201416,1.1529303789138794,0.0,-0.3683726489543915,0.947159469127655,3.8424384593963614,4.12109375,0,"['A1', 'B2', 'F2']",6.1,0,450.0,0.5295590384236439,[32700|0|0]
267,26698,1.672274112701416,1.1529253721237185,0.0,-0.3570328652858734,0.9391494393348694,3.857996225357056,4.12109375,0,"['A1', 'B2', 'F2']",6.1,0,450.0,0.5298206315233152,[32800|0|0]
268,26798,1.6719298362731934,1.153037428855896,0.0,-0.3638307154178619,0.9542728066444396,3.837777137756348,4.12109375,0,"['A1', 'B2', 'F2']",6.1,0,450.0,0.5301826853456345,[32900|0|0]
269,26898,1.6722303628921509,1.15315842628479,0.0,-0.3632447421550751,0.9483790993690492,3.866669654846192,4.12109375,0,"['A1', 'B2', 'F2']",6.1,0,450.0,0.53050665544688,[33000|0|0]
270,26998,1.6719138622283936,1.1526646614074707,0.0,-0.3521767854690552,0.960109293460846,3.86703896522522,4.12109375,0,"['A1', 'B2', 'F2']",6.1,0,450.0,0.5310931504803057,[33100|0|0]
271,27098,1.6720335483551023,1.1527220010757446,0.0,-0.3571974039077759,0.9574655890464784,3.869184970855713,4.12109375,0,"['A1', 'B2', 'F2']",6.1,0,450.0,0.5312258629758904,[33200|0|0]
272,27198,1.6717772483825684,1.152812957763672,0.0,-0.3586419522762298,0.9666128158569336,3.877837896347046,4.12109375,0,"['A1', 'B2', 'F2']",6.1,0,450.0,0.5314978239933168,[33300|0|0]
273,27298,1.671887755393982,1.153002381324768,0.0,-0.3699171245098114,0.957181990146637,3.8964955806732178,4.12109375,0,"['A1', 'B2', 'F2']",6.1,0,450.0,0.531717125350061,[33400|0|0]
274,27398,1.6716798543930054,1.152748942375183,0.0,-0.364980936050415,0.961445450782776,3.8852787017822266,4.12109375,0,"['A1', 'B2', 'F2']",6.1,0,450.0,0.5320449273137126,[33500|0|0]
275,27498,1.6721155643463137,1.152907371520996,0.0,-0.3680907189846039,0.9430258274078368,3.858829975128174,4.12109375,0,"['A1', 'B2', 'F2']",6.1,0,450.0,0.5325085467240643,[33600|0|0]
276,27598,1.672054409980774,1.1529195308685305,0.0,-0.3711033165454864,0.9468056559562684,3.857273578643799,4.12109375,0,"['A1', 'B2', 'F2']",6.1,0,450.0,0.5325708981968379,[33700|0|0]
277,27698,1.6716105937957764,1.1525081396102903,0.0,-0.3596216738224029,0.9619033932685852,3.830830812454224,4.12109375,0,"['A1', 'B2', 'F2']",6.1,0,450.0,0.5331760556750386,[33800|0|0]
278,27798,1.6721386909484863,1.153061866760254,0.0,-0.3698941171169281,0.9481740593910216,3.82065224647522,4.12109375,0,"['A1', 'B2', 'F2']",6.1,0,450.0,0.5339412356272767,[33900|0|0]
279,27898,1.6721972227096558,1.1526652574539185,0.0,-0.3643372654914856,0.9478790760040284,3.8356666564941406,4.12109375,0,"['A1', 'B2', 'F2']",6.1,0,450.0,0.5343421407394136,[34000|0|0]
280,27998,1.6718404293060305,1.153023600578308,0.0,-0.3747462332248688,0.9582011103630066,3.84272575378418,4.12109375,0,"['A1', 'B2', 'F2']",6.1,0,450.0,0.5348478198151798,[34100|0|0]
281,28098,1.671783208847046,1.1529988050460815,0.0,-0.3689286410808563,0.961437463760376,3.831021308898926,4.12109375,0,"['A1', 'B2', 'F2']",6.1,0,450.0,0.5349101816572374,[34200|0|0]
282,28198,1.6721367835998535,1.152671456336975,0.0,-0.3605668842792511,0.9602174162864684,3.8220157623291016,4.1171875,0,"['A1', 'B2', 'F2']",6.1,0,450.0,0.5353920242489378,[34300|0|0]
283,28298,1.671970248222351,1.1526951789855957,0.0,-0.3575272858142853,0.9651557207107544,3.820020914077759,4.12109375,0,"['A1', 'B2', 'F2']",6.1,0,450.0,0.5355602407642313,[34400|0|0]
284,28398,1.671785593032837,1.1530122756958008,0.0,-0.3644846081733703,0.971380352973938,3.801975965499878,4.12109375,0,"['A1', 'B2', 'F2']",6.1,0,450.0,0.5359271847144981,[34500|0|0]
285,28498,1.6718796491622925,1.1524893045425415,0.0,-0.3514969646930694,0.9612301588058472,3.836142301559448,4.12109375,0,"['A1', 'B2', 'F2']",6.1,0,450.0,0.5364585465334402,[34600|0|0]
286,28598,1.6716779470443726,1.1527096033096311,0.0,-0.3534572422504425,0.9614533185958862,3.839141130447388,4.12109375,0,"['A1', 'B2', 'F2']",6.1,0,450.0,0.5367572358220908,[34700|0|0]
287,28698,1.671576738357544,1.1529821157455444,0.0,-0.3566600680351257,0.9577897787094116,3.834948301315308,4.12109375,0,"['A1', 'B2', 'F2']",6.1,0,450.0,0.5370479353680433,[34800|0|0]
288,28798,1.6717653274536133,1.1526204347610474,0.0,-0.3489012718200683,0.9546558260917664,3.821960687637329,4.12109375,0,"['A1', 'B2', 'F2']",6.1,0,450.0,0.5374558311656473,[34900|0|0]
289,28898,1.6719954013824463,1.1528356075286863,0.0,-0.3504219353199005,0.9464070796966552,3.836695432662964,4.12109375,0,"['A1', 'B2', 'F2']",6.1,0,450.0,0.5377708443918173,[35000|0|0]
290,28998,1.6717554330825806,1.1525732278823853,0.0,-0.3413038253784179,0.9581274390220642,3.8320274353027344,4.12109375,0,"['A1', 'B2', 'F2']",6.1,0,450.0,0.5381264113527874,[35100|0|0]
291,29098,1.671962857246399,1.152898907661438,0.0,-0.348747193813324,0.9566828012466432,3.812677145004273,4.12109375,0,"['A1', 'B2', 'F2']",6.1,0,450.0,0.5385125358174612,[35200|0|0]
292,29198,1.6718257665634155,1.1525360345840454,0.0,-0.3426085710525512,0.9581665396690368,3.838794946670532,4.12109375,0,"['A1', 'B2', 'F2']",6.1,0,450.0,0.5389004413802689,[35300|0|0]
293,29298,1.672028422355652,1.1526641845703125,0.0,-0.3506240546703338,0.9562416672706604,3.862780332565308,4.12109375,0,"['A1', 'B2', 'F2']",6.1,0,450.0,0.5391402158349284,[35400|0|0]
294,29398,1.67169189453125,1.1530659198760986,0.0,-0.3602740168571472,0.9682958126068116,3.8528220653533936,4.12109375,0,"['A1', 'B2', 'F2']",6.1,0,450.0,0.5396642790300794,[35500|0|0]
295,29498,1.671738862991333,1.1527223587036133,0.0,-0.3465232849121094,0.9771641492843628,3.870511770248413,4.12109375,0,"['A1', 'B2', 'F2']",6.1,0,450.0,0.5400110358836268,[35600|0|0]
296,29598,1.6717854738235474,1.1528453826904297,0.0,-0.3597592115402221,0.9661335945129396,3.88542413711548,4.12109375,0,"['A1', 'B2', 'F2']",6.1,0,450.0,0.5401425937454668,[35700|0|0]
297,29698,1.672192096710205,1.152738332748413,0.0,-0.3564254939556122,0.9496554732322692,3.8893229961395264,4.12109375,0,"['A1', 'B2', 'F2']",6.1,0,450.0,0.5405630718804983,[35800|0|0]
298,29798,1.671828031539917,1.1526137590408323,0.0,-0.3501248061656952,0.9596607089042664,3.8806891441345215,4.12109375,0,"['A1', 'B2', 'F2']",6.1,0,450.0,0.5409478602078126,[35900|0|0]
299,29898,1.671992301940918,1.1529024839401243,0.0,-0.3590361773967743,0.9477429389953612,3.8815932273864746,4.12109375,0,"['A1', 'B2', 'F2']",6.1,0,450.0,0.5412800451444311,[36000|0|0]
300,29998,1.6721651554107666,1.1531453132629397,0.0,-0.3704466521739959,0.9468414187431335,3.845381021499634,4.1171875,0,"['A1', 'B2', 'F2']",6.1,0,450.0,0.54157811292541,[36100|0|0]
301,30098,1.6721906661987305,1.1524996757507324,0.0,-0.3572219014167785,0.944126307964325,3.844392776489258,4.12109375,0,"['A1', 'B2', 'F2']",6.1,0,450.0,0.5422242542392661,[36200|0|0]
302,30198,1.6717708110809326,1.1527892351150513,0.0,-0.3701606392860412,0.9639444351196288,3.842167377471924,4.12109375,0,"['A1', 'B2', 'F2']",6.1,0,450.0,0.5427342767342659,[36300|0|0]
303,30298,1.6719099283218384,1.152362823486328,0.0,-0.3559447526931762,0.957269549369812,3.857101440429688,4.12109375,0,"['A1', 'B2', 'F2']",6.1,0,450.0,0.5431828082090007,[36400|0|0]
304,30398,1.6719595193862915,1.1524895429611206,0.0,-0.3576733469963074,0.9579119682312012,3.857773542404175,4.12109375,0,"['A1', 'B2', 'F2']",6.1,0,450.0,0.5433188857566172,[36500|0|0]
305,30498,1.671810269355774,1.1527758836746216,0.0,-0.3647691905498504,0.9672647714614868,3.854429244995117,4.12109375,0,"['A1', 'B2', 'F2']",6.1,0,450.0,0.5436417891102971,[36600|0|0]
306,30598,1.671761155128479,1.152564525604248,0.0,-0.3608746528625488,0.9624037146568298,3.8413455486297607,4.12109375,0,"['A1', 'B2', 'F2']",6.1,0,450.0,0.5438587786059756,[36700|0|0]
307,30698,1.6719993352890017,1.1533548831939695,0.0,-0.3806089758872986,0.9491328597068788,3.818484544754028,4.12109375,0,"['A1', 'B2', 'F2']",6.1,0,450.0,0.5446842450853053,[36800|0|0]
308,30798,1.671780347824097,1.1526904106140137,0.0,-0.3615938425064087,0.9600031971931458,3.85833740234375,4.12109375,0,"['A1', 'B2', 'F2']",6.1,0,450.0,0.5453838730716657,[36900|0|0]
309,30898,1.6717214584350586,1.15251886844635,0.0,-0.3562923073768616,0.9624618887901306,3.870341062545776,4.12109375,0,"['A1', 'B2', 'F2']",6.1,0,450.0,0.5455652419648862,[37000|0|0]
310,30998,1.6717101335525513,1.1528083086013794,0.0,-0.3631657660007477,0.9629444479942322,3.85127592086792,4.12109375,0,"['A1', 'B2', 'F2']",6.1,0,450.0,0.5458549035886944,[37100|0|0]
311,31098,1.6721948385238647,1.1529409885406494,0.0,-0.3559856712818146,0.9503236413002014,3.8457109928131104,4.12109375,0,"['A1', 'B2', 'F2']",6.1,0,450.0,0.5463574400306572,[37200|0|0]
312,31198,1.672467827796936,1.153033971786499,0.0,-0.3593944907188415,0.9415541291236876,3.812504768371582,4.1171875,0,"['A1', 'B2', 'F2']",6.1,0,450.0,0.5466458304383006,[37300|0|0]
313,31298,1.6723227500915527,1.153348445892334,0.0,-0.3709782063961029,0.9416543245315552,3.816633462905884,4.12109375,0,"['A1', 'B2', 'F2']",6.1,0,450.0,0.5469921561575881,[37400|0|0]
314,31398,1.6719890832901,1.1531143188476562,0.0,-0.3613465428352356,0.9419692754745485,3.815262794494629,4.12109375,0,"['A1', 'B2', 'F2']",6.1,0,450.0,0.5473997699545101,[37500|0|0]
315,31498,1.6721601486206057,1.152917742729187,0.0,-0.3604923486709595,0.937852680683136,3.827397346496582,4.1171875,0,"['A1', 'B2', 'F2']",6.1,0,450.0,0.5476603568261161,[37600|0|0]
316,31598,1.6723403930664062,1.153333067893982,0.0,-0.3651053011417389,0.9300345778465272,3.8239939212799072,4.12109375,0,"['A1', 'B2', 'F2']",6.1,0,450.0,0.5481131073675337,[37700|0|0]
317,31698,1.6720834970474243,1.1528949737548828,0.0,-0.3584668636322021,0.9415476322174072,3.815319061279297,4.12109375,0,"['A1', 'B2', 'F2']",6.1,0,450.0,0.5486209676231963,[37800|0|0]
318,31798,1.6726194620132446,1.153151273727417,0.0,-0.3633494079113006,0.926252782344818,3.794125556945801,4.12109375,0,"['A1', 'B2', 'F2']",6.1,0,450.0,0.5492150619932318,[37900|0|0]
319,31898,1.672189235687256,1.1530966758728027,0.0,-0.3552815318107605,0.9350759983062744,3.774465322494507,4.12109375,0,"['A1', 'B2', 'F2']",6.1,0,450.0,0.5496487388513901,[38000|0|0]
320,31998,1.672279715538025,1.1530064344406128,0.0,-0.3488463461399078,0.9332579970359802,3.7880897521972656,4.12109375,0,"['A1', 'B2', 'F2']",6.1,0,450.0,0.5497765282072803,[38100|0|0]
321,32098,1.6722512245178225,1.1529648303985596,0.0,-0.3486221134662628,0.9436724185943604,3.7852842807769775,4.12109375,0,"['A1', 'B2', 'F2']",6.1,0,450.0,0.5498269527503852,[38200|0|0]
322,32198,1.6723597049713137,1.1532936096191406,0.0,-0.3582706749439239,0.9452307820320128,3.795377492904663,4.12109375,0,"['A1', 'B2', 'F2']",6.1,0,450.0,0.5501731662461873,[38300|0|0]
323,32298,1.6723849773406982,1.1533939838409424,0.0,-0.3644663095474243,0.9468265771865844,3.784659147262573,4.12109375,0,"['A1', 'B2', 'F2']",6.1,0,450.0,0.550276673139951,[38400|0|0]
