time.ms,stateEstimate.x,stateEstimate.y,stateEstimate.z,stabilizer.roll,stabilizer.pitch,stabilizer.yaw,pm.vbat,drone_id,node_name,wind_speed,global_wind_direction,relative_wind_direction,travel_dist,waiting_time,curr_node_role
0,1.7842530012130735,-0.1628097891807556,0.0,-0.2266450375318527,0.6164312958717346,9.155355453491213,4.0703125,0,B1,6.1,180,270.0,0.0,[6200|0|0|0],start
100,1.7842841148376465,-0.1625839918851852,0.0,-0.2260863929986953,0.6102405786514282,9.165260314941406,4.07421875,0,B1,6.1,180,270.0,0.0002279308586413,[6300|0|0|0],start
200,1.7843533754348757,-0.1625725030899047,0.0,-0.2227486968040466,0.6018069982528687,9.191468238830566,4.0703125,0,B1,6.1,180,270.0,0.0002981378579045,[6400|0|0|0],start
300,1.7844078540802002,-0.1625573933124542,0.0,-0.2238654345273971,0.6078246235847473,9.172548294067385,4.07421875,0,B1,6.1,180,270.0,0.0003546730519963,[6500|0|0|0],start
400,1.7843468189239502,-0.1627093106508255,0.0,-0.2186406552791595,0.612986147403717,9.196794509887695,4.07421875,0,B1,6.1,180,270.0,0.0005183928369836,[6600|0|0|0],start
500,1.7842084169387815,-0.1627973914146423,0.0,-0.2168983072042465,0.6155322194099426,9.094554901123049,4.0703125,0,B1,6.1,180,270.0,0.0006824456652225,[6700|0|0|0],start
600,1.784409999847412,-0.16270512342453,0.0,-0.2148867398500442,0.6169100999832153,9.077576637268066,4.07421875,0,B1,6.1,180,270.0,0.0009041415178028,[6800|0|0|0],start
700,1.7844985723495483,-0.1627462208271026,0.0,-0.2106555700302124,0.6138765811920166,9.091389656066896,4.07421875,0,B1,6.1,180,270.0,0.0010017841551745,[6900|0|0|0],start
800,1.784077763557434,-0.1626532822847366,0.0,-0.2139809876680374,0.6199086904525757,9.085245132446287,4.0703125,0,B1,6.1,180,270.0,0.0014327338183345,[7000|0|0|0],start
900,1.7842419147491455,-0.1624513268470764,0.0,-0.2124157696962356,0.6161662936210632,9.06568431854248,4.07421875,0,B1,6.1,180,270.0,0.0016929867963018,[7100|0|0|0],start
1000,1.7841659784317017,-0.1627868115901947,0.0,-0.2068746984004974,0.6183053851127625,9.191943168640137,4.0703125,0,B1,6.1,180,270.0,0.0020369582154227,[7200|0|0|0],start
1100,1.7843927145004272,-0.1629313379526138,0.0,-0.2003816664218902,0.6108208298683167,9.21099090576172,4.0703125,0,B1,6.1,180,270.0,0.0023058394425384,[7300|0|0|0],start
1200,1.784279465675354,-0.1626262962818145,0.0,-0.210661306977272,0.613873302936554,9.09344482421875,4.07421875,0,B1,6.1,180,270.0,0.0026312249328488,[7400|0|0|0],start
1300,1.7843505144119265,-0.1630812734365463,0.0,-0.1989068835973739,0.6154664754867554,9.041358947753906,4.07421875,0,B1,6.1,180,270.0,0.0030917161209256,[7500|0|0|0],start
1400,1.784121036529541,-0.1624490767717361,0.0,-0.2169993370771408,0.6125207543373108,9.028474807739258,4.0703125,0,B1,6.1,180,270.0,0.0037642729746571,[7600|0|0|0],start
1500,1.784298062324524,-0.1630386114120483,0.0,-0.2024828344583511,0.6032408475875854,9.007195472717285,4.0703125,0,B1,6.1,180,270.0,0.0043798127574635,[7700|0|0|0],start
1600,1.7841880321502686,-0.1624209880828857,0.0,-0.2268802970647812,0.6057029962539673,8.98523235321045,4.07421875,0,B1,6.1,180,270.0,0.005007160520648,[7800|0|0|0],start
1700,1.7843974828720093,-0.1626224070787429,0.0,-0.2154835313558578,0.6031455397605896,9.000874519348145,4.07421875,0,B1,6.1,180,270.0,0.0052977447885117,[7900|0|0|0],start
1800,1.7843409776687622,-0.1626350581645965,0.0,-0.2142211645841598,0.6016952395439148,9.020478248596191,4.07421875,0,B1,6.1,180,270.0,0.0053556489158885,[8000|0|0|0],start
1900,1.7843551635742188,-0.1626462787389755,0.0,-0.2114510387182235,0.6054942011833191,9.034551620483398,4.07421875,0,B1,6.1,180,270.0,0.0053737359610594,[8100|0|0|0],start
2001,1.784321427345276,-0.1628779768943786,0.0,-0.2092327028512954,0.6123543977737427,9.06054973602295,4.0703125,0,B1,6.1,180,270.0,0.0056078773037575,[8200|0|0|0],start
2100,1.7841159105300903,-0.1627272665500641,0.0,-0.2101488411426544,0.6139406561851501,9.063237190246582,4.07421875,0,B1,6.1,180,270.0,0.0058627317116211,[8300|0|0|0],start
2200,1.7843700647354126,-0.1625847816467285,0.0,-0.2141016274690628,0.609344482421875,9.059025764465332,4.07421875,0,B1,6.1,180,270.0,0.0061541014213741,[8400|0|0|0],start
2301,1.7840920686721802,-0.1626018285751342,0.0,-0.2165309935808181,0.614247739315033,9.17881965637207,4.0703125,0,B1,6.1,180,270.0,0.0064326196594498,[8500|0|0|0],start
2401,1.7843642234802246,-0.1623784601688385,0.0,-0.2220747619867324,0.604226291179657,9.06712818145752,4.07421875,0,B1,6.1,180,270.0,0.0067847015880869,[8600|0|0|0],start
2501,1.7842968702316284,-0.1625211089849472,0.0,-0.2187103778123855,0.6038280129432678,9.053640365600586,4.0703125,0,B1,6.1,180,270.0,0.0069424518490492,[8700|0|0|0],start
2601,1.78425133228302,-0.1626957058906555,0.0,-0.2168301343917846,0.6040511727333069,9.055112838745115,4.0703125,0,B1,6.1,180,270.0,0.0071228896063129,[8800|0|0|0],start
2701,1.7842259407043457,-0.1629765480756759,0.0,-0.2158925682306289,0.612139880657196,9.027020454406738,4.07421875,0,B1,6.1,180,270.0,0.0074048773102197,[8900|0|0|0],start
2801,1.784235954284668,-0.1626571267843246,0.0,-0.2279479503631591,0.6135402917861938,9.044270515441896,4.0703125,0,B1,6.1,180,270.0,0.0077244555215537,[9000|0|0|0],start
2900,1.784329175949097,-0.1630447953939438,0.0,-0.2201838493347168,0.6129459738731384,9.061646461486816,4.0703125,0,B1,6.1,180,270.0,0.0081231750089166,[9100|0|0|0],start
3000,1.7842776775360107,-0.1625941544771194,0.0,-0.2370141744613647,0.6056821346282959,9.082504272460938,4.0703125,0,B1,6.1,180,270.0,0.0085767489526862,[9200|0|0|0],start
3100,1.784183144569397,-0.1627395004034042,0.0,-0.2317479103803634,0.6158414483070374,9.100427627563477,4.07421875,0,B1,6.1,180,270.0,0.0087501326891334,[9300|0|0|0],start
3200,1.784369707107544,-0.1628688126802444,0.0,-0.2285456657409668,0.6062725782394409,9.108050346374512,4.0703125,0,B1,6.1,180,270.0,0.0089771288247425,[9400|0|0|0],start
3301,1.784256100654602,-0.1630303859710693,0.0,-0.2188296765089035,0.6105563044548035,9.089559555053713,4.0703125,0,B1,6.1,180,270.0,0.009174644278462,[9500|0|0|0],start
3400,1.784184813499451,-0.1627350151538849,0.0,-0.2292295396327972,0.611475944519043,9.10333251953125,4.07421875,0,B1,6.1,180,270.0,0.0094784958509999,[9600|0|0|0],start
3500,1.7843997478485107,-0.1627189666032791,0.0,-0.2280028611421585,0.6060217618942261,9.113057136535645,4.0703125,0,B1,6.1,180,270.0,0.0096940285176245,[9700|0|0|0],start
3600,1.7843637466430664,-0.1626424640417099,0.0,-0.2311123013496399,0.597249448299408,9.110952377319336,4.0703125,0,B1,6.1,180,270.0,0.0097785786726811,[9800|0|0|0],start
3700,1.7840851545333862,-0.1627347469329834,0.0,-0.2222004681825637,0.6021692752838135,9.090409278869627,4.0703125,0,B1,6.1,180,270.0,0.0100720572845046,[9900|0|0|0],start
3800,1.7844213247299194,-0.1626904159784317,0.0,-0.2248934656381607,0.5860528349876404,9.11240291595459,4.0703125,0,B1,6.1,180,270.0,0.0104111378568892,[10000|0|0|0],start
3900,1.78424072265625,-0.1624225229024887,0.0,-0.2319167703390121,0.5876374840736389,9.106178283691406,4.07421875,0,B1,6.1,180,270.0,0.0107342226896373,[10100|0|0|0],start
4000,1.7841410636901855,-0.1628502607345581,0.0,-0.2179602831602096,0.5915734767913818,9.095366477966309,4.0703125,0,B1,6.1,180,270.0,0.0111734169092036,[10200|0|0|0],start
4100,1.7841944694519043,-0.1626245379447937,0.0,-0.225302368402481,0.596116304397583,9.096667289733888,4.0703125,0,B1,6.1,180,270.0,0.0114053715452939,[10300|0|0|0],start
4200,1.7843297719955444,-0.1629648804664611,0.0,-0.2114949077367782,0.586287796497345,9.097075462341309,4.0703125,0,B1,6.1,180,270.0,0.011771622566276,[10400|0|0|0],start
4300,1.784374117851257,-0.1626704335212707,0.0,-0.2170922309160232,0.5814805626869202,9.096348762512209,4.0703125,0,B1,6.1,180,270.0,0.0120693901911966,[10500|0|0|0],start
4400,1.7842286825180054,-0.1626817733049392,0.0,-0.2179235965013504,0.5854181051254272,9.081134796142578,4.0703125,0,B1,6.1,180,270.0,0.0122152669434626,[10600|0|0|0],start
4500,1.7841192483901978,-0.1626749485731125,0.0,-0.223675936460495,0.5885969996452332,9.092936515808104,4.0703125,0,B1,6.1,180,270.0,0.0123249136729785,[10700|0|0|0],start
4600,1.7842730283737185,-0.1628511548042297,0.0,-0.2194717675447464,0.5834965109825134,9.07407569885254,4.0703125,0,B1,6.1,180,270.0,0.012558787397916,[10800|0|0|0],start
4700,1.7844172716140747,-0.1628048568964004,0.0,-0.2210381627082824,0.5786769390106201,9.067211151123049,4.0703125,0,B1,6.1,180,270.0,0.0127102786803644,[10900|0|0|0],start
4800,1.7839432954788208,-0.1626739054918289,0.0,-0.2242762595415115,0.5973471999168396,9.058222770690918,4.0703125,0,B1,6.1,180,270.0,0.0132020119893332,[11000|0|0|0],start
4900,1.7843447923660278,-0.1626864671707153,0.0,-0.2206556648015976,0.5911884307861328,9.089717864990234,4.0703125,0,B1,6.1,180,270.0,0.0136037053378136,[11100|0|0|0],start
5000,1.784247636795044,-0.1626187115907669,0.0,-0.2195723205804824,0.5911203622817993,9.08897876739502,4.0703125,0,B1,6.1,180,270.0,0.0137221537383404,[11200|0|0|0],start
5100,1.7843621969223022,-0.1625926792621612,0.0,-0.2145029306411743,0.5872390270233154,9.088972091674805,4.0703125,0,B1,6.1,180,270.0,0.013839634395855,[11300|0|0|0],start
5200,1.7841426134109497,-0.1625575721263885,0.0,-0.2146228104829788,0.6061810851097107,9.058772087097168,4.0703125,0,B1,6.1,180,270.0,0.0140620066725445,[11400|0|0|0],start
5300,1.7841883897781372,-0.1624040901660919,0.0,-0.219888761639595,0.6042530536651611,9.064740180969238,4.0703125,0,B1,6.1,180,270.0,0.0142221696767914,[11500|0|0|0],start
5400,1.7844924926757812,-0.1629486083984375,0.0,-0.2053648680448532,0.5986543893814087,9.093481063842772,4.0703125,0,B1,6.1,180,270.0,0.0148458512283161,[11600|0|0|0],start
5500,1.7843074798583984,-0.1624882519245147,0.0,-0.2181963175535202,0.6045623421669006,9.08475112915039,4.0703125,0,B1,6.1,180,270.0,0.015341994177151,[11700|0|0|0],start
5600,1.7842273712158203,-0.1624401956796646,0.0,-0.2210080623626709,0.6137253642082214,9.09264087677002,4.0703125,0,B1,6.1,180,270.0,0.0154354115057619,[11800|0|0|0],start
5700,1.7840784788131714,-0.1625554114580154,0.0,-0.2229012548923492,0.6201395392417908,9.086076736450195,4.07421875,0,B1,6.1,180,270.0,0.0156236762744988,[11900|0|0|0],start
5800,1.784130573272705,-0.1628574281930923,0.0,-0.2120000571012497,0.6260820627212524,9.066936492919922,4.0703125,0,B1,6.1,180,270.0,0.0159301529310007,[12000|0|0|0],start
5900,1.7841984033584597,-0.1630921512842178,0.0,-0.2082492411136627,0.618273138999939,9.06515884399414,4.0703125,0,B1,6.1,180,270.0,0.0161744802729848,[12100|0|0|0],start
6000,1.7843255996704102,-0.162801593542099,0.0,-0.216974601149559,0.6051583290100098,9.080573081970217,4.0703125,0,B1,6.1,180,270.0,0.0164916595649932,[12200|0|0|0],start
6100,1.784290432929993,-0.1625521332025528,0.0,-0.2242562621831894,0.6081081628799438,9.067626953125,4.0703125,0,B1,6.1,180,270.0,0.0167435864604174,[12300|0|0|0],start
6200,1.7843098640441897,-0.162682220339775,0.0,-0.2143068015575409,0.6110606789588928,9.07045841217041,4.0703125,0,B1,6.1,180,270.0,0.0168751168047095,[12400|0|0|0],start
6300,1.7841731309890747,-0.162970095872879,0.0,-0.2085767239332199,0.6151599287986755,9.057621955871582,4.0703125,0,B1,6.1,180,270.0,0.0171938145469685,[12500|0|0|0],start
6400,1.784127712249756,-0.1626627147197723,0.0,-0.2173170447349548,0.6213281750679016,9.077054977416992,4.0703125,0,B1,6.1,180,270.0,0.0175045331256961,[12600|0|0|0],start
6500,1.7841414213180542,-0.1627852618694305,0.0,-0.210928663611412,0.6192184090614319,9.048422813415527,4.0703125,0,B1,6.1,180,270.0,0.0176278446922377,[12700|0|0|0],start
6600,1.7842774391174316,-0.1630115061998367,0.0,-0.2023896872997284,0.6188485622406006,9.014307975769045,4.0703125,0,B1,6.1,180,270.0,0.0178918282879183,[12800|0|0|0],start
6700,1.7840890884399414,-0.1624834537506103,0.0,-0.2173881977796554,0.6272296905517578,9.021252632141112,4.0703125,0,B1,6.1,180,270.0,0.0184524666444772,[12900|0|0|0],start
6800,1.7841761112213137,-0.1627395153045654,0.0,-0.2073202133178711,0.623938262462616,9.068546295166016,4.0703125,0,B1,6.1,180,270.0,0.0187229116183474,[13000|0|0|0],start
6900,1.784083127975464,-0.1626595556735992,0.0,-0.2099854499101638,0.6243987679481506,9.061525344848633,4.0703125,0,B1,6.1,180,270.0,0.0188455469582498,[13100|0|0|0],start
7000,1.7842698097229004,-0.1629904806613922,0.0,-0.2000815421342849,0.6145402789115906,9.035965919494627,4.0703125,0,B1,6.1,180,270.0,0.0192254961948219,[13200|0|0|0],start
7100,1.784329533576965,-0.1625769883394241,0.0,-0.2076640278100967,0.6120448112487793,9.02663230895996,4.0703125,0,B1,6.1,180,270.0,0.019643279438946,[13300|0|0|0],start
7200,1.7841479778289795,-0.1627664417028427,0.0,-0.2072989642620086,0.6188703775405884,9.044642448425291,4.0703125,0,B1,6.1,180,270.0,0.019905681928525,[13400|0|0|0],start
7300,1.7842094898223877,-0.1628087610006332,0.0,-0.2117311656475067,0.6176514625549316,9.038294792175291,4.0703125,0,B1,6.1,180,270.0,0.019980345495936,[13500|0|0|0],start
7400,1.7840276956558228,-0.1629428416490554,0.0,-0.2105973958969116,0.6189329624176025,9.031999588012695,4.0703125,0,B1,6.1,180,270.0,0.0202062364857482,[13600|0|0|0],start
7500,1.7841962575912476,-0.1627539694309234,0.0,-0.2160403132438659,0.6117687821388245,9.042720794677734,4.0703125,0,B1,6.1,180,270.0,0.0204593882995996,[13700|0|0|0],start
7600,1.7841709852218628,-0.1626372933387756,0.0,-0.2216255068778991,0.618638277053833,9.025542259216309,4.0703125,0,B1,6.1,180,270.0,0.0205787700533696,[13800|0|0|0],start
7700,1.7842178344726562,-0.1622082442045211,0.0,-0.2220260202884674,0.622103214263916,8.913396835327148,4.0703125,0,B1,6.1,180,270.0,0.0210103694184114,[13900|0|0|0],start
7800,1.784183382987976,-0.1626908481121063,0.0,-0.2048192918300628,0.6322581171989441,8.952902793884277,4.0703125,0,B1,6.1,180,270.0,0.0214942014516762,[14000|0|0|0],start
7900,1.784551024436951,-0.1628015786409378,0.0,-0.1964523941278457,0.6270954012870789,9.002533912658691,4.0703125,0,B1,6.1,180,270.0,0.0218781565076654,[14100|0|0|0],start
8000,1.7842406034469604,-0.16277377307415,0.0,-0.1960487216711044,0.636063814163208,9.02641487121582,4.0703125,0,B1,6.1,180,270.0,0.0221898203338805,[14200|0|0|0],start
8100,1.7841607332229614,-0.1629851758480072,0.0,-0.1932186037302017,0.6346918940544128,9.022100448608398,4.0703125,0,B1,6.1,180,270.0,0.0224158079120262,[14300|0|0|0],start
8200,1.784279704093933,-0.1627788841724395,0.0,-0.202107235789299,0.6197673678398132,9.042611122131348,4.0703125,0,B1,6.1,180,270.0,0.0226539472064492,[14400|0|0|0],start
8300,1.7841650247573853,-0.1627032309770584,0.0,-0.2029871344566345,0.6189987063407898,9.062979698181152,4.0703125,0,B1,6.1,180,270.0,0.0227913326358165,[14500|0|0|0],start
8400,1.7841559648513794,-0.1629412919282913,0.0,-0.2011788487434387,0.620222270488739,9.051578521728516,4.0703125,0,B1,6.1,180,270.0,0.0230295659214815,[14600|0|0|0],start
8500,1.7840003967285156,-0.1626088619232177,0.0,-0.2199939042329788,0.6270776987075806,9.040565490722656,4.0703125,0,B1,6.1,180,270.0,0.02339659609616,[14700|0|0|0],start
8600,1.7842493057250977,-0.1628591418266296,0.0,-0.2114332169294357,0.6209463477134705,9.048842430114746,4.0703125,0,B1,6.1,180,270.0,0.0237495772835219,[14800|0|0|0],start
8700,1.7844080924987793,-0.1627065688371658,0.0,-0.2142537981271743,0.6124913692474365,9.044671058654783,4.0703125,0,B1,6.1,180,270.0,0.0239697857225294,[14900|0|0|0],start
8800,1.7842779159545898,-0.1626196652650833,0.0,-0.2177817821502685,0.6094171404838562,9.019505500793455,4.0703125,0,B1,6.1,180,270.0,0.0241263046143534,[15000|0|0|0],start
8900,1.784168720245361,-0.1625438183546066,0.0,-0.2206057608127594,0.608817458152771,9.029397010803224,4.0703125,0,B1,6.1,180,270.0,0.0242592574508889,[15100|0|0|0],start
9000,1.7842072248458862,-0.1627278625965118,0.0,-0.2174006253480911,0.5993371605873108,9.0123291015625,4.0703125,0,B1,6.1,180,270.0,0.0244472864040851,[15200|0|0|0],start
9100,1.7843433618545532,-0.1630650013685226,0.0,-0.2121278494596481,0.6005976796150208,9.020098686218262,4.0703125,0,B1,6.1,180,270.0,0.0248108738581064,[15300|0|0|0],start
9200,1.7841581106185913,-0.1629183143377304,0.0,-0.2163611501455307,0.601815402507782,9.0107421875,4.0703125,0,B1,6.1,180,270.0,0.025047168389207,[15400|0|0|0],start
9300,1.7841778993606567,-0.1628120392560959,0.0,-0.2218076586723327,0.6029462814331055,9.032754898071287,4.0703125,0,B1,6.1,180,270.0,0.0251552701342852,[15500|0|0|0],start
9400,1.784268140792847,-0.1626026779413223,0.0,-0.2280511260032653,0.5957935452461243,9.051557540893556,4.0703125,0,B1,6.1,180,270.0,0.0253832518796235,[15600|0|0|0],start
9500,1.7843550443649292,-0.1628176569938659,0.0,-0.2205462157726287,0.5921099185943604,9.075672149658203,4.0703125,0,B1,6.1,180,270.0,0.0256151316412958,[15700|0|0|0],start
9600,1.784215807914734,-0.1625950038433075,0.0,-0.2300319075584411,0.5980841517448425,9.066536903381348,4.0703125,0,B1,6.1,180,270.0,0.0258777363147434,[15800|0|0|0],start
9700,1.784257888793945,-0.162837728857994,0.0,-0.2183170914649963,0.5981839895248413,9.080366134643556,4.0703125,0,B1,6.1,180,270.0,0.0261240820740934,[15900|0|0|0],start
9800,1.784199357032776,-0.1626984030008316,0.0,-0.2246632426977157,0.5968208312988281,9.10680866241455,4.0703125,0,B1,6.1,180,270.0,0.0262752034211612,[16000|0|0|0],start
9900,1.7842559814453125,-0.1623874753713607,0.0,-0.2389066368341446,0.5925731062889099,9.072809219360352,4.0703125,0,B1,6.1,180,270.0,0.0265912450558606,[16100|0|0|0],start
10000,1.7842280864715576,-0.1629611104726791,0.0,-0.2293382138013839,0.6006296277046204,9.089459419250488,4.0703125,0,B1,6.1,180,270.0,0.0271655580010615,[16200|0|0|0],start
10100,1.7841908931732178,-0.1626970618963241,0.0,-0.2437434792518615,0.6044884920120239,9.078593254089355,4.0703125,0,B1,6.1,180,270.0,0.0274322131943665,[16300|0|0|0],start
10200,1.7841311693191528,-0.1625219136476516,0.0,-0.2498103976249694,0.6008742451667786,9.037020683288574,4.0703125,0,B1,6.1,180,270.0,0.0276172641272402,[16400|0|0|0],start
10300,1.7844576835632324,-0.1628547310829162,0.0,-0.2386761158704757,0.595090389251709,9.034419059753418,4.0703125,0,B1,6.1,180,270.0,0.0280835033328021,[16500|0|0|0],start
10400,1.7842001914978027,-0.1625509709119796,0.0,-0.244759514927864,0.600142776966095,9.043781280517578,4.0703125,0,B1,6.1,180,270.0,0.0284817148409314,[16600|0|0|0],start
10500,1.7843315601348877,-0.1627300530672073,0.0,-0.2393676191568374,0.5965420007705688,9.05806827545166,4.0703125,0,B1,6.1,180,270.0,0.0287038142266365,[16700|0|0|0],start
10600,1.7842594385147097,-0.1627693623304367,0.0,-0.2365973442792892,0.5984786152839661,9.054911613464355,4.0703125,0,B1,6.1,180,270.0,0.0287859528063219,[16800|0|0|0],start
10700,1.7843034267425537,-0.1625552177429199,0.0,-0.2415169924497604,0.5962849855422974,9.068196296691896,4.0703125,0,B1,6.1,180,270.0,0.0290045686075615,[16900|0|0|0],start
10800,1.7841876745224,-0.1627058535814285,0.0,-0.2336955517530441,0.6036387085914612,9.069238662719728,4.0703125,0,B1,6.1,180,270.0,0.0291945415854129,[17000|0|0|0],start
10900,1.784329891204834,-0.1629509031772613,0.0,-0.2217134535312652,0.602981448173523,9.067218780517578,4.0703125,0,B1,6.1,180,270.0,0.0294778698211755,[17100|0|0|0],start
11000,1.7842174768447876,-0.1628299057483673,0.0,-0.2253186404705047,0.6051219701766968,9.033984184265137,4.0703125,0,B1,6.1,180,270.0,0.0296430284302263,[17200|0|0|0],start
11100,1.7841064929962158,-0.1628433316946029,0.0,-0.225541740655899,0.6047098636627197,9.041961669921877,4.0703125,0,B1,6.1,180,270.0,0.0297548214115629,[17300|0|0|0],start
11200,1.7841306924819946,-0.1626260727643966,0.0,-0.2319608181715011,0.6033200025558472,9.054542541503906,4.0703125,0,B1,6.1,180,270.0,0.0299734239226792,[17400|0|0|0],start
11300,1.7840830087661743,-0.1626255214214325,0.0,-0.2302198112010955,0.6069048047065735,9.05751895904541,4.0703125,0,B1,6.1,180,270.0,0.0300211108258445,[17500|0|0|0],start
11400,1.784298539161682,-0.1629439145326614,0.0,-0.2128443568944931,0.6083770990371704,9.025012969970703,4.0703125,0,B1,6.1,180,270.0,0.0304055942775894,[17600|0|0|0],start
11500,1.784057378768921,-0.1628555804491043,0.0,-0.2104872018098831,0.613730788230896,9.03492546081543,4.0703125,0,B1,6.1,180,270.0,0.0306624234919606,[17700|0|0|0],start
11600,1.7842079401016235,-0.1627583801746368,0.0,-0.2120945155620575,0.6163963675498962,9.034378051757812,4.0703125,0,B1,6.1,180,270.0,0.0308416345637774,[17800|0|0|0],start
11700,1.7841733694076538,-0.1627542972564697,0.0,-0.2116863280534744,0.6125982999801636,9.038835525512695,4.0703125,0,B1,6.1,180,270.0,0.0308764455261644,[17900|0|0|0],start
11800,1.7843791246414185,-0.1626671552658081,0.0,-0.2130520045757293,0.6038229465484619,9.035619735717772,4.0703125,0,B1,6.1,180,270.0,0.0310998933785999,[18000|0|0|0],start
11900,1.7842555046081543,-0.1626766473054886,0.0,-0.2095435857772827,0.6063295602798462,9.029559135437012,4.0703125,0,B1,6.1,180,270.0,0.0312238772946597,[18100|0|0|0],start
12000,1.7842068672180176,-0.1631253510713577,0.0,-0.197158396244049,0.6128103137016296,9.024398803710938,4.0703125,0,B1,6.1,180,270.0,0.0316752093954728,[18200|0|0|0],start
12100,1.7841628789901731,-0.1625938713550567,0.0,-0.2125973850488662,0.6064210534095764,9.05477809906006,4.0703125,0,B1,6.1,180,270.0,0.0322085063606135,[18300|0|0|0],start
12200,1.7842347621917725,-0.1625434607267379,0.0,-0.2148738950490951,0.6123026013374329,9.077059745788574,4.0703125,0,B1,6.1,180,270.0,0.0322963040036324,[18400|0|0|0],start
12300,1.7842344045639038,-0.1625881493091583,0.0,-0.2135507762432098,0.6181968450546265,9.081687927246094,4.0703125,0,B1,6.1,180,270.0,0.0323409940170184,[18500|0|0|0],start
12400,1.7841795682907104,-0.1625333130359649,0.0,-0.2110535949468612,0.6236186027526855,9.08724880218506,4.0703125,0,B1,6.1,180,270.0,0.0324185442182785,[18600|0|0|0],start
12500,1.784223198890686,-0.1627314537763595,0.0,-0.2062842845916748,0.6240222454071045,9.091758728027344,4.0703125,0,B1,6.1,180,270.0,0.0326214318281967,[18700|0|0|0],start
12600,1.7841904163360596,-0.1627969741821289,0.0,-0.2029554843902588,0.6255205273628235,9.088568687438965,4.0703125,0,B1,6.1,180,270.0,0.0326946958675341,[18800|0|0|0],start
12700,1.7842438220977783,-0.1628960818052292,0.0,-0.2018499374389648,0.6169613599777222,9.074609756469728,4.0703125,0,B1,6.1,180,270.0,0.0328072769331772,[18900|0|0|0],start
12800,1.7840626239776611,-0.1627713292837143,0.0,-0.2085916548967361,0.6172828078269958,9.10437297821045,4.0703125,0,B1,6.1,180,270.0,0.0330272677292536,[19000|0|0|0],start
12900,1.7844446897506714,-0.1626797318458557,0.0,-0.2112911492586136,0.6063851714134216,8.958268165588379,4.0703125,0,B1,6.1,180,270.0,0.0334201600116011,[19100|0|0|0],start
13000,1.784329533576965,-0.1627319157123565,0.0,-0.1750090420246124,0.6168202757835388,8.578082084655762,4.0703125,0,B1,6.1,180,270.0,0.0335465882531677,[19200|0|0|0],start
13100,1.7841118574142456,-0.1628546565771103,0.0,-0.1684180200099945,0.6296166181564331,8.246542930603027,4.0703125,0,B1,6.1,180,270.0,0.0337964846951128,[19300|0|0|0],start
13200,1.7840768098831177,-0.1626532524824142,0.0,-0.1744276881217956,0.6192995309829712,8.369577407836914,4.0703125,0,B1,6.1,180,270.0,0.0340009154628522,[19400|0|0|0],start
13300,1.7844089269638062,-0.1629288494586944,0.0,-0.1830583661794662,0.6071690917015076,8.576518058776855,4.0703125,0,B1,6.1,180,270.0,0.0344324886879483,[19500|0|0|0],start
13400,1.7842241525650024,-0.1629035174846649,0.0,-0.2009826302528381,0.607366681098938,8.690053939819336,4.0703125,0,B1,6.1,180,270.0,0.0346189914690576,[19600|0|0|0],start
13500,1.7841342687606812,-0.1627614498138427,0.0,-0.2215843051671981,0.6079453229904175,8.782771110534668,4.0703125,0,B1,6.1,180,270.0,0.0347871054820729,[19700|0|0|0],start
13600,1.7840808629989624,-0.1626551002264022,0.0,-0.2352607548236847,0.5984280705451965,8.869389533996582,4.0703125,0,B1,6.1,180,270.0,0.0349061114068561,[19800|0|0|0],start
13700,1.7840157747268677,-0.1629401296377182,0.0,-0.2340338826179504,0.6021178364753723,8.902990341186523,4.0703125,0,B1,6.1,180,270.0,0.0351984780405191,[19900|0|0|0],start
13800,1.7843097448349,-0.1629242599010467,0.0,-0.2365845590829849,0.6003158092498779,8.951504707336426,4.0703125,0,B1,6.1,180,270.0,0.0354928761943151,[20000|0|0|0],start
13900,1.7843010425567627,-0.1627989262342453,0.0,-0.2441141456365585,0.6041808128356934,8.997511863708496,4.0703125,0,B1,6.1,180,270.0,0.0356185116100173,[20100|0|0|0],start
14000,1.784440279006958,-0.1628894209861755,0.0,-0.2443791627883911,0.597076416015625,9.03624439239502,4.0703125,0,B1,6.1,180,270.0,0.0357845721086011,[20200|0|0|0],start
14100,1.7843341827392578,-0.1630105674266815,0.0,-0.2419630140066146,0.6026723384857178,9.010543823242188,4.0703125,0,B1,6.1,180,270.0,0.0359456089927835,[20300|0|0|0],start
14200,1.7841726541519165,-0.162878006696701,0.0,-0.2435072958469391,0.6036199331283569,9.007179260253906,4.0703125,0,B1,6.1,180,270.0,0.0361545679161667,[20400|0|0|0],start
14300,1.7842140197753906,-0.1630348414182663,0.0,-0.238793596625328,0.6046316027641296,8.99609088897705,4.0703125,0,B1,6.1,180,270.0,0.0363167660810573,[20500|0|0|0],start
14400,1.784376621246338,-0.1629670113325119,0.0,-0.2351577430963516,0.6024060845375061,8.99361801147461,4.0703125,0,B1,6.1,180,270.0,0.0364929482563409,[20600|0|0|0],start
14500,1.7842830419540403,-0.1627230495214462,0.0,-0.2409692257642746,0.6031433939933777,8.972771644592285,4.0703125,0,B1,6.1,180,270.0,0.0367542420549764,[20700|0|0|0],start
14600,1.784300446510315,-0.1629190444946289,0.0,-0.2327147275209427,0.5988445281982422,8.993666648864746,4.0703125,0,B1,6.1,180,270.0,0.036951008281987,[20800|0|0|0],start
14700,1.7843607664108276,-0.163065880537033,0.0,-0.2297970056533813,0.5981801152229309,8.97568416595459,4.0703125,0,B1,6.1,180,270.0,0.0371097511991416,[20900|0|0|0],start
14800,1.7841546535491943,-0.1627005934715271,0.0,-0.2431290745735168,0.6013473272323608,9.039368629455566,4.0703125,0,B1,6.1,180,270.0,0.0375291759861495,[21000|0|0|0],start
14900,1.784255862236023,-0.1629483550786972,0.0,-0.2352975010871887,0.6027374863624573,9.064536094665527,4.0703125,0,B1,6.1,180,270.0,0.0377968119558492,[21100|0|0|0],start
15000,1.7842878103256226,-0.1626487970352172,0.0,-0.2496534585952758,0.6009292006492615,9.06047821044922,4.0703125,0,B1,6.1,180,270.0,0.038098068826049,[21200|0|0|0],start
15100,1.7842856645584106,-0.1627297401428222,0.0,-0.2395534217357635,0.6037638783454895,9.05442714691162,4.0703125,0,B1,6.1,180,270.0,0.0381790403703451,[21300|0|0|0],start
15200,1.7840887308120728,-0.1627663522958755,0.0,-0.2353385090827942,0.6106854677200317,9.031254768371582,4.0703125,0,B1,6.1,180,270.0,0.038379348508467,[21400|0|0|0],start
15300,1.784195899963379,-0.162788525223732,0.0,-0.2285079956054687,0.6138310432434082,9.044469833374023,4.0703125,0,B1,6.1,180,270.0,0.0384887873759749,[21500|0|0|0],start
15400,1.7842918634414673,-0.162692055106163,0.0,-0.2274805009365081,0.6149761080741882,9.055024147033691,4.0703125,0,B1,6.1,180,270.0,0.0386248589479898,[21600|0|0|0],start
15500,1.7842586040496826,-0.1625598818063736,0.0,-0.2218560427427292,0.6183009147644043,9.073382377624512,4.0703125,0,B1,6.1,180,270.0,0.0387611526320661,[21700|0|0|0],start
15600,1.7843390703201294,-0.1628266423940658,0.0,-0.2120957523584365,0.6113602519035339,9.071868896484377,4.0703125,0,B1,6.1,180,270.0,0.0390397850634619,[21800|0|0|0],start
15700,1.7842005491256714,-0.1627623587846756,0.0,-0.2117112725973129,0.6095864176750183,9.084827423095703,4.0703125,0,B1,6.1,180,270.0,0.0391924955861848,[21900|0|0|0],start
15800,1.784159541130066,-0.1628545671701431,0.0,-0.2074533849954605,0.6116295456886292,9.091879844665527,4.0703125,0,B1,6.1,180,270.0,0.0392934116010392,[22000|0|0|0],start
15900,1.7843077182769775,-0.1626875400543213,0.0,-0.1710502505302429,0.615593433380127,8.70391845703125,4.0703125,0,B1,6.1,180,270.0,0.0395166928682486,[22100|0|0|0],start
16000,1.7843714952468872,-0.1625588089227676,0.0,-0.1614538580179214,0.6167402267456055,8.342321395874023,4.0703125,0,B1,6.1,180,270.0,0.0396603563852665,[22200|0|0|0],start
16100,1.784319519996643,-0.1626299768686294,0.0,-0.1558606028556823,0.6259403824806213,8.041531562805176,4.0703125,0,B1,6.1,180,270.0,0.0397484830166336,[22300|0|0|0],start
16200,1.7843031883239746,-0.1629489362239837,0.0,-0.1486174166202545,0.6356353163719177,7.773996353149414,4.0703125,0,B1,6.1,180,270.0,0.0400678602135344,[22400|0|0|0],start
16300,1.7842499017715454,-0.1630651950836181,0.0,-0.1645975112915039,0.6337602138519287,7.53511381149292,4.0703125,0,B1,6.1,180,270.0,0.0401957491462584,[22500|0|0|0],start
16400,1.784146070480347,-0.1628456711769104,0.0,-0.1811234056949615,0.6221200227737427,7.794229984283447,4.0703125,0,B1,6.1,180,270.0,0.0404385900049461,[22600|0|0|0],start
16500,1.7841784954071045,-0.1629257351160049,0.0,-0.1961319595575332,0.612512469291687,8.138860702514648,4.0703125,0,B1,6.1,180,270.0,0.0405249706174616,[22700|0|0|0],start
16600,1.784056544303894,-0.1628865748643875,0.0,-0.2138898223638534,0.6127538084983826,8.403342247009277,4.0703125,0,B1,6.1,180,270.0,0.0406530549524951,[22800|0|0|0],start
16700,1.7843835353851318,-0.1630763858556747,0.0,-0.2161704748868942,0.6025803685188293,8.544556617736816,4.0703125,0,B1,6.1,180,270.0,0.0410311440684751,[22900|0|0|0],start
16800,1.784311294555664,-0.1628852486610412,0.0,-0.2302601039409637,0.6069132685661316,8.672011375427246,4.0703125,0,B1,6.1,180,270.0,0.0412354775327303,[23000|0|0|0],start
16900,1.784227728843689,-0.1627435982227325,0.0,-0.2401205897331237,0.6077129244804382,8.74470329284668,4.0703125,0,B1,6.1,180,270.0,0.0413999405221564,[23100|0|0|0],start
17000,1.7843881845474243,-0.1629023253917694,0.0,-0.2367089390754699,0.6068194508552551,8.825325965881348,4.0703125,0,B1,6.1,180,270.0,0.0416256402054784,[23200|0|0|0],start
17100,1.7841514348983765,-0.1629744172096252,0.0,-0.2331907004117965,0.6171367764472961,8.895797729492188,4.0703125,0,B1,6.1,180,270.0,0.0418731227837057,[23300|0|0|0],start
17200,1.7842637300491333,-0.1631964296102523,0.0,-0.230747789144516,0.6180624961853027,8.893533706665039,4.0703125,0,B1,6.1,180,270.0,0.0421219193007949,[23400|0|0|0],start
17300,1.7842841148376465,-0.1626220196485519,0.0,-0.2451129257678985,0.6107757687568665,8.940503120422363,4.0703125,0,B1,6.1,180,270.0,0.0426966908586363,[23500|0|0|0],start
17400,1.78438401222229,-0.1628254354000091,0.0,-0.237474650144577,0.6035341620445251,8.94063949584961,4.0703125,0,B1,6.1,180,270.0,0.0429233126920935,[23600|0|0|0],start
17500,1.784215211868286,-0.1630015522241592,0.0,-0.2293174564838409,0.6059781312942505,8.963204383850098,4.0703125,0,B1,6.1,180,270.0,0.0431672608326083,[23700|0|0|0],start
17600,1.7843434810638428,-0.1627261936664581,0.0,-0.2349794059991836,0.6060453057289124,8.995685577392578,4.0703125,0,B1,6.1,180,270.0,0.0434710293659162,[23800|0|0|0],start
17700,1.7842228412628174,-0.1629461199045181,0.0,-0.2276360243558883,0.6130145788192749,8.991144180297852,4.0703125,0,B1,6.1,180,270.0,0.043721870972869,[23900|0|0|0],start
17800,1.7842485904693604,-0.1624746471643448,0.0,-0.2384021431207656,0.6076325178146362,9.025005340576172,4.0703125,0,B1,6.1,180,270.0,0.0441940463283929,[24000|0|0|0],start
17900,1.7842320203781128,-0.1625255495309829,0.0,-0.2295649945735931,0.601186215877533,9.028993606567385,4.0703125,0,B1,6.1,180,270.0,0.0442475778037445,[24100|0|0|0],start
18000,1.7841469049453735,-0.1626493334770202,0.0,-0.2213235199451446,0.6083736419677734,9.033991813659668,4.0703125,0,B1,6.1,180,270.0,0.0443978013111824,[24200|0|0|0],start
18100,1.7842791080474854,-0.1628799587488174,0.0,-0.213031604886055,0.6023651361465454,9.063322067260742,4.0703125,0,B1,6.1,180,270.0,0.0446636314753842,[24300|0|0|0],start
18200,1.784381628036499,-0.1629991382360458,0.0,-0.208970233798027,0.6042441725730896,9.065220832824709,4.0703125,0,B1,6.1,180,270.0,0.0448208386581825,[24400|0|0|0],start
18300,1.7844178676605225,-0.1626886874437332,0.0,-0.2105904072523117,0.6028246283531189,9.179479598999023,4.0703125,0,B1,6.1,180,270.0,0.0451333974603252,[24500|0|0|0],start
18400,1.7841709852218628,-0.1626344919204712,0.0,-0.2129889279603958,0.6079694628715515,9.171582221984863,4.0703125,0,B1,6.1,180,270.0,0.045386158401256,[24600|0|0|0],start
18500,1.7841274738311768,-0.1624300479888916,0.0,-0.2185339927673339,0.5974945425987244,9.178977012634276,4.0703125,0,B1,6.1,180,270.0,0.04559518127627,[24700|0|0|0],start
18600,1.784265637397766,-0.1624805033206939,0.0,-0.2204037755727768,0.5909019112586975,9.175498962402344,4.0703125,0,B1,6.1,180,270.0,0.0457422693846946,[24800|0|0|0],start
18700,1.7845011949539185,-0.1629097759723663,0.0,-0.2108816504478454,0.5822045803070068,9.080233573913574,4.0703125,0,B1,6.1,180,270.0,0.0462319247448556,[24900|0|0|0],start
18800,1.7841781377792358,-0.1626426875591278,0.0,-0.2170065492391586,0.587019145488739,9.170883178710938,4.0703125,0,B1,6.1,180,270.0,0.0466510931580265,[25000|0|0|0],start
18900,1.784293293952942,-0.1623605191707611,0.0,-0.2235441356897354,0.5856504440307617,9.198410034179688,4.0703125,0,B1,6.1,180,270.0,0.0469558552680994,[25100|0|0|0],start
19000,1.784225583076477,-0.1626027822494506,0.0,-0.2173062115907669,0.5816721320152283,9.189251899719238,4.0703125,0,B1,6.1,180,270.0,0.0472074028025491,[25200|0|0|0],start
19100,1.7842605113983154,-0.162934198975563,0.0,-0.2101254761219024,0.5788866877555847,9.170714378356934,4.0703125,0,B1,6.1,180,270.0,0.047540655010364,[25300|0|0|0],start
19200,1.784439206123352,-0.1624373346567154,0.0,-0.2271408885717392,0.5650271773338318,9.162458419799805,4.0703125,0,B1,6.1,180,270.0,0.0480686758017158,[25400|0|0|0],start
19300,1.7841861248016355,-0.1627312749624252,0.0,-0.2187975347042083,0.5771299004554749,9.160860061645508,4.0703125,0,B1,6.1,180,270.0,0.0484565560135372,[25500|0|0|0],start
19400,1.7843297719955444,-0.162835493683815,0.0,-0.2153235822916031,0.5826812982559204,9.135126113891602,4.0703125,0,B1,6.1,180,270.0,0.0486340273019362,[25600|0|0|0],start
19500,1.784307599067688,-0.1628245711326599,0.0,-0.2170239984989166,0.5897813439369202,9.162714004516602,4.0703125,0,B1,6.1,180,270.0,0.0486587445196895,[25700|0|0|0],start
19601,1.7843587398529053,-0.1629598140716552,0.0,-0.212326318025589,0.5900560021400452,9.130410194396973,4.0703125,0,B1,6.1,180,270.0,0.0488033337048339,[25800|0|0|0],start
19701,1.784309983253479,-0.1624861657619476,0.0,-0.2325362563133239,0.5881869196891785,9.157408714294434,4.0703125,0,B1,6.1,180,270.0,0.0492794848649464,[25900|0|0|0],start
19800,1.7844592332839966,-0.1626056879758834,0.0,-0.2322458624839782,0.5844014286994934,9.15541172027588,4.0703125,0,B1,6.1,180,270.0,0.0494706945175103,[26000|0|0|0],start
19900,1.7843317985534668,-0.1628826111555099,0.0,-0.2237157225608825,0.590452253818512,9.164694786071776,4.0703125,0,B1,6.1,180,270.0,0.0497755322742919,[26100|0|0|0],start
20001,1.7841434478759766,-0.1623708754777908,0.0,-0.2349175363779068,0.5961891412734985,9.151769638061523,4.0703125,0,B1,6.1,180,270.0,0.0503208297908475,[26200|0|0|0],start
20101,1.7841850519180298,-0.1625228822231292,0.0,-0.2233631908893585,0.597337543964386,9.169625282287598,4.0703125,0,B1,6.1,180,270.0,0.0504784272113325,[26300|0|0|0],start
20201,1.7842687368392944,-0.1626895517110824,0.0,-0.2205387204885482,0.5938031673431396,9.12205982208252,4.0703125,0,B1,6.1,180,270.0,0.0506649262307982,[26400|0|0|0],start
20301,1.78431499004364,-0.162451222538948,0.0,-0.227069467306137,0.5906063318252563,9.130882263183594,4.0703125,0,B1,6.1,180,270.0,0.0509077021628888,[26500|0|0|0],start
20401,1.784251093864441,-0.1623169928789138,0.0,-0.2258910685777664,0.5911071300506592,9.16278839111328,4.0703125,0,B1,6.1,180,270.0,0.0510563639378989,[26600|0|0|0],start
20501,1.7843776941299438,-0.1627219915390014,0.0,-0.2108887135982513,0.5872904062271118,9.180623054504396,4.0703125,0,B1,6.1,180,270.0,0.0514806887449726,[26700|0|0|0],start
20601,1.7842130661010742,-0.1625044494867324,0.0,-0.219509944319725,0.5915506482124329,9.182270050048828,4.0703125,0,B1,6.1,180,270.0,0.0517535017439205,[26800|0|0|0],start
20701,1.7841825485229492,-0.1627272367477417,0.0,-0.2108079493045807,0.5964995622634888,9.171932220458984,4.0703125,0,B1,6.1,180,270.0,0.051978369452235,[26900|0|0|0],start
20802,1.7845306396484375,-0.1626951098442077,0.0,-0.2041100710630417,0.5816999673843384,9.175609588623049,4.0703125,0,B1,6.1,180,270.0,0.0523279400024454,[27000|0|0|0],start
20901,1.784327268600464,-0.1623772531747818,0.0,-0.2130258828401565,0.5824897885322571,9.186912536621094,4.0703125,0,B1,6.1,180,270.0,0.0527052895028457,[27100|0|0|0],start
21001,1.7847455739974976,-0.1626187413930893,0.0,-0.2057314664125442,0.5798918604850769,9.18182373046875,4.0703125,0,B1,6.1,180,270.0,0.0531882967126973,[27200|0|0|0],start
21101,1.7843048572540283,-0.1626021713018417,0.0,-0.2098663598299026,0.5956999063491821,9.158734321594238,4.0703125,0,B1,6.1,180,270.0,0.0536293248477387,[27300|0|0|0],start
21201,1.784376859664917,-0.1626428067684173,0.0,-0.2092085629701614,0.5973116755485535,9.144084930419922,4.0703125,0,B1,6.1,180,270.0,0.0537120024645258,[27400|0|0|0],start
21302,1.784347653388977,-0.1626722514629364,0.0,-0.2112724632024765,0.6093569993972778,9.142430305480955,4.0703125,0,B1,6.1,180,270.0,0.0537534753061164,[27500|0|0|0],start
21402,1.7844337224960327,-0.1623350530862808,0.0,-0.2180266678333282,0.6076003909111023,9.143292427062988,4.0703125,0,B1,6.1,180,270.0,0.0541014848410555,[27600|0|0|0],start
21502,1.7843592166900637,-0.162623643875122,0.0,-0.2119608968496322,0.6098158955574036,9.1356201171875,4.0703125,0,B1,6.1,180,270.0,0.0543995381224115,[27700|0|0|0],start
21600,1.7841811180114746,-0.1626075357198715,0.0,-0.2147450298070907,0.6159306168556213,9.14702606201172,4.0703125,0,B1,6.1,180,270.0,0.0545783637692879,[27800|0|0|0],start
21700,1.784427046775818,-0.162664458155632,0.0,-0.212127074599266,0.6181922554969788,9.142311096191406,4.0703125,0,B1,6.1,180,270.0,0.0548307941969792,[27900|0|0|0],start
21800,1.784192681312561,-0.1626380383968353,0.0,-0.2155087739229202,0.6308891177177429,9.162858963012695,4.0703125,0,B1,6.1,180,270.0,0.0550666440942075,[28000|0|0|0],start
21900,1.7842676639556885,-0.1626390516757965,0.0,-0.2143130153417587,0.6335014700889587,9.19627857208252,4.0703125,0,B1,6.1,180,270.0,0.0551416335835018,[28100|0|0|0],start
22000,1.784547209739685,-0.1624672561883926,0.0,-0.2161063551902771,0.6270133852958679,9.15073585510254,4.0703125,0,B1,6.1,180,270.0,0.0554697487078753,[28200|0|0|0],start
22102,1.784323811531067,-0.1626126766204834,0.0,-0.2182908207178115,0.6343328952789307,9.153623580932615,4.0703125,0,B1,6.1,180,270.0,0.0557363080102515,[28300|0|0|0],start
22200,1.7841802835464478,-0.1626054346561432,0.0,-0.2247385084629058,0.6352223753929138,9.179827690124512,4.0703125,0,B1,6.1,180,270.0,0.0558800185819445,[28400|0|0|0],start
22300,1.7845029830932615,-0.162711352109909,0.0,-0.2223072946071624,0.6206153035163879,9.179520606994627,4.0703125,0,B1,6.1,180,270.0,0.0562196558951567,[28500|0|0|0],start
22400,1.7843343019485474,-0.1625553518533706,0.0,-0.2243821620941162,0.6277171969413757,9.195098876953123,4.0703125,0,B1,6.1,180,270.0,0.0564494153533344,[28600|0|0|0],start
22500,1.784161925315857,-0.1624269634485244,0.0,-0.2311939895153045,0.630794107913971,9.18458652496338,4.0703125,0,B1,6.1,180,270.0,0.0566643508925006,[28700|0|0|0],start
22600,1.7844197750091553,-0.1624920070171356,0.0,-0.2252871096134185,0.6303616166114807,9.18076992034912,4.0703125,0,B1,6.1,180,270.0,0.0569302778188389,[28800|0|0|0],start
22700,1.7842940092086792,-0.1628256142139434,0.0,-0.2199922353029251,0.6323491930961609,9.170658111572266,4.0703125,0,B1,6.1,180,270.0,0.0572868038323798,[28900|0|0|0],start
22800,1.7841289043426514,-0.1624906361103058,0.0,-0.2269406467676162,0.6360387206077576,9.163972854614258,4.0703125,0,B1,6.1,180,270.0,0.0576602605858369,[29000|0|0|0],start
22900,1.784354329109192,-0.1627608388662338,0.0,-0.2180733233690261,0.6267758011817932,9.184967041015623,4.0703125,0,B1,6.1,180,270.0,0.0580121495664557,[29100|0|0|0],start
23000,1.784367561340332,-0.1627284884452819,0.0,-0.2199178636074066,0.6247079372406006,9.177881240844728,4.0703125,0,B1,6.1,180,270.0,0.0580471015574821,[29200|0|0|0],start
23100,1.7844494581222534,-0.1626694947481155,0.0,-0.2180506289005279,0.6180045008659363,9.20022201538086,4.0703125,0,B1,6.1,180,270.0,0.0581480339070755,[29300|0|0|0],start
23200,1.784454584121704,-0.1623137891292572,0.0,-0.2301584184169769,0.6087854504585266,9.189753532409668,4.0703125,0,B1,6.1,180,270.0,0.0585037764588706,[29400|0|0|0],start
23300,1.7843899726867676,-0.1623546928167343,0.0,-0.2245272248983383,0.6111554503440857,9.181288719177246,4.0703125,0,B1,6.1,180,270.0,0.0585802470360476,[29500|0|0|0],start
23400,1.7842146158218384,-0.1628109365701675,0.0,-0.2119459807872772,0.6166139841079712,9.163521766662598,4.0703125,0,B1,6.1,180,270.0,0.0590690295977503,[29600|0|0|0],start
23500,1.7843234539031982,-0.1623695939779281,0.0,-0.2254241853952407,0.6164902448654175,9.154955863952637,4.0703125,0,B1,6.1,180,270.0,0.0595235942374647,[29700|0|0|0],start
23600,1.7842776775360107,-0.1629121899604797,0.0,-0.2162911295890808,0.6133468747138977,9.16887664794922,4.0703125,0,B1,6.1,180,270.0,0.0600681177687047,[29800|0|0|0],start
23700,1.7841637134552002,-0.1625402718782425,0.0,-0.2287148237228393,0.6036609411239624,9.194326400756836,4.0703125,0,B1,6.1,180,270.0,0.0604571047499907,[29900|0|0|0],start
23800,1.7844228744506836,-0.1625407636165619,0.0,-0.2311119735240936,0.5978652238845825,9.19603443145752,4.0703125,0,B1,6.1,180,270.0,0.0607162662119917,[30000|0|0|0],start
23900,1.7844274044036863,-0.1622952371835708,0.0,-0.2403205186128616,0.5966977477073669,9.180310249328612,4.0703125,0,B1,6.1,180,270.0,0.0609618344301543,[30100|0|0|0],start
24000,1.784267783164978,-0.1626865416765213,0.0,-0.2262338548898697,0.6106210947036743,9.183182716369627,4.0703125,0,B1,6.1,180,270.0,0.0613844431688832,[30200|0|0|0],start
24100,1.7842295169830322,-0.1623089462518692,0.0,-0.2375479042530059,0.6122434139251709,9.186323165893556,4.0703125,0,fly,6.1,180,270.0,0.0617639726214938,[30200|0|0|0],fly
24200,1.7838250398635864,-0.1628710925579071,0.0,-0.2362531870603561,0.6420246362686157,9.324419975280762,3.025390625,0,fly,6.1,180,270.0,0.0624565115803598,[30200|0|0|0],fly
24300,1.784231185913086,-0.16330286860466,0.0,-1.9242838621139529,0.8954980373382568,9.873113632202148,3.39453125,0,fly,6.1,180,270.0,0.0630492890833688,[30200|0|0|0],fly
24400,1.783124923706055,-0.1616693139076233,0.0184562373906373,-3.6590754985809326,3.4275293350219727,10.506003379821776,3.578125,0,fly,6.1,180,270.0,0.0816106741512584,[30200|0|0|0],fly
24500,1.7793675661087036,-0.15446238219738,0.07343740016222,-0.4275741279125213,-1.9160668849945068,9.297769546508787,3.5625,0,fly,6.1,180,270.0,0.1371893198751851,[30200|0|0|0],fly
24600,1.7812870740890503,-0.1484470963478088,0.1428545713424682,3.724780797958374,-5.302413940429688,7.141076564788818,3.58984375,0,fly,6.1,180,270.0,0.2068930631706965,[30200|0|0|0],fly
24700,1.793889403343201,-0.1491275578737259,0.2220839709043502,4.064961910247803,-5.490420341491699,4.558643341064453,3.60546875,0,fly,6.1,180,270.0,0.2871213592105266,[30200|0|0|0],fly
24800,1.816573143005371,-0.1563474684953689,0.307339459657669,2.208456754684448,-3.2880606651306152,2.793066024780273,3.611328125,0,fly,6.1,180,270.0,0.3756378973094203,[30200|0|0|0],fly
24900,1.8441684246063232,-0.1672183871269226,0.397203117609024,0.6723212599754333,-0.2871416807174682,1.6121494770050049,3.615234375,0,fly,6.1,180,270.0,0.4702695699086502,[30200|0|0|0],fly
25000,1.8718202114105225,-0.1783535927534103,0.4896753132343292,-0.9260193705558776,2.4185168743133545,0.9442600607872008,3.630859375,0,fly,6.1,180,270.0,0.5674277969487407,[30200|0|0|0],fly
25100,1.89489221572876,-0.1878717392683029,0.5819406509399414,-2.089134931564331,3.718167304992676,0.7484678626060486,3.6796875,0,fly,6.1,180,270.0,0.6630092022442813,[30200|0|0|0],fly
25200,1.9117226600646973,-0.1926370114088058,0.6677246689796448,-2.64119815826416,4.556625843048096,0.5877448320388794,3.705078125,0,fly,6.1,180,270.0,0.7505584422532858,[30200|0|0|0],fly
25300,1.9213621616363523,-0.1964989006519317,0.7378326058387756,-2.4473206996917725,4.320690631866455,0.2089942246675491,3.701171875,0,fly,6.1,180,270.0,0.8214312648986412,[30200|0|0|0],fly
25400,1.924155712127685,-0.1904686093330383,0.795892596244812,-2.012524127960205,3.6008920669555664,-0.0341342389583587,3.6796875,0,fly,6.1,180,270.0,0.8798703855601243,[30200|0|0|0],fly
25500,1.922459840774536,-0.1875264346599578,0.8376272916793823,-0.9846422672271729,2.6679720878601074,-0.3496458232402801,3.6640625,0,fly,6.1,180,270.0,0.9217430159345072,[30200|0|0|0],fly
25600,1.916458010673523,-0.1822940707206726,0.8678196668624878,-0.3189070522785187,1.5245193243026731,0.6700045466423035,3.65234375,0,fly,6.1,180,270.0,0.9529676715155054,[30200|0|0|0],fly
25700,1.908888578414917,-0.1772585958242416,0.8905538320541382,0.1578750908374786,0.6325690150260925,0.2762612104415893,3.642578125,0,fly,6.1,180,270.0,0.9774522499090874,[30200|0|0|0],fly
25800,1.900685787200928,-0.1730556637048721,0.907279133796692,0.4812614619731903,-0.019506312906742,0.0271958839148283,3.63671875,0,fly,6.1,180,270.0,0.996549007238011,[30200|0|0|0],fly
25900,1.8924522399902344,-0.169874295592308,0.9201212525367736,0.478930115699768,-0.4354582726955414,-0.1469132453203201,3.63671875,0,fly,6.1,180,270.0,1.012132088334916,[30200|0|0|0],fly
26000,1.885275721549988,-0.1680787950754165,0.9305479526519777,0.3442855179309845,-0.723986804485321,-0.0225205831229686,3.63671875,0,fly,6.1,180,270.0,1.0249165442999442,[30200|0|0|0],fly
26100,1.8795496225357056,-0.167131021618843,0.9380732178688048,0.1232866942882537,-0.71905916929245,0.8322169184684753,3.630859375,0,fly,6.1,180,270.0,1.034420022664729,[30200|0|0|0],fly
26200,1.8747575283050537,-0.1665871739387512,0.941703736782074,-0.1077625229954719,-0.7216600179672241,-0.0368811301887035,3.62109375,0,fly,6.1,180,270.0,1.0404566280845156,[30200|0|0|0],fly
26300,1.8712884187698364,-0.1657087653875351,0.9438655972480774,-0.1891665756702423,-0.5658539533615112,-0.5007334351539612,3.615234375,0,fly,6.1,180,270.0,1.0446375326785782,[30200|0|0|0],fly
26400,1.8686902523040767,-0.1643050462007522,0.9456123113632202,-0.1231568828225135,-0.3996110260486603,-0.8115720748901367,3.615234375,0,fly,6.1,180,270.0,1.0480685539170989,[30200|0|0|0],fly
26500,1.8668813705444336,-0.1632481813430786,0.9466089606285096,-0.0610877536237239,-0.396962434053421,-0.9248344302177428,3.615234375,0,fly,6.1,180,270.0,1.0503885380346645,[30200|0|0|0],fly
26600,1.8657941818237305,-0.162046417593956,0.9462881684303284,-0.0108452513813972,-0.3166103959083557,-0.9712693691253662,3.611328125,0,fly,6.1,180,270.0,1.052040543802676,[30200|0|0|0],fly
26700,1.865336418151856,-0.1598334908485412,0.9455370306968688,-0.0085457488894462,-0.2323369085788726,-0.9949913024902344,3.60546875,0,fly,6.1,180,270.0,1.054421888014353,[30200|0|0|0],fly
26800,1.865045428276062,-0.1589521914720535,0.9459125995635986,0.0846103578805923,-0.0205565523356199,-0.7945408821105957,3.60546875,0,fly,6.1,180,270.0,1.055423095122033,[30200|0|0|0],fly
26900,1.864404320716858,-0.1573080867528915,0.945707142353058,0.1595040410757064,0.118250660598278,-0.6769700050354004,3.60546875,0,fly,6.1,180,270.0,1.0571996963421728,[30200|0|0|0],fly
27000,1.8637757301330569,-0.1565024852752685,0.9468395709991456,0.2341919094324112,0.0898053348064422,-0.5167161226272583,3.60546875,0,fly,6.1,180,270.0,1.0587249879540528,[30200|0|0|0],fly
27100,1.862971305847168,-0.1552679389715194,0.9471397995948792,0.2040883749723434,0.1017218008637428,-0.460505723953247,3.60546875,0,fly,6.1,180,270.0,1.0602287632755436,[30200|0|0|0],fly
27200,1.8616650104522705,-0.1543497890233993,0.9467353224754332,-0.2773502469062805,0.5340726375579834,0.0531287938356399,3.478515625,0,fly,6.1,180,20.0,1.0618758846208365,[30200|0|0|0],fly
27300,1.854448676109314,-0.1474320888519287,0.9550552368164062,-13.76260471343994,12.921926498413086,4.087384223937988,3.47265625,0,fly,6.1,180,20.0,1.0748816922333155,[30200|0|0|0],fly
27400,1.8174552917480469,-0.1099038943648338,0.974179744720459,-27.13478279113769,23.538896560668945,12.06763744354248,3.509765625,0,fly,6.1,180,20.0,1.1309407920346308,[30200|0|0|0],fly
27500,1.75095796585083,-0.0029470408335328,0.9961856603622437,-22.733543395996094,23.411088943481445,12.381233215332031,3.47265625,0,fly,6.1,180,20.0,1.2587919679855393,[30200|0|0|0],fly
27600,1.6240501403808594,0.0942727625370025,1.0135825872421265,-6.112204551696777,14.533839225769045,9.810503005981444,3.435546875,0,fly,6.1,180,20.0,1.419602226979753,[30200|0|0|0],fly
27700,1.4670372009277344,0.1850260198116302,1.0359797477722168,8.978087425231934,-3.47448205947876,9.282238960266112,3.47265625,0,fly,6.1,180,20.0,1.6023338598774977,[30200|0|0|0],fly
27800,1.3339694738388062,0.264618843793869,1.0848287343978882,19.214859008789062,-13.33261013031006,17.853551864624023,3.515625,0,fly,6.1,180,20.0,1.7649015722820098,[30200|0|0|0],fly
27900,1.257385015487671,0.3029739260673523,1.1623852252960205,12.278425216674805,-10.206385612487791,16.41412353515625,3.525390625,0,fly,6.1,180,20.0,1.8804494016756184,[30200|0|0|0],fly
28000,1.202023148536682,0.3504649698734283,1.2528480291366575,-3.349950790405273,3.249141216278076,8.884592056274414,3.578125,0,fly,6.1,180,20.0,1.996655487715891,[30200|0|0|0],fly
28100,1.1346118450164795,0.3969531655311584,1.3307318687438965,-3.481076717376709,8.707913398742676,3.436999559402466,3.630859375,0,fly,6.1,180,20.0,2.109665791006212,[30200|0|0|0],fly
28200,1.0580627918243408,0.4518647789955139,1.4001502990722656,-0.1818491816520691,9.548369407653809,-0.7183175086975098,3.63671875,0,fly,6.1,180,20.0,2.22668699125269,[30200|0|0|0],fly
28300,0.9729909300804138,0.5095142126083374,1.4559842348098757,4.743386745452881,7.050826549530029,-2.312269926071167,3.630859375,0,fly,6.1,180,20.0,2.343640431716872,[30200|0|0|0],fly
28400,0.881062388420105,0.5621011853218079,1.4989347457885742,8.779914855957031,4.47066068649292,-2.9472224712371826,3.62109375,0,fly,6.1,180,20.0,2.4579251326365035,[30200|0|0|0],fly
28500,0.7841769456863403,0.6042762994766235,1.5304183959960938,11.027057647705078,2.847715377807617,-3.1372740268707275,3.615234375,0,fly,6.1,180,20.0,2.568182783155997,[30200|0|0|0],fly
28600,0.6840951442718506,0.6325575709342957,1.5519767999649048,11.170044898986816,1.568728804588318,-3.084959030151367,3.60546875,0,fly,6.1,180,20.0,2.6743946566509806,[30200|0|0|0],fly
28700,0.5821059346199036,0.6462966203689575,1.5667424201965332,9.65387725830078,0.909045934677124,-3.367377519607544,3.58984375,0,fly,6.1,180,20.0,2.77835899623731,[30200|0|0|0],fly
28800,0.489270955324173,0.6483955383300781,1.5765362977981567,7.564056873321533,-0.0696448162198066,-3.5469346046447754,3.59375,0,fly,6.1,180,20.0,2.8717327552701444,[30200|0|0|0],fly
28900,0.3879545331001282,0.6423290371894836,1.5819048881530762,4.685678482055664,-3.382412910461426,-3.1586127281188965,3.59375,0,fly,6.1,180,20.0,2.973372519195336,[30200|0|0|0],fly
29000,0.2904514372348785,0.6321094036102295,1.5850228071212769,2.695838451385498,-6.117095947265625,-4.081223964691162,3.599609375,0,fly,6.1,180,20.0,3.071459297267075,[30200|0|0|0],fly
29100,0.2037945389747619,0.6201451420783997,1.5837266445159912,0.8207172155380249,-8.634471893310547,-4.7040557861328125,3.58984375,0,fly,6.1,180,20.0,3.158947819986147,[30200|0|0|0],fly
29200,0.1308420598506927,0.6069355607032776,1.5771639347076416,-0.1015005484223365,-9.829862594604492,-5.62705135345459,3.583984375,0,fly,6.1,180,20.0,3.2333764865769328,[30200|0|0|0],fly
29300,0.0709192007780075,0.5988730192184448,1.5680434703826904,-0.6154510974884033,-9.59877872467041,-5.914780616760254,3.568359375,0,fly,6.1,180,20.0,3.294523330192464,[30200|0|0|0],fly
29400,0.0270746573805809,0.5930150151252747,1.5563228130340576,0.2812257707118988,-9.31577491760254,-8.557605743408203,3.55859375,0,fly,6.1,180,20.0,3.3402839465166405,[30200|0|0|0],fly
29500,-0.0029295354615896,0.5852941274642944,1.5440645217895508,0.4877209961414337,-7.941553592681885,-2.597465991973877,3.5625,0,fly,6.1,180,20.0,3.373602550908464,[30200|0|0|0],fly
29600,-0.0219858959317207,0.5768378973007202,1.5304847955703735,0.6028538942337036,-6.640196800231934,-0.6703730821609497,3.55859375,0,fly,6.1,180,20.0,3.398483500792556,[30200|0|0|0],fly
29700,-0.0321809835731983,0.5695871114730835,1.5190104246139526,0.0571970231831073,-4.972151756286621,2.383227825164795,3.552734375,0,fly,6.1,180,20.0,3.41545921568122,[30200|0|0|0],fly
29800,-0.033865351229906,0.5639235973358154,1.5083577632904053,-0.2771914899349212,-3.834924697875977,4.379565238952637,3.552734375,0,fly,6.1,180,20.0,3.427640828056444,[30200|0|0|0],fly
29900,-0.0308538042008876,0.5585720539093018,1.4966365098953247,-0.8958041071891785,-2.260411024093628,6.171929836273193,3.552734375,0,fly,6.1,180,20.0,3.44087322064832,[30200|0|0|0],fly
30000,-0.0270715020596981,0.5567026734352112,1.4852473735809326,-1.174141526222229,-1.4496536254882812,7.419878959655762,3.546875,0,fly,6.1,180,20.0,3.4530187061813056,[30200|0|0|0],fly
30100,-0.0224355589598417,0.557989239692688,1.4733651876449585,-1.020720601081848,-0.5666987895965576,8.814242362976074,3.541015625,0,fly,6.1,180,20.0,3.4658379715181744,[30200|0|0|0],fly
30200,-0.0176315028220415,0.5613945126533508,1.4608972072601318,-1.1437102556228638,0.4409654140472412,9.66472053527832,3.66796875,0,fly,6.1,180,270.0,3.4796265673200746,[30200|0|0|0],fly
30300,-0.0132497418671846,0.5668191909790039,1.4378604888916016,0.2209901362657547,-0.415582001209259,9.611645698547363,3.78515625,0,fly,6.1,180,270.0,3.503695579705158,[30200|0|0|0],fly
30400,-0.0106255980208516,0.5730732083320618,1.3811895847320557,1.6775286197662354,-0.2604168355464935,8.432373046875,3.68359375,0,fly,6.1,180,270.0,3.560770882965316,[30200|0|0|0],fly
30500,-0.0090364171192049,0.5778059959411621,1.2927770614624023,1.7812825441360474,-0.4237070977687835,8.279767036437988,3.59375,0,fly,6.1,180,270.0,3.6493242513111785,[30200|0|0|0],fly
30600,-0.0086241159588098,0.5818914771080017,1.185842752456665,0.9905956387519836,1.0106608867645264,9.907984733581545,3.568359375,0,fly,6.1,180,270.0,3.756337370091756,[30200|0|0|0],fly
30700,-0.0100804353132843,0.5844131112098694,1.0714023113250732,1.053810715675354,-0.5016411542892456,12.316283226013184,3.568359375,0,fly,6.1,180,270.0,3.870814852903876,[30200|0|0|0],fly
30800,-0.0092670116573572,0.5852071642875671,0.950103998184204,0.8056172132492065,1.8444567918777464,14.428659439086914,3.58984375,0,fly,6.1,180,270.0,3.992118492375883,[30200|0|0|0],fly
30900,-0.0134292291477322,0.5887740254402161,0.8245928287506104,-4.394279479980469,3.838907241821289,16.748233795166016,3.599609375,0,fly,6.1,180,270.0,4.117749301517223,[30200|0|0|0],fly
31000,-0.023688780143857,0.5968762636184692,0.6923587322235107,-2.9891726970672607,2.6325836181640625,17.66189193725586,3.5625,0,fly,6.1,180,270.0,4.250628046749399,[30200|0|0|0],fly
31100,-0.041811529546976,0.608010470867157,0.5556434392929077,-2.20674467086792,3.856867074966431,19.647445678710938,3.57421875,0,fly,6.1,180,270.0,4.388987997378494,[30200|0|0|0],fly
31200,-0.065471664071083,0.6183431148529053,0.4147969186306,1.6412216424942017,0.618811845779419,17.28585433959961,3.431640625,0,fly,6.1,180,270.0,4.532181250990921,[30200|0|0|0],fly
31300,-0.0884457528591156,0.6243761777877808,0.2823190689086914,5.2767534255981445,-4.173329830169678,13.428858757019045,3.404296875,0,fly,6.1,180,270.0,4.666771693708661,[30200|0|0|0],fly
31400,-0.1031154096126556,0.6219124794006348,0.178091287612915,7.749967575073242,-3.5737993717193604,10.18565273284912,3.416015625,0,fly,6.1,180,270.0,4.77205559101898,[30200|0|0|0],fly
31500,-0.1068917065858841,0.6068968176841736,0.0822682157158851,2.4292104244232178,-5.110949993133545,10.802345275878906,3.484375,0,fly,6.1,180,270.0,4.869121504827054,[30200|0|0|0],fly
31600,-0.1041356101632118,0.5899641513824463,0.0055079273879528,-4.8796563148498535,2.309201002120972,13.067161560058594,3.494140625,0,fly,6.1,180,270.0,4.947775513750719,[30200|0|0|0],fly
31700,-0.1072829514741897,0.5796637535095215,0.0,-2.154703617095948,1.1162607669830322,13.733006477355955,3.462890625,0,fly,6.1,180,270.0,4.959872671176301,[30200|0|0|0],fly
31800,-0.1261917948722839,0.5758974552154541,0.0,-3.440241575241089,30.151636123657227,14.95801067352295,3.541015625,0,fly,6.1,180,270.0,4.979152955445303,[30200|0|0|0],fly
31900,-0.1889091432094574,0.5620071291923523,0.0066547063179314,9.101829528808594,36.1378059387207,8.463362693786621,3.494140625,0,fly,6.1,180,270.0,5.043733850883911,[30200|0|0|0],fly
32000,-0.2961358726024627,0.5286558866500854,0.0146312229335308,6.155185699462891,-2.223416805267334,9.25074291229248,3.45703125,0,fly,6.1,180,270.0,5.156310498963132,[30200|0|0|0],fly
32100,-0.4038079082965851,0.4797439873218536,0.0312464125454425,7.091811656951904,-19.191131591796875,5.941012859344482,3.453125,0,fly,6.1,180,270.0,5.275732882510988,[30200|0|0|0],fly
32200,-0.4776171147823334,0.4260285496711731,0.0573639571666717,-4.588493824005127,-26.740203857421875,1.3144625425338743,3.5,0,fly,6.1,180,270.0,5.370681675768732,[30200|0|0|0],fly
32300,-0.5084273815155029,0.3819851577281952,0.0797357410192489,-10.608041763305664,-27.911924362182617,-1.474887728691101,3.505859375,0,fly,6.1,180,270.0,5.428901858031915,[30200|0|0|0],fly
32400,-0.4898608028888702,0.3558383882045746,0.0939686000347137,-13.886347770690918,-29.59161949157715,-4.977026462554932,3.46875,0,fly,6.1,180,270.0,5.463986693419506,[30200|0|0|0],fly
32500,-0.4246503114700317,0.353921115398407,0.0951893106102943,-11.638527870178224,-23.70267105102539,-5.748054504394531,3.447265625,0,fly,6.1,180,270.0,5.52923678353752,[30200|0|0|0],fly
32600,-0.3225000500679016,0.3683582246303558,0.0978906527161598,-7.415915966033935,-10.142247200012209,-3.646084547042847,3.462890625,0,fly,6.1,180,270.0,5.6324375746036335,[30200|0|0|0],fly
32700,-0.2092896550893783,0.3949166536331177,0.1138103678822517,-4.2421088218688965,0.5769852995872498,-3.2087504863739014,3.484375,0,fly,6.1,180,270.0,5.749806143706514,[30200|0|0|0],fly
32800,-0.1052370071411132,0.4285830855369568,0.1423054039478302,-0.4507296085357666,6.884040355682373,-4.564345836639404,3.546875,0,fly,6.1,180,270.0,5.862820962480691,[30200|0|0|0],fly
32900,-0.0189101360738277,0.4620238542556762,0.1718960553407669,5.981395244598389,10.462043762207031,-5.537096977233887,3.568359375,0,fly,6.1,180,270.0,5.9600126304909935,[30200|0|0|0],fly
33000,0.0473778247833251,0.488029420375824,0.194004476070404,6.012341976165772,11.470545768737791,-5.427599906921387,3.5625,0,fly,6.1,180,270.0,6.034572441991476,[30200|0|0|0],fly
33100,0.0905561745166778,0.5050514936447144,0.2081052809953689,5.226078510284424,10.304154396057127,-4.82288122177124,3.546875,0,fly,6.1,180,270.0,6.083079694682173,[30200|0|0|0],fly
33200,0.1152452155947685,0.5149617791175842,0.2159154713153839,5.582231998443604,8.12069320678711,-4.865536212921143,3.537109375,0,J1,6.1,180,270.0,6.1108062447803055,[30200|100|0|0],first_intermediate
33300,0.125729039311409,0.5174171924591064,0.2195091247558593,2.309924602508545,5.406937122344971,-4.03596305847168,3.537109375,0,J1,6.1,180,270.0,6.122157630574541,[30200|200|0|0],first_intermediate
33400,0.1256661117076873,0.5165924429893494,0.2210592925548553,0.7577641606330872,2.5441462993621826,-3.0588769912719727,3.537109375,0,J1,6.1,180,270.0,6.123914671204753,[30200|300|0|0],first_intermediate
33500,0.1208887994289398,0.5162001848220825,0.2195451855659485,-1.1284210681915283,1.3496365547180176,-2.3532495498657227,3.537109375,0,J1,6.1,180,270.0,6.128941509082815,[30200|400|0|0],first_intermediate
33600,0.115346148610115,0.5196849703788757,0.2154427915811538,-1.594473123550415,-0.6775601506233215,-2.5577051639556885,3.521484375,0,J1,6.1,180,270.0,6.1366677206307045,[30200|500|0|0],first_intermediate
33700,0.1117011085152626,0.5271855592727661,0.2089163810014724,-1.7640457153320312,-2.7243566513061523,-2.896693468093872,3.515625,0,J1,6.1,180,270.0,6.147257299758452,[30200|600|0|0],first_intermediate
