time.ms,stateEstimate.x,stateEstimate.y,stateEstimate.z,stabilizer.roll,stabilizer.pitch,stabilizer.yaw,pm.vbat,drone_id,node_name,wind_speed,global_wind_direction,relative_wind_direction,travel_dist,waiting_time,curr_node_role
0,0.7752245664596558,-0.7824498414993286,0.008362554013729,-0.320680171251297,-0.0277025233954191,-26.68559455871582,4.07421875,1,G1,6.1,180,270.0,0.0,[6200|0|0|0],start
100,0.7750458121299744,-0.7822703719139099,0.0084791770204901,-0.3242884576320648,-0.0179148111492395,-26.703096389770508,4.07421875,1,G1,6.1,180,270.0,0.0002788608401626,[6300|0|0|0],start
200,0.7753037214279175,-0.7822572588920593,0.0081867221742868,-0.3281478881835937,-0.0238112322986125,-26.703149795532227,4.07421875,1,G1,6.1,180,270.0,0.0006690133672278,[6400|0|0|0],start
300,0.7753431797027588,-0.7821506857872009,0.008538881316781,-0.3314588665962219,-0.0089075518772006,-26.71305656433105,4.07421875,1,G1,6.1,180,270.0,0.0010390550456572,[6500|0|0|0],start
400,0.775241494178772,-0.7822636961936951,0.0085787447169423,-0.3322570323944092,-0.0028931642882525,-26.716711044311523,4.07421875,1,G1,6.1,180,270.0,0.0011962186178896,[6600|0|0|0],start
500,0.7750805616378784,-0.7821252942085266,0.0081141460686922,-0.3270457983016968,0.0029024821706116,-26.736122131347656,4.07421875,1,G1,6.1,180,270.0,0.0017070084926648,[6700|0|0|0],start
600,0.7752977609634399,-0.7824527025222778,0.0083204749971628,-0.3269170224666595,-0.0003092369006481,-26.764892578125,4.07421875,1,fly,6.1,180,270.0,0.0021507915226036,[6700|0|0|0],fly
700,0.7754341959953308,-0.7822953462600708,0.0082618771120905,-0.3311178684234619,0.0018179087201133,-26.949037551879883,3.27734375,1,fly,6.1,180,270.0,0.002367145915482,[6700|0|0|0],fly
800,0.7755500674247742,-0.7815656065940857,0.009387164376676,-1.0967472791671753,0.5595647692680359,-25.06399154663086,3.505859375,1,fly,6.1,180,270.0,0.0037133322310088,[6700|0|0|0],fly
900,0.773489773273468,-0.775726318359375,0.0257243942469358,0.2147461175918579,10.165311813354492,-18.69643211364746,3.599609375,1,fly,6.1,180,270.0,0.0211846567060349,[6700|0|0|0],fly
1000,0.7518436908721924,-0.7641707062721252,0.0633076578378677,2.3377490043640137,16.513683319091797,-12.659703254699709,3.62109375,1,fly,6.1,180,270.0,0.066068804867488,[6700|0|0|0],fly
1100,0.7074796557426453,-0.7491618990898132,0.1119215115904808,-1.150604009628296,0.575564444065094,-6.4858832359313965,3.57421875,1,fly,6.1,180,270.0,0.1335724246422228,[6700|0|0|0],fly
1200,0.662010908126831,-0.7331494688987732,0.1756120920181274,0.5736721754074097,-6.8442559242248535,-1.8602160215377808,3.611328125,1,fly,6.1,180,270.0,0.2134491732339379,[6700|0|0|0],fly
1300,0.6525869369506836,-0.6972954869270325,0.2544378042221069,0.6055344343185425,-11.338024139404297,1.1894304752349854,3.58984375,1,fly,6.1,180,270.0,0.3005572220034022,[6700|0|0|0],fly
1400,0.642673909664154,-0.688254177570343,0.3330192267894745,4.421187400817871,-10.57947063446045,1.8810656070709229,3.615234375,1,fly,6.1,180,270.0,0.3802758105356763,[6700|0|0|0],fly
1500,0.6487139463424683,-0.6863729357719421,0.4153996706008911,2.817410945892334,-7.687200546264648,1.9585167169570925,3.62109375,1,fly,6.1,180,270.0,0.4628988015027516,[6700|0|0|0],fly
1600,0.6674537062644958,-0.6878893971443176,0.5014218688011169,2.866981029510498,-3.155439615249634,1.739121913909912,3.615234375,1,fly,6.1,180,270.0,0.5509516086143257,[6700|0|0|0],fly
1700,0.6920385956764221,-0.6940791606903076,0.5920299291610718,1.5698591470718384,-1.1308366060256958,1.542597413063049,3.615234375,1,fly,6.1,180,270.0,0.645039602334806,[6700|0|0|0],fly
1800,0.7163735628128052,-0.7009032964706421,0.6862586736679077,-0.6064172387123108,2.2015140056610107,1.673553705215454,3.62109375,1,fly,6.1,180,270.0,0.7425988958234934,[6700|0|0|0],fly
1900,0.7370057106018066,-0.70607590675354,0.7832875847816467,-1.1977664232254028,3.061812162399292,1.8056633472442627,3.630859375,1,fly,6.1,180,270.0,0.8419319266412622,[6700|0|0|0],fly
2000,0.7508928775787354,-0.7087928652763367,0.8820146322250366,-0.7327091693878174,3.0685372352600098,1.7611956596374512,3.66796875,1,fly,6.1,180,270.0,0.9416679039370658,[6700|0|0|0],fly
2100,0.7597517371177673,-0.7099639773368835,0.9792612195014954,-0.2380086034536361,2.644182682037353,1.715648174285889,3.705078125,1,fly,6.1,180,270.0,1.039324187056528,[6700|0|0|0],fly
2200,0.7627632021903992,-0.7137424945831299,1.067041516304016,0.4258433878421783,2.040458917617798,1.8289660215377808,3.7265625,1,fly,6.1,180,270.0,1.1272373636639197,[6700|0|0|0],fly
2300,0.7676761150360107,-0.711979866027832,1.1407917737960815,0.6723069548606873,2.016251564025879,1.0649535655975342,3.720703125,1,fly,6.1,180,270.0,1.201172091986938,[6700|0|0|0],fly
2400,0.7653319835662842,-0.718869686126709,1.194293737411499,0.8734803199768066,1.8598253726959229,5.759868621826172,3.7109375,1,fly,6.1,180,270.0,1.2551667647246043,[6700|0|0|0],fly
2500,0.7618661522865295,-0.7268842458724976,1.2285908460617063,-0.0607167445123195,1.3823044300079346,8.165468215942383,3.6796875,1,fly,6.1,180,270.0,1.2905579615981586,[6700|0|0|0],fly
2600,0.7624993920326233,-0.7294806838035583,1.2515417337417605,-0.7020920515060425,0.6453639268875122,9.203842163085938,3.6640625,1,fly,6.1,180,270.0,1.3136639289617715,[6700|0|0|0],fly
2700,0.7596079111099243,-0.7361393570899963,1.2651423215866089,-0.6382872462272644,1.3769477605819702,9.079313278198242,3.658203125,1,fly,6.1,180,270.0,1.329080627103309,[6700|0|0|0],fly
2800,0.7533243894577026,-0.7459726929664612,1.2726938724517822,-1.2701983451843262,0.589033842086792,8.309268951416016,3.658203125,1,fly,6.1,180,270.0,1.342980377434974,[6700|0|0|0],fly
2900,0.752086341381073,-0.7474962472915649,1.2760564088821411,-0.4883830547332763,1.07418692111969,7.580793380737305,3.65234375,1,fly,6.1,180,270.0,1.346874043068677,[6700|0|0|0],fly
3000,0.7455338835716248,-0.7541767358779907,1.2759145498275757,-0.0641916021704673,1.4839293956756592,6.8862624168396,3.630859375,1,fly,6.1,180,270.0,1.3562326623626395,[6700|0|0|0],fly
3100,0.7339265942573547,-0.7664400935173035,1.27363920211792,0.1687542349100113,1.4056284427642822,5.968264102935791,3.626953125,1,fly,6.1,180,270.0,1.3732707465570169,[6700|0|0|0],fly
3200,0.7238930463790894,-0.7748198509216309,1.27152419090271,-0.1083476617932319,0.53956538438797,-2.0773589611053467,3.626953125,1,fly,6.1,180,270.0,1.386513317667692,[6700|0|0|0],fly
3300,0.7114660143852234,-0.7852169275283813,1.2710968255996704,0.0358284264802932,-0.1047796085476875,-5.7731757164001465,3.630859375,1,fly,6.1,180,270.0,1.4027217403930978,[6700|0|0|0],fly
3400,0.701514482498169,-0.7934975624084473,1.2726919651031494,-0.7796567678451538,-1.0923480987548828,-6.295567989349365,3.63671875,1,fly,6.1,180,270.0,1.4157657570655644,[6700|0|0|0],fly
3500,0.6885756850242615,-0.8110452890396118,1.2740648984909058,-1.5219131708145142,-1.1794695854187012,-4.555356025695801,3.63671875,1,fly,6.1,180,270.0,1.437611125821438,[6700|0|0|0],fly
3600,0.6827224493026733,-0.8187158703804016,1.2744001150131226,-2.247108459472656,-1.8007041215896606,-1.9237719774246216,3.630859375,1,fly,6.1,180,270.0,1.4472656872633116,[6700|0|0|0],fly
3700,0.6780520081520081,-0.8287594318389893,1.2764381170272827,-5.368998527526856,-1.851015567779541,0.6088919043540955,3.44140625,1,fly,6.1,180,88.0,1.458527996064085,[6700|0|0|0],fly
3800,0.6782388091087341,-0.8216288089752197,1.291326880455017,-17.337125778198242,2.159865140914917,-0.7825574278831482,3.5,1,fly,6.1,180,88.0,1.4750372647768348,[6700|0|0|0],fly
3900,0.6773428320884705,-0.7846717834472656,1.3241546154022217,-19.429140090942383,3.725825309753418,-0.4288781881332397,3.525390625,1,fly,6.1,180,88.0,1.5244769724262397,[6700|0|0|0],fly
4000,0.6780139803886414,-0.7105051875114441,1.370943307876587,-15.024772644042969,1.368059515953064,-0.6231870055198669,3.541015625,1,fly,6.1,180,88.0,1.6121714200053705,[6700|0|0|0],fly
4100,0.677228569984436,-0.6037798523902893,1.4332592487335205,-6.247211456298828,-1.8967944383621216,1.497834324836731,3.59375,1,fly,6.1,180,88.0,1.7357602160635517,[6700|0|0|0],fly
4200,0.6835817694664001,-0.5148349404335022,1.4871389865875244,-0.4240496754646301,-1.9859403371810915,1.657702922821045,3.630859375,1,fly,6.1,180,88.0,1.8399455636795885,[6700|0|0|0],fly
4300,0.6919595003128052,-0.3995680809020996,1.5434731245040894,0.9910926222801208,-1.8874260187149048,-0.7333504557609558,3.63671875,1,fly,6.1,180,88.0,1.968515273857256,[6700|0|0|0],fly
4400,0.7066513299942017,-0.2872321009635925,1.6010890007019043,1.9110187292099,-0.0849870145320892,-2.0156619548797607,3.658203125,1,fly,6.1,180,88.0,2.0956168530692145,[6700|0|0|0],fly
4500,0.7597222924232483,-0.2224111706018448,1.6781600713729858,2.829522132873535,0.5442931652069092,-2.1830358505249023,3.673828125,1,fly,6.1,180,88.0,2.20945107463942,[6700|0|0|0],fly
4600,0.786719560623169,-0.1381063759326934,1.726484775543213,1.0008825063705444,5.2677321434021,-1.472177267074585,3.701171875,1,fly,6.1,180,88.0,2.310304571988824,[6700|0|0|0],fly
4700,0.802175760269165,-0.052344687283039,1.7550227642059326,1.5644676685333252,7.277920246124268,-3.545827865600586,3.6796875,1,fly,6.1,180,88.0,2.402001781021873,[6700|0|0|0],fly
4800,0.8072906732559204,0.0296091698110103,1.763279914855957,2.7865564823150635,7.7397027015686035,-3.966495990753174,3.642578125,1,fly,6.1,180,88.0,2.48452921624381,[6700|0|0|0],fly
4900,0.802688479423523,0.1042574271559715,1.7556548118591309,5.049427032470703,5.717546463012695,-4.812955856323242,3.611328125,1,fly,6.1,180,88.0,2.559706903814144,[6700|0|0|0],fly
5000,0.7878256440162659,0.1735164821147918,1.7383521795272827,6.451976299285889,3.940895557403565,-5.152474403381348,3.599609375,1,fly,6.1,180,88.0,2.6326253627648324,[6700|0|0|0],fly
5100,0.7662598490715027,0.2362396717071533,1.7270582914352417,7.343619346618652,1.657487154006958,-2.767867088317871,3.58984375,1,fly,6.1,180,88.0,2.699907113132034,[6700|0|0|0],fly
5200,0.7449526190757751,0.2899991273880005,1.7204301357269287,7.653613090515137,-0.0013782469322904,-1.1214693784713743,3.599609375,1,fly,6.1,180,88.0,2.758113724210892,[6700|0|0|0],fly
5300,0.7256472110748291,0.3318672478199005,1.7168830633163452,7.649747371673584,-1.0866663455963137,-0.1155041232705116,3.611328125,1,fly,6.1,180,88.0,2.804354615305993,[6700|0|0|0],fly
5400,0.710686445236206,0.3613623380661011,1.7143244743347168,7.180868625640869,-1.810503363609314,0.4836569726467132,3.611328125,1,fly,6.1,180,88.0,2.837525856474912,[6700|0|0|0],fly
5500,0.6999718546867371,0.3806286156177521,1.7128634452819824,6.146563529968262,-2.107114791870117,0.8197185397148132,3.615234375,1,fly,6.1,180,88.0,2.859619441680417,[6700|0|0|0],fly
5600,0.6942387223243713,0.3893441557884216,1.712549090385437,5.041895389556885,-1.7071068286895752,0.7787659168243408,3.626953125,1,fly,6.1,180,88.0,2.87005631219566,[6700|0|0|0],fly
5700,0.6916795969009399,0.3915011286735534,1.7117164134979248,3.375649690628052,-1.5319126844406128,0.5600084066390991,3.626953125,1,fly,6.1,180,88.0,2.873505225902763,[6700|0|0|0],fly
5800,0.6912611722946167,0.3899292647838592,1.7094351053237915,2.251302480697632,-0.2246668934822082,0.2585642635822296,3.62109375,1,fly,6.1,180,88.0,2.876307047136223,[6700|0|0|0],fly
5900,0.6913627982139587,0.3854635059833526,1.70470130443573,1.3419839143753052,0.6129143834114075,0.3681608736515045,3.615234375,1,fly,6.1,180,88.0,2.8828156722091243,[6700|0|0|0],fly
6000,0.6714353561401367,0.4115066826343536,1.6885915994644165,1.0657073259353638,0.3078086972236633,-4.945376873016357,3.615234375,1,fly,6.1,180,88.0,2.9193515804631085,[6700|0|0|0],fly
6100,0.6626970171928406,0.4169221520423889,1.6778159141540527,1.6717334985733032,-0.5934470891952515,-7.376347064971924,3.59375,1,fly,6.1,180,88.0,2.934244574466169,[6700|0|0|0],fly
6200,0.6522781848907471,0.4255679249763489,1.6714329719543457,1.7333775758743286,-1.1348791122436523,-4.776479721069336,3.59375,1,fly,6.1,180,88.0,2.949212654078783,[6700|0|0|0],fly
6300,0.6483120322227478,0.4290339946746826,1.66417133808136,2.833043575286865,-1.93082332611084,-7.229979515075684,3.60546875,1,fly,6.1,180,88.0,2.958183458537965,[6700|0|0|0],fly
6400,0.6445792317390442,0.4265326261520386,1.655078411102295,3.125428915023804,-1.5551482439041138,-5.3343119621276855,3.583984375,1,fly,6.1,180,88.0,2.9683260403090834,[6700|0|0|0],fly
6500,0.6440277099609375,0.4169174432754516,1.644534945487976,2.6830978393554688,-1.481159806251526,-1.4064332246780396,3.578125,1,fly,6.1,180,88.0,2.9826061168208624,[6700|0|0|0],fly
6600,0.6487725377082825,0.4083454310894012,1.6428691148757937,1.007087230682373,-1.7317651510238647,-1.3895608186721802,3.59375,1,fly,6.1,180,88.0,2.992544314589988,[6700|0|0|0],fly
6700,0.6546218991279602,0.3989156186580658,1.6411372423171997,0.2744306325912475,-1.2750402688980105,1.933709740638733,3.859375,1,fly,6.1,180,270.0,3.0037753329795818,[6700|0|0|0],fly
6800,0.6628373265266418,0.3904685974121094,1.6233482360839844,0.9616360664367676,-1.3164087533950806,4.025730609893799,3.83203125,1,fly,6.1,180,270.0,3.0251129560439725,[6700|0|0|0],fly
6900,0.6723114252090454,0.3767150342464447,1.5621931552886963,0.0613967552781105,-1.5090510845184326,3.0490524768829346,3.7421875,1,fly,6.1,180,270.0,3.0885074585869696,[6700|0|0|0],fly
7000,0.6829591989517212,0.3659445643424988,1.4664065837860107,-0.2953192889690399,-0.6536645889282227,2.9522464275360107,3.63671875,1,fly,6.1,180,270.0,3.185483978362976,[6700|0|0|0],fly
7100,0.6924138069152832,0.3546726107597351,1.3495196104049685,-1.273437738418579,1.1859248876571655,3.9084560871124254,3.59375,1,fly,6.1,180,270.0,3.3032931931786984,[6700|0|0|0],fly
7200,0.7002981305122375,0.3445429503917694,1.223078966140747,-2.135678291320801,2.163104772567749,4.892115592956543,3.583984375,1,fly,6.1,180,270.0,3.430383747901318,[6700|0|0|0],fly
7300,0.7039978504180908,0.3380320370197296,1.0932193994522097,-3.561931133270264,1.694604516029358,5.395791530609131,3.583984375,1,fly,6.1,180,270.0,3.5604590606276565,[6700|0|0|0],fly
7400,0.7035474181175232,0.3359055817127228,0.9633579850196838,-3.7314701080322266,1.6227589845657349,6.189245700836182,3.58984375,1,fly,6.1,180,270.0,3.690338665107522,[6700|0|0|0],fly
7500,0.6992528438568115,0.3379239737987518,0.8331974148750305,-1.213796854019165,1.5188653469085691,7.870648384094238,3.583984375,1,fly,6.1,180,270.0,3.820585704594318,[6700|0|0|0],fly
7600,0.6943551301956177,0.3400472998619079,0.7032521367073059,1.6975187063217163,-0.2651694416999817,9.12576961517334,3.583984375,1,fly,6.1,180,270.0,3.950640583129361,[6700|0|0|0],fly
7700,0.6919443607330322,0.3380313813686371,0.5777963995933533,0.9252325296401978,-1.2113549709320068,9.786369323730469,3.59375,1,fly,6.1,180,270.0,4.076135673517705,[6700|0|0|0],fly
7800,0.6924598813056946,0.3343895971775055,0.4537343382835388,0.4055156707763672,-1.1045494079589844,8.424320220947266,3.515625,1,fly,6.1,180,270.0,4.200252245376565,[6700|0|0|0],fly
7900,0.6869039535522461,0.323835164308548,0.3367963135242462,1.202947735786438,0.7128670811653137,5.128861904144287,3.484375,1,fly,6.1,180,270.0,4.317796985884135,[6700|0|0|0],fly
8000,0.6978831887245178,0.323959618806839,0.2354474067687988,-0.9742071032524108,1.4432953596115112,3.244943857192993,3.478515625,1,fly,6.1,180,270.0,4.419738930119148,[6700|0|0|0],fly
8100,0.6898321509361267,0.3122571110725403,0.1556177735328674,-1.8523098230361936,1.4692944288253784,3.117863893508911,3.484375,1,fly,6.1,180,270.0,4.500822456431986,[6700|0|0|0],fly
8200,0.6943984031677246,0.3218831419944763,0.0950394347310066,-4.699041843414307,3.791499376296997,4.90698766708374,3.521484375,1,fly,6.1,180,270.0,4.562330555595801,[6700|0|0|0],fly
8300,0.6753246188163757,0.321288138628006,0.0393952839076519,-1.3587777614593506,1.5960781574249268,5.290278434753418,3.462890625,1,fly,6.1,180,270.0,4.621156016064377,[6700|0|0|0],fly
8400,0.6657510995864868,0.3280118107795715,0.0146160628646612,5.134889602661133,-4.661835193634033,4.52488374710083,3.5,1,fly,6.1,180,270.0,4.648558020245535,[6700|0|0|0],fly
8500,0.6645222306251526,0.325853556394577,0.015087516978383,4.39524507522583,-3.552996635437012,3.492298126220703,3.568359375,1,fly,6.1,180,270.0,4.651085954163941,[6700|0|0|0],fly
8600,0.6734251379966736,0.3140080869197845,0.033786553889513,2.13332748413086,-4.563753604888916,3.3034629821777344,3.611328125,1,fly,6.1,180,270.0,4.674944514224178,[6700|0|0|0],fly
8700,0.6887238621711731,0.2998216152191162,0.0564773492515087,0.4993892014026642,-1.8650298118591309,3.604538202285767,3.62109375,1,fly,6.1,180,270.0,4.705769490052899,[6700|0|0|0],fly
8800,0.705191433429718,0.286574125289917,0.0715924873948097,-1.2817089557647705,0.2539742290973663,2.700728178024292,3.60546875,1,fly,6.1,180,270.0,4.731753028951028,[6700|0|0|0],fly
8900,0.7229639887809753,0.2747047543525696,0.0802909284830093,-2.8815455436706543,2.1154944896698,1.3872722387313845,3.58984375,1,fly,6.1,180,270.0,4.754827009264938,[6700|0|0|0],fly
9000,0.7376409769058228,0.2671532928943634,0.0821617916226387,-3.3749001026153564,3.6182548999786377,0.7281358242034912,3.57421875,1,fly,6.1,180,270.0,4.771438411356842,[6700|0|0|0],fly
9101,0.7470707297325134,0.2646923661231994,0.0786740258336067,-2.613931179046631,4.3911004066467285,-0.0423636101186275,3.55859375,1,fly,6.1,180,270.0,4.781789300649296,[6700|0|0|0],fly
9201,0.750217616558075,0.266698807477951,0.0748634412884712,-1.7281302213668823,3.627103567123413,-0.746195375919342,3.55859375,1,fly,6.1,180,270.0,4.787123085251113,[6700|0|0|0],fly
9301,0.7484675645828247,0.2709563076496124,0.073072612285614,-1.3976566791534424,2.664013862609864,-0.2155310958623886,3.552734375,1,fly,6.1,180,270.0,4.792062321846504,[6700|0|0|0],fly
9401,0.7427842617034912,0.2767255008220672,0.0745841488242149,-1.5054852962493896,2.045050621032715,1.0008989572525024,3.55859375,1,fly,6.1,180,270.0,4.800300541568438,[6700|0|0|0],fly
9501,0.7346768975257874,0.2834134399890899,0.0765557065606117,-1.1234384775161743,1.1093379259109497,2.1191680431365967,3.5625,1,fly,6.1,180,270.0,4.810993760172753,[6700|0|0|0],fly
9601,0.7255929708480835,0.2920765876770019,0.0791030600666999,-0.4152494966983795,-0.3408008813858032,2.886000633239746,3.5625,1,fly,6.1,180,270.0,4.8238022285290185,[6700|0|0|0],fly
9701,0.7165331244468689,0.3000825643539428,0.0809254124760627,1.3238675594329834,-0.0314827971160411,2.926396608352661,3.55859375,1,F2,6.1,180,270.0,4.836029143416644,[6700|0|100|0],second_intermediate
9801,0.7083153128623962,0.3069419264793396,0.0843483135104179,0.4332684278488159,-0.9194897413253784,3.636142253875733,3.568359375,1,F2,6.1,180,270.0,4.847267449672313,[6700|0|200|0],second_intermediate
9902,0.7017394304275513,0.3128747940063476,0.0885305553674697,0.8229401707649231,-1.6172499656677246,3.84972882270813,3.568359375,1,F2,6.1,180,270.0,4.857061952918564,[6700|0|300|0],second_intermediate
10001,0.6968815326690674,0.3170071542263031,0.0923909842967987,2.08996057510376,-1.3259129524230957,3.091935873031616,3.5625,1,F2,6.1,180,270.0,4.864517050713881,[6700|0|400|0],second_intermediate
10102,0.6941061019897461,0.3193260431289673,0.0967727378010749,1.4933127164840698,-1.2644869089126587,1.909811973571777,3.5625,1,F2,6.1,180,270.0,4.8701986019959564,[6700|0|500|0],second_intermediate
10200,0.6931992769241333,0.3190953731536865,0.1024206727743148,0.945470929145813,-1.2621197700500488,1.0456650257110596,3.568359375,1,F2,6.1,180,270.0,4.875923522065186,[6700|0|600|0],second_intermediate
10300,0.694587230682373,0.317063421010971,0.109426237642765,0.2808376252651214,-0.6436998248100281,0.4042232632637024,3.57421875,1,F2,6.1,180,270.0,4.883348694404692,[6700|0|700|0],second_intermediate
10400,0.6970860958099365,0.314869225025177,0.1149253249168396,0.1759654581546783,-1.6418440341949463,-0.2761419713497162,3.583984375,1,F2,6.1,180,270.0,4.88977510738533,[6700|0|800|0],second_intermediate
10500,0.7025097608566284,0.3120449185371399,0.1191804260015487,0.5806927680969238,-0.2676497399806976,-1.2236801385879517,3.57421875,1,F2,6.1,180,270.0,4.897224854690989,[6700|0|900|0],second_intermediate
10600,0.7090882658958435,0.3083060681819916,0.1197003647685051,0.2393566071987152,-0.4063333868980407,-1.8040671348571773,3.5625,1,F2,6.1,180,270.0,4.904809448737512,[6700|0|1000|0],second_intermediate
10700,0.716856062412262,0.3032494187355041,0.1210110560059547,0.4498605728149414,-0.7357475757598877,-0.5946793556213379,3.568359375,1,F2,6.1,180,270.0,4.914170339606712,[6700|0|1100|0],second_intermediate
10800,0.7253559231758118,0.2966552972793579,0.1225789189338684,-1.0885158777236938,0.1268626898527145,1.5518739223480225,3.568359375,1,F2,6.1,180,270.0,4.925041782240459,[6700|0|1200|0],second_intermediate
10900,0.7342836260795593,0.2911778390407562,0.1207688599824905,0.0542152412235736,0.1037915125489234,2.725747585296631,3.546875,1,F2,6.1,180,270.0,4.935671116241265,[6700|0|1300|0],second_intermediate
11000,0.7430242300033569,0.2868260145187378,0.1177105605602264,-0.5781219005584717,0.6611450910568237,2.7458720207214355,3.541015625,1,F2,6.1,180,270.0,4.945902916130794,[6700|0|1400|0],second_intermediate
11100,0.7521793246269226,0.2836127877235412,0.1136758476495742,-0.1899224668741226,0.1989805847406387,1.892525315284729,3.53125,1,F2,6.1,180,270.0,4.956410984091899,[6700|0|1500|0],second_intermediate
11200,0.7619031667709351,0.28155118227005,0.1109374240040779,-0.5281871557235718,0.3492009043693542,1.008501648902893,3.53125,1,F2,6.1,180,270.0,4.966721284143292,[6700|0|1600|0],second_intermediate
11300,0.7712757587432861,0.2807450592517853,0.1093397662043571,-0.1552882045507431,0.6292445063591003,0.0220842510461807,3.541015625,1,F2,6.1,180,270.0,4.976263182541712,[6700|0|1700|0],second_intermediate
11400,0.7809712290763855,0.2811814546585083,0.1082631647586822,0.4099933803081512,-0.2092926651239395,-1.2208906412124634,3.525390625,1,F2,6.1,180,270.0,4.986027999826426,[6700|0|1800|0],second_intermediate
11500,0.790526807308197,0.2807165086269378,0.1086092740297317,1.5519201755523682,1.0407706499099731,-2.1688249111175537,3.537109375,1,F2,6.1,180,270.0,4.995601141514714,[6700|0|1900|0],second_intermediate
11600,0.7996336221694946,0.27763432264328,0.1097148060798645,2.428697109222412,0.5849336385726929,-1.79042649269104,3.853515625,1,F2,6.1,180,270.0,5.005278752194509,[6700|0|2000|0],second_intermediate
11700,0.8067976832389832,0.2705498337745666,0.0929288640618324,3.0458216667175293,5.734243869781494,0.0540532954037189,3.94921875,1,F2,6.1,180,270.0,5.024856331283125,[6700|0|2100|0],second_intermediate
11800,0.8082103133201599,0.2598151266574859,0.0145786767825484,3.801436424255371,18.31842994689941,4.151244163513184,3.953125,1,F2,6.1,180,270.0,5.103951092850087,[6700|0|2200|0],second_intermediate
11900,0.8091561198234558,0.2514648735523224,0.0,-15.479482650756836,5.493311405181885,-9.509211540222168,3.958984375,1,F2,6.1,180,270.0,5.120778424593176,[6700|0|2300|0],second_intermediate
12000,0.8066880106925964,0.2497587203979492,0.0,-0.6601018905639648,2.612198829650879,-31.943359375,3.958984375,1,F2,6.1,180,270.0,5.123778844775085,[6700|0|2400|0],second_intermediate
12100,0.8069242835044861,0.2497816979885101,0.0,-1.0596094131469729,2.8247230052948,-31.7820987701416,3.96484375,1,F2,6.1,180,270.0,5.124016232245913,[6700|0|2500|0],second_intermediate
12200,0.8069937825202942,0.2500102519989013,0.0,-1.074995517730713,2.684677124023437,-31.767549514770508,3.96484375,1,F2,6.1,180,270.0,5.124255119350765,[6700|0|2600|0],second_intermediate
12300,0.8071427941322327,0.2501732110977173,0.0,-1.1430282592773438,2.4754464626312256,-31.74600410461425,3.96484375,1,F2,6.1,180,270.0,5.124475936307494,[6700|0|2700|0],second_intermediate
12400,0.8070245385169983,0.2501451671123504,0.0,-1.1226768493652344,2.3498942852020264,-31.726701736450195,3.96875,1,F2,6.1,180,270.0,5.124597471716531,[6700|0|2800|0],second_intermediate
12500,0.8080099821090698,0.249863252043724,0.0,-1.6727962493896484,1.8030405044555664,-31.72989845275879,3.96875,1,F2,6.1,180,270.0,5.1256224474133525,[6700|0|2900|0],second_intermediate
12600,0.8075650334358215,0.2495678812265396,0.0,-1.1959636211395264,2.275552272796631,-31.7059268951416,3.96875,1,F2,6.1,180,270.0,5.126156510369819,[6700|0|3000|0],second_intermediate
12700,0.8072659969329834,0.2500292658805847,0.0,-1.2012128829956057,2.367624282836914,-31.72351837158203,3.974609375,1,F2,6.1,180,270.0,5.126706327274814,[6700|0|3100|0],second_intermediate
12800,0.8074914813041687,0.2499678581953048,0.0,-1.084276795387268,2.3365285396575928,-31.76276206970215,3.974609375,1,F2,6.1,180,270.0,5.126940023884674,[6700|0|3200|0],second_intermediate
12900,0.8079295754432678,0.2500655055046081,0.0,-1.0275417566299438,2.2803196907043457,-31.73689651489257,3.974609375,1,F2,6.1,180,270.0,5.127388868481085,[6700|0|3300|0],second_intermediate
13000,0.8078656196594238,0.2496780157089233,0.0,-1.0720360279083252,2.1436963081359863,-31.711368560791016,3.98046875,1,F2,6.1,180,270.0,5.127781600812384,[6700|0|3400|0],second_intermediate
13100,0.802105724811554,0.2481682300567627,0.0,-0.8263735771179199,1.9915190935134888,-31.79575538635254,3.98046875,1,F2,6.1,180,270.0,5.133736081593609,[6700|0|3500|0],second_intermediate
13200,0.8002342581748962,0.2519274353981018,0.0,-1.0729416608810425,1.838662028312683,-31.84106636047364,3.98046875,1,F2,6.1,180,270.0,5.137935368696258,[6700|0|3600|0],second_intermediate
13300,0.7984392642974854,0.2560212314128876,0.0,-1.1552162170410156,1.842047095298767,-31.900793075561523,3.98046875,1,F2,6.1,180,270.0,5.142405398766696,[6700|0|3700|0],second_intermediate
13400,0.7963482141494751,0.2597996592521667,0.0,-1.175289273262024,1.8455713987350464,-31.94412422180176,3.984375,1,F2,6.1,180,270.0,5.146723848448947,[6700|0|3800|0],second_intermediate
13500,0.7940521240234375,0.2633008062839508,0.0,-1.1592447757720947,1.844302773475647,-31.98856735229492,3.984375,1,F2,6.1,180,270.0,5.150910739945638,[6700|0|3900|0],second_intermediate
13600,0.7918081283569336,0.2665524184703827,0.0,-1.1545584201812744,1.8405301570892327,-32.02204895019531,3.984375,1,F2,6.1,180,270.0,5.1548614991590345,[6700|0|4000|0],second_intermediate
13700,0.7898955345153809,0.2695800364017486,0.0,-1.139706015586853,1.8494956493377688,-32.10177230834961,3.984375,1,F2,6.1,180,270.0,5.1584426282464975,[6700|0|4100|0],second_intermediate
13800,0.788034975528717,0.2728401720523834,0.0,-1.1520473957061768,1.8369425535202024,-32.10585403442383,3.984375,1,F2,6.1,180,270.0,5.162196314994668,[6700|0|4200|0],second_intermediate
13900,0.7857146263122559,0.2765548229217529,0.0,-1.1567432880401611,1.8369182348251345,-32.13251876831055,3.984375,1,F2,6.1,180,270.0,5.166576115397385,[6700|0|4300|0],second_intermediate
14000,0.7839867472648621,0.2795833647251129,0.0,-1.1479750871658323,1.83462393283844,-32.160213470458984,3.990234375,1,F2,6.1,180,270.0,5.170062894922552,[6700|0|4400|0],second_intermediate
14100,0.7822630405426025,0.2819762825965881,0.0,-1.124966025352478,1.8309006690979004,-32.192100524902344,3.990234375,1,F2,6.1,180,270.0,5.173012000007826,[6700|0|4500|0],second_intermediate
14200,0.7804586291313171,0.2843993902206421,0.0,-1.1162554025650024,1.8336986303329468,-32.20208740234375,3.990234375,1,F2,6.1,180,270.0,5.176033150632824,[6700|0|4600|0],second_intermediate
14300,0.779175341129303,0.286155104637146,0.0,-1.1171839237213137,1.820369362831116,-31.99224281311035,3.990234375,1,F2,6.1,180,270.0,5.178207860086621,[6700|0|4700|0],second_intermediate
14400,0.777337372303009,0.2893948853015899,0.0,-1.1384859085083008,1.82234001159668,-32.05406188964844,3.990234375,1,F2,6.1,180,270.0,5.181932683325398,[6700|0|4800|0],second_intermediate
14500,0.7766585946083069,0.2910324931144714,0.0,-1.1523027420043943,1.804636001586914,-32.108306884765625,3.99609375,1,F2,6.1,180,270.0,5.183705392694594,[6700|0|4900|0],second_intermediate
14600,0.7762652039527893,0.2914131581783294,0.0,-1.1298279762268066,1.7885279655456543,-32.016048431396484,3.99609375,1,F2,6.1,180,270.0,5.18425280670491,[6700|0|5000|0],second_intermediate
14700,0.7760043144226074,0.2918410301208496,0.0,-1.1502331495285034,1.7388501167297363,-31.696908950805664,3.99609375,1,F2,6.1,180,270.0,5.184753943159535,[6700|0|5100|0],second_intermediate
14800,0.771738588809967,0.2972465753555298,0.0,-0.2588091492652893,2.676797151565552,-31.531639099121094,3.99609375,1,F2,6.1,180,270.0,5.191639895111626,[6700|0|5200|0],second_intermediate
14900,0.7710337042808533,0.2867791056632995,0.0,-1.373052954673767,2.991425037384033,-26.46473693847656,3.99609375,1,F2,6.1,180,270.0,5.202131071592705,[6700|0|5300|0],second_intermediate
15000,0.7053779363632202,0.3399167954921722,0.0,-4.233640670776367,1.1625251770019531,-20.33646011352539,3.99609375,1,F2,6.1,180,270.0,5.286595821288679,[6700|0|5400|0],second_intermediate
15100,0.6315686106681824,0.4239334166049957,0.0,2.9933323860168457,-0.0283149778842926,-14.033682823181152,3.99609375,1,F2,6.1,180,270.0,5.398428773421634,[6700|0|5500|0],second_intermediate
15200,0.6504455804824829,0.3980639576911926,0.0,8.481122016906738,3.120887756347656,-7.377572059631348,4.0,1,F2,6.1,180,270.0,5.430453278005826,[6700|0|5600|0],second_intermediate
15300,0.630476176738739,0.4318523406982422,0.0,7.26546049118042,4.670044898986816,-8.0911283493042,4.0,1,F2,6.1,180,270.0,5.469701614430594,[6700|0|5700|0],second_intermediate
15400,0.6304735541343689,0.4411645829677582,0.0,3.276078939437866,2.198637247085572,-6.942078113555908,4.0,1,F2,6.1,180,270.0,5.479013857069412,[6700|0|5800|0],second_intermediate
15500,0.6292614340782166,0.4403036534786224,0.0,0.3844285607337951,-3.4842329025268555,-6.284753799438477,4.0,1,F2,6.1,180,270.0,5.480500610114067,[6700|0|5900|0],second_intermediate
15600,0.6275896430015564,0.4429726302623749,0.0,-0.8283430337905884,-3.525524616241455,-6.753622531890869,4.0,1,F2,6.1,180,270.0,5.483649946945245,[6700|0|6000|0],second_intermediate
15700,0.6283283829689026,0.445869892835617,0.0,-0.8469161987304688,-3.772804260253906,-6.711616516113281,4.0,1,F2,6.1,180,270.0,5.486639908008145,[6700|0|6100|0],second_intermediate
15800,0.629478931427002,0.4491534531116485,0.0,-0.8208500742912292,-3.776106595993042,-6.64144229888916,4.0,1,F2,6.1,180,270.0,5.49011920820226,[6700|0|6200|0],second_intermediate
15900,0.6312700510025024,0.4526903927326202,0.0,-0.7925008535385132,-3.754250526428223,-6.578322887420654,4.0,1,F2,6.1,180,270.0,5.494083807957108,[6700|0|6300|0],second_intermediate
16000,0.6273031234741211,0.441629409790039,0.0,-0.662841260433197,-3.5476624965667725,-7.133365154266357,4.0,1,F2,6.1,180,270.0,5.505834631658939,[6700|0|6400|0],second_intermediate
16100,0.6366128921508789,0.4275051653385162,0.0,-0.5520250797271729,-3.543842315673828,-7.193552494049072,4.0,1,F2,6.1,180,270.0,5.5227510755565525,[6700|0|6500|0],second_intermediate
16200,0.6174224019050598,0.4559388160705566,0.0,-0.4537967443466186,-3.509629249572754,-6.971826076507568,4.0,1,F2,6.1,180,270.0,5.55705482768116,[6700|0|6600|0],second_intermediate
16300,0.6168814897537231,0.4565529525279999,0.0,-0.417638212442398,-3.484147310256958,-6.863790512084961,4.0703125,1,F2,6.1,180,270.0,5.557873209953589,[6700|0|6700|0],second_intermediate
16400,0.6173972487449646,0.4557143449783325,0.0,-0.3827660381793976,-3.474550724029541,-6.794486045837402,4.07421875,1,F2,6.1,180,270.0,5.558857725042048,[6700|0|6800|0],second_intermediate
16500,0.6171034574508667,0.4562371373176574,0.0,-0.3938464224338531,-3.453653812408448,-6.743916034698486,4.07421875,1,F2,6.1,180,270.0,5.55945741258948,[6700|0|6900|0],second_intermediate
16600,0.6166412234306335,0.4567076861858368,0.0,-0.3651990294456482,-3.4815990924835205,-6.7114739418029785,4.07421875,1,F2,6.1,180,270.0,5.560117015899664,[6700|0|7000|0],second_intermediate
16700,0.6173186898231506,0.4557875692844391,0.0,-0.2663506865501404,-3.5658764839172363,-6.649984359741211,4.07421875,1,F2,6.1,180,270.0,5.561259633869603,[6700|0|7100|0],second_intermediate
16800,0.6174473762512207,0.4558566808700561,0.0,-0.2842262387275696,-3.533452272415161,-6.649640083312988,4.07421875,1,F2,6.1,180,270.0,5.561405704428019,[6700|0|7200|0],second_intermediate
16900,0.6173491477966309,0.4557609856128692,0.0,-0.2891788482666015,-3.5124104022979736,-6.644567489624023,4.08203125,1,F2,6.1,180,270.0,5.561542840898511,[6700|0|7300|0],second_intermediate
17000,0.6172140836715698,0.4562389552593231,0.0,-0.3085547685623169,-3.49564528465271,-6.6405439376831055,4.08203125,1,F2,6.1,180,270.0,5.562039527218848,[6700|0|7400|0],second_intermediate
17100,0.6171237826347351,0.4561254680156708,0.0,-0.2980564832687378,-3.4565987586975098,-6.650217056274414,4.08203125,1,F2,6.1,180,270.0,5.562184556980363,[6700|0|7500|0],second_intermediate
17200,0.6168367862701416,0.4561571180820465,0.0,-0.2957608997821808,-3.4364218711853027,-6.659249782562256,4.08203125,1,F2,6.1,180,270.0,5.562473293261408,[6700|0|7600|0],second_intermediate
17300,0.6174489259719849,0.4554617702960968,0.0,-0.3037529289722442,-3.4579341411590576,-6.64484453201294,4.08203125,1,F2,6.1,180,270.0,5.563399696822496,[6700|0|7700|0],second_intermediate
17400,0.6174750924110413,0.4558750689029693,0.0,-0.3259882628917694,-3.456262826919556,-6.662819862365723,4.08203125,1,F2,6.1,180,270.0,5.563813822915583,[6700|0|7800|0],second_intermediate
17500,0.6169525980949402,0.4562707841396332,0.0,-0.3292489051818847,-3.4106853008270264,-6.65963888168335,4.0859375,1,F2,6.1,180,270.0,5.564469254726595,[6700|0|7900|0],second_intermediate
17600,0.6175589561462402,0.4555201232433319,0.0,-0.312221497297287,-3.424965143203736,-6.634065628051758,4.0859375,1,F2,6.1,180,270.0,5.565434222014959,[6700|0|8000|0],second_intermediate
17700,0.6174015998840332,0.4556542932987213,0.0,-0.3263511657714844,-3.3976945877075195,-6.652852535247803,4.0859375,1,F2,6.1,180,270.0,5.565641013206791,[6700|0|8100|0],second_intermediate
17800,0.6170699000358582,0.4561115503311157,0.0,-0.3479969501495361,-3.3871543407440186,-6.648437976837158,4.0859375,1,F2,6.1,180,270.0,5.566205910350485,[6700|0|8200|0],second_intermediate
17900,0.6170688271522522,0.4561375081539154,0.0,-0.3517070114612579,-3.384420394897461,-6.639615058898926,4.0859375,1,F2,6.1,180,270.0,5.56623189033593,[6700|0|8300|0],second_intermediate
18000,0.6167696118354797,0.4564240574836731,0.0,-0.3631080687046051,-3.3702878952026367,-6.654111385345459,4.0859375,1,F2,6.1,180,270.0,5.566646185308354,[6700|0|8400|0],second_intermediate
18100,0.6165911555290222,0.4564500153064728,0.0,-0.3565270900726318,-3.3694822788238525,-6.660044193267822,4.0859375,1,F2,6.1,180,270.0,5.566826519614239,[6700|0|8500|0],second_intermediate
18200,0.6168844699859619,0.4566122591495514,0.0,-0.3785094916820526,-3.3871757984161377,-6.665883541107178,4.0859375,1,F2,6.1,180,270.0,5.567161715728874,[6700|0|8600|0],second_intermediate
18300,0.6171581745147705,0.4563540518283844,0.0,-0.3692293763160705,-3.384693145751953,-6.683139324188232,4.0859375,1,F2,6.1,180,270.0,5.567537993803965,[6700|0|8700|0],second_intermediate
18400,0.6167214512825012,0.4564025402069092,0.0,-0.3498998582363128,-3.365762948989868,-6.667917728424072,4.08984375,1,F2,6.1,180,270.0,5.5679774005682,[6700|0|8800|0],second_intermediate
18500,0.6168310046195984,0.4565441906452179,0.0,-0.3639460206031799,-3.3817312717437744,-6.677366733551025,4.08984375,1,F2,6.1,180,270.0,5.56815647256585,[6700|0|8900|0],second_intermediate
18600,0.6170035004615784,0.4562443494796753,0.0,-0.349631667137146,-3.381168842315674,-6.673671722412109,4.08984375,1,F2,6.1,180,270.0,5.568502390966711,[6700|0|9000|0],second_intermediate
18700,0.6168338060379028,0.4565550088882446,0.0,-0.3558467924594879,-3.3886685371398926,-6.66651725769043,4.08984375,1,F2,6.1,180,270.0,5.568856376087244,[6700|0|9100|0],second_intermediate
18800,0.6165769696235657,0.4567090272903442,0.0,-0.3523723781108856,-3.359550714492798,-6.667476177215576,4.08984375,1,F2,6.1,180,270.0,5.56915585331829,[6700|0|9200|0],second_intermediate
18900,0.616747260093689,0.456456184387207,0.0,-0.3459478914737701,-3.361723661422729,-6.663156986236572,4.08984375,1,F2,6.1,180,270.0,5.569460694880223,[6700|0|9300|0],second_intermediate
19000,0.6169193983078003,0.4560389518737793,0.0,-0.3435555100440979,-3.365829467773437,-6.667214393615723,4.09765625,1,F2,6.1,180,270.0,5.569912042346172,[6700|0|9400|0],second_intermediate
19100,0.6166184544563293,0.4565121531486511,0.0,-0.3570239543914795,-3.368400812149048,-6.66718053817749,4.09765625,1,F2,6.1,180,270.0,5.570472833437648,[6700|0|9500|0],second_intermediate
19200,0.6167289018630981,0.4564734101295471,0.0,-0.3641926050186157,-3.377744674682617,-6.670609951019287,4.08984375,1,F2,6.1,180,270.0,5.570589878946709,[6700|0|9600|0],second_intermediate
19300,0.6164832711219788,0.45652636885643,0.0,-0.3581770062446594,-3.3670711517333984,-6.670719623565674,4.08984375,1,F2,6.1,180,270.0,5.570841153871315,[6700|0|9700|0],second_intermediate
19400,0.6164693236351013,0.4567720592021942,0.0,-0.3615308701992035,-3.3704833984375,-6.679192066192627,4.09765625,1,F2,6.1,180,270.0,5.571087239788003,[6700|0|9800|0],second_intermediate
19500,0.6159634590148926,0.4574963748455047,0.0,-0.3649287819862366,-3.359849452972412,-6.662723541259766,4.09765625,1,F2,6.1,180,270.0,5.571970717102439,[6700|0|9900|0],second_intermediate
19600,0.6156516671180725,0.4577811360359192,0.0,-0.3606073558330536,-3.357827425003052,-6.659741401672363,4.09765625,1,F2,6.1,180,270.0,5.572392976646427,[6700|0|10000|0],second_intermediate
19700,0.6160877346992493,0.4570907056331634,0.0,-0.343498021364212,-3.38209080696106,-6.664636611938477,4.09765625,1,F2,6.1,180,270.0,5.573209584922409,[6700|0|10100|0],second_intermediate
19800,0.6166536808013916,0.4567171931266784,0.0,-0.3416122496128082,-3.40740180015564,-6.671192646026611,4.09765625,1,F2,6.1,180,270.0,5.573887675316848,[6700|0|10200|0],second_intermediate
19900,0.6164482235908508,0.457119882106781,0.0,-0.3543691635131836,-3.3998968601226807,-6.674099922180176,4.09765625,1,F2,6.1,180,270.0,5.574339749514364,[6700|0|10300|0],second_intermediate
20000,0.6164560317993164,0.4567812085151672,0.0,-0.3307478427886963,-3.388683795928955,-6.67665433883667,4.1015625,1,F2,6.1,180,270.0,5.574678513104167,[6700|0|10400|0],second_intermediate
20100,0.6161990761756897,0.4570838212966919,0.0,-0.3340490460395813,-3.396998405456543,-6.681679725646973,4.1015625,1,F2,6.1,180,270.0,5.575075502635585,[6700|0|10500|0],second_intermediate
20200,0.61609947681427,0.4572840631008148,0.0,-0.3422457277774811,-3.4006712436676025,-6.682380676269531,4.1015625,1,F2,6.1,180,270.0,5.575299147024992,[6700|0|10600|0],second_intermediate
20300,0.6167238354682922,0.4567479193210602,0.0,-0.3431306481361389,-3.4187352657318115,-6.668222904205322,4.1015625,1,F2,6.1,180,270.0,5.5761221135379335,[6700|0|10700|0],second_intermediate
20400,0.6171989440917969,0.4560632109642029,0.0,-0.3311982452869415,-3.4146063327789307,-6.665209770202637,4.1015625,1,F2,6.1,180,270.0,5.576955512444868,[6700|0|10800|0],second_intermediate
20500,0.6171150803565979,0.4562036395072937,0.0,-0.3333478569984436,-3.4089715480804443,-6.648450374603272,4.1015625,1,F2,6.1,180,270.0,5.57711907681078,[6700|0|10900|0],second_intermediate
20600,0.6168967485427856,0.4561183750629425,0.0,-0.3318061232566833,-3.389124155044556,-6.646658420562744,4.1015625,1,F2,6.1,180,270.0,5.577353467097253,[6700|0|11000|0],second_intermediate
20700,0.6165655255317688,0.4566020369529724,0.0,-0.3601007461547851,-3.380124568939209,-6.657176494598389,4.1015625,1,F2,6.1,180,270.0,5.577939673124938,[6700|0|11100|0],second_intermediate
20800,0.6170657277107239,0.4563631415367126,0.0,-0.3589197993278503,-3.395932674407959,-6.669694423675537,4.1015625,1,F2,6.1,180,270.0,5.57849399544971,[6700|0|11200|0],second_intermediate
20900,0.616571843624115,0.4568234384059906,0.0,-0.3614501655101776,-3.366711378097534,-6.668815612792969,4.1015625,1,F2,6.1,180,270.0,5.579169121140876,[6700|0|11300|0],second_intermediate
21000,0.6168556809425354,0.4567742645740509,0.0,-0.3601202666759491,-3.3865749835968018,-6.655974388122559,4.1015625,1,F2,6.1,180,270.0,5.579457186565868,[6700|0|11400|0],second_intermediate
21100,0.6168370842933655,0.4565617740154266,0.0,-0.3486370146274566,-3.3714864253997803,-6.670027732849121,4.1015625,1,F2,6.1,180,270.0,5.579670489338623,[6700|0|11500|0],second_intermediate
21200,0.6164206266403198,0.4568654298782348,0.0,-0.3393482863903045,-3.359893560409546,-6.676371574401856,4.10546875,1,F2,6.1,180,270.0,5.580185895838192,[6700|0|11600|0],second_intermediate
21300,0.6167652606964111,0.456412523984909,0.0,-0.3465447425842285,-3.3742833137512207,-6.6790056228637695,4.1015625,1,F2,6.1,180,270.0,5.580755014789578,[6700|0|11700|0],second_intermediate
21400,0.6172156929969788,0.4560732245445251,0.0,-0.3485800325870514,-3.4055051803588867,-6.708069801330566,4.10546875,1,F2,6.1,180,270.0,5.581318941529181,[6700|0|11800|0],second_intermediate
21500,0.6167718768119812,0.4564731121063232,0.0,-0.3511384725570678,-3.3693580627441406,-6.720373630523682,4.10546875,1,F2,6.1,180,270.0,5.581916338271846,[6700|0|11900|0],second_intermediate
21600,0.616696298122406,0.456695556640625,0.0,-0.3534826636314392,-3.370444774627685,-6.720229625701904,4.10546875,1,F2,6.1,180,270.0,5.582151271686154,[6700|0|12000|0],second_intermediate
21700,0.616601288318634,0.4566709697246551,0.0,-0.3436294794082641,-3.369741439819336,-6.697868347167969,4.10546875,1,F2,6.1,180,270.0,5.582249411276788,[6700|0|12100|0],second_intermediate
21800,0.6164301037788391,0.4566173553466797,0.0,-0.3496904969215393,-3.3705666065216064,-6.67665958404541,4.10546875,1,F2,6.1,180,270.0,5.58242879535688,[6700|0|12200|0],second_intermediate
21900,0.616689145565033,0.4564760029315948,0.0,-0.3560439944267273,-3.3852901458740234,-6.67560625076294,4.10546875,1,F2,6.1,180,270.0,5.582723893903546,[6700|0|12300|0],second_intermediate
22000,0.6171346306800842,0.4563913345336914,0.0,-0.3560762703418731,-3.402979850769043,-6.684950351715088,4.10546875,1,F2,6.1,180,270.0,5.583177353632007,[6700|0|12400|0],second_intermediate
22100,0.6168029308319092,0.4566124677658081,0.0,-0.3568861186504364,-3.373943328857422,-6.6884846687316895,4.10546875,1,F2,6.1,180,270.0,5.5835760072355605,[6700|0|12500|0],second_intermediate
22200,0.61663818359375,0.4564685821533203,0.0,-0.3453371226787567,-3.37312388420105,-6.67995548248291,4.10546875,1,F2,6.1,180,270.0,5.583794741599486,[6700|0|12600|0],second_intermediate
22300,0.6170526742935181,0.456178218126297,0.0,-0.344511479139328,-3.3938260078430176,-6.612462520599365,4.10546875,1,F2,6.1,180,270.0,5.5843008184794,[6700|0|12700|0],second_intermediate
22400,0.6170653700828552,0.4559485018253326,0.0,-0.3451014757156372,-3.385550022125244,-6.599743843078613,4.11328125,1,F2,6.1,180,270.0,5.584530885343584,[6700|0|12800|0],second_intermediate
22500,0.6168273687362671,0.4563179612159729,0.0,-0.3567424416542053,-3.371998071670532,-6.621266841888428,4.10546875,1,F2,6.1,180,270.0,5.584970367860085,[6700|0|12900|0],second_intermediate
22600,0.6165792942047119,0.4568580389022827,0.0,-0.3677663803100586,-3.3760688304901123,-6.61400842666626,4.11328125,1,F2,6.1,180,270.0,5.58556469511039,[6700|0|13000|0],second_intermediate
22700,0.6168299317359924,0.4563591182231903,0.0,-0.3386654853820801,-3.374293088912964,-6.611151218414307,4.11328125,1,F2,6.1,180,270.0,5.586123032836245,[6700|0|13100|0],second_intermediate
22800,0.6164525151252747,0.456632912158966,0.0,-0.3442814946174621,-3.3536667823791504,-6.599894046783447,4.10546875,1,F2,6.1,180,270.0,5.586589301446933,[6700|0|13200|0],second_intermediate
22900,0.6169067025184631,0.4564210176467895,0.0,-0.3438442051410675,-3.372546911239624,-6.616269111633301,4.11328125,1,F2,6.1,180,270.0,5.587090485517332,[6700|0|13300|0],second_intermediate
23000,0.6167171597480774,0.456350177526474,0.0,-0.3343414664268493,-3.3633475303649902,-6.611287593841553,4.11328125,1,F2,6.1,180,270.0,5.587292833693632,[6700|0|13400|0],second_intermediate
23100,0.6167693138122559,0.4564313888549804,0.0,-0.3373012542724609,-3.364097118377685,-6.603970050811768,4.11328125,1,F2,6.1,180,270.0,5.587389349631633,[6700|0|13500|0],second_intermediate
23200,0.6170332431793213,0.4564413428306579,0.0,-0.335888922214508,-3.375089168548584,-6.611249923706055,4.11328125,1,F2,6.1,180,270.0,5.587653466636825,[6700|0|13600|0],second_intermediate
23300,0.6172740459442139,0.4559259116649627,0.0,-0.3150821626186371,-3.369325399398804,-6.614607810974121,4.11328125,1,F2,6.1,180,270.0,5.588222373710212,[6700|0|13700|0],second_intermediate
23401,0.6164215207099915,0.4566566348075866,0.0,-0.3285453915596008,-3.343034029006958,-6.615824222564697,4.11328125,1,F2,6.1,180,270.0,5.5893452074406245,[6700|0|13800|0],second_intermediate
23501,0.6170623898506165,0.4560962617397308,0.0,-0.3235698342323303,-3.368107795715332,-6.610991954803467,4.11328125,1,F2,6.1,180,270.0,5.590196518917455,[6700|0|13900|0],second_intermediate
23601,0.6170171499252319,0.4562679827213287,0.0,-0.3269911706447601,-3.381239414215088,-6.649657249450684,4.11328125,1,F2,6.1,180,270.0,5.590374099170777,[6700|0|14000|0],second_intermediate
23701,0.6165158748626709,0.456449031829834,0.0,-0.3152666091918945,-3.3519673347473145,-6.5854082107543945,4.11328125,1,F2,6.1,180,270.0,5.590907067713973,[6700|0|14100|0],second_intermediate
23801,0.616815984249115,0.4563474655151367,0.0,-0.3276617527008056,-3.37273383140564,-6.6355462074279785,4.11328125,1,F2,6.1,180,270.0,5.591223897889481,[6700|0|14200|0],second_intermediate
23901,0.6170726418495178,0.4559432566165924,0.0,-0.3090215027332306,-3.3817832469940186,-6.643992424011231,4.11328125,1,F2,6.1,180,270.0,5.591702706784038,[6700|0|14300|0],second_intermediate
24001,0.6167433261871338,0.4561841785907745,0.0,-0.322882205247879,-3.365468740463257,-6.593175888061523,4.11328125,1,F2,6.1,180,270.0,5.59211074134524,[6700|0|14400|0],second_intermediate
24101,0.6169572472572327,0.4563845694065094,0.0,-0.3355688750743866,-3.378891944885254,-6.563385486602783,4.11328125,1,F2,6.1,180,270.0,5.592403860268654,[6700|0|14500|0],second_intermediate
24201,0.6165249943733215,0.4567935466766357,0.0,-0.3348910808563232,-3.363449811935425,-6.566977024078369,4.1171875,1,F2,6.1,180,270.0,5.592998927460767,[6700|0|14600|0],second_intermediate
24301,0.6161498427391052,0.4572764933109283,0.0,-0.3438238799571991,-3.359486818313598,-6.614538192749023,4.11328125,1,F2,6.1,180,270.0,5.593610463396121,[6700|0|14700|0],second_intermediate
24401,0.616200864315033,0.4568957090377807,0.0,-0.3204421997070312,-3.3634748458862305,-6.567807674407959,4.11328125,1,F2,6.1,180,270.0,5.593994650673222,[6700|0|14800|0],second_intermediate
24501,0.6164246201515198,0.4566521644592285,0.0,-0.3269505798816681,-3.369494199752808,-6.57556676864624,4.1171875,1,F2,6.1,180,270.0,5.5943253781079845,[6700|0|14900|0],second_intermediate
24602,0.6168283224105835,0.4563590288162231,0.0,-0.3319006860256195,-3.385237693786621,-6.593376636505127,4.1171875,1,F2,6.1,180,270.0,5.594824280923343,[6700|0|15000|0],second_intermediate
24702,0.6165200471878052,0.4566598236560821,0.0,-0.3398977518081665,-3.381556272506714,-6.598669528961182,4.1171875,1,F2,6.1,180,270.0,5.595254990975078,[6700|0|15100|0],second_intermediate
24802,0.6167325377464294,0.4565756022930145,0.0,-0.3449161648750305,-3.396468162536621,-6.5878424644470215,4.1171875,1,F2,6.1,180,270.0,5.59548356366702,[6700|0|15200|0],second_intermediate
24902,0.6165193319320679,0.4567000865936279,0.0,-0.3465565145015716,-3.3901584148406982,-6.593363761901856,4.1171875,1,F2,6.1,180,270.0,5.595730450402947,[6700|0|15300|0],second_intermediate
25002,0.6161313652992249,0.4571259319782257,0.0,-0.3503824174404144,-3.3753974437713623,-6.580358028411865,4.1171875,1,F2,6.1,180,270.0,5.596306525397876,[6700|0|15400|0],second_intermediate
25102,0.616216242313385,0.4569028615951538,0.0,-0.344844102859497,-3.38337516784668,-6.5808820724487305,4.1171875,1,F2,6.1,180,270.0,5.596545197774444,[6700|0|15500|0],second_intermediate
25202,0.6169009208679199,0.4562057256698608,0.0,-0.3418972492218017,-3.404318332672119,-6.561435699462891,4.1171875,1,F2,6.1,180,270.0,5.597522327868839,[6700|0|15600|0],second_intermediate
25302,0.616538941860199,0.4565110206604004,0.0,-0.3533920347690582,-3.374591112136841,-6.566659450531006,4.1171875,1,F2,6.1,180,270.0,5.59799586121854,[6700|0|15700|0],second_intermediate
25402,0.6163360476493835,0.4566624462604522,0.0,-0.3509268760681152,-3.375720739364624,-6.591458320617676,4.1171875,1,F2,6.1,180,270.0,5.598249032648867,[6700|0|15800|0],second_intermediate
25502,0.6167489886283875,0.4566494822502136,0.0,-0.3545781373977661,-3.4005517959594727,-6.599010944366455,4.1171875,1,F2,6.1,180,270.0,5.598662177076037,[6700|0|15900|0],second_intermediate
25602,0.6161350607872009,0.4572409987449646,0.0,-0.3581544160842895,-3.37477707862854,-6.6021246910095215,4.1171875,1,F2,6.1,180,270.0,5.5995147022415,[6700|0|16000|0],second_intermediate
25700,0.6161720752716064,0.457184761762619,0.0,-0.3461219370365143,-3.3740360736846924,-6.626563549041748,4.1171875,1,F2,6.1,180,270.0,5.599582027350034,[6700|0|16100|0],second_intermediate
25800,0.6164982914924622,0.4566415250301361,0.0,-0.3203918039798736,-3.380724668502808,-6.598855972290039,4.1171875,1,F2,6.1,180,270.0,5.600215685909724,[6700|0|16200|0],second_intermediate
25900,0.6164819002151489,0.4568642675876617,0.0,-0.3377748131752014,-3.381568670272827,-6.597485542297363,4.1171875,1,F2,6.1,180,270.0,5.600439030757225,[6700|0|16300|0],second_intermediate
26000,0.6161715984344482,0.457249641418457,0.0,-0.3459341824054718,-3.372495651245117,-6.606271743774414,4.12109375,1,F2,6.1,180,270.0,5.600933803618817,[6700|0|16400|0],second_intermediate
26100,0.616658627986908,0.4563274085521698,0.0,-0.307645320892334,-3.3907039165496826,-6.622882843017578,4.12109375,1,F2,6.1,180,270.0,5.601976737578677,[6700|0|16500|0],second_intermediate
26200,0.6163780093193054,0.456847608089447,0.0,-0.3376354873180389,-3.3929452896118164,-6.6285319328308105,4.12109375,1,F2,6.1,180,270.0,5.602567799669485,[6700|0|16600|0],second_intermediate
26300,0.6165577173233032,0.4566419720649719,0.0,-0.3327600657939911,-3.3878703117370605,-6.606751441955566,4.1171875,1,F2,6.1,180,270.0,5.602840895149607,[6700|0|16700|0],second_intermediate
26400,0.6162805557250977,0.4570358097553253,0.0,-0.341991513967514,-3.37570858001709,-6.606170654296875,4.12109375,1,F2,6.1,180,270.0,5.603322482813343,[6700|0|16800|0],second_intermediate
26500,0.6162016987800598,0.457102507352829,0.0,-0.3318573832511902,-3.373584508895874,-6.600265502929688,4.12109375,1,F2,6.1,180,270.0,5.603425763921457,[6700|0|16900|0],second_intermediate
26600,0.615940272808075,0.4575036466121673,0.0,-0.3413492739200592,-3.375436544418335,-6.611932277679443,4.12109375,1,F2,6.1,180,270.0,5.603904571026888,[6700|0|17000|0],second_intermediate
26700,0.6162770986557007,0.4568340182304382,0.0,-0.313363641500473,-3.3738386631011963,-6.61151933670044,4.12109375,1,F2,6.1,180,270.0,5.604654140117264,[6700|0|17100|0],second_intermediate
26800,0.6162548661231995,0.456844300031662,0.0,-0.3155467808246612,-3.38340711593628,-6.608374118804932,4.12109375,1,F2,6.1,180,270.0,5.604678635033834,[6700|0|17200|0],second_intermediate
26900,0.6160567998886108,0.4572001695632934,0.0,-0.3297394216060638,-3.381667137145996,-6.588256359100342,4.12109375,1,F2,6.1,180,270.0,5.60508591056321,[6700|0|17300|0],second_intermediate
27000,0.6159866452217102,0.4571865797042846,0.0,-0.3218980729579925,-3.374195337295532,-6.571396350860596,4.12109375,1,F2,6.1,180,270.0,5.605157369373414,[6700|0|17400|0],second_intermediate
27100,0.6165705919265747,0.4566054940223694,0.0,-0.3160936832427978,-3.3945000171661377,-6.569315910339356,4.12109375,1,F2,6.1,180,270.0,5.60598117415845,[6700|0|17500|0],second_intermediate
27200,0.6168708801269531,0.4561845660209656,0.0,-0.3061272501945495,-3.3973283767700195,-6.5560832023620605,4.12109375,1,F2,6.1,180,270.0,5.606498236423223,[6700|0|17600|0],second_intermediate
27300,0.6166229248046875,0.4567802250385284,0.0,-0.3329834043979645,-3.3921544551849365,-6.536281585693359,4.12109375,1,F2,6.1,180,270.0,5.607143442984755,[6700|0|17700|0],second_intermediate
27400,0.6164971590042114,0.456965684890747,0.0,-0.3270498216152191,-3.381807804107666,-6.547680377960205,4.12109375,1,F2,6.1,180,270.0,5.607367524205197,[6700|0|17800|0],second_intermediate
27500,0.6169258952140808,0.4562490880489349,0.0,-0.3140679895877838,-3.377180576324463,-6.564441204071045,4.12109375,1,F2,6.1,180,270.0,5.6082025845451415,[6700|0|17900|0],second_intermediate
27600,0.6165765523910522,0.4567832946777344,0.0,-0.332752376794815,-3.3696722984313965,-6.5650248527526855,4.12109375,1,F2,6.1,180,270.0,5.608840876899988,[6700|0|18000|0],second_intermediate
27700,0.6167967915534973,0.4563652873039245,0.0,-0.3280547559261322,-3.370370388031006,-6.576247692108154,4.12109375,1,F2,6.1,180,270.0,5.609313354892316,[6700|0|18100|0],second_intermediate
27800,0.6168972849845886,0.4562937319278717,0.0,-0.3254259824752807,-3.3734447956085205,-6.592860698699951,4.12109375,1,F2,6.1,180,270.0,5.609436720615005,[6700|0|18200|0],second_intermediate
27900,0.6170293092727661,0.456253319978714,0.0,-0.3310210108757019,-3.380610942840576,-6.5935587882995605,4.12109375,1,F2,6.1,180,270.0,5.609574791387812,[6700|0|18300|0],second_intermediate
28000,0.6167857646942139,0.456419289112091,0.0,-0.3227175772190094,-3.3703322410583496,-6.580355644226074,4.12109375,1,F2,6.1,180,270.0,5.609869511110559,[6700|0|18400|0],second_intermediate
28100,0.6166979074478149,0.45657879114151,0.0,-0.3236199915409088,-3.3709428310394287,-6.575959205627441,4.12109375,1,F2,6.1,180,270.0,5.610051609416794,[6700|0|18500|0],second_intermediate
28200,0.616355299949646,0.4570454657077789,0.0,-0.3312077820301056,-3.360182523727417,-6.568258285522461,4.12109375,1,F2,6.1,180,270.0,5.610630543824653,[6700|0|18600|0],second_intermediate
28300,0.616215169429779,0.4569635391235351,0.0,-0.323965847492218,-3.35528564453125,-6.573071002960205,4.12109375,1,F2,6.1,180,270.0,5.610792866120732,[6700|0|18700|0],second_intermediate
28400,0.6165733933448792,0.4566937386989593,0.0,-0.3219464719295501,-3.3765788078308105,-6.578888893127441,4.12890625,1,F2,6.1,180,270.0,5.611241326422711,[6700|0|18800|0],second_intermediate
28500,0.6161457300186157,0.4572565853595733,0.0,-0.3360206484794616,-3.3587448596954346,-6.596161842346191,4.12890625,1,F2,6.1,180,270.0,5.611948215582336,[6700|0|18900|0],second_intermediate
28600,0.6167559623718262,0.4567523300647735,0.0,-0.3268351256847381,-3.3743109703063965,-6.621554374694824,4.12890625,1,F2,6.1,180,270.0,5.612739832236556,[6700|0|19000|0],second_intermediate
28700,0.6168068051338196,0.4563331604003906,0.0,-0.3127786815166473,-3.370715856552124,-6.618008613586426,4.12890625,1,F2,6.1,180,270.0,5.613162074103245,[6700|0|19100|0],second_intermediate
28800,0.6167867183685303,0.4562908411026001,0.0,-0.3218480050563812,-3.372552394866944,-6.6036295890808105,4.12109375,1,F2,6.1,180,270.0,5.613208918538403,[6700|0|19200|0],second_intermediate
28900,0.6176263093948364,0.455476313829422,0.0,-0.3120336532592773,-3.3986284732818604,-6.608339786529541,4.12890625,1,F2,6.1,180,270.0,5.61437869106766,[6700|0|19300|0],second_intermediate
29000,0.6171643733978271,0.4557452797889709,0.0,-0.3193336725234985,-3.3686230182647705,-6.603673458099365,4.12890625,1,F2,6.1,180,270.0,5.614913225961497,[6700|0|19400|0],second_intermediate
29100,0.6170406341552734,0.4562578499317169,0.0,-0.3345836102962494,-3.3750479221343994,-6.589822292327881,4.12890625,1,F2,6.1,180,270.0,5.615440520519958,[6700|0|19500|0],second_intermediate
29200,0.6168098449707031,0.45616015791893,0.0,-0.3183832466602325,-3.359846591949463,-6.558961868286133,4.12890625,1,F2,6.1,180,270.0,5.61569113452012,[6700|0|19600|0],second_intermediate
29300,0.6169041991233826,0.4562374353408813,0.0,-0.3386613726615906,-3.3728573322296143,-6.5748162269592285,4.12109375,1,F2,6.1,180,270.0,5.615813095604369,[6700|0|19700|0],second_intermediate
29400,0.6167510151863098,0.4564377963542938,0.0,-0.3442638218402862,-3.375488519668579,-6.58181619644165,4.12890625,1,F2,6.1,180,270.0,5.616065305545237,[6700|0|19800|0],second_intermediate
29500,0.6164342164993286,0.4567431807518005,0.0,-0.3541635274887085,-3.3606631755828857,-6.615769863128662,4.12890625,1,F2,6.1,180,270.0,5.616505329451762,[6700|0|19900|0],second_intermediate
29600,0.6163488626480103,0.4571982026100158,0.0,-0.3711645305156708,-3.376121759414673,-6.620462894439697,4.12890625,1,F2,6.1,180,270.0,5.616968287518318,[6700|0|20000|0],second_intermediate
29700,0.6158758997917175,0.4574309289455414,0.0,-0.3508789539337158,-3.3572781085968018,-6.625356197357178,4.12890625,1,F2,6.1,180,270.0,5.617495407438905,[6700|0|20100|0],second_intermediate
29800,0.6164849996566772,0.4571235775947571,0.0,-0.3479014635086059,-3.387683153152466,-6.639432430267334,4.12890625,1,F2,6.1,180,270.0,5.618177659224042,[6700|0|20200|0],second_intermediate
29900,0.6164860725402832,0.4567065238952636,0.0,-0.3180463314056396,-3.3750245571136475,-6.628360271453857,4.12890625,1,F2,6.1,180,270.0,5.618594714303546,[6700|0|20300|0],second_intermediate
30000,0.6168920397758484,0.4562273919582367,0.0,-0.3226529955863952,-3.376896858215332,-6.616441249847412,4.12890625,1,F2,6.1,180,270.0,5.619222708578545,[6700|0|20400|0],second_intermediate
30100,0.6168370842933655,0.4563713669776916,0.0,-0.3327248692512512,-3.386137247085572,-6.604766368865967,4.12890625,1,F2,6.1,180,270.0,5.619376815396311,[6700|0|20500|0],second_intermediate
30200,0.6166983246803284,0.4565663337707519,0.0,-0.3387215137481689,-3.380751609802246,-6.5919389724731445,4.12890625,1,F2,6.1,180,270.0,5.619616119137624,[6700|0|20600|0],second_intermediate
30300,0.6170182824134827,0.4561217129230499,0.0,-0.3232111632823944,-3.3987059593200684,-6.600674152374268,4.12890625,1,F2,6.1,180,270.0,5.620163897057238,[6700|0|20700|0],second_intermediate
30400,0.6167243123054504,0.4565022885799408,0.0,-0.3455080687999725,-3.377125740051269,-6.576407432556152,4.12890625,1,F2,6.1,180,270.0,5.620644788162411,[6700|0|20800|0],second_intermediate
30500,0.6172866821289062,0.4556900560855865,0.0,-0.316919207572937,-3.3850276470184326,-6.550313472747803,4.12890625,1,F2,6.1,180,270.0,5.621632705893409,[6700|0|20900|0],second_intermediate
30600,0.617017924785614,0.4565083384513855,0.0,-0.3400757014751434,-3.393774509429932,-6.554320812225342,4.12890625,1,F2,6.1,180,270.0,5.622493993615224,[6700|0|21000|0],second_intermediate
30700,0.6161646842956543,0.4571100175380707,0.0,-0.3330621719360351,-3.3585596084594727,-6.5532050132751465,4.12890625,1,F2,6.1,180,270.0,5.623538042013078,[6700|0|21100|0],second_intermediate
30800,0.6167811751365662,0.4562470316886902,0.0,-0.3098152875900268,-3.386653423309326,-6.576550483703613,4.12890625,1,F2,6.1,180,270.0,5.6245986105083485,[6700|0|21200|0],second_intermediate
30900,0.6163322329521179,0.45694500207901,0.0,-0.3455906510353088,-3.3821308612823486,-6.589512348175049,4.12890625,1,F2,6.1,180,270.0,5.625428497097432,[6700|0|21300|0],second_intermediate
31000,0.6159056425094604,0.457603394985199,0.0,-0.3572492003440857,-3.3701188564300537,-6.598688125610352,4.12890625,1,F2,6.1,180,270.0,5.626213010083103,[6700|0|21400|0],second_intermediate
31100,0.6162211298942566,0.4571588635444641,0.0,-0.3332258760929107,-3.3800466060638428,-6.595313549041748,4.12890625,1,F2,6.1,180,270.0,5.626758116028555,[6700|0|21500|0],second_intermediate
31200,0.6164820790290833,0.4567722976207733,0.0,-0.308876097202301,-3.3830549716949463,-6.598016262054443,4.1328125,1,F2,6.1,180,270.0,5.627224514639537,[6700|0|21600|0],second_intermediate
31300,0.6164498925209045,0.4568532109260559,0.0,-0.3140659630298614,-3.383770704269409,-6.591013908386231,4.12890625,1,F2,6.1,180,270.0,5.627311594684786,[6700|0|21700|0],second_intermediate
31400,0.61643385887146,0.4569801688194275,0.0,-0.3184626996517181,-3.378615617752075,-6.583438873291016,4.12890625,1,F2,6.1,180,270.0,5.627439561026469,[6700|0|21800|0],second_intermediate
31500,0.6165831089019775,0.4566628336906433,0.0,-0.3056100308895111,-3.3761215209960938,-6.572110176086426,4.1328125,1,F2,6.1,180,270.0,5.62779024201479,[6700|0|21900|0],second_intermediate
