,time.ms,stateEstimate.x,stateEstimate.y,stateEstimate.z,stabilizer.roll,stabilizer.pitch,stabilizer.yaw,pm.vbat,drone_id,node_name,wind_speed,global_wind_direction,relative_wind_direction,travel_dist,waiting_time
0,0,0.7845842242240906,1.1727190017700195,-0.0492418780922889,0.7826692461967468,0.2657034695148468,-9.683465957641602,4.11328125,2,"['C1', 'F2', 'F1']",6.1,90,0.0,0.0699688311219652,[100|0|0]
1,100,0.7844456434249878,1.1731672286987305,-0.0490961857140064,0.7787265777587891,0.2702079117298126,-9.678665161132812,4.11328125,2,"['C1', 'F2', 'F1']",6.1,90,0.0,0.0704600930547376,[200|0|0]
2,200,0.784537672996521,1.1730482578277588,-0.0487168580293655,0.7785906791687012,0.2610306441783905,-9.699078559875488,4.10546875,2,"['C1', 'F2', 'F1']",6.1,90,0.0,0.0708681531024161,[300|0|0]
3,300,0.7843368053436279,1.1734108924865725,-0.0490480363368988,0.7691152691841125,0.2684247493743896,-9.661300659179688,4.11328125,2,"['C1', 'F2', 'F1']",6.1,90,0.0,0.0713987478452586,[400|0|0]
4,400,0.7841238975524902,1.1727837324142456,-0.0489321686327457,0.7928101420402527,0.274568110704422,-9.697452545166016,4.10546875,2,"['C1', 'F2', 'F1']",6.1,90,0.0,0.0720711203675359,[500|0|0]
5,500,0.7845926880836487,1.1732025146484375,-0.0491064339876174,0.7858614921569824,0.2589326798915863,-9.693763732910156,4.11328125,2,"['C1', 'F2', 'F1']",6.1,90,0.0,0.0727234328200364,[600|0|0]
6,600,0.7845512628555298,1.172648310661316,-0.0491324141621589,0.799151599407196,0.2524886131286621,-9.709070205688477,4.10546875,2,"['C1', 'F2', 'F1']",6.1,90,0.0,0.0732797897902771,[700|0|0]
7,700,0.7843776345252991,1.1732419729232788,-0.0488057322800159,0.7920095324516296,0.2637785375118255,-9.697607040405272,4.11328125,2,"['C1', 'F2', 'F1']",6.1,90,0.0,0.073979291563297,[800|0|0]
8,800,0.7844663262367249,1.1731774806976318,-0.049015711992979,0.7935066223144531,0.2655265629291534,-9.65485382080078,4.11328125,2,"['C1', 'F2', 'F1']",6.1,90,0.0,0.0742161817207553,[900|0|0]
9,900,0.7844911813735962,1.17313551902771,-0.0489084385335445,0.7897533774375916,0.2689374685287475,-9.657354354858398,4.10546875,2,"['C1', 'F2', 'F1']",6.1,90,0.0,0.0743340212500762,[1000|0|0]
10,1000,0.784365713596344,1.1727452278137207,-0.048966608941555,0.8026337623596191,0.2714249789714813,-9.67989444732666,4.10546875,2,"['C1', 'F2', 'F1']",6.1,90,0.0,0.0747480903158297,[1100|0|0]
11,1100,0.7845249772071838,1.1730698347091677,-0.0487845391035079,0.7890080809593201,0.2677065432071686,-9.6434965133667,4.10546875,2,"['C1', 'F2', 'F1']",6.1,90,0.0,0.0751529161552172,[1200|0|0]
12,1200,0.7845898270606995,1.1729649305343628,-0.0489846095442771,0.7837223410606384,0.2695396542549133,-9.679003715515137,4.10546875,2,"['C1', 'F2', 'F1']",6.1,90,0.0,0.0753879450271926,[1300|0|0]
13,1300,0.7846924662590027,1.1728980541229248,-0.049171008169651,0.7887064814567566,0.2694347500801086,-9.687822341918944,4.11328125,2,"['C1', 'F2', 'F1']",6.1,90,0.0,0.0756109959338852,[1400|0|0]
14,1400,0.7843063473701477,1.1728215217590332,-0.0491902492940425,0.7973241806030273,0.2754289805889129,-9.69801139831543,4.10546875,2,"['C1', 'F2', 'F1']",6.1,90,0.0,0.0760050964539576,[1500|0|0]
15,1500,0.7841161489486694,1.1729817390441897,-0.049160111695528,0.79304438829422,0.281601220369339,-9.73148250579834,4.11328125,2,"['C1', 'F2', 'F1']",6.1,90,0.0,0.0762556025274166,[1600|0|0]
16,1600,0.78440260887146,1.1732466220855713,-0.048898160457611,0.7859025597572327,0.2735248208045959,-9.73749542236328,4.10546875,2,"['C1', 'F2', 'F1']",6.1,90,0.0,0.0767255395061947,[1700|0|0]
17,1700,0.7845855355262756,1.173076033592224,-0.0489752925932407,0.7892165184020996,0.2680381536483764,-9.725176811218262,4.10546875,2,"['C1', 'F2', 'F1']",6.1,90,0.0,0.0769872874029414,[1800|0|0]
18,1800,0.7845193147659302,1.1730927228927612,-0.0495498850941658,0.7878393530845642,0.2762781083583832,-9.711947441101074,4.11328125,2,"['C1', 'F2', 'F1']",6.1,90,0.0,0.0775659239589698,[1900|0|0]
19,1900,0.7842315435409546,1.172910213470459,-0.0488856136798858,0.7800211310386658,0.282353401184082,-9.716400146484377,4.10546875,2,"['C1', 'F2', 'F1']",6.1,90,0.0,0.078312501804196,[2000|0|0]
20,2000,0.7845959067344666,1.173244833946228,-0.0489753521978855,0.7784295678138733,0.2752369046211242,-9.674216270446776,4.10546875,2,"['C1', 'F2', 'F1']",6.1,90,0.0,0.0788152784953849,[2100|0|0]
21,2100,0.7843015789985657,1.1726278066635132,-0.0489278025925159,0.8051409721374512,0.2776761949062347,-9.666014671325684,4.10546875,2,"['C1', 'F2', 'F1']",6.1,90,0.0,0.079500561246303,[2200|0|0]
22,2200,0.7842792272567749,1.1730225086212158,-0.049149502068758,0.800237238407135,0.2804742455482483,-9.674700736999512,4.10546875,2,"['C1', 'F2', 'F1']",6.1,90,0.0,0.0799538160240399,[2300|0|0]
23,2300,0.7845329642295837,1.1727646589279177,-0.0490965358912944,0.8043213486671448,0.2792828679084778,-9.694254875183104,4.10546875,2,"['C1', 'F2', 'F1']",6.1,90,0.0,0.0803194310287366,[2400|0|0]
24,2400,0.7846335768699646,1.1729792356491089,-0.0490992292761802,0.8006772994995117,0.284543365240097,-9.708685874938965,4.10546875,2,"['C1', 'F2', 'F1']",6.1,90,0.0,0.0805564401572608,[2500|0|0]
25,2500,0.784835696220398,1.1730644702911377,-0.048973623663187,0.7614659070968628,0.263742983341217,-9.729558944702148,4.10546875,2,"['C1', 'F2', 'F1']",6.1,90,0.0,0.0808092126756183,[2600|0|0]
26,2600,0.7843420505523682,1.1732277870178225,-0.0487006083130836,0.7694756984710693,0.2817741930484772,-9.701216697692873,4.10546875,2,"['C1', 'F2', 'F1']",6.1,90,0.0,0.0813964909573311,[2700|0|0]
27,2700,0.7846909165382385,1.173030138015747,-0.048998899757862,0.7735740542411804,0.2675482630729675,-9.69939422607422,4.10546875,2,"['C1', 'F2', 'F1']",6.1,90,0.0,0.0818962412851416,[2800|0|0]
28,2800,0.7844341397285461,1.1731419563293457,-0.0489072576165199,0.7720970511436462,0.2771296799182892,-9.70766258239746,4.11328125,2,"['C1', 'F2', 'F1']",6.1,90,0.0,0.0821909206826597,[2900|0|0]
29,2900,0.7848206162452698,1.1733654737472534,-0.0489851124584674,0.7786557078361511,0.2698701322078705,-9.69370460510254,4.10546875,2,"['C1', 'F2', 'F1']",6.1,90,0.0,0.0826441154647365,[3000|0|0]
30,3000,0.7844881415367126,1.1726336479187012,-0.0490975193679332,0.8024977445602417,0.2767874896526336,-9.688745498657228,4.11328125,2,"['C1', 'F2', 'F1']",6.1,90,0.0,0.0834557457922021,[3100|0|0]
31,3100,0.7845744490623474,1.1726977825164795,-0.0490333810448646,0.7990440130233765,0.269708901643753,-9.683043479919434,4.11328125,2,"['C1', 'F2', 'F1']",6.1,90,0.0,0.0835809494666667,[3200|0|0]
32,3200,0.7844803333282471,1.172760248184204,-0.0489089898765087,0.7984890341758728,0.2647987604141235,-9.701436042785645,4.10546875,2,"['C1', 'F2', 'F1']",6.1,90,0.0,0.0837489759342677,[3300|0|0]
33,3300,0.7839828133583069,1.1729775667190552,-0.0491006299853324,0.7911950349807739,0.2817360162734985,-9.692094802856444,4.10546875,2,"['C1', 'F2', 'F1']",6.1,90,0.0,0.0843247184091548,[3400|0|0]
34,3400,0.7844321131706238,1.1729004383087158,-0.0495891869068145,0.7786018252372742,0.2583556473255157,-9.722596168518066,4.10546875,2,"['C1', 'F2', 'F1']",6.1,90,0.0,0.0849929301858825,[3500|0|0]
35,3500,0.7844864726066589,1.1732286214828491,-0.048805896192789,0.7443727254867554,0.2471206933259964,-9.709328651428224,4.10546875,2,"['C1', 'F2', 'F1']",6.1,90,0.0,0.0858439316469557,[3600|0|0]
36,3600,0.7844157218933105,1.1733733415603638,-0.0490353889763355,0.756046712398529,0.2479993551969528,-9.67846393585205,4.10546875,2,"['C1', 'F2', 'F1']",6.1,90,0.0,0.0861243179910866,[3700|0|0]
37,3700,0.7847755551338196,1.1728949546813965,-0.0495598018169403,0.7632231116294861,0.237536996603012,-9.669029235839844,4.10546875,2,"['C1', 'F2', 'F1']",6.1,90,0.0,0.0869201463609845,[3800|0|0]
38,3800,0.7848463654518127,1.17268967628479,-0.0492658540606498,0.7663936018943787,0.2366863191127777,-9.705982208251951,4.11328125,2,"['C1', 'F2', 'F1']",6.1,90,0.0,0.0872856030679633,[3900|0|0]
39,3900,0.7845796346664429,1.1728894710540771,-0.0493954420089721,0.7669765949249268,0.2438543140888214,-9.714262008666992,4.10546875,2,"['C1', 'F2', 'F1']",6.1,90,0.0,0.0876431730583832,[4000|0|0]
40,4000,0.7843065857887268,1.17339825630188,-0.0489254482090473,0.7522820234298706,0.2576030492782593,-9.698071479797363,4.10546875,2,"['C1', 'F2', 'F1']",6.1,90,0.0,0.0883876945758503,[4100|0|0]
41,4100,0.7844449281692505,1.1731338500976562,-0.0493513345718383,0.7631222009658813,0.2576322555541992,-9.697257995605469,4.10546875,2,"['C1', 'F2', 'F1']",6.1,90,0.0,0.0889077219300273,[4200|0|0]
42,4200,0.7853660583496094,1.1730772256851196,-0.0494006313383579,-0.1819506585597992,-0.261658638715744,-8.503365516662598,4.10546875,2,"['C1', 'F2', 'F1']",6.1,90,0.0,0.0898319066001298,[4300|0|0]
43,4300,0.785703182220459,1.1729819774627686,-0.0494429282844066,0.2760596871376037,0.1770578622817993,-9.084007263183594,4.10546875,2,"['C1', 'F2', 'F1']",6.1,90,0.0,0.090184771673214,[4400|0|0]
44,4400,0.7847967743873596,1.1728061437606812,-0.0494446232914924,0.6749600768089294,0.5691741704940796,-9.462770462036133,4.10546875,2,"['C1', 'F2', 'F1']",6.1,90,0.0,0.0911080785148125,[4500|0|0]
45,4500,0.7844816446304321,1.1727604866027832,-0.0493594110012054,0.9119814038276672,0.657632052898407,-9.57827854156494,4.10546875,2,"['C1', 'F2', 'F1']",6.1,90,0.0,0.0914377032623428,[4600|0|0]
46,4600,0.7843828201293945,1.1728917360305786,-0.0491888560354709,0.9854761958122252,0.6358345746994019,-9.67414665222168,4.10546875,2,"['C1', 'F2', 'F1']",6.1,90,0.0,0.0916745189937431,[4700|0|0]
47,4700,0.7840141654014587,1.172799587249756,-0.0493432395160198,1.006935477256775,0.6109507083892822,-9.727023124694824,4.10546875,2,"['C1', 'F2', 'F1']",6.1,90,0.0,0.092084679895467,[4800|0|0]
48,4800,0.7842975854873657,1.1728601455688477,-0.0490427315235137,0.9862696528434752,0.5364760160446167,-9.753066062927246,4.10546875,2,"['C1', 'F2', 'F1']",6.1,90,0.0,0.0925021715824102,[4900|0|0]
49,4900,0.7842864990234375,1.1727875471115112,-0.0493213608860969,0.9785757660865784,0.486893892288208,-9.777045249938965,4.10546875,2,"['C1', 'F2', 'F1']",6.1,90,0.0,0.0927903169751958,[5000|0|0]
50,5000,0.7843023538589478,1.1728745698928833,-0.0493154786527156,0.9676658511161804,0.4513762891292572,-9.782322883605955,4.10546875,2,"['C1', 'F2', 'F1']",6.1,90,0.0,0.0928789676433058,[5100|0|0]
51,5100,0.7841617465019226,1.1730107069015503,-0.0489817783236503,0.9424912333488464,0.429237425327301,-9.772788047790527,4.11328125,2,"['C1', 'F2', 'F1']",6.1,90,0.0,0.0932658263043135,[5200|0|0]
52,5200,0.7841953635215759,1.1730005741119385,-0.0491389892995357,0.8828614950180054,0.3835776746273041,-9.775134086608888,4.10546875,2,"['C1', 'F2', 'F1']",6.1,90,0.0,0.0934269103456538,[5300|0|0]
53,5300,0.7841464877128601,1.1731268167495728,-0.0485998280346393,0.8728514313697815,0.3665598332881927,-9.759166717529297,4.10546875,2,"['C1', 'F2', 'F1']",6.1,90,0.0,0.0939828068448326,[5400|0|0]
54,5400,0.7841665744781494,1.1726949214935305,-0.049058124423027,0.8757373690605164,0.3515780866146087,-9.764437675476074,4.10546875,2,"['C1', 'F2', 'F1']",6.1,90,0.0,0.0946128644373913,[5500|0|0]
55,5500,0.7843196988105774,1.1728312969207764,-0.0489568300545215,0.8641048669815063,0.3368397653102875,-9.718291282653809,4.10546875,2,"['C1', 'F2', 'F1']",6.1,90,0.0,0.09484156919779,[5600|0|0]
56,5600,0.784532904624939,1.172766923904419,-0.0490649119019508,0.856510579586029,0.3201767206192016,-9.712453842163086,4.10546875,2,"['C1', 'F2', 'F1']",6.1,90,0.0,0.0950891217987787,[5700|0|0]
57,5700,0.7844383716583252,1.172677755355835,-0.0490103550255298,0.8496798872947693,0.3198344707489013,-9.678999900817873,4.10546875,2,"['C1', 'F2', 'F1']",6.1,90,0.0,0.0952300613766061,[5800|0|0]
58,5800,0.7845357656478882,1.1727374792099,-0.0494321919977664,0.8364185690879822,0.3076685965061188,-9.722213745117188,4.10546875,2,"['C1', 'F2', 'F1']",6.1,90,0.0,0.0956670956534005,[5900|0|0]
59,5900,0.7844370603561401,1.1728912591934204,-0.0490590780973434,0.8262726664543152,0.3018166124820709,-9.733559608459473,4.10546875,2,"['C1', 'F2', 'F1']",6.1,90,0.0,0.0960825532332321,[6000|0|0]
60,6000,0.7845036387443542,1.1726446151733398,-0.0492352694272995,0.824799120426178,0.2957763671875,-9.75413703918457,4.10546875,2,"['C1', 'F2', 'F1']",6.1,90,0.0,0.0963928906933789,[6100|0|0]
61,6100,0.7842403650283813,1.17265784740448,-0.0491220131516456,0.8230173587799072,0.2972947061061859,-9.711346626281738,4.10546875,2,"['C1', 'F2', 'F1']",6.1,90,0.0,0.0966797968199048,[6200|0|0]
62,6200,0.7844745516777039,1.1730520725250244,-0.0491324439644813,0.8025665879249573,0.2869548797607422,-9.678236961364746,4.10546875,2,"['E1B', 'F2', 'G1']",6.1,90,0.0,0.0971384531555697,[6200|0|0]
63,6300,0.7842156291007996,1.172818899154663,-0.0489730536937713,0.7891407608985901,0.3047952353954315,-9.812644004821776,3.009765625,2,"['E1B', 'F2', 'G1']",6.1,90,0.0,0.0975216188897807,[6200|0|0]
64,6400,0.7843440771102905,1.1720342636108398,-0.044114414602518,2.690823554992676,-0.218221440911293,-8.501219749450684,3.3671875,2,"['E1B', 'F2', 'G1']",6.1,90,0.0,0.1024448826087813,[6200|0|0]
65,6500,0.788000762462616,1.1687209606170654,-0.003656290937215,-0.1415188163518905,-1.2224065065383911,-5.911747455596924,3.578125,2,"['E1B', 'F2', 'G1']",6.1,90,0.0,0.1432028155177429,[6200|0|0]
66,6600,0.7940496802330017,1.1688071489334106,0.0653398931026458,0.4631445407867431,-1.2549476623535156,-3.652008056640625,3.63671875,2,"['E1B', 'F2', 'G1']",6.1,90,0.0,0.2124637009198306,[6200|0|0]
67,6700,0.8065798878669739,1.169018268585205,0.1428248286247253,0.7869358658790588,0.202723428606987,-2.2479796409606934,3.642578125,2,"['E1B', 'F2', 'G1']",6.1,90,0.0,0.2909555215619755,[6200|0|0]
68,6800,0.8190216422080994,1.1699262857437134,0.2240863889455795,1.1355856657028198,1.2689073085784912,-0.8000657558441162,3.63671875,2,"['E1B', 'F2', 'G1']",6.1,90,0.0,0.3731690419343868,[6200|0|0]
69,6900,0.829482913017273,1.1699178218841553,0.2989549934864044,1.2419867515563965,1.8247551918029783,-0.1084343865513801,3.626953125,2,"['E1B', 'F2', 'G1']",6.1,90,0.0,0.448764982331145,[6200|0|0]
70,7000,0.8396124243736267,1.169069528579712,0.3846634924411773,1.2108210325241089,2.040303468704224,0.281874418258667,3.630859375,2,"['E1B', 'F2', 'G1']",6.1,90,0.0,0.5350741556265091,[6200|0|0]
71,7100,0.844310998916626,1.1662908792495728,0.4715251326560974,0.9887051582336426,2.547433376312256,0.4546712636947632,3.626953125,2,"['E1B', 'F2', 'G1']",6.1,90,0.0,0.6221071495751388,[6200|0|0]
72,7200,0.8476672172546387,1.160717487335205,0.5684982538223267,1.1734390258789062,2.210726022720337,0.5964280962944031,3.626953125,2,"['E1B', 'F2', 'G1']",6.1,90,0.0,0.7192982660811432,[6200|0|0]
73,7300,0.8452046513557434,1.155295729637146,0.6597668528556824,0.5713397860527039,1.499055027961731,0.6132674813270569,3.626953125,2,"['E1B', 'F2', 'G1']",6.1,90,0.0,0.8107609188791806,[6200|0|0]
74,7400,0.8394924402236938,1.1489763259887695,0.7530627846717834,-0.2255967855453491,0.6759366393089294,0.4760937690734863,3.62109375,2,"['E1B', 'F2', 'G1']",6.1,90,0.0,0.904444936256334,[6200|0|0]
75,7500,0.8329664468765259,1.1435546875,0.8472021818161011,-0.2022229433059692,-0.3910291492938995,0.4897714853286743,3.62109375,2,"['E1B', 'F2', 'G1']",6.1,90,0.0,0.9989658802199116,[6200|0|0]
76,7600,0.8265697360038757,1.1393073797225952,0.9417962431907654,-1.116732835769653,-0.928460657596588,0.6069566607475281,3.615234375,2,"['E1B', 'F2', 'G1']",6.1,90,0.0,1.0938710643812524,[6200|0|0]
77,7700,0.8218792080879211,1.1383254528045654,1.0378693342208862,-0.4941899180412292,-0.7098265290260315,0.5107150077819824,3.615234375,2,"['E1B', 'F2', 'G1']",6.1,90,0.0,1.1900636007480858,[6200|0|0]
78,7800,0.8189024925231934,1.1384391784667969,1.1363080739974976,-0.445755660533905,-0.7381488680839539,0.2355188876390457,3.611328125,2,"['E1B', 'F2', 'G1']",6.1,90,0.0,1.2885474027557609,[6200|0|0]
79,7900,0.8176090121269226,1.1388258934020996,1.2357556819915771,0.2978832125663757,-0.5083851218223572,-0.7046860456466675,3.60546875,2,"['E1B', 'F2', 'G1']",6.1,90,0.0,1.3880041741477624,[6200|0|0]
80,8000,0.816702663898468,1.1391047239303589,1.3366453647613523,0.5109383463859558,-0.4914852976799011,-0.3647406101226806,3.599609375,2,"['E1B', 'F2', 'G1']",6.1,90,0.0,1.4888983132389932,[6200|0|0]
81,8100,0.8126498460769653,1.13972008228302,1.4316171407699585,0.2000662088394165,-0.1313233524560928,-0.221309021115303,3.611328125,2,"['E1B', 'F2', 'G1']",6.1,90,0.0,1.5839585164600325,[6200|0|0]
82,8200,0.8138282299041748,1.1369539499282837,1.5346194505691528,0.3993473649024963,0.0122479544952511,-0.6002257466316223,3.60546875,2,"['E1B', 'F2', 'G1']",6.1,90,0.0,1.687004699798463,[6200|0|0]
83,8300,0.8135783076286316,1.1339284181594849,1.6389873027801514,0.0437941513955593,-0.0038960836827754,-0.245205670595169,3.642578125,2,"['E1B', 'F2', 'G1']",6.1,90,0.0,1.7914166956550914,[6200|0|0]
84,8400,0.8131237626075745,1.129806399345398,1.739647626876831,-0.127558097243309,0.0936296954751014,0.3064948916435241,3.689453125,2,"['E1B', 'F2', 'G1']",6.1,90,0.0,1.892162407710387,[6200|0|0]
85,8500,0.8111112713813782,1.1245570182800293,1.8291964530944824,-0.0844383835792541,0.1022351682186126,3.33270001411438,3.705078125,2,"['E1B', 'F2', 'G1']",6.1,90,0.0,1.981887534622886,[6200|0|0]
86,8600,0.808829665184021,1.1183857917785645,1.8973939418792725,-0.3685285747051239,-0.4825233817100525,6.0628981590271,3.705078125,2,"['E1B', 'F2', 'G1']",6.1,90,0.0,2.0504016736010837,[6200|0|0]
87,8700,0.8051093220710754,1.1120599508285522,1.951380014419556,-0.1563154011964798,-0.6176092028617859,10.664448738098145,3.6796875,2,"['E1B', 'F2', 'G1']",6.1,90,0.0,2.1048842693994447,[6200|0|0]
88,8800,0.8017378449440002,1.1107370853424072,1.993618607521057,-0.9216452836990356,-1.0462160110473633,13.594219207763672,3.66796875,2,"['E1B', 'F2', 'G1']",6.1,90,0.0,2.1472778488461843,[6200|0|0]
89,8900,0.8010497093200684,1.1084179878234863,2.0172765254974365,-0.8312106132507324,-1.1031116247177124,11.552363395690918,3.65234375,2,"['E1B', 'F2', 'G1']",6.1,90,0.0,2.171059119352957,[6200|0|0]
90,9000,0.7987191081047058,1.1068437099456787,2.029835700988769,-0.9489248394966124,-0.8182263374328613,-1.4620065689086914,3.65234375,2,"['E1B', 'F2', 'G1']",6.1,90,0.0,2.183929354078233,[6200|0|0]
91,9100,0.7978981733322144,1.1041855812072754,2.02836275100708,-0.1791127920150756,-0.4943315088748932,-14.397769927978516,3.6484375,2,"['E1B', 'F2', 'G1']",6.1,90,0.0,2.187077236531434,[6200|0|0]
92,9200,0.7986222505569458,1.099442481994629,2.0253798961639404,0.1171785071492195,-0.2416283637285232,-9.937312126159668,3.60546875,2,"['E1B', 'F2', 'G1']",6.1,90,0.0,2.192726900325292,[6200|0|0]
93,9300,0.8017363548278809,1.093543529510498,2.016995906829834,3.17154598236084,0.7707906365394592,-2.776787519454956,3.673828125,2,"['E1B', 'F2', 'G1']",6.1,90,189.3446719020997,2.203440749445692,[6200|0|0]
94,9400,0.7998814582824707,1.0786770582199097,1.99578869342804,15.964685440063477,3.863722085952759,-5.053338527679443,3.642578125,2,"['E1B', 'F2', 'G1']",6.1,90,189.3446719020997,2.2294060822973485,[6200|0|0]
95,9500,0.7901432514190674,1.041541576385498,1.9702107906341555,16.97410011291504,0.9505791664123536,-7.961739540100098,3.578125,2,"['E1B', 'F2', 'G1']",6.1,90,189.3446719020997,2.2755374793640075,[6200|0|0]
96,9600,0.7673613429069519,0.9857754111289978,1.940081000328064,16.122661590576172,0.2567359209060669,-9.551234245300291,3.541015625,2,"['E1B', 'F2', 'G1']",6.1,90,189.3446719020997,2.3428923960869814,[6200|0|0]
97,9700,0.7337898015975952,0.9031369686126708,1.9117696285247805,10.797210693359377,-0.9582515954971312,-9.078280448913574,3.541015625,2,"['E1B', 'F2', 'G1']",6.1,90,189.3446719020997,2.4364749497003224,[6200|0|0]
98,9800,0.6943625807762146,0.8038124442100525,1.888481855392456,4.853278636932373,-3.464509963989258,-8.019743919372559,3.57421875,2,"['E1B', 'F2', 'G1']",6.1,90,189.3446719020997,2.5458467343020508,[6200|0|0]
99,9900,0.6595771908760071,0.6915199160575867,1.869221568107605,-0.2629218399524688,-5.12230110168457,-2.474972009658813,3.583984375,2,"['E1B', 'F2', 'G1']",6.1,90,189.3446719020997,2.664971013505229,[6200|0|0]
100,10000,0.6295355558395386,0.5949609875679016,1.8582122325897217,-7.034538745880127,-5.86724853515625,-1.8804190158843996,3.60546875,2,"['E1B', 'F2', 'G1']",6.1,90,189.3446719020997,2.7666928497808576,[6200|0|0]
101,10100,0.6129355430603027,0.5050984025001526,1.844399690628052,-9.41976547241211,-7.184535503387451,4.474416255950928,3.60546875,2,"['E1B', 'F2', 'G1']",6.1,90,189.3446719020997,2.859113794023881,[6200|0|0]
102,10200,0.6024495959281921,0.436645895242691,1.8317266702651975,-10.759195327758787,-6.025063514709473,5.287272930145264,3.5625,2,"['E1B', 'F2', 'G1']",6.1,90,189.3446719020997,2.9295148329523486,[6200|0|0]
103,10300,0.6060137152671814,0.3880510330200195,1.8162806034088133,-9.886652946472168,-5.021756649017334,7.222731590270996,3.541015625,2,"['E1B', 'F2', 'G1']",6.1,90,189.3446719020997,2.9806298460349536,[6200|0|0]
104,10400,0.6173383593559265,0.3557813167572021,1.8041132688522337,-8.232545852661133,-3.064591646194458,6.348829746246338,3.546875,2,"['E1B', 'F2', 'G1']",6.1,90,189.3446719020997,3.016928966983418,[6200|0|0]
105,10500,0.6372534036636353,0.3373466730117798,1.7958189249038696,-5.751095771789551,-0.4747087955474853,2.770303010940552,3.552734375,2,"['E1B', 'F2', 'G1']",6.1,90,189.3446719020997,3.04530573955065,[6200|0|0]
106,10600,0.655241072177887,0.3305894732475281,1.7917250394821167,-3.606642007827759,1.5083776712417605,-2.1476359367370605,3.57421875,2,"['E1B', 'F2', 'G1']",6.1,90,189.3446719020997,3.064952008027871,[6200|0|0]
107,10700,0.6673598289489746,0.3307626247406006,1.7897721529006958,-1.910596489906311,2.4465527534484863,-1.432479977607727,3.58984375,2,"['E1B', 'F2', 'G1']",6.1,90,189.3446719020997,3.077228327228521,[6200|0|0]
108,10800,0.6731314063072205,0.3366515934467315,1.7907427549362185,-0.3912643790245056,2.6734840869903564,-4.11953592300415,3.59375,2,"['E1B', 'F2', 'G1']",6.1,90,189.3446719020997,3.085530924769975,[6200|0|0]
109,10900,0.6743195056915283,0.3438607156276703,1.7911733388900757,1.087160348892212,2.036464214324951,-4.455935001373291,3.611328125,2,"['E1B', 'F2', 'G1']",6.1,90,189.3446719020997,3.092849970152265,[6200|0|0]
110,11000,0.6690741777420044,0.3528175055980682,1.7918133735656738,1.4849013090133667,1.069785714149475,-4.4220733642578125,3.599609375,2,"['E1B', 'F2', 'G1']",6.1,90,189.3446719020997,3.10324935456952,[6200|0|0]
111,11100,0.658075749874115,0.3579843640327453,1.788960099220276,1.8275595903396609,-0.1379085481166839,-4.608342170715332,3.599609375,2,"['E1B', 'F2', 'G1']",6.1,90,189.3446719020997,3.1157314624099155,[6200|0|0]
112,11200,0.6448240876197815,0.3611693084239959,1.7839654684066772,1.4102600812911987,-1.539325475692749,-5.032830715179443,3.58984375,2,"['E1B', 'F2', 'G1']",6.1,90,189.3446719020997,3.1302468597603994,[6200|0|0]
113,11300,0.6324502825737,0.3620251417160034,1.7762384414672852,1.053838133811951,-2.489907503128052,-5.18751335144043,3.5625,2,"['E1B', 'F2', 'G1']",6.1,90,189.3446719020997,3.1448602251244844,[6200|0|0]
114,11400,0.6218862533569336,0.3609932363033294,1.7674378156661987,0.801278829574585,-2.977048873901367,-4.183950424194336,3.552734375,2,"['E1B', 'F2', 'G1']",6.1,90,189.3446719020997,3.158648428653739,[6200|0|0]
115,11500,0.615907609462738,0.3610768020153045,1.7630549669265747,0.4970234036445617,-3.16256046295166,-3.547138929367065,3.568359375,2,"['E1B', 'F2', 'G1']",6.1,90,189.3446719020997,3.1660619655367825,[6200|0|0]
116,11600,0.6128581762313843,0.359915554523468,1.760284185409546,0.1059039682149887,-2.7621374130249023,-3.3385214805603027,3.578125,2,"['E1B', 'F2', 'G1']",6.1,90,189.3446719020997,3.170342709512412,[6200|0|0]
117,11700,0.6135584115982056,0.3569163978099823,1.7550652027130127,0.3435061573982239,-2.537426710128784,-2.83475923538208,3.583984375,2,"['E1B', 'F2', 'G1']",6.1,90,189.3446719020997,3.1764026642108987,[6200|0|0]
118,11800,0.6163487434387207,0.3560609221458435,1.750798583030701,-0.3982882499694824,-1.8518807888031008,-1.265926480293274,3.578125,2,"['E1B', 'F2', 'G1']",6.1,90,189.3446719020997,3.1815719807910297,[6200|0|0]
119,11900,0.6222270131111145,0.3543409407138824,1.7468104362487793,-0.0822102352976799,-1.5340471267700195,0.0193561222404241,3.57421875,2,"['E1B', 'F2', 'G1']",6.1,90,189.3446719020997,3.18888072248997,[6200|0|0]
120,12000,0.6283130049705505,0.3555905818939209,1.744680643081665,-0.2373422235250473,-1.003185510635376,0.5398761630058289,3.568359375,2,"['E1B', 'F2', 'G1']",6.1,90,189.3446719020997,3.1954485926871232,[6200|0|0]
121,12100,0.6344809532165527,0.3565616905689239,1.7403881549835205,-0.290901631116867,-0.5351037383079529,2.5562636852264404,3.58984375,2,"['E1B', 'F2', 'G1']",6.1,90,189.3446719020997,3.2030256694121366,[6200|0|0]
122,12200,0.6405114531517029,0.3575621843338012,1.738231539726257,0.1727882474660873,-0.1012275442481041,3.3967530727386475,3.583984375,2,"['E1B', 'F2', 'G1']",6.1,90,189.3446719020997,3.209507868622996,[6200|0|0]
123,12300,0.6471630334854126,0.3612519204616546,1.7335751056671145,0.0825961157679557,0.0029437458142638,3.341733694076538,3.87890625,2,"['E1B', 'F2', 'G1']",6.1,90,0.0,3.218426391582328,[6200|0|0]
124,12400,0.6506751179695129,0.3623285293579101,1.7037523984909058,0.2328540235757827,0.5108955502510071,4.864754676818848,3.81640625,2,"['E1B', 'F2', 'G1']",6.1,90,0.0,3.248474481163145,[6200|0|0]
125,12500,0.6520522832870483,0.365575224161148,1.6372730731964111,0.3393612205982208,-0.5971120595932007,4.760213375091553,3.6953125,2,"['E1B', 'F2', 'G1']",6.1,90,0.0,3.3150472856937374,[6200|0|0]
126,12600,0.6584822535514832,0.3685951232910156,1.5502731800079346,0.9010869860649108,-0.64029461145401,1.0888713598251345,3.59375,2,"['E1B', 'F2', 'G1']",6.1,90,0.0,3.402336722186147,[6200|0|0]
127,12700,0.665417492389679,0.3677929043769836,1.4216899871826172,0.1824068129062652,-0.1794252246618271,-3.153327226638794,3.552734375,2,"['E1B', 'F2', 'G1']",6.1,90,0.0,3.5311093068852264,[6200|0|0]
128,12800,0.6718676686286926,0.3680351674556732,1.2981481552124023,1.3105660676956177,-0.1204902380704879,-5.960751533508301,3.57421875,2,"['E1B', 'F2', 'G1']",6.1,90,0.0,3.654819644818119,[6200|0|0]
129,12900,0.6799345016479492,0.3676071166992187,1.1761127710342407,-0.9749407172203064,-0.0593740120530128,-6.588982582092285,3.578125,2,"['E1B', 'F2', 'G1']",6.1,90,0.0,3.777122106011351,[6200|0|0]
130,13001,0.6896575689315796,0.3682722151279449,1.0520708560943604,0.619168221950531,0.889274001121521,-6.543210983276367,3.583984375,2,"['E1B', 'F2', 'G1']",6.1,90,0.0,3.901546287966767,[6200|0|0]
131,13100,0.699803352355957,0.3700162768363952,0.9305549263954164,-0.8976936340332031,0.1309522837400436,-6.748249053955078,3.583984375,2,"['E1B', 'F2', 'G1']",6.1,90,0.0,4.023497507079722,[6200|0|0]
132,13200,0.7083743214607239,0.3721821308135986,0.8107961416244507,2.5166473388671875,4.860684871673584,-4.603511810302734,3.583984375,2,"['E1B', 'F2', 'G1']",6.1,90,0.0,4.143582139588066,[6200|0|0]
133,13300,0.7133424282073975,0.3708999752998352,0.688941478729248,0.5223826169967651,0.6045153141021729,-2.7684717178344727,3.568359375,2,"['E1B', 'F2', 'G1']",6.1,90,0.0,4.265544776804187,[6200|0|0]
134,13401,0.715422511100769,0.3684870600700378,0.5689698457717896,0.2556847631931305,1.8937808275222776,-2.415956974029541,3.578125,2,"['E1B', 'F2', 'G1']",6.1,90,0.0,4.385558699409978,[6200|0|0]
135,13500,0.7165626883506775,0.3662493824958801,0.4505069553852081,-0.6359043121337891,0.0462677627801895,-2.3437061309814453,3.525390625,2,"['E1B', 'F2', 'G1']",6.1,90,0.0,4.5040482078224535,[6200|0|0]
136,13600,0.7182143330574036,0.3667311072349548,0.332836776971817,-1.0081998109817505,-1.5423357486724854,-1.9017877578735352,3.39453125,2,"['E1B', 'F2', 'G1']",6.1,90,0.0,4.621730963045132,[6200|0|0]
137,13701,0.7277196049690247,0.3771496713161468,0.2284599989652633,-0.3031570315361023,-0.7548887133598328,-1.243938684463501,3.3515625,2,"['E1B', 'F2', 'G1']",6.1,90,0.0,4.727056213857352,[6200|0|0]
138,13801,0.7365273237228394,0.3818445801734924,0.1412412375211715,1.3294795751571655,1.0392580032348633,-0.7736966013908386,3.3671875,2,"['E1B', 'F2', 'G1']",6.1,90,0.0,4.814844199519779,[6200|0|0]
139,13900,0.7400127649307251,0.3766726553440094,0.0748797431588172,3.387202739715576,3.113325595855713,0.2135929465293884,3.3828125,2,"['E1B', 'F2', 'G1']",6.1,90,0.0,4.881498119440968,[6200|0|0]
140,14001,0.7416083216667175,0.3714418113231659,0.0332839637994766,2.317866086959839,4.319432735443115,1.356134057044983,3.42578125,2,"['E1B', 'F2', 'G1']",6.1,90,0.0,4.923451860525395,[6200|0|0]
141,14101,0.7363331913948059,0.3601270318031311,0.0162093583494424,1.4730874300003052,4.12064790725708,2.2966225147247314,3.494140625,2,"['E1B', 'F2', 'G1']",6.1,90,0.0,4.944603536256811,[6200|0|0]
142,14201,0.7237302660942078,0.3448631167411804,0.0180488433688879,0.4147317111492157,2.5651652812957764,2.342883348464966,3.58984375,2,"['E1B', 'F2', 'G1']",6.1,90,0.0,4.964483288123665,[6200|0|0]
143,14301,0.7075931429862976,0.3276204168796539,0.0294245239347219,0.1594806760549545,-0.8649649024009705,2.490424156188965,3.611328125,2,"['E1B', 'F2', 'G1']",6.1,90,0.0,4.990696329707014,[6200|0|0]
144,14401,0.6941738128662109,0.3112293779850006,0.0399997197091579,-1.871745586395264,-1.311792254447937,2.3728065490722656,3.611328125,2,"['E1B', 'F2', 'G1']",6.1,90,0.0,5.014372886521415,[6200|0|0]
145,14501,0.6831506490707397,0.295121818780899,0.0482613816857337,-3.0496842861175537,-3.1170425415039062,2.53485107421875,3.599609375,2,"['E1B', 'F2', 'G1']",6.1,90,0.0,5.035567665647196,[6200|0|0]
146,14602,0.677741527557373,0.2831561267375946,0.0484692715108394,-2.438068151473999,-2.707909345626831,3.342881441116333,3.5625,2,"['E1B', 'F2', 'G1']",6.1,90,0.0,5.048700814538491,[6200|0|0]
147,14702,0.6783351302146912,0.275632381439209,0.0440317466855049,-3.44607162475586,-2.0157692432403564,3.545961618423462,3.537109375,2,"['E1B', 'F2', 'G1']",6.1,90,0.0,5.057455855029843,[6200|0|0]
148,14801,0.6836935877799988,0.2723363041877746,0.0406469218432903,-3.2479207515716557,-0.4237989485263824,2.981877565383911,3.541015625,2,"['E1B', 'F2', 'G1']",6.1,90,0.0,5.064599679771471,[6200|0|0]
149,14902,0.690868616104126,0.2748490273952484,0.0383935049176216,-2.209949254989624,0.2220741957426071,2.185494899749756,3.552734375,2,"['E1B', 'F2', 'G1']",6.1,90,0.0,5.0725289103274775,[6200|0|0]
150,15002,0.6987633109092712,0.2814158499240875,0.0364912152290344,-1.5388790369033811,-0.1130660250782966,1.4843552112579346,3.552734375,2,"['E1B', 'F2', 'G1']",6.1,90,0.0,5.082972476301366,[6200|0|0]
151,15100,0.7069160342216492,0.2898812294006347,0.0368653982877731,0.5772929191589355,1.7287720441818235,1.3628497123718262,3.55859375,2,"['E1B', 'F2', 'G1']",6.1,90,0.0,5.0947312840662535,[6200|0|0]
152,15200,0.7127944231033325,0.2979255616664886,0.0401948727667331,0.070085309445858,1.8712971210479736,1.937159776687622,3.5625,2,"['E1B', 'F2', 'G1']",6.1,90,0.0,5.10523614664288,[6200|0|0]
153,15302,0.716421365737915,0.3041687309741974,0.0417474023997783,-0.790449857711792,2.090522289276123,2.117375135421753,3.5625,2,"['A1', 'F2', 'J1']",6.1,90,0.0,5.1126214173989695,[6200|100|0]
154,15402,0.7170194983482361,0.3103280365467071,0.045938204973936,1.8757563829422,1.6864694356918335,3.513251781463623,3.57421875,2,"['A1', 'F2', 'J1']",6.1,90,0.0,5.120095213888749,[6200|200|0]
155,15500,0.7165723443031311,0.3122859001159668,0.0505412258207798,1.7199053764343262,1.0020604133605957,4.867830753326416,3.583984375,2,"['A1', 'F2', 'J1']",6.1,90,0.0,5.125117263013595,[6200|300|0]
156,15600,0.7169703245162964,0.3098195195198059,0.0531928353011608,1.0829813480377195,0.8193171620368958,5.047737121582031,3.57421875,2,"['A1', 'F2', 'J1']",6.1,90,0.0,5.128760400992267,[6200|400|0]
157,15700,0.7162131071090698,0.304916113615036,0.0525367222726345,-0.0837752968072891,0.5199326276779175,4.411668300628662,3.552734375,2,"['A1', 'F2', 'J1']",6.1,90,0.0,5.133765123959119,[6200|500|0]
158,15800,0.7158389687538147,0.2977327704429626,0.0497343838214874,1.2796462774276731,-0.5615773797035217,4.28392219543457,3.537109375,2,"['A1', 'F2', 'J1']",6.1,90,0.0,5.141484806558256,[6200|600|0]
159,15900,0.7174994349479675,0.2864919006824493,0.0475197993218898,0.2081832140684127,0.5315328240394592,3.4829888343811035,3.525390625,2,"['A1', 'F2', 'J1']",6.1,90,0.0,5.153061450521884,[6200|700|0]
160,16000,0.7191858887672424,0.2736499905586242,0.0442027002573013,0.9665125608444214,-0.5771377086639404,2.622444629669189,3.53125,2,"['A1', 'F2', 'J1']",6.1,90,0.0,5.166431638565335,[6200|800|0]
161,16100,0.7211795449256897,0.2591624855995178,0.042418960481882,0.0668117627501487,-0.267605185508728,1.500165343284607,3.525390625,2,"['A1', 'F2', 'J1']",6.1,90,0.0,5.181164058339584,[6200|900|0]
162,16200,0.7237496972084045,0.2445556223392486,0.0453300960361957,-0.1226928830146789,-0.2180548161268234,1.0529773235321045,3.5625,2,"['A1', 'F2', 'J1']",6.1,90,0.0,5.196278318072569,[6200|1000|0]
163,16300,0.7275654077529907,0.229629561305046,0.050309170037508,-0.7225956320762634,0.1680388003587722,1.3493505716323853,3.568359375,2,"['A1', 'F2', 'J1']",6.1,90,0.0,5.2124689981962495,[6200|1100|0]
164,16400,0.7310023307800293,0.2163289040327072,0.0546327047049999,-0.2656827270984649,0.1518925875425338,1.7401835918426514,3.568359375,2,"['A1', 'F2', 'J1']",6.1,90,0.0,5.22687083404419,[6200|1200|0]
165,16500,0.7336054444313049,0.2030816823244094,0.0569236166775226,0.5511491894721985,0.3580191135406494,2.001154899597168,3.546875,2,"['A1', 'F2', 'J1']",6.1,90,0.0,5.240564385860139,[6200|1300|0]
166,16600,0.7356137633323669,0.1887343972921371,0.0572611950337886,0.4026803374290466,0.4749009013175964,1.495534896850586,3.53125,2,"['A1', 'F2', 'J1']",6.1,90,0.0,5.255055482842503,[6200|1400|0]
167,16700,0.7363691329956055,0.1738970577716827,0.0569109395146369,-0.3895211517810821,0.618035614490509,0.5698558688163757,3.521484375,2,"['A1', 'F2', 'J1']",6.1,90,0.0,5.269916166080567,[6200|1500|0]
168,16800,0.7348305583000183,0.1593392640352249,0.0550566017627716,-0.931528389453888,0.4777458906173706,0.1317036300897598,3.521484375,2,"['A1', 'F2', 'J1']",6.1,90,0.0,5.28467201709178,[6200|1600|0]
169,16900,0.7322996854782104,0.1468173563480377,0.0550234951078891,-0.6732485890388489,0.2003848552703857,-0.4373854398727417,3.515625,2,"['A1', 'F2', 'J1']",6.1,90,0.0,5.297447172097384,[6200|1700|0]
170,17000,0.7289377450942993,0.1369539499282837,0.0566657409071922,-0.7495583891868591,0.4503091275691986,-0.1790870130062103,3.53125,2,"['A1', 'F2', 'J1']",6.1,90,0.0,5.307996409065598,[6200|1800|0]
171,17100,0.725653350353241,0.127651035785675,0.0605738908052444,-0.0599838234484195,-0.2504028081893921,0.1341750919818878,3.552734375,2,"['A1', 'F2', 'J1']",6.1,90,0.0,5.318607963899151,[6200|1900|0]
172,17200,0.7218226790428162,0.1185919865965843,0.0642364099621772,-0.8123828768730164,0.0806133598089218,0.3770628273487091,3.984375,2,"['A1', 'F2', 'J1']",6.1,90,0.0,5.329103413459498,[6200|2000|0]
173,17300,0.7200521230697632,0.1086639985442161,0.037344291806221,-2.970963716506958,-2.232386350631714,0.0547291934490203,3.99609375,2,"['A1', 'F2', 'J1']",6.1,90,0.0,5.357824239250822,[6200|2100|0]
174,17400,0.716050386428833,0.1051911786198616,-0.0171727631241083,0.3655062615871429,-0.1706033498048782,-0.8650030493736267,3.99609375,2,"['A1', 'F2', 'J1']",6.1,90,0.0,5.412598171487305,[6200|2200|0]
175,17500,0.7183468341827393,0.1000653877854347,-0.0196702126413583,-1.4047043323516846,-1.4040158987045288,-1.1460319757461548,4.0,2,"['A1', 'F2', 'J1']",6.1,90,0.0,5.41874509413656,[6200|2300|0]
176,17600,0.719283401966095,0.0994074046611785,-0.0172083750367164,-1.2522984743118286,-1.223731279373169,-1.1137645244598389,4.0,2,"['A1', 'F2', 'J1']",6.1,90,0.0,5.421460005810308,[6200|2400|0]
177,17700,0.7198091149330139,0.099294014275074,-0.0163718443363904,-1.142939567565918,-1.0690888166427612,-1.1391634941101074,4.0078125,2,"['A1', 'F2', 'J1']",6.1,90,0.0,5.422454498201348,[6200|2500|0]
178,17800,0.7223933339118958,0.10215325653553,-0.0155578693374991,-1.0528249740600586,-0.9412116408348083,-1.0251750946044922,4.0078125,2,"['A1', 'F2', 'J1']",6.1,90,0.0,5.426393534801027,[6200|2600|0]
179,17900,0.7226281762123108,0.1013964340090751,-0.0154751697555184,-0.8809006810188293,-0.707055389881134,-3.743236780166626,4.01171875,2,"['A1', 'F2', 'J1']",6.1,90,0.0,5.427190259636508,[6200|2700|0]
180,18000,0.7257908582687378,0.1110754311084747,-0.0170831754803657,-0.7700793743133545,-0.5282494425773621,-0.5649219751358032,4.01171875,2,"['A1', 'F2', 'J1']",6.1,90,0.0,5.43749905321536,[6200|2800|0]
181,18100,0.7313122153282166,0.1260950416326522,-0.0105120949447155,5.2623796463012695,7.374693870544434,0.6802427172660828,4.01171875,2,"['A1', 'F2', 'J1']",6.1,90,0.0,5.454797989121428,[6200|2900|0]
182,18200,0.7024487853050232,0.1389113217592239,0.0209195576608181,10.941892623901367,10.870099067687988,6.840966701507568,4.01171875,2,"['A1', 'F2', 'J1']",6.1,90,0.0,5.499354732881508,[6200|3000|0]
183,18300,0.7045681476593018,0.1974231451749801,0.0527894981205463,15.531867980957031,9.02369499206543,-2.608920097351074,4.015625,2,"['A1', 'F2', 'J1']",6.1,90,0.0,5.566016703157911,[6200|3100|0]
184,18400,0.7215048670768738,0.2299915999174118,0.1211471781134605,19.62763023376465,6.334339618682861,-18.38002586364746,4.01171875,2,"['A1', 'F2', 'J1']",6.1,90,0.0,5.643607483041561,[6200|3200|0]
185,18500,0.6462098360061646,0.3625999689102173,0.0243097431957721,20.38457298278809,7.410317897796631,-19.782468795776367,4.015625,2,"['A1', 'F2', 'J1']",6.1,90,0.0,5.824250252153166,[6200|3300|0]
186,18600,0.6400109529495239,0.3669928610324859,0.005318799521774,14.063425064086914,5.636574745178223,-14.891800880432127,4.015625,2,"['A1', 'F2', 'J1']",6.1,90,0.0,5.844704581620952,[6200|3400|0]
187,18700,0.6488756537437439,0.3505930602550506,-0.0035245232284069,4.506799221038818,-3.0049681663513184,-12.307812690734863,4.015625,2,"['A1', 'F2', 'J1']",6.1,90,0.0,5.86533806758369,[6200|3500|0]
188,18800,0.662788450717926,0.3274038434028625,-0.003528464352712,3.814702272415161,-3.314487934112549,-11.516045570373535,4.0234375,2,"['A1', 'F2', 'J1']",6.1,90,0.0,5.892380732271088,[6200|3600|0]
189,18900,0.6830195784568787,0.2997564077377319,-0.0033950021024793,2.882838249206543,-2.4750173091888428,-11.406719207763672,4.0234375,2,"['A1', 'F2', 'J1']",6.1,90,0.0,5.926639994385436,[6200|3700|0]
190,19000,0.7095739841461182,0.2679786682128906,-0.0035861008800566,1.8293497562408447,-1.441738247871399,-11.293804168701172,4.0234375,2,"['A1', 'F2', 'J1']",6.1,90,0.0,5.968052525213196,[6200|3800|0]
191,19100,0.6257357597351074,0.3931412696838379,-0.0200955942273139,2.083775043487549,-1.0681878328323364,-7.258337497711182,4.0234375,2,"['A1', 'F2', 'J1']",6.1,90,0.0,6.11960148776309,[6200|3900|0]
192,19200,0.627036452293396,0.3800989091396332,-0.0095836445689201,2.380927085876465,-0.5834795236587524,-2.570112705230713,4.0234375,2,"['A1', 'F2', 'J1']",6.1,90,0.0,6.136403155993263,[6200|4000|0]
193,19300,0.626909613609314,0.379636287689209,-0.0090417172759771,2.650118827819824,-0.5642883777618408,-0.4621941745281219,4.0234375,2,"['A1', 'F2', 'J1']",6.1,90,0.0,6.137126890646993,[6200|4100|0]
194,19400,0.6266472339630127,0.3798536360263824,-0.0088366093114018,2.465283870697021,-0.1169224381446838,0.7224946618080139,4.0703125,2,"['A1', 'F2', 'J1']",6.1,90,0.0,6.137524574762337,[6200|4200|0]
195,19500,0.6262551546096802,0.3806549310684204,-0.0083229104056954,2.1643307209014893,0.0795640125870704,1.5043290853500366,4.10546875,2,"['A1', 'F2', 'J1']",6.1,90,0.0,6.138553985530412,[6200|4300|0]
196,19600,0.625827431678772,0.38102588057518,-0.0085702836513519,1.9777559041976929,0.2967625558376312,2.022968292236328,4.11328125,2,"['A1', 'F2', 'J1']",6.1,90,0.0,6.139171839853741,[6200|4400|0]
197,19700,0.6255946755409241,0.3813857436180115,-0.008777224458754,1.8658868074417116,0.4448552429676056,2.3977787494659424,4.11328125,2,"['A1', 'F2', 'J1']",6.1,90,0.0,6.139647761409326,[6200|4500|0]
198,19800,0.6254655718803406,0.3815905451774597,-0.0084615675732493,1.776784896850586,0.5731651782989502,2.670120477676392,4.11328125,2,"['A1', 'F2', 'J1']",6.1,90,0.0,6.140045568778909,[6200|4600|0]
199,19900,0.6255859732627869,0.3819158673286438,-0.0088386815041303,1.7155940532684326,0.678182065486908,2.8718841075897217,4.11328125,2,"['A1', 'F2', 'J1']",6.1,90,0.0,6.140557961120587,[6200|4700|0]
200,20000,0.6249375939369202,0.3824392557144165,-0.0092571601271629,1.671044111251831,0.7817158102989197,3.0548324584960938,4.11328125,2,"['A1', 'F2', 'J1']",6.1,90,0.0,6.141490407103209,[6200|4800|0]
201,20100,0.6251968145370483,0.382245659828186,-0.0091073531657457,1.657810091972351,0.8433186411857605,3.1804778575897217,4.1171875,2,"['A1', 'F2', 'J1']",6.1,90,0.0,6.1418469415508925,[6200|4900|0]
202,20200,0.6249476075172424,0.3824018239974975,-0.0090084392577409,1.64032244682312,0.9067805409431458,3.242560386657715,4.1171875,2,"['A1', 'F2', 'J1']",6.1,90,0.0,6.142157224240861,[6200|5000|0]
203,20300,0.6249310374259949,0.3822624683380127,-0.0090822502970695,1.6412909030914309,0.9574152231216432,3.2876970767974854,4.1171875,2,"['A1', 'F2', 'J1']",6.1,90,0.0,6.142315788541008,[6200|5100|0]
204,20400,0.6248722672462463,0.3825355172157287,-0.009228597395122,1.646755576133728,0.9940866827964784,3.3615024089813232,4.1171875,2,"['A1', 'F2', 'J1']",6.1,90,0.0,6.142631109166337,[6200|5200|0]
205,20500,0.6246946454048157,0.3827579021453857,-0.0090848542749881,1.653446078300476,1.0162537097930908,3.4098165035247803,4.1171875,2,"['A1', 'F2', 'J1']",6.1,90,0.0,6.142949961263833,[6200|5300|0]
206,20600,0.6247520446777344,0.3826803863048553,-0.0092959823086857,1.6708139181137085,1.0410106182098389,3.4290075302124023,4.12109375,2,"['A1', 'F2', 'J1']",6.1,90,0.0,6.143182078537377,[6200|5400|0]
207,20700,0.6246175765991211,0.3825766444206238,-0.0092401765286922,1.69542133808136,1.0658544301986694,3.432023286819458,4.12109375,2,"['A1', 'F2', 'J1']",6.1,90,0.0,6.143360847460265,[6200|5500|0]
208,20800,0.6246272921562195,0.3825443387031555,-0.0091706635430455,1.7106763124465942,1.084581732749939,3.442835569381714,4.12109375,2,"['A1', 'F2', 'J1']",6.1,90,0.0,6.143438113925206,[6200|5600|0]
209,20900,0.6247433423995972,0.3826893866062164,-0.0090838624164462,1.6570346355438232,1.0366365909576416,3.462376832962036,4.12109375,2,"['A1', 'F2', 'J1']",6.1,90,0.0,6.143643152918447,[6200|5700|0]
210,21000,0.6245300769805908,0.3825643956661224,-0.0091084484010934,1.6984397172927856,1.0634527206420898,3.452421903610229,4.12890625,2,"['A1', 'F2', 'J1']",6.1,90,0.0,6.143891566574856,[6200|5800|0]
211,21100,0.6243372559547424,0.3827039301395416,-0.0089894086122512,1.7227668762207031,1.0775352716445925,3.4664039611816406,4.12109375,2,"['A1', 'F2', 'J1']",6.1,90,0.0,6.14415768739067,[6200|5900|0]
212,21200,0.6244750618934631,0.3827216029167175,-0.0089936191216111,1.7407255172729492,1.0809389352798462,3.4593987464904785,4.12890625,2,"['A1', 'F2', 'J1']",6.1,90,0.0,6.144296685707886,[6200|6000|0]
213,21300,0.6247704029083252,0.3825659155845642,-0.0089430445805192,1.760952115058899,1.0803430080413818,3.460104465484619,4.12890625,2,"['A1', 'F2', 'J1']",6.1,90,0.0,6.14463435810039,[6200|6100|0]
214,21400,0.6247332692146301,0.3822767734527588,-0.009098008275032,1.785069227218628,1.0950913429260254,3.459523677825928,4.12890625,2,"['A1', 'F2', 'J1']",6.1,90,0.0,6.144964503265749,[6200|6200|0]
215,21500,0.624631404876709,0.3824510276317596,-0.0092435535043478,1.795361876487732,1.107937216758728,3.4564216136932373,4.12890625,2,"['A1', 'F2', 'J1']",6.1,90,0.0,6.145213349153832,[6200|6300|0]
216,21600,0.6245336532592773,0.3823938965797424,-0.0090846382081508,1.8058459758758545,1.1078355312347412,3.466325044631958,4.12890625,2,"['A1', 'F2', 'J1']",6.1,90,0.0,6.14540847323533,[6200|6400|0]
217,21700,0.6247135400772095,0.3824787437915802,-0.0092168012633919,1.8363579511642456,1.13231098651886,3.4954588413238525,4.12890625,2,"['A1', 'F2', 'J1']",6.1,90,0.0,6.145647273130207,[6200|6500|0]
218,21800,0.6246729493141174,0.3826151192188263,-0.009327876381576,1.8513062000274656,1.1465094089508057,3.478891611099243,4.1328125,2,"['A1', 'F2', 'J1']",6.1,90,0.0,6.1458277822687135,[6200|6600|0]
219,21900,0.6245012283325195,0.382686585187912,-0.0091438256204128,1.8595741987228396,1.1637372970581057,3.5080549716949463,4.1328125,2,"['A1', 'F2', 'J1']",6.1,90,0.0,6.146089450308304,[6200|6700|0]
220,22000,0.624541163444519,0.3821208775043487,-0.0091450838372111,1.8786065578460691,1.166300892829895,3.5201728343963623,4.1328125,2,"['A1', 'F2', 'J1']",6.1,90,0.0,6.146656567209411,[6200|6800|0]
221,22100,0.6245388388633728,0.3826817274093628,-0.0094423098489642,1.8744254112243648,1.1654800176620483,3.5021328926086426,4.1328125,2,"['A1', 'F2', 'J1']",6.1,90,0.0,6.1472913122934365,[6200|6900|0]
222,22200,0.6245284676551819,0.3826889395713806,-0.0093880975618958,1.877776861190796,1.1663914918899536,3.5138299465179443,4.1328125,2,"['A1', 'F2', 'J1']",6.1,90,0.0,6.147346976907955,[6200|7000|0]
223,22300,0.6248646974563599,0.382525622844696,-0.009213913232088,1.7973037958145142,1.084825873374939,3.5041050910949707,4.1328125,2,"['A1', 'F2', 'J1']",6.1,90,0.0,6.147759363878125,[6200|7100|0]
224,22400,0.6248462200164795,0.38236004114151,-0.009260238148272,1.817271828651428,1.1023699045181274,3.473850965499878,4.1328125,2,"['A1', 'F2', 'J1']",6.1,90,0.0,6.147932293673343,[6200|7200|0]
225,22500,0.6245997548103333,0.3825046122074127,-0.0091188484802842,1.823161005973816,1.1140490770339966,3.482476234436035,4.1328125,2,"['A1', 'F2', 'J1']",6.1,90,0.0,6.148251099145615,[6200|7300|0]
226,22600,0.62479168176651,0.3821783065795898,-0.0092079108580946,1.8506697416305544,1.1224567890167236,3.4781174659729004,4.1328125,2,"['A1', 'F2', 'J1']",6.1,90,0.0,6.148639999423832,[6200|7400|0]
227,22700,0.6248342990875244,0.3821285963058471,-0.0090427808463573,1.8532029390335083,1.1243159770965576,3.47845196723938,4.13671875,2,"['A1', 'F2', 'J1']",6.1,90,0.0,6.148817637449441,[6200|7500|0]
228,22800,0.6247802972793579,0.3825002610683441,-0.0086276577785611,1.77871835231781,1.07221257686615,3.495687246322632,4.13671875,2,"['A1', 'F2', 'J1']",6.1,90,0.0,6.149377439246852,[6200|7600|0]
229,22900,0.6247916221618652,0.3825041353702545,-0.0091819046065211,1.7894351482391355,1.0862725973129272,3.476607084274292,4.13671875,2,"['A1', 'F2', 'J1']",6.1,90,0.0,6.149931815301063,[6200|7700|0]
230,23000,0.62458336353302,0.3824032843112945,-0.0090049030259251,1.8074675798416135,1.097130298614502,3.4885945320129395,4.13671875,2,"['A1', 'F2', 'J1']",6.1,90,0.0,6.150223143555984,[6200|7800|0]
231,23100,0.624602735042572,0.3825766742229461,-0.0091638611629605,1.8120189905166624,1.1072686910629272,3.494485855102539,4.13671875,2,"['A1', 'F2', 'J1']",6.1,90,0.0,6.150459166872999,[6200|7900|0]
232,23200,0.6248282790184021,0.3822215795516968,-0.009150369092822,1.825038194656372,1.1067180633544922,3.503331661224365,4.13671875,2,"['A1', 'F2', 'J1']",6.1,90,0.0,6.150880052067012,[6200|8000|0]
233,23300,0.6244115829467773,0.3825318515300751,-0.0091989655047655,1.8253066539764404,1.1229368448257446,3.494652032852173,4.13671875,2,"['A1', 'F2', 'J1']",6.1,90,0.0,6.151401843143908,[6200|8100|0]
234,23400,0.6245913505554199,0.3827041685581207,-0.0093407854437828,1.857629656791687,1.1435757875442505,3.481559991836548,4.13671875,2,"['A1', 'F2', 'J1']",6.1,90,0.0,6.151688413286062,[6200|8200|0]
235,23500,0.6246688365936279,0.3824430406093597,-0.0093303583562374,1.8826322555541992,1.1485958099365234,3.4988932609558105,4.13671875,2,"['A1', 'F2', 'J1']",6.1,90,0.0,6.151960994679221,[6200|8300|0]
236,23600,0.624298632144928,0.3823952376842499,-0.009097795933485,1.8905433416366575,1.1580846309661863,3.490734577178955,4.14453125,2,"['A1', 'F2', 'J1']",6.1,90,0.0,6.1524007920575245,[6200|8400|0]
237,23700,0.624687910079956,0.3824858367443084,-0.0090347239747643,1.895231366157532,1.149647235870361,3.50209379196167,4.14453125,2,"['A1', 'F2', 'J1']",6.1,90,0.0,6.152805419753512,[6200|8500|0]
238,23800,0.6246538162231445,0.3824946880340576,-0.009137911722064,1.908853769302368,1.1603608131408691,3.494333982467652,4.14453125,2,"['A1', 'F2', 'J1']",6.1,90,0.0,6.152914453911441,[6200|8600|0]
239,23900,0.6247242093086243,0.3824514150619507,-0.0091567020863294,1.903061389923096,1.1685593128204346,3.5085010528564453,4.14453125,2,"['A1', 'F2', 'J1']",6.1,90,0.0,6.1529991935974655,[6200|8700|0]
240,24000,0.6248676180839539,0.3822951316833496,-0.0089925182983279,1.8231737613677976,1.0902942419052124,3.4976396560668945,4.14453125,2,"['A1', 'F2', 'J1']",6.1,90,0.0,6.153267422767227,[6200|8800|0]
241,24100,0.624901533126831,0.3825329840183258,-0.0093024261295795,1.8359591960906985,1.1032288074493408,3.4905636310577397,4.14453125,2,"['A1', 'F2', 'J1']",6.1,90,0.0,6.15365955390251,[6200|8900|0]
242,24200,0.6247689127922058,0.3821587860584259,-0.0088833142071962,1.8549621105194087,1.119187593460083,3.5112693309783936,4.14453125,2,"['A1', 'F2', 'J1']",6.1,90,0.0,6.154236846782973,[6200|9000|0]
243,24300,0.624935507774353,0.3822082877159118,-0.0093855774030089,1.8524439334869385,1.112613558769226,3.505614995956421,4.14453125,2,"['A1', 'F2', 'J1']",6.1,90,0.0,6.154768328316084,[6200|9100|0]
244,24400,0.6247407793998718,0.382312148809433,-0.0092770084738731,1.849077224731445,1.11966073513031,3.5043201446533203,4.14453125,2,"['A1', 'F2', 'J1']",6.1,90,0.0,6.155014282537331,[6200|9200|0]
245,24500,0.6247513294219971,0.3823466002941131,-0.0093302717432379,1.8500319719314573,1.11876118183136,3.50658917427063,4.14453125,2,"['A1', 'F2', 'J1']",6.1,90,0.0,6.155078587930782,[6200|9300|0]
246,24600,0.6247196793556213,0.3823635876178741,-0.0094386953860521,1.8491390943527224,1.120349407196045,3.5128366947174072,4.14453125,2,"['A1', 'F2', 'J1']",6.1,90,0.0,6.155192806940545,[6200|9400|0]
247,24700,0.6247942447662354,0.3822216689586639,-0.0090688057243824,1.8496469259262085,1.116133451461792,3.483868360519409,4.1484375,2,"['A1', 'F2', 'J1']",6.1,90,0.0,6.155595943726391,[6200|9500|0]
248,24800,0.6249953508377075,0.3825255334377289,-0.0089332051575183,1.7796344757080078,1.0568455457687378,3.490745306015014,4.1484375,2,"['A1', 'F2', 'J1']",6.1,90,0.0,6.155984742887083,[6200|9600|0]
249,24900,0.6247919797897339,0.3824619650840759,-0.008803404867649,1.7944903373718262,1.0793061256408691,3.4784555435180664,4.1484375,2,"['A1', 'F2', 'J1']",6.1,90,0.0,6.156234240049372,[6200|9700|0]
250,25000,0.6246796250343323,0.3824965059757232,-0.0091230245307087,1.8073548078536987,1.093802809715271,3.480140209197998,4.1484375,2,"['A1', 'F2', 'J1']",6.1,90,0.0,6.156574788714428,[6200|9800|0]
251,25100,0.6245896220207214,0.3824283480644226,-0.0091443657875061,1.829639554023743,1.1070774793624878,3.4997658729553223,4.1484375,2,"['A1', 'F2', 'J1']",6.1,90,0.0,6.156689686462768,[6200|9900|0]
252,25200,0.6247549057006836,0.3824430704116821,-0.0089045073837041,1.8332444429397583,1.0968413352966309,3.498990535736084,4.1484375,2,"['A1', 'F2', 'J1']",6.1,90,0.0,6.156981349789644,[6200|10000|0]
253,25300,0.6244760155677795,0.382670521736145,-0.0093377120792865,1.855009078979492,1.1262789964675903,3.5258543491363525,4.1484375,2,"['A1', 'F2', 'J1']",6.1,90,0.0,6.157544537253555,[6200|10100|0]
254,25400,0.6248284578323364,0.3823452889919281,-0.0097306668758392,1.87329626083374,1.1352479457855225,3.5131702423095703,4.1484375,2,"['A1', 'F2', 'J1']",6.1,90,0.0,6.158164541576032,[6200|10200|0]
255,25500,0.6246762275695801,0.3823725283145904,-0.0090445531532168,1.8771698474884035,1.14452064037323,3.52154278755188,4.1484375,2,"['A1', 'F2', 'J1']",6.1,90,0.0,6.15886786801089,[6200|10300|0]
256,25600,0.625100314617157,0.382460743188858,-0.0091929510235786,1.8806754350662231,1.1423102617263794,3.515249729156494,4.1484375,2,"['A1', 'F2', 'J1']",6.1,90,0.0,6.1593257474883645,[6200|10400|0]
257,25700,0.6248155832290649,0.3823554813861847,-0.0093682408332824,1.8864151239395144,1.157451629638672,3.505363702774048,4.15234375,2,"['A1', 'F2', 'J1']",6.1,90,0.0,6.159676287825349,[6200|10500|0]
258,25800,0.6247673630714417,0.3821088373661041,-0.0089325560256838,1.899102807044983,1.1589715480804443,3.5063230991363525,3.921875,2,"['E1B', 'F2', 'G1']",6.1,90,0.0,6.160179258707026,[6200|10500|0]
259,25900,0.6247300505638123,0.3819189965724945,-0.0086772786453366,2.036416530609131,0.982684314250946,3.4559457302093506,3.134765625,2,"['E1B', 'F2', 'G1']",6.1,90,0.0,6.160499568386962,[6200|10500|0]
260,26000,0.6279640197753906,0.380535215139389,0.0023824784439057,3.423818588256836,-5.74231481552124,3.5013582706451416,3.53125,2,"['E1B', 'F2', 'G1']",6.1,90,0.0,6.1721052409133215,[6200|10500|0]
261,26100,0.6442009210586548,0.3739897012710571,0.0437126792967319,2.588287115097046,-4.212329864501953,3.333900451660156,3.541015625,2,"['E1B', 'F2', 'G1']",6.1,90,0.0,6.216990274249813,[6200|10500|0]
262,26200,0.6719130277633667,0.3665475845336914,0.10577442497015,0.2648926675319671,0.979434370994568,2.980449676513672,3.53125,2,"['E1B', 'F2', 'G1']",6.1,90,0.0,6.285364291504747,[6200|10500|0]
263,26300,0.70247882604599,0.3619447946548462,0.1794174909591674,-1.5840637683868408,2.691255569458008,2.2993321418762207,3.546875,2,"['E1B', 'F2', 'G1']",6.1,90,0.0,6.365231399049628,[6200|10500|0]
264,26400,0.7285877466201782,0.3632196187973022,0.2579241096973419,-2.340923309326172,5.914041519165039,2.2196502685546875,3.525390625,2,"['E1B', 'F2', 'G1']",6.1,90,0.0,6.4479755232872105,[6200|10500|0]
265,26500,0.7472378015518188,0.3706091046333313,0.3387718796730041,-1.6894652843475342,6.498470783233643,2.3067197799682617,3.509765625,2,"['E1B', 'F2', 'G1']",6.1,90,0.0,6.531274928806768,[6200|10500|0]
266,26600,0.7542203068733215,0.3834221661090851,0.4214769303798675,1.431944727897644,6.2441935539245605,2.033757448196411,3.515625,2,"['E1B', 'F2', 'G1']",6.1,90,0.0,6.61525739922394,[6200|10500|0]
267,26700,0.7485659122467041,0.3985459804534912,0.5111773610115051,2.394623279571533,4.086371421813965,2.085813283920288,3.509765625,2,"['E1B', 'F2', 'G1']",6.1,90,0.0,6.7063994268205365,[6200|10500|0]
268,26800,0.738592267036438,0.4060601592063904,0.599090039730072,3.694989919662476,3.0688037872314453,1.100578784942627,3.521484375,2,"['E1B', 'F2', 'G1']",6.1,90,0.0,6.795194559348084,[6200|10500|0]
269,26900,0.7242894172668457,0.4090233743190765,0.6903401613235474,3.854623794555664,0.8459638357162476,0.0947089940309524,3.521484375,2,"['E1B', 'F2', 'G1']",6.1,90,0.0,6.887606338067896,[6200|10500|0]
270,27000,0.7084047198295593,0.4067282378673553,0.7836911082267761,2.5612385272979736,-0.980578601360321,-0.5874065160751343,3.541015625,2,"['E1B', 'F2', 'G1']",6.1,90,0.0,6.982326930083231,[6200|10500|0]
271,27100,0.695576548576355,0.3994211256504059,0.8800370097160339,1.9007017612457275,-1.9280139207839968,-0.886711061000824,3.552734375,2,"['E1B', 'F2', 'G1']",6.1,90,0.0,7.079797379966416,[6200|10500|0]
272,27200,0.6863334774971008,0.3893233239650726,0.9803326725959778,0.7371528148651123,-1.9283316135406492,-1.0280746221542358,3.55859375,2,"['E1B', 'F2', 'G1']",6.1,90,0.0,7.181022969391125,[6200|10500|0]
273,27300,0.6803870797157288,0.3799540400505066,1.0730432271957395,0.1067099571228027,-1.570118069648743,-1.0798066854476929,3.552734375,2,"['E1B', 'F2', 'G1']",6.1,90,0.0,7.274395288960907,[6200|10500|0]
274,27400,0.6750799417495728,0.369403213262558,1.1763120889663696,-0.9681516289711,-0.8411584496498108,-1.0191402435302734,3.546875,2,"['E1B', 'F2', 'G1']",6.1,90,0.0,7.378337308715684,[6200|10500|0]
275,27500,0.6758576035499573,0.3541094064712524,1.284369707107544,-1.2479472160339355,-0.9920023083686828,-0.768155574798584,3.48828125,2,"['E1B', 'F2', 'G1']",6.1,90,0.0,7.48747462645068,[6200|10500|0]
276,27600,0.6714000105857849,0.3472152352333069,1.3871055841445925,-1.3297065496444702,-0.6361123323440552,-0.7747830748558044,3.462890625,2,"['E1B', 'F2', 'G1']",6.1,90,0.0,7.590538005798846,[6200|10500|0]
277,27700,0.6669139862060547,0.3419111371040344,1.4899029731750488,-1.3920223712921145,-0.5302677154541016,-1.1020560264587402,3.537109375,2,"['E1B', 'F2', 'G1']",6.1,90,0.0,7.693569850697302,[6200|10500|0]
278,27800,0.66213458776474,0.3366029262542724,1.590905785560608,-1.3502850532531738,-0.721156656742096,3.4353933334350586,3.552734375,2,"['E1B', 'F2', 'G1']",6.1,90,0.0,7.794824914085159,[6200|10500|0]
279,27900,0.6569657325744629,0.3333538472652435,1.6822903156280518,-1.7841099500656128,-0.5846905708312988,7.125477313995361,3.568359375,2,"['E1B', 'F2', 'G1']",6.1,90,0.0,7.886413155218519,[6200|10500|0]
280,28000,0.6528916954994202,0.3296040892601013,1.7561461925506592,-1.2766097784042358,-0.9704170823097228,9.13173484802246,3.546875,2,"['E1B', 'F2', 'G1']",6.1,90,0.0,7.960476297328433,[6200|10500|0]
281,28100,0.6480568647384644,0.3226529955863952,1.8067398071289065,-1.2834206819534302,-0.7695294618606567,9.75466251373291,3.546875,2,"['E1B', 'F2', 'G1']",6.1,90,0.0,8.011773540215746,[6200|10500|0]
282,28200,0.6422284245491028,0.3274196982383728,1.8481314182281492,-0.9209797978401184,-1.1229925155639648,9.143945693969728,3.509765625,2,"['E1B', 'F2', 'G1']",6.1,90,0.0,8.053844404701804,[6200|10500|0]
283,28300,0.6393018960952759,0.3229683637619018,1.881731629371643,-0.6534015536308289,-1.206962823867798,3.946420669555664,3.494140625,2,"['E1B', 'F2', 'G1']",6.1,90,0.0,8.087864297945314,[6200|10500|0]
284,28400,0.6370381116867065,0.3209767639636993,1.895198464393616,-0.6641665101051331,-1.1736130714416504,2.71745228767395,3.462890625,2,"['E1B', 'F2', 'G1']",6.1,90,0.0,8.10166454559214,[6200|10500|0]
285,28500,0.6348181366920471,0.3208508789539337,1.8974915742874143,-0.675239622592926,-1.2967181205749512,5.191655158996582,3.453125,2,"['E1B', 'F2', 'G1']",6.1,90,0.0,8.1048586791206,[6200|10500|0]
286,28600,0.6328699588775635,0.3148008286952972,1.8973463773727417,-0.7226072549819946,-1.4822922945022583,3.7501637935638423,3.447265625,2,"['E1B', 'F2', 'G1']",6.1,90,0.0,8.111216319175911,[6200|10500|0]
287,28700,0.6289265155792236,0.3194129467010498,1.8905322551727293,-1.0168280601501465,-1.3233834505081177,2.2810449600219727,3.416015625,2,"['E1B', 'F2', 'G1']",6.1,90,0.0,8.12034071717813,[6200|10500|0]
288,28800,0.6302927136421204,0.3172532916069031,1.8825454711914065,-0.5049062371253967,-1.6661888360977173,2.0705347061157227,3.431640625,2,"['E1B', 'F2', 'G1']",6.1,90,178.93908830973578,8.128726379086237,[6200|10500|0]
289,28900,0.6359195113182068,0.3126451075077057,1.8669555187225344,6.5681986808776855,-1.972460389137268,-2.140478610992432,3.7890625,2,"['E1B', 'F2', 'G1']",6.1,90,178.93908830973578,8.145929368092842,[6200|10500|0]
290,29000,0.643257737159729,0.2944626808166504,1.8228570222854612,14.908660888671877,-3.832118511199951,-7.663370132446289,3.58984375,2,"['E1B', 'F2', 'G1']",6.1,90,178.93908830973578,8.194190404000572,[6200|10500|0]
291,29101,0.6431614756584167,0.2642410695552826,1.750558614730835,16.946855545043945,-1.648005723953247,-4.302614212036133,3.42578125,2,"['E1B', 'F2', 'G1']",6.1,90,178.93908830973578,8.272551202799747,[6200|10500|0]
292,29200,0.6341215372085571,0.2162777632474899,1.6564158201217651,15.695425987243652,0.4204446673393249,0.5037754774093628,3.326171875,2,"['E1B', 'F2', 'G1']",6.1,90,178.93908830973578,8.378593953688046,[6200|10500|0]
293,29300,0.6175642609596252,0.147477775812149,1.5591455698013306,12.660959243774414,-1.491446018218994,3.350659132003784,3.3203125,2,"['E1B', 'F2', 'G1']",6.1,90,178.93908830973578,8.498881456219634,[6200|10500|0]
294,29400,0.5958163142204285,0.061503279954195,1.4749053716659546,6.553081035614014,-2.3955020904541016,-1.1088367700576782,3.3515625,2,"['E1B', 'F2', 'G1']",6.1,90,178.93908830973578,8.621196615162782,[6200|10500|0]
295,29500,0.5766474604606628,-0.0344553999602794,1.4092836380004885,2.443195343017578,-3.706065177917481,-4.546510696411133,3.3359375,2,"['E1B', 'F2', 'G1']",6.1,90,178.93908830973578,8.739017348205202,[6200|10500|0]
296,29600,0.5650777816772461,-0.1286243945360183,1.3665709495544434,-0.6110236048698425,-6.409243583679199,-15.611422538757324,3.373046875,2,"['E1B', 'F2', 'G1']",6.1,90,178.93908830973578,8.843065561841218,[6200|10500|0]
