,time.ms,stateEstimate.x,stateEstimate.y,stateEstimate.z,stabilizer.roll,stabilizer.pitch,stabilizer.yaw,pm.vbat,drone_id,node_name,wind_speed,global_wind_direction,relative_wind_direction,travel_dist,waiting_time
0,0,0.7842403650283813,1.17265784740448,0.0,0.8230173587799072,0.2972947061061859,-9.711346626281738,4.10546875,2,"['C1', 'F2', 'F1']",6.1,0,450.0,0.0,[6200|0|0]
1,100,0.7844745516777039,1.1730520725250244,0.0,0.8025665879249573,0.2869548797607422,-9.678236961364746,4.10546875,2,"['E1B', 'F2', 'G1']",6.1,0,450.0,0.0004585377109782,[6200|0|0]
2,200,0.7842156291007996,1.172818899154663,0.0,0.7891407608985901,0.3047952353954315,-9.812644004821776,3.009765625,2,"['E1B', 'F2', 'G1']",6.1,0,450.0,0.0008069781240712,[6200|0|0]
3,300,0.7843440771102905,1.1720342636108398,0.0,2.690823554992676,-0.218221440911293,-8.501219749450684,3.3671875,2,"['E1B', 'F2', 'G1']",6.1,0,450.0,0.0016020578859649,[6200|0|0]
4,400,0.788000762462616,1.1687209606170654,0.0,-0.1415188163518905,-1.2224065065383911,-5.911747455596924,3.578125,2,"['E1B', 'F2', 'G1']",6.1,0,450.0,0.006536561355866,[6200|0|0]
5,500,0.7940496802330017,1.1688071489334106,0.0653398931026458,0.4631445407867431,-1.2549476623535156,-3.652008056640625,3.63671875,2,"['E1B', 'F2', 'G1']",6.1,0,450.0,0.0721559065620165,[6200|0|0]
6,600,0.8065798878669739,1.169018268585205,0.1428248286247253,0.7869358658790588,0.202723428606987,-2.2479796409606934,3.642578125,2,"['E1B', 'F2', 'G1']",6.1,0,450.0,0.1506477272041614,[6200|0|0]
7,700,0.8190216422080994,1.1699262857437134,0.2240863889455795,1.1355856657028198,1.2689073085784912,-0.8000657558441162,3.63671875,2,"['E1B', 'F2', 'G1']",6.1,0,450.0,0.2328612475765727,[6200|0|0]
8,800,0.829482913017273,1.1699178218841553,0.2989549934864044,1.2419867515563965,1.8247551918029783,-0.1084343865513801,3.626953125,2,"['E1B', 'F2', 'G1']",6.1,0,450.0,0.3084571879733309,[6200|0|0]
9,900,0.8396124243736267,1.169069528579712,0.3846634924411773,1.2108210325241089,2.040303468704224,0.281874418258667,3.630859375,2,"['E1B', 'F2', 'G1']",6.1,0,450.0,0.3947663612686949,[6200|0|0]
10,1000,0.844310998916626,1.1662908792495728,0.4715251326560974,0.9887051582336426,2.547433376312256,0.4546712636947632,3.626953125,2,"['E1B', 'F2', 'G1']",6.1,0,450.0,0.4817993552173247,[6200|0|0]
11,1100,0.8476672172546387,1.160717487335205,0.5684982538223267,1.1734390258789062,2.210726022720337,0.5964280962944031,3.626953125,2,"['E1B', 'F2', 'G1']",6.1,0,450.0,0.5789904717233292,[6200|0|0]
12,1200,0.8452046513557434,1.155295729637146,0.6597668528556824,0.5713397860527039,1.499055027961731,0.6132674813270569,3.626953125,2,"['E1B', 'F2', 'G1']",6.1,0,450.0,0.6704531245213665,[6200|0|0]
13,1300,0.8394924402236938,1.1489763259887695,0.7530627846717834,-0.2255967855453491,0.6759366393089294,0.4760937690734863,3.62109375,2,"['E1B', 'F2', 'G1']",6.1,0,450.0,0.7641371418985201,[6200|0|0]
14,1400,0.8329664468765259,1.1435546875,0.8472021818161011,-0.2022229433059692,-0.3910291492938995,0.4897714853286743,3.62109375,2,"['E1B', 'F2', 'G1']",6.1,0,450.0,0.8586580858620976,[6200|0|0]
15,1500,0.8265697360038757,1.1393073797225952,0.9417962431907654,-1.116732835769653,-0.928460657596588,0.6069566607475281,3.615234375,2,"['E1B', 'F2', 'G1']",6.1,0,450.0,0.9535632700234384,[6200|0|0]
16,1600,0.8218792080879211,1.1383254528045654,1.0378693342208862,-0.4941899180412292,-0.7098265290260315,0.5107150077819824,3.615234375,2,"['E1B', 'F2', 'G1']",6.1,0,450.0,1.049755806390272,[6200|0|0]
17,1700,0.8189024925231934,1.1384391784667969,1.1363080739974976,-0.445755660533905,-0.7381488680839539,0.2355188876390457,3.611328125,2,"['E1B', 'F2', 'G1']",6.1,0,450.0,1.1482396083979471,[6200|0|0]
18,1800,0.8176090121269226,1.1388258934020996,1.2357556819915771,0.2978832125663757,-0.5083851218223572,-0.7046860456466675,3.60546875,2,"['E1B', 'F2', 'G1']",6.1,0,450.0,1.2476963797899487,[6200|0|0]
19,1900,0.816702663898468,1.1391047239303589,1.3366453647613523,0.5109383463859558,-0.4914852976799011,-0.3647406101226806,3.599609375,2,"['E1B', 'F2', 'G1']",6.1,0,450.0,1.348590518881179,[6200|0|0]
20,2000,0.8126498460769653,1.13972008228302,1.4316171407699585,0.2000662088394165,-0.1313233524560928,-0.221309021115303,3.611328125,2,"['E1B', 'F2', 'G1']",6.1,0,450.0,1.4436507221022188,[6200|0|0]
21,2100,0.8138282299041748,1.1369539499282837,1.5346194505691528,0.3993473649024963,0.0122479544952511,-0.6002257466316223,3.60546875,2,"['E1B', 'F2', 'G1']",6.1,0,450.0,1.546696905440649,[6200|0|0]
22,2200,0.8135783076286316,1.1339284181594849,1.6389873027801514,0.0437941513955593,-0.0038960836827754,-0.245205670595169,3.642578125,2,"['E1B', 'F2', 'G1']",6.1,0,450.0,1.6511089012972775,[6200|0|0]
23,2300,0.8131237626075745,1.129806399345398,1.739647626876831,-0.127558097243309,0.0936296954751014,0.3064948916435241,3.689453125,2,"['E1B', 'F2', 'G1']",6.1,0,450.0,1.751854613352573,[6200|0|0]
24,2400,0.8111112713813782,1.1245570182800293,1.8291964530944824,-0.0844383835792541,0.1022351682186126,3.33270001411438,3.705078125,2,"['E1B', 'F2', 'G1']",6.1,0,450.0,1.841579740265072,[6200|0|0]
25,2500,0.808829665184021,1.1183857917785645,1.8973939418792725,-0.3685285747051239,-0.4825233817100525,6.0628981590271,3.705078125,2,"['E1B', 'F2', 'G1']",6.1,0,450.0,1.9100938792432696,[6200|0|0]
26,2600,0.8051093220710754,1.1120599508285522,1.951380014419556,-0.1563154011964798,-0.6176092028617859,10.664448738098145,3.6796875,2,"['E1B', 'F2', 'G1']",6.1,0,450.0,1.9645764750416317,[6200|0|0]
27,2700,0.8017378449440002,1.1107370853424072,1.993618607521057,-0.9216452836990356,-1.0462160110473633,13.594219207763672,3.66796875,2,"['E1B', 'F2', 'G1']",6.1,0,450.0,2.00697005448837,[6200|0|0]
28,2800,0.8010497093200684,1.1084179878234863,2.0172765254974365,-0.8312106132507324,-1.1031116247177124,11.552363395690918,3.65234375,2,"['E1B', 'F2', 'G1']",6.1,0,450.0,2.030751324995143,[6200|0|0]
29,2900,0.7987191081047058,1.1068437099456787,2.029835700988769,-0.9489248394966124,-0.8182263374328613,-1.4620065689086914,3.65234375,2,"['E1B', 'F2', 'G1']",6.1,0,450.0,2.043621559720419,[6200|0|0]
30,3000,0.7978981733322144,1.1041855812072754,2.02836275100708,-0.1791127920150756,-0.4943315088748932,-14.397769927978516,3.6484375,2,"['E1B', 'F2', 'G1']",6.1,0,450.0,2.04676944217362,[6200|0|0]
31,3100,0.7986222505569458,1.099442481994629,2.0253798961639404,0.1171785071492195,-0.2416283637285232,-9.937312126159668,3.60546875,2,"['E1B', 'F2', 'G1']",6.1,0,450.0,2.052419105967477,[6200|0|0]
32,3200,0.8017363548278809,1.093543529510498,2.016995906829834,3.17154598236084,0.7707906365394592,-2.776787519454956,3.673828125,2,"['E1B', 'F2', 'G1']",6.1,0,99.0,2.063132955087877,[6200|0|0]
33,3300,0.7998814582824707,1.0786770582199097,1.99578869342804,15.964685440063477,3.863722085952759,-5.053338527679443,3.642578125,2,"['E1B', 'F2', 'G1']",6.1,0,99.0,2.089098287939533,[6200|0|0]
34,3400,0.7901432514190674,1.041541576385498,1.9702107906341555,16.97410011291504,0.9505791664123536,-7.961739540100098,3.578125,2,"['E1B', 'F2', 'G1']",6.1,0,99.0,2.1352296850061925,[6200|0|0]
35,3500,0.7673613429069519,0.9857754111289978,1.940081000328064,16.122661590576172,0.2567359209060669,-9.551234245300291,3.541015625,2,"['E1B', 'F2', 'G1']",6.1,0,99.0,2.2025846017291664,[6200|0|0]
36,3600,0.7337898015975952,0.9031369686126708,1.9117696285247805,10.797210693359377,-0.9582515954971312,-9.078280448913574,3.541015625,2,"['E1B', 'F2', 'G1']",6.1,0,99.0,2.296167155342508,[6200|0|0]
37,3700,0.6943625807762146,0.8038124442100525,1.888481855392456,4.853278636932373,-3.464509963989258,-8.019743919372559,3.57421875,2,"['E1B', 'F2', 'G1']",6.1,0,99.0,2.405538939944236,[6200|0|0]
38,3800,0.6595771908760071,0.6915199160575867,1.869221568107605,-0.2629218399524688,-5.12230110168457,-2.474972009658813,3.583984375,2,"['E1B', 'F2', 'G1']",6.1,0,99.0,2.524663219147414,[6200|0|0]
39,3900,0.6295355558395386,0.5949609875679016,1.8582122325897217,-7.034538745880127,-5.86724853515625,-1.8804190158844,3.60546875,2,"['E1B', 'F2', 'G1']",6.1,0,99.0,2.6263850554230426,[6200|0|0]
40,4000,0.6129355430603027,0.5050984025001526,1.844399690628052,-9.41976547241211,-7.184535503387451,4.474416255950928,3.60546875,2,"['E1B', 'F2', 'G1']",6.1,0,99.0,2.7188059996660665,[6200|0|0]
41,4100,0.6024495959281921,0.436645895242691,1.8317266702651973,-10.759195327758787,-6.025063514709473,5.287272930145264,3.5625,2,"['E1B', 'F2', 'G1']",6.1,0,99.0,2.789207038594534,[6200|0|0]
42,4200,0.6060137152671814,0.3880510330200195,1.8162806034088133,-9.886652946472168,-5.021756649017334,7.222731590270996,3.541015625,2,"['E1B', 'F2', 'G1']",6.1,0,99.0,2.840322051677139,[6200|0|0]
43,4300,0.6173383593559265,0.3557813167572021,1.8041132688522337,-8.232545852661133,-3.064591646194458,6.348829746246338,3.546875,2,"['E1B', 'F2', 'G1']",6.1,0,99.0,2.8766211726256032,[6200|0|0]
44,4400,0.6372534036636353,0.3373466730117798,1.7958189249038696,-5.751095771789551,-0.4747087955474853,2.770303010940552,3.552734375,2,"['E1B', 'F2', 'G1']",6.1,0,99.0,2.904997945192835,[6200|0|0]
45,4500,0.655241072177887,0.3305894732475281,1.7917250394821167,-3.606642007827759,1.5083776712417605,-2.1476359367370605,3.57421875,2,"['E1B', 'F2', 'G1']",6.1,0,99.0,2.924644213670056,[6200|0|0]
46,4600,0.6673598289489746,0.3307626247406006,1.7897721529006958,-1.910596489906311,2.4465527534484863,-1.432479977607727,3.58984375,2,"['E1B', 'F2', 'G1']",6.1,0,99.0,2.936920532870705,[6200|0|0]
47,4700,0.6731314063072205,0.3366515934467315,1.7907427549362185,-0.3912643790245056,2.6734840869903564,-4.11953592300415,3.59375,2,"['E1B', 'F2', 'G1']",6.1,0,99.0,2.94522313041216,[6200|0|0]
48,4800,0.6743195056915283,0.3438607156276703,1.7911733388900757,1.087160348892212,2.036464214324951,-4.455935001373291,3.611328125,2,"['E1B', 'F2', 'G1']",6.1,0,99.0,2.95254217579445,[6200|0|0]
49,4900,0.6690741777420044,0.3528175055980682,1.7918133735656738,1.4849013090133667,1.069785714149475,-4.4220733642578125,3.599609375,2,"['E1B', 'F2', 'G1']",6.1,0,99.0,2.962941560211705,[6200|0|0]
50,5000,0.658075749874115,0.3579843640327453,1.788960099220276,1.8275595903396609,-0.1379085481166839,-4.608342170715332,3.599609375,2,"['E1B', 'F2', 'G1']",6.1,0,99.0,2.9754236680521005,[6200|0|0]
51,5100,0.6448240876197815,0.3611693084239959,1.7839654684066772,1.4102600812911987,-1.539325475692749,-5.032830715179443,3.58984375,2,"['E1B', 'F2', 'G1']",6.1,0,99.0,2.9899390654025844,[6200|0|0]
52,5200,0.6324502825737,0.3620251417160034,1.7762384414672852,1.053838133811951,-2.489907503128052,-5.18751335144043,3.5625,2,"['E1B', 'F2', 'G1']",6.1,0,99.0,3.0045524307666693,[6200|0|0]
53,5300,0.6218862533569336,0.3609932363033294,1.7674378156661987,0.801278829574585,-2.977048873901367,-4.183950424194336,3.552734375,2,"['E1B', 'F2', 'G1']",6.1,0,99.0,3.018340634295924,[6200|0|0]
54,5400,0.615907609462738,0.3610768020153045,1.7630549669265747,0.4970234036445617,-3.16256046295166,-3.547138929367065,3.568359375,2,"['E1B', 'F2', 'G1']",6.1,0,99.0,3.0257541711789675,[6200|0|0]
55,5500,0.6128581762313843,0.359915554523468,1.760284185409546,0.1059039682149887,-2.7621374130249023,-3.3385214805603027,3.578125,2,"['E1B', 'F2', 'G1']",6.1,0,99.0,3.030034915154597,[6200|0|0]
56,5600,0.6135584115982056,0.3569163978099823,1.7550652027130127,0.3435061573982239,-2.537426710128784,-2.83475923538208,3.583984375,2,"['E1B', 'F2', 'G1']",6.1,0,99.0,3.036094869853084,[6200|0|0]
57,5700,0.6163487434387207,0.3560609221458435,1.750798583030701,-0.3982882499694824,-1.8518807888031008,-1.265926480293274,3.578125,2,"['E1B', 'F2', 'G1']",6.1,0,99.0,3.0412641864332146,[6200|0|0]
58,5800,0.6222270131111145,0.3543409407138824,1.7468104362487793,-0.0822102352976799,-1.5340471267700195,0.0193561222404241,3.57421875,2,"['E1B', 'F2', 'G1']",6.1,0,99.0,3.0485729281321547,[6200|0|0]
59,5900,0.6283130049705505,0.3555905818939209,1.744680643081665,-0.2373422235250473,-1.003185510635376,0.5398761630058289,3.568359375,2,"['E1B', 'F2', 'G1']",6.1,0,99.0,3.055140798329308,[6200|0|0]
60,6000,0.6344809532165527,0.3565616905689239,1.7403881549835205,-0.290901631116867,-0.5351037383079529,2.5562636852264404,3.58984375,2,"['E1B', 'F2', 'G1']",6.1,0,99.0,3.0627178750543216,[6200|0|0]
61,6100,0.6405114531517029,0.3575621843338012,1.738231539726257,0.1727882474660873,-0.1012275442481041,3.3967530727386475,3.583984375,2,"['E1B', 'F2', 'G1']",6.1,0,99.0,3.069200074265181,[6200|0|0]
62,6200,0.6471630334854126,0.3612519204616546,1.7335751056671145,0.0825961157679557,0.0029437458142638,3.341733694076538,3.87890625,2,"['E1B', 'F2', 'G1']",6.1,0,450.0,3.0781185972245124,[6200|0|0]
63,6300,0.6506751179695129,0.3623285293579101,1.7037523984909058,0.2328540235757827,0.5108955502510071,4.864754676818848,3.81640625,2,"['E1B', 'F2', 'G1']",6.1,0,450.0,3.10816668680533,[6200|0|0]
64,6400,0.6520522832870483,0.365575224161148,1.6372730731964111,0.3393612205982208,-0.5971120595932007,4.760213375091553,3.6953125,2,"['E1B', 'F2', 'G1']",6.1,0,450.0,3.1747394913359224,[6200|0|0]
65,6500,0.6584822535514832,0.3685951232910156,1.5502731800079346,0.9010869860649108,-0.64029461145401,1.0888713598251345,3.59375,2,"['E1B', 'F2', 'G1']",6.1,0,450.0,3.262028927828332,[6200|0|0]
66,6600,0.665417492389679,0.3677929043769836,1.4216899871826172,0.1824068129062652,-0.1794252246618271,-3.153327226638794,3.552734375,2,"['E1B', 'F2', 'G1']",6.1,0,450.0,3.390801512527412,[6200|0|0]
67,6700,0.6718676686286926,0.3680351674556732,1.2981481552124023,1.3105660676956177,-0.1204902380704879,-5.960751533508301,3.57421875,2,"['E1B', 'F2', 'G1']",6.1,0,450.0,3.514511850460304,[6200|0|0]
68,6800,0.6799345016479492,0.3676071166992187,1.1761127710342407,-0.9749407172203064,-0.0593740120530128,-6.588982582092285,3.578125,2,"['E1B', 'F2', 'G1']",6.1,0,450.0,3.636814311653536,[6200|0|0]
69,6901,0.6896575689315796,0.3682722151279449,1.0520708560943604,0.619168221950531,0.889274001121521,-6.543210983276367,3.583984375,2,"['E1B', 'F2', 'G1']",6.1,0,450.0,3.761238493608952,[6200|0|0]
70,7000,0.699803352355957,0.3700162768363952,0.9305549263954164,-0.8976936340332031,0.1309522837400436,-6.748249053955078,3.583984375,2,"['E1B', 'F2', 'G1']",6.1,0,450.0,3.883189712721907,[6200|0|0]
71,7100,0.7083743214607239,0.3721821308135986,0.8107961416244507,2.5166473388671875,4.860684871673584,-4.603511810302734,3.583984375,2,"['E1B', 'F2', 'G1']",6.1,0,450.0,4.003274345230251,[6200|0|0]
72,7200,0.7133424282073975,0.3708999752998352,0.688941478729248,0.5223826169967651,0.6045153141021729,-2.7684717178344727,3.568359375,2,"['E1B', 'F2', 'G1']",6.1,0,450.0,4.125236982446372,[6200|0|0]
73,7301,0.715422511100769,0.3684870600700378,0.5689698457717896,0.2556847631931305,1.8937808275222776,-2.415956974029541,3.578125,2,"['E1B', 'F2', 'G1']",6.1,0,450.0,4.2452509050521625,[6200|0|0]
74,7400,0.7165626883506775,0.3662493824958801,0.4505069553852081,-0.6359043121337891,0.0462677627801895,-2.3437061309814453,3.525390625,2,"['E1B', 'F2', 'G1']",6.1,0,450.0,4.363740413464639,[6200|0|0]
75,7500,0.7182143330574036,0.3667311072349548,0.332836776971817,-1.0081998109817505,-1.5423357486724854,-1.9017877578735352,3.39453125,2,"['E1B', 'F2', 'G1']",6.1,0,450.0,4.481423168687317,[6200|0|0]
76,7601,0.7277196049690247,0.3771496713161468,0.2284599989652633,-0.3031570315361023,-0.7548887133598328,-1.243938684463501,3.3515625,2,"['E1B', 'F2', 'G1']",6.1,0,450.0,4.586748419499537,[6200|0|0]
77,7701,0.7365273237228394,0.3818445801734924,0.1412412375211715,1.3294795751571655,1.0392580032348633,-0.7736966013908386,3.3671875,2,"['E1B', 'F2', 'G1']",6.1,0,450.0,4.674536405161964,[6200|0|0]
78,7800,0.7400127649307251,0.3766726553440094,0.0748797431588172,3.387202739715576,3.113325595855713,0.2135929465293884,3.3828125,2,"['E1B', 'F2', 'G1']",6.1,0,450.0,4.741190325083153,[6200|0|0]
79,7901,0.7416083216667175,0.3714418113231659,0.0332839637994766,2.317866086959839,4.319432735443115,1.356134057044983,3.42578125,2,"['E1B', 'F2', 'G1']",6.1,0,450.0,4.78314406616758,[6200|0|0]
80,8001,0.7363331913948059,0.3601270318031311,0.0162093583494424,1.4730874300003052,4.12064790725708,2.2966225147247314,3.494140625,2,"['E1B', 'F2', 'G1']",6.1,0,450.0,4.804295741898996,[6200|0|0]
81,8101,0.7237302660942078,0.3448631167411804,0.0180488433688879,0.4147317111492157,2.5651652812957764,2.342883348464966,3.58984375,2,"['E1B', 'F2', 'G1']",6.1,0,450.0,4.82417549376585,[6200|0|0]
82,8201,0.7075931429862976,0.3276204168796539,0.0294245239347219,0.1594806760549545,-0.8649649024009705,2.490424156188965,3.611328125,2,"['E1B', 'F2', 'G1']",6.1,0,450.0,4.850388535349199,[6200|0|0]
83,8301,0.6941738128662109,0.3112293779850006,0.0399997197091579,-1.871745586395264,-1.311792254447937,2.3728065490722656,3.611328125,2,"['E1B', 'F2', 'G1']",6.1,0,450.0,4.8740650921636,[6200|0|0]
84,8401,0.6831506490707397,0.295121818780899,0.0482613816857337,-3.0496842861175537,-3.1170425415039062,2.53485107421875,3.599609375,2,"['E1B', 'F2', 'G1']",6.1,0,450.0,4.8952598712893804,[6200|0|0]
85,8502,0.677741527557373,0.2831561267375946,0.0484692715108394,-2.438068151473999,-2.707909345626831,3.342881441116333,3.5625,2,"['E1B', 'F2', 'G1']",6.1,0,450.0,4.908393020180676,[6200|0|0]
86,8602,0.6783351302146912,0.275632381439209,0.0440317466855049,-3.44607162475586,-2.0157692432403564,3.545961618423462,3.537109375,2,"['E1B', 'F2', 'G1']",6.1,0,450.0,4.917148060672028,[6200|0|0]
87,8701,0.6836935877799988,0.2723363041877746,0.0406469218432903,-3.247920751571656,-0.4237989485263824,2.981877565383911,3.541015625,2,"['E1B', 'F2', 'G1']",6.1,0,450.0,4.924291885413656,[6200|0|0]
88,8802,0.690868616104126,0.2748490273952484,0.0383935049176216,-2.209949254989624,0.2220741957426071,2.185494899749756,3.552734375,2,"['E1B', 'F2', 'G1']",6.1,0,450.0,4.932221115969663,[6200|0|0]
89,8902,0.6987633109092712,0.2814158499240875,0.0364912152290344,-1.5388790369033811,-0.1130660250782966,1.4843552112579346,3.552734375,2,"['E1B', 'F2', 'G1']",6.1,0,450.0,4.942664681943551,[6200|0|0]
90,9000,0.7069160342216492,0.2898812294006347,0.0368653982877731,0.5772929191589355,1.7287720441818235,1.3628497123718262,3.55859375,2,"['E1B', 'F2', 'G1']",6.1,0,450.0,4.954423489708439,[6200|0|0]
91,9100,0.7127944231033325,0.2979255616664886,0.0401948727667331,0.070085309445858,1.8712971210479736,1.937159776687622,3.5625,2,"['E1B', 'F2', 'G1']",6.1,0,450.0,4.964928352285065,[6200|0|0]
92,9202,0.716421365737915,0.3041687309741974,0.0417474023997783,-0.790449857711792,2.090522289276123,2.117375135421753,3.5625,2,"['A1', 'F2', 'J1']",6.1,0,450.0,4.972313623041154,[6200|100|0]
93,9302,0.7170194983482361,0.3103280365467071,0.045938204973936,1.8757563829422,1.6864694356918335,3.513251781463623,3.57421875,2,"['A1', 'F2', 'J1']",6.1,0,450.0,4.979787419530934,[6200|200|0]
94,9400,0.7165723443031311,0.3122859001159668,0.0505412258207798,1.7199053764343262,1.0020604133605957,4.867830753326416,3.583984375,2,"['A1', 'F2', 'J1']",6.1,0,450.0,4.98480946865578,[6200|300|0]
95,9500,0.7169703245162964,0.3098195195198059,0.0531928353011608,1.0829813480377195,0.8193171620368958,5.047737121582031,3.57421875,2,"['A1', 'F2', 'J1']",6.1,0,450.0,4.988452606634452,[6200|400|0]
96,9600,0.7162131071090698,0.304916113615036,0.0525367222726345,-0.0837752968072891,0.5199326276779175,4.411668300628662,3.552734375,2,"['A1', 'F2', 'J1']",6.1,0,450.0,4.993457329601304,[6200|500|0]
97,9700,0.7158389687538147,0.2977327704429626,0.0497343838214874,1.2796462774276731,-0.5615773797035217,4.28392219543457,3.537109375,2,"['A1', 'F2', 'J1']",6.1,0,450.0,5.001177012200441,[6200|600|0]
98,9800,0.7174994349479675,0.2864919006824493,0.0475197993218898,0.2081832140684127,0.5315328240394592,3.4829888343811035,3.525390625,2,"['A1', 'F2', 'J1']",6.1,0,450.0,5.012753656164069,[6200|700|0]
99,9900,0.7191858887672424,0.2736499905586242,0.0442027002573013,0.9665125608444214,-0.5771377086639404,2.622444629669189,3.53125,2,"['A1', 'F2', 'J1']",6.1,0,450.0,5.02612384420752,[6200|800|0]
100,10000,0.7211795449256897,0.2591624855995178,0.042418960481882,0.0668117627501487,-0.267605185508728,1.500165343284607,3.525390625,2,"['A1', 'F2', 'J1']",6.1,0,450.0,5.040856263981768,[6200|900|0]
101,10100,0.7237496972084045,0.2445556223392486,0.0453300960361957,-0.1226928830146789,-0.2180548161268234,1.0529773235321045,3.5625,2,"['A1', 'F2', 'J1']",6.1,0,450.0,5.055970523714753,[6200|1000|0]
102,10200,0.7275654077529907,0.229629561305046,0.050309170037508,-0.7225956320762634,0.1680388003587722,1.3493505716323853,3.568359375,2,"['A1', 'F2', 'J1']",6.1,0,450.0,5.072161203838434,[6200|1100|0]
103,10300,0.7310023307800293,0.2163289040327072,0.0546327047049999,-0.2656827270984649,0.1518925875425338,1.7401835918426514,3.568359375,2,"['A1', 'F2', 'J1']",6.1,0,450.0,5.086563039686373,[6200|1200|0]
104,10400,0.7336054444313049,0.2030816823244094,0.0569236166775226,0.5511491894721985,0.3580191135406494,2.001154899597168,3.546875,2,"['A1', 'F2', 'J1']",6.1,0,450.0,5.100256591502323,[6200|1300|0]
105,10500,0.7356137633323669,0.1887343972921371,0.0572611950337886,0.4026803374290466,0.4749009013175964,1.495534896850586,3.53125,2,"['A1', 'F2', 'J1']",6.1,0,450.0,5.114747688484686,[6200|1400|0]
106,10600,0.7363691329956055,0.1738970577716827,0.0569109395146369,-0.3895211517810821,0.618035614490509,0.5698558688163757,3.521484375,2,"['A1', 'F2', 'J1']",6.1,0,450.0,5.12960837172275,[6200|1500|0]
107,10700,0.7348305583000183,0.1593392640352249,0.0550566017627716,-0.931528389453888,0.4777458906173706,0.1317036300897598,3.521484375,2,"['A1', 'F2', 'J1']",6.1,0,450.0,5.144364222733963,[6200|1600|0]
108,10800,0.7322996854782104,0.1468173563480377,0.0550234951078891,-0.6732485890388489,0.2003848552703857,-0.4373854398727417,3.515625,2,"['A1', 'F2', 'J1']",6.1,0,450.0,5.157139377739567,[6200|1700|0]
109,10900,0.7289377450942993,0.1369539499282837,0.0566657409071922,-0.7495583891868591,0.4503091275691986,-0.1790870130062103,3.53125,2,"['A1', 'F2', 'J1']",6.1,0,450.0,5.167688614707782,[6200|1800|0]
110,11000,0.725653350353241,0.127651035785675,0.0605738908052444,-0.0599838234484195,-0.2504028081893921,0.1341750919818878,3.552734375,2,"['A1', 'F2', 'J1']",6.1,0,450.0,5.178300169541334,[6200|1900|0]
111,11100,0.7218226790428162,0.1185919865965843,0.0642364099621772,-0.8123828768730164,0.0806133598089218,0.3770628273487091,3.984375,2,"['A1', 'F2', 'J1']",6.1,0,450.0,5.188795619101681,[6200|2000|0]
112,11200,0.7200521230697632,0.1086639985442161,0.037344291806221,-2.970963716506958,-2.232386350631714,0.0547291934490203,3.99609375,2,"['A1', 'F2', 'J1']",6.1,0,450.0,5.217516444893005,[6200|2100|0]
113,11300,0.716050386428833,0.1051911786198616,0.0,0.3655062615871429,-0.1706033498048782,-0.8650030493736267,3.99609375,2,"['A1', 'F2', 'J1']",6.1,0,450.0,5.255234749532511,[6200|2200|0]
114,11400,0.7183468341827393,0.1000653877854347,0.0,-1.4047043323516846,-1.4040158987045288,-1.1460319757461548,4.0,2,"['A1', 'F2', 'J1']",6.1,0,450.0,5.260851457105877,[6200|2300|0]
115,11500,0.719283401966095,0.0994074046611785,0.0,-1.2522984743118286,-1.223731279373169,-1.1137645244598389,4.0,2,"['A1', 'F2', 'J1']",6.1,0,450.0,5.261996053543329,[6200|2400|0]
116,11600,0.7198091149330139,0.099294014275074,0.0,-1.142939567565918,-1.0690888166427612,-1.1391634941101074,4.0078125,2,"['A1', 'F2', 'J1']",6.1,0,450.0,5.262533856019381,[6200|2500|0]
117,11700,0.7223933339118958,0.10215325653553,0.0,-1.0528249740600586,-0.9412116408348083,-1.0251750946044922,4.0078125,2,"['A1', 'F2', 'J1']",6.1,0,450.0,5.2663878739273295,[6200|2600|0]
118,11800,0.7226281762123108,0.1013964340090751,0.0,-0.8809006810188293,-0.707055389881134,-3.743236780166626,4.01171875,2,"['A1', 'F2', 'J1']",6.1,0,450.0,5.267180295054391,[6200|2700|0]
119,11900,0.7257908582687378,0.1110754311084747,0.0,-0.7700793743133545,-0.5282494425773621,-0.5649219751358032,4.01171875,2,"['A1', 'F2', 'J1']",6.1,0,450.0,5.27736290486918,[6200|2800|0]
120,12000,0.7313122153282166,0.1260950416326522,0.0,5.2623796463012695,7.374693870544434,0.6802427172660828,4.01171875,2,"['A1', 'F2', 'J1']",6.1,0,450.0,5.293365219829092,[6200|2900|0]
121,12100,0.7024487853050232,0.1389113217592239,0.0209195576608181,10.941892623901367,10.870099067687988,6.840966701507568,4.01171875,2,"['A1', 'F2', 'J1']",6.1,0,450.0,5.331246382980596,[6200|3000|0]
122,12200,0.7045681476593018,0.1974231451749801,0.0527894981205463,15.531867980957031,9.02369499206543,-2.608920097351074,4.015625,2,"['A1', 'F2', 'J1']",6.1,0,450.0,5.397908353256998,[6200|3100|0]
123,12300,0.7215048670768738,0.2299915999174118,0.1211471781134605,19.62763023376465,6.334339618682861,-18.38002586364746,4.01171875,2,"['A1', 'F2', 'J1']",6.1,0,450.0,5.475499133140648,[6200|3200|0]
124,12400,0.6462098360061646,0.3625999689102173,0.0243097431957721,20.38457298278809,7.410317897796631,-19.782468795776367,4.015625,2,"['A1', 'F2', 'J1']",6.1,0,450.0,5.656141902252253,[6200|3300|0]
125,12500,0.6400109529495239,0.3669928610324859,0.005318799521774,14.063425064086914,5.636574745178223,-14.891800880432127,4.015625,2,"['A1', 'F2', 'J1']",6.1,0,450.0,5.67659623172004,[6200|3400|0]
126,12600,0.6488756537437439,0.3505930602550506,0.0,4.506799221038818,-3.0049681663513184,-12.307812690734863,4.015625,2,"['A1', 'F2', 'J1']",6.1,0,450.0,5.695982464310809,[6200|3500|0]
127,12700,0.662788450717926,0.3274038434028625,0.0,3.814702272415161,-3.314487934112549,-11.516045570373535,4.0234375,2,"['A1', 'F2', 'J1']",6.1,0,450.0,5.723025128711024,[6200|3600|0]
128,12800,0.6830195784568787,0.2997564077377319,0.0,2.882838249206543,-2.4750173091888428,-11.406719207763672,4.0234375,2,"['A1', 'F2', 'J1']",6.1,0,450.0,5.757284130862974,[6200|3700|0]
129,12900,0.7095739841461182,0.2679786682128906,0.0,1.8293497562408447,-1.441738247871399,-11.293804168701172,4.0234375,2,"['A1', 'F2', 'J1']",6.1,0,450.0,5.798696220774223,[6200|3800|0]
130,13000,0.6257357597351074,0.3931412696838379,0.0,2.083775043487549,-1.0681878328323364,-7.258337497711182,4.0234375,2,"['A1', 'F2', 'J1']",6.1,0,450.0,5.9493432409218725,[6200|3900|0]
131,13100,0.627036452293396,0.3800989091396332,0.0,2.380927085876465,-0.5834795236587524,-2.570112705230713,4.0234375,2,"['A1', 'F2', 'J1']",6.1,0,450.0,5.962450298932586,[6200|4000|0]
132,13200,0.626909613609314,0.379636287689209,0.0,2.650118827819824,-0.5642883777618408,-0.4621941745281219,4.0234375,2,"['A1', 'F2', 'J1']",6.1,0,450.0,5.96292999327086,[6200|4100|0]
133,13300,0.6266472339630127,0.3798536360263824,0.0,2.465283870697021,-0.1169224381446838,0.7224946618080139,4.0703125,2,"['A1', 'F2', 'J1']",6.1,0,450.0,5.963270703379993,[6200|4200|0]
134,13400,0.6262551546096802,0.3806549310684204,0.0,2.1643307209014893,0.0795640125870704,1.5043290853500366,4.10546875,2,"['A1', 'F2', 'J1']",6.1,0,450.0,5.964162779589576,[6200|4300|0]
135,13500,0.625827431678772,0.38102588057518,0.0,1.9777559041976929,0.2967625558376312,2.022968292236328,4.11328125,2,"['A1', 'F2', 'J1']",6.1,0,450.0,5.964728951332239,[6200|4400|0]
136,13600,0.6255946755409241,0.3813857436180115,0.0,1.865886807441712,0.4448552429676056,2.3977787494659424,4.11328125,2,"['A1', 'F2', 'J1']",6.1,0,450.0,5.965157526680692,[6200|4500|0]
137,13700,0.6254655718803406,0.3815905451774597,0.0,1.776784896850586,0.5731651782989502,2.670120477676392,4.11328125,2,"['A1', 'F2', 'J1']",6.1,0,450.0,5.96539962466484,[6200|4600|0]
138,13800,0.6255859732627869,0.3819158673286438,0.0,1.7155940532684326,0.678182065486908,2.8718841075897217,4.11328125,2,"['A1', 'F2', 'J1']",6.1,0,450.0,5.965746512247417,[6200|4700|0]
139,13900,0.6249375939369202,0.3824392557144165,0.0,1.671044111251831,0.7817158102989197,3.0548324584960938,4.11328125,2,"['A1', 'F2', 'J1']",6.1,0,450.0,5.966579777602855,[6200|4800|0]
140,14000,0.6251968145370483,0.382245659828186,0.0,1.657810091972351,0.8433186411857605,3.1804778575897217,4.1171875,2,"['A1', 'F2', 'J1']",6.1,0,450.0,5.966903312279044,[6200|4900|0]
141,14100,0.6249476075172424,0.3824018239974975,0.0,1.64032244682312,0.9067805409431458,3.242560386657715,4.1171875,2,"['A1', 'F2', 'J1']",6.1,0,450.0,5.967197406458682,[6200|5000|0]
142,14200,0.6249310374259949,0.3822624683380127,0.0,1.6412909030914309,0.9574152231216432,3.2876970767974854,4.1171875,2,"['A1', 'F2', 'J1']",6.1,0,450.0,5.967337743794251,[6200|5100|0]
143,14300,0.6248722672462463,0.3825355172157287,0.0,1.646755576133728,0.9940866827964784,3.3615024089813232,4.1171875,2,"['A1', 'F2', 'J1']",6.1,0,450.0,5.967617045823691,[6200|5200|0]
144,14400,0.6246946454048157,0.3827579021453857,0.0,1.653446078300476,1.0162537097930908,3.4098165035247803,4.1171875,2,"['A1', 'F2', 'J1']",6.1,0,450.0,5.9679016588513125,[6200|5300|0]
145,14500,0.6247520446777344,0.3826803863048553,0.0,1.6708139181137085,1.0410106182098389,3.4290075302124023,4.12109375,2,"['A1', 'F2', 'J1']",6.1,0,450.0,5.967998112892517,[6200|5400|0]
146,14600,0.6246175765991211,0.3825766444206238,0.0,1.69542133808136,1.0658544301986694,3.432023286819458,4.12109375,2,"['A1', 'F2', 'J1']",6.1,0,450.0,5.968167948232508,[6200|5500|0]
147,14700,0.6246272921562195,0.3825443387031555,0.0,1.7106763124465942,1.084581732749939,3.442835569381714,4.12109375,2,"['A1', 'F2', 'J1']",6.1,0,450.0,5.96820168325038,[6200|5600|0]
148,14800,0.6247433423995972,0.3826893866062164,0.0,1.6570346355438232,1.0366365909576416,3.462376832962036,4.12109375,2,"['A1', 'F2', 'J1']",6.1,0,450.0,5.968387442646295,[6200|5700|0]
149,14900,0.6245300769805908,0.3825643956661224,0.0,1.6984397172927856,1.0634527206420898,3.452421903610229,4.12890625,2,"['A1', 'F2', 'J1']",6.1,0,450.0,5.968634636647131,[6200|5800|0]
150,15000,0.6243372559547424,0.3827039301395416,0.0,1.7227668762207031,1.0775352716445925,3.4664039611816406,4.12109375,2,"['A1', 'F2', 'J1']",6.1,0,450.0,5.968872648867998,[6200|5900|0]
151,15100,0.6244750618934631,0.3827216029167175,0.0,1.7407255172729492,1.0809389352798462,3.4593987464904785,4.12890625,2,"['A1', 'F2', 'J1']",6.1,0,450.0,5.969011583398622,[6200|6000|0]
152,15200,0.6247704029083252,0.3825659155845642,0.0,1.760952115058899,1.0803430080413818,3.460104465484619,4.12890625,2,"['A1', 'F2', 'J1']",6.1,0,450.0,5.969345446934296,[6200|6100|0]
153,15300,0.6247332692146301,0.3822767734527588,0.0,1.785069227218628,1.0950913429260254,3.459523677825928,4.12890625,2,"['A1', 'F2', 'J1']",6.1,0,450.0,5.969636963801034,[6200|6200|0]
154,15400,0.624631404876709,0.3824510276317596,0.0,1.795361876487732,1.107937216758728,3.4564216136932373,4.12890625,2,"['A1', 'F2', 'J1']",6.1,0,450.0,5.969838807458946,[6200|6300|0]
155,15500,0.6245336532592773,0.3823938965797424,0.0,1.8058459758758545,1.1078355312347412,3.466325044631958,4.12890625,2,"['A1', 'F2', 'J1']",6.1,0,450.0,5.969952029964726,[6200|6400|0]
156,15600,0.6247135400772095,0.3824787437915802,0.0,1.8363579511642456,1.13231098651886,3.4954588413238525,4.12890625,2,"['A1', 'F2', 'J1']",6.1,0,450.0,5.970150922691145,[6200|6500|0]
157,15700,0.6246729493141174,0.3826151192188263,0.0,1.8513062000274656,1.1465094089508057,3.478891611099243,4.1328125,2,"['A1', 'F2', 'J1']",6.1,0,450.0,5.97029321066395,[6200|6600|0]
158,15800,0.6245012283325195,0.382686585187912,0.0,1.85957419872284,1.1637372970581057,3.5080549716949463,4.1328125,2,"['A1', 'F2', 'J1']",6.1,0,450.0,5.97047920926679,[6200|6700|0]
159,15900,0.624541163444519,0.3821208775043487,0.0,1.878606557846069,1.166300892829895,3.5201728343963623,4.1328125,2,"['A1', 'F2', 'J1']",6.1,0,450.0,5.971046324772144,[6200|6800|0]
160,16000,0.6245388388633728,0.3826817274093628,0.0,1.8744254112243648,1.1654800176620483,3.5021328926086426,4.1328125,2,"['A1', 'F2', 'J1']",6.1,0,450.0,5.971607179494538,[6200|6900|0]
161,16100,0.6245284676551819,0.3826889395713806,0.0,1.877776861190796,1.1663914918899536,3.5138299465179443,4.1328125,2,"['A1', 'F2', 'J1']",6.1,0,450.0,5.971619811883081,[6200|7000|0]
162,16200,0.6248646974563599,0.382525622844696,0.0,1.7973037958145142,1.084825873374939,3.5041050910949707,4.1328125,2,"['A1', 'F2', 'J1']",6.1,0,450.0,5.971993607057495,[6200|7100|0]
163,16300,0.6248462200164795,0.38236004114151,0.0,1.817271828651428,1.1023699045181274,3.473850965499878,4.1328125,2,"['A1', 'F2', 'J1']",6.1,0,450.0,5.972160216529659,[6200|7200|0]
164,16400,0.6245997548103333,0.3825046122074127,0.0,1.823161005973816,1.1140490770339966,3.482476234436035,4.1328125,2,"['A1', 'F2', 'J1']",6.1,0,450.0,5.972445953980716,[6200|7300|0]
165,16500,0.62479168176651,0.3821783065795898,0.0,1.8506697416305544,1.1224567890167236,3.4781174659729004,4.1328125,2,"['A1', 'F2', 'J1']",6.1,0,450.0,5.972824518795848,[6200|7400|0]
166,16600,0.6248342990875244,0.3821285963058471,0.0,1.8532029390335083,1.1243159770965576,3.47845196723938,4.13671875,2,"['A1', 'F2', 'J1']",6.1,0,450.0,5.972889996634588,[6200|7500|0]
167,16700,0.6247802972793579,0.3825002610683441,0.0,1.77871835231781,1.07221257686615,3.495687246322632,4.13671875,2,"['A1', 'F2', 'J1']",6.1,0,450.0,5.973265564059915,[6200|7600|0]
168,16800,0.6247916221618652,0.3825041353702545,0.0,1.7894351482391355,1.0862725973129272,3.476607084274292,4.13671875,2,"['A1', 'F2', 'J1']",6.1,0,450.0,5.973277533319671,[6200|7700|0]
169,16900,0.62458336353302,0.3824032843112945,0.0,1.807467579841613,1.097130298614502,3.4885945320129395,4.13671875,2,"['A1', 'F2', 'J1']",6.1,0,450.0,5.973508926043372,[6200|7800|0]
170,17000,0.624602735042572,0.3825766742229461,0.0,1.8120189905166624,1.1072686910629272,3.494485855102539,4.13671875,2,"['A1', 'F2', 'J1']",6.1,0,450.0,5.973683394713467,[6200|7900|0]
171,17100,0.6248282790184021,0.3822215795516968,0.0,1.825038194656372,1.1067180633544922,3.503331661224365,4.13671875,2,"['A1', 'F2', 'J1']",6.1,0,450.0,5.9741040635982,[6200|8000|0]
172,17200,0.6244115829467773,0.3825318515300751,0.0,1.8253066539764404,1.1229368448257446,3.494652032852173,4.13671875,2,"['A1', 'F2', 'J1']",6.1,0,450.0,5.974623586760989,[6200|8100|0]
173,17300,0.6245913505554199,0.3827041685581207,0.0,1.857629656791687,1.1435757875442505,3.481559991836548,4.13671875,2,"['A1', 'F2', 'J1']",6.1,0,450.0,5.974872603931625,[6200|8200|0]
174,17400,0.6246688365936279,0.3824430406093597,0.0,1.8826322555541992,1.1485958099365234,3.4988932609558105,4.13671875,2,"['A1', 'F2', 'J1']",6.1,0,450.0,5.975144985817479,[6200|8300|0]
175,17500,0.624298632144928,0.3823952376842499,0.0,1.8905433416366573,1.1580846309661863,3.490734577178955,4.14453125,2,"['A1', 'F2', 'J1']",6.1,0,450.0,5.975518263801677,[6200|8400|0]
176,17600,0.624687910079956,0.3824858367443084,0.0,1.895231366157532,1.149647235870361,3.50209379196167,4.14453125,2,"['A1', 'F2', 'J1']",6.1,0,450.0,5.975917945550551,[6200|8500|0]
177,17700,0.6246538162231445,0.3824946880340576,0.0,1.908853769302368,1.1603608131408691,3.494333982467652,4.14453125,2,"['A1', 'F2', 'J1']",6.1,0,450.0,5.975953169638935,[6200|8600|0]
178,17800,0.6247242093086243,0.3824514150619507,0.0,1.903061389923096,1.1685593128204346,3.5085010528564453,4.14453125,2,"['A1', 'F2', 'J1']",6.1,0,450.0,5.976035799758131,[6200|8700|0]
179,17900,0.6248676180839539,0.3822951316833496,0.0,1.8231737613677976,1.0902942419052124,3.4976396560668945,4.14453125,2,"['A1', 'F2', 'J1']",6.1,0,450.0,5.97624790956759,[6200|8800|0]
180,18000,0.624901533126831,0.3825329840183258,0.0,1.8359591960906985,1.1032288074493408,3.49056363105774,4.14453125,2,"['A1', 'F2', 'J1']",6.1,0,450.0,5.976488167685844,[6200|8900|0]
181,18100,0.6247689127922058,0.3821587860584259,0.0,1.8549621105194087,1.119187593460083,3.5112693309783936,4.14453125,2,"['A1', 'F2', 'J1']",6.1,0,450.0,5.976885171799612,[6200|9000|0]
182,18200,0.624935507774353,0.3822082877159118,0.0,1.8524439334869385,1.112613558769226,3.505614995956421,4.14453125,2,"['A1', 'F2', 'J1']",6.1,0,450.0,5.977058965649245,[6200|9100|0]
183,18300,0.6247407793998718,0.382312148809433,0.0,1.849077224731445,1.11966073513031,3.5043201446533203,4.14453125,2,"['A1', 'F2', 'J1']",6.1,0,450.0,5.977279660611978,[6200|9200|0]
184,18400,0.6247513294219971,0.3823466002941131,0.0,1.8500319719314573,1.11876118183136,3.50658917427063,4.14453125,2,"['A1', 'F2', 'J1']",6.1,0,450.0,5.977315691262312,[6200|9300|0]
185,18500,0.6247196793556213,0.3823635876178741,0.0,1.8491390943527224,1.120349407196045,3.5128366947174072,4.14453125,2,"['A1', 'F2', 'J1']",6.1,0,450.0,5.977351611950922,[6200|9400|0]
186,18600,0.6247942447662354,0.3822216689586639,0.0,1.8496469259262085,1.116133451461792,3.483868360519409,4.1484375,2,"['A1', 'F2', 'J1']",6.1,0,450.0,5.977511926972963,[6200|9500|0]
187,18700,0.6249953508377075,0.3825255334377289,0.0,1.7796344757080078,1.0568455457687378,3.490745306015014,4.1484375,2,"['A1', 'F2', 'J1']",6.1,0,450.0,5.977876313132992,[6200|9600|0]
188,18800,0.6247919797897339,0.3824619650840759,0.0,1.7944903373718262,1.0793061256408691,3.4784555435180664,4.1484375,2,"['A1', 'F2', 'J1']",6.1,0,450.0,5.978089387577119,[6200|9700|0]
189,18900,0.6246796250343323,0.3824965059757232,0.0,1.8073548078536987,1.093802809715271,3.480140209197998,4.1484375,2,"['A1', 'F2', 'J1']",6.1,0,450.0,5.978206931884753,[6200|9800|0]
190,19000,0.6245896220207214,0.3824283480644226,0.0,1.829639554023743,1.1070774793624878,3.4997658729553223,4.1484375,2,"['A1', 'F2', 'J1']",6.1,0,450.0,5.978319830260879,[6200|9900|0]
191,19100,0.6247549057006836,0.3824430704116821,0.0,1.8332444429397583,1.0968413352966309,3.498990535736084,4.1484375,2,"['A1', 'F2', 'J1']",6.1,0,450.0,5.978485768328755,[6200|10000|0]
192,19200,0.6244760155677795,0.382670521736145,0.0,1.855009078979492,1.1262789964675903,3.5258543491363525,4.1484375,2,"['A1', 'F2', 'J1']",6.1,0,450.0,5.978845648602223,[6200|10100|0]
193,19300,0.6248284578323364,0.3823452889919281,0.0,1.87329626083374,1.1352479457855225,3.5131702423095703,4.1484375,2,"['A1', 'F2', 'J1']",6.1,0,450.0,5.979325223296882,[6200|10200|0]
194,19400,0.6246762275695801,0.3823725283145904,0.0,1.8771698474884035,1.14452064037323,3.52154278755188,4.1484375,2,"['A1', 'F2', 'J1']",6.1,0,450.0,5.979479871392886,[6200|10300|0]
195,19500,0.625100314617157,0.382460743188858,0.0,1.8806754350662231,1.1423102617263794,3.515249729156494,4.1484375,2,"['A1', 'F2', 'J1']",6.1,0,450.0,5.979913036128252,[6200|10400|0]
196,19600,0.6248155832290649,0.3823554813861847,0.0,1.8864151239395144,1.157451629638672,3.505363702774048,4.15234375,2,"['A1', 'F2', 'J1']",6.1,0,450.0,5.980216601624425,[6200|10500|0]
197,19700,0.6247673630714417,0.3821088373661041,0.0,1.899102807044983,1.1589715480804443,3.5063230991363525,3.921875,2,"['E1B', 'F2', 'G1']",6.1,0,450.0,5.980467915086545,[6200|10500|0]
198,19800,0.6247300505638123,0.3819189965724945,0.0,2.036416530609131,0.982684314250946,3.4559457302093506,3.134765625,2,"['E1B', 'F2', 'G1']",6.1,0,450.0,5.980661387953232,[6200|10500|0]
199,19900,0.6279640197753906,0.380535215139389,0.0023824784439057,3.423818588256836,-5.74231481552124,3.5013582706451416,3.53125,2,"['E1B', 'F2', 'G1']",6.1,0,450.0,5.984909871382848,[6200|10500|0]
200,20000,0.6442009210586548,0.3739897012710571,0.0437126792967319,2.588287115097046,-4.212329864501953,3.333900451660156,3.541015625,2,"['E1B', 'F2', 'G1']",6.1,0,450.0,6.029794904719339,[6200|10500|0]
201,20100,0.6719130277633667,0.3665475845336914,0.10577442497015,0.2648926675319671,0.979434370994568,2.980449676513672,3.53125,2,"['E1B', 'F2', 'G1']",6.1,0,450.0,6.098168921974273,[6200|10500|0]
202,20200,0.70247882604599,0.3619447946548462,0.1794174909591674,-1.5840637683868408,2.691255569458008,2.2993321418762207,3.546875,2,"['E1B', 'F2', 'G1']",6.1,0,450.0,6.178036029519154,[6200|10500|0]
203,20300,0.7285877466201782,0.3632196187973022,0.2579241096973419,-2.340923309326172,5.914041519165039,2.2196502685546875,3.525390625,2,"['E1B', 'F2', 'G1']",6.1,0,450.0,6.260780153756737,[6200|10500|0]
204,20400,0.7472378015518188,0.3706091046333313,0.3387718796730041,-1.6894652843475342,6.498470783233643,2.3067197799682617,3.509765625,2,"['E1B', 'F2', 'G1']",6.1,0,450.0,6.344079559276294,[6200|10500|0]
205,20500,0.7542203068733215,0.3834221661090851,0.4214769303798675,1.431944727897644,6.2441935539245605,2.033757448196411,3.515625,2,"['E1B', 'F2', 'G1']",6.1,0,450.0,6.428062029693466,[6200|10500|0]
206,20600,0.7485659122467041,0.3985459804534912,0.5111773610115051,2.394623279571533,4.086371421813965,2.085813283920288,3.509765625,2,"['E1B', 'F2', 'G1']",6.1,0,450.0,6.519204057290063,[6200|10500|0]
207,20700,0.738592267036438,0.4060601592063904,0.599090039730072,3.694989919662476,3.0688037872314453,1.100578784942627,3.521484375,2,"['E1B', 'F2', 'G1']",6.1,0,450.0,6.60799918981761,[6200|10500|0]
208,20800,0.7242894172668457,0.4090233743190765,0.6903401613235474,3.854623794555664,0.8459638357162476,0.0947089940309524,3.521484375,2,"['E1B', 'F2', 'G1']",6.1,0,450.0,6.700410968537423,[6200|10500|0]
209,20900,0.7084047198295593,0.4067282378673553,0.7836911082267761,2.5612385272979736,-0.980578601360321,-0.5874065160751343,3.541015625,2,"['E1B', 'F2', 'G1']",6.1,0,450.0,6.795131560552758,[6200|10500|0]
210,21000,0.695576548576355,0.3994211256504059,0.8800370097160339,1.9007017612457275,-1.9280139207839968,-0.886711061000824,3.552734375,2,"['E1B', 'F2', 'G1']",6.1,0,450.0,6.892602010435942,[6200|10500|0]
211,21100,0.6863334774971008,0.3893233239650726,0.9803326725959778,0.7371528148651123,-1.9283316135406487,-1.0280746221542358,3.55859375,2,"['E1B', 'F2', 'G1']",6.1,0,450.0,6.993827599860651,[6200|10500|0]
212,21200,0.6803870797157288,0.3799540400505066,1.0730432271957395,0.1067099571228027,-1.570118069648743,-1.0798066854476929,3.552734375,2,"['E1B', 'F2', 'G1']",6.1,0,450.0,7.087199919430433,[6200|10500|0]
213,21300,0.6750799417495728,0.369403213262558,1.1763120889663696,-0.9681516289711,-0.8411584496498108,-1.0191402435302734,3.546875,2,"['E1B', 'F2', 'G1']",6.1,0,450.0,7.191141939185211,[6200|10500|0]
214,21400,0.6758576035499573,0.3541094064712524,1.284369707107544,-1.2479472160339355,-0.9920023083686828,-0.768155574798584,3.48828125,2,"['E1B', 'F2', 'G1']",6.1,0,450.0,7.300279256920207,[6200|10500|0]
215,21500,0.6714000105857849,0.3472152352333069,1.3871055841445925,-1.3297065496444702,-0.6361123323440552,-0.7747830748558044,3.462890625,2,"['E1B', 'F2', 'G1']",6.1,0,450.0,7.403342636268373,[6200|10500|0]
216,21600,0.6669139862060547,0.3419111371040344,1.4899029731750488,-1.3920223712921145,-0.5302677154541016,-1.1020560264587402,3.537109375,2,"['E1B', 'F2', 'G1']",6.1,0,450.0,7.506374481166829,[6200|10500|0]
217,21700,0.66213458776474,0.3366029262542724,1.590905785560608,-1.3502850532531738,-0.721156656742096,3.4353933334350586,3.552734375,2,"['E1B', 'F2', 'G1']",6.1,0,450.0,7.607629544554686,[6200|10500|0]
218,21800,0.6569657325744629,0.3333538472652435,1.6822903156280518,-1.7841099500656128,-0.5846905708312988,7.125477313995361,3.568359375,2,"['E1B', 'F2', 'G1']",6.1,0,450.0,7.699217785688046,[6200|10500|0]
219,21900,0.6528916954994202,0.3296040892601013,1.7561461925506592,-1.2766097784042358,-0.9704170823097228,9.13173484802246,3.546875,2,"['E1B', 'F2', 'G1']",6.1,0,450.0,7.77328092779796,[6200|10500|0]
220,22000,0.6480568647384644,0.3226529955863952,1.8067398071289065,-1.2834206819534302,-0.7695294618606567,9.75466251373291,3.546875,2,"['E1B', 'F2', 'G1']",6.1,0,450.0,7.824578170685273,[6200|10500|0]
221,22100,0.6422284245491028,0.3274196982383728,1.8481314182281487,-0.9209797978401184,-1.1229925155639648,9.143945693969728,3.509765625,2,"['E1B', 'F2', 'G1']",6.1,0,450.0,7.86664903517133,[6200|10500|0]
222,22200,0.6393018960952759,0.3229683637619018,1.881731629371643,-0.6534015536308289,-1.206962823867798,3.946420669555664,3.494140625,2,"['E1B', 'F2', 'G1']",6.1,0,450.0,7.9006689284148415,[6200|10500|0]
223,22300,0.6370381116867065,0.3209767639636993,1.895198464393616,-0.6641665101051331,-1.1736130714416504,2.71745228767395,3.462890625,2,"['E1B', 'F2', 'G1']",6.1,0,450.0,7.914469176061667,[6200|10500|0]
224,22400,0.6348181366920471,0.3208508789539337,1.8974915742874143,-0.675239622592926,-1.2967181205749512,5.191655158996582,3.453125,2,"['E1B', 'F2', 'G1']",6.1,0,450.0,7.917663309590127,[6200|10500|0]
225,22500,0.6328699588775635,0.3148008286952972,1.8973463773727417,-0.7226072549819946,-1.4822922945022583,3.7501637935638414,3.447265625,2,"['E1B', 'F2', 'G1']",6.1,0,450.0,7.924020949645438,[6200|10500|0]
226,22600,0.6289265155792236,0.3194129467010498,1.8905322551727293,-1.0168280601501465,-1.3233834505081177,2.2810449600219727,3.416015625,2,"['E1B', 'F2', 'G1']",6.1,0,450.0,7.933145347647658,[6200|10500|0]
227,22700,0.6302927136421204,0.3172532916069031,1.8825454711914065,-0.5049062371253967,-1.6661888360977173,2.0705347061157227,3.431640625,2,"['E1B', 'F2', 'G1']",6.1,0,88.0,7.941531009555764,[6200|10500|0]
228,22800,0.6359195113182068,0.3126451075077057,1.8669555187225344,6.5681986808776855,-1.972460389137268,-2.140478610992432,3.7890625,2,"['E1B', 'F2', 'G1']",6.1,0,88.0,7.958733998562369,[6200|10500|0]
229,22900,0.643257737159729,0.2944626808166504,1.8228570222854608,14.908660888671877,-3.832118511199951,-7.663370132446289,3.58984375,2,"['E1B', 'F2', 'G1']",6.1,0,88.0,8.006995034470101,[6200|10500|0]
230,23001,0.6431614756584167,0.2642410695552826,1.750558614730835,16.946855545043945,-1.648005723953247,-4.302614212036133,3.42578125,2,"['E1B', 'F2', 'G1']",6.1,0,88.0,8.085355833269276,[6200|10500|0]
231,23100,0.6341215372085571,0.2162777632474899,1.6564158201217651,15.695425987243652,0.4204446673393249,0.5037754774093628,3.326171875,2,"['E1B', 'F2', 'G1']",6.1,0,88.0,8.191398584157575,[6200|10500|0]
232,23200,0.6175642609596252,0.147477775812149,1.5591455698013306,12.660959243774414,-1.491446018218994,3.350659132003784,3.3203125,2,"['E1B', 'F2', 'G1']",6.1,0,88.0,8.311686086689162,[6200|10500|0]
233,23300,0.5958163142204285,0.061503279954195,1.4749053716659546,6.553081035614014,-2.3955020904541016,-1.1088367700576782,3.3515625,2,"['E1B', 'F2', 'G1']",6.1,0,88.0,8.434001245632311,[6200|10500|0]
234,23400,0.5766474604606628,-0.0344553999602794,1.4092836380004885,2.443195343017578,-3.706065177917481,-4.546510696411133,3.3359375,2,"['E1B', 'F2', 'G1']",6.1,0,88.0,8.551821978674731,[6200|10500|0]
235,23500,0.5650777816772461,-0.1286243945360183,1.3665709495544434,-0.6110236048698425,-6.409243583679199,-15.611422538757324,3.373046875,2,"['E1B', 'F2', 'G1']",6.1,0,88.0,8.655870192310747,[6200|10500|0]
236,23600,0.5706228613853455,-0.2338408678770065,1.336068868637085,0.7856965661048889,-6.529547214508057,-11.245438575744627,3.39453125,2,"['E1B', 'F2', 'G1']",6.1,0,88.0,8.765558984407173,[6200|10500|0]
237,23700,0.5841835141181946,-0.3409177958965301,1.3161393404006958,-0.3545653223991394,-4.629708766937256,-4.712695598602295,3.416015625,2,"['E1B', 'F2', 'G1']",6.1,0,88.0,8.875315742342,[6200|10500|0]
238,23800,0.6020322442054749,-0.4473921954631805,1.3035266399383545,-3.401942014694214,-1.8248770236969,-4.456474781036377,3.419921875,2,"['E1B', 'F2', 'G1']",6.1,0,88.0,8.984010062072885,[6200|10500|0]
239,23900,0.6204032897949219,-0.5420173406600952,1.298760175704956,-7.54146146774292,-0.2670003473758697,-1.9970616102218628,3.431640625,2,"['E1B', 'F2', 'G1']",6.1,0,88.0,9.080519815988616,[6200|10500|0]
240,24001,0.635578989982605,-0.6235253214836121,1.2970024347305298,-10.031903266906738,0.7301591634750366,-0.6524903178215027,3.44140625,2,"['E1B', 'F2', 'G1']",6.1,0,88.0,9.163447148439662,[6200|10500|0]
241,24100,0.6435089111328125,-0.682610034942627,1.2963520288467407,-10.873658180236816,1.5307079553604126,0.2885366082191467,3.44140625,2,"['E1B', 'F2', 'G1']",6.1,0,88.0,9.22306518297449,[6200|10500|0]
242,24200,0.6476420164108276,-0.733456552028656,1.2947889566421509,-10.960186958312988,0.8161366581916809,0.6560633778572083,3.44140625,2,"['E1B', 'F2', 'G1']",6.1,0,88.0,9.274103345693536,[6200|10500|0]
243,24301,0.6490514278411865,-0.7687156796455383,1.292530536651611,-9.512989044189451,0.2067211270332336,0.2415692955255508,3.447265625,2,"['E1B', 'F2', 'G1']",6.1,0,88.0,9.309462827897567,[6200|10500|0]
244,24401,0.6485882997512817,-0.7927138209342957,1.289578914642334,-7.710237979888916,-0.9503424167633056,-0.6452231407165527,3.484375,2,"['E1B', 'F2', 'G1']",6.1,0,88.0,9.33364623843927,[6200|10500|0]
245,24501,0.648282527923584,-0.8034583330154419,1.2883292436599731,-5.918977737426758,-1.5407185554504397,-0.7337730526924133,3.515625,2,"['E1B', 'F2', 'G1']",6.1,0,88.0,9.34446750055774,[6200|10500|0]
246,24601,0.6508776545524597,-0.8092986941337585,1.2870678901672363,-4.345117568969727,-1.9545543193817136,-0.4128482937812805,3.515625,2,"['E1B', 'F2', 'G1']",6.1,0,88.0,9.3509817551464,[6200|10500|0]
247,24701,0.6569437384605408,-0.8110336065292358,1.2853171825408936,-3.025202512741089,-1.520493984222412,-0.2296017855405807,3.525390625,2,"['E1B', 'F2', 'G1']",6.1,0,88.0,9.357529447273617,[6200|10500|0]
248,24801,0.6651029586791992,-0.8101101517677307,1.2818095684051514,-2.029885053634644,-0.992385983467102,-0.6636858582496643,3.525390625,2,"['E1B', 'F2', 'G1']",6.1,0,88.0,9.366458556982783,[6200|10500|0]
249,24902,0.6756661534309387,-0.8091903924942017,1.277546763420105,-1.2113854885101318,-0.2931978702545166,-1.8024744987487795,3.515625,2,"['E1B', 'F2', 'G1']",6.1,0,88.0,9.377886529104948,[6200|10500|0]
250,25001,0.686331570148468,-0.8087474703788757,1.2717256546020508,-0.962653875350952,0.6220969557762146,-3.1540238857269287,3.509765625,2,"['E1B', 'F2', 'G1']",6.1,0,88.0,9.390045172188389,[6200|10500|0]
251,25101,0.6960830688476562,-0.8087214231491089,1.2659565210342407,-0.9664831161499025,1.281435251235962,-4.084162712097168,3.515625,2,"['E1B', 'F2', 'G1']",6.1,0,88.0,9.401375454950156,[6200|10500|0]
252,25202,0.7039098143577576,-0.8079066872596741,1.259964108467102,-1.163259506225586,1.362526535987854,-4.441081523895264,3.5,2,"['E1B', 'F2', 'G1']",6.1,0,88.0,9.411266397687037,[6200|10500|0]
253,25302,0.7091702222824097,-0.807318925857544,1.255184292793274,-1.527911901473999,1.4389084577560425,-4.257622718811035,3.505859375,2,"['E1B', 'F2', 'G1']",6.1,0,88.0,9.418398297355102,[6200|10500|0]
254,25401,0.7123872637748718,-0.8056194186210632,1.2505968809127808,-1.8702529668807983,1.2193615436553955,-4.187084674835205,3.509765625,2,"['E1B', 'F2', 'G1']",6.1,0,88.0,9.42425338305664,[6200|10500|0]
255,25502,0.7141883373260498,-0.8019706606864929,1.2468000650405884,-1.898383975028992,0.7687456011772156,-2.08951187133789,3.509765625,2,"['E1B', 'F2', 'G1']",6.1,0,88.0,9.42981873220734,[6200|10500|0]
256,25602,0.7135957479476929,-0.7956820130348206,1.24150550365448,-1.6360929012298584,0.4697533249855041,-1.266197681427002,3.505859375,2,"['E1B', 'F2', 'G1']",6.1,0,88.0,9.43806073631614,[6200|10500|0]
257,25700,0.7123561501502991,-0.7869994640350342,1.236266016960144,-1.3766604661941528,0.0622331649065017,-0.5537296533584595,3.5,2,"['E1B', 'F2', 'G1']",6.1,0,450.0,9.44827716821055,[6200|10500|0]
258,25800,0.7110485434532166,-0.7774468064308167,1.2295926809310913,-0.9358407855033876,-0.1899715662002563,-0.324453592300415,3.84375,2,"['E1B', 'F2', 'G1']",6.1,0,450.0,9.460003059065164,[6200|10500|0]
259,25902,0.7108319997787476,-0.7668416500091553,1.1976165771484375,-0.2695332467556,-0.2100293934345245,0.0604467056691646,3.7734375,2,"['E1B', 'F2', 'G1']",6.1,0,450.0,9.493692633817748,[6200|10500|0]
260,26002,0.7099828720092773,-0.7575047612190247,1.124176859855652,0.2896765470504761,-0.4412504434585571,-1.1855443716049194,3.65234375,2,"['E1B', 'F2', 'G1']",6.1,0,450.0,9.567728372392388,[6200|10500|0]
261,26100,0.7104572057723999,-0.7495294213294983,1.018824577331543,0.4700698256492615,-0.5010936260223389,3.4896700382232666,3.525390625,2,"['E1B', 'F2', 'G1']",6.1,0,450.0,9.67338316154987,[6200|10500|0]
262,26202,0.7122220993041992,-0.7429794669151306,0.8974589705467224,0.9760687947273254,-0.0892208293080329,2.814889430999756,3.46875,2,"['E1B', 'F2', 'G1']",6.1,0,450.0,9.794938199546063,[6200|10500|0]
263,26300,0.7133148312568665,-0.7379505038261414,0.7722490429878235,1.045940637588501,0.5245059132575989,1.6120959520339966,3.494140625,2,"['E1B', 'F2', 'G1']",6.1,0,450.0,9.92025384299163,[6200|10500|0]
264,26400,0.7143229842185974,-0.7340021729469299,0.6490709781646729,0.1657757312059402,-0.2474989891052246,3.2339677810668945,3.515625,2,"['E1B', 'F2', 'G1']",6.1,0,450.0,10.043499294602237,[6200|10500|0]
265,26500,0.7156645059585571,-0.7312787771224976,0.5291754007339478,0.2971878051757812,-0.1619506776332855,0.448006272315979,3.404296875,2,"['E1B', 'F2', 'G1']",6.1,0,450.0,10.1634333016763,[6200|10500|0]
266,26600,0.71796715259552,-0.7289859652519226,0.4164372682571411,-0.2048010677099228,-0.4386963248252868,-1.8713669776916504,3.36328125,2,"['E1B', 'F2', 'G1']",6.1,0,450.0,10.27621825493766,[6200|10500|0]
267,26700,0.7196457982063293,-0.7234157919883728,0.314335286617279,-1.7283226251602173,-1.8448755741119385,-4.11761999130249,3.36328125,2,"['E1B', 'F2', 'G1']",6.1,0,450.0,10.378485841865578,[6200|10500|0]
268,26800,0.7299036979675293,-0.7185987830162048,0.2378723621368408,-2.0543997287750244,-1.5106730461120603,-6.76577615737915,3.3828125,2,"['E1B', 'F2', 'G1']",6.1,0,450.0,10.455784010686385,[6200|10500|0]
269,26900,0.7460589408874512,-0.7120783925056458,0.1824252903461456,-0.2620372772216797,-0.1473942995071411,-8.691169738769531,3.39453125,2,"['E1B', 'F2', 'G1']",6.1,0,450.0,10.51390358687526,[6200|10500|0]
270,27000,0.7635135650634766,-0.7051447629928589,0.1443737894296646,1.4407472610473633,3.484954833984375,-9.899067878723145,3.416015625,2,"['E1B', 'F2', 'G1']",6.1,0,450.0,10.55633772225403,[6200|10500|0]
271,27100,0.7755987644195557,-0.7004625201225281,0.1207525581121444,3.245464563369751,5.494897842407227,-8.979351997375488,3.435546875,2,"['E1B', 'F2', 'G1']",6.1,0,450.0,10.58328095908127,[6200|10500|0]
272,27200,0.7780975699424744,-0.6994057893753052,0.1071304678916931,2.335918426513672,4.769388675689697,-5.391358852386475,3.462890625,2,"['E1B', 'F2', 'G1']",6.1,0,450.0,10.597170597337453,[6200|10500|0]
273,27300,0.7745264768600464,-0.7024873495101929,0.1022232621908187,1.5074386596679688,2.9766716957092285,-1.4994953870773315,3.48828125,2,"['E1B', 'F2', 'G1']",6.1,0,450.0,10.60397716669793,[6200|10500|0]
274,27400,0.7661311626434326,-0.7076652646064758,0.1021895259618759,1.145916223526001,1.1335128545761108,2.078951835632324,3.515625,2,"['E1B', 'F2', 'G1']",6.1,0,450.0,10.613840900457168,[6200|10500|0]
275,27500,0.7571712136268616,-0.7158234715461731,0.1050240695476532,0.3067259788513183,-1.063022255897522,2.2413272857666016,3.525390625,2,"['E1B', 'F2', 'G1']",6.1,0,450.0,10.6262856448977,[6200|10500|0]
276,27600,0.7515906691551208,-0.7251755595207214,0.1092737093567848,-1.0774757862091064,-1.6556636095046997,-0.0318845696747303,3.525390625,2,"['E1B', 'F2', 'G1']",6.1,0,450.0,10.637975959888845,[6200|10500|0]
277,27700,0.7477647662162781,-0.7325057983398438,0.115156166255474,-1.5372307300567627,-0.7112108469009399,-2.26666522026062,3.541015625,2,"['E1B', 'F2', 'G1']",6.1,0,450.0,10.648123532682757,[6200|10500|0]
278,27800,0.7456818222999573,-0.7378547787666321,0.1193169131875038,-2.5028886795043945,-0.4829966425895691,-4.525327205657959,3.537109375,2,"['E1B', 'F2', 'G1']",6.1,0,450.0,10.655213106858762,[6200|10500|0]
279,27900,0.7446692585945129,-0.7390184998512268,0.1232511028647422,-2.737543821334839,-0.5567020773887634,-6.7330403327941895,3.525390625,2,"['E1B', 'F2', 'G1']",6.1,0,450.0,10.659438906243116,[6200|10500|0]
280,28000,0.7451162934303284,-0.7358141541481018,0.1252620667219162,-1.4539000988006592,0.0634997636079788,-7.351994514465332,3.525390625,2,"['E1B', 'F2', 'G1']",6.1,0,450.0,10.663248321836672,[6200|10500|0]
281,28100,0.7468032836914062,-0.7311331629753113,0.1264367401599884,-1.27025043964386,0.0502980723977088,-6.61028528213501,3.525390625,2,"['E1B', 'F2', 'G1']",6.1,0,450.0,10.668360803835352,[6200|10500|0]
282,28200,0.7493382096290588,-0.7249863743782043,0.127391368150711,-1.1011513471603394,0.7620212435722351,-5.166590213775635,3.525390625,2,"['E1B', 'F2', 'G1']",6.1,0,450.0,10.675077959049249,[6200|10500|0]
283,28300,0.750234067440033,-0.7166234254837036,0.1269046664237976,-0.9992865324020386,0.0305956806987524,-5.031867980957031,3.521484375,2,"['E1B', 'F2', 'G1']",6.1,0,450.0,10.683502824270752,[6200|10500|0]
284,28400,0.7508547902107239,-0.7066872119903564,0.1257707625627517,0.3344200551509857,0.9275193810462952,-5.266007900238037,3.509765625,2,"['E1B', 'F2', 'G1']",6.1,0,450.0,10.69352277303856,[6200|10500|0]
285,28500,0.7494996786117554,-0.6968557834625244,0.1241871491074562,0.7946332097053528,0.0942114293575286,-5.061846256256104,3.515625,2,"['E1B', 'F2', 'G1']",6.1,0,450.0,10.703572705671135,[6200|10500|0]
286,28600,0.7455115914344788,-0.6878305077552795,0.1239123865962028,0.9058589339256288,0.6091153025627136,-4.59409236907959,3.505859375,2,"['E1B', 'F2', 'G1']",6.1,0,450.0,10.713443669928134,[6200|10500|0]
287,28700,0.739987850189209,-0.6809787154197693,0.1237182691693306,4.167581081390381,0.6313753128051758,-3.3334836959838867,3.509765625,2,"['E1B', 'F2', 'G1']",6.1,0,450.0,10.722246877135117,[6200|10500|0]
288,28800,0.7322560548782349,-0.6797285079956055,0.1248394399881362,3.052680730819702,0.1105678230524063,-2.9110476970672607,3.515625,2,"['E1B', 'F2', 'G1']",6.1,0,450.0,10.730158937634076,[6200|10500|100]
289,28900,0.7242860794067383,-0.684917151927948,0.1256980299949646,1.628097414970398,-1.4095818996429443,-2.809809446334839,3.521484375,2,"['E1B', 'F2', 'G1']",6.1,0,450.0,10.739707744453396,[6200|10500|200]
290,29000,0.7171741724014282,-0.692718505859375,0.1249776259064674,0.7623833417892456,-1.5861403942108154,-2.730161666870117,3.5,2,"['E1B', 'F2', 'G1']",6.1,0,450.0,10.750288827879317,[6200|10500|300]
291,29100,0.7117754220962524,-0.7010019421577454,0.1254789233207702,-1.3424882888793943,-1.2207129001617432,-1.67847740650177,3.509765625,2,"['E1B', 'F2', 'G1']",6.1,0,450.0,10.760188985497477,[6200|10500|400]
292,29200,0.7076674103736877,-0.7074374556541443,0.1273562461137771,-0.3363358676433563,-0.2881304919719696,-0.0811409577727317,3.521484375,2,"['E1B', 'F2', 'G1']",6.1,0,450.0,10.76805129655366,[6200|10500|500]
293,29300,0.7025222778320312,-0.7124672532081604,0.1288259029388427,-0.4135593771934509,0.7892722487449646,1.4574676752090454,3.525390625,2,"['E1B', 'F2', 'G1']",6.1,0,450.0,10.775395079195397,[6200|10500|600]
294,29400,0.6951791644096375,-0.7178393006324768,0.1291484385728836,0.2766423225402832,0.8649656176567078,3.477468013763428,3.521484375,2,"['E1B', 'F2', 'G1']",6.1,0,450.0,10.784499157265056,[6200|10500|700]
295,29500,0.6851569414138794,-0.7252970933914185,0.1283226758241653,0.7454114556312561,0.2082716524600982,5.019566059112549,3.515625,2,"['E1B', 'F2', 'G1']",6.1,0,450.0,10.797018962005112,[6200|10500|800]
296,29600,0.6732478737831116,-0.7349363565444946,0.128162994980812,0.5814845561981201,0.2973822951316833,5.344240665435791,3.509765625,2,"['E1B', 'F2', 'G1']",6.1,0,450.0,10.812341063164556,[6200|10500|900]
297,29700,0.6607085466384888,-0.7458502650260925,0.1287373602390289,0.3380358219146728,0.1489810496568679,5.2330641746521,3.515625,2,"['E1B', 'F2', 'G1']",6.1,0,450.0,10.828974704348449,[6200|10500|1000]
298,29800,0.6468256115913391,-0.7577075362205505,0.1286122500896453,-0.0766990035772323,-0.1107736229896545,5.045505523681641,3.515625,2,"['E1B', 'F2', 'G1']",6.1,0,450.0,10.847232481273686,[6200|10500|1100]
299,29900,0.6317177414894104,-0.7694321870803833,0.1277462393045425,-0.6515697836875916,-0.0606395378708839,5.070369243621826,3.509765625,2,"['E1B', 'F2', 'G1']",6.1,0,450.0,10.866375760811987,[6200|10500|1200]
300,30000,0.615821897983551,-0.7811838388442993,0.1270481497049331,0.4762804806232452,-0.0148698529228568,5.464011669158936,3.505859375,2,"['E1B', 'F2', 'G1']",6.1,0,450.0,10.886156218062322,[6200|10500|1300]
301,30100,0.5989983677864075,-0.7938371896743774,0.1270949095487594,0.2866437137126922,0.0981646105647087,5.901639938354492,3.515625,2,"['E1B', 'F2', 'G1']",6.1,0,450.0,10.907207124028725,[6200|10500|1400]
302,30200,0.5814239382743835,-0.807709276676178,0.1283331364393234,-0.1923699080944061,-0.2213819026947021,5.266369342803955,3.515625,2,"['E1B', 'F2', 'G1']",6.1,0,450.0,10.929630963492365,[6200|10500|1500]
303,30300,0.5636979937553406,-0.8215046525001526,0.1294534802436828,-0.2151167243719101,0.1080925837159156,4.4474310874938965,3.515625,2,"['E1B', 'F2', 'G1']",6.1,0,450.0,10.95212044266501,[6200|10500|1600]
