,time.ms,stateEstimate.x,stateEstimate.y,stateEstimate.z,stabilizer.roll,stabilizer.pitch,stabilizer.yaw,pm.vbat,drone_id,node_name,wind_speed,global_wind_direction,relative_wind_direction,travel_dist,waiting_time
0,0,1.2950420379638672,-0.3030620217323303,0.0058595649898052,-2.524747371673584,-0.9601852893829346,0.9107795357704164,4.0703125,0,"['C1', 'F2', 'F1']",6.1,90,0.0,0.0557861630471948,[100|0|0]
1,100,1.300296425819397,-0.301451563835144,0.014576818794012,-5.4771575927734375,-3.301504850387573,0.561432957649231,4.0703125,0,"['C1', 'F2', 'F1']",6.1,90,0.0,0.0660911463204421,[200|0|0]
2,200,1.3044651746749878,-0.2998695969581604,0.0087026003748178,-6.772345066070557,-4.438912868499756,0.2745364308357239,4.0703125,0,"['C1', 'F2', 'F1']",6.1,90,0.0,0.0734659363687936,[300|0|0]
3,300,1.3066643476486206,-0.2983589172363281,0.0047190086916089,-6.752673625946045,-4.369534969329834,0.1657665818929672,4.0703125,0,"['C1', 'F2', 'F1']",6.1,90,0.0,0.0782604663445518,[400|0|0]
4,400,1.3076659440994265,-0.2986586391925812,0.0031444267369806,-5.870168209075928,-3.706092834472656,0.1810293048620224,4.0703125,0,"['C1', 'F2', 'F1']",6.1,90,0.0,0.0801505290506987,[500|0|0]
5,500,1.3083150386810305,-0.2983683049678802,0.0019886635709553,-4.992181301116943,-3.015831232070923,0.2184655666351318,4.0703125,0,"['C1', 'F2', 'F1']",6.1,90,0.0,0.0815075132929953,[600|0|0]
6,600,1.308077096939087,-0.2987647950649261,0.0017159469425678,-4.185983657836914,-2.3824472427368164,0.2617809176445007,4.0703125,0,"['C1', 'F2', 'F1']",6.1,90,0.0,0.0820443512843982,[700|0|0]
7,700,1.3075741529464722,-0.3000752627849579,0.0012889846693724,-3.555734395980835,-1.874333739280701,0.3208407163619995,4.0703125,0,"['C1', 'F2', 'F1']",6.1,90,0.0,0.0835115169491017,[800|0|0]
8,800,1.307613730430603,-0.3002980053424835,0.0011030712630599,-2.992847681045532,-1.4358867406845093,0.3969366550445556,4.0703125,0,"['C1', 'F2', 'F1']",6.1,90,0.0,0.0838043384285561,[900|0|0]
9,900,1.3073970079421997,-0.300297349691391,0.0010838494636118,-2.528815984725952,-1.0746170282363892,0.456838458776474,4.0703125,0,"['C1', 'F2', 'F1']",6.1,90,0.0,0.0840219126559639,[1000|0|0]
10,1000,1.3070628643035889,-0.3006496727466583,0.0011977220419794,-2.1327645778656006,-0.7777132391929626,0.5103841423988342,4.0703125,0,"['C1', 'F2', 'F1']",6.1,90,0.0,0.0845206615613272,[1100|0|0]
11,1100,1.307039737701416,-0.3005080223083496,0.0012164029758423,-1.8220179080963133,-0.5416049361228943,0.5548064112663269,4.0703125,0,"['C1', 'F2', 'F1']",6.1,90,0.0,0.0846653980933124,[1200|0|0]
12,1200,1.3070563077926636,-0.3008155822753906,0.0012024734169244,-1.5457763671875,-0.3363285660743713,0.6034756302833557,4.0703125,0,"['C1', 'F2', 'F1']",6.1,90,0.0,0.0849737189227448,[1300|0|0]
13,1300,1.3069080114364624,-0.3008738756179809,0.0011780095519497,-1.3221583366394043,-0.1694633662700653,0.6433435082435608,4.0703125,0,"['C1', 'F2', 'F1']",6.1,90,0.0,0.0851349281152321,[1400|0|0]
14,1400,1.306638240814209,-0.3010381460189819,0.0011435151100158,-1.1368945837020874,-0.0333207100629806,0.689314067363739,4.0703125,0,"['C1', 'F2', 'F1']",6.1,90,0.0,0.0854526557026404,[1500|0|0]
15,1500,1.3064204454421997,-0.3008567988872528,0.000955126946792,-0.9892396926879884,0.0704744085669517,0.7436339855194092,4.0703125,0,"['C1', 'F2', 'F1']",6.1,90,0.0,0.0857929668930205,[1600|0|0]
16,1600,1.306705117225647,-0.3007548749446869,0.0011867654975503,-0.8662951588630676,0.1538839936256408,0.7617466449737549,4.0703125,0,"['C1', 'F2', 'F1']",6.1,90,0.0,0.0861738644285293,[1700|0|0]
17,1700,1.306749939918518,-0.3010756075382232,0.0012161883059889,-0.7594953775405884,0.2214262634515762,0.8049564957618713,4.0703125,0,"['C1', 'F2', 'F1']",6.1,90,0.0,0.086499047718397,[1800|0|0]
18,1800,1.3064634799957275,-0.300860732793808,0.0007444332004524,-0.6935951709747314,0.2716659009456634,0.839449942111969,4.0703125,0,"['C1', 'F2', 'F1']",6.1,90,0.0,0.0870913173552622,[1900|0|0]
19,1900,1.3067469596862793,-0.3005899786949157,0.0014883268158882,-0.6627988815307617,0.2855166792869568,0.8599727153778076,4.0703125,0,"['C1', 'F2', 'F1']",6.1,90,0.0,0.0879321777646694,[2000|0|0]
20,2000,1.3068150281906128,-0.3004256188869476,0.0012862728908658,-0.5701585412025452,0.3570557832717895,0.8704818487167358,4.0703125,0,"['C1', 'F2', 'F1']",6.1,90,0.0,0.0882013863387797,[2100|0|0]
21,2100,1.306383490562439,-0.3009708225727081,0.0013817034196108,-0.4835588037967682,0.4104016721248626,0.8771876096725464,4.0703125,0,"['C1', 'F2', 'F1']",6.1,90,0.0,0.0889032258997288,[2200|0|0]
22,2200,1.3063037395477295,-0.3008230626583099,0.0011495200451463,-0.4251285791397095,0.4572689831256866,0.9027670621871948,4.0703125,0,"['C1', 'F2', 'F1']",6.1,90,0.0,0.0891897609517345,[2300|0|0]
23,2300,1.3065056800842283,-0.3010958433151245,0.0011988990008831,-0.3825679123401642,0.4728963375091553,0.9308434128761292,4.0703125,0,"['C1', 'F2', 'F1']",6.1,90,0.0,0.0895327296795849,[2400|0|0]
24,2400,1.306614875793457,-0.301074743270874,0.0012436365941539,-0.3562708795070648,0.4890099167823791,0.956326425075531,4.0703125,0,"['C1', 'F2', 'F1']",6.1,90,0.0,0.0896526061453026,[2500|0|0]
25,2500,1.306326389312744,-0.3001402020454407,0.0019544451497495,-0.6464537382125854,0.2776030600070953,0.93012136220932,4.0703125,0,"['C1', 'F2', 'F1']",6.1,90,0.0,0.0908616721295633,[2600|0|0]
26,2600,1.306097149848938,-0.3000325262546539,0.0018938118591904,-0.5869107842445374,0.3274835646152496,0.9432438611984252,4.0703125,0,"['C1', 'F2', 'F1']",6.1,90,0.0,0.0911220971736964,[2700|0|0]
27,2700,1.3063448667526243,-0.3004268407821655,0.0017547984607517,-0.5296542644500732,0.3533548414707184,0.9267277121543884,4.0703125,0,"['C1', 'F2', 'F1']",6.1,90,0.0,0.0916080728273296,[2800|0|0]
28,2800,1.3059459924697876,-0.3003733456134796,0.0016642501577734,-0.4896759688854217,0.399179071187973,0.9541610479354858,4.0703125,0,"['C1', 'F2', 'F1']",6.1,90,0.0,0.0920205790960742,[2900|0|0]
29,2900,1.306264042854309,-0.3004011809825897,0.0016457054298371,-0.4766302108764648,0.4001620709896087,0.9637306928634644,4.0703125,0,"['C1', 'F2', 'F1']",6.1,90,0.0,0.0923403833515212,[3000|0|0]
30,3000,1.3059319257736206,-0.3009674549102783,0.0017012164462357,-0.4485559463500976,0.4159362018108368,0.9700254201889038,4.0703125,0,"['C1', 'F2', 'F1']",6.1,90,0.0,0.0929992075992584,[3100|0|0]
31,3100,1.3060216903686523,-0.3008601367473602,0.0018426548922434,-0.456576406955719,0.4044208824634552,0.981436014175415,4.0703125,0,"['C1', 'F2', 'F1']",6.1,90,0.0,0.0931981540860894,[3200|0|0]
32,3200,1.3065260648727417,-0.301279217004776,0.0014341785572469,-0.4084039032459259,0.4249064028263092,0.9780592322349548,4.0703125,0,"['C1', 'F2', 'F1']",6.1,90,0.0,0.0939707308258268,[3300|0|0]
33,3300,1.3061494827270508,-0.3011897206306457,0.0009775644866749,-0.378002792596817,0.4669228196144104,0.961534857749939,4.0703125,0,"['C1', 'F2', 'F1']",6.1,90,0.0,0.0945693292913109,[3400|0|0]
34,3400,1.3062742948532104,-0.3012887239456177,0.0007125590345822,-0.3489021062850952,0.4839620590209961,0.9517094492912292,4.0703125,0,"['C1', 'F2', 'F1']",6.1,90,0.0,0.0948785340986002,[3500|0|0]
35,3500,1.3065112829208374,-0.301201730966568,0.0012242624070495,-0.3418400883674621,0.4841695129871368,0.971105694770813,4.0703125,0,"['C1', 'F2', 'F1']",6.1,90,0.0,0.0954491227980992,[3600|0|0]
36,3600,1.306415557861328,-0.3010055124759674,0.0009056637063622,-0.345364362001419,0.4950224757194519,0.9503397941589355,4.0703125,0,"['C1', 'F2', 'F1']",6.1,90,0.0,0.0958353482700081,[3700|0|0]
37,3700,1.3065813779830933,-0.3013919293880462,0.0007075547473505,-0.330572098493576,0.492353618144989,0.945448398590088,4.0703125,0,"['C1', 'F2', 'F1']",6.1,90,0.0,0.0963001724328519,[3800|0|0]
38,3800,1.3065612316131592,-0.3015301823616028,0.0010984009131789,-0.3257251381874084,0.4844219088554382,0.9515047669410706,4.0703125,0,"['C1', 'F2', 'F1']",6.1,90,0.0,0.0967152392783859,[3900|0|0]
39,3900,1.3064191341400146,-0.3014377653598785,0.0009393524378538,-0.3279053866863251,0.4893591701984405,0.971813142299652,4.0703125,0,"['C1', 'F2', 'F1']",6.1,90,0.0,0.0969476806937683,[4000|0|0]
40,4000,1.3063212633132937,-0.3010071516036987,0.0010011774720624,-0.3374501168727875,0.4980235993862152,0.9609913229942322,4.0703125,0,"['C1', 'F2', 'F1']",6.1,90,0.0,0.097393583419247,[4100|0|0]
41,4100,1.306408405303955,-0.301104336977005,0.0009055457776412,-0.329378217458725,0.5018268823623657,0.9584102630615234,4.0703125,0,"['C1', 'F2', 'F1']",6.1,90,0.0,0.097555398573973,[4200|0|0]
42,4200,1.3063679933547974,-0.3013538718223572,0.0009209120762534,-0.3240345418453216,0.4976788163185119,0.9752838611602784,4.0703125,0,"['C1', 'F2', 'F1']",6.1,90,0.0,0.097808651190569,[4300|0|0]
43,4300,1.306414008140564,-0.3014405071735382,0.0011687357909977,-0.3263963162899017,0.4945290386676788,0.9671034216880798,4.0703125,0,"['C1', 'F2', 'F1']",6.1,90,0.0,0.0980751838117865,[4400|0|0]
44,4400,1.3064452409744265,-0.3012698292732239,0.000952010799665,-0.3409439027309418,0.4796684086322784,0.9617103338241576,4.0703125,0,"['C1', 'F2', 'F1']",6.1,90,0.0,0.0983528097425547,[4500|0|0]
45,4500,1.3063642978668213,-0.3012821972370147,0.000901503895875,-0.3453079462051391,0.4772369265556335,0.9577211737632751,4.0703125,0,"['C1', 'F2', 'F1']",6.1,90,0.0,0.09844901629393,[4600|0|0]
46,4600,1.306499481201172,-0.3011293113231659,0.0009674205793999,-0.3512113094329834,0.4756739437580108,0.9611124992370604,4.0703125,0,"['C1', 'F2', 'F1']",6.1,90,0.0,0.0986634775857905,[4700|0|0]
47,4700,1.3062578439712524,-0.3012675344944,0.0007461542845703,-0.3511399328708648,0.4861709773540497,0.9456236362457277,4.0703125,0,"['C1', 'F2', 'F1']",6.1,90,0.0,0.0990190798484053,[4800|0|0]
48,4800,1.3065431118011477,-0.301320880651474,0.0011825737310573,-0.3524773716926574,0.4779593348503113,0.959758996963501,4.0703125,0,"['C1', 'F2', 'F1']",6.1,90,0.0,0.0995431843041387,[4900|0|0]
49,4900,1.3064520359039309,-0.3015218377113342,0.000983705278486,-0.3478573262691498,0.4810906946659088,0.9611122608184814,4.0703125,0,"['C1', 'F2', 'F1']",6.1,90,0.0,0.0998402149766115,[5000|0|0]
50,5000,1.3063819408416748,-0.3012855052947998,0.0010053903097286,-0.3471570312976837,0.4860654771327972,0.9527345895767212,4.0703125,0,"['C1', 'F2', 'F1']",6.1,90,0.0,0.1000876752147057,[5100|0|0]
51,5100,1.3063751459121704,-0.3011291325092315,0.0011966963065788,-0.3536882400512695,0.4841344058513641,0.9546940922737122,4.0703125,0,"['C1', 'F2', 'F1']",6.1,90,0.0,0.100334852486242,[5200|0|0]
52,5200,1.3063607215881348,-0.3012392520904541,0.0009678998612798,-0.3543072640895843,0.4838651418685913,0.9525994062423706,4.0703125,0,"['C1', 'F2', 'F1']",6.1,90,0.0,0.1005891794346253,[5300|0|0]
53,5300,1.3064777851104736,-0.3012160658836365,0.0013016423908993,-0.3565063178539276,0.4848668873310089,0.9605093002319336,4.0703125,0,"['C1', 'F2', 'F1']",6.1,90,0.0,0.1009436163747512,[5400|0|0]
54,5400,1.3062632083892822,-0.3013520836830139,0.0009843900334089,-0.350194901227951,0.4946556091308594,0.9641662836074828,4.0703125,0,"['C1', 'F2', 'F1']",6.1,90,0.0,0.1013500558774547,[5500|0|0]
55,5500,1.3064905405044556,-0.3015013039112091,0.0011041118996217,-0.3460969030857086,0.4919672012329101,0.9648137092590332,4.0703125,0,"['C1', 'F2', 'F1']",6.1,90,0.0,0.1016471752008608,[5600|0|0]
56,5600,1.3065669536590576,-0.3014547228813171,0.0010770647786557,-0.3453719615936279,0.4921903908252716,0.9722625613212584,4.0703125,0,"['C1', 'F2', 'F1']",6.1,90,0.0,0.1017406648221809,[5700|0|0]
57,5700,1.3064252138137815,-0.3014194667339325,0.0012952436227351,-0.3474743962287903,0.4961773157119751,0.963548183441162,4.0703125,0,"['C1', 'F2', 'F1']",6.1,90,0.0,0.1020032199357686,[5800|0|0]
58,5800,1.3064508438110352,-0.3012556731700897,0.0008994265808723,-0.3564580380916595,0.4968655407428741,0.9520957469940186,4.0703125,0,"['C1', 'F2', 'F1']",6.1,90,0.0,0.1024323543656907,[5900|0|0]
59,5900,1.3065203428268433,-0.30113485455513,0.0011812028242275,-0.3577717244625091,0.5016904473304749,0.9763433933258056,4.0703125,0,"['C1', 'F2', 'F1']",6.1,90,0.0,0.1027467189664943,[6000|0|0]
60,6000,1.3064275979995728,-0.3012823462486267,0.0012090060627087,-0.3457716703414917,0.5095092058181763,0.9981738328933716,4.0703125,0,"['C1', 'F2', 'F1']",6.1,90,0.0,0.1029231514541659,[6100|0|0]
61,6100,1.3062055110931396,-0.3014745414257049,0.0011654460104182,-0.3414700031280517,0.5135670900344849,0.9873976111412048,4.0703125,0,"['C1', 'F2', 'F1']",6.1,90,0.0,0.1032200673652531,[6200|0|0]
62,6200,1.306455373764038,-0.301043152809143,0.000941043253988,-0.3609345555305481,0.5023047924041748,0.9685343503952026,4.0703125,0,"['C1', 'F2', 'F1']",6.1,90,0.0,0.1037667702918057,[6300|0|0]
63,6300,1.306360960006714,-0.3012644648551941,0.0011421348899602,-0.3592013120651245,0.5044739246368408,0.9838387370109558,4.0703125,0,"['C1', 'F2', 'F1']",6.1,90,0.0,0.1040803477548948,[6400|0|0]
64,6400,1.306367039680481,-0.3017486333847046,0.0011328139808028,-0.3443547785282135,0.5043594241142273,0.9732458591461182,4.0703125,0,"['C1', 'F2', 'F1']",6.1,90,0.0,0.1045646441587106,[6500|0|0]
65,6500,1.306297779083252,-0.3013890385627746,0.0011867417488247,-0.355415016412735,0.5028589367866516,0.9865463972091676,4.0703125,0,"['C1', 'F2', 'F1']",6.1,90,0.0,0.1049347977355557,[6600|0|0]
66,6600,1.3064312934875488,-0.3012944757938385,0.0012004233431071,-0.3572137355804443,0.5002037286758423,0.984767735004425,4.0703125,0,"['C1', 'F2', 'F1']",6.1,90,0.0,0.1050989787315501,[6700|0|0]
67,6700,1.3064630031585691,-0.3013746440410614,0.0013113790191709,-0.3534216284751892,0.4970491528511047,0.9954639673233032,4.0703125,0,"['C1', 'F2', 'F1']",6.1,90,0.0,0.1052394906995451,[6800|0|0]
68,6800,1.3064169883728027,-0.301092654466629,0.0012104894267395,-0.3605304062366485,0.4934566617012024,0.9781287908554076,4.0703125,0,"['C1', 'F2', 'F1']",6.1,90,0.0,0.1055424992645374,[6900|0|0]
69,6900,1.3062734603881836,-0.3012575507164001,0.0011723417555913,-0.3534620106220245,0.4878539741039276,0.9834204912185668,4.0703125,0,"['C1', 'F2', 'F1']",6.1,90,0.0,0.1057644143392201,[7000|0|0]
70,7000,1.306661605834961,-0.3013692796230316,0.0014364622766152,-0.3490891754627228,0.4739527702331543,0.9936527609825134,4.0703125,0,"['C1', 'F2', 'F1']",6.1,90,0.0,0.1062470113616487,[7100|0|0]
71,7100,1.3062142133712769,-0.3013471662998199,0.0011665759375318,-0.3511821031570434,0.4829716086387634,0.9914292097091676,4.0703125,0,"['C1', 'F2', 'F1']",6.1,90,0.0,0.106769971830182,[7200|0|0]
72,7200,1.306298017501831,-0.3013198375701904,0.0009141769842244,-0.3443293571472168,0.4844659268856048,0.9779370427131652,4.0703125,0,"['C1', 'F2', 'F1']",6.1,90,0.0,0.1070373203356796,[7300|0|0]
73,7300,1.3061798810958862,-0.3012314438819885,0.0007718404522165,-0.349395751953125,0.4841290116310119,0.9863248467445374,4.0703125,0,"['C1', 'F2', 'F1']",6.1,90,0.0,0.1072423309277658,[7400|0|0]
74,7400,1.306217908859253,-0.3013099730014801,0.0009125074138864,-0.3467544019222259,0.4861105680465698,0.994418740272522,4.0703125,0,"['C1', 'F2', 'F1']",6.1,90,0.0,0.1074078607664664,[7500|0|0]
75,7500,1.3062771558761597,-0.3011494278907776,0.0010002797935158,-0.3520882427692413,0.4901589453220367,0.9718999266624452,4.0703125,0,"['C1', 'F2', 'F1']",6.1,90,0.0,0.1076001858355776,[7600|0|0]
76,7600,1.3062182664871216,-0.3013851046562195,0.0008665072382427,-0.3469842076301574,0.4871995151042938,0.9309324026107788,4.0703125,0,"['C1', 'F2', 'F1']",6.1,90,0.0,0.1078775062179058,[7700|0|0]
77,7700,1.306457757949829,-0.3009093701839447,0.0009429121855646,-0.363385260105133,0.4856553971767425,0.9426894187927246,4.0703125,0,"['C1', 'F2', 'F1']",6.1,90,0.0,0.1084155742106313,[7800|0|0]
78,7800,1.3065799474716189,-0.3012648820877075,0.0011649156222119,-0.360161155462265,0.4885138869285583,0.9583753943443298,4.0703125,0,"['C1', 'F2', 'F1']",6.1,90,0.0,0.1088521569849542,[7900|0|0]
79,7900,1.3064247369766235,-0.3010241091251373,0.0008341533830389,-0.3633928000926971,0.4944026172161102,0.949070930480957,4.0703125,0,"['C1', 'F2', 'F1']",6.1,90,0.0,0.1092897247809861,[8000|0|0]
80,8000,1.3064680099487305,-0.3011414408683777,0.0011366085382178,-0.3608359694480896,0.4917844831943512,0.9474979043006896,4.0703125,0,"['C1', 'F2', 'F1']",6.1,90,0.0,0.1096170142690255,[8100|0|0]
81,8100,1.3063926696777344,-0.3010399937629699,0.0009567728266119,-0.3616043627262115,0.492327332496643,0.9417280554771424,4.0703125,0,"['C1', 'F2', 'F1']",6.1,90,0.0,0.1098368063407618,[8200|0|0]
82,8200,1.306208848953247,-0.30147385597229,0.0012463328894227,-0.3355046212673187,0.5050613284111023,0.9612147212028505,4.0703125,0,"['C1', 'F2', 'F1']",6.1,90,0.0,0.1103898628527044,[8300|0|0]
83,8300,1.3064792156219482,-0.3012242913246155,0.0009710156591609,-0.3471506237983703,0.4915503263473511,0.9638074040412904,4.0703125,0,"['C1', 'F2', 'F1']",6.1,90,0.0,0.1108494063503111,[8400|0|0]
84,8400,1.3067333698272705,-0.3015911281108856,0.0009802356362342,-0.341056764125824,0.4876949489116668,0.9806382656097412,4.0703125,0,"['C1', 'F2', 'F1']",6.1,90,0.0,0.1112957790598501,[8500|0|0]
85,8500,1.3064196109771729,-0.3015479743480682,0.00119754683692,-0.3443653881549835,0.4876947999000549,0.9815899133682252,4.0703125,0,"['C1', 'F2', 'F1']",6.1,90,0.0,0.1116798767312872,[8600|0|0]
86,8600,1.3065872192382812,-0.3014880120754242,0.0013341557933017,-0.3483566045761108,0.4826872646808624,0.9728466272354126,4.0703125,0,"['C1', 'F2', 'F1']",6.1,90,0.0,0.111904264810953,[8700|0|0]
87,8700,1.3065201044082642,-0.3012698888778686,0.0011641583405435,-0.3543202579021454,0.4878730773925781,0.9785292148590088,4.0703125,0,"['C1', 'F2', 'F1']",6.1,90,0.0,0.112188836882078,[8800|0|0]
88,8800,1.2962865829467771,-0.3128434121608734,-0.0033190553076565,-0.0057988804765045,0.7515076398849487,0.8985799551010132,4.0703125,0,"['C1', 'F2', 'F1']",6.1,90,0.0,0.1282751853583598,[8900|0|0]
89,8900,1.2964564561843872,-0.3132131099700928,-0.0029529046732932,-0.0002636254939716,0.740851104259491,0.9029972553253174,4.0703125,0,"['C1', 'F2', 'F1']",6.1,90,0.0,0.12882254234794,[9000|0|0]
90,9000,1.2963554859161377,-0.3131152987480163,-0.0029633557423949,-0.0039209374226629,0.7367038130760193,0.9111459851264954,4.0703125,0,"['C1', 'F2', 'F1']",6.1,90,0.0,0.1289635077872498,[9100|0|0]
91,9100,1.296298623085022,-0.3131936192512512,-0.0031122502405196,0.0105718579143285,0.7459636330604553,0.9049367308616638,4.0703125,0,"['C1', 'F2', 'F1']",6.1,90,0.0,0.1291410945388989,[9200|0|0]
92,9200,1.2963697910308838,-0.3130031526088714,-0.0028745473828166,0.0067207277752459,0.7464181780815125,0.9000688195228577,4.0703125,0,"['C1', 'F2', 'F1']",6.1,90,0.0,0.1294538965001104,[9300|0|0]
93,9300,1.296125411987305,-0.3130075633525848,-0.0031056245788931,0.0047354255802929,0.7479060292243958,0.8738654255867004,4.0703125,0,"['C1', 'F2', 'F1']",6.1,90,0.0,0.1297902552998278,[9400|0|0]
94,9400,1.2963879108428955,-0.3130711615085602,-0.003223325824365,0.005972608923912,0.742990255355835,0.8658479452133179,4.0703125,0,"['C1', 'F2', 'F1']",6.1,90,0.0,0.1300848804138551,[9500|0|0]
95,9500,1.296325922012329,-0.3131198585033417,-0.0029371720738708,0.0083747040480375,0.7411880493164062,0.8713554739952087,4.0703125,0,"['C1', 'F2', 'F1']",6.1,90,0.0,0.1303816934549055,[9600|0|0]
96,9600,1.296230673789978,-0.3129585385322571,-0.0031865355558693,-0.0012859657872468,0.7389718890190125,0.8642053604125977,4.0703125,0,"['C1', 'F2', 'F1']",6.1,90,0.0,0.1306935884742408,[9700|0|0]
97,9700,1.296442627906799,-0.3130040466785431,-0.0029114112257957,0.0016188090667128,0.7332290410995483,0.8610457181930542,4.0703125,0,"['C1', 'F2', 'F1']",6.1,90,0.0,0.1310438582788405,[9800|0|0]
98,9800,1.2963181734085083,-0.3131765723228454,-0.0031005542259663,0.0085079967975616,0.7443377375602722,0.8557964563369751,4.0703125,0,"['C1', 'F2', 'F1']",6.1,90,0.0,0.1313285143776691,[9900|0|0]
99,9900,1.2965731620788574,-0.3133478462696075,-0.0030731747392565,0.0120997680351138,0.738071084022522,0.8760759234428406,4.0703125,0,"['C1', 'F2', 'F1']",6.1,90,0.0,0.131636903130931,[10000|0|0]
100,10000,1.2964577674865725,-0.313314825296402,-0.0028519229963421,0.0221729110926389,0.748754620552063,0.8753838539123535,4.0703125,0,"['C1', 'F2', 'F1']",6.1,90,0.0,0.1318886145338167,[10100|0|0]
101,10100,1.2964197397232056,-0.3129165172576904,-0.003331571817398,0.0075142313726246,0.7469866871833801,0.8737552762031555,4.0703125,0,"['C1', 'F2', 'F1']",6.1,90,0.0,0.1325132411391012,[10200|0|0]
102,10200,1.2963382005691528,-0.313126266002655,-0.0030620233155786,0.0133724613115191,0.7485809326171875,0.8903764486312866,4.0703125,0,"['C1', 'F2', 'F1']",6.1,90,0.0,0.1328643815162881,[10300|0|0]
103,10300,1.296159744262695,-0.3130164444446563,-0.0031359673012048,0.0082555143162608,0.7481769919395447,0.8900315761566162,4.0703125,0,"['C1', 'F2', 'F1']",6.1,90,0.0,0.133086586693829,[10400|0|0]
104,10400,1.2961812019348145,-0.3128136098384857,-0.0033373816404491,-0.0009697815403342,0.7419816851615906,0.910036325454712,4.06640625,0,"['C1', 'F2', 'F1']",6.1,90,0.0,0.1333732398731353,[10500|0|0]
105,10500,1.296133279800415,-0.3129138052463531,-0.0034144616220146,0.0033576099667698,0.7480044364929199,0.9088360071182252,4.0703125,0,"['C1', 'F2', 'F1']",6.1,90,0.0,0.133508432233427,[10600|0|0]
106,10600,1.296420693397522,-0.3130931258201599,-0.0026582344435155,0.002259184140712,0.7407162189483643,0.8912205696105957,4.06640625,0,"['C1', 'F2', 'F1']",6.1,90,0.0,0.1343370708696811,[10700|0|0]
107,10701,1.2965025901794434,-0.3130471110343933,-0.0031004564370959,-0.0026476774364709,0.7427581548690796,0.8975192308425903,4.0703125,0,"['C1', 'F2', 'F1']",6.1,90,0.0,0.1347891601694931,[10800|0|0]
108,10801,1.2962390184402466,-0.3130985498428345,-0.0028658998198807,-0.0003218689525965,0.7515929341316223,0.8950271010398865,4.0703125,0,"['C1', 'F2', 'F1']",6.1,90,0.0,0.1351457170645275,[10900|0|0]
109,10901,1.2962143421173096,-0.3128727972507477,-0.0032445816323161,-0.0048766946420073,0.7577123045921326,0.8870609402656555,4.0703125,0,"['C1', 'F2', 'F1']",6.1,90,0.0,0.1355872746132309,[11000|0|0]
110,11001,1.296536207199097,-0.3131682872772217,-0.0030326207634061,-0.0005610396037809,0.7510187029838562,0.8754515051841736,4.0703125,0,"['C1', 'F2', 'F1']",6.1,90,0.0,0.1360729070839003,[11100|0|0]
111,11101,1.2964022159576416,-0.3131217956542969,-0.0035044762771576,0.0022918770555406,0.7576038837432861,0.8786181807518005,4.06640625,0,"['C1', 'F2', 'F1']",6.1,90,0.0,0.1365656166836105,[11200|0|0]
112,11201,1.2962307929992676,-0.313065618276596,-0.0030247820541262,-0.0071574924513697,0.7595272660255432,0.8715566396713257,4.0703125,0,"['C1', 'F2', 'F1']",6.1,90,0.0,0.1370781089040712,[11300|0|0]
113,11301,1.2964023351669312,-0.3130853772163391,-0.0031064555514603,-0.0118136331439018,0.7496452927589417,0.8675341606140137,4.0703125,0,"['C1', 'F2', 'F1']",6.1,90,0.0,0.1372691264193762,[11400|0|0]
114,11401,1.2963000535964966,-0.3133484721183777,-0.0030744294635951,-0.0090179974213242,0.7509889006614685,0.8698106408119202,4.0703125,0,"['C1', 'F2', 'F1']",6.1,90,0.0,0.1375532146405913,[11500|0|0]
115,11501,1.296262264251709,-0.3130671083927154,-0.0031249918974936,-0.0161066111177206,0.7598869800567627,0.877175509929657,4.0703125,0,"['C1', 'F2', 'F1']",6.1,90,0.0,0.1378415723011793,[11600|0|0]
116,11602,1.2965835332870483,-0.3131131529808044,-0.0028670092578977,-0.0191120747476816,0.7554617524147034,0.8886079788208008,4.0703125,0,"['C1', 'F2', 'F1']",6.1,90,0.0,0.138256167211294,[11700|0|0]
117,11702,1.2963199615478516,-0.3131363093852997,-0.0030879070982337,-0.0213987492024898,0.7597938179969788,0.8797891139984131,4.06640625,0,"['C1', 'F2', 'F1']",6.1,90,0.0,0.1386008440695793,[11800|0|0]
118,11802,1.296294331550598,-0.313139796257019,-0.0033206634689122,-0.0161749757826328,0.7583014369010925,0.8833016753196716,4.0703125,0,"['C1', 'F2', 'F1']",6.1,90,0.0,0.1388350332732695,[11900|0|0]
119,11902,1.2962467670440674,-0.3129772245883941,-0.003153781639412,-0.0214410200715065,0.7568987607955933,0.9080569744110109,4.06640625,0,"['C1', 'F2', 'F1']",6.1,90,0.0,0.1390728177865128,[12000|0|0]
120,12002,1.2963173389434814,-0.3132346868515014,-0.0030996894929558,-0.0038914384786039,0.7561787962913513,0.9055203795433044,4.06640625,0,"['C1', 'F2', 'F1']",6.1,90,0.0,0.1393452020192053,[12100|0|0]
121,12102,1.2964240312576294,-0.3131804168224334,-0.0030203808564692,-0.0082539767026901,0.7500206232070923,0.8820931911468506,4.0703125,0,"['C1', 'F2', 'F1']",6.1,90,0.0,0.1394887929164608,[12200|0|0]
122,12202,1.2963167428970337,-0.3129209578037262,-0.0032566310837864,-0.0156868360936641,0.7526955008506775,0.8790985941886902,4.0703125,0,"['C1', 'F2', 'F1']",6.1,90,0.0,0.1398557315279686,[12300|0|0]
123,12302,1.2962833642959597,-0.3130561411380768,-0.0034252502955496,-0.01122822239995,0.74932461977005,0.8577265739440918,4.0703125,0,"['C1', 'F2', 'F1']",6.1,90,0.0,0.1400744118962494,[12400|0|0]
124,12402,1.296289086341858,-0.3131494522094726,-0.0033982810564339,-0.0123153394088149,0.741325318813324,0.8704692721366882,4.0703125,0,"['C1', 'F2', 'F1']",6.1,90,0.0,0.1401717105998008,[12500|0|0]
125,12502,1.2972030639648438,-0.3128653764724731,-0.0032228177879005,-0.0105539485812187,0.7458470463752747,0.8799149394035339,4.0703125,0,"['C1', 'F2', 'F1']",6.1,90,0.0,0.1411447683978144,[12600|0|0]
126,12600,1.2972443103790283,-0.3130356073379516,-0.002969748340547,-0.0073432298377156,0.7407279014587402,0.890838623046875,4.0703125,0,"['C1', 'F2', 'F1']",6.1,90,0.0,0.1414525409752616,[12700|0|0]
127,12700,1.2972499132156372,-0.312852680683136,-0.0034057099837809,-0.0070680873468518,0.7393404245376587,0.863243043422699,4.0703125,0,"['C1', 'F2', 'F1']",6.1,90,0.0,0.1419253581779851,[12800|0|0]
128,12800,1.2973324060440063,-0.3128990232944488,-0.0031135380268096,-0.0038897332269698,0.7403765916824341,0.8873507976531982,4.06640625,0,"['C1', 'F2', 'F1']",6.1,90,0.0,0.1422324691624778,[12900|0|0]
129,12900,1.2973535060882568,-0.3126378655433655,-0.00335368164815,-0.0033960212022066,0.7429355382919312,0.8665889501571655,4.0703125,0,"['C1', 'F2', 'F1']",6.1,90,0.0,0.142587880954191,[13000|0|0]
130,13000,1.297315239906311,-0.3131337761878967,-0.0029879927169531,0.0144420377910137,0.7492910623550415,0.8523408770561218,4.0703125,0,"['C1', 'F2', 'F1']",6.1,90,0.0,0.1432052301766252,[13100|0|0]
131,13100,1.2973129749298096,-0.3127511143684387,-0.0032012742012739,0.0051973829977214,0.7502414584159851,0.860933244228363,4.0703125,0,"['C1', 'F2', 'F1']",6.1,90,0.0,0.1436433217078644,[13200|0|0]
132,13200,1.2970784902572632,-0.3127965033054352,-0.0032738693989813,0.0150023782625794,0.7551923394203186,0.8595632314682007,4.0703125,0,"['C1', 'F2', 'F1']",6.1,90,0.0,0.1438929479885141,[13300|0|0]
133,13300,1.296945095062256,-0.3119826018810272,-0.0028287402819842,-0.3348544538021087,0.4850602149963379,0.8550266623497009,4.0703125,0,"['C1', 'F2', 'F1']",6.1,90,0.0,0.1448301618048351,[13400|0|0]
134,13400,1.2967685461044312,-0.3120399713516235,-0.0031639253720641,-0.2526922821998596,0.5522990226745605,0.8511871099472046,4.06640625,0,"['C1', 'F2', 'F1']",6.1,90,0.0,0.145213319520766,[13500|0|0]
135,13500,1.2968592643737793,-0.3124146461486816,-0.0024686236865818,-0.1817674338817596,0.5924065709114075,0.842046856880188,4.0703125,0,"['C1', 'F2', 'F1']",6.1,90,0.0,0.1460083386663081,[13600|0|0]
136,13600,1.2967169284820557,-0.3125270307064056,-0.0030082685407251,-0.1463602185249328,0.6247437000274658,0.8546969294548035,4.0703125,0,"['C1', 'F2', 'F1']",6.1,90,0.0,0.1465776420682749,[13700|0|0]
137,13700,1.296656608581543,-0.3123122751712799,-0.0029664060566574,-0.1203938722610473,0.6509441137313843,0.8350518941879272,4.0703125,0,"['C1', 'F2', 'F1']",6.1,90,0.0,0.1468046021921674,[13800|0|0]
138,13800,1.2968741655349731,-0.3129770159721374,-0.0025858669541776,-0.0805054977536201,0.6657484173774719,0.8548049330711365,4.06640625,0,"['C1', 'F2', 'F1']",6.1,90,0.0,0.1476008567801144,[13900|0|0]
139,13900,1.2967982292175293,-0.3128130435943603,-0.0028621114324778,-0.0683449208736419,0.6782757639884949,0.8477572798728943,4.0703125,0,"['C1', 'F2', 'F1']",6.1,90,0.0,0.1479309541547968,[14000|0|0]
140,14000,1.2966620922088623,-0.3126749992370605,-0.0031375952530652,-0.0669720992445945,0.6940268278121948,0.8515622615814209,4.0703125,0,"['C1', 'F2', 'F1']",6.1,90,0.0,0.1482678233654951,[14100|0|0]
141,14100,1.296567678451538,-0.3130628764629364,-0.0028307703323662,-0.0556971356272697,0.7008587718009949,0.882573664188385,4.06640625,0,"['C1', 'F2', 'F1']",6.1,90,0.0,0.148771315403056,[14200|0|0]
142,14200,1.296472430229187,-0.3126841783523559,-0.0030843326821923,-0.0691454038023948,0.7022543549537659,0.8639101982116699,4.0703125,0,"['C1', 'F2', 'F1']",6.1,90,0.0,0.149236910020795,[14300|0|0]
143,14300,1.296572208404541,-0.3128190040588379,-0.0025233200285583,-0.0700225979089737,0.698047399520874,0.8663561344146729,4.0703125,0,"['C1', 'F2', 'F1']",6.1,90,0.0,0.1498224600638679,[14400|0|0]
144,14400,1.296483278274536,-0.3127915263175964,-0.0031569288112223,-0.0740511491894722,0.7053832411766052,0.8924173712730408,4.06640625,0,"['C1', 'F2', 'F1']",6.1,90,0.0,0.1504628690611152,[14500|0|0]
145,14500,1.296506643295288,-0.3128924369812011,-0.0026211086660623,-0.0767790153622627,0.6965081095695496,0.8729302287101746,4.0703125,0,"['C1', 'F2', 'F1']",6.1,90,0.0,0.1510086090304991,[14600|0|0]
146,14600,1.2974878549575806,-0.3125424683094024,-0.0030423093121498,-0.0995280668139457,0.6868177056312561,0.8761720061302185,4.0703125,0,"['C1', 'F2', 'F1']",6.1,90,0.0,0.1521322924297375,[14700|0|0]
147,14700,1.297410011291504,-0.3124730288982391,-0.003341045230627,-0.0962748974561691,0.6902727484703064,0.9192826747894288,4.06640625,0,"['C1', 'F2', 'F1']",6.1,90,0.0,0.1524487171714366,[14800|0|0]
148,14800,1.2974694967269895,-0.3130314946174621,-0.0028720484115183,-0.0843724980950355,0.6861649751663208,0.8951947093009949,4.06640625,0,"['C1', 'F2', 'F1']",6.1,90,0.0,0.1531804141667266,[14900|0|0]
149,14900,1.2973928451538086,-0.3128511607646942,-0.0028173965401947,-0.0909838005900383,0.6866194605827332,0.8966324925422668,4.06640625,0,"['C1', 'F2', 'F1']",6.1,90,0.0,0.1533838412769269,[15000|0|0]
150,15000,1.2975867986679075,-0.3127407729625702,-0.002754996297881,-0.0959020033478736,0.6762683987617493,0.8954708576202393,4.06640625,0,"['C1', 'F2', 'F1']",6.1,90,0.0,0.1536155678889721,[15100|0|0]
151,15100,1.2978099584579468,-0.3127434849739074,-0.0029627955518662,-0.0933323055505752,0.671108603477478,0.8869243264198303,4.0703125,0,"['C1', 'F2', 'F1']",6.1,90,0.0,0.1539205075171817,[15200|0|0]
152,15200,1.297661542892456,-0.3129113614559173,-0.002732531633228,-0.0843137949705123,0.6766263246536255,0.8738240003585815,4.0703125,0,"['C1', 'F2', 'F1']",6.1,90,0.0,0.1542418035886152,[15300|0|0]
153,15300,1.2976059913635254,-0.3129955530166626,-0.002757585607469,-0.090692788362503,0.6744844913482666,0.8819802403450012,4.0703125,0,"['C1', 'F2', 'F1']",6.1,90,0.0,0.1543457357438537,[15400|0|0]
154,15400,1.2974931001663208,-0.3126548230648041,-0.0027885199524462,-0.1048608943819999,0.6770063638687134,0.887403666973114,4.0703125,0,"['C1', 'F2', 'F1']",6.1,90,0.0,0.1547060109944594,[15500|0|0]
155,15500,1.2973792552947998,-0.3128277957439422,-0.0029424871318042,-0.1034196019172668,0.6755722165107727,0.906632661819458,4.06640625,0,"['C1', 'F2', 'F1']",6.1,90,0.0,0.154964053810324,[15600|0|0]
156,15600,1.2979086637496948,-0.3128198385238647,-0.0028881125617772,-0.1107903271913528,0.6539903879165649,0.891241192817688,4.06640625,0,"['C1', 'F2', 'F1']",6.1,90,0.0,0.1554963067796265,[15700|0|0]
157,15700,1.2976016998291016,-0.3127923309803009,-0.0030955558177083,-0.1121552214026451,0.6726294159889221,0.8985680937767029,4.0703125,0,"['C1', 'F2', 'F1']",6.1,90,0.0,0.1558678121200056,[15800|0|0]
158,15800,1.297286868095398,-0.3125771582126617,-0.0033497246913611,-0.1164028942584991,0.6783796548843384,0.8876929879188538,4.06640625,0,"['C1', 'F2', 'F1']",6.1,90,0.0,0.1563260916818609,[15900|0|0]
159,15900,1.297490477561951,-0.312807947397232,-0.0028802226297557,-0.1100766733288765,0.6755574941635132,0.8802922964096069,4.06640625,0,"['C1', 'F2', 'F1']",6.1,90,0.0,0.1568874762634413,[16000|0|0]
160,16000,1.2975690364837646,-0.3128611445426941,-0.0028432123363018,-0.1066405773162841,0.6795077919960022,0.886311948299408,4.0703125,0,"['C1', 'F2', 'F1']",6.1,90,0.0,0.1569893153635131,[16100|0|0]
161,16100,1.2975695133209229,-0.3127466440200805,-0.0029400307685136,-0.1049072071909904,0.6787424087524414,0.8774346113204956,4.0703125,0,"['C1', 'F2', 'F1']",6.1,90,0.0,0.1571392633740648,[16200|0|0]
162,16200,1.2974196672439575,-0.3126200735569,-0.0031556193716824,-0.1136463657021522,0.680717945098877,0.8576604127883911,4.06640625,0,"['C1', 'F2', 'F1']",6.1,90,0.0,0.1574307292807295,[16300|0|0]
163,16300,1.2976617813110352,-0.3128753304481506,-0.0029334013815969,-0.1059038415551185,0.6658051013946533,0.8681314587593079,4.06640625,0,"['C1', 'F2', 'F1']",6.1,90,0.0,0.1578468496204456,[16400|0|0]
164,16400,1.297675609588623,-0.3127015829086303,-0.0029932691249996,-0.1121772602200508,0.6608195304870605,0.8860085606575012,4.06640625,0,"['C1', 'F2', 'F1']",6.1,90,0.0,0.1580311417131966,[16500|0|0]
165,16500,1.297536849975586,-0.3127518892288208,-0.0029852762818336,-0.1134075224399566,0.6583518385887146,0.8874258399009705,4.06640625,0,"['C1', 'F2', 'F1']",6.1,90,0.0,0.1581789552497999,[16600|0|0]
166,16600,1.297709584236145,-0.312824010848999,-0.0030173091217875,-0.1157558411359787,0.6504838466644287,0.9141514301300048,4.06640625,0,"['C1', 'F2', 'F1']",6.1,90,0.0,0.1583688624790028,[16700|0|0]
167,16700,1.2976479530334473,-0.3126440346240997,-0.0027903839945793,-0.1160877048969268,0.6570577621459961,0.9143320918083192,4.06640625,0,"['C1', 'F2', 'F1']",6.1,90,0.0,0.1586649787737815,[16800|0|0]
168,16800,1.2975627183914185,-0.312656044960022,-0.0031937123276293,-0.1190381050109863,0.654401957988739,0.8948129415512085,4.06640625,0,"['C1', 'F2', 'F1']",6.1,90,0.0,0.1590773898994942,[16900|0|0]
169,16900,1.297682523727417,-0.312900960445404,-0.0026632682420313,-0.1179433688521385,0.6509691476821899,0.8716346025466919,4.06640625,0,"['C1', 'F2', 'F1']",6.1,90,0.0,0.1596738023754365,[17000|0|0]
170,17000,1.297374963760376,-0.3123773634433746,-0.0033788413275033,-0.1334804743528366,0.6495105028152466,0.8721446990966797,4.0703125,0,"['C1', 'F2', 'F1']",6.1,90,0.0,0.1606123074604053,[17100|0|0]
171,17100,1.297596096992493,-0.3124856650829315,-0.0033176140859723,-0.1359268873929977,0.6427180171012878,0.88307785987854,4.06640625,0,"['C1', 'F2', 'F1']",6.1,90,0.0,0.1608660355167621,[17200|0|0]
172,17200,1.29742431640625,-0.3127754330635071,-0.0029584795702248,-0.1276980340480804,0.649499237537384,0.8819176554679871,4.06640625,0,"['C1', 'F2', 'F1']",6.1,90,0.0,0.1613584293152383,[17300|0|0]
173,17300,1.297490477561951,-0.3127383589744568,-0.0030117689166218,-0.1298117041587829,0.6498003005981445,0.8935124278068542,4.0703125,0,"['C1', 'F2', 'F1']",6.1,90,0.0,0.1614511198813277,[17400|0|0]
174,17400,1.2974438667297363,-0.3125275671482086,-0.0032087143044918,-0.1289880126714706,0.656574547290802,0.8770615458488464,4.06640625,0,"['C1', 'F2', 'F1']",6.1,90,0.0,0.161743341115149,[17500|0|0]
175,17500,1.2974913120269775,-0.3126287460327148,-0.0033985800109803,-0.1339191496372223,0.6531203389167786,0.8821597695350647,4.06640625,0,"['C1', 'F2', 'F1']",6.1,90,0.0,0.1619636527339997,[17600|0|0]
176,17600,1.2975190877914429,-0.3127866089344024,-0.0029054239857941,-0.1348849684000015,0.6428521275520325,0.8933395147323608,4.0703125,0,"['C1', 'F2', 'F1']",6.1,90,0.0,0.1624822036514594,[17700|0|0]
177,17700,1.297765851020813,-0.3128034174442291,-0.0028239402454346,-0.1316322982311248,0.647665798664093,0.9002499580383301,4.06640625,0,"['C1', 'F2', 'F1']",6.1,90,0.0,0.1627426152819883,[17800|0|0]
178,17800,1.2976568937301636,-0.3126957416534424,-0.0034177089110016,-0.1327072232961654,0.6526016592979431,0.9063071608543396,4.0703125,0,"['C1', 'F2', 'F1']",6.1,90,0.0,0.1633558256825169,[17900|0|0]
179,17900,1.2974337339401243,-0.3128368258476257,-0.0028969282284379,-0.1282791197299957,0.6614974737167358,0.916322946548462,4.06640625,0,"['C1', 'F2', 'F1']",6.1,90,0.0,0.1639397071440057,[18000|0|0]
180,18000,1.2973905801773071,-0.3129128813743591,-0.0030980063602328,-0.1259728819131851,0.6652745604515076,0.9071452021598816,4.0703125,0,"['C1', 'F2', 'F1']",6.1,90,0.0,0.1641589766254164,[18100|0|0]
181,18100,1.2973852157592771,-0.312783420085907,-0.0032317677978426,-0.1249152049422264,0.6673876643180847,0.8637687563896179,4.0703125,0,"['C1', 'F2', 'F1']",6.1,90,0.0,0.1643452053138077,[18200|0|0]
182,18200,1.297299027442932,-0.3124981224536896,-0.0034331525675952,-0.132719412446022,0.6683736443519592,0.8779679536819458,4.06640625,0,"['C1', 'F2', 'F1']",6.1,90,0.0,0.1647048982249299,[18300|0|0]
183,18300,1.2975168228149414,-0.3129975795745849,-0.0027998643927276,-0.1124724000692367,0.657842218875885,0.87220299243927,4.06640625,0,"['C1', 'F2', 'F1']",6.1,90,0.0,0.165540329940936,[18400|0|0]
184,18400,1.2976762056350708,-0.3129745721817016,-0.0028360160067677,-0.1082786992192268,0.6460403203964233,0.8756002187728882,4.06640625,0,"['C1', 'F2', 'F1']",6.1,90,0.0,0.1657053728525602,[18500|0|0]
185,18500,1.2975198030471802,-0.312823623418808,-0.0031186593696475,-0.10981035977602,0.6442766785621643,0.870738685131073,4.06640625,0,"['C1', 'F2', 'F1']",6.1,90,0.0,0.1660619322011938,[18600|0|0]
186,18600,1.297416925430298,-0.3127619326114654,-0.0028041056357324,-0.111866146326065,0.6419670581817627,0.8854988813400269,4.06640625,0,"['C1', 'F2', 'F1']",6.1,90,0.0,0.1663985827786267,[18700|0|0]
187,18700,1.2974348068237305,-0.3129149675369262,-0.0029738119337707,-0.1062864512205123,0.6341213583946228,0.8963623046875,4.06640625,0,"['C1', 'F2', 'F1']",6.1,90,0.0,0.1666277980927655,[18800|0|0]
188,18800,1.297559380531311,-0.3129003047943115,-0.0027268771082162,-0.0943771973252296,0.635725200176239,0.9121413826942444,4.06640625,0,"['C1', 'F2', 'F1']",6.1,90,0.0,0.1669047645396738,[18900|0|0]
189,18900,1.2974975109100342,-0.3129845857620239,-0.0030185112264007,-0.0933258011937141,0.6347419619560242,0.9115197658538818,4.06640625,0,"['C1', 'F2', 'F1']",6.1,90,0.0,0.1672145734976539,[19000|0|0]
190,19000,1.2975664138793943,-0.3129624128341675,-0.0026837070472538,-0.0996082946658134,0.6268291473388672,0.9225279688835144,4.06640625,0,"['C1', 'F2', 'F1']",6.1,90,0.0,0.167557112687077,[19100|0|0]
191,19100,1.2975867986679075,-0.3128724098205566,-0.0028642620891332,-0.1034828051924705,0.6242209672927856,0.9199687838554382,4.06640625,0,"['C1', 'F2', 'F1']",6.1,90,0.0,0.1677598839996679,[19200|0|0]
192,19200,1.2976219654083252,-0.3127748966217041,-0.0030161612667143,-0.1077384129166603,0.6213468313217163,0.8926374316215515,4.06640625,0,"['C1', 'F2', 'F1']",6.1,90,0.0,0.1679437831125854,[19300|0|0]
193,19300,1.2976261377334597,-0.3131397068500519,-0.0026054377667605,-0.1010711938142776,0.6227109432220459,0.8934211134910583,4.06640625,0,"['C1', 'F2', 'F1']",6.1,90,0.0,0.1684931442910631,[19400|0|0]
194,19400,1.2976211309432983,-0.3129434287548065,-0.003296292386949,-0.1105077415704727,0.6259745955467224,0.8888276219367981,4.06640625,0,"['C1', 'F2', 'F1']",6.1,90,0.0,0.169211357535759,[19500|0|0]
195,19500,1.2973417043685913,-0.3126252889633178,-0.0031191832385957,-0.1172989308834075,0.639075517654419,0.890953540802002,4.06640625,0,"['C1', 'F2', 'F1']",6.1,90,0.0,0.169670334428436,[19600|0|0]
196,19600,1.2973560094833374,-0.3129180073738098,-0.0029467702843248,-0.1099781692028045,0.6398200988769531,0.8990741968154907,4.06640625,0,"['C1', 'F2', 'F1']",6.1,90,0.0,0.1700103563850053,[19700|0|0]
197,19700,1.2974047660827637,-0.3128120303153991,-0.0032194317318499,-0.1042748689651489,0.6407992243766785,0.8982613682746887,4.06640625,0,"['C1', 'F2', 'F1']",6.1,90,0.0,0.1703069244343016,[19800|0|0]
198,19800,1.297473430633545,-0.3129379451274872,-0.0025797095149755,-0.1062651947140693,0.6385549306869507,0.8979924321174622,4.06640625,0,"['C1', 'F2', 'F1']",6.1,90,0.0,0.1709625263525415,[19900|0|0]
199,19900,1.297595739364624,-0.3128152191638946,-0.0028054672293365,-0.1144283562898635,0.6345890760421753,0.9024969935417176,4.06640625,0,"['C1', 'F2', 'F1']",6.1,90,0.0,0.1712471096152809,[20000|0|0]
200,20000,1.297362208366394,-0.3126091957092285,-0.0033951171208173,-0.1195262521505355,0.6388605833053589,0.8872156739234924,4.06640625,0,"['C1', 'F2', 'F1']",6.1,90,0.0,0.171913944966421,[20100|0|0]
201,20100,1.2977080345153809,-0.31277596950531,-0.003000080352649,-0.1178899630904197,0.6341405510902405,0.8685126900672913,4.0703125,0,"['C1', 'F2', 'F1']",6.1,90,0.0,0.1724648199727403,[20200|0|0]
202,20200,1.2975114583969116,-0.3128374218940735,-0.0028216019272804,-0.1159155741333961,0.6503384709358215,0.8869003653526306,4.06640625,0,"['C1', 'F2', 'F1']",6.1,90,0.0,0.1727373509154958,[20300|0|0]
203,20300,1.2975763082504272,-0.3130304217338562,-0.0027502188459038,-0.1125751882791519,0.6403891444206238,0.8827536106109619,4.06640625,0,"['C1', 'F2', 'F1']",6.1,90,0.0,0.1729531053730719,[20400|0|0]
204,20400,1.2975242137908936,-0.3128714859485626,-0.0029822182841598,-0.1128592640161514,0.6480391621589661,0.8762397170066833,4.06640625,0,"['C1', 'F2', 'F1']",6.1,90,0.0,0.1732391091421242,[20500|0|0]
205,20500,1.297577142715454,-0.3126554787158966,-0.0029055487830191,-0.1146295741200447,0.6453120112419128,0.8771861791610718,4.06640625,0,"['C1', 'F2', 'F1']",6.1,90,0.0,0.1734743511622319,[20600|0|0]
206,20600,1.2975761890411377,-0.3126992285251617,-0.0031467708759009,-0.1113777458667755,0.6503235101699829,0.8575641512870789,4.06640625,0,"['C1', 'F2', 'F1']",6.1,90,0.0,0.173719510403134,[20700|0|0]
207,20700,1.2974903583526611,-0.312930017709732,-0.0028995615430176,-0.1038706377148628,0.6529805064201355,0.867989718914032,4.06640625,0,"['C1', 'F2', 'F1']",6.1,90,0.0,0.1740684273116718,[20800|0|0]
208,20800,1.297330021858215,-0.3125993311405182,-0.0030894023366272,-0.1112723052501678,0.6581880450248718,0.8543897271156311,4.06640625,0,"['C1', 'F2', 'F1']",6.1,90,0.0,0.1744820707879022,[20900|0|0]
209,20900,1.2974956035614014,-0.3126903772354126,-0.0031485923100262,-0.108192041516304,0.6556230783462524,0.8470588326454163,4.06640625,0,"['C1', 'F2', 'F1']",6.1,90,0.0,0.1746800863044066,[21000|0|0]
210,21000,1.297334909439087,-0.3126832842826843,-0.0031435331329703,-0.1152242422103881,0.6605731248855591,0.8243928551673889,4.06640625,0,"['C1', 'F2', 'F1']",6.1,90,0.0,0.1748410164327148,[21100|0|0]
211,21100,1.2972066402435305,-0.3126102685928345,-0.0031216640491038,-0.1174702420830726,0.6576306819915771,0.8272832632064819,4.06640625,0,"['C1', 'F2', 'F1']",6.1,90,0.0,0.1749902227808443,[21200|0|0]
212,21200,1.2973949909210205,-0.3125896155834198,-0.0029649217613041,-0.1181233376264572,0.6491847038269043,0.8410598635673523,4.06640625,0,"['C1', 'F2', 'F1']",6.1,90,0.0,0.1752361306280017,[21300|0|0]
213,21300,1.2975231409072876,-0.3126604855060577,-0.0029736722353845,-0.1273031681776046,0.6456485390663147,0.8565203547477722,4.0703125,0,"['C1', 'F2', 'F1']",6.1,90,0.0,0.1753828328287746,[21400|0|0]
214,21400,1.2975174188613892,-0.3129730820655823,-0.0028913980349898,-0.1162231042981147,0.6462948322296143,0.8726422190666199,4.06640625,0,"['C1', 'F2', 'F1']",6.1,90,0.0,0.1757061258767766,[21500|0|0]
215,21500,1.2974436283111572,-0.3128045499324798,-0.0031872657127678,-0.1199791654944419,0.6455074548721313,0.8487314581871033,4.06640625,0,"['C1', 'F2', 'F1']",6.1,90,0.0,0.1760545305379758,[21600|0|0]
216,21600,1.2974679470062256,-0.3128437995910644,-0.0029375990852713,-0.1225955486297607,0.6486420035362244,0.8507543802261353,4.06640625,0,"['C1', 'F2', 'F1']",6.1,90,0.0,0.176308430832411,[21700|0|0]
217,21700,1.297558069229126,-0.3128869831562042,-0.0029451986774802,-0.1228246837854385,0.6493184566497803,0.8514853119850159,4.06640625,0,"['C1', 'F2', 'F1']",6.1,90,0.0,0.1764086535302416,[21800|0|0]
218,21800,1.297675848007202,-0.3127251863479614,-0.0030084769241511,-0.1239658966660499,0.6540555953979492,0.8495165705680847,4.06640625,0,"['C1', 'F2', 'F1']",6.1,90,0.0,0.1766185444167146,[21900|0|0]
219,21900,1.297353982925415,-0.31270432472229,-0.0030305183026939,-0.1124266684055328,0.671868622303009,0.8428422808647156,4.06640625,0,"['C1', 'F2', 'F1']",6.1,90,0.0,0.1769418371024771,[22000|0|0]
220,22000,1.2975260019302368,-0.3130587041378021,-0.0028239551465958,-0.1103613227605819,0.6633820533752441,0.8565047383308411,4.06640625,0,"['C1', 'F2', 'F1']",6.1,90,0.0,0.177386633286831,[22100|0|0]
221,22100,1.2975443601608276,-0.3125706315040588,-0.003179389052093,-0.132184088230133,0.6570071578025818,0.8802278637886047,4.06640625,0,"['C1', 'F2', 'F1']",6.1,90,0.0,0.1779906905536663,[22200|0|0]
222,22200,1.2974450588226318,-0.3125101625919342,-0.003201748477295,-0.1284152865409851,0.6605502963066101,0.8866432309150696,4.06640625,0,"['C1', 'F2', 'F1']",6.1,90,0.0,0.1781090847638134,[22300|0|0]
223,22300,1.2976796627044678,-0.31291064620018,-0.002996316878125,-0.1231133639812469,0.6529016494750977,0.8609017729759216,4.06640625,0,"['C1', 'F2', 'F1']",6.1,90,0.0,0.1786166556886936,[22400|0|0]
224,22400,1.2974932193756104,-0.3127965033054352,-0.0029746536165475,-0.1272437423467636,0.6477838158607483,0.8804493546485901,4.06640625,0,"['C1', 'F2', 'F1']",6.1,90,0.0,0.1788363350281826,[22500|0|0]
225,22500,1.2973169088363647,-0.3126228153705597,-0.0029449213761836,-0.1317053437232971,0.6549303531646729,0.8860073685646057,4.06640625,0,"['C1', 'F2', 'F1']",6.1,90,0.0,0.1790856077926144,[22600|0|0]
226,22600,1.2975456714630127,-0.3129756152629852,-0.0029109937604516,-0.1244612708687782,0.6407181620597839,0.898144543170929,4.06640625,0,"['C1', 'F2', 'F1']",6.1,90,0.0,0.1795074504013627,[22700|0|0]
227,22700,1.2975547313690186,-0.3130324780941009,-0.0027797594666481,-0.1250916421413421,0.6410076022148132,0.9003478288650513,4.06640625,0,"['C1', 'F2', 'F1']",6.1,90,0.0,0.1796507609150365,[22800|0|0]
228,22800,1.2976428270339966,-0.3127727210521698,-0.0026096706278622,-0.1229999437928199,0.6413869261741638,0.9002526998519897,4.06640625,0,"['C1', 'F2', 'F1']",6.1,90,0.0,0.1799735066045511,[22900|0|0]
229,22900,1.2975807189941406,-0.3126900196075439,-0.0030437004752457,-0.1325143724679947,0.6426131129264832,0.896528959274292,4.06640625,0,"['C1', 'F2', 'F1']",6.1,90,0.0,0.1804196891299571,[23000|0|0]
230,23000,1.2974674701690674,-0.3127381801605224,-0.0029701371677219,-0.1297759860754013,0.6430291533470154,0.8652370572090149,4.06640625,0,"['C1', 'F2', 'F1']",6.1,90,0.0,0.1805630637980736,[23100|0|0]
231,23100,1.2974870204925537,-0.3126867115497589,-0.0030543487519025,-0.1295682191848755,0.6366385221481323,0.8487334251403809,4.06640625,0,"['C1', 'F2', 'F1']",6.1,90,0.0,0.1806636760436133,[23200|0|0]
232,23200,1.2976001501083374,-0.3129929006099701,-0.0029113886412233,-0.1246583461761474,0.6339311003684998,0.8682045936584473,4.06640625,0,"['C1', 'F2', 'F1']",6.1,90,0.0,0.1810200293006573,[23300|0|0]
233,23300,1.2973777055740356,-0.3126198649406433,-0.0031951423734426,-0.1321952193975448,0.6342892050743103,0.8724837899208069,4.06640625,0,"['C1', 'F2', 'F1']",6.1,90,0.0,0.1815388292254637,[23400|0|0]
234,23400,1.297588586807251,-0.3126792013645172,-0.0031203748658299,-0.1304070353507995,0.630280613899231,0.8849992156028748,4.06640625,0,"['C1', 'F2', 'F1']",6.1,90,0.0,0.1817703068397489,[23500|0|0]
235,23500,1.2975826263427734,-0.312857449054718,-0.0030459417030215,-0.1287881731986999,0.6277745366096497,0.9031030535697936,4.06640625,0,"['C1', 'F2', 'F1']",6.1,90,0.0,0.1819635633064567,[23600|0|0]
236,23600,1.2973304986953735,-0.3128926455974579,-0.0028257956728339,-0.1205996572971344,0.6364912986755371,0.8976460099220276,4.06640625,0,"['C1', 'F2', 'F1']",6.1,90,0.0,0.1823001215061958,[23700|0|0]
237,23700,1.2975873947143557,-0.312758207321167,-0.0028102181386202,-0.1271816194057464,0.6291328072547913,0.8947130441665649,4.06640625,0,"['C1', 'F2', 'F1']",6.1,90,0.0,0.1825904865768793,[23800|0|0]
238,23800,1.2975832223892212,-0.3128275275230407,-0.0027808151207864,-0.1298887431621551,0.6294829249382019,0.8903131484985352,4.06640625,0,"['C1', 'F2', 'F1']",6.1,90,0.0,0.1826659003431463,[23900|0|0]
239,23900,1.297521471977234,-0.3126929700374603,-0.0029121809639036,-0.1274743825197219,0.6398705244064331,0.897804856300354,4.06640625,0,"['C1', 'F2', 'F1']",6.1,90,0.0,0.1828638291562187,[24000|0|0]
240,24000,1.2975754737854004,-0.3128894865512848,-0.0028321295976638,-0.1259285360574722,0.6420243382453918,0.9045939445495604,4.06640625,0,"['C1', 'F2', 'F1']",6.1,90,0.0,0.1830827884143647,[24100|0|0]
241,24100,1.2976322174072266,-0.3126532435417175,-0.0031164332758635,-0.1370961815118789,0.6440879106521606,0.8986193537712097,4.06640625,0,"['C1', 'F2', 'F1']",6.1,90,0.0,0.1834567659265565,[24200|0|0]
242,24200,1.2974272966384888,-0.3129727840423584,-0.0027084928005933,-0.1251621097326278,0.6503394246101379,0.8565906286239624,4.06640625,0,"['C1', 'F2', 'F1']",6.1,90,0.0,0.1840140038329964,[24300|0|0]
243,24300,1.2976638078689575,-0.312845230102539,-0.0030161216855049,-0.1263890266418457,0.647294819355011,0.8638032674789429,4.06640625,0,"['C1', 'F2', 'F1']",6.1,90,0.0,0.1844224681527762,[24400|0|0]
244,24400,1.2974014282226562,-0.312721312046051,-0.0032017985358834,-0.1351560950279235,0.6511495113372803,0.8492358326911926,4.06640625,0,"['C1', 'F2', 'F1']",6.1,90,0.0,0.1847669600340789,[24500|0|0]
245,24500,1.2974767684936523,-0.3127585351467132,-0.0031782609876245,-0.1326880306005478,0.6544220447540283,0.8639929294586182,4.06640625,0,"['C1', 'F2', 'F1']",6.1,90,0.0,0.1848542281945655,[24600|0|0]
246,24600,1.2974658012390137,-0.3127424120903015,-0.0032718107104301,-0.1333650648593902,0.6508365273475647,0.8403446674346924,4.06640625,0,"['C1', 'F2', 'F1']",6.1,90,0.0,0.1849497885642768,[24700|0|0]
247,24700,1.2974941730499268,-0.3128156363964081,-0.0028387517668306,-0.1211770623922348,0.6516420245170593,0.8727918863296509,4.06640625,0,"['C1', 'F2', 'F1']",6.1,90,0.0,0.1853899099194629,[24800|0|0]
248,24800,1.2977391481399536,-0.3128784596920013,-0.0028071701526641,-0.1267033517360687,0.6376433372497559,0.8933156728744507,4.06640625,0,"['C1', 'F2', 'F1']",6.1,90,0.0,0.1856447764719099,[24900|0|0]
249,24900,1.2975215911865234,-0.3127541840076446,-0.0027746527921408,-0.1220076754689216,0.6500170826911926,0.8821960687637329,4.06640625,0,"['C1', 'F2', 'F1']",6.1,90,0.0,0.1858974281143814,[25000|0|0]
250,25000,1.2975605726242063,-0.3126022517681122,-0.0031382904853671,-0.1277621984481811,0.652503490447998,0.8798356652259827,4.06640625,0,"['C1', 'F2', 'F1']",6.1,90,0.0,0.186293452519978,[25100|0|0]
251,25100,1.2974445819854736,-0.3125887215137481,-0.0032359634060412,-0.1264588683843612,0.6571785807609558,0.8834320902824402,4.06640625,0,"['C1', 'F2', 'F1']",6.1,90,0.0,0.1864456921189325,[25200|0|0]
252,25200,1.2976349592208862,-0.3128739297389984,-0.0028814347460865,-0.1181384548544883,0.6549533009529114,0.874358594417572,4.06640625,0,"['C1', 'F2', 'F1']",6.1,90,0.0,0.1869389241071926,[25300|0|0]
253,25300,1.2974343299865725,-0.3126685619354248,-0.0032215893734246,-0.1233029291033744,0.6648128032684326,0.8819734454154968,4.06640625,0,"['C1', 'F2', 'F1']",6.1,90,0.0,0.1873840456579015,[25400|0|0]
254,25400,1.2975977659225464,-0.3128219842910766,-0.0034757147077471,-0.1183824464678764,0.6650295257568359,0.8904463648796082,4.06640625,0,"['C1', 'F2', 'F1']",6.1,90,0.0,0.1877229105423702,[25500|0|0]
255,25500,1.2973698377609253,-0.3126316666603088,-0.0028892259579151,-0.1187290102243423,0.6746741533279419,0.8897836804389954,4.06640625,0,"['C1', 'F2', 'F1']",6.1,90,0.0,0.1883802849418721,[25600|0|0]
256,25600,1.2987195253372192,-0.3126321732997894,-0.0030501089058816,-0.1145780682563781,0.6647910475730896,0.8961285352706909,4.06640625,0,"['C1', 'F2', 'F1']",6.1,90,0.0,0.1897395274269468,[25700|0|0]
257,25700,1.2975188493728638,-0.3126597702503204,-0.0032097666990011,-0.1086485534906387,0.6779600381851196,0.8855042457580566,4.06640625,0,"['C1', 'F2', 'F1']",6.1,90,0.0,0.190951086329338,[25800|0|0]
258,25800,1.297474026679993,-0.312950998544693,-0.002712785732001,-0.1039918288588523,0.6715388894081116,0.8897823691368103,4.06640625,0,"['E1B', 'F2', 'G1']",6.1,90,0.0,0.1915288519174443,[25800|0|0]
259,25900,1.2982118129730225,-0.312812328338623,-0.0030916100367903,0.1825782507658004,0.8903886079788208,0.9661881327629088,2.97265625,0,"['E1B', 'F2', 'G1']",6.1,90,0.0,0.1923697240207592,[25800|0|0]
260,26000,1.298803210258484,-0.3142488002777099,0.0051663913764059,5.026340007781982,-2.224632501602173,3.1332802772521973,3.330078125,0,"['E1B', 'F2', 'G1']",6.1,90,0.0,0.2007725681655347,[25800|0|0]
261,26100,1.3066295385360718,-0.3247071504592895,0.0442912280559539,6.748351573944092,-6.913549423217773,7.3235907554626465,3.484375,0,"['E1B', 'F2', 'G1']",6.1,90,0.0,0.2420203723256403,[25800|0|0]
262,26200,1.3258317708969116,-0.341454803943634,0.090543583035469,0.7541729807853699,0.2167632281780243,6.291171550750732,3.37890625,0,"['E1B', 'F2', 'G1']",6.1,90,0.0,0.2948265269482071,[25800|0|0]
263,26300,1.3469449281692505,-0.3584915697574615,0.1540845036506652,-5.248203754425049,5.858267784118652,3.434417486190796,3.416015625,0,"['E1B', 'F2', 'G1']",6.1,90,0.0,0.3639167968277522,[25800|0|0]
264,26400,1.357983112335205,-0.3658390343189239,0.2296677082777023,-6.8621745109558105,8.235416412353516,0.4389724731445312,3.48828125,0,"['E1B', 'F2', 'G1']",6.1,90,0.0,0.4406543206792294,[25800|0|0]
265,26500,1.3570826053619385,-0.3601722121238708,0.3124151229858398,-5.854912757873535,7.152768611907959,-1.944401502609253,3.419921875,0,"['E1B', 'F2', 'G1']",6.1,90,0.0,0.5236004382947016,[25800|0|0]
266,26600,1.3501447439193726,-0.3380194902420044,0.3990491926670074,-3.883960723876953,4.569533348083496,-1.3383780717849731,3.404296875,0,"['E1B', 'F2', 'G1']",6.1,90,0.0,0.613290677661608,[25800|0|0]
267,26700,1.3322405815124512,-0.3153668344020843,0.4846765995025635,-0.5519511103630066,1.5915179252624512,1.1906578540802002,3.431640625,0,"['E1B', 'F2', 'G1']",6.1,90,0.0,0.703655242893103,[25800|0|0]
268,26800,1.315853714942932,-0.2922102510929107,0.5751698613166809,2.043787956237793,-0.5654820799827576,2.966119766235352,3.431640625,0,"['E1B', 'F2', 'G1']",6.1,90,0.0,0.798490822610213,[25800|0|0]
269,26900,1.2978084087371826,-0.269204169511795,0.6624767184257507,4.227035045623779,-1.165250539779663,2.761612892150879,3.298828125,0,"['E1B', 'F2', 'G1']",6.1,90,0.0,0.8905636207866546,[25800|0|0]
270,27000,1.2809844017028809,-0.2526116073131561,0.7498722076416016,5.449139595031738,-1.465135097503662,1.3256258964538574,3.341796875,0,"['E1B', 'F2', 'G1']",6.1,90,0.0,0.9810972160333024,[25800|0|0]
271,27100,1.2662670612335205,-0.2446595281362533,0.8440892100334167,5.316588878631592,-1.6991565227508545,-0.0641829222440719,3.330078125,0,"['E1B', 'F2', 'G1']",6.1,90,0.0,1.0767877548207192,[25800|0|0]
272,27200,1.2527930736541748,-0.2460193783044815,0.941035807132721,4.464570999145508,-1.2561359405517578,3.802202224731445,3.3515625,0,"['E1B', 'F2', 'G1']",6.1,90,0.0,1.174675651022973,[25800|0|0]
273,27300,1.2413331270217896,-0.2536329627037048,1.0424880981445312,3.024600028991699,-1.8869848251342771,7.714014530181885,3.419921875,0,"['E1B', 'F2', 'G1']",6.1,90,0.0,1.2770566277509094,[25800|0|0]
274,27400,1.231258988380432,-0.2655010223388672,1.1420843601226809,1.2155108451843262,-1.5127016305923462,8.988078117370605,3.36328125,0,"['E1B', 'F2', 'G1']",6.1,90,0.0,1.377862155917222,[25800|0|0]
275,27500,1.2220429182052612,-0.2790421843528747,1.2411830425262451,0.3677493035793304,-1.0687922239303589,8.171709060668945,3.3515625,0,"['E1B', 'F2', 'G1']",6.1,90,0.0,1.4783054128949096,[25800|0|0]
276,27601,1.2142508029937744,-0.2960165143013,1.341102957725525,-1.1654762029647827,-1.2954219579696655,0.8061790466308594,3.345703125,0,"['E1B', 'F2', 'G1']",6.1,90,0.0,1.5799559632628164,[25800|0|0]
277,27701,1.2068461179733276,-0.3084772527217865,1.4394692182540894,-2.185904264450073,0.2453139871358871,-4.636201858520508,3.47265625,0,"['E1B', 'F2', 'G1']",6.1,90,0.0,1.6793844328910332,[25800|0|0]
278,27801,1.2003068923950195,-0.3164231777191162,1.5343743562698364,-2.148286819458008,0.2220200896263122,-6.680177688598633,3.60546875,0,"['E1B', 'F2', 'G1']",6.1,90,0.0,1.7748458618401914,[25800|0|0]
279,27901,1.1909011602401731,-0.3146944642066955,1.622242093086243,-2.096897840499878,-0.3661026656627655,0.4803485572338104,3.599609375,0,"['E1B', 'F2', 'G1']",6.1,90,0.0,1.8632324865127847,[25800|0|0]
280,28001,1.1817667484283447,-0.3178867399692535,1.676160216331482,-1.709818720817566,-0.3415814042091369,4.174025535583496,3.541015625,0,"['E1B', 'F2', 'G1']",6.1,90,0.0,1.918011972800821,[25800|0|0]
281,28102,1.1752876043319702,-0.3213774859905243,1.7210538387298584,-1.4073387384414673,-1.2205758094787598,5.155425548553467,3.515625,0,"['E1B', 'F2', 'G1']",6.1,90,0.0,1.963504850793476,[25800|0|0]
282,28202,1.167988896369934,-0.3220899105072021,1.751060962677002,-0.6493962407112122,-1.4467439651489258,5.123610496520996,3.46875,0,"['E1B', 'F2', 'G1']",6.1,90,0.0,1.994395078604004,[25800|0|0]
283,28301,1.1587601900100708,-0.3198029398918152,1.7640364170074463,0.0643255338072776,-1.4439289569854736,3.656187295913696,3.435546875,0,"['E1B', 'F2', 'G1']",6.1,90,0.0,2.010481149309856,[25800|0|0]
284,28402,1.152758240699768,-0.3173452019691467,1.7740859985351562,0.2616653144359588,-2.358817338943481,2.101365327835083,3.37890625,0,"['E1B', 'F2', 'G1']",6.1,90,0.0,2.022441833241055,[25800|0|0]
285,28502,1.1518954038619995,-0.3151828646659851,1.778596043586731,0.111698530614376,-1.9823715686798096,-2.660581111907959,3.373046875,0,"['E1B', 'F2', 'G1']",6.1,90,0.0,2.027517332860648,[25800|0|0]
286,28602,1.1439924240112305,-0.3144562244415283,1.7735334634780884,0.0536162964999675,-2.5510873794555664,-3.2441060543060303,3.3515625,0,"['E1B', 'F2', 'G1']",6.1,90,0.0,2.0369308770334813,[25800|0|0]
287,28702,1.140156388282776,-0.3128500282764435,1.7654060125350952,-0.3095770478248596,-3.7348923683166495,-6.80049991607666,3.357421875,0,"['E1B', 'F2', 'G1']",6.1,90,0.0,2.0460605262634064,[25800|0|0]
288,28802,1.1422064304351809,-0.3119840621948242,1.756855010986328,-0.3108250200748443,-3.715389251708984,-9.328886032104492,3.3515625,0,"['E1B', 'F2', 'G1']",6.1,90,-40.7461635638808,2.054896373566759,[25800|0|0]
289,28901,1.1596745252609253,-0.3350510895252228,1.7546230554580688,-6.9812211990356445,5.047201633453369,-8.091412544250488,3.23046875,0,"['E1B', 'F2', 'G1']",6.1,90,-40.7461635638808,2.0839171198042816,[25800|0|0]
290,29001,1.1612406969070437,-0.3355331718921661,1.7525582313537598,-13.51280689239502,14.48777961730957,-9.806595802307127,3.326171875,0,"['E1B', 'F2', 'G1']",6.1,90,-40.7461635638808,2.0865531766351104,[25800|0|0]
291,29100,1.1505063772201538,-0.2986843585968017,1.752934217453003,-19.02452278137207,16.13986587524414,-5.4676690101623535,3.29296875,0,"['E1B', 'F2', 'G1']",6.1,90,-40.7461635638808,2.1249354906086557,[25800|0|0]
292,29200,1.1155790090560913,-0.21207195520401,1.7548991441726685,-15.613895416259766,17.63712501525879,-7.825893878936768,3.2890625,0,"['E1B', 'F2', 'G1']",6.1,90,-40.7461635638808,2.2183458241128093,[25800|0|0]
293,29301,1.1215578317642212,-0.1143015250563621,1.7517085075378418,-6.391794681549072,10.533316612243652,-9.698529243469238,3.3046875,0,"['E1B', 'F2', 'G1']",6.1,90,-40.7461635638808,2.316350841812756,[25800|0|0]
294,29400,1.093186855316162,0.0081512946635484,1.7560772895812988,2.6656785011291504,10.59646701812744,-8.882973670959473,3.283203125,0,"['E1B', 'F2', 'G1']",6.1,90,-40.7461635638808,2.4421232220021936,[25800|0|0]
295,29500,1.048040509223938,0.1249657571315765,1.7651619911193848,10.649340629577637,6.27856969833374,-8.069174766540527,3.314453125,0,"['E1B', 'F2', 'G1']",6.1,90,-40.7461635638808,2.567687321207378,[25800|0|0]
296,29600,0.996936559677124,0.2235748618841171,1.777416467666626,14.843025207519531,2.2993433475494385,-11.351166725158691,3.326171875,0,"['E1B', 'F2', 'G1']",6.1,90,-40.7461635638808,2.679426040525382,[25800|0|0]
297,29700,0.9379920959472656,0.2954387366771698,1.778483748435974,15.636786460876465,-1.013979434967041,-13.970256805419922,3.41015625,0,"['E1B', 'F2', 'G1']",6.1,90,-40.7461635638808,2.772377669843608,[25800|0|0]
