time.ms,stateEstimate.x,stateEstimate.y,stateEstimate.z,stabilizer.roll,stabilizer.pitch,stabilizer.yaw,pm.vbat,drone_id,node_name,wind_speed,global_wind_direction,relative_wind_direction,travel_dist,waiting_time
0,0.6411017775535583,0.3961215913295746,-0.026652004569768906,-0.7143096923828125,0.6509121060371399,-2.368863582611084,4.1171875,0,"['F2', 'B2', 'A1']",6.1,180,0,0.07330098273859377,[100|0|0]
100,0.6409619450569153,0.39606425166130066,-0.026845835149288177,-0.7183862328529358,0.6603211164474487,-2.3561959266662598,4.1171875,0,"['F2', 'B2', 'A1']",6.1,180,0,0.07354676975662355,[200|0|0]
200,0.6410900354385376,0.3957531452178955,-0.0265165027230978,-0.7099159955978394,0.6524640917778015,-2.359511137008667,4.1171875,0,"['F2', 'B2', 'A1']",6.1,180,0,0.07401757142604794,[300|0|0]
300,0.6412582993507385,0.3959576487541199,-0.026482347398996353,-0.7148534655570984,0.6495062112808228,-2.341470718383789,4.1171875,0,"['F2', 'B2', 'A1']",6.1,180,0,0.07428459394689947,[400|0|0]
400,0.6410462260246277,0.3958921432495117,-0.026600724086165428,-0.7085702419281006,0.6471462249755859,-2.337648868560791,4.11328125,0,"['F2', 'B2', 'A1']",6.1,180,0,0.0745361473345666,[500|0|0]
500,0.6409220695495605,0.39594635367393494,-0.02670738846063614,-0.7104434967041016,0.6615886092185974,-2.338059902191162,4.1171875,0,"['F2', 'B2', 'A1']",6.1,180,0,0.0747085738093275,[600|0|0]
600,0.5028464794158936,0.4359414577484131,0.08339955657720566,1.292458176612854,-2.9953887462615967,0.17055661976337433,4.1171875,0,"['F2', 'B2', 'A1']",6.1,180,0,0.2557831890546872,[700|0|0]
700,0.6576550602912903,0.3903636932373047,-0.04005833715200424,-0.17539861798286438,-0.5863993763923645,-1.7855688333511353,4.1171875,0,"['F2', 'B2', 'A1']",6.1,180,0,0.4589700017530934,[800|0|0]
800,0.6585816740989685,0.3902326226234436,-0.03977994620800018,1.4460879564285278,7.182126045227051,-1.9622933864593506,4.11328125,0,"['F2', 'B2', 'A1']",6.1,180,0,0.4599463695998096,[900|0|0]
900,0.6474272012710571,0.3931211829185486,-0.033546026796102524,1.9302589893341064,11.922636032104492,-2.473562479019165,4.1171875,0,"['F2', 'B2', 'A1']",6.1,180,0,0.47304704881430476,[1000|0|0]
1000,0.6415098905563354,0.3950834572315216,-0.029784323647618294,1.7492039203643799,11.839834213256836,-2.893503427505493,4.11328125,0,"['F2', 'B2', 'A1']",6.1,180,0,0.4803282229745093,[1100|0|0]
1100,0.6320772171020508,0.3915163576602936,-0.03330196440219879,1.9158564805984497,11.097485542297363,-3.4722673892974854,4.1171875,0,"['F2', 'B2', 'A1']",6.1,180,0,0.4910087344006774,[1200|0|0]
1200,0.6312862038612366,0.39136698842048645,-0.03190531209111214,1.49160635471344,9.542323112487793,-3.550060272216797,4.1171875,0,"['F2', 'B2', 'A1']",6.1,180,0,0.4926207675253394,[1300|0|0]
1300,0.6307995915412903,0.3917628228664398,-0.031189873814582825,1.1036916971206665,8.182486534118652,-3.5458173751831055,4.1171875,0,"['F2', 'B2', 'A1']",6.1,180,0,0.49357225498508334,[1400|0|0]
1400,0.630563497543335,0.39193233847618103,-0.03065260499715805,0.7995609045028687,6.9905171394348145,-3.508692979812622,4.11328125,0,"['F2', 'B2', 'A1']",6.1,180,0,0.49418310169252594,[1500|0|0]
1500,0.6369957327842712,0.3968161940574646,-0.025848546996712685,0.3405907452106476,5.754958629608154,-3.267585515975952,4.11328125,0,"['F2', 'B2', 'A1']",6.1,180,0,0.5035801580829719,[1600|0|0]
1600,0.6309329867362976,0.39208534359931946,-0.030766215175390244,0.3730262815952301,5.1522979736328125,-3.3436031341552734,4.11328125,0,"['F2', 'B2', 'A1']",6.1,180,0,0.5127082080398427,[1700|0|0]
1700,0.6320123672485352,0.3912849724292755,-0.030462196096777916,0.22942833602428436,4.402884483337402,-3.247279644012451,4.1171875,0,"['F2', 'B2', 'A1']",6.1,180,0,0.5140859176972801,[1800|0|0]
1800,0.6324217915534973,0.39150840044021606,-0.030000708997249603,0.076928049325943,3.782564640045166,-3.1399447917938232,4.1171875,0,"['F2', 'B2', 'A1']",6.1,180,0,0.5147420569207667,[1900|0|0]
1900,0.6350067257881165,0.39157018065452576,-0.029837915673851967,-0.051423829048871994,3.2254936695098877,-3.0457520484924316,4.11328125,0,"['F2', 'B2', 'A1']",6.1,180,0,0.5173328489730799,[2000|0|0]
2000,0.6335577964782715,0.391677588224411,-0.029620282351970673,-0.16766846179962158,2.780322551727295,-2.981229543685913,4.1171875,0,"['F2', 'B2', 'A1']",6.1,180,0,0.5188019632619593,[2100|0|0]
2100,0.6347859501838684,0.3915535509586334,-0.029740603640675545,-0.25334176421165466,2.3786087036132812,-2.8954339027404785,4.1171875,0,"['F2', 'B2', 'A1']",6.1,180,0,0.5200422148414336,[2200|0|0]
2200,0.6349701285362244,0.3915296196937561,-0.02923029661178589,-0.3210810720920563,2.071086883544922,-2.838927984237671,4.1171875,0,"['F2', 'B2', 'A1']",6.1,180,0,0.5205852688301396,[2300|0|0]
2301,0.6353367567062378,0.39188921451568604,-0.029338568449020386,-0.39142027497291565,1.803088903427124,-2.75813364982605,4.1171875,0,"['F2', 'B2', 'A1']",6.1,180,0,0.521110099699796,[2400|0|0]
2400,0.636419951915741,0.39207085967063904,-0.02938915230333805,-0.4313063323497772,1.5775783061981201,-2.72243332862854,4.11328125,0,"['F2', 'B2', 'A1']",6.1,180,0,0.5222095839200221,[2500|0|0]
2501,0.6401427984237671,0.39643073081970215,-0.026541011407971382,-0.6200627088546753,1.2709214687347412,-2.61940860748291,4.11328125,0,"['F2', 'B2', 'A1']",6.1,180,0,0.528611143817314,[2600|0|0]
2601,0.6367961168289185,0.39161765575408936,-0.029295193031430244,-0.49229696393013,1.2556556463241577,-2.6106724739074707,4.1171875,0,"['F2', 'B2', 'A1']",6.1,180,0,0.5350881404746792,[2700|0|0]
2701,0.6373279690742493,0.3913075923919678,-0.029004795476794243,-0.5120939612388611,1.1267369985580444,-2.566427230834961,4.1171875,0,"['F2', 'B2', 'A1']",6.1,180,0,0.5357688289784254,[2800|0|0]
2801,0.6366798877716064,0.3915826678276062,-0.029057756066322327,-0.5399948358535767,1.0386242866516113,-2.5375218391418457,4.1171875,0,"['F2', 'B2', 'A1']",6.1,180,0,0.5364748606308107,[2900|0|0]
2901,0.6374022960662842,0.39151525497436523,-0.029212186112999916,-0.5598183274269104,0.9607219696044922,-2.5075252056121826,4.11328125,0,"['F2', 'B2', 'A1']",6.1,180,0,0.537216660385676,[3000|0|0]
3001,0.6377711892127991,0.3916395604610443,-0.029071636497974396,-0.5777214765548706,0.8977002501487732,-2.4767441749572754,4.1171875,0,"['F2', 'B2', 'A1']",6.1,180,0,0.537630530174194,[3100|0|0]
3102,0.6375078558921814,0.3915429711341858,-0.029016705229878426,-0.5811038017272949,0.8657703995704651,-2.4627788066864014,4.11328125,0,"['F2', 'B2', 'A1']",6.1,180,0,0.5379163472136181,[3200|0|0]
3201,0.6375281810760498,0.3917563557624817,-0.028702711686491966,-0.5916317105293274,0.842143714427948,-2.462266206741333,4.11328125,0,"['F2', 'B2', 'A1']",6.1,180,0,0.5382965288254573,[3300|0|0]
3302,0.6410675644874573,0.3957918584346771,-0.026692019775509834,-0.7617014050483704,0.6924300789833069,-2.4401750564575195,4.1171875,0,"['F2', 'B2', 'A1']",6.1,180,0,0.5440284917275644,[3400|0|0]
3402,0.6407787799835205,0.3961459696292877,-0.02668732963502407,-0.7480320334434509,0.6844995021820068,-2.4129750728607178,4.11328125,0,"['F2', 'B2', 'A1']",6.1,180,0,0.544485452585057,[3500|0|0]
3502,0.6410714983940125,0.39574339985847473,-0.02699638344347477,-0.7366299033164978,0.6717358231544495,-2.4241857528686523,4.1171875,0,"['F2', 'B2', 'A1']",6.1,180,0,0.5450713371681715,[3600|0|0]
3602,0.6379298567771912,0.3917529582977295,-0.028948353603482246,-0.6400246024131775,0.737754225730896,-2.4469594955444336,4.1171875,0,"['F2', 'B2', 'A1']",6.1,180,0,0.5505122675485224,[3700|0|0]
3702,0.6375786662101746,0.39188647270202637,-0.02895047888159752,-0.6350070238113403,0.7506870627403259,-2.4316744804382324,4.11328125,0,"['F2', 'B2', 'A1']",6.1,180,0,0.5508879874273195,[3800|0|0]
3802,0.6376806497573853,0.39156439900398254,-0.029030969366431236,-0.6125629544258118,0.74596107006073,-2.4152824878692627,4.11328125,0,"['F2', 'B2', 'A1']",6.1,180,0,0.5512352781254702,[3900|0|0]
3900,0.6372958421707153,0.39216548204421997,-0.029038630425930023,-0.6305068135261536,0.7542154788970947,-2.415170192718506,4.11328125,0,"['F2', 'B2', 'A1']",6.1,180,0,0.5519490262546114,[4000|0|0]
4000,0.6378681063652039,0.39208313822746277,-0.02874990925192833,-0.6277876496315002,0.7287012338638306,-2.3988332748413086,4.1171875,0,"['F2', 'B2', 'A1']",6.1,180,0,0.5525952667120022,[4100|0|0]
4100,0.6378557682037354,0.3913918137550354,-0.028888629749417305,-0.608961820602417,0.7295104265213013,-2.3732845783233643,4.1171875,0,"['F2', 'B2', 'A1']",6.1,180,0,0.5533004795400399,[4200|0|0]
4200,0.637905478477478,0.3918260633945465,-0.028728166595101357,-0.6174198389053345,0.7239561676979065,-2.3748061656951904,4.1171875,0,"['F2', 'B2', 'A1']",6.1,180,0,0.5537660891239449,[4300|0|0]
4302,0.6378100514411926,0.39178699254989624,-0.028618240728974342,-0.6173207759857178,0.727759599685669,-2.3794469833374023,4.11328125,0,"['F2', 'B2', 'A1']",6.1,180,0,0.5539168092161677,[4400|0|0]
4402,0.6379284858703613,0.3918949365615845,-0.028606710955500603,-0.6207342147827148,0.7251772284507751,-2.3727519512176514,4.11328125,0,"['F2', 'B2', 'A1']",6.1,180,0,0.5540774689788596,[4500|0|0]
4500,0.6379384994506836,0.39189743995666504,-0.02870832197368145,-0.6197172999382019,0.7203171253204346,-2.3832919597625732,4.11328125,0,"['F2', 'B2', 'A1']",6.1,180,0,0.5541796028997358,[4600|0|0]
4600,0.6377651691436768,0.3916706442832947,-0.02885923720896244,-0.616925835609436,0.7231036424636841,-2.3873047828674316,4.1171875,0,"['F2', 'B2', 'A1']",6.1,180,0,0.5545024884538049,[4700|0|0]
4700,0.6378255486488342,0.39145809412002563,-0.02879566140472889,-0.6122517585754395,0.722502589225769,-2.374769687652588,4.1171875,0,"['F2', 'B2', 'A1']",6.1,180,0,0.5547324126574736,[4800|0|0]
4800,0.6374644637107849,0.3919735848903656,-0.028979802504181862,-0.678335428237915,0.6901535391807556,-2.380572557449341,4.1171875,0,"['F2', 'B2', 'A1']",6.1,180,0,0.5553881725306739,[4900|0|0]
4900,0.6381444334983826,0.3918125033378601,-0.02881183661520481,-0.6575492024421692,0.6808937191963196,-2.361415147781372,4.11328125,0,"['F2', 'B2', 'A1']",6.1,180,0,0.5561068648977288,[5000|0|0]
5000,0.6375687122344971,0.3917648196220398,-0.028519799932837486,-0.6460081934928894,0.7047733664512634,-2.3665378093719482,4.1171875,0,"['F2', 'B2', 'A1']",6.1,180,0,0.5567541779087926,[5100|0|0]
5100,0.6377134323120117,0.3921971321105957,-0.029076311737298965,-0.6471627354621887,0.7041081190109253,-2.3953282833099365,4.1171875,0,"['F2', 'B2', 'A1']",6.1,180,0,0.5574735827858279,[5200|0|0]
5200,0.6377642750740051,0.39191320538520813,-0.028825197368860245,-0.6287626028060913,0.7033185362815857,-2.385364532470703,4.1171875,0,"['F2', 'B2', 'A1']",6.1,180,0,0.5578560194444694,[5300|0|0]
5300,0.6375787854194641,0.39160799980163574,-0.02872580848634243,-0.6165681481361389,0.7064622640609741,-2.3809309005737305,4.1171875,0,"['F2', 'B2', 'A1']",6.1,180,0,0.5582267417261758,[5400|0|0]
5400,0.6375570893287659,0.3916105628013611,-0.02905915305018425,-0.6111524701118469,0.7049412131309509,-2.3757987022399902,4.11328125,0,"['F2', 'B2', 'A1']",6.1,180,0,0.5585608014327584,[5500|0|0]
5500,0.6377614140510559,0.39207562804222107,-0.028849223628640175,-0.620753288269043,0.694662868976593,-2.372421979904175,4.1171875,0,"['F2', 'B2', 'A1']",6.1,180,0,0.5591104418901712,[5600|0|0]
5600,0.6374355554580688,0.3919246792793274,-0.028919290751218796,-0.6208839416503906,0.6990018486976624,-2.3622469902038574,4.1171875,0,"['F2', 'B2', 'A1']",6.1,180,0,0.5594763363466871,[5700|0|0]
5700,0.6374104619026184,0.39168304204940796,-0.028623482212424278,-0.614019513130188,0.6951656937599182,-2.357100009918213,4.1171875,0,"['F2', 'B2', 'A1']",6.1,180,0,0.5598591168700057,[5800|0|0]
5800,0.637566328048706,0.3920251131057739,-0.028798379004001617,-0.6240082383155823,0.6891016960144043,-2.3810324668884277,4.11328125,0,"['F2', 'B2', 'A1']",6.1,180,0,0.5602737199944555,[5900|0|0]
5900,0.6377473473548889,0.3919154703617096,-0.02874232642352581,-0.6034432053565979,0.7058243751525879,-2.3716914653778076,4.11328125,0,"['F2', 'B2', 'A1']",6.1,180,0,0.5604926524322414,[6000|0|0]
6000,0.6378768086433411,0.3922238349914551,-0.028882384300231934,-0.5944781303405762,0.7147727012634277,-2.3652825355529785,4.1171875,0,"['F2', 'B2', 'A1']",6.1,180,0,0.5608552337043905,[6100|0|0]
6100,0.6376873254776001,0.3918321132659912,-0.028805114328861237,-0.5777159333229065,0.7279821038246155,-2.3695788383483887,4.1171875,0,"['F2', 'B2', 'A1']",6.1,180,0,0.5612971844129262,[6200|0|0]
6200,0.6374872326850891,0.3917391002178192,-0.029137426987290382,-0.5751779675483704,0.7390817999839783,-2.3764688968658447,4.1171875,0,"['F2', 'B2', 'A1']",6.1,180,0,0.5616960832167566,[6300|0|0]
6300,0.6376842856407166,0.3915897011756897,-0.028959400951862335,-0.5633291006088257,0.737750232219696,-2.376091718673706,4.1171875,0,"['F2', 'B2', 'A1']",6.1,180,0,0.5620007850552823,[6400|0|0]
6400,0.6380621194839478,0.39159175753593445,-0.02881268970668316,-0.5647830367088318,0.730842649936676,-2.374437093734741,4.11328125,0,"['F2', 'B2', 'A1']",6.1,180,0,0.5624061081747442,[6500|0|0]
6500,0.6375673413276672,0.39179563522338867,-0.028766728937625885,-0.5687394142150879,0.7528781294822693,-2.3746278285980225,4.1171875,0,"['F2', 'B2', 'A1']",6.1,180,0,0.5629432151730848,[6600|0|0]
6600,0.6377595067024231,0.39178135991096497,-0.028883522376418114,-0.5726054310798645,0.7470443844795227,-2.382655620574951,4.1171875,0,"['F2', 'B2', 'A1']",6.1,180,0,0.5631685416543176,[6700|0|0]
6700,0.6376942992210388,0.3916688561439514,-0.028638023883104324,-0.5679509043693542,0.7518535256385803,-2.3711438179016113,4.1171875,0,"['F2', 'B2', 'A1']",6.1,180,0,0.5634463520634819,[6800|0|0]
6800,0.6378257274627686,0.391673743724823,-0.028561905026435852,-0.5661733746528625,0.7501004338264465,-2.364245653152466,4.1171875,0,"['F2', 'B2', 'A1']",6.1,180,0,0.5635983104509157,[6900|0|0]
6900,0.6375555396080017,0.3917032778263092,-0.028627285733819008,-0.5674136281013489,0.7496078014373779,-2.3655056953430176,4.1171875,0,"['F2', 'B2', 'A1']",6.1,180,0,0.563877860762867,[7000|0|0]
7000,0.6379717588424683,0.391562819480896,-0.028971023857593536,-0.6420493125915527,0.6959526538848877,-2.3679604530334473,4.1171875,0,"['F2', 'B2', 'A1']",6.1,180,0,0.564435644677723,[7100|0|0]
7100,0.6378346681594849,0.3919796645641327,-0.028935503214597702,-0.6375014185905457,0.7053679823875427,-2.3657593727111816,4.1171875,0,"['F2', 'B2', 'A1']",6.1,180,0,0.5648758893765647,[7200|0|0]
7200,0.6375665068626404,0.39173567295074463,-0.028714478015899658,-0.6224924325942993,0.715595543384552,-2.3568103313446045,4.1171875,0,"['F2', 'B2', 'A1']",6.1,180,0,0.5653005004067895,[7300|0|0]
7300,0.6375715136528015,0.3921055495738983,-0.02903977409005165,-0.6262729167938232,0.7153486013412476,-2.3488659858703613,4.1171875,0,"['F2', 'B2', 'A1']",6.1,180,0,0.5657930969152647,[7400|0|0]
7400,0.6379575133323669,0.3917474150657654,-0.028977034613490105,-0.6175771951675415,0.7042131423950195,-2.3649137020111084,4.11328125,0,"['F2', 'B2', 'A1']",6.1,180,0,0.5663233726175738,[7500|0|0]
7500,0.6380334496498108,0.39156773686408997,-0.029003992676734924,-0.613437294960022,0.7056923508644104,-2.3521134853363037,4.1171875,0,"['F2', 'B2', 'A1']",6.1,180,0,0.5665202921890697,[7600|0|0]
7600,0.638014018535614,0.39160165190696716,-0.02887955866754055,-0.6139091849327087,0.7094631791114807,-2.357513427734375,4.1171875,0,"['F2', 'B2', 'A1']",6.1,180,0,0.5666507207939709,[7700|0|0]
7700,0.637833297252655,0.3916776180267334,-0.028722306713461876,-0.618539035320282,0.7243919968605042,-2.3459935188293457,4.1171875,0,"['F2', 'B2', 'A1']",6.1,180,0,0.5669020357567731,[7800|0|0]
7800,0.6377782821655273,0.3919041156768799,-0.028505589812994003,-0.6302286386489868,0.7190201878547668,-2.364206075668335,4.1171875,0,"['F2', 'B2', 'A1']",6.1,180,0,0.5672203030348303,[7900|0|0]
7900,0.6377158164978027,0.39193716645240784,-0.028793638572096825,-0.6286605000495911,0.7158268690109253,-2.37017822265625,4.11328125,0,"['F2', 'B2', 'A1']",6.1,180,0,0.5675168943378517,[8000|0|0]
8000,0.6378505229949951,0.39195165038108826,-0.028802942484617233,-0.6289163827896118,0.7075068354606628,-2.371338367462158,4.1171875,0,"['F2', 'B2', 'A1']",6.1,180,0,0.5676526963531683,[8100|0|0]
8100,0.6379348039627075,0.39172911643981934,-0.028813816606998444,-0.6194345951080322,0.7070750594139099,-2.37947154045105,4.1171875,0,"['F2', 'B2', 'A1']",6.1,180,0,0.5678909040001336,[8200|0|0]
8200,0.6375780701637268,0.3917108178138733,-0.028818737715482712,-0.6164153814315796,0.7200886011123657,-2.375088691711426,4.11328125,0,"['F2', 'B2', 'A1']",6.1,180,0,0.5682481407008734,[8300|0|0]
8300,0.6380043029785156,0.3917916417121887,-0.028414340689778328,-0.6664344072341919,0.6870678067207336,-2.364171266555786,4.1171875,0,"['F2', 'B2', 'A1']",6.1,180,0,0.568841220686491,[8400|0|0]
8400,0.6380367875099182,0.3914477825164795,-0.02884567715227604,-0.6459464430809021,0.7005639672279358,-2.3783016204833984,4.11328125,0,"['F2', 'B2', 'A1']",6.1,180,0,0.56939380148161,[8500|0|0]
8500,0.6380029916763306,0.3919868767261505,-0.028667882084846497,-0.6490044593811035,0.7163993120193481,-2.375652551651001,4.1171875,0,"['F2', 'B2', 'A1']",6.1,180,0,0.5699624629022031,[8600|0|0]
8600,0.63779616355896,0.39142850041389465,-0.028762871399521828,-0.6273016929626465,0.7233047485351562,-2.3786258697509766,4.1171875,0,"['F2', 'B2', 'A1']",6.1,180,0,0.5705654429567041,[8700|0|0]
8700,0.6376909017562866,0.3919484317302704,-0.02872699871659279,-0.6355191469192505,0.7274585962295532,-2.3796255588531494,4.1171875,0,"['F2', 'B2', 'A1']",6.1,180,0,0.5710971340984685,[8800|0|0]
8800,0.6378120183944702,0.39174899458885193,-0.02897489070892334,-0.6267600655555725,0.7269259095191956,-2.3547778129577637,4.1171875,0,"['F2', 'B2', 'A1']",6.1,180,0,0.571437567430097,[8900|0|0]
8900,0.6374911069869995,0.39201608300209045,-0.028761014342308044,-0.6324526071548462,0.7359171509742737,-2.3569674491882324,4.11328125,0,"['F2', 'B2', 'A1']",6.1,180,0,0.5719066766413983,[9000|0|0]
9000,0.6377618312835693,0.39169666171073914,-0.02892291359603405,-0.6212567090988159,0.7321070432662964,-2.3526687622070312,4.1171875,0,"['F2', 'B2', 'A1']",6.1,180,0,0.5723556008827562,[9100|0|0]
9100,0.6376514434814453,0.3917510509490967,-0.028794046491384506,-0.6220762133598328,0.7345160841941833,-2.353907823562622,4.1171875,0,"['F2', 'B2', 'A1']",6.1,180,0,0.572533787264861,[9200|0|0]
9200,0.6375404596328735,0.39195701479911804,-0.029001791030168533,-0.6330757141113281,0.7363100647926331,-2.3510963916778564,4.1171875,0,"['F2', 'B2', 'A1']",6.1,180,0,0.5728466711339787,[9300|0|0]
9300,0.6381032466888428,0.3916502296924591,-0.028931885957717896,-0.6270888447761536,0.7241554856300354,-2.3638172149658203,4.11328125,0,"['F2', 'B2', 'A1']",6.1,180,0,0.5734914448083704,[9400|0|0]
9400,0.637495756149292,0.3920966684818268,-0.029031887650489807,-0.5325352549552917,0.8028532862663269,-2.3614819049835205,4.11328125,0,"['F2', 'B2', 'A1']",6.1,180,0,0.574251939835871,[9500|0|0]
9500,0.6379421353340149,0.39150816202163696,-0.028943996876478195,-0.5323396325111389,0.7741838693618774,-2.3648178577423096,4.1171875,0,"['F2', 'B2', 'A1']",6.1,180,0,0.5749957940006072,[9600|0|0]
9600,0.6378353834152222,0.3916797637939453,-0.028937513008713722,-0.5532819032669067,0.7653741240501404,-2.363854169845581,4.1171875,0,"['F2', 'B2', 'A1']",6.1,180,0,0.5751979948437471,[9700|0|0]
9700,0.6378046274185181,0.39169052243232727,-0.028625737875699997,-0.5624291896820068,0.7634614706039429,-2.358529806137085,4.1171875,0,"['F2', 'B2', 'A1']",6.1,180,0,0.5755114679896446,[9800|0|0]
9800,0.6379348635673523,0.3914925456047058,-0.028921574354171753,-0.5615964531898499,0.75693279504776,-2.3590333461761475,4.11328125,0,"['F2', 'B2', 'A1']",6.1,180,0,0.5758905135023905,[9900|0|0]
9900,0.6378394961357117,0.39188703894615173,-0.028653394430875778,-0.5722822546958923,0.7564946413040161,-2.3620247840881348,4.11328125,0,"['F2', 'B2', 'A1']",6.1,180,0,0.5763769705043156,[10000|0|0]
10000,0.6375581622123718,0.39154955744743347,-0.028892219066619873,-0.5748977065086365,0.7556737065315247,-2.353159189224243,4.1171875,0,"['F2', 'B2', 'A1']",6.1,180,0,0.5768770502429945,[10100|0|0]
10100,0.6378893852233887,0.391480416059494,-0.028914598748087883,-0.578316330909729,0.7455431222915649,-2.3442955017089844,4.11328125,0,"['F2', 'B2', 'A1']",6.1,180,0,0.5772161520930276,[10200|0|0]
10200,0.6377255916595459,0.3916935324668884,-0.02921701967716217,-0.5884595513343811,0.7493234276771545,-2.3729403018951416,4.11328125,0,"['F2', 'B2', 'A1']",6.1,180,0,0.5776207572746542,[10300|0|0]
10300,0.6376458406448364,0.39156225323677063,-0.02898004651069641,-0.5859113931655884,0.744227409362793,-2.386338710784912,4.11328125,0,"['F2', 'B2', 'A1']",6.1,180,0,0.5779031590137288,[10400|0|0]
10400,0.6378836035728455,0.39175137877464294,-0.02870219014585018,-0.5948948264122009,0.7386757731437683,-2.381556749343872,4.11328125,0,"['F2', 'B2', 'A1']",6.1,180,0,0.5783148674524284,[10500|0|0]
10500,0.6379729509353638,0.39163443446159363,-0.02870882861316204,-0.5896187424659729,0.7367032170295715,-2.3730528354644775,4.1171875,0,"['F2', 'B2', 'A1']",6.1,180,0,0.578462186808902,[10600|0|0]
10600,0.6377676129341125,0.39178967475891113,-0.02899913303554058,-0.5912774801254272,0.7490467429161072,-2.382072687149048,4.1171875,0,"['F2', 'B2', 'A1']",6.1,180,0,0.5788501815283528,[10700|0|0]
10700,0.6374678611755371,0.3917731046676636,-0.028991827741265297,-0.594430148601532,0.7560383677482605,-2.3814074993133545,4.1171875,0,"['F2', 'B2', 'A1']",6.1,180,0,0.5791504798001051,[10800|0|0]
10800,0.6381887197494507,0.39135366678237915,-0.028865547850728035,-0.5843403935432434,0.7340154051780701,-2.3793282508850098,4.1171875,0,"['F2', 'B2', 'A1']",6.1,180,0,0.579993991408769,[10900|0|0]
10900,0.6376465559005737,0.39170539379119873,-0.02863639034330845,-0.5920172929763794,0.7552770972251892,-2.36049222946167,4.11328125,0,"['F2', 'B2', 'A1']",6.1,180,0,0.5806796784299156,[11000|0|0]
11000,0.6377460360527039,0.39163365960121155,-0.028675414621829987,-0.5902073383331299,0.7547888159751892,-2.355987787246704,4.1171875,0,"['F2', 'B2', 'A1']",6.1,180,0,0.5808083834764176,[11100|0|0]
11100,0.637740433216095,0.39178749918937683,-0.028859304264187813,-0.5917380452156067,0.756783127784729,-2.362046957015991,4.11328125,0,"['F2', 'B2', 'A1']",6.1,180,0,0.5810482030153035,[11200|0|0]
11200,0.6377806663513184,0.39195844531059265,-0.02899893932044506,-0.5980405211448669,0.7585546970367432,-2.36977219581604,4.11328125,0,"['F2', 'B2', 'A1']",6.1,180,0,0.5812725670731751,[11300|0|0]
11300,0.6376100182533264,0.39154431223869324,-0.02857915312051773,-0.5842313766479492,0.7613503932952881,-2.376256227493286,4.1171875,0,"['F2', 'B2', 'A1']",6.1,180,0,0.5818864460744763,[11400|0|0]
11400,0.6377636194229126,0.3914126455783844,-0.028904184699058533,-0.5779030323028564,0.754509449005127,-2.3949978351593018,4.11328125,0,"['F2', 'B2', 'A1']",6.1,180,0,0.5822692971627389,[11500|0|0]
11500,0.6376015543937683,0.3921346366405487,-0.029036318883299828,-0.5914285182952881,0.7613001465797424,-2.392896890640259,4.11328125,0,"['F2', 'B2', 'A1']",6.1,180,0,0.5830209590615749,[11600|0|0]
11600,0.6378470659255981,0.3917310833930969,-0.028940537944436073,-0.5820907950401306,0.7461509108543396,-2.3906960487365723,4.11328125,0,"['F2', 'B2', 'A1']",6.1,180,0,0.5835029394803057,[11700|0|0]
11700,0.6377729177474976,0.391562283039093,-0.029130052775144577,-0.5722299218177795,0.7516399025917053,-2.3718528747558594,4.1171875,0,"['F2', 'B2', 'A1']",6.1,180,0,0.5837673395235847,[11800|0|0]
11800,0.6374728679656982,0.3918737769126892,-0.028904767706990242,-0.574171245098114,0.7561712861061096,-2.378726005554199,4.1171875,0,"['F2', 'B2', 'A1']",6.1,180,0,0.5842549988993575,[11900|0|0]
11900,0.6377338767051697,0.3913258910179138,-0.02887190878391266,-0.5578710436820984,0.7493326663970947,-2.370856523513794,4.11328125,0,"['F2', 'B2', 'A1']",6.1,180,0,0.5848627687773542,[12000|0|0]
12000,0.6378540992736816,0.3915261924266815,-0.028968002647161484,-0.5627028346061707,0.7428596019744873,-2.3710198402404785,4.1171875,0,"['F2', 'B2', 'A1']",6.1,180,0,0.5851153715304825,[12100|0|0]
12100,0.6377187371253967,0.3916327655315399,-0.028767209500074387,-0.5669986605644226,0.7450888752937317,-2.368239164352417,4.11328125,0,"['F2', 'B2', 'A1']",6.1,180,0,0.5853799440645533,[12200|0|0]
12200,0.6374809145927429,0.391575425863266,-0.028844740241765976,-0.56590336561203,0.7500941753387451,-2.3533873558044434,4.1171875,0,"['F2', 'B2', 'A1']",6.1,180,0,0.5856365729999891,[12300|0|0]
12300,0.6379431486129761,0.3916268050670624,-0.028546946123242378,-0.6440659165382385,0.6982402801513672,-2.370312213897705,4.11328125,0,"['F2', 'B2', 'A1']",6.1,180,0,0.586188824255371,[12400|0|0]
12400,0.6378559470176697,0.3917192816734314,-0.028759287670254707,-0.6393142342567444,0.7159551978111267,-2.3541042804718018,4.11328125,0,"['F2', 'B2', 'A1']",6.1,180,0,0.5864363014735894,[12500|0|0]
12500,0.6377137899398804,0.3918515741825104,-0.02884710766375065,-0.6310699582099915,0.7216541171073914,-2.3703653812408447,4.11328125,0,"['F2', 'B2', 'A1']",6.1,180,0,0.5866494265401152,[12600|0|0]
12600,0.637963056564331,0.3915822505950928,-0.028774920850992203,-0.6098230481147766,0.725339412689209,-2.3798036575317383,4.1171875,0,"['F2', 'B2', 'A1']",6.1,180,0,0.5870234318619233,[12700|0|0]
12700,0.6382356882095337,0.39166373014450073,-0.029012322425842285,-0.6021915078163147,0.725476086139679,-2.3792073726654053,4.11328125,0,"['F2', 'B2', 'A1']",6.1,180,0,0.5873940076823418,[12800|0|0]
12800,0.6379556059837341,0.3915719985961914,-0.028564244508743286,-0.6014720797538757,0.7356602549552917,-2.3838815689086914,4.1171875,0,"['F2', 'B2', 'A1']",6.1,180,0,0.5879303234008845,[12900|0|0]
12900,0.6381636261940002,0.39127102494239807,-0.02876233495771885,-0.5958775281906128,0.734916090965271,-2.3736705780029297,4.11328125,0,"['F2', 'B2', 'A1']",6.1,180,0,0.5883463731264369,[13000|0|0]
13000,0.6379976272583008,0.39202943444252014,-0.028778668493032455,-0.6244415640830994,0.7308366298675537,-2.3696157932281494,4.11328125,0,"['F2', 'B2', 'A1']",6.1,180,0,0.5891229086381198,[13100|0|0]
13100,0.6379201412200928,0.3917140066623688,-0.028577381744980812,-0.6149052381515503,0.7317056655883789,-2.3659822940826416,4.1171875,0,"['F2', 'B2', 'A1']",6.1,180,0,0.5895050278937843,[13200|0|0]
13200,0.6381214261054993,0.39176294207572937,-0.028566483408212662,-0.617422342300415,0.7197922468185425,-2.3607962131500244,4.1171875,0,"['F2', 'B2', 'A1']",6.1,180,0,0.5897124623497414,[13300|0|0]
13300,0.6380723714828491,0.39198872447013855,-0.028811687603592873,-0.6220078468322754,0.7201948761940002,-2.3551254272460938,4.11328125,0,"['F2', 'B2', 'A1']",6.1,180,0,0.5900493735295211,[13400|0|0]
13400,0.6377075910568237,0.3918529450893402,-0.028971021994948387,-0.615471601486206,0.7267549633979797,-2.352144479751587,4.11328125,0,"['F2', 'B2', 'A1']",6.1,180,0,0.5904699543751738,[13500|0|0]
13500,0.6380332112312317,0.391483873128891,-0.028936393558979034,-0.6067436933517456,0.7165797352790833,-2.3738930225372314,4.1171875,0,"['F2', 'B2', 'A1']",6.1,180,0,0.5909633525293546,[13600|0|0]
13600,0.638076663017273,0.391599178314209,-0.028601571917533875,-0.6024141311645508,0.7195332050323486,-2.3798043727874756,4.11328125,0,"['F2', 'B2', 'A1']",6.1,180,0,0.5913201281942359,[13700|0|0]
13700,0.6379320025444031,0.3915940523147583,-0.028822826221585274,-0.6010608077049255,0.7215874195098877,-2.375081777572632,4.1171875,0,"['F2', 'B2', 'A1']",6.1,180,0,0.5915845263699908,[13800|0|0]
13800,0.6378712058067322,0.39183303713798523,-0.028745295479893684,-0.6138526797294617,0.7223165035247803,-2.3548526763916016,4.11328125,0,"['F2', 'B2', 'A1']",6.1,180,0,0.5918430239617619,[13900|0|0]
13900,0.6380176544189453,0.39189210534095764,-0.028737209737300873,-0.6127644777297974,0.7211043834686279,-2.363006353378296,4.11328125,0,"['F2', 'B2', 'A1']",6.1,180,0,0.5920011429924155,[14000|0|0]
14000,0.6381558179855347,0.39189836382865906,-0.028685398399829865,-0.6082264184951782,0.7177075147628784,-2.365318536758423,4.11328125,0,"['F2', 'B2', 'A1']",6.1,180,0,0.5921488344088605,[14100|0|0]
14100,0.6380419731140137,0.3915812373161316,-0.02876485511660576,-0.6040067672729492,0.7226948738098145,-2.361661195755005,4.1171875,0,"['F2', 'B2', 'A1']",6.1,180,0,0.5924950182466696,[14200|0|0]
14200,0.637966513633728,0.39191895723342896,-0.02873203717172146,-0.6192004680633545,0.7245312333106995,-2.349493980407715,4.1171875,0,"['F2', 'B2', 'A1']",6.1,180,0,0.5928426184382846,[14300|0|0]
14300,0.6382399201393127,0.39162349700927734,-0.02895229682326317,-0.6193469762802124,0.7136750817298889,-2.362790584564209,4.11328125,0,"['F2', 'B2', 'A1']",6.1,180,0,0.5933014889815198,[14400|0|0]
14400,0.6380318999290466,0.3917124271392822,-0.028764931485056877,-0.6138842701911926,0.7184820175170898,-2.359743595123291,4.11328125,0,"['F2', 'B2', 'A1']",6.1,180,0,0.5935952350382814,[14500|0|0]
14500,0.6381487250328064,0.39176779985427856,-0.02899019978940487,-0.6194578409194946,0.7224598526954651,-2.371453285217285,4.1171875,0,"['F2', 'B2', 'A1']",6.1,180,0,0.59385496576688,[14600|0|0]
14600,0.6379299759864807,0.39193204045295715,-0.028759034350514412,-0.6229586005210876,0.7291306853294373,-2.3630869388580322,4.11328125,0,"['F2', 'B2', 'A1']",6.1,180,0,0.5942131048176132,[14700|0|0]
14700,0.6378811001777649,0.39176857471466064,-0.029017137363553047,-0.620710551738739,0.7280172109603882,-2.382521867752075,4.11328125,0,"['F2', 'B2', 'A1']",6.1,180,0,0.59452250271291,[14800|0|0]
14800,0.637787938117981,0.39183494448661804,-0.028765790164470673,-0.6161149144172668,0.7213193774223328,-2.3812453746795654,4.11328125,0,"['F2', 'B2', 'A1']",6.1,180,0,0.5947986539948179,[14900|0|0]
14900,0.638171374797821,0.39185523986816406,-0.028573911637067795,-0.6220993399620056,0.7085914015769958,-2.3912839889526367,4.11328125,0,"['F2', 'B2', 'A1']",6.1,180,0,0.5952279009624685,[15000|0|0]
15000,0.6379861235618591,0.3917551040649414,-0.028529172763228416,-0.6223183870315552,0.7119045257568359,-2.3736705780029297,4.1171875,0,"['F2', 'B2', 'A1']",6.1,180,0,0.5954431839537726,[15100|0|0]
15100,0.6380084753036499,0.39160725474357605,-0.028552060946822166,-0.6218630075454712,0.7143391966819763,-2.376802921295166,4.1171875,0,"['F2', 'B2', 'A1']",6.1,180,0,0.5955944548734415,[15200|0|0]
15200,0.6380687952041626,0.39194566011428833,-0.028693927451968193,-0.6365144848823547,0.7129130959510803,-2.3655107021331787,4.11328125,0,"['F2', 'B2', 'A1']",6.1,180,0,0.5959663188144295,[15300|0|0]
15300,0.6379342079162598,0.3917457163333893,-0.028911443427205086,-0.6348151564598083,0.7170988321304321,-2.3876030445098877,4.11328125,0,"['F2', 'B2', 'A1']",6.1,180,0,0.5962909793341551,[15400|0|0]
15400,0.637933611869812,0.3918386697769165,-0.028757911175489426,-0.6325576901435852,0.7146205306053162,-2.360215902328491,4.11328125,0,"['F2', 'B2', 'A1']",6.1,180,0,0.5964704587208596,[15500|0|0]
15500,0.6378812789916992,0.3917376399040222,-0.02873312681913376,-0.625856876373291,0.7131384611129761,-2.351870536804199,4.11328125,0,"['F2', 'B2', 'A1']",6.1,180,0,0.596586906261274,[15600|0|0]
15600,0.6378499865531921,0.3913031220436096,-0.02879927307367325,-0.5945262312889099,0.7240630984306335,-2.3681256771087646,4.11328125,0,"['F2', 'B2', 'A1']",6.1,180,0,0.5970275425225087,[15700|0|0]
15700,0.6375002861022949,0.3916930854320526,-0.02877201698720455,-0.6131064891815186,0.7283243536949158,-2.3641064167022705,4.11328125,0,"['F2', 'B2', 'A1']",6.1,180,0,0.5975520468065076,[15800|0|0]
15800,0.637843132019043,0.3914925158023834,-0.028748054057359695,-0.6227754950523376,0.7097840309143066,-2.3620247840881348,4.11328125,0,"['F2', 'B2', 'A1']",6.1,180,0,0.597949973584927,[15900|0|0]
15900,0.6375904679298401,0.3917831480503082,-0.028763143345713615,-0.640160083770752,0.7116939425468445,-2.353802442550659,4.11328125,0,"['F2', 'B2', 'A1']",6.1,180,0,0.5983353745866505,[16000|0|0]
16000,0.637814998626709,0.391363263130188,-0.028867825865745544,-0.6365617513656616,0.7003035545349121,-2.365626096725464,4.11328125,0,"['F2', 'B2', 'A1']",6.1,180,0,0.5988228946477568,[16100|0|0]
16100,0.6379184126853943,0.3914370536804199,-0.0285703893750906,-0.6369795203208923,0.6968510746955872,-2.377396821975708,4.11328125,0,"['F2', 'B2', 'A1']",6.1,180,0,0.5991463262151872,[16200|0|0]
16200,0.6379273533821106,0.3913123905658722,-0.02874939702451229,-0.639225423336029,0.6918474435806274,-2.3766884803771973,4.1171875,0,"['F2', 'B2', 'A1']",6.1,180,0,0.5993646483779146,[16300|0|0]
16300,0.6379586458206177,0.3919307291507721,-0.028941374272108078,-0.6564099788665771,0.6974362134933472,-2.3888115882873535,4.11328125,0,"['F2', 'B2', 'A1']",6.1,180,0,0.6000128590580782,[16400|0|0]
16400,0.6379848122596741,0.3913957178592682,-0.02857195772230625,-0.6468613743782043,0.7010207176208496,-2.386803388595581,4.11328125,0,"['F2', 'B2', 'A1']",6.1,180,0,0.6006635435836643,[16500|0|0]
16500,0.6380749940872192,0.39159145951271057,-0.02856421284377575,-0.6464026570320129,0.7005526423454285,-2.3978912830352783,4.11328125,0,"['F2', 'B2', 'A1']",6.1,180,0,0.6008791996525684,[16600|0|0]
16600,0.6379217505455017,0.3912513852119446,-0.028681837022304535,-0.6393523812294006,0.6972241401672363,-2.3848354816436768,4.1171875,0,"['F2', 'B2', 'A1']",6.1,180,0,0.6012703128848863,[16700|0|0]
16700,0.6381612420082092,0.3915863335132599,-0.02903507649898529,-0.64621502161026,0.6889718770980835,-2.3763961791992188,4.11328125,0,"['F2', 'B2', 'A1']",6.1,180,0,0.6018128298460492,[16800|0|0]
16800,0.6378628015518188,0.39160531759262085,-0.029034432023763657,-0.6482990980148315,0.6994121074676514,-2.382563352584839,4.1171875,0,"['F2', 'B2', 'A1']",6.1,180,0,0.6021118741849489,[16900|0|0]
16900,0.6380459070205688,0.3917613923549652,-0.02851702645421028,-0.6465365290641785,0.6870450973510742,-2.35627818107605,4.11328125,0,"['F2', 'B2', 'A1']",6.1,180,0,0.6026824839180694,[17000|0|0]
17000,0.6382076144218445,0.39163365960121155,-0.028531135991215706,-0.6430665254592896,0.6877483129501343,-2.3589389324188232,4.11328125,0,"['F2', 'B2', 'A1']",6.1,180,0,0.602889036620892,[17100|0|0]
17100,0.637938916683197,0.3914833962917328,-0.028762590140104294,-0.6399247646331787,0.6970561742782593,-2.3518779277801514,4.11328125,0,"['F2', 'B2', 'A1']",6.1,180,0,0.6032741970549549,[17200|0|0]
17200,0.6380137205123901,0.39138326048851013,-0.02863740362226963,-0.6415300369262695,0.6941437125205994,-2.3541908264160156,4.1171875,0,"['F2', 'B2', 'A1']",6.1,180,0,0.6034510994466757,[17300|0|0]
17300,0.6378965377807617,0.3916207253932953,-0.028485005721449852,-0.6466846466064453,0.6943114399909973,-2.3473446369171143,4.11328125,0,"['F2', 'B2', 'A1']",6.1,180,0,0.6037566260310686,[17400|0|0]
17400,0.6378201246261597,0.39164629578590393,-0.029013071209192276,-0.6452846527099609,0.6958295702934265,-2.358236789703369,4.11328125,0,"['F2', 'B2', 'A1']",6.1,180,0,0.6042908038802154,[17500|0|0]
17500,0.6378041505813599,0.39159655570983887,-0.02875484712421894,-0.6453388333320618,0.7029018402099609,-2.3656156063079834,4.1171875,0,"['F2', 'B2', 'A1']",6.1,180,0,0.6045542596133747,[17600|0|0]
17600,0.6379110813140869,0.39147964119911194,-0.029057001695036888,-0.6432713270187378,0.6979814171791077,-2.345799207687378,4.11328125,0,"['F2', 'B2', 'A1']",6.1,180,0,0.604895434889569,[17700|0|0]
17700,0.6380459666252136,0.3916394114494324,-0.02871372550725937,-0.6433389782905579,0.6911863684654236,-2.3547565937042236,4.1171875,0,"['F2', 'B2', 'A1']",6.1,180,0,0.6052973790662157,[17800|0|0]
17800,0.6376405954360962,0.3916546404361725,-0.029018132016062737,-0.6447204947471619,0.7028511762619019,-2.3652467727661133,4.11328125,0,"['F2', 'B2', 'A1']",6.1,180,0,0.6058045487080571,[17900|0|0]
17900,0.6380162835121155,0.3916337490081787,-0.028647344559431076,-0.6464117169380188,0.6962944865226746,-2.3946118354797363,4.11328125,0,"['F2', 'B2', 'A1']",6.1,180,0,0.6063328112566275,[18000|0|0]
18000,0.6407911777496338,0.3960248529911041,-0.026494670659303665,-0.7207227349281311,0.6232869625091553,-2.3717575073242188,4.11328125,0,"['F2', 'B2', 'A1']",6.1,180,0,0.6119556074594581,[18100|0|0]
18100,0.6408602595329285,0.3959440290927887,-0.026865173131227493,-0.7154726982116699,0.6257431507110596,-2.3412487506866455,4.11328125,0,"['F2', 'B2', 'A1']",6.1,180,0,0.6123410641717147,[18200|0|0]
18200,0.6411374807357788,0.3961475193500519,-0.026659321039915085,-0.7211043238639832,0.6150990724563599,-2.3460071086883545,4.11328125,0,"['F2', 'B2', 'A1']",6.1,180,0,0.6127418570903255,[18300|0|0]
18300,0.6412397623062134,0.3961053192615509,-0.026684407144784927,-0.7192764282226562,0.6098675727844238,-2.359135866165161,4.11328125,0,"['F2', 'B2', 'A1']",6.1,180,0,0.6128553105159132,[18400|0|0]
18400,0.6378706097602844,0.3914007246494293,-0.028824245557188988,-0.6323493719100952,0.6984553337097168,-2.3757309913635254,4.11328125,0,"['F2', 'B2', 'A1']",6.1,180,0,0.6190248573204479,[18500|0|0]
18500,0.6410696506500244,0.39629313349723816,-0.02650505118072033,-0.7259137034416199,0.6182956099510193,-2.345477819442749,4.11328125,0,"['F2', 'B2', 'A1']",6.1,180,0,0.6253135924479748,[18600|0|0]
18600,0.6408472657203674,0.39616262912750244,-0.02647901140153408,-0.7418615221977234,0.6109864115715027,-2.3429436683654785,4.11328125,0,"['F2', 'B2', 'A1']",6.1,180,0,0.6255727536286303,[18700|0|0]
18700,0.6409983038902283,0.39628344774246216,-0.026616783812642097,-0.7282630801200867,0.6193957924842834,-2.3400113582611084,4.11328125,0,"['F2', 'B2', 'A1']",6.1,180,0,0.6258102213185129,[18800|0|0]
18800,0.6410081386566162,0.39641472697257996,-0.026447709649801254,-0.7176417708396912,0.626022219657898,-2.332475423812866,4.1171875,0,"['F2', 'B2', 'A1']",6.1,180,0,0.6260245039156378,[18900|0|0]
18900,0.6410797834396362,0.3962708115577698,-0.026466602459549904,-0.701133131980896,0.6355217695236206,-2.3326377868652344,4.11328125,0,"['F2', 'B2', 'A1']",6.1,180,0,0.6261863728744106,[19000|0|0]
19000,0.6409083604812622,0.3965166509151459,-0.02623891457915306,-0.6999745965003967,0.651188313961029,-2.321897029876709,4.11328125,0,"['F2', 'B2', 'A1']",6.1,180,0,0.6265627564436221,[19100|0|0]
19100,0.6410639882087708,0.3960728645324707,-0.026589136570692062,-0.6849517822265625,0.6463870406150818,-2.339860439300537,4.11328125,0,"['F2', 'B2', 'A1']",6.1,180,0,0.6271491196300305,[19200|0|0]
19201,0.6414118409156799,0.3963678777217865,-0.02672925405204296,-0.6932280659675598,0.6429016590118408,-2.3548521995544434,4.11328125,0,"['F2', 'B2', 'A1']",6.1,180,0,0.6276262644677417,[19300|0|0]
19300,0.6409441232681274,0.3966135084629059,-0.026124201714992523,-0.8026002049446106,0.590931236743927,-2.3486099243164062,4.1171875,0,"['F2', 'B2', 'A1']",6.1,180,0,0.6284294970550943,[19400|0|0]
19400,0.6410136818885803,0.3961341977119446,-0.026673084124922752,-0.7696025967597961,0.6102355122566223,-2.363380193710327,4.11328125,0,"['F2', 'B2', 'A1']",6.1,180,0,0.6291615141980611,[19500|0|0]
19500,0.6410627961158752,0.3961837887763977,-0.026968006044626236,-0.7466045022010803,0.6298754811286926,-2.361673355102539,4.11328125,0,"['F2', 'B2', 'A1']",6.1,180,0,0.6294645825397235,[19600|0|0]
19600,0.6410501599311829,0.39607900381088257,-0.026475004851818085,-0.7192173600196838,0.6456435918807983,-2.3576109409332275,4.1171875,0,"['F2', 'B2', 'A1']",6.1,180,0,0.6299687548696582,[19700|0|0]
19701,0.6407184600830078,0.39622223377227783,-0.02651236392557621,-0.7129823565483093,0.6637037396430969,-2.367647647857666,4.11328125,0,"['F2', 'B2', 'A1']",6.1,180,0,0.6303319838766396,[19800|0|0]
19801,0.6407241821289062,0.396136611700058,-0.026463449001312256,-0.6471974849700928,0.706143319606781,-2.357513904571533,4.11328125,0,"['F2', 'B2', 'A1']",6.1,180,0,0.6304307591310114,[19900|0|0]
19901,0.6406483054161072,0.3960728049278259,-0.026434391736984253,-0.660478949546814,0.7049571871757507,-2.3579368591308594,4.11328125,0,"['F2', 'B2', 'A1']",6.1,180,0,0.6305340688804937,[20000|0|0]
20001,0.640956699848175,0.3963838517665863,-0.026540551334619522,-0.6785123348236084,0.6963366270065308,-2.3615312576293945,4.11328125,0,"['F2', 'B2', 'A1']",6.1,180,0,0.63098476514385,[20100|0|0]
20101,0.6410561800003052,0.3963170349597931,-0.026846399530768394,-0.6899185180664062,0.6881123781204224,-2.365917921066284,4.1171875,0,"['F2', 'B2', 'A1']",6.1,180,0,0.6313132524425777,[20200|0|0]
20202,0.6407505869865417,0.396376371383667,-0.026791226118803024,-0.6953587532043457,0.6885057091712952,-2.380861282348633,4.11328125,0,"['F2', 'B2', 'A1']",6.1,180,0,0.6316294043153337,[20300|0|0]
20301,0.6406803131103516,0.39631298184394836,-0.026673706248402596,-0.6955791711807251,0.6819292306900024,-2.3655812740325928,4.11328125,0,"['F2', 'B2', 'A1']",6.1,180,0,0.6317802935838701,[20400|0|0]
20401,0.6407356262207031,0.39612892270088196,-0.026540160179138184,-0.6959613561630249,0.6767951250076294,-2.3574841022491455,4.11328125,0,"['F2', 'B2', 'A1']",6.1,180,0,0.6320143274723117,[20500|0|0]
20502,0.6408735513687134,0.39634302258491516,-0.026384875178337097,-0.7045422792434692,0.6704099774360657,-2.355006694793701,4.11328125,0,"['F2', 'B2', 'A1']",6.1,180,0,0.6323126151493459,[20600|0|0]
20601,0.6408990621566772,0.3960670530796051,-0.026649191975593567,-0.7034052014350891,0.6626060605049133,-2.3547980785369873,4.11328125,0,"['F2', 'B2', 'A1']",6.1,180,0,0.6326955947016402,[20700|0|0]
20702,0.6410341262817383,0.39608466625213623,-0.026612702757120132,-0.7013012170791626,0.6579684615135193,-2.353645086288452,4.11328125,0,"['F2', 'B2', 'A1']",6.1,180,0,0.632836605356521,[20800|0|0]
20802,0.6409235596656799,0.3963283896446228,-0.026316696777939796,-0.707834005355835,0.6606120467185974,-2.3627431392669678,4.1171875,0,"['F2', 'B2', 'A1']",6.1,180,0,0.633235661252784,[20900|0|0]
20900,0.6408739686012268,0.39619866013526917,-0.026389531791210175,-0.7030762434005737,0.6685994267463684,-2.3654465675354004,4.11328125,0,"['F2', 'B2', 'A1']",6.1,180,0,0.6333924858631894,[21000|0|0]
21000,0.6406689882278442,0.39604368805885315,-0.026633229106664658,-0.7012979388237,0.6741365194320679,-2.3611092567443848,4.1171875,0,"['F2', 'B2', 'A1']",6.1,180,0,0.6337466350965649,[21100|0|0]
21100,0.6407790184020996,0.39657488465309143,-0.02639063447713852,-0.711035430431366,0.6738102436065674,-2.3660635948181152,4.11328125,0,"['F2', 'B2', 'A1']",6.1,180,0,0.6343408813546533,[21200|0|0]
21202,0.6409809589385986,0.3962441682815552,-0.026949206367135048,-0.8078142404556274,0.608855128288269,-2.3530795574188232,4.11328125,0,"['F2', 'B2', 'A1']",6.1,180,0,0.6350207018125522,[21300|0|0]
21302,0.6409258246421814,0.39636194705963135,-0.02612539939582348,-0.7868563532829285,0.6223427057266235,-2.3445608615875244,4.11328125,0,"['F2', 'B2', 'A1']",6.1,180,0,0.6358547099403232,[21400|0|0]
21400,0.641228437423706,0.3960043489933014,-0.026306871324777603,-0.7649446725845337,0.6192900538444519,-2.342556953430176,4.11328125,0,"['F2', 'B2', 'A1']",6.1,180,0,0.6363570872224363,[21500|0|0]
21500,0.6412647366523743,0.39612486958503723,-0.02641206979751587,-0.7627665400505066,0.6248551607131958,-2.3389956951141357,4.1171875,0,"['F2', 'B2', 'A1']",6.1,180,0,0.6365211285760662,[21600|0|0]
21600,0.641265869140625,0.3962363302707672,-0.026590928435325623,-0.7673047184944153,0.6250585913658142,-2.3429646492004395,4.11328125,0,"['F2', 'B2', 'A1']",6.1,180,0,0.6367318776669592,[21700|0|0]
21700,0.6407617926597595,0.3963147699832916,-0.026153599843382835,-0.7722911834716797,0.6380853652954102,-2.342636823654175,4.11328125,0,"['F2', 'B2', 'A1']",6.1,180,0,0.6374038167894943,[21800|0|0]
21800,0.640756368637085,0.39631354808807373,-0.026275230571627617,-0.7660987973213196,0.6292504668235779,-2.3436663150787354,4.11328125,0,"['F2', 'B2', 'A1']",6.1,180,0,0.637525574528892,[21900|0|0]
21900,0.6410448551177979,0.3959985375404358,-0.026461854577064514,-0.7598186731338501,0.6189943552017212,-2.3399064540863037,4.11328125,0,"['F2', 'B2', 'A1']",6.1,180,0,0.6379917125064078,[22000|0|0]
22000,0.6406443119049072,0.3961106538772583,-0.026423705741763115,-0.7635229825973511,0.6284310221672058,-2.340301275253296,4.1171875,0,"['F2', 'B2', 'A1']",6.1,180,0,0.638409396923175,[22100|0|0]
22100,0.6409796476364136,0.3959848880767822,-0.02660832181572914,-0.7575299739837646,0.6165649890899658,-2.35075306892395,4.11328125,0,"['F2', 'B2', 'A1']",6.1,180,0,0.6388123239440621,[22200|0|0]
22200,0.6412795782089233,0.39622631669044495,-0.026649219915270805,-0.766686737537384,0.6103506088256836,-2.331355333328247,4.11328125,0,"['F2', 'B2', 'A1']",6.1,180,0,0.6391995174078076,[22300|0|0]
22300,0.6407595872879028,0.3963037431240082,-0.026765407994389534,-0.7734564542770386,0.6217902302742004,-2.3441853523254395,4.11328125,0,"['F2', 'B2', 'A1']",6.1,180,0,0.6397379271776737,[22400|0|0]
22400,0.6411263346672058,0.39597421884536743,-0.02656790055334568,-0.7639263868331909,0.605587363243103,-2.366206407546997,4.11328125,0,"['F2', 'B2', 'A1']",6.1,180,0,0.6402690571803162,[22500|0|0]
22500,0.6411272287368774,0.39613351225852966,-0.02645893022418022,-0.7730220556259155,0.6105000972747803,-2.3712215423583984,4.1171875,0,"['F2', 'B2', 'A1']",6.1,180,0,0.640462059054597,[22600|0|0]
22600,0.64095538854599,0.3962748646736145,-0.026105884462594986,-0.7742987871170044,0.6124456524848938,-2.352883815765381,4.1171875,0,"['F2', 'B2', 'A1']",6.1,180,0,0.6408793729247569,[22700|0|0]
22700,0.6411287188529968,0.3962059020996094,-0.02641119807958603,-0.7779991030693054,0.6136394739151001,-2.344590902328491,4.11328125,0,"['F2', 'B2', 'A1']",6.1,180,0,0.6412371656533872,[22800|0|0]
22800,0.640880823135376,0.3964775502681732,-0.026346374303102493,-0.786402702331543,0.6209913492202759,-2.3632266521453857,4.11328125,0,"['F2', 'B2', 'A1']",6.1,180,0,0.6416105918660403,[22900|0|0]
22900,0.6409458518028259,0.39594802260398865,-0.026323817670345306,-0.7663930058479309,0.614009439945221,-2.352654457092285,4.11328125,0,"['F2', 'B2', 'A1']",6.1,180,0,0.6421445741470276,[23000|0|0]
23000,0.6410877704620361,0.39600348472595215,-0.02641209587454796,-0.7637465596199036,0.6136754155158997,-2.347611665725708,4.11328125,0,"['F2', 'B2', 'A1']",6.1,180,0,0.6423206706948131,[23100|0|0]
23100,0.6408290863037109,0.3961067795753479,-0.026386814191937447,-0.7694702744483948,0.6223713159561157,-2.351029634475708,4.1171875,0,"['F2', 'B2', 'A1']",6.1,180,0,0.6426003606716727,[23200|0|0]
23200,0.6409040689468384,0.3962292969226837,-0.02613896317780018,-0.772685706615448,0.6222580671310425,-2.3416261672973633,4.11328125,0,"['F2', 'B2', 'A1']",6.1,180,0,0.6428868271136471,[23300|0|0]
23300,0.640731155872345,0.39615926146507263,-0.026544854044914246,-0.7754250168800354,0.6289241313934326,-2.336132287979126,4.11328125,0,"['F2', 'B2', 'A1']",6.1,180,0,0.6433335387573952,[23400|0|0]
23400,0.6412447094917297,0.39607593417167664,-0.026512695476412773,-0.7798937559127808,0.6112879514694214,-2.3368115425109863,4.11328125,0,"['F2', 'B2', 'A1']",6.1,180,0,0.6438548015810609,[23500|0|0]
23500,0.6410559415817261,0.3962905704975128,-0.026577088981866837,-0.7834556102752686,0.6188545227050781,-2.3255653381347656,4.1171875,0,"['F2', 'B2', 'A1']",6.1,180,0,0.6441478008980571,[23600|0|0]
23600,0.6407774686813354,0.396298348903656,-0.026577582582831383,-0.7818865776062012,0.6263056993484497,-2.32975697517395,4.11328125,0,"['F2', 'B2', 'A1']",6.1,180,0,0.6444263828491882,[23700|0|0]
23700,0.6410536766052246,0.3964736759662628,-0.026649560779333115,-0.788105845451355,0.626275360584259,-2.3241705894470215,4.1171875,0,"['F2', 'B2', 'A1']",6.1,180,0,0.6447613623364306,[23800|0|0]
23800,0.6410050988197327,0.39615562558174133,-0.026644840836524963,-0.7846212983131409,0.6280781030654907,-2.319941520690918,4.1171875,0,"['F2', 'B2', 'A1']",6.1,180,0,0.6450831357445886,[23900|0|0]
23900,0.6407999396324158,0.3962695002555847,-0.027073834091424942,-0.783754825592041,0.6374959349632263,-2.3215744495391846,4.11328125,0,"['F2', 'B2', 'A1']",6.1,180,0,0.6455721070589141,[24000|0|0]
24000,0.6408218145370483,0.3963039815425873,-0.02684061788022518,-0.7794189453125,0.6346508264541626,-2.3359360694885254,4.11328125,0,"['F2', 'B2', 'A1']",6.1,180,0,0.64580887122802,[24100|0|0]
24100,0.6405960321426392,0.3960973620414734,-0.02630019001662731,-0.7712878584861755,0.6397055983543396,-2.334721803665161,4.11328125,0,"['F2', 'B2', 'A1']",6.1,180,0,0.6464299441574081,[24200|0|0]
24200,0.6407591700553894,0.39609813690185547,-0.026783712208271027,-0.7702773809432983,0.6398463249206543,-2.332857847213745,4.11328125,0,"['F2', 'B2', 'A1']",6.1,180,0,0.6469402463118196,[24300|0|0]
24300,0.6409244537353516,0.3962840735912323,-0.026822105050086975,-0.769394040107727,0.6430180668830872,-2.343707799911499,4.11328125,0,"['F2', 'B2', 'A1']",6.1,180,0,0.6471919706801691,[24400|0|0]
24400,0.6409628987312317,0.3962530791759491,-0.02674572542309761,-0.7695795297622681,0.6432346701622009,-2.3484444618225098,4.11328125,0,"['F2', 'B2', 'A1']",6.1,180,0,0.647282924068814,[24500|0|0]
24500,0.6408025026321411,0.39625972509384155,-0.026618145406246185,-0.7640960812568665,0.6512873768806458,-2.330963611602783,4.11328125,0,"['F2', 'B2', 'A1']",6.1,180,0,0.6474879795187,[24600|0|0]
24600,0.640775203704834,0.39615437388420105,-0.026338117197155952,-0.7578078508377075,0.6520949602127075,-2.328359365463257,4.11328125,0,"['F2', 'B2', 'A1']",6.1,180,0,0.6477884123842309,[24700|0|0]
24700,0.6408894062042236,0.3960983157157898,-0.02626703679561615,-0.7632541060447693,0.642771303653717,-2.3279929161071777,4.11328125,0,"['F2', 'B2', 'A1']",6.1,180,0,0.6479341421087058,[24800|0|0]
24800,0.6411467790603638,0.39618948101997375,-0.026413097977638245,-0.7496272325515747,0.6421427130699158,-2.3410840034484863,4.11328125,0,"['F2', 'B2', 'A1']",6.1,180,0,0.6482437963814979,[24900|0|0]
24900,0.6413438320159912,0.39604875445365906,-0.02652706392109394,-0.7353235483169556,0.6463322043418884,-2.351343870162964,4.11328125,0,"['F2', 'B2', 'A1']",6.1,180,0,0.6485114193813615,[25000|0|0]
25000,0.6406286358833313,0.3961341083049774,-0.026975320652127266,-0.7325285077095032,0.6726808547973633,-2.3365213871002197,4.11328125,0,"['F2', 'B2', 'A1']",6.1,180,0,0.6493597853902416,[25100|0|0]
25100,0.6410393118858337,0.3961709439754486,-0.026620695367455482,-0.7264074683189392,0.6613577604293823,-2.3436739444732666,4.1171875,0,"['F2', 'B2', 'A1']",6.1,180,0,0.6499036334739736,[25200|0|0]
25200,0.6410908699035645,0.396109402179718,-0.026486298069357872,-0.7231552004814148,0.6603736281394958,-2.346780776977539,4.1171875,0,"['F2', 'B2', 'A1']",6.1,180,0,0.6500601846015646,[25300|0|0]
25300,0.640944242477417,0.39598575234413147,-0.02686356194317341,-0.7175973057746887,0.6664455533027649,-2.343513011932373,4.11328125,0,"['F2', 'B2', 'A1']",6.1,180,0,0.6504834066643467,[25400|0|0]
25400,0.6409352421760559,0.39614516496658325,-0.02653057686984539,-0.7184563875198364,0.6676798462867737,-2.3482959270477295,4.11328125,0,"['F2', 'B2', 'A1']",6.1,180,0,0.6508526930690258,[25500|0|0]
25500,0.6405899524688721,0.3962039351463318,-0.026971258223056793,-0.7236588001251221,0.6798704266548157,-2.347520589828491,4.11328125,0,"['F2', 'B2', 'A1']",6.1,180,0,0.6514156131086256,[25600|0|0]
25600,0.6409295797348022,0.3960256278514862,-0.02680857479572296,-0.7454659938812256,0.6556106805801392,-2.375277280807495,4.11328125,0,"['F2', 'B2', 'A1']",6.1,180,0,0.6518322737243399,[25700|0|0]
25700,0.6410447955131531,0.39622196555137634,-0.0265689454972744,-0.8305158019065857,0.6017293930053711,-2.3876593112945557,4.1171875,0,"['F2', 'B2', 'A1']",6.1,180,0,0.652162796595945,[25800|0|0]
25800,0.6408896446228027,0.396363765001297,-0.02675689198076725,-0.8088145852088928,0.6216461658477783,-2.3818371295928955,4.11328125,0,"['F2', 'B2', 'A1']",6.1,180,0,0.6524447589399408,[25900|0|0]
25900,0.6408460140228271,0.3962048590183258,-0.02624380588531494,-0.778540313243866,0.6333145499229431,-2.375800609588623,4.11328125,0,"['F2', 'B2', 'A1']",6.1,180,0,0.6529836578933864,[26000|0|0]
26000,0.6408208608627319,0.3965250551700592,-0.026460889726877213,-0.7686200141906738,0.6440953612327576,-2.3553171157836914,4.1171875,0,"['F2', 'B2', 'A1']",6.1,180,0,0.6533713222473256,[26100|0|0]
26100,0.6407691836357117,0.39598047733306885,-0.026784103363752365,-0.6639930605888367,0.6930014491081238,-2.3469228744506836,4.11328125,0,"['F2', 'B2', 'A1']",6.1,180,0,0.6540066982079943,[26200|0|0]
26200,0.6408562660217285,0.3963543772697449,-0.026684219017624855,-0.6890621781349182,0.6775327920913696,-2.343463659286499,4.11328125,0,"['F2', 'B2', 'A1']",6.1,180,0,0.6544033862305032,[26300|0|0]
26300,0.6407719850540161,0.3959810137748718,-0.02671089582145214,-0.6892567276954651,0.671022891998291,-2.339069128036499,4.1171875,0,"['F2', 'B2', 'A1']",6.1,180,0,0.6547870726033194,[26400|0|0]
26400,0.6408854722976685,0.39593595266342163,-0.026473361998796463,-0.6908763647079468,0.6568868160247803,-2.3327484130859375,4.11328125,0,"['F2', 'B2', 'A1']",6.1,180,0,0.6550541534434078,[26500|0|0]
26500,0.6406872272491455,0.3962258994579315,-0.02665875107049942,-0.7136662602424622,0.6602439880371094,-2.3315188884735107,4.11328125,0,"['F2', 'B2', 'A1']",6.1,180,0,0.6554513175792727,[26600|0|0]
26600,0.6410439610481262,0.3961099684238434,-0.02650991454720497,-0.7156422138214111,0.6511868834495544,-2.3360188007354736,4.11328125,0,"['F2', 'B2', 'A1']",6.1,180,0,0.6558548659885947,[26700|0|0]
26700,0.6406398415565491,0.39587801694869995,-0.02672482654452324,-0.7137331962585449,0.6674150824546814,-2.350433826446533,4.11328125,0,"['F2', 'B2', 'A1']",6.1,180,0,0.6563679948387727,[26800|0|0]
26800,0.6409682035446167,0.3956977427005768,-0.026575539261102676,-0.7056662440299988,0.6485242247581482,-2.3553965091705322,4.11328125,0,"['F2', 'B2', 'A1']",6.1,180,0,0.6567712405364996,[26900|0|0]
26900,0.640929102897644,0.3957015573978424,-0.026629380881786346,-0.7123802900314331,0.643646776676178,-2.3662102222442627,4.11328125,0,"['F2', 'B2', 'A1']",6.1,180,0,0.6568378913626517,[27000|0|0]
27000,0.6409591436386108,0.3956753611564636,-0.026763277128338814,-0.7067661881446838,0.647159218788147,-2.379101276397705,4.11328125,0,"['F2', 'B2', 'A1']",6.1,180,0,0.6569775942402922,[27100|0|0]
27100,0.640895664691925,0.3960733413696289,-0.0265085157006979,-0.7280046939849854,0.640245795249939,-2.3670542240142822,4.11328125,0,"['F2', 'B2', 'A1']",6.1,180,0,0.6574543763831594,[27200|0|0]
27200,0.6411467790603638,0.3962879776954651,-0.02675035409629345,-0.721884548664093,0.6440011262893677,-2.3580775260925293,4.11328125,0,"['F2', 'B2', 'A1']",6.1,180,0,0.657863782035281,[27300|0|0]
27300,0.6409574151039124,0.3960987329483032,-0.02650672011077404,-0.7109301686286926,0.653938889503479,-2.3510284423828125,4.11328125,0,"['F2', 'B2', 'A1']",6.1,180,0,0.6582257624231908,[27400|0|0]
27400,0.6408478617668152,0.3961811363697052,-0.026776039972901344,-0.7100203037261963,0.6660034656524658,-2.3480935096740723,4.11328125,0,"['F2', 'B2', 'A1']",6.1,180,0,0.6585279634252806,[27500|0|0]
27500,0.6408438682556152,0.3960287570953369,-0.026577824726700783,-0.6996425986289978,0.6691350936889648,-2.346498727798462,4.11328125,0,"['F2', 'B2', 'A1']",6.1,180,0,0.6587780127708408,[27600|0|0]
27600,0.6412414908409119,0.3960931897163391,-0.02664506435394287,-0.7040128111839294,0.6523798108100891,-2.3292744159698486,4.11328125,0,"['F2', 'B2', 'A1']",6.1,180,0,0.6591863954963065,[27700|0|0]
27700,0.6410472989082336,0.3958216905593872,-0.026721393689513206,-0.7006101012229919,0.658213198184967,-2.3532660007476807,4.11328125,0,"['F2', 'B2', 'A1']",6.1,180,0,0.6595288111303123,[27800|0|0]
27800,0.6410263180732727,0.39604076743125916,-0.02676343359053135,-0.7058731913566589,0.655048668384552,-2.349869728088379,4.11328125,0,"['F2', 'B2', 'A1']",6.1,180,0,0.6597528696595015,[27900|0|0]
27900,0.640928328037262,0.39576852321624756,-0.026662858203053474,-0.6944385170936584,0.6495407223701477,-2.340698003768921,4.11328125,0,"['F2', 'B2', 'A1']",6.1,180,0,0.6600591936192745,[28000|0|0]
28000,0.6408719420433044,0.3961930572986603,-0.02665656805038452,-0.7092562913894653,0.6435679197311401,-2.315568447113037,4.11328125,0,"['F2', 'B2', 'A1']",6.1,180,0,0.6604875020752559,[28100|0|0]
28100,0.6408204436302185,0.3960268497467041,-0.027004102244973183,-0.7114028334617615,0.647599995136261,-2.326298952102661,4.11328125,0,"['F2', 'B2', 'A1']",6.1,180,0,0.6608761626640555,[28200|0|0]
28200,0.6412241458892822,0.3960455060005188,-0.026869308203458786,-0.7090982794761658,0.6437053084373474,-2.3311550617218018,4.11328125,0,"['F2', 'B2', 'A1']",6.1,180,0,0.6613021826206389,[28300|0|0]
28300,0.64081871509552,0.395897775888443,-0.026541544124484062,-0.7104523777961731,0.6551005840301514,-2.33139705657959,4.11328125,0,"['F2', 'B2', 'A1']",6.1,180,0,0.6618440567813171,[28400|0|0]
28400,0.6406759023666382,0.396267294883728,-0.0264473594725132,-0.8175997138023376,0.599181056022644,-2.3400309085845947,4.11328125,0,"['F2', 'B2', 'A1']",6.1,180,0,0.6622512551507563,[28500|0|0]
28500,0.6410650014877319,0.3965587913990021,-0.026387114077806473,-0.8102372288703918,0.5950691103935242,-2.338172435760498,4.11328125,0,"['F2', 'B2', 'A1']",6.1,180,0,0.6627411509070517,[28600|0|0]
28600,0.640895426273346,0.3962283432483673,-0.026847802102565765,-0.7872507572174072,0.6041418313980103,-2.348609685897827,4.11328125,0,"['F2', 'B2', 'A1']",6.1,180,0,0.6633329153785676,[28700|0|0]
28700,0.6412336230278015,0.3959197402000427,-0.026461899280548096,-0.7775307893753052,0.6030703186988831,-2.3396880626678467,4.11328125,0,"['F2', 'B2', 'A1']",6.1,180,0,0.6639316923605908,[28800|0|0]
28800,0.6407099962234497,0.3960021436214447,-0.02675476297736168,-0.7612020373344421,0.6348491907119751,-2.3369357585906982,4.11328125,0,"['F2', 'B2', 'A1']",6.1,180,0,0.6645372866959389,[28900|0|0]
28900,0.6411495804786682,0.3956160843372345,-0.026826422661542892,-0.7364325523376465,0.6355412006378174,-2.3233678340911865,4.11328125,0,"['F2', 'B2', 'A1']",6.1,180,0,0.6651267026769726,[29000|0|0]
29000,0.6410307884216309,0.3960084021091461,-0.026832623407244682,-0.6866101622581482,0.6787052154541016,-2.3312618732452393,4.11328125,0,"['F2', 'B2', 'A1']",6.1,180,0,0.6655366578406431,[29100|0|0]
29100,0.6407723426818848,0.39605948328971863,-0.026476282626390457,-0.6878805160522461,0.682570219039917,-2.325190305709839,4.11328125,0,"['F2', 'B2', 'A1']",6.1,180,0,0.6659798081983113,[29200|0|0]
29200,0.6410650014877319,0.3964180052280426,-0.026741335168480873,-0.7009089589118958,0.6661705374717712,-2.3381240367889404,4.11328125,0,"['F2', 'B2', 'A1']",6.1,180,0,0.6665131373714943,[29300|0|0]
29300,0.6411067247390747,0.396236777305603,-0.027102705091238022,-0.701164960861206,0.6595405340194702,-2.325394630432129,4.11328125,0,"['F2', 'B2', 'A1']",6.1,180,0,0.6669195517052079,[29400|0|0]
29400,0.6411322355270386,0.3958497941493988,-0.02664739079773426,-0.6920287013053894,0.6553864479064941,-2.3216609954833984,4.11328125,0,"['F2', 'B2', 'A1']",6.1,180,0,0.6675176469061226,[29500|0|0]
29500,0.6410812139511108,0.3959711492061615,-0.026928802952170372,-0.704128623008728,0.6562275290489197,-2.3525311946868896,4.11328125,0,"['F2', 'B2', 'A1']",6.1,180,0,0.6678283284982333,[29600|0|0]
29600,0.6408175826072693,0.39601433277130127,-0.026781363412737846,-0.7072715163230896,0.6597510576248169,-2.3481221199035645,4.11328125,0,"['F2', 'B2', 'A1']",6.1,180,0,0.6681334591645747,[29700|0|0]
29700,0.6408911943435669,0.3964056372642517,-0.026826120913028717,-0.7246382832527161,0.6567903161048889,-2.334066390991211,4.11328125,0,"['F2', 'B2', 'A1']",6.1,180,0,0.6685341350033225,[29800|0|0]
29800,0.6406599283218384,0.39610716700553894,-0.02689199149608612,-0.7145462036132812,0.6576458811759949,-2.333693742752075,4.11328125,0,"['F2', 'B2', 'A1']",6.1,180,0,0.6689174200171888,[29900|0|0]
29900,0.6410559415817261,0.3957376778125763,-0.026684129610657692,-0.7039481401443481,0.650252103805542,-2.3404619693756104,4.11328125,0,"['F2', 'B2', 'A1']",6.1,180,0,0.6694975539061635,[30000|0|0]
