time.ms,stateEstimate.x,stateEstimate.y,stateEstimate.z,stabilizer.roll,stabilizer.pitch,stabilizer.yaw,pm.vbat,drone_id,node_name,wind_speed,global_wind_direction,relative_wind_direction,travel_dist,waiting_time
0,1.296025037765503,-0.2843270003795624,0.026096871122717857,0.6223879456520081,0.8361422419548035,-6.875473976135254,4.1171875,2,"['F2', 'B2', 'A1']",6.1,180,0,0.08027297573920025,[100|0|0]
100,1.2961580753326416,-0.2845390737056732,0.026156893000006676,0.6374397873878479,0.8294268846511841,-6.891176223754883,4.1171875,2,"['F2', 'B2', 'A1']",6.1,180,0,0.08053041838460145,[200|0|0]
200,1.2964591979980469,-0.2847948670387268,0.025841932743787766,0.6501170992851257,0.8144683241844177,-6.915989398956299,4.1171875,2,"['F2', 'B2', 'A1']",6.1,180,0,0.08103569558758307,[300|0|0]
300,1.2962532043457031,-0.28441673517227173,0.026339860633015633,0.6331152319908142,0.8311924338340759,-6.9214277267456055,4.1171875,2,"['F2', 'B2', 'A1']",6.1,180,0,0.08169398828548093,[400|0|0]
400,1.295863389968872,-0.2839430570602417,0.026380401104688644,0.6281490325927734,0.8482379913330078,-6.922286510467529,4.1171875,2,"['F2', 'B2', 'A1']",6.1,180,0,0.08230878071552865,[500|0|0]
500,1.2962992191314697,-0.28465738892555237,0.02617138996720314,0.6633015275001526,0.8304554224014282,-6.911469459533691,4.1171875,2,"['F2', 'B2', 'A1']",6.1,180,0,0.08317127867399683,[600|0|0]
600,1.296034336090088,-0.28431862592697144,0.026292677968740463,0.6513327956199646,0.8415467739105225,-6.913510799407959,4.1171875,2,"['F2', 'B2', 'A1']",6.1,180,0,0.0836180830765447,[700|0|0]
700,1.296015739440918,-0.284443199634552,0.026151040568947792,0.6534436345100403,0.8404425382614136,-6.9050068855285645,4.1171875,2,"['F2', 'B2', 'A1']",6.1,180,0,0.08380762356562486,[800|0|0]
800,1.2962771654129028,-0.2843973934650421,0.02587595209479332,0.6440523266792297,0.8222121000289917,-6.9076972007751465,4.1171875,2,"['F2', 'B2', 'A1']",6.1,180,0,0.08418987402357886,[900|0|0]
900,1.2960710525512695,-0.2844136655330658,0.026133524253964424,0.6584859490394592,0.8245434165000916,-6.913826942443848,4.1171875,2,"['F2', 'B2', 'A1']",6.1,180,0,0.08452016285037822,[1000|0|0]
1000,1.296377182006836,-0.2848134934902191,0.025716416537761688,0.6613800525665283,0.8101930618286133,-6.905435562133789,4.1171875,2,"['F2', 'B2', 'A1']",6.1,180,0,0.08517404088625544,[1100|0|0]
1101,1.2963768243789673,-0.2848820984363556,0.025982674211263657,0.6590555906295776,0.8149670958518982,-6.890773773193359,4.1171875,2,"['F2', 'B2', 'A1']",6.1,180,0,0.08544899527380137,[1200|0|0]
1201,1.2967594861984253,-0.2851054072380066,0.02587258443236351,0.6600696444511414,0.8048048615455627,-6.887736797332764,4.1171875,2,"['F2', 'B2', 'A1']",6.1,180,0,0.08590552199633139,[1300|0|0]
1301,1.2963309288024902,-0.2845480144023895,0.025976596400141716,0.6407008767127991,0.8333430290222168,-6.911761283874512,4.1171875,2,"['F2', 'B2', 'A1']",6.1,180,0,0.08661627279953106,[1400|0|0]
1401,1.2960996627807617,-0.2843855917453766,0.025697318837046623,0.646075963973999,0.8345715403556824,-6.8632073402404785,4.1171875,2,"['F2', 'B2', 'A1']",6.1,180,0,0.08701359011549603,[1500|0|0]
1501,1.2961537837982178,-0.28442415595054626,0.026082364842295647,0.6494596004486084,0.8251204490661621,-6.88748025894165,4.1171875,2,"['F2', 'B2', 'A1']",6.1,180,0,0.0874043287859768,[1600|0|0]
1601,1.296078085899353,-0.28436577320098877,0.025723304599523544,0.6455027461051941,0.8341410160064697,-6.90353536605835,4.1171875,2,"['F2', 'B2', 'A1']",6.1,180,0,0.0877758970506039,[1700|0|0]
1701,1.2961108684539795,-0.2844274640083313,0.026232507079839706,0.6454676389694214,0.832923173904419,-6.90581750869751,4.1171875,2,"['F2', 'B2', 'A1']",6.1,180,0,0.08828986944048349,[1800|0|0]
1801,1.2957184314727783,-0.28407782316207886,0.026666253805160522,0.6334822177886963,0.8409002423286438,-6.883802890777588,4.1171875,2,"['F2', 'B2', 'A1']",6.1,180,0,0.08897133237220388,[1900|0|0]
1901,1.2958199977874756,-0.2841949462890625,0.026545576751232147,0.6411633491516113,0.8308679461479187,-6.885268688201904,4.1171875,2,"['F2', 'B2', 'A1']",6.1,180,0,0.08916779227778372,[2000|0|0]
2001,1.2957592010498047,-0.2840460240840912,0.026248354464769363,0.6368952989578247,0.8298360705375671,-6.899801254272461,4.1171875,2,"['F2', 'B2', 'A1']",6.1,180,0,0.08950574960351451,[2100|0|0]
2101,1.2965004444122314,-0.28464484214782715,0.025931106880307198,0.6525393128395081,0.795759379863739,-6.906004905700684,4.1171875,2,"['F2', 'B2', 'A1']",6.1,180,0,0.0905100756589593,[2200|0|0]
2202,1.2961349487304688,-0.2843382656574249,0.026447132229804993,0.6416817903518677,0.8278615474700928,-6.90764856338501,4.1171875,2,"['F2', 'B2', 'A1']",6.1,180,0,0.09121282625424816,[2300|0|0]
2301,1.2964134216308594,-0.2846401035785675,0.02579088695347309,0.653226375579834,0.828383207321167,-6.932742595672607,4.1171875,2,"['F2', 'B2', 'A1']",6.1,180,0,0.09198697814477066,[2400|0|0]
2401,1.2964749336242676,-0.2849726676940918,0.02550528571009636,0.6492815613746643,0.8306538462638855,-6.924688816070557,4.1171875,2,"['F2', 'B2', 'A1']",6.1,180,0,0.09242964131975345,[2500|0|0]
2502,1.2963029146194458,-0.28468337655067444,0.02603943645954132,0.6295293569564819,0.8281809687614441,-6.923226833343506,4.1171875,2,"['F2', 'B2', 'A1']",6.1,180,0,0.09306098665062414,[2600|0|0]
2602,1.2957782745361328,-0.28415626287460327,0.026368148624897003,0.6176460385322571,0.8467695713043213,-6.911157131195068,4.1171875,2,"['F2', 'B2', 'A1']",6.1,180,0,0.09387409656457965,[2700|0|0]
2702,1.295886516571045,-0.28437745571136475,0.02648257277905941,0.6257597804069519,0.8395518660545349,-6.894134044647217,4.1171875,2,"['F2', 'B2', 'A1']",6.1,180,0,0.09414563937190897,[2800|0|0]
2802,1.2959160804748535,-0.28434881567955017,0.026329318061470985,0.6274814605712891,0.840025782585144,-6.904055118560791,4.1171875,2,"['F2', 'B2', 'A1']",6.1,180,0,0.09430432549069019,[2900|0|0]
2900,1.2961983680725098,-0.2845582664012909,0.02581109292805195,0.6320185661315918,0.8259971141815186,-6.91184139251709,4.1171875,2,"['F2', 'B2', 'A1']",6.1,180,0,0.09493051490415502,[3000|0|0]
3000,1.2964857816696167,-0.28485107421875,0.02574799582362175,0.6386635303497314,0.8221325874328613,-6.925940990447998,4.1171875,2,"['F2', 'B2', 'A1']",6.1,180,0,0.09534563445121898,[3100|0|0]
3100,1.2963054180145264,-0.28455933928489685,0.02587355300784111,0.6275255680084229,0.8354170322418213,-6.919170379638672,4.1171875,2,"['F2', 'B2', 'A1']",6.1,180,0,0.09571088084232632,[3200|0|0]
3202,1.2959343194961548,-0.2841508090496063,0.02647295407950878,0.6287901401519775,0.8536890149116516,-6.9159321784973145,4.1171875,2,"['F2', 'B2', 'A1']",6.1,180,0,0.09652567695682397,[3300|0|0]
3300,1.2960184812545776,-0.2844087481498718,0.02598421834409237,0.639603853225708,0.8494136333465576,-6.914481163024902,4.1171875,2,"['F2', 'B2', 'A1']",6.1,180,0,0.09708467463132685,[3400|0|0]
3400,1.2961381673812866,-0.2844582796096802,0.025720736011862755,0.6480269432067871,0.8443555235862732,-6.924565315246582,4.1171875,2,"['F2', 'B2', 'A1']",6.1,180,0,0.09737827482518663,[3500|0|0]
3500,1.296025276184082,-0.28464028239250183,0.025972208008170128,0.6564542651176453,0.8469406366348267,-6.912780284881592,4.1171875,2,"['F2', 'B2', 'A1']",6.1,180,0,0.0977085892213124,[3600|0|0]
3600,1.2960368394851685,-0.2843177020549774,0.02623480185866356,0.6388384103775024,0.8370726108551025,-6.938173770904541,4.1171875,2,"['F2', 'B2', 'A1']",6.1,180,0,0.09812469895973046,[3700|0|0]
3700,1.295844316482544,-0.28416907787323,0.02624640055000782,0.6429861187934875,0.8470624685287476,-6.938657283782959,4.1171875,2,"['F2', 'B2', 'A1']",6.1,180,0,0.098368191841722,[3800|0|0]
3800,1.2961441278457642,-0.2846611440181732,0.025792932137846947,0.6616224646568298,0.8299887776374817,-6.945807933807373,4.1171875,2,"['F2', 'B2', 'A1']",6.1,180,0,0.0991014377386372,[3900|0|0]
3900,1.2959790229797363,-0.28435018658638,0.02561177872121334,0.6407440304756165,0.8363130688667297,-6.948843479156494,4.1171875,2,"['F2', 'B2', 'A1']",6.1,180,0,0.09949738053947026,[4000|0|0]
4000,1.2966558933258057,-0.28492993116378784,0.02529166080057621,0.6558494567871094,0.8035253286361694,-6.946279048919678,4.1171875,2,"['F2', 'B2', 'A1']",6.1,180,0,0.10044434026592902,[4100|0|0]
4100,1.2961883544921875,-0.28467297554016113,0.026211047545075417,0.6542671322822571,0.8295884132385254,-6.941253662109375,4.1171875,2,"['F2', 'B2', 'A1']",6.1,180,0,0.10150730345410408,[4200|0|0]
4200,1.2961615324020386,-0.2845074534416199,0.02624715305864811,0.639307975769043,0.8256344199180603,-6.937905788421631,4.1171875,2,"['F2', 'B2', 'A1']",6.1,180,0,0.10167882778979966,[4300|0|0]
4300,1.2962772846221924,-0.28471431136131287,0.026067646220326424,0.646035373210907,0.822486400604248,-6.912856101989746,4.1171875,2,"['F2', 'B2', 'A1']",6.1,180,0,0.10197616847052549,[4400|0|0]
4400,1.2959457635879517,-0.2841509282588959,0.02625380828976631,0.6186382174491882,0.8337351679801941,-6.9013590812683105,4.1171875,2,"['F2', 'B2', 'A1']",6.1,180,0,0.1026558470948261,[4500|0|0]
4500,1.2957998514175415,-0.283942848443985,0.02648506686091423,0.6146098375320435,0.83680659532547,-6.885181427001953,4.1171875,2,"['F2', 'B2', 'A1']",6.1,180,0,0.10299945748113089,[4600|0|0]
4600,1.2957483530044556,-0.28423798084259033,0.026445422321558,0.635586678981781,0.8370887041091919,-6.8746113777160645,4.1171875,2,"['F2', 'B2', 'A1']",6.1,180,0,0.10330166090394023,[4700|0|0]
4700,1.2958545684814453,-0.2844237685203552,0.02635987475514412,0.6397584676742554,0.8268276453018188,-6.871305465698242,4.1171875,2,"['F2', 'B2', 'A1']",6.1,180,0,0.10353213253968044,[4800|0|0]
4800,1.144330382347107,0.07626909762620926,-0.6411372423171997,0.0008024339331313968,0.003916353918612003,-3.565779685974121,4.1171875,2,"['F2', 'B2', 'A1']",6.1,180,0,0.8772318959961438,[4900|0|0]
4900,1.3253169059753418,-0.32130205631256104,0.00025831907987594604,-5.9593939781188965,0.3441050052642822,-5.9330644607543945,4.1171875,2,"['F2', 'B2', 'A1']",6.1,180,0,1.6532520055030488,[5000|0|0]
5000,1.3786851167678833,-0.4114963412284851,0.14214518666267395,-2.09151554107666,-2.4755985736846924,-6.651167392730713,4.1171875,2,"['F2', 'B2', 'A1']",6.1,180,0,1.829646614681307,[5100|0|0]
5100,1.4093388319015503,-0.46248260140419006,0.21918827295303345,-2.750706672668457,-1.6097365617752075,-6.789884567260742,4.1171875,2,"['F2', 'B2', 'A1']",6.1,180,0,1.9269856414041198,[5200|0|0]
5200,1.3916813135147095,-0.4271361827850342,0.1613522320985794,-6.443061828613281,0.7110460996627808,-6.737220764160156,4.1171875,2,"['F2', 'B2', 'A1']",6.1,180,0,1.9970296624658799,[5300|0|0]
5300,1.3492622375488281,-0.34924280643463135,0.035074587911367416,-9.551709175109863,3.2057862281799316,-6.58486795425415,4.1171875,2,"['F2', 'B2', 'A1']",6.1,180,0,2.151343626534388,[5400|0|0]
5400,1.3274388313293457,-0.3162144720554352,-0.019461791962385178,-9.946161270141602,3.6934151649475098,-6.808959484100342,4.1171875,2,"['F2', 'B2', 'A1']",6.1,180,0,2.218733155844354,[5500|0|0]
5500,1.3278274536132812,-0.3179779052734375,-0.016905469819903374,-8.84876823425293,3.6004648208618164,-7.042865753173828,4.1171875,2,"['F2', 'B2', 'A1']",6.1,180,0,2.22186293329492,[5600|0|0]
5600,1.3275328874588013,-0.31793704628944397,-0.015976587310433388,-7.315351486206055,3.415959119796753,-7.206108570098877,4.1171875,2,"['F2', 'B2', 'A1']",6.1,180,0,2.2228382595953637,[5700|0|0]
5700,1.3275368213653564,-0.3187253177165985,-0.014865022152662277,-5.693057537078857,3.1284210681915283,-7.3165998458862305,4.1171875,2,"['F2', 'B2', 'A1']",6.1,180,0,2.2242009644124314,[5800|0|0]
5800,1.327714443206787,-0.31954067945480347,-0.014306413941085339,-4.269778251647949,2.8015034198760986,-7.3629889488220215,4.1171875,2,"['F2', 'B2', 'A1']",6.1,180,0,2.225205159322159,[5900|0|0]
5900,1.327783226966858,-0.32084012031555176,-0.013502414338290691,-3.096791982650757,2.4855480194091797,-7.3827009201049805,4.1171875,2,"['F2', 'B2', 'A1']",6.1,180,0,2.226734764865273,[6000|0|0]
6000,1.328177571296692,-0.32150185108184814,-0.013101617805659771,-2.190037488937378,2.1870059967041016,-7.347290515899658,4.1171875,2,"['F2', 'B2', 'A1']",6.1,180,0,2.2276031155537073,[6100|0|0]
6100,1.3278719186782837,-0.32202887535095215,-0.013497358188033104,-1.4594440460205078,1.9631177186965942,-7.3038153648376465,4.1171875,2,"['F2', 'B2', 'A1']",6.1,180,0,2.2283296061273594,[6200|0|0]
6200,1.327886939048767,-0.32303863763809204,-0.01314250472933054,-0.8824889659881592,1.7855290174484253,-7.251349449157715,4.1171875,2,"['F2', 'B2', 'A1']",6.1,180,0,2.229400010941069,[6300|0|0]
6300,1.328151822090149,-0.323915958404541,-0.01251599658280611,-0.4284563958644867,1.615220546722412,-7.189966201782227,4.1171875,2,"['F2', 'B2', 'A1']",6.1,180,0,2.2305101312996407,[6400|0|0]
6400,1.3285101652145386,-0.3244967758655548,-0.012057822197675705,-0.08535776287317276,1.4729024171829224,-7.133553981781006,4.1171875,2,"['F2', 'B2', 'A1']",6.1,180,0,2.2313321303781106,[6500|0|0]
6500,1.3282428979873657,-0.3248254656791687,-0.012006151489913464,0.1732877790927887,1.365289330482483,-7.079716205596924,4.1171875,2,"['F2', 'B2', 'A1']",6.1,180,0,2.2317589073999087,[6600|0|0]
6600,1.3285155296325684,-0.325351744890213,-0.01170019805431366,0.37143465876579285,1.2650352716445923,-7.051635265350342,4.1171875,2,"['F2', 'B2', 'A1']",6.1,180,0,2.232425919638701,[6700|0|0]
6700,1.3286396265029907,-0.3258335292339325,-0.011244520545005798,0.5177099704742432,1.174812912940979,-6.989674091339111,4.1171875,2,"['F2', 'B2', 'A1']",6.1,180,0,2.2331005737571874,[6800|0|0]
6800,1.3288764953613281,-0.3261391222476959,-0.010901762172579765,0.6352502107620239,1.1068869829177856,-6.954809665679932,4.1171875,2,"['F2', 'B2', 'A1']",6.1,180,0,2.2336172721682352,[6900|0|0]
6900,1.328742265701294,-0.32620465755462646,-0.010946571826934814,0.7150056958198547,1.062387466430664,-6.930035591125488,4.1171875,2,"['F2', 'B2', 'A1']",6.1,180,0,2.233773222106391,[7000|0|0]
7000,1.3289088010787964,-0.3265322148799896,-0.011138008907437325,0.774152934551239,1.0186740159988403,-6.912787437438965,4.1171875,2,"['F2', 'B2', 'A1']",6.1,180,0,2.234187560119552,[7100|0|0]
7100,1.3288313150405884,-0.3264203667640686,-0.011257906444370747,0.8130397796630859,0.984717845916748,-6.893898010253906,4.1171875,2,"['F2', 'B2', 'A1']",6.1,180,0,2.2343689147624892,[7200|0|0]
7200,1.328815221786499,-0.3266909718513489,-0.010985278524458408,0.8477138876914978,0.9579258561134338,-6.868628025054932,4.1171875,2,"['F2', 'B2', 'A1']",6.1,180,0,2.2347533781402054,[7300|0|0]
7300,1.3289035558700562,-0.3264625668525696,-0.011253679171204567,0.8497285842895508,0.9257398843765259,-6.874719619750977,4.1171875,2,"['F2', 'B2', 'A1']",6.1,180,0,2.235116710854063,[7400|0|0]
7400,1.3291712999343872,-0.32674524188041687,-0.010897897183895111,0.8667668700218201,0.9131718277931213,-6.86108922958374,4.1171875,2,"['F2', 'B2', 'A1']",6.1,180,0,2.2356441318224047,[7500|0|0]
7500,1.3291922807693481,-0.3268602192401886,-0.010906675830483437,0.8711947798728943,0.9084264039993286,-6.841446399688721,4.1171875,2,"['F2', 'B2', 'A1']",6.1,180,0,2.2357613369986202,[7600|0|0]
7600,1.3292332887649536,-0.3269127309322357,-0.010775081813335419,0.8641839027404785,0.8987030982971191,-6.8343658447265625,4.1171875,2,"['F2', 'B2', 'A1']",6.1,180,0,2.2359088365540583,[7700|0|0]
7700,1.3291165828704834,-0.326873242855072,-0.010720567777752876,0.8473007082939148,0.8857285976409912,-6.8382344245910645,4.1171875,2,"['F2', 'B2', 'A1']",6.1,180,0,2.2360435635154197,[7800|0|0]
7800,1.3291537761688232,-0.3267461955547333,-0.010579865425825119,0.8099789619445801,0.8593257665634155,-6.8549628257751465,4.1171875,2,"['F2', 'B2', 'A1']",6.1,180,0,2.2362367512733203,[7900|0|0]
7900,1.3289830684661865,-0.3265400826931,-0.010918619111180305,0.793027937412262,0.8529017567634583,-6.827023506164551,4.1171875,2,"['F2', 'B2', 'A1']",6.1,180,0,2.236668466099116,[8000|0|0]
8000,1.3291434049606323,-0.3266048729419708,-0.010811935178935528,0.773722767829895,0.8377270102500916,-6.826700687408447,4.1171875,2,"['F2', 'B2', 'A1']",6.1,180,0,2.23687165819837,[8100|0|0]
8100,1.3293218612670898,-0.3267197012901306,-0.010652169585227966,0.7642236948013306,0.8289647102355957,-6.850864410400391,4.1171875,2,"['F2', 'B2', 'A1']",6.1,180,0,2.237137284341263,[8200|0|0]
8200,1.328998327255249,-0.3266092538833618,-0.010939722880721092,0.7527870535850525,0.8374478816986084,-6.8450751304626465,4.1171875,2,"['F2', 'B2', 'A1']",6.1,180,0,2.2375840054894405,[8300|0|0]
8300,1.3291857242584229,-0.3267020285129547,-0.010467404499650002,0.7444469928741455,0.8323979377746582,-6.825610160827637,4.1171875,2,"['F2', 'B2', 'A1']",6.1,180,0,2.2381005414724973,[8400|0|0]
8400,1.3293044567108154,-0.32674893736839294,-0.010792468674480915,0.7440793514251709,0.8253728151321411,-6.809340476989746,4.1171875,2,"['F2', 'B2', 'A1']",6.1,180,0,2.238449775711552,[8500|0|0]
8500,1.329918622970581,-0.3263908922672272,-0.010874706320464611,0.7471781373023987,0.8405284881591797,-6.825899124145508,4.1171875,2,"['F2', 'B2', 'A1']",6.1,180,0,2.2391654289233243,[8600|0|0]
8600,1.3290672302246094,-0.3270374834537506,-0.010775377042591572,0.832499623298645,0.9053316116333008,-6.8253173828125,4.1171875,2,"['F2', 'B2', 'A1']",6.1,180,0,2.2402391216521,[8700|0|0]
8700,1.329035997390747,-0.32667192816734314,-0.010806985199451447,0.7842724919319153,0.8871175050735474,-6.8210015296936035,4.1171875,2,"['F2', 'B2', 'A1']",6.1,180,0,2.2406073678101404,[8800|0|0]
8800,1.329123616218567,-0.326801061630249,-0.010798648931086063,0.7558247447013855,0.8691273331642151,-6.818058490753174,4.1171875,2,"['F2', 'B2', 'A1']",6.1,180,0,2.240763643219597,[8900|0|0]
8900,1.3290280103683472,-0.3265233337879181,-0.010910702869296074,0.7223806977272034,0.8594112992286682,-6.835422039031982,4.1171875,2,"['F2', 'B2', 'A1']",6.1,180,0,2.2410780145256513,[9000|0|0]
9000,1.3291047811508179,-0.32665157318115234,-0.010911449790000916,0.7131145000457764,0.8571352362632751,-6.859506607055664,4.1171875,2,"['F2', 'B2', 'A1']",6.1,180,0,2.2412274790796727,[9100|0|0]
9100,1.3290729522705078,-0.32662633061408997,-0.010964872315526009,0.7460646629333496,0.8735063672065735,-6.869530200958252,4.1171875,2,"['F2', 'B2', 'A1']",6.1,180,0,2.241294592647952,[9200|0|0]
9200,1.3289865255355835,-0.3265303373336792,-0.011116566136479378,0.7736904621124268,0.8937863111495972,-6.871650218963623,4.1171875,2,"['F2', 'B2', 'A1']",6.1,180,0,2.2414938294560702,[9300|0|0]
9300,1.3292231559753418,-0.3267429769039154,-0.010930082760751247,0.7984446883201599,0.9039314985275269,-6.875857830047607,4.1171875,2,"['F2', 'B2', 'A1']",6.1,180,0,2.2418625917118304,[9400|0|0]
9400,1.328997015953064,-0.3264563977718353,-0.011037108488380909,0.8052307963371277,0.9232642650604248,-6.887435436248779,4.1171875,2,"['F2', 'B2', 'A1']",6.1,180,0,2.2422430143912204,[9500|0|0]
9500,1.329224705696106,-0.3268504738807678,-0.010804490186274052,0.8296079635620117,0.9246201515197754,-6.875662803649902,4.1171875,2,"['F2', 'B2', 'A1']",6.1,180,0,2.2427541404746805,[9600|0|0]
9600,1.3291534185409546,-0.3267914950847626,-0.010928592644631863,0.8350014090538025,0.9259194731712341,-6.893446445465088,4.1171875,2,"['F2', 'B2', 'A1']",6.1,180,0,2.2429089363952928,[9700|0|0]
9700,1.329167127609253,-0.3268595039844513,-0.01052823942154646,0.845817506313324,0.9271747469902039,-6.887467384338379,4.1171875,2,"['F2', 'B2', 'A1']",6.1,180,0,2.2433152562843275,[9800|0|0]
9800,1.3292731046676636,-0.3270135521888733,-0.010742622427642345,0.8531415462493896,0.9267064332962036,-6.891583442687988,4.1171875,2,"['F2', 'B2', 'A1']",6.1,180,0,2.243599724313283,[9900|0|0]
9900,1.329108476638794,-0.32666635513305664,-0.01071830652654171,0.843096137046814,0.9261373281478882,-6.881199836730957,4.1171875,2,"['F2', 'B2', 'A1']",6.1,180,0,2.2439847430745186,[10000|0|0]
10000,1.3289612531661987,-0.3268973231315613,-0.010876962915062904,0.8495076894760132,0.92161625623703,-6.8690185546875,4.1171875,2,"['F2', 'B2', 'A1']",6.1,180,0,2.244301275563901,[10100|0|0]
10100,1.3291956186294556,-0.32697489857673645,-0.010724865831434727,0.8566811084747314,0.9200143814086914,-6.855620384216309,4.1171875,2,"['F2', 'B2', 'A1']",6.1,180,0,2.244591238738994,[10200|0|0]
10200,1.329031229019165,-0.32677149772644043,-0.01112245675176382,0.8530645966529846,0.9203064441680908,-6.864214897155762,4.1171875,2,"['F2', 'B2', 'A1']",6.1,180,0,2.2450671319936224,[10300|0|0]
10300,1.329036831855774,-0.32694870233535767,-0.010960236191749573,0.8557496070861816,0.9114895462989807,-6.873624801635742,4.1171875,2,"['F2', 'B2', 'A1']",6.1,180,0,2.245307440910001,[10400|0|0]
10400,1.3291187286376953,-0.32689571380615234,-0.01071067713201046,0.849212646484375,0.909934937953949,-6.862607955932617,4.1171875,2,"['F2', 'B2', 'A1']",6.1,180,0,2.245575386037619,[10500|0|0]
10500,1.3292180299758911,-0.32693004608154297,-0.010740727186203003,0.8556967973709106,0.9108138084411621,-6.833983898162842,4.11328125,2,"['F2', 'B2', 'A1']",6.1,180,0,2.2456846676310276,[10600|0|0]
10600,1.32999587059021,-0.32641834020614624,-0.01089963223785162,0.6689817905426025,0.8005521893501282,-6.855634689331055,4.1171875,2,"['F2', 'B2', 'A1']",6.1,180,0,2.24662919382952,[10700|0|0]
10700,1.3298314809799194,-0.32644662261009216,-0.01100838091224432,0.693488359451294,0.8117518424987793,-6.8597636222839355,4.1171875,2,"['F2', 'B2', 'A1']",6.1,180,0,2.2468283171895926,[10800|0|0]
10800,1.3301945924758911,-0.3267393112182617,-0.010589131154119968,0.7172316908836365,0.8128429651260376,-6.87993049621582,4.1171875,2,"['F2', 'B2', 'A1']",6.1,180,0,2.247455443125547,[10900|0|0]
10900,1.3299429416656494,-0.32663655281066895,-0.010603303089737892,0.7386003136634827,0.8348240256309509,-6.884952068328857,4.1171875,2,"['F2', 'B2', 'A1']",6.1,180,0,2.2477276347205413,[11000|0|0]
11000,1.3299617767333984,-0.3266432583332062,-0.01061226800084114,0.7542787790298462,0.8440561294555664,-6.859673976898193,4.1171875,2,"['F2', 'B2', 'A1']",6.1,180,0,2.24774954575522,[11100|0|0]
11100,1.3300212621688843,-0.32648229598999023,-0.010829700157046318,0.7596890926361084,0.8478909134864807,-6.86787748336792,4.1171875,2,"['F2', 'B2', 'A1']",6.1,180,0,2.248026536974432,[11200|0|0]
11200,1.3299745321273804,-0.3264468014240265,-0.011015116237103939,0.7600150108337402,0.8524457812309265,-6.882543087005615,4.1171875,2,"['F2', 'B2', 'A1']",6.1,180,0,2.248221017522909,[11300|0|0]
11300,1.3299129009246826,-0.32671499252319336,-0.010490722954273224,0.7679507732391357,0.8509584665298462,-6.857694149017334,4.1171875,2,"['F2', 'B2', 'A1']",6.1,180,0,2.248813227946573,[11400|0|0]
11400,1.3300738334655762,-0.3267987370491028,-0.010721784085035324,0.7719313502311707,0.8525351881980896,-6.847561359405518,4.1171875,2,"['F2', 'B2', 'A1']",6.1,180,0,2.249106999413001,[11500|0|0]
11500,1.329866886138916,-0.32626157999038696,-0.011130576953291893,0.7548949122428894,0.8592347502708435,-6.856729507446289,4.11328125,2,"['F2', 'B2', 'A1']",6.1,180,0,2.2498130281028415,[11600|0|0]
11600,1.3300232887268066,-0.32662636041641235,-0.010897431522607803,0.763043999671936,0.8527717590332031,-6.880131244659424,4.1171875,2,"['F2', 'B2', 'A1']",6.1,180,0,2.2502733359569556,[11700|0|0]
11700,1.3299485445022583,-0.32663965225219727,-0.01099818479269743,0.7740033268928528,0.8644883632659912,-6.878899574279785,4.1171875,2,"['F2', 'B2', 'A1']",6.1,180,0,2.2503994890125494,[11800|0|0]
11800,1.329741358757019,-0.3264788091182709,-0.010902132838964462,0.7587729692459106,0.8675216436386108,-6.86954927444458,4.1171875,2,"['F2', 'B2', 'A1']",6.1,180,0,2.2506788139569736,[11900|0|0]
11900,1.3299896717071533,-0.32685449719429016,-0.010618778876960278,0.7608345150947571,0.8563712239265442,-6.8571553230285645,4.1171875,2,"['F2', 'B2', 'A1']",6.1,180,0,2.2512108762836336,[12000|0|0]
12000,1.3299949169158936,-0.32662248611450195,-0.010833310894668102,0.746228039264679,0.862045168876648,-6.840640068054199,4.1171875,2,"['F2', 'B2', 'A1']",6.1,180,0,2.2515269152685407,[12100|0|0]
12100,1.3293218612670898,-0.32657691836357117,-0.010439865291118622,0.62068110704422,0.8066710233688354,-6.834424018859863,4.1171875,2,"['F2', 'B2', 'A1']",6.1,180,0,2.2523078632624967,[12200|0|0]
12200,1.3291703462600708,-0.32659050822257996,-0.010704212822020054,0.6543684005737305,0.8254427909851074,-6.8435444831848145,4.1171875,2,"['F2', 'B2', 'A1']",6.1,180,0,2.252612856866878,[12300|0|0]
12300,1.32918381690979,-0.32664409279823303,-0.010424681939184666,0.6788009405136108,0.8388426303863525,-6.844225883483887,4.1171875,2,"['F2', 'B2', 'A1']",6.1,180,0,2.252897795947403,[12400|0|0]
12400,1.3291566371917725,-0.32660043239593506,-0.01087888889014721,0.7017741799354553,0.8528176546096802,-6.849152088165283,4.1171875,2,"['F2', 'B2', 'A1']",6.1,180,0,2.253354905258294,[12500|0|0]
12500,1.329038143157959,-0.3265226483345032,-0.011011981405317783,0.7117317914962769,0.8668984770774841,-6.866516590118408,4.11328125,2,"['F2', 'B2', 'A1']",6.1,180,0,2.2535493398587554,[12600|0|0]
12600,1.329182744026184,-0.3266144394874573,-0.010759037919342518,0.7150822877883911,0.8713424205780029,-6.868514060974121,4.1171875,2,"['F2', 'B2', 'A1']",6.1,180,0,2.2538548156089377,[12700|0|0]
12700,1.3293157815933228,-0.32662197947502136,-0.010952509008347988,0.7163952589035034,0.8672295808792114,-6.855356693267822,4.1171875,2,"['F2', 'B2', 'A1']",6.1,180,0,2.2540897345480713,[12800|0|0]
12800,1.3293291330337524,-0.3267582356929779,-0.010524705052375793,0.7219498157501221,0.8788621425628662,-6.850940227508545,4.1171875,2,"['F2', 'B2', 'A1']",6.1,180,0,2.2545389118434,[12900|0|0]
12900,1.329350471496582,-0.32708513736724854,-0.010544342920184135,0.7322808504104614,0.8795574903488159,-6.8326544761657715,4.1171875,2,"['F2', 'B2', 'A1']",6.1,180,0,2.2548670972795315,[13000|0|0]
13000,1.3292338848114014,-0.3265071511268616,-0.010788402520120144,0.7176629304885864,0.8862741589546204,-6.8411102294921875,4.11328125,2,"['F2', 'B2', 'A1']",6.1,180,0,2.2555052396128388,[13100|0|0]
13100,1.3291974067687988,-0.32667139172554016,-0.01070439349859953,0.7270611524581909,0.8886592984199524,-6.82705545425415,4.1171875,2,"['F2', 'B2', 'A1']",6.1,180,0,2.255693290503672,[13200|0|0]
13200,1.3293018341064453,-0.3267228901386261,-0.01058021280914545,0.7270209193229675,0.8841352462768555,-6.805350303649902,4.1171875,2,"['F2', 'B2', 'A1']",6.1,180,0,2.2558635197580075,[13300|0|0]
13300,1.3292357921600342,-0.32657647132873535,-0.010914783924818039,0.7292436957359314,0.8842839598655701,-6.816890239715576,4.1171875,2,"['F2', 'B2', 'A1']",6.1,180,0,2.2562346502445187,[13400|0|0]
13400,1.3289974927902222,-0.32642877101898193,-0.011058464646339417,0.7236891388893127,0.8890847563743591,-6.8377156257629395,4.1171875,2,"['F2', 'B2', 'A1']",6.1,180,0,2.256549683767959,[13500|0|0]
13500,1.329152226448059,-0.32685714960098267,-0.010752998292446136,0.7307180762290955,0.882086992263794,-6.83145809173584,4.11328125,2,"['F2', 'B2', 'A1']",6.1,180,0,2.2570981000402788,[13600|0|0]
13600,1.329289197921753,-0.3268294930458069,-0.010446975938975811,0.7321280241012573,0.873939573764801,-6.828241348266602,4.1171875,2,"['F2', 'B2', 'A1']",6.1,180,0,2.257434516078056,[13700|0|0]
13700,1.329157829284668,-0.32679036259651184,-0.010757025331258774,0.7265572547912598,0.8734539151191711,-6.828306674957275,4.1171875,2,"['F2', 'B2', 'A1']",6.1,180,0,2.2577735139195334,[13800|0|0]
13800,1.3290915489196777,-0.32652467489242554,-0.010867406614124775,0.7213321924209595,0.8771551847457886,-6.846410751342773,4.1171875,2,"['F2', 'B2', 'A1']",6.1,180,0,2.2580687546187823,[13900|0|0]
13900,1.3292149305343628,-0.32654106616973877,-0.01082552783191204,0.7171119451522827,0.8772991895675659,-6.843001365661621,4.1171875,2,"['F2', 'B2', 'A1']",6.1,180,0,2.2582000768530532,[14000|0|0]
14000,1.3293004035949707,-0.3265124559402466,-0.010730176232755184,0.7166368365287781,0.8731086254119873,-6.861749649047852,4.11328125,2,"['F2', 'B2', 'A1']",6.1,180,0,2.2583312870538115,[14100|0|0]
14100,1.3292903900146484,-0.3268137574195862,-0.01076915580779314,0.7224881052970886,0.873197615146637,-6.865312576293945,4.1171875,2,"['F2', 'B2', 'A1']",6.1,180,0,2.2586352644551315,[14200|0|0]
14200,1.3291006088256836,-0.326494425535202,-0.010765159502625465,0.7138063311576843,0.8780525326728821,-6.861262321472168,4.1171875,2,"['F2', 'B2', 'A1']",6.1,180,0,2.2590067556697306,[14300|0|0]
14300,1.3292508125305176,-0.3267207443714142,-0.010893603786826134,0.7158756256103516,0.878662109375,-6.86358118057251,4.1171875,2,"['F2', 'B2', 'A1']",6.1,180,0,2.259307220813656,[14400|0|0]
14400,1.3292104005813599,-0.3267427384853363,-0.010777220129966736,0.7237268090248108,0.8836809992790222,-6.849117279052734,4.1171875,2,"['F2', 'B2', 'A1']",6.1,180,0,2.259432368815102,[14500|0|0]
14500,1.329227089881897,-0.32663604617118835,-0.011008759960532188,0.7229139804840088,0.8906279802322388,-6.849450588226318,4.11328125,2,"['F2', 'B2', 'A1']",6.1,180,0,2.2596878536009286,[14600|0|0]
14600,1.3291759490966797,-0.32661521434783936,-0.010858405381441116,0.7237004637718201,0.8933496475219727,-6.840919017791748,4.1171875,2,"['F2', 'B2', 'A1']",6.1,180,0,2.2598480280190807,[14700|0|0]
14700,1.3290648460388184,-0.32664626836776733,-0.011004280298948288,0.7240647673606873,0.8891258835792542,-6.843539237976074,4.1171875,2,"['F2', 'B2', 'A1']",6.1,180,0,2.260034005795112,[14800|0|0]
14800,1.3291196823120117,-0.32659533619880676,-0.010769881308078766,0.7218156456947327,0.8856804370880127,-6.869550704956055,4.1171875,2,"['F2', 'B2', 'A1']",6.1,180,0,2.2602800626779938,[14900|0|0]
14900,1.3292253017425537,-0.32649996876716614,-0.010659586638212204,0.7183441519737244,0.8788355588912964,-6.862086772918701,4.1171875,2,"['F2', 'B2', 'A1']",6.1,180,0,2.260460105243313,[15000|0|0]
15000,1.329154133796692,-0.3267455995082855,-0.010577221401035786,0.7275280952453613,0.8789714574813843,-6.832457065582275,4.11328125,2,"['F2', 'B2', 'A1']",6.1,180,0,2.2607287748727765,[15100|0|0]
15100,1.3291914463043213,-0.3267133831977844,-0.01054761279374361,0.7219076752662659,0.8748510479927063,-6.82928991317749,4.1171875,2,"['F2', 'B2', 'A1']",6.1,180,0,2.2607862795118385,[15200|0|0]
15200,1.3292462825775146,-0.32659173011779785,-0.010708251036703587,0.7061811685562134,0.8690885901451111,-6.821924686431885,4.1171875,2,"['F2', 'B2', 'A1']",6.1,180,0,2.260995112301001,[15300|0|0]
15300,1.3299437761306763,-0.32652759552001953,-0.011032410897314548,0.7099047899246216,0.8700053691864014,-6.84158182144165,4.1171875,2,"['F2', 'B2', 'A1']",6.1,180,0,2.2617669219398144,[15400|0|0]
15400,1.3299806118011475,-0.32669076323509216,-0.010877084918320179,0.7161129117012024,0.8669368624687195,-6.833928108215332,4.1171875,2,"['F2', 'B2', 'A1']",6.1,180,0,2.2619951909250307,[15500|0|0]
15500,1.3300575017929077,-0.32662639021873474,-0.010763215832412243,0.7464462518692017,0.8769924640655518,-6.8532395362854,4.11328125,2,"['F2', 'B2', 'A1']",6.1,180,0,2.262146921359662,[15600|0|0]
15600,1.330152153968811,-0.32694512605667114,-0.010667426511645317,0.7901605367660522,0.9001871943473816,-6.856359958648682,4.1171875,2,"['F2', 'B2', 'A1']",6.1,180,0,2.262492937490444,[15700|0|0]
15700,1.329871654510498,-0.3264951705932617,-0.010882182978093624,0.8009948134422302,0.9265627264976501,-6.839227199554443,4.11328125,2,"['F2', 'B2', 'A1']",6.1,180,0,2.263065004099369,[15800|0|0]
15800,1.329998254776001,-0.32668304443359375,-0.010866839438676834,0.834099531173706,0.9402112364768982,-6.839374542236328,4.1171875,2,"['F2', 'B2', 'A1']",6.1,180,0,2.2632920715591873,[15900|0|0]
15900,1.3298171758651733,-0.3265462815761566,-0.010921350680291653,0.8421950936317444,0.945275068283081,-6.854322910308838,4.1171875,2,"['F2', 'B2', 'A1']",6.1,180,0,2.2635254492071817,[16000|0|0]
16000,1.3299806118011475,-0.32680442929267883,-0.010870272293686867,0.8486133813858032,0.9384101033210754,-6.856861591339111,4.11328125,2,"['F2', 'B2', 'A1']",6.1,180,0,2.2638352242066433,[16100|0|0]
16100,1.3300955295562744,-0.3268647789955139,-0.010535656474530697,0.8482792377471924,0.9295361638069153,-6.880498886108398,4.1171875,2,"['F2', 'B2', 'A1']",6.1,180,0,2.2641941335594127,[16200|0|0]
16200,1.3300669193267822,-0.32687631249427795,-0.010663793422281742,0.8499760627746582,0.9374603033065796,-6.860621452331543,4.1171875,2,"['F2', 'B2', 'A1']",6.1,180,0,2.2643259312991666,[16300|0|0]
16300,1.329978346824646,-0.32654717564582825,-0.011013252660632133,0.8421936631202698,0.9449953436851501,-6.858092784881592,4.1171875,2,"['F2', 'B2', 'A1']",6.1,180,0,2.264814088970837,[16400|0|0]
16400,1.3299779891967773,-0.3268434703350067,-0.010581380687654018,0.8430188298225403,0.9429813027381897,-6.840578079223633,4.1171875,2,"['F2', 'B2', 'A1']",6.1,180,0,2.265337829433067,[16500|0|0]
16500,1.3300343751907349,-0.3266853094100952,-0.01071716658771038,0.8309144973754883,0.9368201494216919,-6.844048500061035,4.11328125,2,"['F2', 'B2', 'A1']",6.1,180,0,2.2655537740304466,[16600|0|0]
16600,1.336387038230896,-0.31656137108802795,-0.006899144034832716,0.5306897163391113,0.7690483331680298,-6.8192620277404785,4.11328125,2,"['F2', 'B2', 'A1']",6.1,180,0,2.2781007956318122,[16700|0|0]
16700,1.3300087451934814,-0.3265456259250641,-0.01101827621459961,0.8263649344444275,0.932559609413147,-6.867616653442383,4.1171875,2,"['F2', 'B2', 'A1']",6.1,180,0,2.290644129185394,[16800|0|0]
16800,1.3298985958099365,-0.3265881836414337,-0.011147000826895237,0.8348848223686218,0.9254714846611023,-6.8652520179748535,4.11328125,2,"['F2', 'B2', 'A1']",6.1,180,0,2.2908188119599555,[16900|0|0]
16900,1.3364667892456055,-0.31644436717033386,-0.006812429055571556,0.5386047959327698,0.7567601799964905,-6.840842247009277,4.1171875,2,"['F2', 'B2', 'A1']",6.1,180,0,2.303657296685517,[17000|0|0]
17000,1.3362690210342407,-0.31559082865715027,-0.006115966010838747,0.2801937758922577,0.6137105822563171,-6.844111919403076,4.1171875,2,"['F2', 'B2', 'A1']",6.1,180,0,2.304776537960485,[17100|0|0]
17100,1.336304783821106,-0.31562376022338867,-0.006373899057507515,0.32500383257865906,0.6393234133720398,-6.857393264770508,4.1171875,2,"['F2', 'B2', 'A1']",6.1,180,0,2.3050390125717204,[17200|0|0]
17200,1.3363087177276611,-0.3157210350036621,-0.006225135643035173,0.351026713848114,0.6533774733543396,-6.853170394897461,4.1171875,2,"['F2', 'B2', 'A1']",6.1,180,0,2.3052168001190445,[17300|0|0]
17300,1.3364614248275757,-0.31567174196243286,-0.006305546499788761,0.3668903410434723,0.6697933673858643,-6.833841800689697,4.1171875,2,"['F2', 'B2', 'A1']",6.1,180,0,2.305396285962948,[17400|0|0]
17400,1.3364838361740112,-0.31617283821105957,-0.006994125433266163,0.3692058324813843,0.6762053370475769,-6.856992721557617,4.1171875,2,"['F2', 'B2', 'A1']",6.1,180,0,2.3062481901045424,[17500|0|0]
17500,1.3363943099975586,-0.31615209579467773,-0.006870809476822615,0.39503735303878784,0.692205548286438,-6.834282875061035,4.11328125,2,"['F2', 'B2', 'A1']",6.1,180,0,2.3064019822019373,[17600|0|0]
17600,1.336616039276123,-0.3161217272281647,-0.006768197286874056,0.39131850004196167,0.6880350708961487,-6.836551666259766,4.1171875,2,"['F2', 'B2', 'A1']",6.1,180,0,2.306648184119742,[17700|0|0]
17700,1.336368203163147,-0.3169339597225189,-0.006993176881223917,0.596316933631897,0.7959578633308411,-6.842948913574219,4.1171875,2,"['F2', 'B2', 'A1']",6.1,180,0,2.3075266829425383,[17800|0|0]
17800,1.3362194299697876,-0.31716451048851013,-0.007475884631276131,0.5567833781242371,0.7765405178070068,-6.839038848876953,4.11328125,2,"['F2', 'B2', 'A1']",6.1,180,0,2.308081925133588,[17900|0|0]
17900,1.3362069129943848,-0.31686651706695557,-0.006939463317394257,0.5299477577209473,0.765782356262207,-6.8494439125061035,4.1171875,2,"['F2', 'B2', 'A1']",6.1,180,0,2.3086956877749647,[18000|0|0]
18001,1.3363486528396606,-0.31679046154022217,-0.0068634082563221455,0.5132206678390503,0.7518699169158936,-6.843811988830566,4.11328125,2,"['F2', 'B2', 'A1']",6.1,180,0,2.30887361753414,[18100|0|0]
18100,1.3361680507659912,-0.3167847990989685,-0.0071625919081270695,0.5037151575088501,0.7611047029495239,-6.851398468017578,4.1171875,2,"['F2', 'B2', 'A1']",6.1,180,0,2.3092231315249356,[18200|0|0]
18201,1.3365193605422974,-0.31660541892051697,-0.006937616039067507,0.48329418897628784,0.7435179948806763,-6.847903251647949,4.1171875,2,"['F2', 'B2', 'A1']",6.1,180,0,2.309677234981219,[18300|0|0]
18301,1.3366076946258545,-0.31613630056381226,-0.006733439862728119,0.4386068284511566,0.7211291193962097,-6.81831693649292,4.1171875,2,"['F2', 'B2', 'A1']",6.1,180,0,2.310196429409059,[18400|0|0]
18401,1.3366467952728271,-0.3162207305431366,-0.006984596140682697,0.4737588167190552,0.742993175983429,-6.8044891357421875,4.1171875,2,"['F2', 'B2', 'A1']",6.1,180,0,2.3104642665946,[18500|0|0]
18501,1.3366048336029053,-0.31613507866859436,-0.006913717370480299,0.49272212386131287,0.7574719190597534,-6.804519176483154,4.11328125,2,"['F2', 'B2', 'A1']",6.1,180,0,2.3105830976739545,[18600|0|0]
18601,1.3361948728561401,-0.31668558716773987,-0.006786554120481014,0.5168501734733582,0.768425464630127,-6.8025617599487305,4.1171875,2,"['F2', 'B2', 'A1']",6.1,180,0,2.3112811649441154,[18700|0|0]
18701,1.3363498449325562,-0.3164546489715576,-0.0067523811012506485,0.5219318270683289,0.7686475515365601,-6.778219223022461,4.1171875,2,"['F2', 'B2', 'A1']",6.1,180,0,2.311561373063498,[18800|0|0]
18801,1.3364653587341309,-0.3163817524909973,-0.006774017587304115,0.526768147945404,0.7674316763877869,-6.7810540199279785,4.1171875,2,"['F2', 'B2', 'A1']",6.1,180,0,2.3116996679396182,[18900|0|0]
18901,1.3362919092178345,-0.31548935174942017,-0.006133840419352055,0.2847018837928772,0.6383548974990845,-6.791266918182373,4.1171875,2,"['F2', 'B2', 'A1']",6.1,180,0,2.312811554006011,[19000|0|0]
19001,1.3367184400558472,-0.31603842973709106,-0.006508362013846636,0.33774644136428833,0.663902997970581,-6.810497760772705,4.11328125,2,"['F2', 'B2', 'A1']",6.1,180,0,2.31360128916229,[19100|0|0]
19101,1.3364204168319702,-0.3169419765472412,-0.006985815241932869,0.5619813203811646,0.7809575200080872,-6.798075199127197,4.1171875,2,"['F2', 'B2', 'A1']",6.1,180,0,2.314665796684627,[19200|0|0]
19202,1.336578369140625,-0.3166704475879669,-0.0070446450263261795,0.5403651595115662,0.7695846557617188,-6.789873123168945,4.1171875,2,"['F2', 'B2', 'A1']",6.1,180,0,2.3149853868144272,[19300|0|0]
19302,1.3363490104675293,-0.3163408935070038,-0.00681449705734849,0.5137922167778015,0.7552419900894165,-6.787214756011963,4.11328125,2,"['F2', 'B2', 'A1']",6.1,180,0,2.3154481819968007,[19400|0|0]
19400,1.3362258672714233,-0.31674137711524963,-0.007036943919956684,0.5184757709503174,0.7529168725013733,-6.7920241355896,4.1171875,2,"['F2', 'B2', 'A1']",6.1,180,0,2.3159225594561144,[19500|0|0]
19501,1.3363730907440186,-0.3168608248233795,-0.007322760298848152,0.5079041719436646,0.7413965463638306,-6.787106990814209,4.11328125,2,"['F2', 'B2', 'A1']",6.1,180,0,2.3162655368727223,[19600|0|0]
19602,1.3363683223724365,-0.31674352288246155,-0.006747113075107336,0.4952479600906372,0.7395073175430298,-6.80222749710083,4.1171875,2,"['F2', 'B2', 'A1']",6.1,180,0,2.3168530334334876,[19700|0|0]
19700,1.3362057209014893,-0.31663766503334045,-0.006995048373937607,0.4867669641971588,0.7401461005210876,-6.830013751983643,4.1171875,2,"['F2', 'B2', 'A1']",6.1,180,0,2.317167862013799,[19800|0|0]
19800,1.3362582921981812,-0.3166069984436035,-0.006755081005394459,0.4902413487434387,0.737084686756134,-6.800748348236084,4.1171875,2,"['F2', 'B2', 'A1']",6.1,180,0,2.3174154271949683,[19900|0|0]
19900,1.336286187171936,-0.31664952635765076,-0.006782915908843279,0.487851083278656,0.7377907633781433,-6.791346549987793,4.1171875,2,"['F2', 'B2', 'A1']",6.1,180,0,2.3174734059400737,[20000|0|0]
20002,1.336535930633545,-0.316423237323761,-0.006987378001213074,0.48966702818870544,0.7307905554771423,-6.808040142059326,4.11328125,2,"['F2', 'B2', 'A1']",6.1,180,0,2.3178675927875094,[20100|0|0]
20100,1.3364427089691162,-0.316450834274292,-0.007150101009756327,0.48670265078544617,0.7381290197372437,-6.820348739624023,4.11328125,2,"['F2', 'B2', 'A1']",6.1,180,0,2.3180571466002036,[20200|0|0]
20200,1.336612582206726,-0.31595128774642944,-0.006965163629502058,0.43969470262527466,0.7221090197563171,-6.814973831176758,4.1171875,2,"['F2', 'B2', 'A1']",6.1,180,0,2.3186162579352443,[20300|0|0]
20300,1.3363755941390991,-0.31615346670150757,-0.007050416432321072,0.4900868535041809,0.7483622431755066,-6.827216148376465,4.1171875,2,"['F2', 'B2', 'A1']",6.1,180,0,2.318939224983815,[20400|0|0]
20400,1.336376667022705,-0.31651613116264343,-0.006860729306936264,0.5215104222297668,0.7541053295135498,-6.8268961906433105,4.1171875,2,"['F2', 'B2', 'A1']",6.1,180,0,2.319348502234572,[20500|0|0]
20500,1.336513638496399,-0.31629958748817444,-0.006662209518253803,0.5317415595054626,0.7670956254005432,-6.791940212249756,4.11328125,2,"['F2', 'B2', 'A1']",6.1,180,0,2.3196726356238684,[20600|0|0]
20600,1.3364405632019043,-0.31656935811042786,-0.0068495250307023525,0.5445048809051514,0.7716060280799866,-6.7882513999938965,4.1171875,2,"['F2', 'B2', 'A1']",6.1,180,0,2.3200090925876844,[20700|0|0]
20700,1.3365998268127441,-0.3165285885334015,-0.006824309006333351,0.5468941330909729,0.7652347683906555,-6.798429012298584,4.1171875,2,"['F2', 'B2', 'A1']",6.1,180,0,2.3201754142760884,[20800|0|0]
20800,1.336774468421936,-0.31590360403060913,-0.006279508583247662,0.2866120934486389,0.6336040496826172,-6.83150577545166,4.1171875,2,"['F2', 'B2', 'A1']",6.1,180,0,2.321022711639112,[20900|0|0]
20900,1.3366674184799194,-0.3162764608860016,-0.006551257334649563,0.34175893664360046,0.6609645485877991,-6.846128940582275,4.1171875,2,"['F2', 'B2', 'A1']",6.1,180,0,2.321496345789683,[21000|0|0]
21000,1.3365031480789185,-0.3163914978504181,-0.006777395959943533,0.37502366304397583,0.6822620630264282,-6.837606906890869,4.11328125,2,"['F2', 'B2', 'A1']",6.1,180,0,2.321798598904931,[21100|0|0]
21100,1.3366159200668335,-0.31587278842926025,-0.006659435108304024,0.3814760148525238,0.6833528876304626,-6.8404927253723145,4.11328125,2,"['F2', 'B2', 'A1']",6.1,180,0,2.3223423743616918,[21200|0|0]
21200,1.3366634845733643,-0.31625235080718994,-0.007213124074041843,0.4048343598842621,0.6855721473693848,-6.850033283233643,4.1171875,2,"['F2', 'B2', 'A1']",6.1,180,0,2.323015353894665,[21300|0|0]
21300,1.3367022275924683,-0.31620511412620544,-0.006472890265285969,0.4215148985385895,0.6928103566169739,-6.8632121086120605,4.1171875,2,"['F2', 'B2', 'A1']",6.1,180,0,2.3237581044700164,[21400|0|0]
21400,1.3367369174957275,-0.31656569242477417,-0.006525356322526932,0.4612818658351898,0.6980077028274536,-6.880908489227295,4.11328125,2,"['F2', 'B2', 'A1']",6.1,180,0,2.3241241274009226,[21500|0|0]
21500,1.3367300033569336,-0.316457062959671,-0.006781437899917364,0.49015772342681885,0.7195513248443604,-6.863370895385742,4.11328125,2,"['F2', 'B2', 'A1']",6.1,180,0,2.3244023825720923,[21600|0|0]
21600,1.3368216753005981,-0.3164094388484955,-0.006931349169462919,0.5088934898376465,0.7272235751152039,-6.86000919342041,4.1171875,2,"['F2', 'B2', 'A1']",6.1,180,0,2.3245844407769534,[21700|0|0]
21700,1.336534857749939,-0.3165859282016754,-0.006689600646495819,0.5245681405067444,0.7460636496543884,-6.863591194152832,4.11328125,2,"['F2', 'B2', 'A1']",6.1,180,0,2.324998994932051,[21800|0|0]
21800,1.3364782333374023,-0.3165314197540283,-0.00672489870339632,0.5185803771018982,0.7530621290206909,-6.842592239379883,4.1171875,2,"['F2', 'B2', 'A1']",6.1,180,0,2.32508515436439,[21900|0|0]
21900,1.3364793062210083,-0.3167022168636322,-0.0066321538761258125,0.5071566700935364,0.7529747486114502,-6.830728530883789,4.11328125,2,"['F2', 'B2', 'A1']",6.1,180,0,2.325279510755367,[22000|0|0]
22000,1.336394190788269,-0.3161262273788452,-0.006756541319191456,0.47162821888923645,0.745168149471283,-6.815036296844482,4.11328125,2,"['F2', 'B2', 'A1']",6.1,180,0,2.3258748936233333,[22100|0|0]
22100,1.336500883102417,-0.31624636054039,-0.006771359127014875,0.5060234069824219,0.7580364346504211,-6.830889701843262,4.11328125,2,"['F2', 'B2', 'A1']",6.1,180,0,2.3260362466333135,[22200|0|0]
22200,1.3367873430252075,-0.3161499798297882,-0.006956259720027447,0.5299869775772095,0.7664528489112854,-6.823046684265137,4.1171875,2,"['F2', 'B2', 'A1']",6.1,180,0,2.3263905583012523,[22300|0|0]
22300,1.3369386196136475,-0.3165726065635681,-0.007403126452118158,0.5515559911727905,0.7888400554656982,-6.851830959320068,4.11328125,2,"['F2', 'B2', 'A1']",6.1,180,0,2.3270239522059946,[22400|0|0]
22400,1.3371883630752563,-0.31681028008461,-0.007048446219414473,0.565907895565033,0.7837229371070862,-6.843232154846191,4.11328125,2,"['F2', 'B2', 'A1']",6.1,180,0,2.3275185819328525,[22500|0|0]
22500,1.3371670246124268,-0.31661584973335266,-0.006991076748818159,0.563815176486969,0.7872874736785889,-6.822144985198975,4.11328125,2,"['F2', 'B2', 'A1']",6.1,180,0,2.3277224194849437,[22600|0|0]
22600,1.3367664813995361,-0.31592851877212524,-0.006177752278745174,0.3029150664806366,0.6485932469367981,-6.814807415008545,4.1171875,2,"['F2', 'B2', 'A1']",6.1,180,0,2.3288601169004606,[22700|0|0]
22700,1.3368358612060547,-0.3159784972667694,-0.006533266510814428,0.3376523554325104,0.6674451231956482,-6.790491580963135,4.11328125,2,"['F2', 'B2', 'A1']",6.1,180,0,2.3292257694359138,[22800|0|0]
22800,1.3366584777832031,-0.31596070528030396,-0.006686197593808174,0.38376298546791077,0.6836510300636292,-6.811676979064941,4.11328125,2,"['F2', 'B2', 'A1']",6.1,180,0,2.3294606510010283,[22900|0|0]
22900,1.3365809917449951,-0.3165161609649658,-0.006521274335682392,0.41631606221199036,0.691790759563446,-6.820626258850098,4.1171875,2,"['F2', 'B2', 'A1']",6.1,180,0,2.330045231863537,[23000|0|0]
23000,1.3367842435836792,-0.3164646029472351,-0.006547803990542889,0.4234732389450073,0.6956376433372498,-6.822547912597656,4.11328125,2,"['F2', 'B2', 'A1']",6.1,180,0,2.330256592601868,[23100|0|0]
23100,1.336517095565796,-0.3165064752101898,-0.006678272504359484,0.4353995621204376,0.709108293056488,-6.826663017272949,4.11328125,2,"['F2', 'B2', 'A1']",6.1,180,0,2.330556831478367,[23200|0|0]
23200,1.3367319107055664,-0.3162631392478943,-0.0063378941267728806,0.4266797602176666,0.7031091451644897,-6.831180095672607,4.11328125,2,"['F2', 'B2', 'A1']",6.1,180,0,2.3310271668637563,[23300|0|0]
23300,1.3363676071166992,-0.31635892391204834,-0.007001993712037802,0.45829707384109497,0.7289813756942749,-6.836424827575684,4.11328125,2,"['F2', 'B2', 'A1']",6.1,180,0,2.3317906588846036,[23400|0|0]
23400,1.3367618322372437,-0.3165302276611328,-0.006730868946760893,0.4864337146282196,0.7260243892669678,-6.8024373054504395,4.1171875,2,"['F2', 'B2', 'A1']",6.1,180,0,2.3322988587059976,[23500|0|0]
23500,1.3365943431854248,-0.31638675928115845,-0.007056649308651686,0.49895912408828735,0.73696368932724,-6.805274963378906,4.11328125,2,"['F2', 'B2', 'A1']",6.1,180,0,2.3326922651151034,[23600|0|0]
23600,1.3363105058670044,-0.3164554536342621,-0.007151120342314243,0.5043563842773438,0.7480816841125488,-6.8013834953308105,4.11328125,2,"['F2', 'B2', 'A1']",6.1,180,0,2.3329991972145616,[23700|0|0]
23700,1.3365002870559692,-0.31622037291526794,-0.00715730432420969,0.5053824186325073,0.753437876701355,-6.826234340667725,4.1171875,2,"['F2', 'B2', 'A1']",6.1,180,0,2.333301386039239,[23800|0|0]
23800,1.3364218473434448,-0.3166196644306183,-0.006932728923857212,0.5076065063476562,0.7455499768257141,-6.815512180328369,4.1171875,2,"['F2', 'B2', 'A1']",6.1,180,0,2.3337661662165003,[23900|0|0]
23900,1.336901068687439,-0.31630387902259827,-0.007527378387749195,0.4760901927947998,0.7396453022956848,-6.818474769592285,4.11328125,2,"['F2', 'B2', 'A1']",6.1,180,0,2.3345925931675158,[24000|0|0]
24000,1.3370513916015625,-0.31646496057510376,-0.007301135454326868,0.5119286179542542,0.7514693737030029,-6.831424236297607,4.11328125,2,"['F2', 'B2', 'A1']",6.1,180,0,2.3349083939116437,[24100|0|0]
24100,1.3367713689804077,-0.316700279712677,-0.006941534578800201,0.544043242931366,0.7619643211364746,-6.814056873321533,4.11328125,2,"['F2', 'B2', 'A1']",6.1,180,0,2.335421327196337,[24200|0|0]
24200,1.3368674516677856,-0.3167646825313568,-0.007307605817914009,0.5661846995353699,0.7684661149978638,-6.811377048492432,4.11328125,2,"['F2', 'B2', 'A1']",6.1,180,0,2.3358052383292494,[24300|0|0]
24300,1.3369526863098145,-0.3164738416671753,-0.007398593705147505,0.5621616244316101,0.7691488862037659,-6.820964813232422,4.1171875,2,"['F2', 'B2', 'A1']",6.1,180,0,2.3361216749707796,[24400|0|0]
24400,1.3369594812393188,-0.3165486752986908,-0.007359128445386887,0.5696342587471008,0.7705866694450378,-6.8295674324035645,4.11328125,2,"['F2', 'B2', 'A1']",6.1,180,0,2.336206549879915,[24500|0|0]
24500,1.3369017839431763,-0.3166183531284332,-0.00717416126281023,0.5707461833953857,0.769705057144165,-6.812142372131348,4.11328125,2,"['F2', 'B2', 'A1']",6.1,180,0,2.336412454801105,[24600|0|0]
24600,1.3368741273880005,-0.316854327917099,-0.006903760135173798,0.5808551907539368,0.7750800848007202,-6.807129383087158,4.1171875,2,"['F2', 'B2', 'A1']",6.1,180,0,2.336772407236514,[24700|0|0]
24700,1.3369578123092651,-0.3168201744556427,-0.006858048960566521,0.5887098908424377,0.7784196734428406,-6.804577827453613,4.1171875,2,"['F2', 'B2', 'A1']",6.1,180,0,2.3368736946318824,[24800|0|0]
24800,1.3370769023895264,-0.31683263182640076,-0.006909381598234177,0.5832224488258362,0.7774568796157837,-6.811604022979736,4.11328125,2,"['F2', 'B2', 'A1']",6.1,180,0,2.33700397384355,[24900|0|0]
24900,1.3372431993484497,-0.3167576491832733,-0.006792533211410046,0.5731631517410278,0.7719615697860718,-6.823273181915283,4.11328125,2,"['F2', 'B2', 'A1']",6.1,180,0,2.3372206086071983,[25000|0|0]
25000,1.336650013923645,-0.31678152084350586,-0.007560466416180134,0.5788055062294006,0.7881911993026733,-6.824433326721191,4.11328125,2,"['F2', 'B2', 'A1']",6.1,180,0,2.3381912579833126,[25100|0|0]
25100,1.337141752243042,-0.31670689582824707,-0.007073718123137951,0.5685405135154724,0.7767045497894287,-6.82548189163208,4.11328125,2,"['F2', 'B2', 'A1']",6.1,180,0,2.3388871741912323,[25200|0|0]
25200,1.3371628522872925,-0.31680259108543396,-0.006946215871721506,0.5686925053596497,0.7755786180496216,-6.822286605834961,4.11328125,2,"['F2', 'B2', 'A1']",6.1,180,0,2.3390479834516364,[25300|0|0]
25300,1.3368908166885376,-0.3168225884437561,-0.007290555629879236,0.5680289268493652,0.7771210670471191,-6.81696081161499,4.11328125,2,"['F2', 'B2', 'A1']",6.1,180,0,2.3394872705222154,[25400|0|0]
25400,1.3367483615875244,-0.3159765303134918,-0.006529483012855053,0.31723153591156006,0.6441053152084351,-6.799750328063965,4.11328125,2,"['F2', 'B2', 'A1']",6.1,180,0,2.340634152967793,[25500|0|0]
25500,1.336457371711731,-0.3160647451877594,-0.00713387643918395,0.3556281328201294,0.676662027835846,-6.81031608581543,4.11328125,2,"['F2', 'B2', 'A1']",6.1,180,0,2.3413107240177546,[25600|0|0]
25600,1.3364999294281006,-0.31631872057914734,-0.006866872310638428,0.3848060071468353,0.6864169239997864,-6.82684850692749,4.11328125,2,"['F2', 'B2', 'A1']",6.1,180,0,2.3416816766607074,[25700|0|0]
25700,1.3365031480789185,-0.31633806228637695,-0.00683143176138401,0.3963853120803833,0.6895334720611572,-6.821987152099609,4.11328125,2,"['F2', 'B2', 'A1']",6.1,180,0,2.341722179671498,[25800|0|0]
25800,1.3365066051483154,-0.3162033259868622,-0.006965440697968006,0.39948853850364685,0.698314368724823,-6.807034969329834,4.11328125,2,"['F2', 'B2', 'A1']",6.1,180,0,2.341912243389288,[25900|0|0]
25900,1.3364146947860718,-0.3164274990558624,-0.006477141287177801,0.4107615053653717,0.6951375007629395,-6.788089752197266,4.11328125,2,"['F2', 'B2', 'A1']",6.1,180,0,2.3424573464934166,[26000|0|0]
26000,1.336521029472351,-0.3159184455871582,-0.006697154138237238,0.3859262764453888,0.6869258284568787,-6.794384479522705,4.11328125,2,"['F2', 'B2', 'A1']",6.1,180,0,2.3430220129030226,[26100|0|0]
26100,1.3365405797958374,-0.31636491417884827,-0.006843953393399715,0.43230393528938293,0.7054967880249023,-6.812373638153076,4.1171875,2,"['F2', 'B2', 'A1']",6.1,180,0,2.3434924025710964,[26200|0|0]
26200,1.3366038799285889,-0.3160875141620636,-0.006971102207899094,0.45409783720970154,0.7183169722557068,-6.830484390258789,4.1171875,2,"['F2', 'B2', 'A1']",6.1,180,0,2.3438040506051783,[26300|0|0]
26300,1.3369135856628418,-0.31686192750930786,-0.007203363347798586,0.4963020086288452,0.7366859912872314,-6.843997955322266,4.11328125,2,"['F2', 'B2', 'A1']",6.1,180,0,2.3446698328591697,[26400|0|0]
26400,1.3370673656463623,-0.3170243799686432,-0.00703604007139802,0.5070669054985046,0.7343830466270447,-6.847125053405762,4.11328125,2,"['F2', 'B2', 'A1']",6.1,180,0,2.344949182395953,[26500|0|0]
26500,1.3369156122207642,-0.31650155782699585,-0.007248114328831434,0.4994392991065979,0.7459407448768616,-6.868750095367432,4.11328125,2,"['F2', 'B2', 'A1']",6.1,180,0,2.3455334319870045,[26600|0|0]
26600,1.337112545967102,-0.31674161553382874,-0.007060443051159382,0.4910370111465454,0.7338422536849976,-6.853051662445068,4.11328125,2,"['F2', 'B2', 'A1']",6.1,180,0,2.3458962420082545,[26700|0|0]
26700,1.336750864982605,-0.3168468773365021,-0.007309597916901112,0.5124440789222717,0.7521185278892517,-6.8567328453063965,4.11328125,2,"['F2', 'B2', 'A1']",6.1,180,0,2.346347873859181,[26800|0|0]
26800,1.337022066116333,-0.31714072823524475,-0.007061665412038565,0.5282506942749023,0.747614324092865,-6.858817100524902,4.11328125,2,"['F2', 'B2', 'A1']",6.1,180,0,2.3468183724591736,[26900|0|0]
26900,1.3369569778442383,-0.3170405924320221,-0.007046738173812628,0.5232537388801575,0.747235894203186,-6.853331089019775,4.11328125,2,"['F2', 'B2', 'A1']",6.1,180,0,2.346938732272618,[27000|0|0]
27000,1.3369908332824707,-0.3169955313205719,-0.0072144558653235435,0.5244982242584229,0.748667299747467,-6.854580879211426,4.11328125,2,"['F2', 'B2', 'A1']",6.1,180,0,2.3471156670586515,[27100|0|0]
27100,1.3369531631469727,-0.3169678747653961,-0.007162971422076225,0.5248090028762817,0.7456377744674683,-6.826484680175781,4.11328125,2,"['F2', 'B2', 'A1']",6.1,180,0,2.3471851981455774,[27200|0|0]
27200,1.3371342420578003,-0.31664466857910156,-0.007176070939749479,0.5112615823745728,0.7377175688743591,-6.83351993560791,4.11328125,2,"['F2', 'B2', 'A1']",6.1,180,0,2.347555904779142,[27300|0|0]
27300,1.336910367012024,-0.3167588412761688,-0.007085970137268305,0.5040532350540161,0.7315967082977295,-6.831106185913086,4.11328125,2,"['F2', 'B2', 'A1']",6.1,180,0,2.3478228759301767,[27400|0|0]
27400,1.336911916732788,-0.3167910575866699,-0.0073392861522734165,0.5072413682937622,0.7297002077102661,-6.82975435256958,4.11328125,2,"['F2', 'B2', 'A1']",6.1,180,0,2.3480782370387168,[27500|0|0]
27500,1.3369321823120117,-0.3168555200099945,-0.007283139042556286,0.5110939145088196,0.7309180498123169,-6.821686267852783,4.11328125,2,"['F2', 'B2', 'A1']",6.1,180,0,2.3481660925772543,[27600|0|0]
27600,1.3369793891906738,-0.3168129026889801,-0.007211319170892239,0.6576116681098938,0.8182374835014343,-6.823009967803955,4.11328125,2,"['F2', 'B2', 'A1']",6.1,180,0,2.3482620239037817,[27700|0|0]
27700,1.336857795715332,-0.317122220993042,-0.007272038143128157,0.6268242001533508,0.8013845682144165,-6.814102649688721,4.11328125,2,"['F2', 'B2', 'A1']",6.1,180,0,2.348599884200447,[27800|0|0]
27800,1.3369494676589966,-0.3168763220310211,-0.007334400434046984,0.5881851315498352,0.7792254686355591,-6.833146095275879,4.11328125,2,"['F2', 'B2', 'A1']",6.1,180,0,2.3488696231485187,[27900|0|0]
27900,1.3367936611175537,-0.3170938491821289,-0.007000469136983156,0.5647764801979065,0.756996214389801,-6.817620754241943,4.11328125,2,"['F2', 'B2', 'A1']",6.1,180,0,2.349297529506247,[28000|0|0]
28000,1.3369140625,-0.31656619906425476,-0.007216012571007013,0.5407288670539856,0.7466855049133301,-6.827306747436523,4.11328125,2,"['F2', 'B2', 'A1']",6.1,180,0,2.3498800843206107,[28100|0|0]
28100,1.336705207824707,-0.31670576333999634,-0.007380811497569084,0.5376958847045898,0.7427797913551331,-6.8332200050354,4.11328125,2,"['F2', 'B2', 'A1']",6.1,180,0,2.3501805125959963,[28200|0|0]
28200,1.3370639085769653,-0.31656306982040405,-0.007340908516198397,0.5400014519691467,0.7419183254241943,-6.85810661315918,4.11328125,2,"['F2', 'B2', 'A1']",6.1,180,0,2.350568610416303,[28300|0|0]
28300,1.3362096548080444,-0.3167175352573395,-0.006866147741675377,0.47034478187561035,0.7130128741264343,-6.830107688903809,4.11328125,2,"['F2', 'B2', 'A1']",6.1,180,0,2.3515580581743722,[28400|0|0]
28400,1.336234450340271,-0.31645363569259644,-0.006937041413038969,0.43100106716156006,0.6947664022445679,-6.840953826904297,4.11328125,2,"['F2', 'B2', 'A1']",6.1,180,0,2.3518324369478396,[28500|0|0]
28500,1.3365087509155273,-0.3161070942878723,-0.00681707076728344,0.3836800456047058,0.66844642162323,-6.845783233642578,4.11328125,2,"['F2', 'B2', 'A1']",6.1,180,0,2.3522903940491244,[28600|0|0]
28600,1.336897373199463,-0.3167947828769684,-0.007292726542800665,0.375822514295578,0.660409688949585,-6.854674816131592,4.11328125,2,"['F2', 'B2', 'A1']",6.1,180,0,2.353212452231631,[28700|0|0]
28700,1.3371793031692505,-0.31693321466445923,-0.006889993324875832,0.36658740043640137,0.6514769196510315,-6.836316108703613,4.11328125,2,"['F2', 'B2', 'A1']",6.1,180,0,2.353723179078852,[28800|0|0]
28800,1.3367735147476196,-0.3166789710521698,-0.0072743771597743034,0.38593417406082153,0.6709731221199036,-6.8461594581604,4.1171875,2,"['F2', 'B2', 'A1']",6.1,180,0,2.354337227114474,[28900|0|0]
28900,1.337085247039795,-0.3170417547225952,-0.007207440212368965,0.4311973452568054,0.68414705991745,-6.835411071777344,4.11328125,2,"['F2', 'B2', 'A1']",6.1,180,0,2.3548202069985686,[29000|0|0]
29000,1.3369982242584229,-0.3168545067310333,-0.0072669778019189835,0.4496464431285858,0.7129185795783997,-6.8218183517456055,4.11328125,2,"['F2', 'B2', 'A1']",6.1,180,0,2.355035101157147,[29100|0|0]
29100,1.336872935295105,-0.31675225496292114,-0.007081587798893452,0.4623671770095825,0.7174882888793945,-6.829263210296631,4.1171875,2,"['F2', 'B2', 'A1']",6.1,180,0,2.3552811137617695,[29200|0|0]
29200,1.3370338678359985,-0.3164517879486084,-0.00732843205332756,0.46935567259788513,0.7340208888053894,-6.844151496887207,4.11328125,2,"['F2', 'B2', 'A1']",6.1,180,0,2.3557019602840974,[29300|0|0]
29300,1.3369801044464111,-0.3165898323059082,-0.0075925905257463455,0.4824463725090027,0.7437518239021301,-6.829675674438477,4.11328125,2,"['F2', 'B2', 'A1']",6.1,180,0,2.3560048240244047,[29400|0|0]
29400,1.3372774124145508,-0.3164689838886261,-0.006819915026426315,0.44493862986564636,0.7240311503410339,-6.846409797668457,4.11328125,2,"['F2', 'B2', 'A1']",6.1,180,0,2.356841498271127,[29500|0|0]
29500,1.3371686935424805,-0.31652402877807617,-0.007314595393836498,0.4946296215057373,0.7512415051460266,-6.858976364135742,4.11328125,2,"['F2', 'B2', 'A1']",6.1,180,0,2.3573509670129553,[29600|0|0]
29600,1.3368861675262451,-0.3166569769382477,-0.0072286613285541534,0.5235182046890259,0.7718305587768555,-6.866312503814697,4.11328125,2,"['F2', 'B2', 'A1']",6.1,180,0,2.3576748201073032,[29700|0|0]
29700,1.3370953798294067,-0.3162021040916443,-0.00734708970412612,0.5214619040489197,0.7772896885871887,-6.864108085632324,4.11328125,2,"['F2', 'B2', 'A1']",6.1,180,0,2.3581893143973707,[29800|0|0]
29800,1.3366742134094238,-0.3166624903678894,-0.007376296445727348,0.548145592212677,0.7899729609489441,-6.87672233581543,4.11328125,2,"['F2', 'B2', 'A1']",6.1,180,0,2.358813966068649,[29900|0|0]
29900,1.3369829654693604,-0.31696322560310364,-0.00702666724100709,0.5575457215309143,0.7846530079841614,-6.847345352172852,4.11328125,2,"['F2', 'B2', 'A1']",6.1,180,0,2.3593689526423676,[30000|0|0]
30000,1.3372045755386353,-0.3163290023803711,-0.007172006648033857,0.5384034514427185,0.7844863533973694,-6.837648391723633,4.11328125,2,"['F2', 'B2', 'A1']",6.1,180,0,2.3600563198384803,[30100|0|0]
