time.ms,stateEstimate.x,stateEstimate.y,stateEstimate.z,stabilizer.roll,stabilizer.pitch,stabilizer.yaw,pm.vbat,drone_id,node_name,wind_speed,global_wind_direction,relative_wind_direction,travel_dist,waiting_time
0,1.8155369758605957,-0.1522165983915329,-0.016453536227345467,0.13867951929569244,0.6078364253044128,1.9642233848571777,4.07421875,1,"['F2', 'B2', 'A1']",6.1,180,0,0.05742404717008898,[100|0|0]
101,1.8163667917251587,-0.15230721235275269,-0.016287563368678093,0.14492878317832947,0.6146741509437561,1.9485454559326172,4.07421875,1,"['F2', 'B2', 'A1']",6.1,180,0,0.05827513603082127,[200|0|0]
201,1.8165332078933716,-0.15209853649139404,-0.01603725366294384,0.13913893699645996,0.609279990196228,1.9741042852401733,4.07421875,1,"['F2', 'B2', 'A1']",6.1,180,0,0.058641052558107476,[300|0|0]
301,1.8165727853775024,-0.15200331807136536,-0.016246410086750984,0.14119677245616913,0.6133503913879395,1.991318702697754,4.07421875,1,"['F2', 'B2', 'A1']",6.1,180,0,0.0588742463281415,[400|0|0]
401,1.8165366649627686,-0.15195637941360474,-0.01650933548808098,0.14229851961135864,0.6160556077957153,1.9951039552688599,4.07421875,1,"['F2', 'B2', 'A1']",6.1,180,0,0.05914376012856266,[500|0|0]
501,1.8164477348327637,-0.15201295912265778,-0.016138561069965363,0.14054763317108154,0.607693612575531,1.9630345106124878,4.07421875,1,"['F2', 'B2', 'A1']",6.1,180,0,0.059529225432615025,[600|0|0]
601,1.8165676593780518,-0.15216289460659027,-0.016098419204354286,0.14491501450538635,0.6108457446098328,1.9632078409194946,4.07421875,1,"['F2', 'B2', 'A1']",6.1,180,0,0.05972537312003286,[700|0|0]
701,1.8162891864776611,-0.15207521617412567,-0.016344930976629257,0.13940107822418213,0.6170920729637146,1.9685949087142944,4.07421875,1,"['F2', 'B2', 'A1']",6.1,180,0,0.060107476139703686,[800|0|0]
801,1.816825270652771,-0.1517554670572281,-0.016150465235114098,0.01964491978287697,0.4786648154258728,1.98307466506958,4.07421875,1,"['F2', 'B2', 'A1']",6.1,180,0,0.060761267134734245,[900|0|0]
901,1.8165688514709473,-0.15170317888259888,-0.016177762299776077,0.03639637678861618,0.5138767957687378,1.9655835628509521,4.07421875,1,"['F2', 'B2', 'A1']",6.1,180,0,0.061024383040282286,[1000|0|0]
1002,1.8158068656921387,-0.15126828849315643,-0.016082482412457466,-0.04590614140033722,0.475741446018219,1.9695216417312622,4.07421875,1,"['F2', 'B2', 'A1']",6.1,180,0,0.061906896629335385,[1100|0|0]
1102,1.8158339262008667,-0.15190055966377258,-0.015983689576387405,0.005281553603708744,0.49061450362205505,1.9512242078781128,4.07421875,1,"['F2', 'B2', 'A1']",6.1,180,0,0.0625474113667019,[1200|0|0]
1202,1.8156007528305054,-0.15246908366680145,-0.01635446958243847,0.17971548438072205,0.6327319145202637,1.9319015741348267,4.07421875,1,"['F2', 'B2', 'A1']",6.1,180,0,0.06326509317332156,[1300|0|0]
1302,1.8154813051223755,-0.15191644430160522,-0.016703177243471146,0.16945552825927734,0.6371005177497864,1.9553499221801758,4.07421875,1,"['F2', 'B2', 'A1']",6.1,180,0,0.06392937854558627,[1400|0|0]
1402,1.8154298067092896,-0.15195928514003754,-0.01645342819392681,0.17652179300785065,0.6414730548858643,1.94723641872406,4.07421875,1,"['F2', 'B2', 'A1']",6.1,180,0,0.06418795544272955,[1500|0|0]
1502,1.8154979944229126,-0.15232910215854645,-0.016224393621087074,0.1825718879699707,0.6399334669113159,1.953845500946045,4.07421875,1,"['F2', 'B2', 'A1']",6.1,180,0,0.06462826332026962,[1600|0|0]
1602,1.8153350353240967,-0.1517893224954605,-0.016622381284832954,0.15871548652648926,0.6367267370223999,1.963210105895996,4.07421875,1,"['F2', 'B2', 'A1']",6.1,180,0,0.0653184168778653,[1700|0|0]
1702,1.815548300743103,-0.1525019407272339,-0.016385827213525772,0.16917569935321808,0.6277031302452087,1.9630523920059204,4.07421875,1,"['F2', 'B2', 'A1']",6.1,180,0,0.0660989709835183,[1800|0|0]
1802,1.8152797222137451,-0.1522747129201889,-0.016217680647969246,0.15517356991767883,0.6311278939247131,1.957075595855713,4.07421875,1,"['F2', 'B2', 'A1']",6.1,180,0,0.06648889427114676,[1900|0|0]
1902,1.8154584169387817,-0.15233172476291656,-0.016433220356702805,0.14548350870609283,0.6190401911735535,1.9462214708328247,4.07421875,1,"['F2', 'B2', 'A1']",6.1,180,0,0.06677462057551524,[2000|0|0]
2000,1.8162975311279297,-0.15203213691711426,-0.01635865494608879,0.13132284581661224,0.6193504929542542,1.9522000551223755,4.07421875,1,"['F2', 'B2', 'A1']",6.1,180,0,0.06766872655370906,[2100|0|0]
2100,1.816807508468628,-0.15227900445461273,-0.0162687748670578,0.1314159333705902,0.6022453904151917,1.9512560367584229,4.07421875,1,"['F2', 'B2', 'A1']",6.1,180,0,0.06824239797334127,[2200|0|0]
2200,1.816545844078064,-0.15222297608852386,-0.016146406531333923,0.12851618230342865,0.6086826324462891,1.9453914165496826,4.07421875,1,"['F2', 'B2', 'A1']",6.1,180,0,0.06853664521748067,[2300|0|0]
2300,1.8165020942687988,-0.15190273523330688,-0.01639604941010475,0.11775699257850647,0.6081308722496033,1.9501171112060547,4.07421875,1,"['F2', 'B2', 'A1']",6.1,180,0,0.06894504430915672,[2400|0|0]
2400,1.816473126411438,-0.15177232027053833,-0.01654055528342724,0.11736184358596802,0.6048511862754822,1.9448559284210205,4.07421875,1,"['F2', 'B2', 'A1']",6.1,180,0,0.06914184153144072,[2500|0|0]
2500,1.816551923751831,-0.15220868587493896,-0.016238870099186897,0.13034959137439728,0.5925832986831665,1.9539928436279297,4.07421875,1,"['F2', 'B2', 'A1']",6.1,180,0,0.06967816038431379,[2600|0|0]
2600,1.8163790702819824,-0.15212903916835785,-0.016645757481455803,0.13787898421287537,0.6036039590835571,1.969172477722168,4.07421875,1,"['F2', 'B2', 'A1']",6.1,180,0,0.0701273588502034,[2700|0|0]
2700,1.7804811000823975,0.3608192205429077,-0.6805724501609802,-0.0011717926245182753,0.00013469009718392044,1.1725945472717285,4.07421875,1,"['F2', 'B2', 'A1']",6.1,180,0,0.9098911557941047,[2800|0|0]
2800,1.8107116222381592,-0.12409986555576324,-0.055402547121047974,0.13484317064285278,0.9904733300209045,1.8402985334396362,4.07421875,1,"['F2', 'B2', 'A1']",6.1,180,0,1.7016599428775174,[2900|0|0]
2900,1.8183027505874634,-0.1595282405614853,-0.004557568579912186,2.46650767326355,1.0093994140625,2.0778567790985107,4.07421875,1,"['F2', 'B2', 'A1']",6.1,180,0,1.7640939626745018,[3000|0|0]
3000,1.8176835775375366,-0.1567743867635727,-0.008831855840981007,0.8033013343811035,1.3301368951797485,2.180385112762451,4.07421875,1,"['F2', 'B2', 'A1']",6.1,180,0,1.7692161319021014,[3100|0|0]
3100,1.8169194459915161,-0.15455231070518494,-0.01242940966039896,-0.07077565044164658,1.4189860820770264,2.187991142272949,4.07421875,1,"['F2', 'B2', 'A1']",6.1,180,0,1.7735130974026019,[3200|0|0]
3200,1.816381573677063,-0.15300315618515015,-0.014290542341768742,-0.417026549577713,1.3679195642471313,2.1528379917144775,4.07421875,1,"['F2', 'B2', 'A1']",6.1,180,0,1.7759936217849175,[3300|0|0]
3300,1.8163248300552368,-0.1524042934179306,-0.015696102753281593,-0.4910772442817688,1.2632861137390137,2.1097967624664307,4.07421875,1,"['F2', 'B2', 'A1']",6.1,180,0,1.7775224960514915,[3400|0|0]
3400,1.8161512613296509,-0.1519937515258789,-0.01635405421257019,-0.4600512683391571,1.1669807434082031,2.075127601623535,4.07421875,1,"['F2', 'B2', 'A1']",6.1,180,0,1.7783172103840732,[3500|0|0]
3500,1.81631600856781,-0.15228435397148132,-0.016392149031162262,-0.4037915766239166,1.0650650262832642,2.0446290969848633,4.07421875,1,"['F2', 'B2', 'A1']",6.1,180,0,1.778653428541041,[3600|0|0]
3600,1.8163506984710693,-0.15177495777606964,-0.01661660708487034,-0.3492341637611389,0.9952128529548645,2.0264892578125,4.07421875,1,"['F2', 'B2', 'A1']",6.1,180,0,1.7792111644025044,[3700|0|0]
3700,1.81614351272583,-0.1516149938106537,-0.01672978699207306,-0.2924126982688904,0.9400500655174255,2.000720262527466,4.07421875,1,"['F2', 'B2', 'A1']",6.1,180,0,1.7794963381997866,[3800|0|0]
3800,1.8162399530410767,-0.1518743336200714,-0.016725923866033554,-0.22695234417915344,0.8805849552154541,1.9884003400802612,4.07421875,1,"['F2', 'B2', 'A1']",6.1,180,0,1.7797730560974667,[3900|0|0]
3900,1.8160974979400635,-0.15137311816215515,-0.017006557434797287,-0.18675579130649567,0.8382051587104797,1.96805739402771,4.07421875,1,"['F2', 'B2', 'A1']",6.1,180,0,1.7803648884985532,[4000|0|0]
4000,1.816481590270996,-0.1515917032957077,-0.016482556238770485,-0.12371215224266052,0.7861935496330261,1.959323763847351,4.07421875,1,"['F2', 'B2', 'A1']",6.1,180,0,1.7810503690837844,[4100|0|0]
4100,1.8163963556289673,-0.15217198431491852,-0.016488531604409218,-0.06282760947942734,0.7631143927574158,1.9497472047805786,4.07421875,1,"['F2', 'B2', 'A1']",6.1,180,0,1.781636906985759,[4200|0|0]
4200,1.816665530204773,-0.1514671891927719,-0.016155600547790527,-0.15820984542369843,0.6044648885726929,1.9672915935516357,4.07421875,1,"['F2', 'B2', 'A1']",6.1,180,0,1.7824615488504028,[4300|0|0]
4300,1.816499948501587,-0.15164701640605927,-0.01606014184653759,-0.10349645465612411,0.6084385514259338,1.9345239400863647,4.07421875,1,"['F2', 'B2', 'A1']",6.1,180,0,1.7827239750128059,[4400|0|0]
4400,1.8166086673736572,-0.15154260396957397,-0.01624886691570282,-0.06312815099954605,0.6146208047866821,1.933707356452942,4.07421875,1,"['F2', 'B2', 'A1']",6.1,180,0,1.7829655094860566,[4500|0|0]
4500,1.8165886402130127,-0.15164993703365326,-0.01613018475472927,-0.025091523304581642,0.6101503968238831,1.9268587827682495,4.07421875,1,"['F2', 'B2', 'A1']",6.1,180,0,1.7831267761259468,[4600|0|0]
4600,1.816469669342041,-0.15194222331047058,-0.01612505316734314,0.007619189098477364,0.6126675605773926,1.902836799621582,4.07421875,1,"['F2', 'B2', 'A1']",6.1,180,0,1.7834423892893996,[4700|0|0]
4700,1.8164985179901123,-0.15212731063365936,-0.016088470816612244,0.03312070667743683,0.6012293696403503,1.8896889686584473,4.07421875,1,"['F2', 'B2', 'A1']",6.1,180,0,1.7836332500503898,[4800|0|0]
4800,1.8153231143951416,-0.15195730328559875,-0.016756204888224602,0.07398629188537598,0.661540687084198,1.925587773323059,4.07421875,1,"['F2', 'B2', 'A1']",6.1,180,0,1.7849957275363897,[4900|0|0]
4900,1.8157846927642822,-0.15218643844127655,-0.016253767535090446,0.07433806359767914,0.6280261874198914,1.930715560913086,4.07421875,1,"['F2', 'B2', 'A1']",6.1,180,0,1.7857154502637302,[5000|0|0]
5000,1.8153815269470215,-0.1520732194185257,-0.016039876267313957,0.06514707207679749,0.6160768270492554,1.9401808977127075,4.07421875,1,"['F2', 'B2', 'A1']",6.1,180,0,1.786185674356851,[5100|0|0]
5100,1.8155845403671265,-0.15169447660446167,-0.016492607071995735,0.052595242857933044,0.5900656580924988,1.9653136730194092,4.07421875,1,"['F2', 'B2', 'A1']",6.1,180,0,1.7868098744445278,[5200|0|0]
5200,1.8156410455703735,-0.15192821621894836,-0.016267504543066025,0.06255535781383514,0.5773216485977173,1.9639934301376343,4.07421875,1,"['F2', 'B2', 'A1']",6.1,180,0,1.787139265084809,[5300|0|0]
5300,1.816441535949707,-0.1521855741739273,-0.016124913468956947,0.06645101308822632,0.570805013179779,1.9725158214569092,4.07421875,1,"['F2', 'B2', 'A1']",6.1,180,0,1.7879921133590126,[5400|0|0]
5400,1.8165372610092163,-0.15218190848827362,-0.016471438109874725,0.06457698345184326,0.5599541664123535,1.958269715309143,4.07421875,1,"['F2', 'B2', 'A1']",6.1,180,0,1.7883516353347424,[5500|0|0]
5500,1.8166007995605469,-0.15178601443767548,-0.016357529908418655,0.05294499918818474,0.5536774396896362,1.9599721431732178,4.07421875,1,"['F2', 'B2', 'A1']",6.1,180,0,1.7887684618276183,[5600|0|0]
5600,1.8164397478103638,-0.15196600556373596,-0.01644650287926197,0.053537555038928986,0.5604074001312256,1.965789794921875,4.07421875,1,"['F2', 'B2', 'A1']",6.1,180,0,1.7890258538656425,[5700|0|0]
5700,1.8164029121398926,-0.1522243320941925,-0.01614411734044552,0.056048475205898285,0.5519981384277344,1.9727764129638672,4.07421875,1,"['F2', 'B2', 'A1']",6.1,180,0,1.7894252615233583,[5800|0|0]
5800,1.8165935277938843,-0.15187738835811615,-0.016254032030701637,0.03690635785460472,0.5409132838249207,1.9807242155075073,4.07421875,1,"['F2', 'B2', 'A1']",6.1,180,0,1.7898360966760454,[5900|0|0]
5900,1.8165491819381714,-0.15200453996658325,-0.01615886576473713,0.044027455151081085,0.5351048111915588,1.9750690460205078,4.07421875,1,"['F2', 'B2', 'A1']",6.1,180,0,1.7900009927179394,[6000|0|0]
6000,1.8166624307632446,-0.15155592560768127,-0.01640351302921772,0.034599967300891876,0.5351449251174927,1.9721812009811401,4.07421875,1,"['F2', 'B2', 'A1']",6.1,180,0,1.7905243782578728,[6100|0|0]
6100,1.8165428638458252,-0.15202069282531738,-0.016188081353902817,0.04503008350729942,0.5418062210083008,1.969032645225525,4.07421875,1,"['F2', 'B2', 'A1']",6.1,180,0,1.7910504159191285,[6200|0|0]
6200,1.8164702653884888,-0.15207090973854065,-0.016503967344760895,0.043053898960351944,0.5500067472457886,1.9716417789459229,4.07421875,1,"['F2', 'B2', 'A1']",6.1,180,0,1.791378404079893,[6300|0|0]
6300,1.8164540529251099,-0.15217643976211548,-0.016339484602212906,0.03776630386710167,0.5373469591140747,1.9688862562179565,4.07421875,1,"['F2', 'B2', 'A1']",6.1,180,0,1.7915745010009312,[6400|0|0]
6400,1.816742181777954,-0.15217278897762299,-0.016169071197509766,0.03880154713988304,0.533470094203949,1.9652472734451294,4.07421875,1,"['F2', 'B2', 'A1']",6.1,180,0,1.7919092730018082,[6500|0|0]
6500,1.8162832260131836,-0.15185491740703583,-0.016434013843536377,0.03266337513923645,0.5453450679779053,1.9758890867233276,4.07421875,1,"['F2', 'B2', 'A1']",6.1,180,0,1.7925272352458712,[6600|0|0]
6600,1.8164548873901367,-0.15200191736221313,-0.016318390145897865,0.037104737013578415,0.5436484813690186,1.9817211627960205,4.07421875,1,"['F2', 'B2', 'A1']",6.1,180,0,1.792781096339021,[6700|0|0]
6700,1.8164254426956177,-0.152119442820549,-0.01606464572250843,0.03810162469744682,0.5403841733932495,1.9641646146774292,4.07421875,1,"['F2', 'B2', 'A1']",6.1,180,0,1.793062282141994,[6800|0|0]
6800,1.8165571689605713,-0.15219645202159882,-0.015858802944421768,0.03957129269838333,0.53416907787323,1.9495444297790527,4.07421875,1,"['F2', 'B2', 'A1']",6.1,180,0,1.7933185114830448,[6900|0|0]
6900,1.8164340257644653,-0.1521046906709671,-0.01591573841869831,0.03608183190226555,0.5356351137161255,1.9458876848220825,4.07421875,1,"['C1', 'B2', 'A/E1']",6.1,180,0,1.7934822980528484,[6900|0|0]
7000,1.8165457248687744,-0.1523825228214264,-0.016199639067053795,-0.03804416581988335,0.4197910726070404,2.023969888687134,3.130859375,1,"['C1', 'B2', 'A/E1']",6.1,180,0,1.793894932239349,[6900|0|0]
7100,1.8179197311401367,-0.1503090113401413,-0.006962433457374573,-1.0861542224884033,-4.4066596031188965,1.601693868637085,3.521484375,1,"['C1', 'B2', 'A/E1']",6.1,180,0,1.8034611912036596,[6900|0|0]
7200,1.8285932540893555,-0.14431101083755493,0.034349892288446426,0.043270230293273926,-5.291755676269531,0.9843953847885132,3.599609375,1,"['C1', 'B2', 'A/E1']",6.1,180,0,1.8465495696914298,[6900|0|0]
7300,1.8481820821762085,-0.1363711953163147,0.09929895401000977,2.794926404953003,-0.2421364039182663,0.7315298318862915,3.63671875,1,"['C1', 'B2', 'A/E1']",6.1,180,0,1.9148514252653384,[6900|0|0]
7400,1.868872880935669,-0.13521641492843628,0.18130670487880707,2.927819013595581,1.686889886856079,0.403306782245636,3.658203125,1,"['C1', 'B2', 'A/E1']",6.1,180,0,1.9994369670180956,[6900|0|0]
7500,1.8853563070297241,-0.13389576971530914,0.2641856074333191,1.9607675075531006,2.2323896884918213,0.2674545347690582,3.6640625,1,"['C1', 'B2', 'A/E1']",6.1,180,0,2.083949450878277,[6900|0|0]
7600,1.8989107608795166,-0.13271871209144592,0.35033535957336426,0.7348818182945251,1.928351879119873,-1.9537107944488525,3.658203125,1,"['C1', 'B2', 'A/E1']",6.1,180,0,2.1711669289294524,[6900|0|0]
7700,1.9086277484893799,-0.12915979325771332,0.43006056547164917,2.195605754852295,4.1356353759765625,-4.0391340255737305,3.6640625,1,"['C1', 'B2', 'A/E1']",6.1,180,0,2.251560922529716,[6900|0|0]
7800,1.91216242313385,-0.1264020800590515,0.5164636373519897,2.400383710861206,2.532180070877075,-5.683345794677734,3.6796875,1,"['C1', 'B2', 'A/E1']",6.1,180,0,2.3380802252158084,[6900|0|0]
7900,1.909609079360962,-0.12701557576656342,0.6008767485618591,1.7503412961959839,2.067744255065918,-6.055753707885742,3.705078125,1,"['C1', 'B2', 'A/E1']",6.1,180,0,2.4225341729360625,[6900|0|0]
8000,1.9035013914108276,-0.1290949136018753,0.6773593425750732,0.7239656448364258,0.41497886180877686,-5.388956546783447,3.716796875,1,"['C1', 'B2', 'A/E1']",6.1,180,0,2.4992884215801587,[6900|0|0]
8100,1.8966988325119019,-0.130777046084404,0.7421525716781616,0.28016048669815063,-1.6934746503829956,-3.187788963317871,3.716796875,1,"['C1', 'B2', 'A/E1']",6.1,180,0,2.5644594804549956,[6900|0|0]
8200,1.8905454874038696,-0.1311596930027008,0.7938348054885864,0.4663960933685303,-0.20865939557552338,-2.859834671020508,3.705078125,1,"['C1', 'B2', 'A/E1']",6.1,180,0,2.616508143899104,[6900|0|0]
8300,1.885457158088684,-0.1324823647737503,0.8322089910507202,1.6496928930282593,-0.7572854161262512,-2.8454277515411377,3.689453125,1,"['C1', 'B2', 'A/E1']",6.1,180,0,2.6552408003196333,[6900|0|0]
8400,1.8806052207946777,-0.1367958039045334,0.8586947917938232,0.4343852400779724,-0.9615606069564819,-3.2052161693573,3.673828125,1,"['C1', 'B2', 'A/E1']",6.1,180,0,2.682510649854299,[6900|0|0]
8500,1.8763267993927002,-0.14240583777427673,0.8789392113685608,0.19089095294475555,-0.22304868698120117,-2.9151525497436523,3.673828125,1,"['C1', 'B2', 'A/E1']",6.1,180,0,2.7039492574030786,[6900|0|0]
8600,1.8722214698791504,-0.14977462589740753,0.8946083188056946,-0.09561680257320404,-0.3627537190914154,-1.6127005815505981,3.66796875,1,"['C1', 'B2', 'A/E1']",6.1,180,0,2.721744585348774,[6900|0|0]
8700,1.8690017461776733,-0.15844042599201202,0.9069182872772217,0.4241103231906891,-0.17712602019309998,-0.9270212650299072,3.66796875,1,"['C1', 'B2', 'A/E1']",6.1,180,0,2.7371393258715466,[6900|0|0]
8800,1.8664923906326294,-0.1688878983259201,0.9155267477035522,-0.4227941036224365,-1.2208900451660156,-1.0870490074157715,3.658203125,1,"['C1', 'B2', 'A/E1']",6.1,180,0,2.7509071192434313,[6900|0|0]
8900,1.8655571937561035,-0.1785295009613037,0.9236830472946167,-1.2521939277648926,-1.418145775794983,-2.832979202270508,3.6640625,1,"['C1', 'B2', 'A/E1']",6.1,180,0,2.7635704646780193,[6900|0|0]
9000,1.8676033020019531,-0.18729716539382935,0.929768443107605,-2.473287343978882,-0.050377581268548965,-6.182092189788818,3.658203125,1,"['C1', 'B2', 'A/E1']",6.1,180,0,2.774437411846191,[6900|0|0]
9100,1.8692784309387207,-0.19253458082675934,0.9306784272193909,-2.1057136058807373,1.627100944519043,-8.140490531921387,3.6484375,1,"['C1', 'B2', 'A/E1']",6.1,180,0,2.7800109787880687,[6900|0|0]
9200,1.8690398931503296,-0.19409722089767456,0.9280431866645813,-2.324651002883911,1.28752863407135,-9.003265380859375,3.630859375,1,"['C1', 'B2', 'A/E1']",6.1,180,0,2.7830839638269897,[6900|0|0]
9300,1.8669712543487549,-0.1934105008840561,0.9255169630050659,-1.7356557846069336,1.0110279321670532,-9.363495826721191,3.63671875,1,"['C1', 'B2', 'A/E1']",6.1,180,0,2.7864205274553924,[6900|0|0]
9400,1.8625507354736328,-0.1897314190864563,0.9239180088043213,-0.33413752913475037,1.7131261825561523,-9.429347038269043,3.630859375,1,"['C1', 'B2', 'A/E1']",6.1,180,0,2.7923898896101638,[6900|0|0]
9500,1.8558498620986938,-0.18664002418518066,0.9229037165641785,0.16117286682128906,-0.16167165338993073,-8.807376861572266,3.630859375,1,"['C1', 'B2', 'A/E1']",6.1,180,0,2.7998388637120795,[6900|0|0]
9600,1.848437786102295,-0.18376202881336212,0.9235121011734009,-0.6803526282310486,-0.9764943718910217,-7.997174263000488,3.626953125,1,"['C1', 'B2', 'A/E1']",6.1,180,0,2.807813314148902,[6900|0|0]
9700,1.8430960178375244,-0.1808142215013504,0.9260959029197693,-0.8572111129760742,-2.2864432334899902,-6.759588718414307,3.63671875,1,"['C1', 'B2', 'A/E1']",6.1,180,0,2.8144390282694927,[6900|0|0]
9800,1.8413708209991455,-0.17772074043750763,0.9315767288208008,-0.7450805306434631,-1.646431803703308,-4.3704376220703125,3.642578125,1,"['C1', 'B2', 'A/E1']",6.1,180,0,2.820964775872712,[6900|0|0]
9900,1.842795491218567,-0.17345617711544037,0.9386427998542786,-0.5134989023208618,-1.7192094326019287,-1.6283804178237915,3.6484375,1,"['C1', 'B2', 'A/E1']",6.1,180,49.4748965062461,2.8293400696235116,[6900|0|0]
10000,1.844722032546997,-0.16867804527282715,0.947428286075592,-8.070535659790039,6.111170768737793,0.9963671565055847,3.611328125,1,"['C1', 'B2', 'A/E1']",6.1,180,49.4748965062461,2.8395247087207225,[6900|0|0]
10100,1.8356724977493286,-0.14903654158115387,0.9534506797790527,-15.479461669921875,14.407105445861816,4.12708044052124,3.611328125,1,"['C1', 'B2', 'A/E1']",6.1,180,49.4748965062461,2.8619735833750055,[6900|0|0]
10200,1.8008513450622559,-0.10577335208654404,0.9553316831588745,-18.749101638793945,16.173892974853516,4.742105007171631,3.599609375,1,"['C1', 'B2', 'A/E1']",6.1,180,49.4748965062461,2.9175411495752437,[6900|0|0]
10300,1.7389304637908936,-0.03826266527175903,0.9544451832771301,-14.321109771728516,12.431126594543457,3.3775181770324707,3.58984375,1,"['C1', 'B2', 'A/E1']",6.1,180,49.4748965062461,3.009152689534282,[6900|0|0]
10400,1.6555938720703125,0.04822883382439613,0.955366313457489,-7.461450099945068,5.300303936004639,1.9514142274856567,3.599609375,1,"['C1', 'B2', 'A/E1']",6.1,180,49.4748965062461,3.1292635359067567,[6900|0|0]
10500,1.563581943511963,0.14122681319713593,0.9624093174934387,0.32724684476852417,-2.855729103088379,0.6909512877464294,3.615234375,1,"['C1', 'B2', 'A/E1']",6.1,180,49.4748965062461,3.2602766004090795,[6900|0|0]
10600,1.4765758514404297,0.23927953839302063,0.9725871682167053,5.8590288162231445,-8.641167640686035,0.14072977006435394,3.6484375,1,"['C1', 'B2', 'A/E1']",6.1,180,49.4748965062461,3.3917603850414246,[6900|0|0]
10700,1.4103187322616577,0.30920371413230896,0.9939473271369934,8.815494537353516,-12.0175199508667,-4.447572231292725,3.65234375,1,"['C1', 'B2', 'A/E1']",6.1,180,49.4748965062461,3.4904297956193178,[6900|0|0]
10800,1.360205888748169,0.3754277527332306,1.004953145980835,8.081239700317383,-11.378545761108398,-9.42671012878418,3.642578125,1,"['C1', 'B2', 'A/E1']",6.1,180,49.4748965062461,3.5742035887890626,[6900|0|0]
10900,1.3239444494247437,0.4243931770324707,1.0098711252212524,10.025947570800781,-8.564586639404297,-4.116264343261719,3.626953125,1,"['C1', 'B2', 'A/E1']",6.1,180,49.4748965062461,3.63533207051747,[6900|0|0]
11000,1.3015373945236206,0.4555584192276001,1.0115487575531006,8.954614639282227,-7.185832500457764,-0.2157970815896988,3.626953125,1,"['C1', 'B2', 'A/E1']",6.1,180,49.4748965062461,3.673752935690757,[6900|0|0]
11100,1.2905725240707397,0.4713645279407501,1.0117651224136353,6.695461273193359,-5.335254669189453,2.129981517791748,3.626953125,1,"['C1', 'B2', 'A/E1']",6.1,180,49.4748965062461,3.692991133902992,[6900|0|0]
11200,1.2873404026031494,0.476290762424469,1.0115007162094116,4.191514015197754,-3.9576640129089355,3.4652905464172363,3.626953125,1,"['C1', 'B2', 'A/E1']",6.1,180,49.4748965062461,3.698888956044314,[6900|0|0]
11300,1.3046444654464722,0.4262452721595764,1.0418487787246704,0.7989824414253235,-1.8165643215179443,9.638962745666504,3.65234375,1,"['C1', 'B2', 'A/E1']",6.1,180,49.4748965062461,3.7599216242243076,[6900|0|0]
11400,1.3094048500061035,0.41609707474708557,1.043502688407898,-3.376253366470337,-0.22446198761463165,5.285074234008789,3.642578125,1,"['C1', 'B2', 'A/E1']",6.1,180,49.4748965062461,3.771252228317591,[6900|0|0]
11500,1.312529444694519,0.41118940711021423,1.0393145084381104,-4.322881698608398,1.22864830493927,2.1517672538757324,3.626953125,1,"['C1', 'B2', 'A/E1']",6.1,180,49.4748965062461,3.778420850574357,[6900|0|0]
11600,1.3111772537231445,0.41218453645706177,1.0322755575180054,-3.875359535217285,1.11627995967865,0.24201664328575134,3.615234375,1,"['C1', 'B2', 'A/E1']",6.1,180,49.4748965062461,3.7856572538864777,[6900|0|0]
11700,1.3062657117843628,0.4193434417247772,1.023529052734375,-2.7192888259887695,0.437844842672348,-0.8814495801925659,3.62109375,1,"['C1', 'B2', 'A/E1']",6.1,180,49.4748965062461,3.7979809917439056,[6900|0|0]
11800,1.3000569343566895,0.4299895167350769,1.0154564380645752,-1.1286896467208862,-0.3748101592063904,-1.5050488710403442,3.615234375,1,"['C1', 'B2', 'A/E1']",6.1,180,49.4748965062461,3.812713776201651,[6900|0|0]
11900,1.2939194440841675,0.4411451518535614,1.0077381134033203,0.2710500955581665,-1.179263710975647,-1.6608681678771973,3.611328125,1,"['C1', 'B2', 'A/E1']",6.1,180,49.4748965062461,3.827603017865302,[6900|0|0]
12000,1.2886600494384766,0.4508609175682068,1.0023049116134644,0.9417620301246643,-1.088180422782898,-1.2476481199264526,3.615234375,1,"['C1', 'B2', 'A/E1']",6.1,180,49.4748965062461,3.839914679700745,[6900|0|0]
12100,1.2848925590515137,0.4597109854221344,0.9986211657524109,1.2267296314239502,-1.8259730339050293,-0.8625609278678894,3.615234375,1,"['C1', 'B2', 'A/E1']",6.1,180,49.4748965062461,3.850214566515842,[6900|0|0]
12200,1.2836635112762451,0.4650149345397949,0.9966198801994324,1.6909151077270508,-2.1266751289367676,-0.5134791731834412,3.62109375,1,"['C1', 'B2', 'A/E1']",6.1,180,49.4748965062461,3.8560152198015665,[6900|0|0]
12300,1.2856422662734985,0.4667288661003113,0.9956837296485901,0.9913651943206787,-2.144052267074585,-0.122312992811203,3.62109375,1,"['C1', 'B2', 'A/E1']",6.1,180,49.4748965062461,3.8587954015559003,[6900|0|0]
12400,1.2902628183364868,0.4662696123123169,0.9949555397033691,0.9159983396530151,-1.3842792510986328,0.719947874546051,3.62109375,1,"['C1', 'B2', 'A/E1']",6.1,180,49.4748965062461,3.8634954734707643,[6900|0|0]
12500,1.2966983318328857,0.4647536873817444,0.9937507510185242,0.3006468713283539,-0.6125555038452148,1.547514796257019,3.62109375,1,"['C1', 'B2', 'A/E1']",6.1,180,49.4748965062461,3.8702159926570023,[6900|0|0]
12600,1.3037642240524292,0.46212640404701233,0.9929330348968506,-0.6410728096961975,-0.1012907326221466,2.5679218769073486,3.62109375,1,"['C1', 'B2', 'A/E1']",6.1,180,49.4748965062461,3.8777987434926033,[6900|0|0]
12700,1.3109686374664307,0.4605560600757599,0.9913448095321655,-0.701082706451416,0.05785234645009041,3.420464277267456,3.62109375,1,"['C1', 'B2', 'A/E1']",6.1,180,49.4748965062461,3.8853414228996126,[6900|0|0]
12800,1.3172508478164673,0.45910775661468506,0.9895307421684265,-0.5708500742912292,0.270475834608078,3.6992976665496826,3.62109375,1,"['C1', 'B2', 'A/E1']",6.1,180,49.4748965062461,3.8920387798557297,[6900|0|0]
12900,1.3227112293243408,0.4587208032608032,0.9850727915763855,-0.8733445405960083,0.33556997776031494,3.659235715866089,3.611328125,1,"['C1', 'B2', 'A/E1']",6.1,180,0,3.899098441504186,[6900|0|0]
13000,1.3278254270553589,0.4592946767807007,0.9786863327026367,-0.9805418848991394,0.16779671609401703,2.904242992401123,3.869140625,1,"['C1', 'B2', 'A/E1']",6.1,180,0,3.9073003441002228,[6900|0|0]
13100,1.3319674730300903,0.46039092540740967,0.9442676901817322,-0.43643084168434143,0.511523425579071,3.0191850662231445,3.806640625,1,"['C1', 'B2', 'A/E1']",6.1,180,0,3.941984652640111,[6900|0|0]
13200,1.3349515199661255,0.4620434045791626,0.8688336610794067,-0.3714729845523834,0.7447075843811035,3.118222951889038,3.705078125,1,"['C1', 'B2', 'A/E1']",6.1,180,0,4.0174957642074824,[6900|0|0]
13300,1.336085319519043,0.463062047958374,0.7583860158920288,-0.4892807900905609,1.662494421005249,4.033014297485352,3.611328125,1,"['C1', 'B2', 'A/E1']",6.1,180,0,4.127953925803614,[6900|0|0]
13400,1.3356481790542603,0.46549874544143677,0.6310532689094543,-2.507911443710327,-0.10045477747917175,6.565136432647705,3.58984375,1,"['C1', 'B2', 'A/E1']",6.1,180,0,4.255310735753213,[6900|0|0]
13500,1.3358802795410156,0.4733838438987732,0.4992326498031616,-1.3475341796875,0.6190885305404663,10.889178276062012,3.57421875,1,"['C1', 'B2', 'A/E1']",6.1,180,0,4.387367179253271,[6900|0|0]
13600,1.3362035751342773,0.4874999225139618,0.37361663579940796,-0.4074086546897888,-0.6398043632507324,16.755189895629883,3.5625,1,"['C1', 'B2', 'A/E1']",6.1,180,0,4.513774264377887,[6900|0|0]
13700,1.3461703062057495,0.49758490920066833,0.2542276680469513,13.504691123962402,-9.921096801757812,24.247299194335938,3.59375,1,"['C1', 'B2', 'A/E1']",6.1,180,0,4.634002249080781,[6900|0|0]
13800,1.3806171417236328,0.49243831634521484,0.13500171899795532,8.833024978637695,-19.91266441345215,25.372270584106445,3.509765625,1,"['C1', 'B2', 'A/E1']",6.1,180,0,4.758211342233616,[6900|0|0]
13900,1.4557241201400757,0.5078309774398804,0.02633741870522499,-4.963713645935059,-2.1860404014587402,23.89925765991211,3.47265625,1,"['C1', 'B2', 'A/E1']",6.1,180,0,4.89119977173232,[6900|0|0]
14000,1.5231812000274658,0.5215923190116882,-0.017909474670886993,-13.46399211883545,1.1936423778533936,29.188812255859375,3.552734375,1,"['C1', 'B2', 'A/E1']",6.1,180,0,4.973038758298789,[6900|0|0]
14100,1.5583001375198364,0.5516802072525024,0.01964588090777397,-14.27277660369873,22.813278198242188,41.79282760620117,3.6953125,1,"['C1', 'B2', 'A/E1']",6.1,180,0,5.032612456539073,[6900|0|0]
14200,1.558821201324463,0.5715742707252502,0.03679588437080383,-2.4805665016174316,29.99152946472168,33.311180114746094,3.611328125,1,"['C1', 'B2', 'A/E1']",6.1,180,0,5.058883503106124,[6900|0|0]
14300,1.525656819343567,0.5688538551330566,0.03406789153814316,6.105563640594482,17.862606048583984,19.104782104492188,3.525390625,1,"['C1', 'B2', 'A/E1']",6.1,180,0,5.092270908486957,[6900|0|0]
14400,1.4696264266967773,0.5449805855751038,0.030358660966157913,6.332480430603027,7.021327495574951,9.162214279174805,3.541015625,1,"['C1', 'B2', 'A/E1']",6.1,180,0,5.153288088780513,[6900|0|0]
14500,1.4059303998947144,0.509168267250061,0.03430982306599617,2.693894147872925,-3.604515552520752,2.9418184757232666,3.568359375,1,"['C1', 'B2', 'A/E1']",6.1,180,0,5.226468124692792,[6900|0|0]
14600,1.3488737344741821,0.4695764183998108,0.04963625594973564,-2.230695962905884,-7.7087788581848145,-1.0522644519805908,3.599609375,1,"['C1', 'B2', 'A/E1']",6.1,180,0,5.2975868782619555,[6900|0|0]
14700,1.304905652999878,0.43564867973327637,0.0703451931476593,-4.930695056915283,-8.693534851074219,-2.5807273387908936,3.62109375,1,"['C1', 'B2', 'A/E1']",6.1,180,0,5.35685865670181,[6900|0|0]
14800,1.283841609954834,0.4068455398082733,0.08794863522052765,-6.993947982788086,-8.374337196350098,-4.397178649902344,3.62109375,1,"['C1', 'B2', 'A/E1']",6.1,180,0,5.396648051667751,[6900|0|0]
14900,1.2781192064285278,0.38834598660469055,0.09967539459466934,-7.117175579071045,-5.398242473602295,-5.742863178253174,3.62109375,1,"['C1', 'B2', 'A/E1']",6.1,180,0,5.41928643182776,[6900|0|0]
15001,1.2818996906280518,0.3789099156856537,0.10518120974302292,-6.452000617980957,-3.528988838195801,-6.570755958557129,3.60546875,1,"['C1', 'B2', 'A/E1']",6.1,180,0,5.4308469463327365,[6900|0|0]
15100,1.2924176454544067,0.3773329257965088,0.10632572323083878,-4.275634288787842,-0.8139801621437073,-6.469137191772461,3.599609375,1,"['C1', 'B2', 'A/E1']",6.1,180,0,5.4415438702814,[6900|0|0]
15201,1.3049224615097046,0.38127511739730835,0.10534834861755371,-3.556670665740967,0.13149940967559814,-5.71919059753418,3.59375,1,"['C1', 'B2', 'A/E1']",6.1,180,0,5.4546917431256645,[6900|0|0]
15301,1.3160978555679321,0.38696202635765076,0.10318320989608765,-2.070281982421875,1.4629426002502441,-4.713869571685791,3.58984375,1,"['C1', 'B2', 'A/E1']",6.1,180,0,5.4674164510422765,[6900|0|0]
15401,1.3248467445373535,0.39659103751182556,0.10197765380144119,0.2268589287996292,1.6704134941101074,-3.404634475708008,3.599609375,1,"['C1', 'B2', 'A/E1']",6.1,180,0,5.480482218509358,[6900|0|0]
15501,1.3296443223953247,0.4054793119430542,0.09999554604291916,-0.011268209666013718,1.07773756980896,-2.919560670852661,3.58984375,1,"['C1', 'B2', 'A/E1']",6.1,180,0,5.490775270866871,[6900|0|0]
15601,1.332290768623352,0.41206076741218567,0.09797445684671402,0.8835801482200623,0.6029977202415466,-2.6747021675109863,3.58984375,1,"['C1', 'B2', 'A/E1']",6.1,180,0,5.498151179981619,[6900|0|0]
15701,1.3341217041015625,0.4163188636302948,0.09719057381153107,0.37309128046035767,0.008914745412766933,-1.9280116558074951,3.59375,1,"['C1', 'B2', 'A/E1']",6.1,180,0,5.502852050192643,[6900|0|0]
15801,1.3369331359863281,0.41832369565963745,0.09562627971172333,0.3873644173145294,0.00047081225784495473,-1.4796817302703857,3.58984375,1,"['C1', 'B2', 'A/E1']",6.1,180,0,5.506642896633643,[6900|0|0]
15902,1.339047908782959,0.4196324348449707,0.09308046847581863,-1.262272834777832,0.3760950565338135,-0.2564970850944519,3.583984375,1,"['C1', 'B2', 'A/E1']",6.1,180,0,5.5102018595563855,[6900|0|0]
16002,1.340175747871399,0.4217482805252075,0.0923648253083229,-0.7550578117370605,-0.002220908645540476,0.7422419786453247,3.58984375,1,"['B1', 'B2', 'F1']",6.1,180,0,5.512704052413696,[6900|100|0]
16102,1.341409683227539,0.4252621531486511,0.09191834181547165,-0.31717178225517273,0.2820206582546234,1.1147260665893555,3.59375,1,"['B1', 'B2', 'F1']",6.1,180,0,5.516454951610729,[6900|200|0]
16202,1.342719554901123,0.42897194623947144,0.09084221720695496,-0.9154114723205566,0.08376684039831161,0.34987083077430725,3.58984375,1,"['B1', 'B2', 'F1']",6.1,180,0,5.520533722596089,[6900|300|0]
16302,1.3435512781143188,0.4336435794830322,0.08995295315980911,-0.29459595680236816,0.21590803563594818,-1.1348443031311035,3.59375,1,"['B1', 'B2', 'F1']",6.1,180,0,5.525361425073589,[6900|400|0]
16402,1.3435826301574707,0.4372214674949646,0.0890222117304802,0.21038654446601868,0.305715411901474,-2.604674816131592,3.58984375,1,"['B1', 'B2', 'F1']",6.1,180,0,5.52905852463741,[6900|500|0]
16502,1.3426313400268555,0.4401057958602905,0.08780233561992645,-0.33419734239578247,0.6854793429374695,-4.111526966094971,3.583984375,1,"['B1', 'B2', 'F1']",6.1,180,0,5.532331505046262,[6900|600|0]
16602,1.3401707410812378,0.4422445595264435,0.0870916098356247,-0.12680506706237793,0.3533908426761627,-4.675685882568359,3.58984375,1,"['B1', 'B2', 'F1']",6.1,180,0,5.535668268198076,[6900|700|0]
16702,1.3376200199127197,0.44406944513320923,0.08643585443496704,-0.6784381866455078,0.3145071566104889,-5.208412170410156,3.58984375,1,"['B1', 'B2', 'F1']",6.1,180,0,5.5388723907148965,[6900|800|0]
16800,1.3350359201431274,0.44621238112449646,0.0863494947552681,-0.1728127896785736,0.3685641884803772,-5.204335689544678,3.58984375,1,"['B1', 'B2', 'F1']",6.1,180,0,5.542230545606535,[6900|900|0]
16900,1.332677960395813,0.44767361879348755,0.08596312999725342,0.44554251432418823,0.4042373299598694,-5.254444599151611,3.58984375,1,"['B1', 'B2', 'F1']",6.1,180,0,5.545031343246756,[6900|1000|0]
17000,1.3294936418533325,0.44703495502471924,0.08317241072654724,1.0936079025268555,0.8939734697341919,-6.035333156585693,3.583984375,1,"['B1', 'B2', 'F1']",6.1,180,0,5.549313385987951,[6900|1100|0]
17100,1.3242783546447754,0.44421905279159546,0.07913722097873688,-0.10187868028879166,0.1037556603550911,-6.132122039794922,3.57421875,1,"['B1', 'B2', 'F1']",6.1,180,0,5.556483552119574,[6900|1200|0]
17200,1.3182016611099243,0.4410610496997833,0.07668434828519821,-0.4688245356082916,0.5138536691665649,-5.552485942840576,3.578125,1,"['B1', 'B2', 'F1']",6.1,180,0,5.563757874926207,[6900|1300|0]
17300,1.31098210811615,0.4392662048339844,0.07578878849744797,-0.1251254826784134,0.45486459136009216,-4.821704387664795,3.583984375,1,"['B1', 'B2', 'F1']",6.1,180,0,5.571250901074276,[6900|1400|0]
17400,1.3009648323059082,0.4379066526889801,0.07524053752422333,-0.5849888324737549,0.23606643080711365,-3.7727367877960205,3.583984375,1,"['B1', 'B2', 'F1']",6.1,180,0,5.5813748714329385,[6900|1500|0]
17500,1.290761947631836,0.4363222122192383,0.07626456767320633,-0.6923093795776367,-0.17563383281230927,-3.495858669281006,3.58984375,1,"['B1', 'B2', 'F1']",6.1,180,0,5.591750706099152,[6900|1600|0]
17600,1.2813749313354492,0.4358139932155609,0.07654721289873123,-0.8840765953063965,-0.12496207654476166,-3.604872465133667,3.583984375,1,"['B1', 'B2', 'F1']",6.1,180,0,5.601155718051714,[6900|1700|0]
17700,1.2719483375549316,0.43691787123680115,0.07589428871870041,-1.1255639791488647,-0.04910305142402649,-3.0412681102752686,3.583984375,1,"['B1', 'B2', 'F1']",6.1,180,0,5.6106691573337795,[6900|1800|0]
17800,1.2618595361709595,0.4401857852935791,0.0756785124540329,-0.1313014179468155,0.4048701822757721,-1.5579698085784912,3.583984375,1,"['B1', 'B2', 'F1']",6.1,180,0,5.621276217956031,[6900|1900|0]
17900,1.2508492469787598,0.44512316584587097,0.07438020408153534,0.29575788974761963,-0.7064417004585266,0.07147471606731415,3.96484375,1,"['B1', 'B2', 'F1']",6.1,180,0,5.633412518852273,[6900|2000|0]
18000,1.2421671152114868,0.4487292170524597,0.03552813082933426,3.5488030910491943,-7.493116855621338,2.831852436065674,3.96484375,1,"['B1', 'B2', 'F1']",6.1,180,0,5.673385842623548,[6900|2100|0]
18100,1.2313661575317383,0.4484843313694,-0.022630659863352776,-4.089581489562988,0.3918573260307312,11.049009323120117,3.96875,1,"['B1', 'B2', 'F1']",6.1,180,0,5.732539587987923,[6900|2200|0]
18200,1.222227931022644,0.44868043065071106,-0.023348351940512657,-0.18723249435424805,1.256856918334961,17.487850189208984,3.974609375,1,"['B1', 'B2', 'F1']",6.1,180,0,5.741708051358481,[6900|2300|0]
18300,1.2227814197540283,0.4487746059894562,-0.02378547005355358,-0.8337094783782959,0.3421113193035126,17.969051361083984,3.974609375,1,"['B1', 'B2', 'F1']",6.1,180,0,5.742419592653801,[6900|2400|0]
18400,1.2229677438735962,0.44906705617904663,-0.023775853216648102,-0.9695886373519897,0.09574931859970093,18.0283203125,3.974609375,1,"['B1', 'B2', 'F1']",6.1,180,0,5.7427664878461515,[6900|2500|0]
18500,1.2229105234146118,0.4492068290710449,-0.023178132250905037,-0.735068678855896,0.15895558893680573,18.049028396606445,3.98046875,1,"['B1', 'B2', 'F1']",6.1,180,0,5.743382994938692,[6900|2600|0]
18600,1.2226371765136719,0.4487915337085724,-0.022939885035157204,-0.6857980489730835,0.06289852410554886,18.06611442565918,3.98046875,1,"['B1', 'B2', 'F1']",6.1,180,0,5.743934312000061,[6900|2700|0]
18700,1.2230533361434937,0.4490984380245209,-0.02302178367972374,-0.6967761516571045,-0.02196042239665985,18.09733772277832,3.98046875,1,"['B1', 'B2', 'F1']",6.1,180,0,5.744457844696865,[6900|2800|0]
18800,1.2231260538101196,0.44907793402671814,-0.023009387776255608,-0.6686094999313354,-0.05188509821891785,18.091049194335938,3.984375,1,"['B1', 'B2', 'F1']",6.1,180,0,5.744534407947764,[6900|2900|0]
18900,1.2231298685073853,0.448905885219574,-0.022983834147453308,-0.5059600472450256,0.08376666158437729,18.091096878051758,3.984375,1,"['B1', 'B2', 'F1']",6.1,180,0,5.744708385911599,[6900|3000|0]
19000,1.2230404615402222,0.448956698179245,-0.022766761481761932,-0.011082351207733154,0.5727600455284119,18.089855194091797,3.984375,1,"['B1', 'B2', 'F1']",6.1,180,0,5.744948586046566,[6900|3100|0]
19100,1.2229846715927124,0.44877365231513977,-0.023025771602988243,-0.6321759223937988,-0.09397254139184952,18.407209396362305,3.990234375,1,"['B1', 'B2', 'F1']",6.1,180,0,5.745270617954157,[6900|3200|0]
19200,1.2245861291885376,0.4472488760948181,-0.02299610897898674,-0.7153414487838745,-0.13797415792942047,15.579657554626465,3.990234375,1,"['B1', 'B2', 'F1']",6.1,180,0,5.747482062917195,[6900|3300|0]
19300,1.2223694324493408,0.4536728858947754,-0.014412617310881615,2.9977989196777344,14.614964485168457,12.587441444396973,3.990234375,1,"['B1', 'B2', 'F1']",6.1,180,0,5.758430029648965,[6900|3400|0]
19400,1.223455786705017,0.4816395044326782,0.028905007988214493,-3.4934628009796143,8.10108757019043,0.506218671798706,3.990234375,1,"['B1', 'B2', 'F1']",6.1,180,0,5.810002586106506,[6900|3500|0]
19500,1.2587777376174927,0.518450140953064,0.05547314137220383,-8.988542556762695,2.3408939838409424,-6.008744239807129,3.99609375,1,"['B1', 'B2', 'F1']",6.1,180,0,5.867522399117405,[6900|3600|0]
19600,1.3050403594970703,0.5419315099716187,0.03582395240664482,-5.206483364105225,3.215088129043579,-9.049015998840332,3.99609375,1,"['B1', 'B2', 'F1']",6.1,180,0,5.922999380841023,[6900|3700|0]
19700,1.3409242630004883,0.5424975156784058,0.00469989376142621,1.262917399406433,6.815678596496582,-3.769378423690796,3.99609375,1,"['B1', 'B2', 'F1']",6.1,180,0,5.970503927146126,[6900|3800|0]
19800,1.3513507843017578,0.5407854318618774,-0.003337993286550045,-1.3813297748565674,0.9280471205711365,-4.427708148956299,3.99609375,1,"['B1', 'B2', 'F1']",6.1,180,0,5.983779890600304,[6900|3900|0]
19900,1.3392163515090942,0.5435792803764343,-0.004506754223257303,-4.130340099334717,3.171221971511841,-7.427739143371582,3.99609375,1,"['B1', 'B2', 'F1']",6.1,180,0,5.996286530870542,[6900|4000|0]
20000,1.336216926574707,0.5406569242477417,-0.009433592669665813,0.6154642701148987,-2.834909200668335,-12.884782791137695,4.0,1,"['B1', 'B2', 'F1']",6.1,180,0,6.002752631113883,[6900|4100|0]
20100,1.3355920314788818,0.5411645174026489,-0.0096545135602355,-1.0787543058395386,-3.5539557933807373,-11.314812660217285,4.0,1,"['B1', 'B2', 'F1']",6.1,180,0,6.003587466865145,[6900|4200|0]
20200,1.3357415199279785,0.5413623452186584,-0.009952875785529613,-1.5973742008209229,-3.5893661975860596,-11.302504539489746,4.0,1,"['B1', 'B2', 'F1']",6.1,180,0,6.003975413586594,[6900|4300|0]
20300,1.3369373083114624,0.5424640774726868,-0.010812155902385712,-3.7363083362579346,-4.48234748840332,-10.761231422424316,4.0,1,"['B1', 'B2', 'F1']",6.1,180,0,6.005814458484595,[6900|4400|0]
20400,1.3370622396469116,0.5424845218658447,-0.01043637003749609,-3.9227404594421387,-4.468624591827393,-10.755496978759766,4.0078125,1,"['B1', 'B2', 'F1']",6.1,180,0,6.006210994520838,[6900|4500|0]
20500,1.3371223211288452,0.5427418351173401,-0.010218869894742966,-3.8723225593566895,-4.381197929382324,-10.669937133789062,4.0,1,"['B1', 'B2', 'F1']",6.1,180,0,6.0065532315819,[6900|4600|0]
20600,1.3371552228927612,0.5424200892448425,-0.010487370193004608,-3.7992541790008545,-4.29843282699585,-10.609563827514648,4.0078125,1,"['B1', 'B2', 'F1']",6.1,180,0,6.006973583033312,[6900|4700|0]
20700,1.3370813131332397,0.5425605773925781,-0.010498622432351112,-3.7465980052948,-4.2222466468811035,-10.575822830200195,4.0078125,1,"['B1', 'B2', 'F1']",6.1,180,0,6.0071327250613775,[6900|4800|0]
20800,1.3369086980819702,0.542751669883728,-0.010159296914935112,-3.6610093116760254,-4.088996887207031,-10.545610427856445,4.03125,1,"['B1', 'B2', 'F1']",6.1,180,0,6.007558699359743,[6900|4900|0]
20900,1.3367161750793457,0.542402982711792,-0.010098744183778763,-3.5108141899108887,-3.938241720199585,-10.542840957641602,4.08203125,1,"['B1', 'B2', 'F1']",6.1,180,0,6.007961582076749,[6900|5000|0]
21000,1.3363944292068481,0.5422925353050232,-0.01038660854101181,-3.446396827697754,-3.866710662841797,-10.532480239868164,4.08203125,1,"['B1', 'B2', 'F1']",6.1,180,0,6.008407210761078,[6900|5100|0]
21100,1.336487054824829,0.5428328514099121,-0.010071981698274612,-3.427433967590332,-3.819917917251587,-10.538666725158691,4.0859375,1,"['B1', 'B2', 'F1']",6.1,180,0,6.009039279624794,[6900|5200|0]
21200,1.336538553237915,0.5423933267593384,-0.01071863528341055,-3.387819290161133,-3.792851686477661,-10.546488761901855,4.0859375,1,"['B1', 'B2', 'F1']",6.1,180,0,6.00982285786861,[6900|5300|0]
21300,1.3366193771362305,0.5425733327865601,-0.009734936989843845,-3.356797933578491,-3.764998197555542,-10.533353805541992,4.0859375,1,"['B1', 'B2', 'F1']",6.1,180,0,6.010826150948991,[6900|5400|0]
21400,1.336598515510559,0.5422139167785645,-0.00993808452039957,-3.322908401489258,-3.7439727783203125,-10.550789833068848,4.0859375,1,"['B1', 'B2', 'F1']",6.1,180,0,6.011239532121034,[6900|5500|0]
21500,1.3365956544876099,0.542242705821991,-0.010136710479855537,-3.3011999130249023,-3.7179999351501465,-10.555392265319824,4.0859375,1,"['B1', 'B2', 'F1']",6.1,180,0,6.011440253983928,[6900|5600|0]
21600,1.3367682695388794,0.5424820184707642,-0.010172278620302677,-3.2934350967407227,-3.69791841506958,-10.57647705078125,4.08984375,1,"['B1', 'B2', 'F1']",6.1,180,0,6.011737460296786,[6900|5700|0]
21700,1.3362048864364624,0.5424241423606873,-0.009839154779911041,-3.275934934616089,-3.6687591075897217,-10.57744312286377,4.08984375,1,"['B1', 'B2', 'F1']",6.1,180,0,6.012394515589166,[6900|5800|0]
21800,1.3361492156982422,0.5425881147384644,-0.010047590360045433,-3.2647628784179688,-3.655696392059326,-10.56859302520752,4.08984375,1,"['B1', 'B2', 'F1']",6.1,180,0,6.012665498176861,[6900|5900|0]
21900,1.3363161087036133,0.5422028303146362,-0.01014584768563509,-3.2471766471862793,-3.6448488235473633,-10.55875301361084,4.08984375,1,"['B1', 'B2', 'F1']",6.1,180,0,6.013096719540569,[6900|6000|0]
22000,1.3358831405639648,0.542364239692688,-0.010252129286527634,-3.244835615158081,-3.637385845184326,-10.545830726623535,4.08984375,1,"['B1', 'B2', 'F1']",6.1,180,0,6.013570861055269,[6900|6100|0]
22100,1.3363887071609497,0.542365550994873,-0.01006317138671875,-3.2424042224884033,-3.6446189880371094,-10.559523582458496,4.08984375,1,"['B1', 'B2', 'F1']",6.1,180,0,6.0141105872742,[6900|6200|0]
22200,1.3365103006362915,0.5425712466239929,-0.01027724426239729,-3.2490477561950684,-3.642411947250366,-10.563003540039062,4.09765625,1,"['B1', 'B2', 'F1']",6.1,180,0,6.01443140320458,[6900|6300|0]
22300,1.3360395431518555,0.5426477193832397,-0.010288652963936329,-3.246324062347412,-3.6319704055786133,-10.589753150939941,4.09765625,1,"['B1', 'B2', 'F1']",6.1,180,0,6.014908468033015,[6900|6400|0]
22400,1.3364540338516235,0.5423334836959839,-0.01002261321991682,-3.2390153408050537,-3.647218704223633,-10.61295223236084,4.09765625,1,"['B1', 'B2', 'F1']",6.1,180,0,6.015492697228398,[6900|6500|0]
22500,1.3366806507110596,0.5419623851776123,-0.01031131949275732,-3.230499267578125,-3.6488139629364014,-10.611106872558594,4.09765625,1,"['B1', 'B2', 'F1']",6.1,180,0,6.016014636519212,[6900|6600|0]
22600,1.336577296257019,0.5419827103614807,-0.009961790405213833,-3.2128074169158936,-3.6392569541931152,-10.600495338439941,4.1015625,1,"['B1', 'B2', 'F1']",6.1,180,0,6.016379692459183,[6900|6700|0]
22700,1.3366484642028809,0.5419868230819702,-0.010325880721211433,-3.2034151554107666,-3.643843412399292,-10.58800983428955,4.09765625,1,"['B1', 'B2', 'F1']",6.1,180,0,6.016750695894735,[6900|6800|0]
22800,1.3364840745925903,0.5425065755844116,-0.010286351665854454,-3.214992046356201,-3.642878293991089,-10.594441413879395,4.1015625,1,"['B1', 'B2', 'F1']",6.1,180,0,6.017297257102636,[6900|6900|0]
22900,1.3365521430969238,0.5419750213623047,-0.010158254764974117,-3.185795783996582,-3.641256809234619,-10.60546875,4.09765625,1,"['B1', 'B2', 'F1']",6.1,180,0,6.017848248961321,[6900|7000|0]
23000,1.3367012739181519,0.5420157313346863,-0.010234715417027473,-3.1769189834594727,-3.6403980255126953,-10.625630378723145,4.1015625,1,"['B1', 'B2', 'F1']",6.1,180,0,6.018020712102322,[6900|7100|0]
23100,1.3363981246948242,0.5420755743980408,-0.010469099506735802,-3.163752317428589,-3.6282858848571777,-10.618607521057129,4.1015625,1,"['B1', 'B2', 'F1']",6.1,180,0,6.018408547821853,[6900|7200|0]
23200,1.336544156074524,0.5421895384788513,-0.009906861931085587,-3.159633159637451,-3.6236777305603027,-10.60654354095459,4.1015625,1,"['B1', 'B2', 'F1']",6.1,180,0,6.019000514093734,[6900|7300|0]
23300,1.336323857307434,0.5420916676521301,-0.010463806800544262,-3.152825355529785,-3.6110806465148926,-10.591361045837402,4.1015625,1,"['B1', 'B2', 'F1']",6.1,180,0,6.01960738956129,[6900|7400|0]
23400,1.3366926908493042,0.5421261191368103,-0.010350783355534077,-3.1462862491607666,-3.619966745376587,-10.598604202270508,4.1015625,1,"['B1', 'B2', 'F1']",6.1,180,0,6.019994687102629,[6900|7500|0]
23500,1.3365929126739502,0.5423640012741089,-0.010632455348968506,-3.152038097381592,-3.624519109725952,-10.593900680541992,4.10546875,1,"['B1', 'B2', 'F1']",6.1,180,0,6.020376633050909,[6900|7600|0]
23600,1.3363176584243774,0.5421781539916992,-0.010507218539714813,-3.1452317237854004,-3.6198980808258057,-10.613395690917969,4.10546875,1,"['B1', 'B2', 'F1']",6.1,180,0,6.020731581459384,[6900|7700|0]
23700,1.3366072177886963,0.5426241159439087,-0.010585040785372257,-3.160491466522217,-3.618060350418091,-10.625519752502441,4.10546875,1,"['B1', 'B2', 'F1']",6.1,180,0,6.021268966786875,[6900|7800|0]
23800,1.3365817070007324,0.5420704483985901,-0.01052896212786436,-3.139525890350342,-3.6265859603881836,-10.622197151184082,4.10546875,1,"['B1', 'B2', 'F1']",6.1,180,0,6.021826051490371,[6900|7900|0]
23900,1.3364373445510864,0.5421572327613831,-0.010994291864335537,-3.15096378326416,-3.6268341541290283,-10.617437362670898,4.10546875,1,"['B1', 'B2', 'F1']",6.1,180,0,6.022320929057186,[6900|8000|0]
24000,1.3364143371582031,0.5423226952552795,-0.010647304356098175,-3.1605923175811768,-3.6255855560302734,-10.588930130004883,4.10546875,1,"['B1', 'B2', 'F1']",6.1,180,0,6.022706036195379,[6900|8100|0]
24100,1.3362629413604736,0.5419901013374329,-0.010182146914303303,-3.1552023887634277,-3.6231772899627686,-10.58063793182373,4.10546875,1,"['B1', 'B2', 'F1']",6.1,180,0,6.023297568821204,[6900|8200|0]
24200,1.3362388610839844,0.5420569777488708,-0.010760916396975517,-3.1594698429107666,-3.6211023330688477,-10.569737434387207,4.10546875,1,"['B1', 'B2', 'F1']",6.1,180,0,6.023880686672238,[6900|8300|0]
24300,1.3367241621017456,0.542304515838623,-0.010652259923517704,-3.16935396194458,-3.6330509185791016,-10.569931030273438,4.10546875,1,"['B1', 'B2', 'F1']",6.1,180,0,6.024436203020281,[6900|8400|0]
24400,1.3365534543991089,0.542362630367279,-0.010678739286959171,-3.168940544128418,-3.615875005722046,-10.58556842803955,4.11328125,1,"['B1', 'B2', 'F1']",6.1,180,0,6.024618465399473,[6900|8500|0]
24500,1.3364320993423462,0.5422535538673401,-0.010525578632950783,-3.167107582092285,-3.623854398727417,-10.587812423706055,4.11328125,1,"['B1', 'B2', 'F1']",6.1,180,0,6.024842257531991,[6900|8600|0]
24600,1.3363263607025146,0.5419930219650269,-0.010354772210121155,-3.159867763519287,-3.622995138168335,-10.593819618225098,4.11328125,1,"['B1', 'B2', 'F1']",6.1,180,0,6.025171244410386,[6900|8700|0]
24700,1.3364769220352173,0.541934072971344,-0.0102260522544384,-3.1542210578918457,-3.6239402294158936,-10.600862503051758,4.11328125,1,"['B1', 'B2', 'F1']",6.1,180,0,6.025377914499544,[6900|8800|0]
24800,1.3366665840148926,0.5420738458633423,-0.010238736867904663,-3.1643528938293457,-3.6290411949157715,-10.598865509033203,4.11328125,1,"['B1', 'B2', 'F1']",6.1,180,0,6.025613857347054,[6900|8900|0]
24900,1.3369016647338867,0.5420858263969421,-0.010235399007797241,-3.165980100631714,-3.629990577697754,-10.600348472595215,4.11328125,1,"['B1', 'B2', 'F1']",6.1,180,0,6.025849266817845,[6900|9000|0]
25000,1.336194396018982,0.5421043038368225,-0.01078865397721529,-3.1623432636260986,-3.612645149230957,-10.6008939743042,4.11328125,1,"['B1', 'B2', 'F1']",6.1,180,0,6.026747410187276,[6900|9100|0]
25100,1.336693286895752,0.5423151850700378,-0.010331941768527031,-3.1724674701690674,-3.6223573684692383,-10.604039192199707,4.1171875,1,"['B1', 'B2', 'F1']",6.1,180,0,6.027455893809537,[6900|9200|0]
25200,1.336534857749939,0.5421448945999146,-0.010341903194785118,-3.1713225841522217,-3.6139347553253174,-10.59579086303711,4.11328125,1,"['B1', 'B2', 'F1']",6.1,180,0,6.027688698166178,[6900|9300|0]
25300,1.3365216255187988,0.5420369505882263,-0.010741673409938812,-3.169166088104248,-3.610002040863037,-10.615828514099121,4.1171875,1,"['B1', 'B2', 'F1']",6.1,180,0,6.028102996641343,[6900|9400|0]
25400,1.336524248123169,0.5422932505607605,-0.010507604107260704,-3.1735541820526123,-3.6047024726867676,-10.611072540283203,4.1171875,1,"['B1', 'B2', 'F1']",6.1,180,0,6.028450106123252,[6900|9500|0]
25500,1.3362739086151123,0.5422208905220032,-0.010919368825852871,-3.172013998031616,-3.593700408935547,-10.61249828338623,4.1171875,1,"['B1', 'B2', 'F1']",6.1,180,0,6.028937400724064,[6900|9600|0]
25600,1.3364765644073486,0.5421209335327148,-0.010668566450476646,-3.170536756515503,-3.602294445037842,-10.592315673828125,4.1171875,1,"['B1', 'B2', 'F1']",6.1,180,0,6.029274984197191,[6900|9700|0]
25700,1.3365545272827148,0.5419738292694092,-0.010581973008811474,-3.1679041385650635,-3.6097679138183594,-10.58620834350586,4.1171875,1,"['B1', 'B2', 'F1']",6.1,180,0,6.029462644257826,[6900|9800|0]
25800,1.3364070653915405,0.5422021150588989,-0.010759197175502777,-3.175713300704956,-3.6069703102111816,-10.572286605834961,4.1171875,1,"['B1', 'B2', 'F1']",6.1,180,0,6.029787094279079,[6900|9900|0]
25900,1.3362892866134644,0.5420812964439392,-0.010231918655335903,-3.174724578857422,-3.603207588195801,-10.582786560058594,4.1171875,1,"['B1', 'B2', 'F1']",6.1,180,0,6.0303407111286385,[6900|10000|0]
26000,1.3363704681396484,0.5426611304283142,-0.010327016934752464,-3.189844846725464,-3.6029109954833984,-10.575130462646484,4.1171875,1,"['B1', 'B2', 'F1']",6.1,180,0,6.0309338734777285,[6900|10100|0]
26100,1.3364554643630981,0.5422362685203552,-0.010602547787129879,-3.179508924484253,-3.601994037628174,-10.578717231750488,4.1171875,1,"['B1', 'B2', 'F1']",6.1,180,0,6.03144734134376,[6900|10200|0]
26200,1.3365976810455322,0.5425876379013062,-0.010434393770992756,-3.1883740425109863,-3.610136032104492,-10.592002868652344,4.12109375,1,"['B1', 'B2', 'F1']",6.1,180,0,6.031862024113809,[6900|10300|0]
26300,1.3364973068237305,0.5420529842376709,-0.010556977242231369,-3.1752076148986816,-3.620143175125122,-10.601567268371582,4.12109375,1,"['B1', 'B2', 'F1']",6.1,180,0,6.032419658610466,[6900|10400|0]
26400,1.3364622592926025,0.5420761108398438,-0.010380088351666927,-3.1735312938690186,-3.6197307109832764,-10.61032485961914,4.1171875,1,"['B1', 'B2', 'F1']",6.1,180,0,6.032601463034975,[6900|10500|0]
26500,1.336358666419983,0.5426816344261169,-0.0104552386328578,-3.1906001567840576,-3.617671012878418,-10.607308387756348,4.12109375,1,"['B1', 'B2', 'F1']",6.1,180,0,6.033220363561355,[6900|10600|0]
26600,1.336559534072876,0.5422363877296448,-0.010380584746599197,-3.1802985668182373,-3.630864381790161,-10.59743881225586,4.12109375,1,"['B1', 'B2', 'F1']",6.1,180,0,6.03371449475591,[6900|10700|0]
26700,1.3361622095108032,0.5422388911247253,-0.010544066317379475,-3.1796674728393555,-3.6230838298797607,-10.606210708618164,4.12109375,1,"['B1', 'B2', 'F1']",6.1,180,0,6.034144144960842,[6900|10800|0]
26800,1.336532473564148,0.5418266654014587,-0.010083801113069057,-3.2826731204986572,-3.6794538497924805,-10.614545822143555,4.12109375,1,"['B1', 'B2', 'F1']",6.1,180,0,6.034864470980378,[6900|10900|0]
26900,1.3365424871444702,0.54183429479599,-0.010231878608465195,-3.260521411895752,-3.668922185897827,-10.605599403381348,4.12109375,1,"['B1', 'B2', 'F1']",6.1,180,0,6.0350130826356905,[6900|11000|0]
27000,1.336629033088684,0.5419681668281555,-0.010378110222518444,-3.2537381649017334,-3.6677310466766357,-10.61635971069336,4.12109375,1,"['B1', 'B2', 'F1']",6.1,180,0,6.035229405557279,[6900|11100|0]
27100,1.3363564014434814,0.5419367551803589,-0.010282640345394611,-3.2462687492370605,-3.652766227722168,-10.618203163146973,4.12109375,1,"['B1', 'B2', 'F1']",6.1,180,0,6.03551997259433,[6900|11200|0]
27200,1.3366707563400269,0.5421896576881409,-0.01022305153310299,-3.2492785453796387,-3.6637396812438965,-10.635836601257324,4.12109375,1,"['B1', 'B2', 'F1']",6.1,180,0,6.035927807739916,[6900|11300|0]
27300,1.3364795446395874,0.5420931577682495,-0.010178478434681892,-3.242008686065674,-3.6571848392486572,-10.641580581665039,4.12109375,1,"['B1', 'B2', 'F1']",6.1,180,0,6.036146579104648,[6900|11400|0]
27400,1.3363922834396362,0.5421252846717834,-0.01048163790255785,-3.236440658569336,-3.6563682556152344,-10.649739265441895,4.12109375,1,"['B1', 'B2', 'F1']",6.1,180,0,6.036463678959442,[6900|11500|0]
27500,1.3363621234893799,0.5420334935188293,-0.010511782020330429,-3.211376190185547,-3.6448628902435303,-10.648650169372559,4.12890625,1,"['B1', 'B2', 'F1']",6.1,180,0,6.036564891143473,[6900|11600|0]
27600,1.336836338043213,0.542144775390625,-0.010526631958782673,-3.2076992988586426,-3.6534953117370605,-10.636551856994629,4.12890625,1,"['B1', 'B2', 'F1']",6.1,180,0,6.0370522140535945,[6900|11700|0]
27700,1.3365670442581177,0.5417267680168152,-0.01044808141887188,-3.1817076206207275,-3.6426515579223633,-10.640045166015625,4.12109375,1,"['B1', 'B2', 'F1']",6.1,180,0,6.037555621934513,[6900|11800|0]
27800,1.3365826606750488,0.5420102477073669,-0.010451322421431541,-3.1901092529296875,-3.640777826309204,-10.634489059448242,4.12890625,1,"['B1', 'B2', 'F1']",6.1,180,0,6.037839549938646,[6900|11900|0]
27900,1.3324183225631714,0.5379077792167664,-0.014097318053245544,-3.010011911392212,-3.560279130935669,-10.590132713317871,4.12109375,1,"['B1', 'B2', 'F1']",6.1,180,0,6.044729052371594,[6900|12000|0]
28000,1.3324472904205322,0.5379725098609924,-0.014048147946596146,-3.007483720779419,-3.5653669834136963,-10.585039138793945,4.12890625,1,"['B1', 'B2', 'F1']",6.1,180,0,6.044815347750671,[6900|12100|0]
28100,1.3322813510894775,0.5379379987716675,-0.014398065395653248,-3.011425256729126,-3.571507215499878,-10.569108009338379,4.12890625,1,"['B1', 'B2', 'F1']",6.1,180,0,6.045204152454901,[6900|12200|0]
28200,1.3323625326156616,0.5379068851470947,-0.01459463220089674,-3.0119731426239014,-3.578719139099121,-10.575606346130371,4.12890625,1,"['B1', 'B2', 'F1']",6.1,180,0,6.045419087344464,[6900|12300|0]
28300,1.332311749458313,0.5381720066070557,-0.014212931506335735,-3.0201170444488525,-3.576472282409668,-10.572813034057617,4.12890625,1,"['B1', 'B2', 'F1']",6.1,180,0,6.04588659535277,[6900|12400|0]
28400,1.3322830200195312,0.5380280017852783,-0.014073407277464867,-3.0168211460113525,-3.577333927154541,-10.568570137023926,4.12890625,1,"['B1', 'B2', 'F1']",6.1,180,0,6.046089153442685,[6900|12500|0]
28500,1.3324528932571411,0.5382068753242493,-0.014300556853413582,-3.0192222595214844,-3.574171304702759,-10.574378967285156,4.12890625,1,"['B1', 'B2', 'F1']",6.1,180,0,6.0464244884835825,[6900|12600|0]
28600,1.3326835632324219,0.5379025340080261,-0.014181357808411121,-3.017839193344116,-3.5778567790985107,-10.572017669677734,4.12890625,1,"['B1', 'B2', 'F1']",6.1,180,0,6.046824539338582,[6900|12700|0]
28700,1.332603096961975,0.5380273461341858,-0.014322072267532349,-3.0239386558532715,-3.5702948570251465,-10.56607437133789,4.12890625,1,"['B1', 'B2', 'F1']",6.1,180,0,6.047029120487571,[6900|12800|0]
28800,1.332468032836914,0.5382627844810486,-0.014145120978355408,-3.026836633682251,-3.562771797180176,-10.56406307220459,4.12890625,1,"['B1', 'B2', 'F1']",6.1,180,0,6.047353134826441,[6900|12900|0]
28901,1.3326992988586426,0.5380474328994751,-0.01445702463388443,-3.0240676403045654,-3.562472105026245,-10.560527801513672,4.12890625,1,"['B1', 'B2', 'F1']",6.1,180,0,6.04779714402322,[6900|13000|0]
29000,1.3325409889221191,0.538105309009552,-0.014196427538990974,-3.0250790119171143,-3.557300567626953,-10.576777458190918,4.12890625,1,"['B1', 'B2', 'F1']",6.1,180,0,6.04810750272857,[6900|13100|0]
29100,1.3320224285125732,0.5380842089653015,-0.014349488541483879,-3.0252606868743896,-3.547708749771118,-10.57967472076416,4.12890625,1,"['B1', 'B2', 'F1']",6.1,180,0,6.048648592167295,[6900|13200|0]
29200,1.3325194120407104,0.5377435088157654,-0.013936513103544712,-3.0282552242279053,-3.566359519958496,-10.582963943481445,4.12890625,1,"['B1', 'B2', 'F1']",6.1,180,0,6.049379083735675,[6900|13300|0]
29301,1.332596778869629,0.5380625128746033,-0.01436235848814249,-3.0470774173736572,-3.5682334899902344,-10.585965156555176,4.1328125,1,"['B1', 'B2', 'F1']",6.1,180,0,6.0499167579003466,[6900|13400|0]
29401,1.332590937614441,0.5376711487770081,-0.01412690058350563,-3.0362162590026855,-3.5670788288116455,-10.572068214416504,4.12890625,1,"['B1', 'B2', 'F1']",6.1,180,0,6.050373529617953,[6900|13500|0]
29501,1.3326116800308228,0.5380186438560486,-0.014488430693745613,-3.0504350662231445,-3.5571556091308594,-10.570387840270996,4.1328125,1,"['B1', 'B2', 'F1']",6.1,180,0,6.050875413168595,[6900|13600|0]
29601,1.3324005603790283,0.5377321243286133,-0.013883400708436966,-3.047649383544922,-3.552064895629883,-10.558284759521484,4.1328125,1,"['B1', 'B2', 'F1']",6.1,180,0,6.051577357774741,[6900|13700|0]
