time.ms,stateEstimate.x,stateEstimate.y,stateEstimate.z,stabilizer.roll,stabilizer.pitch,stabilizer.yaw,pm.vbat,drone_id,node_name,wind_speed,global_wind_direction,relative_wind_direction,travel_dist,waiting_time,curr_node_role
0,0.0035561090335249,0.5135336518287659,0.0,-0.4425391554832458,-0.0748511254787445,5.283192157745361,4.046875,1,J1,7.6,180,270.0,0.0,[6200|0|0|0],start
100,0.0037335967645049,0.51328045129776,0.0,-0.4401874840259552,-0.0789480879902839,5.281308650970459,4.046875,1,fly,7.6,180,270.0,0.0003092125539981,[6200|0|0|0],fly
200,0.0038462642114609,0.5132688879966736,0.0,-0.543874979019165,-0.1252566277980804,4.9600090980529785,3.208984375,1,fly,7.6,180,270.0,0.0004224718297136,[6200|0|0|0],fly
300,0.0043085683137178,0.5145080089569092,0.0,-2.330531597137451,-3.9914748668670654,5.8262715339660645,3.462890625,1,fly,7.6,180,270.0,0.001745024602596,[6200|0|0|0],fly
400,0.0149951428174972,0.5231576561927795,0.0105137946084141,-3.2660632133483887,-15.257320404052734,4.677974700927734,3.509765625,1,fly,7.6,180,270.0,0.0190528017272803,[6200|0|0|0],fly
500,0.0511100478470325,0.5365245342254639,0.0628359615802764,3.5231199264526367,-13.54936981201172,2.815501928329468,3.546875,1,fly,7.6,180,270.0,0.0840187077878014,[6200|0|0|0],fly
600,0.1106834411621093,0.5468087196350098,0.1294572949409485,2.594369411468506,-8.548724174499512,0.6851316690444946,3.568359375,1,fly,7.6,180,270.0,0.1739806759708317,[6200|0|0|0],fly
700,0.1818115264177322,0.5510517358779907,0.2084199488162994,3.76903772354126,-1.5263354778289795,-1.168962478637695,3.59375,1,fly,7.6,180,270.0,0.2803400122136262,[6200|0|0|0],fly
800,0.2528334558010101,0.5492639541625977,0.2948334515094757,2.477675676345825,3.4244868755340576,-2.2732093334198,3.599609375,1,fly,7.6,180,270.0,0.3922087033854138,[6200|0|0|0],fly
900,0.3148754239082336,0.5423728823661804,0.3859688639640808,2.368893384933472,7.196662425994873,-3.057105779647827,3.60546875,1,fly,7.6,180,270.0,0.5026729785172053,[6200|0|0|0],fly
1000,0.3630980849266052,0.5316399931907654,0.4781756401062011,0.4080691635608673,8.23930549621582,-2.916088581085205,3.599609375,1,fly,7.6,180,270.0,0.6072803851013837,[6200|0|0|0],fly
1100,0.3960617780685425,0.5203596949577332,0.569762647151947,-0.6730503439903259,8.654088973999023,-2.353973388671875,3.583984375,1,fly,7.6,180,270.0,0.7052703338378713,[6200|0|0|0],fly
1200,0.4182071983814239,0.5186137557029724,0.6642305850982666,-2.339009523391724,7.224222183227539,-1.6649744510650637,3.583984375,1,fly,7.6,180,270.0,0.8023149588541244,[6200|0|0|0],fly
1300,0.4254172444343567,0.5134173035621643,0.7580994367599487,-2.6712634563446045,4.84325122833252,-0.8458594083786011,3.58984375,1,fly,7.6,180,270.0,0.8966036071168926,[6200|0|0|0],fly
1400,0.4274317622184753,0.5133029222488403,0.8534938097000122,-2.7286109924316406,2.1922829151153564,-0.4196023643016815,3.583984375,1,fly,7.6,180,270.0,0.992019317320272,[6200|0|0|0],fly
1500,0.4276592433452606,0.5190985798835754,0.9505371451377868,-2.62990951538086,0.1066932827234268,-0.1770496368408203,3.583984375,1,fly,7.6,180,270.0,1.0892358300532976,[6200|0|0|0],fly
1600,0.4296375811100006,0.529369592666626,1.050105094909668,-0.9392802119255066,-0.2496649026870727,-0.1368124783039093,3.58984375,1,fly,7.6,180,270.0,1.1893516836713778,[6200|0|0|0],fly
1700,0.4353532493114471,0.541220486164093,1.1512070894241333,0.1932224780321121,0.2077630013227462,-0.5204781293869019,3.583984375,1,fly,7.6,180,270.0,1.291306211940015,[6200|0|0|0],fly
1800,0.4425012767314911,0.5524636507034302,1.2532055377960205,0.7258049845695496,1.6349700689315796,-0.6751695871353149,3.62109375,1,fly,7.6,180,270.0,1.394171106413926,[6200|0|0|0],fly
1900,0.4491394758224487,0.5622704029083252,1.3518807888031006,1.6882938146591189,2.0433361530303955,-0.4989183843135834,3.673828125,1,fly,7.6,180,270.0,1.4935544210964704,[6200|0|0|0],fly
2000,0.4572956264019012,0.5650858283042908,1.433828353881836,1.4092562198638916,1.9060207605361936,-0.3194496035575866,3.68359375,1,fly,7.6,180,270.0,1.575954984412315,[6200|0|0|0],fly
2101,0.4565863013267517,0.572475790977478,1.502918004989624,2.1238439083099365,2.192379951477051,0.0490744896233081,3.6640625,1,fly,7.6,180,270.0,1.6454423543479315,[6200|0|0|0],fly
2201,0.4525108337402344,0.5784745216369629,1.554102897644043,1.6905150413513184,1.8467434644699097,-0.2464777380228042,3.642578125,1,fly,7.6,180,270.0,1.697138460986809,[6200|0|0|0],fly
2300,0.4484977126121521,0.580496072769165,1.5914878845214844,1.0794460773468018,1.872061014175415,-0.560602605342865,3.62109375,1,fly,7.6,180,270.0,1.7347925318689226,[6200|0|0|0],fly
2401,0.442057341337204,0.5828990936279297,1.6178324222564695,0.2698495090007782,1.521336317062378,-1.163909673690796,3.611328125,1,fly,7.6,180,270.0,1.762019128422236,[6200|0|0|0],fly
2501,0.4319362640380859,0.5852580666542053,1.6329504251480105,0.9731525778770448,0.8296383023262024,-1.5908067226409912,3.615234375,1,fly,7.6,180,270.0,1.7803645630276643,[6200|0|0|0],fly
2601,0.4232531487941742,0.5880053043365479,1.6424344778060913,0.6469984650611877,0.4101587235927582,-1.6951338052749634,3.58984375,1,fly,7.6,180,270.0,1.7935133675377173,[6200|0|0|0],fly
2700,0.4127112925052643,0.5907918214797974,1.6460806131362915,0.4239576160907745,-0.4510533809661865,-1.1510053873062134,3.58984375,1,fly,7.6,180,270.0,1.8050107461368496,[6200|0|0|0],fly
2800,0.4025602638721466,0.5930339097976685,1.647525191307068,0.5586326122283936,-0.8956315517425537,-0.5246074795722961,3.599609375,1,fly,7.6,180,270.0,1.8155063237020432,[6200|0|0|0],fly
2900,0.3945328593254089,0.595031201839447,1.6471943855285645,0.5114139914512634,-1.152962327003479,-0.2734465301036834,3.583984375,1,fly,7.6,180,270.0,1.8237850815629928,[6200|0|0|0],fly
3000,0.3886897265911102,0.5963836312294006,1.645304560661316,0.9005449414253235,-1.429481863975525,-0.4432715177536011,3.58984375,1,fly,7.6,180,270.0,1.830073380493094,[6200|0|0|0],fly
3100,0.3847276866436004,0.5965906977653503,1.6417642831802368,0.8337401747703552,-1.016897439956665,-0.8521610498428345,3.583984375,1,fly,7.6,180,142.0,1.8353907296201504,[6200|0|0|0],fly
3200,0.383208155632019,0.5966188907623291,1.634881854057312,-2.710737466812134,-5.867529392242432,-1.3039894104003906,3.615234375,1,fly,7.6,180,142.0,1.842438963439507,[6200|0|0|0],fly
3300,0.394634336233139,0.5998393893241882,1.6237685680389404,-7.33450174331665,-10.71920394897461,-0.7492038607597351,3.599609375,1,fly,7.6,180,142.0,1.858700400652819,[6200|0|0|0],fly
3400,0.4120982587337494,0.6189916729927063,1.5978984832763672,-6.623358249664307,-9.998504638671877,2.895635843276977,3.57421875,1,fly,7.6,180,142.0,1.895320884598958,[6200|0|0|0],fly
3501,0.4511480629444122,0.6444262862205505,1.576125144958496,-3.757641553878784,-7.052351474761963,4.033924102783203,3.5625,1,fly,7.6,180,142.0,1.9467590515612985,[6200|0|0|0],fly
3601,0.4857507348060608,0.6869024038314819,1.5471285581588743,-0.7564017176628113,-2.966132164001465,-0.7431023120880127,3.537109375,1,fly,7.6,180,142.0,2.008745884947838,[6200|0|0|0],fly
3702,0.5335460901260376,0.7227652668952942,1.5291262865066528,2.983339071273804,0.6209806203842163,-3.575781345367432,3.55859375,1,fly,7.6,180,142.0,2.0711527974010027,[6200|0|0|0],fly
3800,0.5794375538825989,0.7524487376213074,1.516614556312561,4.868513107299805,2.8479866981506348,-2.697108268737793,3.5625,1,fly,7.6,180,142.0,2.127221311493242,[6200|0|0|0],fly
3900,0.6192260384559631,0.774113118648529,1.5080338716506958,4.965223789215088,4.248771667480469,-2.0592458248138428,3.57421875,1,fly,7.6,180,142.0,2.1733309315220803,[6200|0|0|0],fly
4000,0.652717649936676,0.7862235307693481,1.5005282163619995,4.592109203338623,4.478348731994629,-1.9006985425949097,3.57421875,1,fly,7.6,180,142.0,2.2097271536148173,[6200|0|0|0],fly
4100,0.6793436408042908,0.7899519205093384,1.4933890104293823,3.587540864944458,4.518840789794922,-1.6014208793640137,3.568359375,1,fly,7.6,180,142.0,2.237544639861491,[6200|0|0|0],fly
4200,0.699140727519989,0.7876930832862854,1.4856839179992676,2.0427565574646,4.042316913604736,-1.4764642715454102,3.568359375,1,fly,7.6,180,142.0,2.258908053385217,[6200|0|0|0],fly
4300,0.712489128112793,0.7820793390274048,1.4778611660003662,0.4583733975887298,3.692281007766724,-1.6214128732681274,3.568359375,1,fly,7.6,180,142.0,2.275366770583906,[6200|0|0|0],fly
4400,0.7196366786956787,0.7747035622596741,1.468904972076416,-0.602628767490387,2.7793548107147217,-1.520737886428833,3.5625,1,fly,7.6,180,142.0,2.288994058350212,[6200|0|0|0],fly
4500,0.7238876819610596,0.7691351175308228,1.4622271060943604,-1.6098324060440063,2.0208816528320312,-2.047559261322021,3.55859375,1,fly,7.6,180,142.0,2.29867251378147,[6200|0|0|0],fly
4600,0.7245129346847534,0.7662205696105957,1.4552793502807615,-1.634229063987732,1.5622073411941528,-2.4005391597747803,3.5625,1,fly,7.6,180,142.0,2.3062327281562864,[6200|0|0|0],fly
4700,0.723416268825531,0.765960693359375,1.4491679668426514,-1.72919762134552,0.940956711769104,-2.856930494308472,3.552734375,1,fly,7.6,180,142.0,2.3124471645104814,[6200|0|0|0],fly
4800,0.7211068868637085,0.7674810886383057,1.4437708854675293,-1.043217420578003,0.6073864102363586,-3.191976308822632,3.55859375,1,fly,7.6,180,142.0,2.318511266605555,[6200|0|0|0],fly
4900,0.7183513045310974,0.772001326084137,1.4397594928741455,-0.3721646964550018,0.4175260961055755,-3.500150203704834,3.5625,1,fly,7.6,180,142.0,2.325153333384559,[6200|0|0|0],fly
5000,0.7161760926246643,0.7767224907875061,1.4357428550720217,-0.0362422540783882,0.1206331104040145,-3.8103902339935294,3.55859375,1,fly,7.6,180,142.0,2.331722528329731,[6200|0|0|0],fly
5100,0.7136140465736389,0.7811537384986877,1.4321575164794922,0.5997439622879028,0.2883153855800628,-3.9239118099212646,3.552734375,1,fly,7.6,180,142.0,2.337971903423971,[6200|0|0|0],fly
5200,0.7106778025627136,0.7861512303352356,1.4276113510131836,0.5732600688934326,0.0499783791601657,-4.281883239746094,3.55859375,1,fly,7.6,180,142.0,2.345338318698385,[6200|0|0|0],fly
5300,0.7076263427734375,0.7896900773048401,1.4238582849502563,0.5687513947486877,0.0835005715489387,-4.54771089553833,3.552734375,1,fly,7.6,180,142.0,2.3513316774889583,[6200|0|0|0],fly
5400,0.7054690718650818,0.7924189567565918,1.4192825555801392,0.5023651123046875,-0.3443921208381653,-4.7452545166015625,3.552734375,1,fly,7.6,180,142.0,2.357079537969414,[6200|0|0|0],fly
5500,0.7035144567489624,0.7946292161941528,1.4142512083053589,0.4948567748069763,-0.3418351411819458,-4.858725070953369,3.552734375,1,fly,7.6,180,142.0,2.362912223665809,[6200|0|0|0],fly
5600,0.7019158005714417,0.7966669797897339,1.4090362787246704,0.4619218409061432,0.0390446670353412,-4.88398027420044,3.546875,1,fly,7.6,180,142.0,2.3687349096934893,[6200|0|0|0],fly
5700,0.7006034255027771,0.7986172437667847,1.4029186964035034,0.3198863565921783,-0.2440968304872512,-4.86733865737915,3.541015625,1,fly,7.6,180,142.0,2.375288585864715,[6200|0|0|0],fly
5800,0.7001144886016846,0.8007063269615173,1.3975392580032349,0.1401974707841873,0.1799536645412445,-4.725405693054199,3.541015625,1,fly,7.6,180,142.0,2.381080104265795,[6200|0|0|0],fly
5900,0.6991681456565857,0.803321897983551,1.3924072980880735,0.2259102016687393,0.2616979777812958,-4.502187252044678,3.537109375,1,fly,7.6,180,142.0,2.3869173801126147,[6200|0|0|0],fly
6000,0.6978405714035034,0.8058857321739197,1.3885966539382937,0.5629270076751709,0.1866486519575119,-4.205909729003906,3.537109375,1,fly,7.6,180,142.0,2.391698249070179,[6200|0|0|0],fly
6100,0.6968829035758972,0.8081749081611633,1.386691689491272,0.7309155464172363,0.1938679367303848,-3.906205415725708,3.541015625,1,fly,7.6,180,142.0,2.394826562339821,[6200|0|0|0],fly
6200,0.695019006729126,0.8097223043441772,1.383606195449829,1.2012100219726562,-0.0414240732789039,-3.680146217346192,3.81640625,1,fly,7.6,180,270.0,2.398749420976376,[6200|0|0|0],fly
6300,0.6929326057434082,0.8105618357658386,1.355285882949829,1.391584038734436,-0.246895283460617,-3.280105829238892,3.7578125,1,fly,7.6,180,270.0,2.42715889091474,[6200|0|0|0],fly
6400,0.6897363066673279,0.8107205629348755,1.2860413789749146,0.5591259598731995,-0.3800689280033111,-2.5259006023406982,3.658203125,1,fly,7.6,180,270.0,2.4964773073192563,[6200|0|0|0],fly
6500,0.6866039633750916,0.8102858662605286,1.1830027103424072,1.017421841621399,-0.4666171967983246,-1.878957867622376,3.55859375,1,fly,7.6,180,270.0,2.599564492600739,[6200|0|0|0],fly
6600,0.6830704808235168,0.8080489635467529,1.062944769859314,0.8236014246940613,-0.6301203370094299,-1.3097347021102903,3.541015625,1,fly,7.6,180,270.0,2.719695247637637,[6200|0|0|0],fly
6700,0.6800511479377747,0.8041420578956604,0.9386855363845824,0.5158452391624451,-0.2761648893356323,-0.1658254712820053,3.541015625,1,fly,7.6,180,270.0,2.844052544916764,[6200|0|0|0],fly
6800,0.6779791712760925,0.7991335988044739,0.8152968287467957,0.8981266021728516,0.3056496977806091,3.105476140975952,3.546875,1,fly,7.6,180,270.0,2.967560240718596,[6200|0|0|0],fly
6900,0.6762641072273254,0.7890558242797852,0.6977579593658447,0.2440118491649627,-0.2368709146976471,6.8216552734375,3.5625,1,fly,7.6,180,270.0,3.085542819091058,[6200|0|0|0],fly
7000,0.671090304851532,0.7817579507827759,0.5817940831184387,-0.9812191724777222,0.5271639227867126,9.595736503601074,3.568359375,1,fly,7.6,180,270.0,3.2018512357380304,[6200|0|0|0],fly
7100,0.6652466058731079,0.7752587199211121,0.4645383656024933,-0.8706806898117065,-0.8526129722595215,9.618020057678224,3.515625,1,fly,7.6,180,270.0,3.3194322380714127,[6200|0|0|0],fly
7200,0.6584982872009277,0.7696406841278076,0.3497118651866913,-0.14747354388237,-0.0721804872155189,8.657729148864746,3.462890625,1,fly,7.6,180,270.0,3.43459398227849,[6200|0|0|0],fly
7300,0.6497513651847839,0.7660850882530212,0.2435789853334427,-3.07222056388855,-0.1572374701499939,7.449753284454346,3.431640625,1,fly,7.6,180,270.0,3.541146031028035,[6200|0|0|0],fly
7400,0.6412000060081482,0.7659176588058472,0.1542823016643524,1.3233176469802856,-1.9776158332824707,3.065925359725952,3.447265625,1,fly,7.6,180,270.0,3.630851390347784,[6200|0|0|0],fly
7500,0.6358605027198792,0.7647241950035095,0.0844693928956985,2.702834367752075,-2.3848025798797607,-1.0695250034332275,3.447265625,1,fly,7.6,180,270.0,3.700878362879468,[6200|0|0|0],fly
7600,0.6349503397941589,0.7627400755882263,0.0318403244018554,-5.340473175048828,-5.624251365661621,-4.122174263000488,3.494140625,1,fly,7.6,180,270.0,3.75355268277954,[6200|0|0|0],fly
7700,0.6452768445014954,0.7642127275466919,0.0,1.748879075050354,-0.3784437775611877,-6.882734775543213,3.515625,1,fly,7.6,180,270.0,3.787058080274224,[6200|0|0|0],fly
7800,0.6563902497291565,0.7617937326431274,0.0,1.6693711280822754,0.5195693373680115,-6.656220436096191,3.484375,1,fly,7.6,180,270.0,3.798431703799632,[6200|0|0|0],fly
7900,0.6617820858955383,0.7687152624130249,0.0,-13.720800399780272,-4.46515703201294,-13.073793411254885,3.59375,1,fly,7.6,180,270.0,3.80720549839494,[6200|0|0|0],fly
8000,0.6715006232261658,0.7906841039657593,0.0,3.277289390563965,1.661978244781494,-11.002240180969238,3.5625,1,fly,7.6,180,270.0,3.831227987171416,[6200|0|0|0],fly
8100,0.6796658635139465,0.8113308548927307,0.0,5.476829051971436,0.747755229473114,-7.834333896636963,3.505859375,1,fly,7.6,180,270.0,3.853430677837135,[6200|0|0|0],fly
8200,0.6850505471229553,0.8228367567062378,0.0,8.294524192810059,1.6654164791107178,-3.778428792953491,3.521484375,1,fly,7.6,180,270.0,3.866134244033727,[6200|0|0|0],fly
8300,0.6879339814186096,0.8228626847267151,0.0041777291335165,4.823246955871582,0.9895779490470886,0.4271858930587768,3.546875,1,fly,7.6,180,270.0,3.871210491300423,[6200|0|0|0],fly
8400,0.688916027545929,0.8136598467826843,0.0145458886399865,4.321969509124756,-0.2416840493679046,2.76840615272522,3.55859375,1,fly,7.6,180,270.0,3.8851085261389127,[6200|0|0|0],fly
8500,0.6902381181716919,0.799227774143219,0.0229232814162969,1.9516361951828003,0.0785668566823005,4.024495124816895,3.552734375,1,fly,7.6,180,270.0,3.9018481006264,[6200|0|0|0],fly
8600,0.6928424835205078,0.781093180179596,0.0266237910836935,0.2323051840066909,-0.8924400210380554,5.279991149902344,3.537109375,1,fly,7.6,180,270.0,3.920538739697712,[6200|0|0|0],fly
8700,0.6968045830726624,0.7619807720184326,0.0260827410966157,-1.4683648347854614,-1.1484709978103638,7.029196739196777,3.537109375,1,fly,7.6,180,270.0,3.940065006972043,[6200|0|0|0],fly
8800,0.7036831974983215,0.7453489899635315,0.0248283967375755,-3.984351396560669,-1.0568721294403076,10.333560943603516,3.53125,1,fly,7.6,180,270.0,3.95810676105832,[6200|0|0|0],fly
8900,0.7123138904571533,0.7353768944740295,0.021798301488161,-4.2590107917785645,0.1304375529289245,12.44330883026123,3.525390625,1,fly,7.6,180,270.0,3.97163868725609,[6200|0|0|0],fly
9000,0.7197982668876648,0.7322636842727661,0.018959455192089,-2.527306318283081,-0.028208777308464,12.82211971282959,3.521484375,1,fly,7.6,180,270.0,3.980227459962569,[6200|0|0|0],fly
9100,0.7265130281448364,0.7325522899627686,0.0196393337100744,-1.8182862997055047,1.8992483615875244,12.212606430053713,3.525390625,1,fly,7.6,180,270.0,3.9869827206373567,[6200|0|0|0],fly
9200,0.7297650575637817,0.7364217638969421,0.0230284333229064,-1.2693949937820437,1.1957716941833496,10.89617156982422,3.537109375,1,F1,7.6,180,270.0,3.993068320037139,[6200|0|100|0],second_intermediate
9300,0.7295833230018616,0.740519106388092,0.0280447658151388,-0.3367233574390411,2.2714922428131104,8.56788158416748,3.537109375,1,F1,7.6,180,270.0,3.9995478905949313,[6200|0|200|0],second_intermediate
9400,0.7248992919921875,0.7426947951316833,0.0326979830861091,1.198272705078125,1.7217313051223757,6.84458065032959,3.541015625,1,F1,7.6,180,270.0,4.006499595348402,[6200|0|300|0],second_intermediate
9500,0.717043399810791,0.7430392503738403,0.0352797731757164,-0.0929557532072067,0.7656965851783752,6.618823051452637,3.537109375,1,F1,7.6,180,270.0,4.014776027638125,[6200|0|400|0],second_intermediate
9600,0.7078888416290283,0.7428205609321594,0.0350614823400974,0.0502958409488201,0.0073658577166497,6.604020118713379,3.525390625,1,F1,7.6,180,270.0,4.023935799003399,[6200|0|500|0],second_intermediate
9700,0.6987349987030029,0.742527425289154,0.0331865437328815,0.7789820432662964,-0.0254716016352176,5.68698787689209,3.521484375,1,F1,7.6,180,270.0,4.033284283565101,[6200|0|600|0],second_intermediate
9800,0.6879419684410095,0.7403975129127502,0.0314870253205299,0.592931866645813,-0.4150132536888122,5.285181522369385,3.515625,1,F1,7.6,180,270.0,4.04441596770549,[6200|0|700|0],second_intermediate
9900,0.6762343049049377,0.7367429733276367,0.030089858919382,-0.4720868468284607,-0.0337006114423275,4.152355194091797,3.509765625,1,F1,7.6,180,270.0,4.05676008043203,[6200|0|800|0],second_intermediate
10000,0.6640181541442871,0.7334115505218506,0.0295404978096485,-0.8726443648338318,-0.7526884078979492,3.7762486934661865,3.515625,1,F1,7.6,180,270.0,4.069434247660954,[6200|0|900|0],second_intermediate
10100,0.6514972448348999,0.7295418381690979,0.0295484513044357,1.4001357555389404,0.6439415812492371,3.420567512512207,3.515625,1,F1,7.6,180,270.0,4.082539510225475,[6200|0|1000|0],second_intermediate
10200,0.6386188268661499,0.7238292098045349,0.0290411617606878,-0.0709351673722267,-0.7558890581130981,3.0074145793914795,3.515625,1,F1,7.6,180,270.0,4.096637209147307,[6200|0|1100|0],second_intermediate
10300,0.6261722445487976,0.7172809839248657,0.0309365913271904,0.0001328402286162,0.4247100949287414,3.059854507446289,3.521484375,1,F1,7.6,180,270.0,4.11082837988109,[6200|0|1200|0],second_intermediate
10400,0.6128442883491516,0.7103899717330933,0.0350339896976947,-0.1141528263688087,0.363084614276886,3.5923643112182617,3.525390625,1,F1,7.6,180,270.0,4.126381808406449,[6200|0|1300|0],second_intermediate
10500,0.5980013608932495,0.7033719420433044,0.038759522140026,-0.163382202386856,0.4412811398506164,4.304089069366455,3.525390625,1,F1,7.6,180,270.0,4.143217628201362,[6200|0|1400|0],second_intermediate
10600,0.5823488831520081,0.6958645582199097,0.0401988513767719,-0.9575043320655824,-0.4969162046909332,3.741056203842163,3.515625,1,F1,7.6,180,270.0,4.160636943341848,[6200|0|1500|0],second_intermediate
10700,0.56829434633255,0.6894435882568359,0.039591759443283,-1.0649884939193726,-1.869207978248596,2.161292552947998,3.505859375,1,F1,7.6,180,270.0,4.176100688719082,[6200|0|1600|0],second_intermediate
10800,0.5588910579681396,0.6840760111808777,0.0371412187814712,0.0031550750136375,-1.1815996170043943,0.8751295804977417,3.5,1,F1,7.6,180,270.0,4.187201943840274,[6200|0|1700|0],second_intermediate
10900,0.5525893568992615,0.6808810830116272,0.0361803844571113,-1.2898290157318115,-1.154473900794983,0.5846632122993469,3.509765625,1,F1,7.6,180,270.0,4.194332315847894,[6200|0|1800|0],second_intermediate
11000,0.5486947894096375,0.6784611344337463,0.0375301167368888,-0.2474680989980697,-1.1672067642211914,0.4429700970649719,3.509765625,1,F1,7.6,180,270.0,4.199112021307219,[6200|0|1900|0],second_intermediate
11100,0.5443726778030396,0.6798411011695862,0.0365354195237159,1.5654792785644531,-0.8639519214630127,-0.0208653509616851,3.90625,1,F1,7.6,180,270.0,4.20375684417551,[6200|0|2000|0],second_intermediate
11200,0.540390133857727,0.6790692806243896,0.0110756643116474,10.92523193359375,-2.132002592086792,-0.9319186210632324,3.916015625,1,F1,7.6,180,270.0,4.229537757632732,[6200|0|2100|0],second_intermediate
11300,0.5371413826942444,0.6748188734054565,0.0,8.47594928741455,4.276858806610107,-9.539597511291504,3.921875,1,F1,7.6,180,270.0,4.241837785502346,[6200|0|2200|0],second_intermediate
11400,0.5341317653656006,0.6713457703590393,0.0,1.9262933731079104,1.9579286575317385,-19.66297721862793,3.921875,1,F1,7.6,180,270.0,4.246433461865615,[6200|0|2300|0],second_intermediate
11500,0.5262404084205627,0.6749836802482605,0.0,1.758800029754639,2.002422571182251,-19.51431465148925,3.921875,1,F1,7.6,180,270.0,4.2551229902070205,[6200|0|2400|0],second_intermediate
11600,0.5159872770309448,0.6790249347686768,0.0,1.748252511024475,1.886413812637329,-16.7396183013916,3.927734375,1,F1,7.6,180,270.0,4.266143808751555,[6200|0|2500|0],second_intermediate
11700,0.5088906288146973,0.6812822222709656,0.0,1.7490994930267334,1.699709177017212,-15.392443656921388,3.927734375,1,F1,7.6,180,270.0,4.273590805647832,[6200|0|2600|0],second_intermediate
11800,0.5008121132850647,0.6860329508781433,0.0040098098106682,6.189228057861328,3.6334969997406006,-14.621578216552734,3.931640625,1,F1,7.6,180,270.0,4.283784451226294,[6200|0|2700|0],second_intermediate
11900,0.5218806862831116,0.7017465829849243,0.0504145957529544,9.91736888885498,13.651010513305664,-0.977211892604828,3.931640625,1,F1,7.6,180,270.0,4.337115559976354,[6200|0|2800|0],second_intermediate
12000,0.572955310344696,0.7325877547264099,0.1055044904351234,6.276908874511719,19.497901916503903,4.160207748413086,3.931640625,1,F1,7.6,180,270.0,4.418323266467256,[6200|0|2900|0],second_intermediate
12100,0.6213701367378235,0.7592765092849731,0.1140399277210235,3.915758848190308,16.73967933654785,-3.253949880599976,3.9375,1,F1,7.6,180,270.0,4.474261971531151,[6200|0|3000|0],second_intermediate
12200,0.6291355490684509,0.7695199251174927,0.0943897366523742,-1.809949398040772,11.196603775024414,0.3129262030124664,3.9375,1,F1,7.6,180,270.0,4.497743010810046,[6200|0|3100|0],second_intermediate
12300,0.6136027574539185,0.771862268447876,0.0849852785468101,-4.070479393005371,4.8480000495910645,-1.4973634481430054,3.9375,1,F1,7.6,180,270.0,4.516051424719427,[6200|0|3200|0],second_intermediate
12400,0.5951176881790161,0.778270423412323,0.0909728854894638,-0.8760170936584473,-1.9566090106964111,-4.225470066070557,3.9375,1,F1,7.6,180,270.0,4.536511475380313,[6200|0|3300|0],second_intermediate
12500,0.5718765258789062,0.789725124835968,0.104478508234024,-1.5366008281707764,-2.277660846710205,-0.0559245608747005,3.9375,1,F1,7.6,180,270.0,4.565730709721467,[6200|0|3400|0],second_intermediate
12600,0.5489746928215027,0.8023424744606018,0.1178583055734634,-2.595773696899414,-1.4578760862350464,-0.9525935053825378,3.943359375,1,F1,7.6,180,270.0,4.595102642681078,[6200|0|3500|0],second_intermediate
12700,0.5463232398033142,0.7893128395080566,0.1169278472661972,-2.187067031860352,-2.2184786796569824,2.74930739402771,3.943359375,1,F1,7.6,180,270.0,4.60843183405812,[6200|0|3600|0],second_intermediate
12800,0.5327025055885315,0.793093740940094,0.1253005564212799,-2.0127289295196533,-2.259202003479004,2.2882723808288574,3.943359375,1,F1,7.6,180,270.0,4.624861133336669,[6200|0|3700|0],second_intermediate
12900,0.5150565505027771,0.7991302609443665,0.1373874843120575,-1.994954228401184,-2.2369956970214844,2.268167495727539,3.943359375,1,F1,7.6,180,270.0,4.647085289799565,[6200|0|3800|0],second_intermediate
13000,0.5225985050201416,0.7965370416641235,0.1345593184232711,-1.9263298511505127,-2.275592088699341,1.845324873924256,4.0234375,1,F1,7.6,180,270.0,4.655547227312447,[6200|0|3900|0],second_intermediate
13100,0.5079024434089661,0.8015495538711548,0.1463361084461212,-1.9106330871582031,-2.2521493434906006,1.8269847631454468,4.02734375,1,F1,7.6,180,270.0,4.675035487592611,[6200|0|4000|0],second_intermediate
13200,0.493446409702301,0.8065506219863892,0.1581297069787979,-1.9018207788467407,-2.235182285308838,1.8090726137161253,4.02734375,1,F1,7.6,180,270.0,4.694350677448561,[6200|0|4100|0],second_intermediate
13300,0.5392460823059082,0.7907348871231079,0.1217084303498268,-1.844510793685913,-2.2379791736602783,0.8775989413261414,4.02734375,1,F1,7.6,180,270.0,4.754966326180116,[6200|0|4200|0],second_intermediate
13400,0.5684636235237122,0.7814802527427673,0.1001872420310974,-1.8444005250930784,-2.264442205429077,0.3432150185108185,4.03125,1,F1,7.6,180,270.0,4.792415952599856,[6200|0|4300|0],second_intermediate
13500,0.5889992117881775,0.775138258934021,0.0845458507537841,-1.8578888177871704,-2.269355058670044,0.0271954890340566,4.03125,1,F1,7.6,180,270.0,4.818997607776459,[6200|0|4400|0],second_intermediate
13600,0.6067734956741333,0.769597589969635,0.0714058876037597,-1.848227262496948,-2.266026258468628,-0.1913206577301025,4.03125,1,F1,7.6,180,270.0,4.841785385461337,[6200|0|4500|0],second_intermediate
13700,0.6204662919044495,0.7651047706604004,0.0610490068793296,-1.837604284286499,-2.251871347427368,-0.365958034992218,4.0390625,1,F1,7.6,180,270.0,4.85953202098164,[6200|0|4600|0],second_intermediate
13800,0.6327404379844666,0.7613523006439209,0.0520545430481433,-1.8395984172821045,-2.253427743911743,-0.4714026749134063,4.0390625,1,F1,7.6,180,270.0,4.875204802254557,[6200|0|4700|0],second_intermediate
13900,0.644122838973999,0.7576760053634644,0.0436592511832714,-1.8130747079849243,-2.2489547729492188,-0.5547410249710083,4.0390625,1,F1,7.6,180,270.0,4.88981832765988,[6200|0|4800|0],second_intermediate
14000,0.6538995504379272,0.754697322845459,0.0363117530941963,-1.819977641105652,-2.2352559566497803,-0.6199321150779724,4.0390625,1,F1,7.6,180,270.0,4.902405716776013,[6200|0|4900|0],second_intermediate
14100,0.6625270843505859,0.7517528533935547,0.0301517862826585,-1.7987276315689087,-2.2296714782714844,-0.6845758557319641,4.0390625,1,F1,7.6,180,270.0,4.913407963495957,[6200|0|5000|0],second_intermediate
14200,0.6699864268302917,0.7493873834609985,0.0246469173580408,-1.7964999675750732,-2.201633214950561,-0.7508935928344727,4.04296875,1,F1,7.6,180,270.0,4.922975660194149,[6200|0|5100|0],second_intermediate
14300,0.6761161684989929,0.7474998831748962,0.0199513528496027,-1.799574613571167,-2.18302321434021,-0.7819333672523499,4.04296875,1,F1,7.6,180,270.0,4.930924541644262,[6200|0|5200|0],second_intermediate
14400,0.682067334651947,0.7456751465797424,0.0152430236339569,-1.794142246246338,-2.1567986011505127,-0.8198467493057251,4.04296875,1,F1,7.6,180,270.0,4.938729309816647,[6200|0|5300|0],second_intermediate
14500,0.6868205070495605,0.7438676953315735,0.0111192418262362,-1.7681870460510254,-2.127274513244629,-0.827909529209137,4.04296875,1,F1,7.6,180,270.0,4.94527645455719,[6200|0|5400|0],second_intermediate
14600,0.6937236785888672,0.7416101098060608,0.0061355801299214,-1.832094669342041,-2.1417202949523926,-0.8165718913078308,4.04296875,1,F1,7.6,180,270.0,4.954084822942392,[6200|0|5500|0],second_intermediate
14700,0.6992228627204895,0.740112841129303,0.0028114535380154,-1.858005166053772,-2.1578264236450195,-0.8322134017944336,4.046875,1,F1,7.6,180,270.0,4.960682751193207,[6200|0|5600|0],second_intermediate
14800,0.7369592785835266,0.7277514934539795,0.0,-1.8423722982406616,-2.108787775039673,0.999176263809204,4.046875,1,F1,7.6,180,270.0,5.000491597817226,[6200|0|5700|0],second_intermediate
14900,0.7365851998329163,0.7278004288673401,0.0,-1.8989442586898804,-1.9600690603256223,0.2582509219646454,4.046875,1,F1,7.6,180,270.0,5.000868863753058,[6200|0|5800|0],second_intermediate
15000,0.7364425659179688,0.7277814745903015,0.0,-1.923195242881775,-1.9182606935501096,-0.2510420978069305,4.046875,1,F1,7.6,180,270.0,5.001012751550704,[6200|0|5900|0],second_intermediate
15100,0.7368083596229553,0.7281138300895691,0.0,-1.9351273775100708,-1.902487874031067,-0.6203688979148865,4.046875,1,F1,7.6,180,270.0,5.001506983492712,[6200|0|6000|0],second_intermediate
15200,0.7362592220306396,0.7282658219337463,0.0,-1.9381639957427976,-1.8764272928237915,-0.8786771297454834,4.046875,1,F1,7.6,180,270.0,5.002076767325399,[6200|0|6100|0],second_intermediate
15300,0.7364896535873413,0.7277404069900513,0.0,-1.922094702720642,-1.872604250907898,-1.093808889389038,4.0546875,1,F1,7.6,180,270.0,5.002650491619273,[6200|0|6200|0],second_intermediate
15400,0.7363983392715454,0.7281241416931152,0.0,-1.9301083087921145,-1.8767167329788208,-1.2560408115386963,4.0546875,1,F1,7.6,180,270.0,5.003044941396311,[6200|0|6300|0],second_intermediate
15500,0.7363534569740295,0.7284009456634521,0.0,-1.9279555082321167,-1.8914374113082888,-1.3845731019973757,4.0546875,1,F1,7.6,180,270.0,5.003325360473095,[6200|0|6400|0],second_intermediate
15600,0.7364018559455872,0.7282615303993225,0.0,-1.915354609489441,-1.9029687643051147,-1.4513179063796997,4.0546875,1,F1,7.6,180,270.0,5.003472937830167,[6200|0|6500|0],second_intermediate
15700,0.7362117171287537,0.7283178567886353,0.0,-1.908087968826294,-1.9105982780456543,-1.5059562921524048,4.0546875,1,F1,7.6,180,270.0,5.003671244239039,[6200|0|6600|0],second_intermediate
15800,0.7364556193351746,0.7284418344497681,0.0,-1.9031847715377808,-1.9234755039215088,-1.5621849298477173,4.0546875,1,F1,7.6,180,270.0,5.003944847504292,[6200|0|6700|0],second_intermediate
15900,0.7364705801010132,0.7281225919723511,0.0,-1.8850669860839844,-1.936038613319397,-1.6020008325576782,4.0546875,1,F1,7.6,180,270.0,5.00426444034511,[6200|0|6800|0],second_intermediate
16000,0.7364788055419922,0.7278268337249756,0.0,-1.8659533262252808,-1.9458433389663696,-1.6200979948043823,4.05859375,1,F1,7.6,180,270.0,5.004560312950753,[6200|0|6900|0],second_intermediate
16100,0.736538290977478,0.727876603603363,0.0,-1.864065408706665,-1.9580082893371584,-1.655631184577942,4.05859375,1,F1,7.6,180,270.0,5.00463787297802,[6200|0|7000|0],second_intermediate
16200,0.7365727424621582,0.728478729724884,0.0,-1.871992945671081,-1.967156887054444,-1.6257431507110596,4.05859375,1,F1,7.6,180,270.0,5.00524098388906,[6200|0|7100|0],second_intermediate
16300,0.7361670136451721,0.728330671787262,0.0,-1.861814856529236,-1.966715693473816,-1.627489447593689,4.05859375,1,F1,7.6,180,270.0,5.005672883212776,[6200|0|7200|0],second_intermediate
16400,0.7362438440322876,0.7282657623291016,0.0,-1.862786769866944,-1.977270483970642,-1.639129400253296,4.05859375,1,F1,7.6,180,270.0,5.005773462266972,[6200|0|7300|0],second_intermediate
16500,0.7363487482070923,0.7283427119255066,0.0,-1.8609254360198968,-1.981505870819092,-1.654591083526611,4.05859375,1,F1,7.6,180,270.0,5.005903562713852,[6200|0|7400|0],second_intermediate
16600,0.7360895872116089,0.7283515930175781,0.0,-1.859209418296814,-1.978567361831665,-1.6497726440429688,4.05859375,1,F1,7.6,180,270.0,5.006162875836112,[6200|0|7500|0],second_intermediate
16700,0.7365715503692627,0.7280906438827515,0.0,-1.8491743803024288,-2.003495931625366,-1.6464661359786987,4.06640625,1,F1,7.6,180,270.0,5.006710947853553,[6200|0|7600|0],second_intermediate
16800,0.7365061044692993,0.7283639311790466,0.0,-1.858078122138977,-2.010669231414795,-1.648162603378296,4.06640625,1,F1,7.6,180,270.0,5.006991962287592,[6200|0|7700|0],second_intermediate
16900,0.7365503907203674,0.7281340956687927,0.0,-1.851354718208313,-2.009639024734497,-1.638818621635437,4.06640625,1,F1,7.6,180,270.0,5.007226025599128,[6200|0|7800|0],second_intermediate
17000,0.7366313934326172,0.7283616662025452,0.0,-1.857215166091919,-2.0111916065216064,-1.6415022611618042,4.06640625,1,F1,7.6,180,270.0,5.007467582605287,[6200|0|7900|0],second_intermediate
17100,0.7363314628601074,0.728486180305481,0.0,-1.860817670822144,-2.0076489448547363,-1.6367093324661257,4.06640625,1,F1,7.6,180,270.0,5.007792331908837,[6200|0|8000|0],second_intermediate
17201,0.7365723848342896,0.728501558303833,0.0,-1.864118576049805,-2.008594989776612,-1.6187832355499268,4.06640625,1,F1,7.6,180,270.0,5.008033744171319,[6200|0|8100|0],second_intermediate
17301,0.736485481262207,0.7284098863601685,0.0,-1.862946391105652,-2.013319253921509,-1.6213079690933228,4.06640625,1,F1,7.6,180,270.0,5.008160061138097,[6200|0|8200|0],second_intermediate
17401,0.7364485263824463,0.7281808257102966,0.0,-1.8600386381149288,-2.019503831863404,-1.6110283136367798,4.06640625,1,F1,7.6,180,270.0,5.008392083646613,[6200|0|8300|0],second_intermediate
17501,0.7367696762084961,0.7281566262245178,0.0,-1.853076696395874,-2.029817819595337,-1.624122142791748,4.0703125,1,F1,7.6,180,270.0,5.008714143929609,[6200|0|8400|0],second_intermediate
17601,0.7365855574607849,0.7279635667800903,0.0,-1.84291410446167,-2.0221047401428223,-1.6101665496826172,4.06640625,1,F1,7.6,180,270.0,5.008980924105674,[6200|0|8500|0],second_intermediate
17701,0.7367265224456787,0.7283082008361816,0.0,-1.8491941690444944,-2.0258967876434326,-1.608027458190918,4.0703125,1,F1,7.6,180,270.0,5.009353273081212,[6200|0|8600|0],second_intermediate
17801,0.7364319562911987,0.7281044125556946,0.0,-1.8470005989074707,-2.01502537727356,-1.6326491832733154,4.0703125,1,F1,7.6,180,270.0,5.009711461415233,[6200|0|8700|0],second_intermediate
17901,0.7368177771568298,0.7281123995780945,0.0,-1.849295139312744,-2.0287234783172607,-1.6229737997055054,4.0703125,1,F1,7.6,180,270.0,5.010097364943182,[6200|0|8800|0],second_intermediate
18001,0.7364956736564636,0.7283875346183777,0.0,-1.859360933303833,-2.023595333099365,-1.62553071975708,4.0703125,1,F1,7.6,180,270.0,5.0105209802820685,[6200|0|8900|0],second_intermediate
18101,0.736903965473175,0.7282635569572449,0.0,-1.858685612678528,-2.035144329071045,-1.6207966804504397,4.0703125,1,F1,7.6,180,270.0,5.010947680021995,[6200|0|9000|0],second_intermediate
18201,0.7363625168800354,0.7283084392547607,0.0,-1.857682466506958,-2.015452146530152,-1.6205767393112185,4.0703125,1,F1,7.6,180,270.0,5.011490985644682,[6200|0|9100|0],second_intermediate
18302,0.7364292144775391,0.7282032370567322,0.0,-1.8505390882492063,-2.0163824558258057,-1.6452404260635376,4.0703125,1,F1,7.6,180,270.0,5.011615549170574,[6200|0|9200|0],second_intermediate
18402,0.7362544536590576,0.7283359169960022,0.0,-1.849414706230164,-2.0133843421936035,-1.6236577033996582,4.07421875,1,F1,7.6,180,270.0,5.011834969566073,[6200|0|9300|0],second_intermediate
18502,0.7366005182266235,0.7283868193626404,0.0,-1.85212504863739,-2.0224342346191406,-1.6305772066116333,4.07421875,1,F1,7.6,180,270.0,5.012184757696023,[6200|0|9400|0],second_intermediate
18602,0.7365407347679138,0.7284479141235352,0.0,-1.8456926345825195,-2.023016929626465,-1.6462990045547483,4.07421875,1,F1,7.6,180,270.0,5.012270236534013,[6200|0|9500|0],second_intermediate
18702,0.7365785837173462,0.7281507253646851,0.0,-1.8388798236846924,-2.017460346221924,-1.6408592462539673,4.07421875,1,F1,7.6,180,270.0,5.012569825755048,[6200|0|9600|0],second_intermediate
18802,0.7368539571762085,0.7282381653785706,0.0,-1.842412233352661,-2.0233592987060547,-1.638383865356445,4.07421875,1,F1,7.6,180,270.0,5.012858748405378,[6200|0|9700|0],second_intermediate
18902,0.7363156676292419,0.7281961441040039,0.0,-1.8460187911987305,-2.004875659942627,-1.6613025665283203,4.07421875,1,F1,7.6,180,270.0,5.013398675644819,[6200|0|9800|0],second_intermediate
19002,0.7360818982124329,0.7284000515937805,0.0,-1.850953459739685,-2.001309394836426,-1.6615321636199951,4.07421875,1,F1,7.6,180,270.0,5.013708879456243,[6200|0|9900|0],second_intermediate
19102,0.7365067601203918,0.7281785011291504,0.0,-1.8407313823699951,-2.018357992172241,-1.667582631111145,4.07421875,1,F1,7.6,180,270.0,5.014188037310412,[6200|0|10000|0],second_intermediate
19202,0.736574649810791,0.7282028794288635,0.0,-1.8403271436691284,-2.023538589477539,-1.650545954704285,4.07421875,1,F1,7.6,180,270.0,5.014260171293801,[6200|0|10100|0],second_intermediate
19300,0.7363520264625549,0.7284751534461975,0.0,-1.8428860902786253,-2.0159270763397217,-1.6327574253082275,4.08203125,1,F1,7.6,180,270.0,5.014611873292224,[6200|0|10200|0],second_intermediate
19400,0.7365413904190063,0.7280970215797424,0.0,-1.827444076538086,-2.0213992595672607,-1.6382628679275513,4.08203125,1,F1,7.6,180,270.0,5.015034770935197,[6200|0|10300|0],second_intermediate
19500,0.7367605566978455,0.7280919551849365,0.0,-1.828330516815185,-2.0367558002471924,-1.6249569654464722,4.08203125,1,F1,7.6,180,270.0,5.015253995765306,[6200|0|10400|0],second_intermediate
19600,0.7364677786827087,0.72845059633255,0.0,-1.8397479057312007,-2.024416446685791,-1.6124153137207031,4.08203125,1,F1,7.6,180,270.0,5.015716967080734,[6200|0|10500|0],second_intermediate
19700,0.7364963889122009,0.7278891205787659,0.0,-1.8231070041656487,-2.0306103229522705,-1.5806052684783936,4.08203125,1,F1,7.6,180,270.0,5.016279171285022,[6200|0|10600|0],second_intermediate
19800,0.7363699674606323,0.7280737161636353,0.0,-1.8270368576049805,-2.0298192501068115,-1.5923945903778076,4.08203125,1,F1,7.6,180,270.0,5.016502907543528,[6200|0|10700|0],second_intermediate
19900,0.7368248701095581,0.728175163269043,0.0,-1.8307571411132808,-2.0403101444244385,-1.5961651802062988,4.08203125,1,F1,7.6,180,270.0,5.016968984720823,[6200|0|10800|0],second_intermediate
20000,0.7367289662361145,0.7283697724342346,0.0,-1.83600914478302,-2.034135580062866,-1.6031816005706787,4.08203125,1,F1,7.6,180,270.0,5.017185941583167,[6200|0|10900|0],second_intermediate
20100,0.7362868785858154,0.7284259796142578,0.0,-1.831876873970032,-2.016019344329834,-1.6058056354522705,4.08203125,1,F1,7.6,180,270.0,5.01763158800987,[6200|0|11000|0],second_intermediate
20200,0.7362592816352844,0.7284101843833923,0.0,-1.833030104637146,-2.015571117401123,-1.6077557802200315,4.08203125,1,F1,7.6,180,270.0,5.01766338550972,[6200|0|11100|0],second_intermediate
20300,0.7365608811378479,0.7282671332359314,0.0,-1.826303243637085,-2.022771120071411,-1.6151057481765747,4.08203125,1,F1,7.6,180,270.0,5.017997190678548,[6200|0|11200|0],second_intermediate
20400,0.736513078212738,0.7284042835235596,0.0,-1.827194333076477,-2.0174574851989746,-1.6193013191223145,4.08203125,1,F1,7.6,180,270.0,5.018142432962493,[6200|0|11300|0],second_intermediate
20500,0.736667811870575,0.7283481359481812,0.0,-1.8248870372772217,-2.019365072250366,-1.6268560886383057,4.0859375,1,F1,7.6,180,270.0,5.01830703871904,[6200|0|11400|0],second_intermediate
20600,0.7365073561668396,0.7282180190086365,0.0,-1.820855975151062,-2.012269258499145,-1.6303153038024902,4.0859375,1,F1,7.6,180,270.0,5.018513621513138,[6200|0|11500|0],second_intermediate
20700,0.73630291223526,0.7280948162078857,0.0,-1.82461941242218,-2.0069901943206787,-1.6314414739608765,4.0859375,1,F1,7.6,180,270.0,5.018752318499447,[6200|0|11600|0],second_intermediate
20800,0.7363734245300293,0.72834312915802,0.0,-1.8322232961654663,-2.010204792022705,-1.6365238428115845,4.0859375,1,F1,7.6,180,270.0,5.019010448902379,[6200|0|11700|0],second_intermediate
20900,0.7360589504241943,0.7281410098075867,0.0,-1.8240097761154173,-2.004290819168091,-1.643117904663086,4.0859375,1,F1,7.6,180,270.0,5.019384275326084,[6200|0|11800|0],second_intermediate
21000,0.7364299893379211,0.7281460762023926,0.0,-1.8249611854553225,-2.0122227668762207,-1.6507527828216553,4.0859375,1,F1,7.6,180,270.0,5.019755348828043,[6200|0|11900|0],second_intermediate
21100,0.7364934086799622,0.7283694744110107,0.0,-1.8368401527404783,-2.009505033493042,-1.653494358062744,4.0859375,1,F1,7.6,180,270.0,5.019987574521192,[6200|0|12000|0],second_intermediate
21200,0.7362449169158936,0.7280385494232178,0.0,-1.8295072317123413,-2.0052547454833984,-1.643323302268982,4.0859375,1,F1,7.6,180,270.0,5.020401409638546,[6200|0|12100|0],second_intermediate
21300,0.7364126443862915,0.7281787395477295,0.0,-1.8366193771362305,-2.0174081325531006,-1.666653037071228,4.0859375,1,F1,7.6,180,270.0,5.020620009216168,[6200|0|12200|0],second_intermediate
21400,0.7364644408226013,0.7278409600257874,0.0,-1.830039978027344,-2.0161166191101074,-1.6560057401657104,4.0859375,1,F1,7.6,180,270.0,5.020961736997096,[6200|0|12300|0],second_intermediate
21500,0.7364820241928101,0.7285455465316772,0.0,-1.8467062711715696,-2.018686532974243,-1.646409273147583,4.08984375,1,F1,7.6,180,270.0,5.021666542870504,[6200|0|12400|0],second_intermediate
21600,0.7362412810325623,0.7285077571868896,0.0,-1.8440136909484863,-2.0100674629211426,-1.650545597076416,4.0859375,1,F1,7.6,180,270.0,5.021910233871129,[6200|0|12500|0],second_intermediate
21700,0.7362512350082397,0.728266716003418,0.0,-1.830196738243103,-2.0095794200897217,-1.637187361717224,4.08984375,1,F1,7.6,180,270.0,5.022151480495481,[6200|0|12600|0],second_intermediate
21800,0.7367806434631348,0.7283065915107727,0.0,-1.8372622728347776,-2.024037599563598,-1.6351940631866455,4.08984375,1,F1,7.6,180,270.0,5.022682388555507,[6200|0|12700|0],second_intermediate
21900,0.7368999123573303,0.7281859517097473,0.0,-1.8277019262313845,-2.0374112129211426,-1.6405409574508667,4.0859375,1,F1,7.6,180,270.0,5.022852032390391,[6200|0|12800|0],second_intermediate
22000,0.7364009618759155,0.7283372282981873,0.0,-1.830990076065064,-2.0290935039520264,-1.6128573417663574,4.08984375,1,F1,7.6,180,270.0,5.023373411512638,[6200|0|12900|0],second_intermediate
22100,0.7370129823684692,0.7282358407974243,0.0,-1.823123812675476,-2.0425965785980225,-1.6247514486312866,4.08984375,1,F1,7.6,180,270.0,5.023993773107691,[6200|0|13000|0],second_intermediate
22200,0.7364926338195801,0.7280246019363403,0.0,-1.819531798362732,-2.0299134254455566,-1.6279263496398926,4.08984375,1,F1,7.6,180,270.0,5.024555364123255,[6200|0|13100|0],second_intermediate
22300,0.7362731695175171,0.7281222939491272,0.0,-1.826029896736145,-2.0348541736602783,-1.6275755167007446,4.08984375,1,F1,7.6,180,270.0,5.024795589661537,[6200|0|13200|0],second_intermediate
22400,0.7364424467086792,0.7283342480659485,0.0,-1.8280236721038816,-2.045473098754883,-1.6181756258010864,4.08984375,1,F1,7.6,180,270.0,5.025066844735379,[6200|0|13300|0],second_intermediate
22500,0.7365453839302063,0.7283710837364197,0.0,-1.8282970190048216,-2.04504656791687,-1.6211169958114624,4.08984375,1,F1,7.6,180,270.0,5.025176174229089,[6200|0|13400|0],second_intermediate
22600,0.736639142036438,0.7283390164375305,0.0,-1.8280277252197263,-2.042783737182617,-1.6353464126586914,4.08984375,1,F1,7.6,180,270.0,5.025275264562332,[6200|0|13500|0],second_intermediate
22700,0.7363971471786499,0.7281919121742249,0.0,-1.8300963640213013,-2.0405633449554443,-1.6478357315063477,4.08984375,1,F1,7.6,180,270.0,5.0255584626828735,[6200|0|13600|0],second_intermediate
22800,0.7365244626998901,0.7283361554145813,0.0,-1.831137776374817,-2.0399699211120605,-1.630119800567627,4.08984375,1,F1,7.6,180,270.0,5.025750856431049,[6200|0|13700|0],second_intermediate
22900,0.7365865707397461,0.7281574606895447,0.0,-1.8214811086654663,-2.041105270385742,-1.6200566291809082,4.08984375,1,F1,7.6,180,270.0,5.025940036803632,[6200|0|13800|0],second_intermediate
23000,0.7365666031837463,0.7279812693595886,0.0,-1.818292260169983,-2.045490264892578,-1.6234086751937866,4.08984375,1,F1,7.6,180,270.0,5.026117355973618,[6200|0|13900|0],second_intermediate
23100,0.7368358969688416,0.7282847762107849,0.0,-1.822797894477844,-2.0512373447418213,-1.6068607568740845,4.08984375,1,F1,7.6,180,270.0,5.02652310904066,[6200|0|14000|0],second_intermediate
23200,0.7367881536483765,0.7282916903495789,0.0,-1.8168359994888303,-2.0445234775543213,-1.586482048034668,4.08984375,1,F1,7.6,180,270.0,5.026571350412576,[6200|0|14100|0],second_intermediate
23300,0.7366474866867065,0.7281351685523987,0.0,-1.823451042175293,-2.045382499694824,-1.5872254371643066,4.09765625,1,F1,7.6,180,270.0,5.026781793438352,[6200|0|14200|0],second_intermediate
23400,0.7367145419120789,0.7283525466918945,0.0,-1.8365904092788696,-2.0490219593048096,-1.6120542287826538,4.09765625,1,F1,7.6,180,270.0,5.027009278951694,[6200|0|14300|0],second_intermediate
23500,0.7364683747291565,0.7283291816711426,0.0,-1.837944507598877,-2.045011043548584,-1.6113762855529783,4.09765625,1,F1,7.6,180,270.0,5.027256552496867,[6200|0|14400|0],second_intermediate
23600,0.7363080382347107,0.7286906838417053,0.0,-1.8514832258224487,-2.04610276222229,-1.6363452672958374,4.09765625,1,F1,7.6,180,270.0,5.027652016288855,[6200|0|14500|0],second_intermediate
23700,0.7366780638694763,0.728412389755249,0.0,-1.8465676307678225,-2.06009292602539,-1.631902813911438,4.09765625,1,F1,7.6,180,270.0,5.028115013663513,[6200|0|14600|0],second_intermediate
23800,0.7367371320724487,0.7283360958099365,0.0,-1.8411742448806765,-2.057445764541626,-1.620899319648743,4.09765625,1,F1,7.6,180,270.0,5.028211501065249,[6200|0|14700|0],second_intermediate
23900,0.7368570566177368,0.7280605435371399,0.0,-1.8356497287750244,-2.043668508529663,-1.630426049232483,4.09765625,1,F1,7.6,180,270.0,5.028512018871054,[6200|0|14800|0],second_intermediate
24000,0.7365270256996155,0.7284224033355713,0.0,-1.8379137516021729,-2.036063432693481,-1.625529408454895,4.09765625,1,F1,7.6,180,270.0,5.029001776893589,[6200|0|14900|0],second_intermediate
24100,0.7362980246543884,0.7279487252235413,0.0,-1.8159868717193604,-2.023767232894897,-1.6100834608078003,4.09765625,1,F1,7.6,180,270.0,5.029527906566323,[6200|0|15000|0],second_intermediate
24200,0.7363275289535522,0.728529691696167,0.0,-1.8322041034698489,-2.018801212310791,-1.6021628379821775,4.09765625,1,F1,7.6,180,270.0,5.030109621742319,[6200|0|15100|0],second_intermediate
24300,0.7363025546073914,0.7285893559455872,0.0,-1.837586760520935,-2.021554708480835,-1.628157615661621,4.09765625,1,F1,7.6,180,270.0,5.030174302037812,[6200|0|15200|0],second_intermediate
24400,0.7361376285552979,0.7281438708305359,0.0,-1.82435154914856,-2.0222012996673584,-1.6072052717208862,4.09765625,1,F1,7.6,180,270.0,5.030649336342249,[6200|0|15300|0],second_intermediate
24500,0.7367785573005676,0.7279927730560303,0.0,-1.8241236209869385,-2.0406718254089355,-1.626969814300537,4.09765625,1,F1,7.6,180,270.0,5.031307834781103,[6200|0|15400|0],second_intermediate
24600,0.736510157585144,0.7284153699874878,0.0,-1.835975646972656,-2.0267789363861084,-1.6170369386672974,4.09765625,1,F1,7.6,180,270.0,5.031808460962716,[6200|0|15500|0],second_intermediate
24700,0.736741304397583,0.7283903360366821,0.0,-1.8336219787597656,-2.0296967029571533,-1.612801432609558,4.1015625,1,F1,7.6,180,270.0,5.03204095945216,[6200|0|15600|0],second_intermediate
24800,0.7367107272148132,0.7280179262161255,0.0,-1.81463086605072,-2.0249927043914795,-1.609580159187317,4.1015625,1,F1,7.6,180,270.0,5.0324146224534765,[6200|0|15700|0],second_intermediate
24900,0.7366408109664917,0.7284042835235596,0.0,-1.8224196434021,-2.0323305130004883,-1.6079838275909424,4.09765625,1,F1,7.6,180,270.0,5.032807254916204,[6200|0|15800|0],second_intermediate
25000,0.7366374135017395,0.7283784747123718,0.0,-1.8211631774902344,-2.0314865112304688,-1.622825026512146,4.1015625,1,F1,7.6,180,270.0,5.032833286387573,[6200|0|15900|0],second_intermediate
25100,0.7366217374801636,0.7282096147537231,0.0,-1.816461205482483,-2.023956298828125,-1.637043833732605,4.1015625,1,F1,7.6,180,270.0,5.0330028724226334,[6200|0|16000|0],second_intermediate
25200,0.7362614870071411,0.7280167937278748,0.0,-1.8080416917800903,-2.018659830093384,-1.6377167701721191,4.1015625,1,F1,7.6,180,270.0,5.03341148024356,[6200|0|16100|0],second_intermediate
25300,0.7367091178894043,0.7283448576927185,0.0,-1.809499263763428,-2.033148288726806,-1.6394641399383545,4.09765625,1,F1,7.6,180,270.0,5.033966457154597,[6200|0|16200|0],second_intermediate
25400,0.7363211512565613,0.7281368970870972,0.0,-1.8044075965881348,-2.025024890899658,-1.6377040147781372,4.1015625,1,F1,7.6,180,270.0,5.034406645434416,[6200|0|16300|0],second_intermediate
25500,0.7365197539329529,0.7279191017150879,0.0,-1.794466257095337,-2.034943103790283,-1.654595136642456,4.1015625,1,F1,7.6,180,270.0,5.034701395917263,[6200|0|16400|0],second_intermediate
25600,0.7365454435348511,0.728265106678009,0.0,-1.802423596382141,-2.034127712249756,-1.65383780002594,4.1015625,1,F1,7.6,180,270.0,5.03504835324895,[6200|0|16500|0],second_intermediate
25700,0.7367230653762817,0.7281674146652222,0.0,-1.799789309501648,-2.0347161293029785,-1.648236870765686,4.1015625,1,F1,7.6,180,270.0,5.035251067944805,[6200|0|16600|0],second_intermediate
25800,0.7363248467445374,0.7281578779220581,0.0,-1.805301547050476,-2.025356769561768,-1.6414989233016968,4.1015625,1,F1,7.6,180,270.0,5.035649400755578,[6200|0|16700|0],second_intermediate
25900,0.7364900708198547,0.7285395264625549,0.0,-1.8157209157943728,-2.032889604568481,-1.6354453563690186,4.1015625,1,F1,7.6,180,270.0,5.036065278866961,[6200|0|16800|0],second_intermediate
26000,0.7368813157081604,0.7282595634460449,0.0,-1.8069478273391724,-2.0404624938964844,-1.6480106115341189,4.1015625,1,F1,7.6,180,270.0,5.036546373299728,[6200|0|16900|0],second_intermediate
26100,0.736453652381897,0.7283062934875488,0.0,-1.8135364055633545,-2.0223662853240967,-1.648863673210144,4.1015625,1,F1,7.6,180,270.0,5.036976582106482,[6200|0|17000|0],second_intermediate
26200,0.7368272542953491,0.7281264662742615,0.0,-1.8101075887680047,-2.030252456665039,-1.631658673286438,4.1015625,1,F1,7.6,180,270.0,5.037391209911114,[6200|0|17100|0],second_intermediate
26300,0.7367420196533203,0.728223443031311,0.0,-1.8090369701385496,-2.023893356323242,-1.6214841604232788,4.1015625,1,F1,7.6,180,270.0,5.037520320079612,[6200|0|17200|0],second_intermediate
26400,0.7363516092300415,0.7282412648200989,0.0,-1.8071765899658203,-2.016239643096924,-1.6172698736190796,4.1015625,1,F1,7.6,180,270.0,5.037911137063328,[6200|0|17300|0],second_intermediate
26500,0.7366308569908142,0.7283279895782471,0.0,-1.809793472290039,-2.024728536605835,-1.6160593032836914,4.1015625,1,F1,7.6,180,270.0,5.038203541741082,[6200|0|17400|0],second_intermediate
26600,0.7364946007728577,0.7280369400978088,0.0,-1.79829204082489,-2.0211963653564453,-1.6239854097366333,4.1015625,1,F1,7.6,180,270.0,5.038524906886976,[6200|0|17500|0],second_intermediate
26700,0.7366764545440674,0.7279191613197327,0.0,-1.8003743886947632,-2.029021739959717,-1.6276819705963137,4.10546875,1,F1,7.6,180,270.0,5.038741569377196,[6200|0|17600|0],second_intermediate
26800,0.7366957068443298,0.7282276153564453,0.0,-1.8092905282974243,-2.0229527950286865,-1.630833864212036,4.10546875,1,F1,7.6,180,270.0,5.039050623650471,[6200|0|17700|0],second_intermediate
26900,0.7366941571235657,0.7283264398574829,0.0,-1.8062809705734253,-2.01574969291687,-1.629611253738403,4.10546875,1,F1,7.6,180,270.0,5.039149460301769,[6200|0|17800|0],second_intermediate
27000,0.7361513376235962,0.7279687523841858,0.0,-1.801679611206055,-2.009181261062622,-1.6319513320922852,4.10546875,1,F1,7.6,180,270.0,5.039799532096343,[6200|0|17900|0],second_intermediate
27100,0.7366311550140381,0.7282727360725403,0.0,-1.814579725265503,-2.025538206100464,-1.6419475078582764,4.10546875,1,F1,7.6,180,270.0,5.040367538091871,[6200|0|18000|0],second_intermediate
27200,0.7364687919616699,0.728076696395874,0.0,-1.8148659467697144,-2.0241024494171143,-1.629988431930542,4.10546875,1,F1,7.6,180,270.0,5.0406220834033615,[6200|0|18100|0],second_intermediate
27300,0.7364143133163452,0.7285056710243225,0.0,-1.8261876106262207,-2.0219767093658447,-1.6324070692062378,4.1015625,1,F1,7.6,180,270.0,5.041054503516965,[6200|0|18200|0],second_intermediate
27400,0.7367589473724365,0.7281216979026794,0.0,-1.8168648481369016,-2.030540704727173,-1.6405956745147705,4.10546875,1,F1,7.6,180,270.0,5.041570456994289,[6200|0|18300|0],second_intermediate
27500,0.7364738583564758,0.7284113168716431,0.0,-1.817579865455628,-2.0182440280914307,-1.637031316757202,4.10546875,1,F1,7.6,180,270.0,5.041976849531382,[6200|0|18400|0],second_intermediate
27600,0.7367085218429565,0.7284277081489563,0.0,-1.819319128990173,-2.023506164550781,-1.6469793319702148,4.10546875,1,F1,7.6,180,270.0,5.042212084787794,[6200|0|18500|0],second_intermediate
27700,0.7366364598274231,0.7283025979995728,0.0,-1.8166518211364744,-2.025337219238281,-1.640213966369629,4.10546875,1,F1,7.6,180,270.0,5.042356464438582,[6200|0|18600|0],second_intermediate
27800,0.736566424369812,0.7279335260391235,0.0,-1.8097773790359497,-2.019904851913452,-1.638725519180298,4.10546875,1,F1,7.6,180,270.0,5.042732122630709,[6200|0|18700|0],second_intermediate
27900,0.7366096377372742,0.7285012602806091,0.0,-1.81984281539917,-2.012110471725464,-1.6329742670059204,4.10546875,1,F1,7.6,180,270.0,5.043301499100264,[6200|0|18800|0],second_intermediate
28000,0.7366392016410828,0.728074848651886,0.0,-1.81104588508606,-2.015908479690552,-1.632773756980896,4.10546875,1,F1,7.6,180,270.0,5.043728934360296,[6200|0|18900|0],second_intermediate
28100,0.736393392086029,0.728259801864624,0.0,-1.813153624534607,-2.0123136043548584,-1.620267391204834,4.10546875,1,F1,7.6,180,270.0,5.044036554301551,[6200|0|19000|0],second_intermediate
28200,0.7364642024040222,0.7282906770706177,0.0,-1.8174583911895752,-2.017430067062378,-1.6254862546920776,4.10546875,1,F1,7.6,180,270.0,5.044113803116942,[6200|0|19100|0],second_intermediate
28300,0.7365691661834717,0.7284744381904602,0.0,-1.8221607208251955,-2.021775484085083,-1.6225852966308594,4.10546875,1,F1,7.6,180,270.0,5.044325429070365,[6200|0|19200|0],second_intermediate
28400,0.7364652156829834,0.7280892133712769,0.0,-1.8169736862182613,-2.0228264331817627,-1.6340320110321045,4.10546875,1,F1,7.6,180,270.0,5.044724432664166,[6200|0|19300|0],second_intermediate
28500,0.7365210652351379,0.7282320857048035,0.0,-1.8125139474868768,-2.027390480041504,-1.6321663856506348,4.10546875,1,F1,7.6,180,270.0,5.044877833042794,[6200|0|19400|0],second_intermediate
28600,0.7362161874771118,0.7281871438026428,0.0,-1.8081737756729128,-2.020972490310669,-1.6382039785385132,4.10546875,1,F1,7.6,180,270.0,5.045186005432714,[6200|0|19500|0],second_intermediate
28700,0.7368267774581909,0.7281930446624756,0.0,-1.8076720237731927,-2.039279699325561,-1.6484050750732422,4.10546875,1,F1,7.6,180,270.0,5.045796623926654,[6200|0|19600|0],second_intermediate
28800,0.7364335656166077,0.7281038165092468,0.0,-1.807284235954285,-2.0297133922576904,-1.6493772268295288,4.10546875,1,F1,7.6,180,270.0,5.04619983257697,[6200|0|19700|0],second_intermediate
28900,0.7363354563713074,0.7282447814941406,0.0,-1.805685877799988,-2.026526927947998,-1.6527570486068726,4.10546875,1,F1,7.6,180,270.0,5.046371578176562,[6200|0|19800|0],second_intermediate
29000,0.7366344928741455,0.7285587191581726,0.0,-1.811342000961304,-2.0388333797454834,-1.6705294847488403,4.11328125,1,F1,7.6,180,270.0,5.046805144419399,[6200|0|19900|0],second_intermediate
29100,0.7365077137947083,0.727975606918335,0.0,-1.7926615476608276,-2.029737949371338,-1.6582633256912231,4.10546875,1,F1,7.6,180,270.0,5.04740187955263,[6200|0|20000|0],second_intermediate
29200,0.7366951107978821,0.7282442450523376,0.0,-1.8022280931472776,-2.0329768657684326,-1.6297327280044556,4.10546875,1,F1,7.6,180,270.0,5.047729422044283,[6200|0|20100|0],second_intermediate
29300,0.7367985248565674,0.7283487915992737,0.0,-1.8079795837402344,-2.029848337173462,-1.6295772790908811,4.11328125,1,F1,7.6,180,270.0,5.047876474579148,[6200|0|20200|0],second_intermediate
29400,0.7367078065872192,0.7283219695091248,0.0,-1.8073288202285769,-2.0284438133239746,-1.6095184087753296,4.10546875,1,F1,7.6,180,270.0,5.047971074943384,[6200|0|20300|0],second_intermediate
29500,0.736640989780426,0.7279792428016663,0.0,-1.8006044626235962,-2.029268264770508,-1.6014715433120728,4.10546875,1,F1,7.6,180,270.0,5.048320254097509,[6200|0|20400|0],second_intermediate
29600,0.7363654971122742,0.7282254695892334,0.0,-1.8051847219467163,-2.0166680812835693,-1.616469144821167,4.11328125,1,F1,7.6,180,270.0,5.04868974542504,[6200|0|20500|0],second_intermediate
29700,0.7364618182182312,0.7282911539077759,0.0,-1.8039013147354128,-2.01494574546814,-1.6279457807540894,4.11328125,1,F1,7.6,180,270.0,5.048806330952252,[6200|0|20600|0],second_intermediate
29800,0.7367706894874573,0.7280108332633972,0.0,-1.7942583560943604,-2.0321812629699707,-1.6206035614013672,4.11328125,1,F1,7.6,180,270.0,5.049223441398799,[6200|0|20700|0],second_intermediate
29900,0.7367078065872192,0.7283907532691956,0.0,-1.8037755489349363,-2.0318195819854736,-1.6081159114837646,4.11328125,1,F1,7.6,180,270.0,5.049608530310543,[6200|0|20800|0],second_intermediate
30000,0.7364357113838196,0.7283009886741638,0.0,-1.8059262037277224,-2.0171239376068115,-1.6239988803863523,4.11328125,1,F1,7.6,180,270.0,5.049895049912376,[6200|0|20900|0],second_intermediate
30100,0.7366831302642822,0.728264570236206,0.0,-1.8053228855133057,-2.0231473445892334,-1.636515736579895,4.11328125,1,F1,7.6,180,270.0,5.05014513470806,[6200|0|21000|0],second_intermediate
30200,0.7369990348815918,0.7282429337501526,0.0,-1.809833288192749,-2.0346567630767822,-1.6404081583023071,4.11328125,1,F1,7.6,180,270.0,5.050461779406052,[6200|0|21100|0],second_intermediate
30300,0.7366294264793396,0.7283892035484314,0.0,-1.8112094402313232,-2.021547079086304,-1.622813105583191,4.11328125,1,F1,7.6,180,270.0,5.050859278116621,[6200|0|21200|0],second_intermediate
30400,0.7361801862716675,0.7278577089309692,0.0,-1.7954542636871338,-2.0131874084472656,-1.6481666564941406,4.11328125,1,F1,7.6,180,270.0,5.051555197143937,[6200|0|21300|0],second_intermediate
30500,0.7364484071731567,0.728007435798645,0.0,-1.799974799156189,-2.0188963413238525,-1.6557981967926023,4.11328125,1,F1,7.6,180,270.0,5.051862378827798,[6200|0|21400|0],second_intermediate
30600,0.7365549206733704,0.7278472185134888,0.0,-1.7983319759368896,-2.0159873962402344,-1.659525990486145,4.11328125,1,F1,7.6,180,270.0,5.0520547708863415,[6200|0|21500|0],second_intermediate
30700,0.7362600564956665,0.7281683087348938,0.0,-1.80431067943573,-2.008601188659668,-1.6606873273849487,4.11328125,1,F1,7.6,180,270.0,5.052490711035416,[6200|0|21600|0],second_intermediate
30800,0.7361728549003601,0.7279382348060608,0.0,-1.7946239709854126,-2.0078136920928955,-1.6586167812347412,4.11328125,1,F1,7.6,180,270.0,5.052736756012916,[6200|0|21700|0],second_intermediate
30900,0.7361752986907959,0.7279283404350281,0.0,-1.7895042896270752,-2.0151500701904297,-1.6697371006011963,4.11328125,1,F1,7.6,180,270.0,5.052746947710018,[6200|0|21800|0],second_intermediate
31000,0.7362972497940063,0.7280163168907166,0.0,-1.7886128425598145,-2.0216310024261475,-1.662893533706665,4.11328125,1,F1,7.6,180,270.0,5.052897320341603,[6200|0|21900|0],second_intermediate
31100,0.7363147139549255,0.7282404899597168,0.0,-1.7909088134765625,-2.021494150161743,-1.6552574634552002,4.11328125,1,F1,7.6,180,270.0,5.053122172652646,[6200|0|22000|0],second_intermediate
31200,0.7361494302749634,0.7279108762741089,0.0,-1.7827121019363403,-2.0233232975006104,-1.634030818939209,4.11328125,1,F1,7.6,180,270.0,5.053490905451027,[6200|0|22100|0],second_intermediate
