time.ms,stateEstimate.x,stateEstimate.y,stateEstimate.z,stabilizer.roll,stabilizer.pitch,stabilizer.yaw,pm.vbat,drone_id,node_name,wind_speed,global_wind_direction,relative_wind_direction,travel_dist,waiting_time,curr_node_role
0,1.2753446102142334,-0.3196870684623718,0.0,-1.2275100946426392,2.7626428604125977,3.698760986328125,4.0703125,2,C1,0,None,None,0.0,[6200|0|0|0],start
100,1.2753617763519287,-0.3195371627807617,0.0,-0.7712998390197754,2.343522071838379,3.7344539165496826,4.0703125,2,C1,0,None,None,0.0001508853527098,[6300|0|0|0],start
200,1.275831699371338,-0.3208647072315216,0.0,-0.3751115798950195,2.001077651977539,3.752988576889038,4.0703125,2,C1,0,None,None,0.0015591473712681,[6400|0|0|0],start
300,1.2762036323547363,-0.3212487697601318,0.0,-0.0790142491459846,1.7093908786773682,3.7810306549072266,4.0703125,2,C1,0,None,None,0.0020937857256929,[6500|0|0|0],start
400,1.2779321670532229,-0.322159081697464,0.0,0.0109746269881725,1.3620659112930298,3.823888540267944,4.0703125,2,C1,0,None,None,0.0040473721781238,[6600|0|0|0],start
500,1.277904033660889,-0.3221283257007599,0.0,0.1935393512248993,1.2193793058395386,3.8518474102020255,4.0703125,2,C1,0,None,None,0.0040890545376717,[6700|0|0|0],start
600,1.278123378753662,-0.322514146566391,0.0,0.3322122693061828,1.0816177129745483,3.864408493041992,4.0703125,2,C1,0,None,None,0.0045328675727214,[6800|0|0|0],start
700,1.278407096862793,-0.322898268699646,0.0,0.4349600076675415,0.9833182692527772,3.864490985870361,4.0703125,2,C1,0,None,None,0.0050104089622419,[6900|0|0|0],start
800,1.2784526348114014,-0.3229750394821167,0.0,0.5043455362319946,0.9117692708969116,3.8686137199401855,4.0703125,2,C1,0,None,None,0.0050996695795635,[7000|0|0|0],start
900,1.2783424854278564,-0.3229812383651733,0.0,0.5423069596290588,0.846933901309967,3.875347852706909,4.0703125,2,C1,0,None,None,0.0052099932526644,[7100|0|0|0],start
1000,1.278194546699524,-0.3230373561382293,0.0,0.574664831161499,0.8095110654830933,3.891134262084961,4.0703125,2,C1,0,None,None,0.0053682180035519,[7200|0|0|0],start
1100,1.2782068252563477,-0.3228132724761963,0.0,0.5942021012306213,0.7679436206817627,3.885594606399536,4.0703125,2,C1,0,None,None,0.0055926378122761,[7300|0|0|0],start
1200,1.278506636619568,-0.3230662941932678,0.0,0.6130795478820801,0.7369011044502258,3.879131555557251,4.0703125,2,C1,0,None,None,0.0059849474384974,[7400|0|0|0],start
1300,1.2775386571884155,-0.3234075307846069,0.0,0.6702935695648193,0.7980421185493469,3.898066759109497,4.0703125,2,C1,0,None,None,0.0070113131581136,[7500|0|0|0],start
1400,1.277661919593811,-0.3233533501625061,0.0,0.6363045573234558,0.7591931819915771,3.890368461608887,4.0703125,2,C1,0,None,None,0.0071459577287249,[7600|0|0|0],start
1500,1.2777148485183716,-0.3235026597976684,0.0,0.609902024269104,0.7255380153656006,3.888693809509277,4.0703125,2,C1,0,None,None,0.0073043712325919,[7700|0|0|0],start
1600,1.2777159214019775,-0.3234055936336517,0.0,0.5812376737594604,0.6971974968910217,3.897665500640869,4.0703125,2,C1,0,None,None,0.0074014433257813,[7800|0|0|0],start
1700,1.2776278257369995,-0.3232397735118866,0.0,0.560310959815979,0.6986249685287476,3.910141706466675,4.0703125,2,C1,0,None,None,0.0075892122235522,[7900|0|0|0],start
1800,1.2776634693145752,-0.3231081068515777,0.0,0.546614944934845,0.683937668800354,3.887918949127197,4.0703125,2,C1,0,None,None,0.0077256181400635,[8000|0|0|0],start
1900,1.2776309251785278,-0.3231789469718933,0.0,0.5352679491043091,0.6834434270858765,3.8850796222686768,4.0703125,2,C1,0,None,None,0.0078035760994865,[8100|0|0|0],start
2000,1.2776886224746704,-0.3230727314949035,0.0,0.5288931131362915,0.6898566484451294,3.8793444633483887,4.0703125,2,C1,0,None,None,0.0079244508509209,[8200|0|0|0],start
2100,1.2776800394058228,-0.3232035636901855,0.0,0.5299516320228577,0.6864069104194641,3.885679960250856,4.0703125,2,C1,0,None,None,0.0080555642842264,[8300|0|0|0],start
2200,1.2776823043823242,-0.3231061398983001,0.0,0.5285580158233643,0.6935734152793884,3.878587484359741,4.0703125,2,C1,0,None,None,0.0081530144014345,[8400|0|0|0],start
2300,1.2778034210205078,-0.3233719766139984,0.0,0.5326416492462158,0.6915383338928223,3.88869833946228,4.0703125,2,C1,0,None,None,0.0084451417699883,[8500|0|0|0],start
2400,1.2777475118637085,-0.3233271539211273,0.0,0.5206271409988403,0.6978625059127808,3.882348775863648,4.0703125,2,C1,0,None,None,0.0085168000396452,[8600|0|0|0],start
2500,1.2779054641723633,-0.3235693275928497,0.0,0.5278342962265015,0.6987054347991943,3.8738815784454346,4.0703125,2,C1,0,None,None,0.00880593153064,[8700|0|0|0],start
2600,1.2777912616729736,-0.3233550786972046,0.0,0.5168522596359253,0.7061466574668884,3.8636436462402335,4.0703125,2,C1,0,None,None,0.0090487170329913,[8800|0|0|0],start
2700,1.2783504724502563,-0.3229737877845764,0.0,0.540684163570404,0.7389782667160034,3.846071720123291,4.0703125,2,C1,0,None,None,0.0097255474796188,[8900|0|0|0],start
2800,1.2785526514053345,-0.3231820464134216,0.0,0.572691023349762,0.7570136785507202,3.858752727508545,4.0703125,2,C1,0,None,None,0.0100158025163795,[9000|0|0|0],start
2900,1.2784184217453003,-0.3230229616165161,0.0,0.589188277721405,0.7721855044364929,3.856993198394776,4.0703125,2,C1,0,None,None,0.0102239504787509,[9100|0|0|0],start
3000,1.278611421585083,-0.3232768774032593,0.0,0.6065937876701355,0.7792865037918091,3.854340791702272,4.0703125,2,C1,0,None,None,0.0105428896029008,[9200|0|0|0],start
3100,1.278478980064392,-0.3232004642486572,0.0,0.6062868237495422,0.7831140756607056,3.863934278488159,4.0703125,2,C1,0,None,None,0.0106957939082658,[9300|0|0|0],start
3200,1.278362274169922,-0.3230356276035309,0.0,0.6118449568748474,0.798292338848114,3.861951351165772,4.0703125,2,C1,0,None,None,0.0108977626815466,[9400|0|0|0],start
3300,1.278654932975769,-0.3231927752494812,0.0,0.6280510425567627,0.8038151264190674,3.8667538166046143,4.0703125,2,C1,0,None,None,0.0112299441970882,[9500|0|0|0],start
3400,1.2785768508911133,-0.3232229948043823,0.0,0.632085382938385,0.8107274174690247,3.8634519577026367,4.0703125,2,C1,0,None,None,0.0113136701395589,[9600|0|0|0],start
3500,1.27853262424469,-0.3234434425830841,0.0,0.6306086778640747,0.8159307837486267,3.875122547149658,4.0703125,2,C1,0,None,None,0.0115385105705059,[9700|0|0|0],start
3600,1.278524398803711,-0.3233226537704468,0.0,0.6227350234985352,0.8094922304153442,3.855181455612183,4.0703125,2,C1,0,None,None,0.0116595791260339,[9800|0|0|0],start
3700,1.2784204483032229,-0.3232444524765014,0.0,0.6187009811401367,0.8148084878921509,3.845669031143189,4.0703125,2,C1,0,None,None,0.0117896604426264,[9900|0|0|0],start
3800,1.278421401977539,-0.3229534327983856,0.0,0.6085534691810608,0.8097688555717468,3.840088367462158,4.0703125,2,C1,0,None,None,0.012080681683338,[10000|0|0|0],start
3900,1.278453707695007,-0.3232010006904602,0.0,0.618798553943634,0.805366039276123,3.856103420257568,4.0703125,2,C1,0,None,None,0.0123303485024538,[10100|0|0|0],start
4000,1.2783515453338623,-0.3231199979782104,0.0,0.6164138913154602,0.8010668754577637,3.848286628723145,4.0703125,2,C1,0,None,None,0.0124607271334732,[10200|0|0|0],start
4100,1.278478980064392,-0.323253720998764,0.0,0.6225714683532715,0.8004547953605652,3.843388557434082,4.0703125,2,C1,0,None,None,0.0126454470749283,[10300|0|0|0],start
4200,1.2785050868988037,-0.3233783841133117,0.0,0.6340410113334656,0.8038080930709839,3.871597290039064,4.0703125,2,C1,0,None,None,0.0127728144920009,[10400|0|0|0],start
4300,1.2785362005233765,-0.3232923746109009,0.0,0.6291620135307312,0.7991006374359131,3.85058856010437,4.0703125,2,C1,0,None,None,0.0128642786496749,[10500|0|0|0],start
4400,1.2786439657211304,-0.3234456479549408,0.0,0.627037763595581,0.7986308336257935,3.850870370864868,4.0703125,2,C1,0,None,None,0.0130516447507714,[10600|0|0|0],start
4500,1.2785329818725586,-0.3232680559158325,0.0,0.6225591897964478,0.8000223636627197,3.854434013366699,4.0703125,2,C1,0,None,None,0.013261063821055,[10700|0|0|0],start
4600,1.278727650642395,-0.3231940269470215,0.0,0.4773864448070526,0.6600175499916077,3.859707355499268,4.0703125,2,C1,0,None,None,0.0134693334015819,[10800|0|0|0],start
4700,1.278625249862671,-0.3228647410869598,0.0,0.4958553314208984,0.6784467697143555,3.8411402702331534,4.0703125,2,C1,0,None,None,0.0138141740855574,[10900|0|0|0],start
4800,1.2784948348999023,-0.3229301571846008,0.0,0.5181674361228943,0.7002257704734802,3.857658624649048,4.0703125,2,C1,0,None,None,0.0139600758619156,[11000|0|0|0],start
4900,1.2785091400146484,-0.3232463002204895,0.0,0.547806441783905,0.7262746691703796,3.862046957015991,4.0703125,2,C1,0,None,None,0.0142765423774411,[11100|0|0|0],start
5000,1.2785934209823608,-0.3233082890510559,0.0,0.5536614656448364,0.7278439998626709,3.8711366653442383,4.0703125,2,C1,0,None,None,0.0143811650166428,[11200|0|0|0],start
5100,1.278440237045288,-0.32296022772789,0.0,0.5572574138641357,0.743004322052002,3.852842092514038,4.0703125,2,C1,0,None,None,0.0147614438659904,[11300|0|0|0],start
5200,1.278584122657776,-0.3232416808605194,0.0,0.5679699778556824,0.7353401780128479,3.871406555175781,4.0703125,2,C1,0,None,None,0.0150775434315515,[11400|0|0|0],start
5300,1.2784947156906128,-0.3232463002204895,0.0,0.5671942234039307,0.7334474325180054,3.86540412902832,4.0703125,2,C1,0,None,None,0.0151670696526483,[11500|0|0|0],start
5400,1.2782807350158691,-0.322974294424057,0.0,0.5640764832496643,0.7400932908058167,3.8541572093963614,4.0703125,2,C1,0,None,None,0.0155131547324432,[11600|0|0|0],start
5500,1.2843990325927734,-0.3132012486457824,0.0,0.2695381343364715,0.5143627524375916,3.897266387939453,4.0703125,2,C1,0,None,None,0.0270433754165326,[11700|0|0|0],start
5600,1.2776365280151367,-0.3230930268764496,0.0,0.4644173383712768,0.6721705198287964,3.87135648727417,4.0703125,2,C1,0,None,None,0.0390258102578852,[11800|0|0|0],start
5700,1.2778621912002563,-0.3231383264064789,0.0,0.4841956198215484,0.6775239109992981,3.8732001781463614,4.0703125,2,C1,0,None,None,0.0392559752433612,[11900|0|0|0],start
5800,1.2847203016281128,-0.3136157989501953,0.0,0.3281088769435882,0.5349117517471313,3.930256605148315,4.0703125,2,C1,0,None,None,0.0509910597252194,[12000|0|0|0],start
5900,1.2847435474395752,-0.3132140934467315,0.0,0.3264578282833099,0.544700026512146,3.944128036499024,4.0703125,2,C1,0,None,None,0.0513934372584685,[12100|0|0|0],start
6000,1.2786496877670288,-0.3232132494449615,0.0,0.522983729839325,0.7249729633331299,3.9065499305725098,4.0703125,2,C1,0,None,None,0.0631031873149653,[12200|0|0|0],start
6100,1.2847068309783936,-0.3132493495941162,0.0,0.3311196565628052,0.5631531476974487,3.9380862712860094,4.0703125,2,C1,0,None,None,0.0747637312182597,[12300|0|0|0],start
6200,1.284902572631836,-0.3133275508880615,0.0,0.3332326710224151,0.5649431347846985,3.9341399669647217,4.0703125,2,C1,0,None,None,0.0749745160309647,[12400|0|0|0],start
6300,1.2847785949707031,-0.3131409883499145,0.0,0.3157317340373993,0.5583658218383789,3.928480863571167,4.0703125,2,C1,0,None,None,0.0751985161227053,[12500|0|0|0],start
6400,1.284670114517212,-0.3133268654346466,0.0,0.3301822245121002,0.5690004229545593,3.914326906204224,4.0703125,2,C1,0,None,None,0.0754137329887223,[12600|0|0|0],start
6500,1.284551739692688,-0.3131662011146545,0.0,0.3219940960407257,0.5723181962966919,3.926234245300293,4.0703125,2,C1,0,None,None,0.0756132965695671,[12700|0|0|0],start
6600,1.2848068475723269,-0.312706857919693,0.0,0.2825022637844085,0.5385268330574036,3.918601751327514,4.0703125,2,C1,0,None,None,0.0761387261090977,[12800|0|0|0],start
6700,1.2785859107971191,-0.3229817152023315,0.0,0.5752865076065063,0.7894235253334045,3.869455575942993,4.0703125,2,C1,0,None,None,0.0881500851720731,[12900|0|0|0],start
6800,1.2785526514053345,-0.3232451379299164,0.0,0.602699339389801,0.8112221360206604,3.860140085220337,4.0703125,2,C1,0,None,None,0.088415599240533,[13000|0|0|0],start
6900,1.2844336032867432,-0.3129442036151886,0.0,0.3496003448963165,0.6049612164497375,3.8965446949005127,4.0703125,2,C1,0,None,None,0.1002770849311108,[13100|0|0|0],start
7000,1.284461259841919,-0.3133858144283294,0.0,0.3777352571487427,0.6175508499145508,3.894186973571777,4.0703125,2,C1,0,None,None,0.1007195609138794,[13200|0|0|0],start
7101,1.284806489944458,-0.3129883706569671,0.0,0.3740053176879883,0.6083510518074036,3.901830673217773,4.0703125,2,C1,0,None,None,0.101246006898852,[13300|0|0|0],start
7201,1.2848504781723022,-0.3130057752132416,0.0,0.3798869252204895,0.6084446310997009,3.918858051300049,4.0703125,2,C1,0,None,None,0.1012933131644834,[13400|0|0|0],start
7300,1.2849923372268677,-0.3131638765335083,0.0,0.3785971105098724,0.6036570072174072,3.919089317321777,4.0703125,2,C1,0,None,None,0.1015057278975701,[13500|0|0|0],start
7401,1.284427523612976,-0.3134373724460602,0.0,0.3833507597446441,0.61781907081604,3.9270174503326416,4.0703125,2,C1,0,None,None,0.1021332742565109,[13600|0|0|0],start
7501,1.284404158592224,-0.3131707012653351,0.0,0.3743256330490112,0.6117269396781921,3.913556098937988,4.0703125,2,C1,0,None,None,0.1024009670708038,[13700|0|0|0],start
7601,1.2843433618545532,-0.3131764233112335,0.0,0.3743879497051239,0.6113556027412415,3.89163875579834,4.0703125,2,C1,0,None,None,0.1024620324875359,[13800|0|0|0],start
7701,1.2845518589019775,-0.3132757246494293,0.0,0.372564285993576,0.6030221581459045,3.886194229125977,4.0703125,2,C1,0,None,None,0.1026929692203268,[13900|0|0|0],start
7801,1.2846800088882446,-0.3130562901496887,0.0,0.3698008358478546,0.5950496196746826,3.8845372200012207,4.0703125,2,C1,0,None,None,0.1029470832078534,[14000|0|0|0],start
7901,1.285069465637207,-0.3131633400917053,0.0,0.3711140155792236,0.587541937828064,3.901677370071411,4.0703125,2,C1,0,None,None,0.1033509844945537,[14100|0|0|0],start
8001,1.2847561836242676,-0.313249409198761,0.0,0.3673887848854065,0.5907118320465088,3.903379917144776,4.0703125,2,C1,0,None,None,0.1036758744925849,[14200|0|0|0],start
8102,1.2844818830490112,-0.3134154677391052,0.0,0.3742746710777282,0.5965781807899475,3.926658153533936,4.0703125,2,C1,0,None,None,0.1039965242148789,[14300|0|0|0],start
8201,1.2847824096679688,-0.3132749795913696,0.0,0.3627187609672546,0.5891215801239014,3.926642179489136,4.0703125,2,C1,0,None,None,0.1043282668385441,[14400|0|0|0],start
8301,1.2844992876052856,-0.313378095626831,0.0,0.3617566227912903,0.5945238471031189,3.898634195327759,4.0703125,2,C1,0,None,None,0.1046295823196386,[14500|0|0|0],start
8402,1.284312129020691,-0.3133201897144317,0.0,0.3568964600563049,0.5928010940551758,3.891806125640869,4.0703125,2,C1,0,None,None,0.1048254941122349,[14600|0|0|0],start
8500,1.2844113111495972,-0.3119288682937622,0.0,0.1384957730770111,0.4154073894023895,3.895456790924072,4.0703125,2,C1,0,None,None,0.1062203462156165,[14700|0|0|0],start
8602,1.2844703197479248,-0.312180757522583,0.0,0.1801386475563049,0.4365519881248474,3.8987064361572266,4.0703125,2,C1,0,None,None,0.1064790549287913,[14800|0|0|0],start
8702,1.2846311330795288,-0.3128437995910644,0.0,0.1984775960445404,0.4488786160945892,3.9027912616729736,4.0703125,2,C1,0,None,None,0.1071613200621505,[14900|0|0|0],start
8800,1.2849934101104736,-0.3128299713134765,0.0,0.2195010781288147,0.4516677260398865,3.88918709754944,4.0703125,2,C1,0,None,None,0.1075238609128297,[15000|0|0|0],start
8900,1.2848575115203855,-0.3128910064697265,0.0,0.2271434813737869,0.4627391993999481,3.888761997222901,4.0703125,2,C1,0,None,None,0.1076728364715177,[15100|0|0|0],start
9000,1.2847901582717896,-0.3127820491790771,0.0,0.2269895523786544,0.4758664965629577,3.9074456691741934,4.0703125,2,C1,0,None,None,0.1078009307777225,[15200|0|0|0],start
9102,1.284576654434204,-0.3132834732532501,0.0,0.2401562184095382,0.4838784337043762,3.917824029922485,4.0703125,2,C1,0,None,None,0.1083459170076623,[15300|0|0|0],start
9200,1.2848317623138428,-0.3129206299781799,0.0,0.2249297201633453,0.4718257486820221,3.920130968093872,4.0703125,2,C1,0,None,None,0.1087894655084122,[15400|0|0|0],start
9300,1.2848215103149414,-0.3127427995204925,0.0,0.2193701416254043,0.4700629711151123,3.931995391845703,4.0703125,2,C1,0,None,None,0.1089675912369378,[15500|0|0|0],start
9400,1.285014271736145,-0.3129677474498749,0.0,0.2191386669874191,0.4697369933128357,3.917262315750122,4.0703125,2,C1,0,None,None,0.1092638319101038,[15600|0|0|0],start
9500,1.2849485874176023,-0.3132325708866119,0.0,0.2255304008722305,0.4764393866062164,3.926090240478516,4.0703125,2,C1,0,None,None,0.1095366796375043,[15700|0|0|0],start
9600,1.2847375869750977,-0.3129816949367523,0.0,0.2212908864021301,0.4798318743705749,3.938546895980835,4.0703125,2,C1,0,None,None,0.1098644904502532,[15800|0|0|0],start
9700,1.284816026687622,-0.3129200339317322,0.0,0.2249317020177841,0.4832179844379425,3.935844659805298,4.0703125,2,C1,0,None,None,0.1099642645352703,[15900|0|0|0],start
9800,1.2847684621810913,-0.3129580914974212,0.0,0.2231242805719375,0.4760730266571045,3.9202632904052734,4.0703125,2,C1,0,None,None,0.1100251805478425,[16000|0|0|0],start
9900,1.2847949266433716,-0.31295907497406,0.0,0.2180836796760559,0.4710082113742828,3.92401385307312,4.0703125,2,C1,0,None,None,0.110051663277877,[16100|0|0|0],start
10000,1.284688949584961,-0.31308114528656,0.0,0.2229635119438171,0.4775209128856659,3.9210824966430655,4.0703125,2,C1,0,None,None,0.1102133181513057,[16200|0|0|0],start
10100,1.284709095954895,-0.3130064904689789,0.0,0.219984158873558,0.4759173095226288,3.9076640605926514,4.0703125,2,C1,0,None,None,0.1102906435546967,[16300|0|0|0],start
10200,1.2850223779678345,-0.3133402466773987,0.0,0.226822942495346,0.4712311029434204,3.910111904144287,4.0703125,2,C1,0,None,None,0.1107483976658636,[16400|0|0|0],start
10300,1.2847950458526611,-0.3132085502147674,0.0,0.2240146845579147,0.483150839805603,3.922320127487183,4.0703125,2,C1,0,None,None,0.1110111215681998,[16500|0|0|0],start
10400,1.2847225666046145,-0.3132576942443847,0.0,0.2233433574438095,0.4853898882865906,3.915891408920288,4.0703125,2,C1,0,None,None,0.1110986908381776,[16600|0|0|0],start
10500,1.2848275899887085,-0.3131525218486786,0.0,0.2188329547643661,0.4794607758522033,3.912520885467529,4.0703125,2,C1,0,None,None,0.1112473217367994,[16700|0|0|0],start
10600,1.2850311994552612,-0.3129307925701141,0.0,0.213944062590599,0.4751578271389007,3.922085762023926,4.0703125,2,C1,0,None,None,0.1115483544390804,[16800|0|0|0],start
10700,1.2846695184707642,-0.3129579126834869,0.0,0.2128437161445617,0.4879493713378906,3.91839861869812,4.0703125,2,C1,0,None,None,0.1119110507791448,[16900|0|0|0],start
10800,1.2845817804336548,-0.3131864368915558,0.0,0.2308103293180465,0.4915280938148498,3.915001392364502,4.0703125,2,C1,0,None,None,0.1121558390076799,[17000|0|0|0],start
10900,1.2847665548324585,-0.3129683136940002,0.0,0.2311915159225464,0.4854007065296173,3.934303045272827,4.0703125,2,C1,0,None,None,0.1124417048989036,[17100|0|0|0],start
11000,1.2848293781280518,-0.312971830368042,0.0,0.2271175980567932,0.4876175820827484,3.922029256820679,4.0703125,2,C1,0,None,None,0.1125046265443487,[17200|0|0|0],start
11100,1.2850080728530884,-0.3134608864784241,0.0,0.2334369868040084,0.4905085265636444,3.918247938156128,4.0703125,2,C1,0,None,None,0.1130253065649544,[17300|0|0|0],start
11200,1.284620761871338,-0.3129382729530334,0.0,0.216203510761261,0.5005464553833008,3.918285608291626,4.0703125,2,C1,0,None,None,0.1136757946075085,[17400|0|0|0],start
11300,1.2846676111221311,-0.3128180205821991,0.0,0.2105040997266769,0.4931994974613189,3.897931098937988,4.0703125,2,C1,0,None,None,0.113804850738673,[17500|0|0|0],start
11400,1.2847346067428589,-0.3130055665969848,0.0,0.2210603952407837,0.4923223555088043,3.904532909393311,4.0703125,2,C1,0,None,None,0.1140040037473339,[17600|0|0|0],start
11500,1.2845946550369265,-0.3130440413951874,0.0,0.256202757358551,0.5120692253112793,3.903983592987061,4.0703125,2,C1,0,None,None,0.1141491477795575,[17700|0|0|0],start
11600,1.2846989631652832,-0.3132853507995605,0.0,0.2821612954139709,0.5237441658973694,3.897903442382813,4.0703125,2,C1,0,None,None,0.1144120363762675,[17800|0|0|0],start
11700,1.2845972776412964,-0.3136079311370849,0.0,0.3091223239898681,0.5407510995864868,3.8955564498901367,4.0703125,2,C1,0,None,None,0.1147502641396842,[17900|0|0|0],start
11800,1.2846351861953735,-0.3132150769233703,0.0,0.3058644533157348,0.5450975298881531,3.903875827789306,4.0703125,2,C1,0,None,None,0.1151449431126553,[18000|0|0|0],start
11900,1.2847466468811035,-0.3130718171596527,0.0,0.2879541516304016,0.5265502333641052,3.8753821849823,4.0703125,2,C1,0,None,None,0.1153264557688637,[18100|0|0|0],start
12000,1.2852745056152344,-0.313115507364273,0.0,0.3173266947269439,0.5559780597686768,3.9093077182769775,4.0703125,2,C1,0,None,None,0.1158561195085873,[18200|0|0|0],start
12100,1.2852168083190918,-0.3131892681121826,0.0,0.3440982401371002,0.5657770037651062,3.886727094650269,4.0703125,2,C1,0,None,None,0.1159497657894229,[18300|0|0|0],start
12200,1.2853407859802246,-0.3134401738643646,0.0,0.3646346628665924,0.5773199796676636,3.8994529247283936,4.0703125,2,C1,0,None,None,0.1162296303226135,[18400|0|0|0],start
12300,1.285348892211914,-0.3135613799095154,0.0,0.3758208453655243,0.5827092528343201,3.8917856216430655,4.0703125,2,C1,0,None,None,0.1163511071367522,[18500|0|0|0],start
12400,1.2851945161819458,-0.3137831687927246,0.0,0.3864571154117584,0.59465491771698,3.88500714302063,4.0703125,2,C1,0,None,None,0.1166213334629012,[18600|0|0|0],start
12500,1.2852288484573364,-0.3132286071777344,0.0,0.3827020823955536,0.6045059561729431,3.8939499855041504,4.0703125,2,C1,0,None,None,0.117176956797503,[18700|0|0|0],start
12600,1.2848738431930542,-0.3136362433433532,0.0,0.3969781100749969,0.6157269477844238,3.8914756774902335,4.0703125,2,C1,0,None,None,0.1177175083502605,[18800|0|0|0],start
12700,1.2851630449295044,-0.3134099841117859,0.0,0.3860907852649688,0.603448748588562,3.904372453689575,4.0703125,2,C1,0,None,None,0.1180847016021528,[18900|0|0|0],start
12800,1.285126805305481,-0.3134460151195526,0.0,0.3838149011135101,0.6012051105499268,3.920881509780884,4.0703125,2,C1,0,None,None,0.1181358048688786,[19000|0|0|0],start
12900,1.2846410274505615,-0.3130357563495636,0.0,0.3001825213432312,0.5488230586051941,3.918550491333008,4.0703125,2,C1,0,None,None,0.1187716447722214,[19100|0|0|0],start
13000,1.2847654819488523,-0.3131848573684692,0.0,0.2840595841407776,0.5255657434463501,3.905297517776489,4.0703125,2,C1,0,None,None,0.11896586123904,[19200|0|0|0],start
13100,1.2846741676330566,-0.313157171010971,0.0,0.2673205435276031,0.5185458660125732,3.903966903686523,4.0703125,2,C1,0,None,None,0.1190612805172848,[19300|0|0|0],start
13200,1.2847331762313845,-0.3131483495235443,0.0,0.2565438151359558,0.5031160712242126,3.907662868499756,4.0703125,2,C1,0,None,None,0.1191209448560227,[19400|0|0|0],start
13300,1.2846742868423462,-0.3133755028247833,0.0,0.2582246363162994,0.4992024302482605,3.9229953289031982,4.0703125,2,C1,0,None,None,0.1193556075552424,[19500|0|0|0],start
13400,1.284727692604065,-0.312994122505188,0.0,0.2383690029382705,0.4869784712791443,3.935847997665405,4.0703125,2,C1,0,None,None,0.1197407090010452,[19600|0|0|0],start
13500,1.2849373817443848,-0.3131396174430847,0.0,0.2356776446104049,0.4801343083381653,3.942739248275757,4.0703125,2,C1,0,None,None,0.1199959310857512,[19700|0|0|0],start
13600,1.2848869562149048,-0.3130402863025665,0.0,0.2343073338270187,0.4815729856491089,3.948763608932495,4.0703125,2,C1,0,None,None,0.1201073286148979,[19800|0|0|0],start
13700,1.2847925424575806,-0.3131565749645233,0.0,0.233104333281517,0.4737385213375091,3.922708988189697,4.0703125,2,C1,0,None,None,0.1202571185026466,[19900|0|0|0],start
13800,1.284660816192627,-0.3128953278064728,0.0,0.227319061756134,0.474806010723114,3.9214718341827393,4.0703125,2,C1,0,None,None,0.1205496965033031,[20000|0|0|0],start
13900,1.2850213050842283,-0.3131250739097595,0.0,0.2309057116508484,0.4643394351005554,3.920880556106568,4.0703125,2,C1,0,None,None,0.1209771722487477,[20100|0|0|0],start
14000,1.2850275039672852,-0.3129728734493255,0.0,0.2247221022844314,0.4672510325908661,3.91267204284668,4.0703125,2,C1,0,None,None,0.1211294988922066,[20200|0|0|0],start
14100,1.2849103212356567,-0.3130749464035034,0.0,0.2291353046894073,0.4723270237445831,3.8986330032348633,4.0703125,2,C1,0,None,None,0.1212849037845572,[20300|0|0|0],start
14200,1.2847074270248413,-0.3128746449947357,0.0,0.2117446660995483,0.4729465544223785,3.916836261749268,4.0703125,2,C1,0,None,None,0.1215700120361683,[20400|0|0|0],start
14300,1.284879446029663,-0.3131733238697052,0.0,0.2183312624692917,0.4696922302246094,3.912276744842529,4.0703125,2,C1,0,None,None,0.1219146852268474,[20500|0|0|0],start
14400,1.2847940921783447,-0.3129769563674927,0.0,0.2326633930206298,0.4785211682319641,3.911932468414306,4.0703125,2,C1,0,None,None,0.1221288007934466,[20600|0|0|0],start
14500,1.284551024436951,-0.3131373524665832,0.0,0.2701696753501892,0.5125391483306885,3.907551765441896,4.0703125,2,C1,0,None,None,0.1224200203592552,[20700|0|0|0],start
14600,1.2853188514709473,-0.31373992562294,0.0,0.2938734591007232,0.526118814945221,3.9058008193969727,4.0703125,2,C1,0,None,None,0.1233960596837178,[20800|0|0|0],start
14700,1.2854276895523071,-0.3134034872055053,0.0,0.2974610030651092,0.5356025099754333,3.916069507598877,4.0703125,2,C1,0,None,None,0.1237496647412043,[20900|0|0|0],start
14800,1.2847023010253906,-0.3131836354732513,0.0,0.309121161699295,0.5454155206680298,3.914234399795532,4.0703125,2,C1,0,None,None,0.1245076378932072,[21000|0|0|0],start
14900,1.2850347757339478,-0.3139193654060364,0.0,0.3251882791519165,0.5617644786834717,3.901941299438477,4.0703125,2,C1,0,None,None,0.1253150027214145,[21100|0|0|0],start
15000,1.2852283716201782,-0.3135474622249603,0.0,0.3196546733379364,0.5569252967834473,3.9253416061401367,4.0703125,2,C1,0,None,None,0.1257342775039376,[21200|0|0|0],start
15100,1.284430980682373,-0.3137339651584625,0.0,0.3310071229934692,0.5627411603927612,3.912329912185669,4.0703125,2,C1,0,None,None,0.1265531887640255,[21300|0|0|0],start
15200,1.285219430923462,-0.3139397203922272,0.0,0.328214943408966,0.5573667883872986,3.913829326629639,4.0703125,2,C1,0,None,None,0.1273680439652083,[21400|0|0|0],start
15300,1.2850226163864136,-0.313769519329071,0.0,0.3154007792472839,0.5477979183197021,3.9251668453216553,4.0703125,2,C1,0,None,None,0.1276282445876,[21500|0|0|0],start
15400,1.2853070497512815,-0.3135557174682617,0.0,0.316643625497818,0.550108790397644,3.904847860336304,4.0703125,2,C1,0,None,None,0.1279840726004597,[21600|0|0|0],start
15500,1.2852275371551514,-0.313354343175888,0.0,0.3138220012187958,0.5510132312774658,3.892757177352905,4.0703125,2,C1,0,None,None,0.1282005763153755,[21700|0|0|0],start
15600,1.2851076126098633,-0.3134355247020721,0.0,0.3151283264160156,0.5642666220664978,3.898831367492676,4.0703125,2,C1,0,None,None,0.1283453946041243,[21800|0|0|0],start
15700,1.28533136844635,-0.3135775625705719,0.0,0.3273696899414062,0.5598693490028381,3.904355764389038,4.0703125,2,C1,0,None,None,0.12861042560316,[21900|0|0|0],start
15800,1.285385251045227,-0.3135108351707458,0.0,0.2956753373146057,0.5307286381721497,3.916294813156128,4.0703125,2,C1,0,None,None,0.1286961920321943,[22000|0|0|0],start
15900,1.285547375679016,-0.3135537207126617,0.0,0.3216824829578399,0.5377843379974365,3.925838947296143,4.0703125,2,C1,0,None,None,0.1288638928568392,[22100|0|0|0],start
16000,1.2850135564804075,-0.3135169148445129,0.0,0.3303930163383484,0.5673202872276306,3.932177782058716,4.0703125,2,C1,0,None,None,0.1293989794000573,[22200|0|0|0],start
16100,1.285381317138672,-0.3132405281066894,0.0,0.3399681150913238,0.5697277188301086,3.930735349655152,4.0703125,2,C1,0,None,None,0.129859020192392,[22300|0|0|0],start
16200,1.2853659391403198,-0.3134301304817199,0.0,0.3610603511333465,0.578744113445282,3.921395778656006,4.0703125,2,C1,0,None,None,0.1300492451735342,[22400|0|0|0],start
16300,1.2850837707519531,-0.3137004673480987,0.0,0.3708696365356445,0.601017951965332,3.92606520652771,4.0703125,2,C1,0,None,None,0.1304400149532216,[22500|0|0|0],start
16400,1.2851994037628174,-0.3137186467647552,0.0,0.3702162802219391,0.6044244766235352,3.929965972900391,4.0703125,2,C1,0,None,None,0.1305570682931633,[22600|0|0|0],start
16500,1.2855113744735718,-0.3136187791824341,0.0,0.3680844902992248,0.6075465679168701,3.9318478107452393,4.0703125,2,C1,0,None,None,0.1308846339482117,[22700|0|0|0],start
16600,1.2852728366851809,-0.313323438167572,0.0,0.3645302951335907,0.6174280047416687,3.915240049362183,4.0703125,2,C1,0,None,None,0.1312642740298023,[22800|0|0|0],start
16700,1.28535258769989,-0.3135976791381836,0.0,0.3814513087272644,0.612305223941803,3.912372350692749,4.0703125,2,C1,0,None,None,0.1315498757355205,[22900|0|0|0],start
16800,1.2850658893585205,-0.3133488595485687,0.0,0.3777403235435486,0.6160696744918823,3.9118518829345694,4.0703125,2,C1,0,None,None,0.1319294901808727,[23000|0|0|0],start
16900,1.2852137088775637,-0.3135029673576355,0.0,0.3766680061817169,0.6051027178764343,3.9079182147979736,4.0703125,2,C1,0,None,None,0.1321430313408993,[23100|0|0|0],start
17000,1.2854502201080322,-0.3134115040302276,0.0,0.3779838979244232,0.6040793657302856,3.915494918823242,4.0703125,2,C1,0,None,None,0.1323966119048199,[23200|0|0|0],start
17100,1.285176157951355,-0.3137027025222778,0.0,0.3786026835441589,0.6149411797523499,3.9082729816436768,4.0703125,2,C1,0,None,None,0.1327964951721553,[23300|0|0|0],start
17200,1.285226821899414,-0.3136493265628814,0.0,0.3750298321247101,0.6112506985664368,3.895582914352417,4.0703125,2,C1,0,None,None,0.1328700874861182,[23400|0|0|0],start
17300,1.2855390310287476,-0.3139196932315826,0.0,0.3845963478088379,0.6025886535644531,3.9311561584472656,4.0703125,2,C1,0,None,None,0.1332830919364378,[23500|0|0|0],start
17400,1.2849236726760864,-0.3133803308010101,0.0,0.3701827824115753,0.6102923154830933,3.9138846397399902,4.0703125,2,C1,0,None,None,0.1341013692327762,[23600|0|0|0],start
17500,1.2851589918136597,-0.3137716650962829,0.0,0.3725520670413971,0.5843426585197449,3.934548139572144,4.0703125,2,C1,0,None,None,0.134558006536514,[23700|0|0|0],start
17600,1.2852988243103027,-0.3134135901927948,0.0,0.3670136630535126,0.5815662741661072,3.930135488510132,4.0703125,2,C1,0,None,None,0.1349424161664993,[23800|0|0|0],start
17700,1.2849807739257812,-0.3124872148036957,0.0,0.1277536153793335,0.4042769968509674,3.924716472625733,4.0703125,2,C1,0,None,None,0.1359218687731234,[23900|0|0|0],start
17800,1.285049319267273,-0.3129280209541321,0.0,0.1855366080999374,0.440498024225235,3.935865879058838,4.0703125,2,C1,0,None,None,0.1363679724898786,[24000|0|0|0],start
17900,1.285026788711548,-0.3130587637424469,0.0,0.2101241946220398,0.4598873853683471,3.92997670173645,4.0703125,2,C1,0,None,None,0.1365006423909021,[24100|0|0|0],start
18000,1.2847481966018677,-0.3131578266620636,0.0,0.2291150838136673,0.480080634355545,3.916857481002808,4.0703125,2,C1,0,None,None,0.1367963230051114,[24200|0|0|0],start
18100,1.2848509550094604,-0.3131219446659088,0.0,0.2396660149097442,0.4887541234493255,3.9135217666625977,4.0703125,2,C1,0,None,None,0.1369051660479715,[24300|0|0|0],start
18200,1.2847312688827517,-0.3131531774997711,0.0,0.2460838258266449,0.4975550770759582,3.9206576347351074,4.0703125,2,C1,0,None,None,0.1370288602630247,[24400|0|0|0],start
18300,1.2847639322280884,-0.313102662563324,0.0,0.2471995055675506,0.498330146074295,3.92235803604126,4.0703125,2,C1,0,None,None,0.1370890155033022,[24500|0|0|0],start
18400,1.284772872924805,-0.3129830360412597,0.0,0.2408096492290496,0.4888708293437958,3.939661026000977,4.0703125,2,C1,0,None,None,0.1372089756668523,[24600|0|0|0],start
18500,1.28524649143219,-0.3133443593978882,0.0,0.2452224344015121,0.4974503219127655,3.911751508712769,4.0703125,2,C1,0,None,None,0.1378046845375122,[24700|0|0|0],start
18600,1.285294771194458,-0.3134069740772247,0.0,0.2469622641801834,0.4945224821567535,3.903864860534668,4.0703125,2,C1,0,None,None,0.1378837511772098,[24800|0|0|0],start
18700,1.2848355770111084,-0.3130679130554199,0.0,0.2456411719322204,0.4977369904518127,3.912144660949707,4.0703125,2,C1,0,None,None,0.1384545590910735,[24900|0|0|0],start
18800,1.2852309942245483,-0.3132437765598297,0.0,0.2387546449899673,0.5013830661773682,3.9185502529144287,4.0703125,2,C1,0,None,None,0.1388873208556368,[25000|0|0|0],start
18900,1.285383224487305,-0.3134295642375946,0.0,0.2262367755174636,0.4801937043666839,3.921019315719605,4.0703125,2,C1,0,None,None,0.1391275106016881,[25100|0|0|0],start
19000,1.285281538963318,-0.3132884800434112,0.0,0.2292372435331344,0.4852080643177032,3.912421464920044,4.0703125,2,C1,0,None,None,0.1393014206233569,[25200|0|0|0],start
19100,1.2853295803070068,-0.3133191764354706,0.0,0.2344151139259338,0.483657568693161,3.908436298370361,4.06640625,2,C1,0,None,None,0.1393584314923986,[25300|0|0|0],start
19200,1.2850617170333862,-0.3133581876754761,0.0,0.2342302054166793,0.4938119649887085,3.896297454833984,4.0703125,2,C1,0,None,None,0.1396291206318215,[25400|0|0|0],start
19300,1.2851017713546753,-0.3136793076992035,0.0,0.236163780093193,0.4887132942676544,3.906070947647095,4.06640625,2,C1,0,None,None,0.1399527290654146,[25500|0|0|0],start
19400,1.285411715507507,-0.3134939670562744,0.0,0.2277034223079681,0.4805001616477966,3.9161012172698975,4.06640625,2,C1,0,None,None,0.140313861356682,[25600|0|0|0],start
19500,1.285159945487976,-0.3137030005455017,0.0,0.2305355221033096,0.4917823374271393,3.90254282951355,4.0703125,2,C1,0,None,None,0.140641096963475,[25700|0|0|0],start
19600,1.2853161096572876,-0.3132530748844147,0.0,0.2188424170017242,0.4793292582035064,3.8907666206359854,4.0703125,2,C1,0,None,None,0.1411173535626748,[25800|0|0|0],start
19700,1.2852156162261963,-0.3134651184082031,0.0,0.2279108315706253,0.4783775210380554,3.903757333755493,4.0703125,2,C1,0,None,None,0.1413520051888638,[25900|0|0|0],start
19800,1.285407781600952,-0.313464492559433,0.0,0.2247930169105529,0.4744178056716919,3.897641658782959,4.0703125,2,C1,0,None,None,0.1415441715827563,[26000|0|0|0],start
19900,1.285187005996704,-0.3137548267841339,0.0,0.2319389581680297,0.4829996228218078,3.898757934570313,4.06640625,2,C1,0,None,None,0.1419089123529804,[26100|0|0|0],start
20000,1.285256028175354,-0.3136870265007019,0.0,0.381273865699768,0.6123716831207275,3.901198148727417,4.06640625,2,C1,0,None,None,0.1420056643016896,[26200|0|0|0],start
20100,1.284989595413208,-0.313785970211029,0.0,0.3630720674991607,0.595179557800293,3.9000980854034415,4.0703125,2,C1,0,None,None,0.1422898759737899,[26300|0|0|0],start
20200,1.285117745399475,-0.3138989508152008,0.0,0.3513501286506653,0.5734906792640686,3.905517816543579,4.0703125,2,C1,0,None,None,0.1424607181111545,[26400|0|0|0],start
20300,1.2852506637573242,-0.3135904371738434,0.0,0.3196232616901397,0.551956832408905,3.904550313949585,4.0703125,2,C1,0,None,None,0.1427966466106256,[26500|0|0|0],start
20400,1.28500497341156,-0.3134021162986755,0.0,0.2966202199459076,0.542745053768158,3.908337354660034,4.0703125,2,C1,0,None,None,0.1431062083944842,[26600|0|0|0],start
20500,1.2853198051452637,-0.3139333128929138,0.0,0.3073218464851379,0.5376325249671936,3.915959358215332,4.0703125,2,C1,0,None,None,0.1437236942990012,[26700|0|0|0],start
20600,1.2853273153305054,-0.3132466971874237,0.0,0.2685754895210266,0.5240004062652588,3.895931243896485,4.06640625,2,C1,0,None,None,0.1444103510763711,[26800|0|0|0],start
20700,1.285130500793457,-0.3132943212985992,0.0,0.2948680818080902,0.5510287880897522,3.917434692382813,4.0703125,2,C1,0,None,None,0.1446128455650833,[26900|0|0|0],start
20800,1.285970687866211,-0.3136650621891022,0.0,0.3335837423801422,0.5812821984291077,3.9311599731445312,4.0703125,2,C1,0,None,None,0.1455311936064673,[27000|0|0|0],start
20900,1.2859704494476318,-0.3133925199508667,0.0,0.3347715735435486,0.5822588801383972,3.93086290359497,4.06640625,2,C1,0,None,None,0.1458037359489864,[27100|0|0|0],start
21000,1.2857171297073364,-0.3139282464981079,0.0,0.3522767126560211,0.5935788154602051,3.950384378433228,4.0703125,2,C1,0,None,None,0.1463963351594502,[27200|0|0|0],start
21100,1.2851829528808594,-0.3132215440273285,0.0,0.3423294425010681,0.5951699018478394,3.936524152755737,4.0703125,2,C1,0,None,None,0.1472822094531007,[27300|0|0|0],start
21200,1.2859119176864624,-0.3135384917259216,0.0,0.3537893891334533,0.5972350835800171,3.9375150203704834,4.0703125,2,C1,0,None,None,0.1480770965717857,[27400|0|0|0],start
21300,1.2858268022537231,-0.3135879635810852,0.0,0.3580532073974609,0.6001690030097961,3.926093578338623,4.0703125,2,C1,0,None,None,0.1481755450422854,[27500|0|0|0],start
21400,1.285285472869873,-0.3133300542831421,0.0,0.3617614507675171,0.6034402251243591,3.940521955490112,4.0703125,2,C1,0,None,None,0.1487751738506202,[27600|0|0|0],start
21500,1.2856175899505615,-0.3137549161911011,0.0,0.3784784972667694,0.615309476852417,3.94356369972229,4.06640625,2,C1,0,None,None,0.149314441313128,[27700|0|0|0],start
21600,1.2849907875061035,-0.3131968379020691,0.0,0.148040160536766,0.441310167312622,3.945842266082764,4.0703125,2,C1,0,None,None,0.1501536866175935,[27800|0|0|0],start
21700,1.2851715087890625,-0.3136773109436035,0.0,0.200095072388649,0.4687961935997009,3.9471242427825928,4.0703125,2,C1,0,None,None,0.1506670232768685,[27900|0|0|0],start
21800,1.2772674560546875,-0.3233087062835693,0.0,0.4883707761764526,0.7073338031768799,3.875008583068848,4.06640625,2,C1,0,None,None,0.1631264705287531,[28000|0|0|0],start
21900,1.2852946519851685,-0.313493937253952,0.0,0.2228610515594482,0.4913335740566253,3.926457405090332,4.0703125,2,C1,0,None,None,0.1758058066947779,[28100|0|0|0],start
22000,1.2852236032485962,-0.3134614527225494,0.0,0.222539484500885,0.4908813536167145,3.932095766067505,4.06640625,2,C1,0,None,None,0.1758839294683396,[28200|0|0|0],start
22100,1.277120590209961,-0.3233490586280823,0.0,0.5173076391220093,0.7267493605613708,3.870683670043945,4.0703125,2,C1,0,None,None,0.1886676523551759,[28300|0|0|0],start
22200,1.2771507501602173,-0.3234471976757049,0.0,0.5213831663131714,0.7306342124938965,3.870788812637329,4.0703125,2,C1,0,None,None,0.1887703212173871,[28400|0|0|0],start
22300,1.2771061658859253,-0.3232189416885376,0.0,0.5079376697540283,0.7283182144165039,3.873648405075073,4.0703125,2,C1,0,None,None,0.1890028906762415,[28500|0|0|0],start
22400,1.276962161064148,-0.3232909739017486,0.0,0.5125467777252197,0.739093005657196,3.869030475616455,4.06640625,2,C1,0,None,None,0.1891639062917426,[28600|0|0|0],start
22500,1.2770283222198486,-0.3233782351016998,0.0,0.5207709670066833,0.7414243221282959,3.869219064712525,4.06640625,2,C1,0,None,None,0.1892734134400964,[28700|0|0|0],start
22600,1.2768685817718506,-0.3231171071529388,0.0,0.5201480388641357,0.743331253528595,3.854448318481445,4.06640625,2,C1,0,None,None,0.1895795258644616,[28800|0|0|0],start
22700,1.277026891708374,-0.3232841789722442,0.0,0.5213282108306885,0.7369363307952881,3.8664042949676514,4.06640625,2,C1,0,None,None,0.1898096889127732,[28900|0|0|0],start
22800,1.276897668838501,-0.3231257200241089,0.0,0.5138256549835205,0.7418391108512878,3.863625288009644,4.0703125,2,C1,0,None,None,0.1900141584419026,[29000|0|0|0],start
22900,1.2769418954849243,-0.3233438432216644,0.0,0.5194948315620422,0.7453108429908752,3.857100248336792,4.06640625,2,C1,0,None,None,0.1902367201761825,[29100|0|0|0],start
23000,1.2769246101379397,-0.323527455329895,0.0,0.5254299640655518,0.7473935484886169,3.840111970901489,4.06640625,2,C1,0,None,None,0.1904211441158142,[29200|0|0|0],start
23100,1.2763673067092896,-0.3239211738109588,0.0,0.7102510929107666,0.9061561226844788,3.8363893032073975,4.0703125,2,C1,0,None,None,0.1911034939922825,[29300|0|0|0],start
23200,1.277554631233215,-0.3235861659049988,0.0,0.6661911606788635,0.861892819404602,3.850391387939453,4.0703125,2,C1,0,None,None,0.1923371754026032,[29400|0|0|0],start
23300,1.276457905769348,-0.3238999247550964,0.0,0.6422715783119202,0.8393588066101074,3.8585376739501953,4.06640625,2,C1,0,None,None,0.1934778994529805,[29500|0|0|0],start
23400,1.2767049074172974,-0.323577344417572,0.0,0.6135810017585754,0.8079932928085327,3.846368789672852,4.0703125,2,C1,0,None,None,0.1938841849292741,[29600|0|0|0],start
23501,1.2768208980560305,-0.3237370550632477,0.0,0.6050757169723511,0.7962906956672668,3.86324691772461,4.06640625,2,C1,0,None,None,0.1940815711461583,[29700|0|0|0],start
23601,1.276744365692139,-0.3237743973731994,0.0,0.597583532333374,0.7893001437187195,3.868396520614624,4.06640625,2,C1,0,None,None,0.1941667277714752,[29800|0|0|0],start
23701,1.2766828536987305,-0.3237400352954864,0.0,0.5909383296966553,0.7824950814247131,3.886197328567505,4.0703125,2,C1,0,None,None,0.1942371868214108,[29900|0|0|0],start
23801,1.2776380777359009,-0.3236141502857208,0.0,0.5987120270729065,0.7797608971595764,3.9121925830841056,4.0703125,2,C1,0,None,None,0.1952006700837832,[30000|0|0|0],start
23901,1.276740789413452,-0.3237946331501007,0.0,0.589859664440155,0.7770206332206726,3.908688306808472,4.06640625,2,C1,0,None,None,0.1961159298272102,[30100|0|0|0],start
24001,1.276587963104248,-0.3236240446567535,0.0,0.580115795135498,0.7819920778274536,3.925170421600342,4.0703125,2,C1,0,None,None,0.1963449632633006,[30200|0|0|0],start
24101,1.277577519416809,-0.3232977092266083,0.0,0.5882173776626587,0.777538537979126,3.91090726852417,4.0703125,2,C1,0,None,None,0.1973869404745185,[30300|0|0|0],start
24201,1.2776166200637815,-0.323327898979187,0.0,0.5888756513595581,0.7732227444648743,3.8885843753814697,4.06640625,2,C1,0,None,None,0.1974363396825529,[30400|0|0|0],start
24302,1.2776620388031006,-0.3234601020812988,0.0,0.591119110584259,0.7681388854980469,3.886756181716919,4.0703125,2,C1,0,None,None,0.1975761271000457,[30500|0|0|0],start
24402,1.2776052951812744,-0.3233541548252105,0.0,0.5863068103790283,0.7715831995010376,3.8813302516937256,4.06640625,2,C1,0,None,None,0.1976963130380359,[30600|0|0|0],start
24500,1.277634620666504,-0.3234507143497467,0.0,0.5803024768829346,0.7643440365791321,3.8862650394439697,4.06640625,2,C1,0,None,None,0.197797227486271,[30700|0|0|0],start
24602,1.2778916358947754,-0.3229950368404388,0.0,0.4287646412849426,0.6276425123214722,3.879116535186768,4.06640625,2,C1,0,None,None,0.1983203898129465,[30800|0|0|0],start
24702,1.277853012084961,-0.3231320381164551,0.0,0.4674488306045532,0.653380811214447,3.8662164211273193,4.0703125,2,C1,0,None,None,0.1984627314734492,[30900|0|0|0],start
24800,1.2777817249298096,-0.3231532573699951,0.0,0.4887677729129791,0.6759445071220398,3.8669447898864746,4.06640625,2,C1,0,None,None,0.1985371096638707,[31000|0|0|0],start
24900,1.2777609825134275,-0.3231804966926574,0.0,0.5034825801849365,0.6938393115997314,3.883447170257568,4.0703125,2,C1,0,None,None,0.198571347487056,[31100|0|0|0],start
25002,1.2778183221817017,-0.3231148421764374,0.0,0.5135330557823181,0.7060463428497314,3.858721017837525,4.06640625,2,C1,0,None,None,0.1986585160195541,[31200|0|0|0],start
25102,1.2778397798538208,-0.3232423067092895,0.0,0.5234937071800232,0.7182964086532593,3.853553771972656,4.06640625,2,C1,0,None,None,0.1987877740515211,[31300|0|0|0],start
25200,1.2778335809707642,-0.3231077790260315,0.0,0.5278505086898804,0.7276391386985779,3.863871097564697,4.0703125,2,C1,0,None,None,0.1989224444777992,[31400|0|0|0],start
25300,1.2776756286621094,-0.3230938017368316,0.0,0.5389736294746399,0.726612389087677,3.8535523414611816,4.06640625,2,C1,0,None,None,0.1990810140096227,[31500|0|0|0],start
25400,1.277684450149536,-0.3231925666332245,0.0,0.54176265001297,0.7305289506912231,3.872404098510742,4.06640625,2,C1,0,None,None,0.1991801720824152,[31600|0|0|0],start
25500,1.2776401042938232,-0.323106586933136,0.0,0.5383545160293579,0.7295802235603333,3.8656914234161377,4.06640625,2,C1,0,None,None,0.1992769143366074,[31700|0|0|0],start
25600,1.277691125869751,-0.3229714334011078,0.0,0.5465782284736633,0.731242835521698,3.874455690383911,4.06640625,2,C1,0,None,None,0.1994213777521487,[31800|0|0|0],start
25700,1.277565836906433,-0.323072612285614,0.0,0.5425161123275757,0.7342042922973633,3.8785436153411865,4.06640625,2,C1,0,None,None,0.1995824196442115,[31900|0|0|0],start
25800,1.2778081893920898,-0.3231832385063171,0.0,0.5470542907714844,0.7293758392333984,3.879443883895874,4.06640625,2,C1,0,None,None,0.1998488270165026,[32000|0|0|0],start
25900,1.2778369188308716,-0.3233417272567749,0.0,0.5461636185646057,0.7319933176040649,3.870603084564209,4.06640625,2,C1,0,None,None,0.2000098986299992,[32100|0|0|0],start
26000,1.2779841423034668,-0.3234202861785888,0.0,0.5504620671272278,0.721746563911438,3.874133348464966,4.06640625,2,C1,0,None,None,0.2001767706021202,[32200|0|0|0],start
26100,1.2777774333953855,-0.323385089635849,0.0,0.5489403605461121,0.7256264090538025,3.858444929122925,4.0703125,2,C1,0,None,None,0.2003864545769514,[32300|0|0|0],start
26200,1.2778061628341677,-0.3228468894958496,0.0,0.5304957032203674,0.7216357588768005,3.850348949432373,4.0703125,2,C1,0,None,None,0.2009254209686198,[32400|0|0|0],start
26300,1.277864933013916,-0.3234213590621948,0.0,0.5474678874015808,0.7195650339126587,3.873979806900024,4.0703125,2,C1,0,None,None,0.2015028889042531,[32500|0|0|0],start
26400,1.277753233909607,-0.3232905268669128,0.0,0.5423161387443542,0.7290152311325073,3.8710708618164062,4.0703125,2,C1,0,None,None,0.2016749172543172,[32600|0|0|0],start
26500,1.2777187824249268,-0.3234017491340637,0.0,0.5575594902038574,0.7427626252174377,3.8800220489501953,4.06640625,2,C1,0,None,None,0.2017913530628421,[32700|0|0|0],start
26600,1.277780532836914,-0.3233242630958557,0.0,0.5487768650054932,0.7305757403373718,3.897964000701904,4.06640625,2,C1,0,None,None,0.2018904348447083,[32800|0|0|0],start
26700,1.2777584791183472,-0.323243498802185,0.0,0.549565851688385,0.7355981469154358,3.887274742126465,4.06640625,2,C1,0,None,None,0.2019741560345873,[32900|0|0|0],start
26800,1.2776780128479004,-0.3231458961963653,0.0,0.5444452166557312,0.7352713942527771,3.882468938827514,4.06640625,2,C1,0,None,None,0.2021006514469247,[33000|0|0|0],start
26900,1.2770241498947144,-0.3229689002037048,0.0,0.4393070042133331,0.6747022271156311,3.875494718551636,4.06640625,2,C1,0,None,None,0.2027780467103913,[33100|0|0|0],start
27000,1.277042269706726,-0.3229764401912689,0.0,0.4626776278018951,0.6893765926361084,3.901826858520508,4.0703125,2,C1,0,None,None,0.2027976726880691,[33200|0|0|0],start
27100,1.2768690586090088,-0.3231310546398163,0.0,0.4856410026550293,0.703091025352478,3.88653826713562,4.06640625,2,C1,0,None,None,0.2030298530319228,[33300|0|0|0],start
27200,1.2769471406936646,-0.3229056298732757,0.0,0.5000834465026855,0.7131609916687012,3.8816580772399902,4.06640625,2,C1,0,None,None,0.2032684177764138,[33400|0|0|0],start
27300,1.2777726650238037,-0.3232490122318268,0.0,0.5190941095352173,0.7217702865600586,3.8842716217041016,4.0703125,2,C1,0,None,None,0.2041625105365991,[33500|0|0|0],start
27400,1.2778339385986328,-0.3232563734054565,0.0,0.5270278453826904,0.7211259007453918,3.872284650802612,4.06640625,2,C1,0,None,None,0.2042242246990705,[33600|0|0|0],start
27500,1.2776633501052856,-0.3237350583076477,0.0,0.7072207927703857,0.8718262314796448,3.88332772254944,4.06640625,2,C1,0,None,None,0.2047323975728529,[33700|0|0|0],start
27600,1.2775466442108154,-0.3235759735107422,0.0,0.6716020107269287,0.84846031665802,3.895378828048706,4.06640625,2,C1,0,None,None,0.2049296999763116,[33800|0|0|0],start
27700,1.277409553527832,-0.3235568702220917,0.0,0.6518778204917908,0.8342220783233643,3.869234085083008,4.06640625,2,C1,0,None,None,0.2050681152608654,[33900|0|0|0],start
27800,1.2776435613632202,-0.3233587145805359,0.0,0.6261020302772522,0.7945701479911804,3.8634963035583496,4.06640625,2,C1,0,None,None,0.2053747507534351,[34000|0|0|0],start
27900,1.2774438858032229,-0.3232043981552124,0.0,0.596078634262085,0.7724098563194275,3.8852384090423584,4.0703125,2,C1,0,None,None,0.2056271074224274,[34100|0|0|0],start
28000,1.2776261568069458,-0.3234131932258606,0.0,0.577161967754364,0.7385606169700623,3.8796474933624254,4.06640625,2,C1,0,None,None,0.2059042682066757,[34200|0|0|0],start
28100,1.277101993560791,-0.3233057856559753,0.0,0.4616245925426483,0.6615307927131653,3.891448497772217,4.06640625,2,C1,0,None,None,0.2064393228718158,[34300|0|0|0],start
28200,1.2777291536331177,-0.3231997787952423,0.0,0.464859277009964,0.6738131642341614,3.885957717895508,4.0703125,2,C1,0,None,None,0.2070753788527194,[34400|0|0|0],start
28300,1.277730941772461,-0.3232505917549133,0.0,0.4776381552219391,0.6844006180763245,3.862105846405029,4.06640625,2,C1,0,None,None,0.207126223265518,[34500|0|0|0],start
28400,1.2777280807495115,-0.3232730329036712,0.0,0.4920673370361328,0.6968028545379639,3.862966060638428,4.06640625,2,C1,0,None,None,0.2071488460551314,[34600|0|0|0],start
28500,1.2777594327926636,-0.3230834007263183,0.0,0.4894512295722961,0.702842652797699,3.855097770690918,4.06640625,2,C1,0,None,None,0.2073410524892002,[34700|0|0|0],start
28600,1.27781343460083,-0.3231674432754516,0.0,0.4981173574924469,0.7132936120033264,3.8675405979156494,4.06640625,2,C1,0,None,None,0.2074409491625686,[34800|0|0|0],start
28700,1.2778754234313965,-0.3233312964439392,0.0,0.5034043788909912,0.7103083729743958,3.865378379821777,4.06640625,2,C1,0,None,None,0.2076161361367945,[34900|0|0|0],start
28800,1.2776800394058228,-0.3234917223453522,0.0,0.5141631364822388,0.7192600965499878,3.865680694580078,4.0703125,2,C1,0,None,None,0.2078689431527049,[35000|0|0|0],start
28900,1.2777518033981323,-0.3230941891670227,0.0,0.5063958764076233,0.7223610877990723,3.879525899887085,4.0703125,2,C1,0,None,None,0.2082729019358313,[35100|0|0|0],start
29000,1.2776896953582764,-0.3231083452701568,0.0,0.5458300709724426,0.740574300289154,3.87129259109497,4.06640625,2,C1,0,None,None,0.2083366028296295,[35200|0|0|0],start
29100,1.27774178981781,-0.3233264982700348,0.0,0.5538036227226257,0.7388091683387756,3.868676900863648,4.06640625,2,C1,0,None,None,0.2085608896194097,[35300|0|0|0],start
29200,1.277764916419983,-0.3233305513858795,0.0,0.5504011511802673,0.73918217420578,3.872985601425171,4.06640625,2,C1,0,None,None,0.2085843687053397,[35400|0|0|0],start
29300,1.2778353691101074,-0.3233394920825958,0.0,0.5341748595237732,0.7234571576118469,3.889615297317505,4.06640625,2,C1,0,None,None,0.2086553864327291,[35500|0|0|0],start
29400,1.2777215242385864,-0.3229344487190246,0.0,0.5202226042747498,0.7295963168144226,3.873449087142944,4.06640625,2,C1,0,None,None,0.2090761248088546,[35600|0|0|0],start
29500,1.2776974439620972,-0.3232443928718567,0.0,0.5222752690315247,0.7281211018562317,3.872057914733887,4.06640625,2,C1,0,None,None,0.2093870029804759,[35700|0|0|0],start
29600,1.2778377532958984,-0.3233095109462738,0.0,0.5168321132659912,0.7216526865959167,3.869858264923096,4.0703125,2,C1,0,None,None,0.2095416867636193,[35800|0|0|0],start
29700,1.2775681018829346,-0.3230096399784088,0.0,0.512771487236023,0.7307586669921875,3.8836240768432617,4.06640625,2,C1,0,None,None,0.2099449664207825,[35900|0|0|0],start
29800,1.277787685394287,-0.3233149349689483,0.0,0.51921147108078,0.7247669696807861,3.876895904541016,4.06640625,2,C1,0,None,None,0.2103210275191514,[36000|0|0|0],start
29900,1.2777382135391235,-0.3234813809394836,0.0,0.5283095240592957,0.725459098815918,3.871138095855713,4.06640625,2,C1,0,None,None,0.2104946700414804,[36100|0|0|0],start
30000,1.2776705026626587,-0.3232667148113251,0.0,0.525830864906311,0.7264609336853027,3.8926403522491455,4.06640625,2,C1,0,None,None,0.2107197618213618,[36200|0|0|0],start
30100,1.2777135372161863,-0.3232078850269317,0.0,0.5303955078125,0.7301749587059021,3.911781072616577,4.06640625,2,C1,0,None,None,0.2107926515759854,[36300|0|0|0],start
30200,1.2775330543518066,-0.3230676651000976,0.0,0.5216004252433777,0.7236026525497437,3.893269062042236,4.06640625,2,C1,0,None,None,0.2110212028661066,[36400|0|0|0],start
30300,1.2785255908966064,-0.3231259882450104,0.0,0.5235001444816589,0.7278359532356262,3.897341251373291,4.06640625,2,C1,0,None,None,0.2120154515181025,[36500|0|0|0],start
30400,1.2775390148162842,-0.3229580521583557,0.0,0.4113656282424927,0.6691884398460388,3.89253306388855,4.06640625,2,C1,0,None,None,0.2130162186695743,[36600|0|0|0],start
30500,1.277933120727539,-0.323076069355011,0.0,0.4327979683876037,0.6700434684753418,3.871586322784424,4.06640625,2,C1,0,None,None,0.2134276157137936,[36700|0|0|0],start
30600,1.277796745300293,-0.3232371509075165,0.0,0.4656026065349579,0.6983042359352112,3.885485649108887,4.06640625,2,C1,0,None,None,0.2136386738188598,[36800|0|0|0],start
30700,1.277721285820007,-0.3230474293231964,0.0,0.4811347126960754,0.7158598303794861,3.872020721435547,4.0703125,2,C1,0,None,None,0.2138428512238828,[36900|0|0|0],start
30800,1.2777811288833618,-0.323101669549942,0.0,0.5112611651420593,0.7250884771347046,3.880808353424072,4.06640625,2,C1,0,None,None,0.2139236175190132,[37000|0|0|0],start
30900,1.2776305675506592,-0.3228815197944641,0.0,0.5103209018707275,0.7318493127822876,3.865527391433716,4.06640625,2,C1,0,None,None,0.2141903282794676,[37100|0|0|0],start
31000,1.2777897119522097,-0.3231343626976013,0.0,0.5250011682510376,0.74111407995224,3.882671594619751,4.06640625,2,C1,0,None,None,0.2144890864997926,[37200|0|0|0],start
31100,1.2777796983718872,-0.3232620060443878,0.0,0.5363108515739441,0.7502294182777405,3.88647723197937,4.06640625,2,C1,0,None,None,0.2146171220252132,[37300|0|0|0],start
31200,1.2777689695358276,-0.3233645558357239,0.0,0.5406179428100586,0.7550749778747559,3.87858247756958,4.06640625,2,C1,0,None,None,0.2147202315185989,[37400|0|0|0],start
31300,1.2776336669921875,-0.323193222284317,0.0,0.5423405766487122,0.7566798329353333,3.8626904487609854,4.06640625,2,C1,0,None,None,0.2149385477208222,[37500|0|0|0],start
31400,1.2776168584823608,-0.323200523853302,0.0,0.5564919710159302,0.7657530307769775,3.879764080047608,4.06640625,2,C1,0,None,None,0.2149568736290462,[37600|0|0|0],start
31500,1.2776366472244265,-0.3231925964355469,0.0,0.5454644560813904,0.7555776834487915,3.8688089847564697,4.06640625,2,C1,0,None,None,0.2149781911867113,[37700|0|0|0],start
31600,1.27768874168396,-0.3232676684856415,0.0,0.541120171546936,0.7518907189369202,3.884431600570679,4.0703125,2,C1,0,None,None,0.215069567580925,[37800|0|0|0],start
31700,1.2777034044265747,-0.3233587741851806,0.0,0.5531313419342041,0.7602062225341797,3.899110555648804,4.06640625,2,C1,0,None,None,0.2151618456634229,[37900|0|0|0],start
31800,1.2777528762817385,-0.3234730064868927,0.0,0.5468760132789612,0.7522494792938232,3.883380174636841,4.06640625,2,C1,0,None,None,0.2152863305348242,[38000|0|0|0],start
31900,1.2777624130249023,-0.3233290016651153,0.0,0.5847058296203613,0.7808226346969604,3.881325244903565,4.06640625,2,C1,0,None,None,0.2154306507973147,[38100|0|0|0],start
32000,1.277875900268555,-0.3235585689544678,0.0,0.6026363372802734,0.7962154746055603,3.886943817138672,4.06640625,2,C1,0,None,None,0.2156867376864998,[38200|0|0|0],start
32100,1.2776319980621338,-0.3232652246952057,0.0,0.610004723072052,0.81936115026474,3.887004852294922,4.06640625,2,C1,0,None,None,0.216068233611431,[38300|0|0|0],start
32200,1.2776367664337158,-0.3235414326190948,0.0,0.6211857795715332,0.8263275027275085,3.897165775299072,4.06640625,2,C1,0,None,None,0.2163444826921293,[38400|0|0|0],start
32300,1.277727723121643,-0.3234069943428039,0.0,0.6148399114608765,0.817571759223938,3.874679088592529,4.06640625,2,C1,0,None,None,0.2165067995711369,[38500|0|0|0],start
32400,1.277848720550537,-0.3236252665519714,0.0,0.628470242023468,0.8181464076042175,3.88596510887146,4.06640625,2,C1,0,None,None,0.2167563654644272,[38600|0|0|0],start
32500,1.2777079343795776,-0.3232534527778625,0.0,0.6180011630058289,0.8217700123786926,3.8971917629241934,4.06640625,2,C1,0,None,None,0.2171539409019866,[38700|0|0|0],start
32600,1.2778126001358032,-0.3238066434860229,0.0,0.6304423213005066,0.826227605342865,3.88225030899048,4.06640625,2,C1,0,None,None,0.217716946124095,[38800|0|0|0],start
32700,1.2774978876113892,-0.3233813643455505,0.0,0.6170700192451477,0.8361280560493469,3.869431257247925,4.06640625,2,C1,0,None,None,0.2182460078599482,[38900|0|0|0],start
32800,1.2778527736663818,-0.3231650590896606,0.0,0.612258791923523,0.8258581757545471,3.861088752746582,4.06640625,2,C1,0,None,None,0.2186616183455641,[39000|0|0|0],start
32900,1.2775866985321045,-0.3233143389225006,0.0,0.6200113892555237,0.8381233215332031,3.859628200531006,4.06640625,2,C1,0,None,None,0.2189667092264069,[39100|0|0|0],start
33000,1.2777007818222046,-0.3235781192779541,0.0,0.6255161762237549,0.8346109390258789,3.875798225402832,4.06640625,2,C1,0,None,None,0.2192541028119359,[39200|0|0|0],start
33100,1.2777855396270752,-0.3234936892986297,0.0,0.6211745738983154,0.8264060616493225,3.874478340148926,4.06640625,2,C1,0,None,None,0.2193737368660142,[39300|0|0|0],start
33200,1.2776358127593994,-0.3233669698238373,0.0,0.6129162907600403,0.820171058177948,3.864954948425293,4.06640625,2,C1,0,None,None,0.2195698897660582,[39400|0|0|0],start
33300,1.2775535583496094,-0.323172390460968,0.0,0.6089372038841248,0.8218609094619751,3.866919040679932,4.06640625,2,C1,0,None,None,0.219781140603653,[39500|0|0|0],start
33400,1.2776004076004028,-0.3236823081970215,0.0,0.6196443438529968,0.8182566165924072,3.853490114212036,4.06640625,2,C1,0,None,None,0.220293205980184,[39600|0|0|0],start
33500,1.277826189994812,-0.3231957852840423,0.0,0.6049754023551941,0.8048616647720337,3.842539072036743,4.06640625,2,C1,0,None,None,0.2208295661525299,[39700|0|0|0],start
33600,1.2784056663513184,-0.3230330049991607,0.0,0.6010473966598511,0.8036404848098755,3.833775043487549,4.06640625,2,C1,0,None,None,0.2214314716840678,[39800|0|0|0],start
33700,1.27848482131958,-0.3232723474502563,0.0,0.6091676950454712,0.7932208180427551,3.844420909881592,4.06640625,2,C1,0,None,None,0.2216835635679058,[39900|0|0|0],start
33800,1.2785136699676514,-0.3233300149440765,0.0,0.6119028329849243,0.79770427942276,3.8524210453033447,4.06640625,2,C1,0,None,None,0.2217480444514221,[40000|0|0|0],start
33900,1.278424859046936,-0.3231641054153442,0.0,0.606982409954071,0.7912823557853699,3.8709545135498047,4.06640625,2,C1,0,None,None,0.221936228806145,[40100|0|0|0],start
34000,1.2785488367080688,-0.3233721554279327,0.0,0.6168000102043152,0.800055205821991,3.880048751831055,4.06640625,2,C1,0,None,None,0.2221784173033905,[40200|0|0|0],start
34100,1.278550624847412,-0.3232146799564361,0.0,0.6115335822105408,0.7999030351638794,3.8723089694976807,4.06640625,2,C1,0,None,None,0.2223359029267514,[40300|0|0|0],start
34200,1.278538703918457,-0.3233632147312164,0.0,0.6145641803741455,0.8013931512832642,3.891845464706421,4.06640625,2,C1,0,None,None,0.2224849153016274,[40400|0|0|0],start
34300,1.2785407304763794,-0.3233207464218139,0.0,0.608522891998291,0.7999575138092041,3.900027513504028,4.06640625,2,C1,0,None,None,0.2225274319364956,[40500|0|0|0],start
34400,1.278354525566101,-0.3229665160179138,0.0,0.6032598614692688,0.8028937578201294,3.901591300964356,4.06640625,2,C1,0,None,None,0.2229276212012929,[40600|0|0|0],start
34500,1.2785358428955078,-0.3233349919319153,0.0,0.6094726324081421,0.798124372959137,3.896928787231445,4.06640625,2,C1,0,None,None,0.2233382919613214,[40700|0|0|0],start
34600,1.278516411781311,-0.3230881690979004,0.0,0.6000735759735107,0.7871608734130859,3.888575792312622,4.06640625,2,C1,0,None,None,0.2235858784706269,[40800|0|0|0],start
34700,1.2784223556518557,-0.3230760097503662,0.0,0.5989078879356384,0.7886180877685547,3.885332345962525,4.06640625,2,C1,0,None,None,0.2236807173087713,[40900|0|0|0],start
34800,1.2784526348114014,-0.3231334090232849,0.0,0.4655592739582062,0.6584017872810364,3.881704330444336,4.06640625,2,C1,0,None,None,0.223745613410614,[41000|0|0|0],start
34900,1.2784903049468994,-0.3231773376464844,0.0,0.4930874407291412,0.677428662776947,3.8789994716644287,4.06640625,2,C1,0,None,None,0.2238034819084746,[41100|0|0|0],start
35000,1.2785824537277222,-0.3231538832187652,0.0,0.5245877504348755,0.6956013441085815,3.8831186294555664,4.06640625,2,C1,0,None,None,0.2238985687529209,[41200|0|0|0],start
