time.ms,stateEstimate.x,stateEstimate.y,stateEstimate.z,stabilizer.roll,stabilizer.pitch,stabilizer.yaw,pm.vbat,drone_id,node_name,wind_speed,global_wind_direction,relative_wind_direction,travel_dist,waiting_time
0,0.593359112739563,0.4565317928791046,0.044044818729162216,-0.5345947742462158,0.5691676735877991,10.790182113647461,4.1015625,0,F2,6.1,180,0,0.15174402180573393,[100|0|0|0]
100,0.6551120281219482,0.4163099229335785,-0.033100951462984085,-0.3442944884300232,-0.3367510735988617,7.510358810424805,4.1015625,0,F2,6.1,180,0,0.2584337178343491,[200|0|0|0]
200,0.6642744541168213,0.4182948172092438,-0.019862132146954536,-1.748451828956604,-1.2841142416000366,10.277017593383789,4.1015625,0,F2,6.1,180,0,0.2746558074740833,[300|0|0|0]
300,0.6633210182189941,0.41824233531951904,-0.01951516978442669,-2.8359296321868896,-0.6781952381134033,11.024266242980957,4.1015625,0,F2,6.1,180,0,0.2756717687140061,[400|0|0|0]
400,0.6625555157661438,0.41893672943115234,-0.01945115253329277,-3.030722141265869,-0.05542594566941261,11.20736312866211,4.1015625,0,F2,6.1,180,0,0.2767072760273717,[500|0|0|0]
500,0.6623979210853577,0.41878071427345276,-0.019379105418920517,-2.693986415863037,0.29302576184272766,11.285231590270996,4.1015625,0,F2,6.1,180,0,0.27694044463489315,[600|0|0|0]
600,0.661612331867218,0.4187620282173157,-0.01952957734465599,-2.334707260131836,0.4937179982662201,11.27464771270752,4.1015625,0,F2,6.1,180,0,0.2777405329980042,[700|0|0|0]
700,0.6620632410049438,0.4190596044063568,-0.019337186589837074,-2.0400068759918213,0.5140459537506104,11.2469482421875,4.1015625,0,F2,6.1,180,0,0.27831401782021725,[800|0|0|0]
800,0.6617319583892822,0.4191567599773407,-0.019174747169017792,-1.8069877624511719,0.5466131567955017,11.188454627990723,4.09765625,0,F2,6.1,180,0,0.2786955593538003,[900|0|0|0]
900,0.6622357368469238,0.41889840364456177,-0.01919298805296421,-1.6082321405410767,0.5186495780944824,11.134735107421875,4.1015625,0,F2,6.1,180,0,0.2792620162885428,[1000|0|0|0]
1000,0.6620021462440491,0.4191399812698364,-0.019001169130206108,-1.473253846168518,0.5152303576469421,11.107133865356445,4.1015625,0,F2,6.1,180,0,0.279648951448373,[1100|0|0|0]
1100,0.6620636582374573,0.4189898371696472,-0.019100697711110115,-1.3433338403701782,0.4938242435455322,11.061699867248535,4.1015625,0,F2,6.1,180,0,0.2798393009021979,[1200|0|0|0]
1200,0.6619806289672852,0.41899773478507996,-0.01932118646800518,-1.245862364768982,0.47361207008361816,11.039525985717773,4.1015625,0,F2,6.1,180,0,0.2800750370342438,[1300|0|0|0]
1300,0.6622607707977295,0.41867026686668396,-0.019378218799829483,-1.137472152709961,0.4417032301425934,11.021029472351074,4.1015625,0,F2,6.1,180,0,0.28050974080650326,[1400|0|0|0]
1400,0.6618344783782959,0.4187956154346466,-0.01942574605345726,-1.0773290395736694,0.42581868171691895,11.04860782623291,4.1015625,0,F2,6.1,180,0,0.2809566147598662,[1500|0|0|0]
1500,0.6620943546295166,0.41899770498275757,-0.019596420228481293,-0.9951256513595581,0.4077274203300476,11.015069007873535,4.1015625,0,F2,6.1,180,0,0.28132743213462685,[1600|0|0|0]
1600,0.6623556613922119,0.4188286066055298,-0.01954035647213459,-0.9043936133384705,0.4238065183162689,10.999547004699707,4.1015625,0,F2,6.1,180,0,0.28164368935618406,[1700|0|0|0]
1700,0.6620269417762756,0.4188610911369324,-0.01937921717762947,-0.8223310708999634,0.4612867832183838,10.996879577636719,4.1015625,0,F2,6.1,180,0,0.28201121854266503,[1800|0|0|0]
1800,0.6619335412979126,0.41870352625846863,-0.019820040091872215,-0.7747724056243896,0.4783582389354706,10.988506317138672,4.1015625,0,F2,6.1,180,0,0.2824885812789623,[1900|0|0|0]
1900,0.6621305346488953,0.41834762692451477,-0.01971166767179966,-0.7305055260658264,0.4718252122402191,10.998597145080566,4.1015625,0,F2,6.1,180,0,0.2829095507525261,[2000|0|0|0]
2000,0.6622187495231628,0.41853368282318115,-0.019778385758399963,-0.7146183252334595,0.460518479347229,10.995996475219727,4.1015625,0,F2,6.1,180,0,0.28312599927885557,[2100|0|0|0]
2100,0.6623069643974304,0.41852661967277527,-0.019688578322529793,-0.6952353119850159,0.4467102885246277,11.009337425231934,4.1015625,0,F2,6.1,180,0,0.283252083090954,[2200|0|0|0]
2200,0.6622090339660645,0.4185085892677307,-0.019893337041139603,-0.6681466698646545,0.44992586970329285,11.005448341369629,4.1015625,0,F2,6.1,180,0,0.28347977059113866,[2300|0|0|0]
2300,0.6622974276542664,0.41871407628059387,-0.019698617979884148,-0.6707682609558105,0.43979036808013916,11.001961708068848,4.09765625,0,F2,6.1,180,0,0.2837763407672953,[2400|0|0|0]
2400,0.662212073802948,0.41847658157348633,-0.019722772762179375,-0.6595255136489868,0.43685007095336914,10.99567699432373,4.1015625,0,F2,6.1,180,0,0.28402986092299637,[2500|0|0|0]
2500,0.6623300313949585,0.4186185598373413,-0.019846471026539803,-0.6614547967910767,0.42647814750671387,11.005098342895508,4.1015625,0,F2,6.1,180,0,0.28425206146648346,[2600|0|0|0]
2600,0.662232518196106,0.41832369565963745,-0.019781140610575676,-0.6562900543212891,0.42850372195243835,11.026413917541504,4.1015625,0,F2,6.1,180,0,0.284569428400006,[2700|0|0|0]
2700,0.6624587774276733,0.41868701577186584,-0.019480356946587563,-0.6607878804206848,0.4056888520717621,11.048741340637207,4.1015625,0,F2,6.1,180,0,0.28509255893471147,[2800|0|0|0]
2800,0.6624589562416077,0.41857242584228516,-0.019619695842266083,-0.6594105362892151,0.40124014019966125,11.031258583068848,4.09765625,0,F2,6.1,180,0,0.28527296462138635,[2900|0|0|0]
2900,0.6622960567474365,0.41843098402023315,-0.01977088488638401,-0.6560325622558594,0.3998492360115051,11.03062629699707,4.09765625,0,F2,6.1,180,0,0.2855364037249528,[3000|0|0|0]
3000,0.6473302245140076,0.40108969807624817,-0.029890889301896095,-0.17604129016399384,0.9708031415939331,10.872123718261719,4.1015625,0,F2,6.1,180,0,0.3105785845804649,[3100|0|0|0]
3100,0.6472378969192505,0.40109920501708984,-0.029878072440624237,-0.17813505232334137,0.9680050015449524,10.870081901550293,4.1015625,0,F2,6.1,180,0,0.3106722811044701,[3200|0|0|0]
3200,0.6476927399635315,0.40109720826148987,-0.030107038095593452,-0.17570750415325165,0.9544844031333923,10.855923652648926,4.1015625,0,F2,6.1,180,0,0.3111815074324611,[3300|0|0|0]
3300,0.6477628350257874,0.4011963903903961,-0.02959543839097023,-0.178355410695076,0.9493688344955444,10.860740661621094,4.1015625,0,F2,6.1,180,0,0.31170732552859093,[3400|0|0|0]
3400,0.6474387645721436,0.40129202604293823,-0.02994111366569996,-0.18917888402938843,0.961158275604248,10.87508487701416,4.1015625,0,F2,6.1,180,0,0.3121907086401303,[3500|0|0|0]
3500,0.6472874283790588,0.40106210112571716,-0.029449377208948135,-0.18806315958499908,0.9641203284263611,10.882074356079102,4.1015625,0,F2,6.1,180,0,0.312754244667191,[3600|0|0|0]
3600,0.6473047137260437,0.4009513854980469,-0.029781030490994453,-0.1948244869709015,0.962517261505127,10.872762680053711,4.1015625,0,F2,6.1,180,0,0.3131043169924652,[3700|0|0|0]
3700,0.6486267447471619,0.4008606970310211,-0.029753010720014572,-0.18840953707695007,0.9714094996452332,10.859907150268555,4.1015625,0,F2,6.1,180,0,0.3144297510822697,[3800|0|0|0]
3800,0.6485293507575989,0.4005644917488098,-0.029374122619628906,-0.19082091748714447,0.9621706008911133,10.858477592468262,4.09765625,0,F2,6.1,180,0,0.31492044380794104,[3900|0|0|0]
3900,0.6485514044761658,0.4007742702960968,-0.029620837420225143,-0.2001958042383194,0.9524983167648315,10.84670639038086,4.1015625,0,F2,6.1,180,0,0.3152450383215079,[4000|0|0|0]
4000,0.6474509239196777,0.4009550213813782,-0.029924923554062843,-0.1998552829027176,0.9451748728752136,10.845170021057129,4.1015625,0,F2,6.1,180,0,0.31640097810663126,[4100|0|0|0]
4100,0.6472654342651367,0.40090063214302063,-0.02998940832912922,-0.198635995388031,0.9481201767921448,10.832383155822754,4.1015625,0,F2,6.1,180,0,0.31660474976169206,[4200|0|0|0]
4200,0.6472225785255432,0.40148788690567017,-0.029648978263139725,-0.21717873215675354,0.944333553314209,10.848762512207031,4.1015625,0,F2,6.1,180,0,0.31728489489363104,[4300|0|0|0]
4300,0.6473447680473328,0.40094393491744995,-0.03031841106712818,-0.2014780342578888,0.9369577169418335,10.852216720581055,4.1015625,0,F2,6.1,180,0,0.31815607473946067,[4400|0|0|0]
4400,0.6477167010307312,0.40112119913101196,-0.02987065352499485,-0.21185292303562164,0.9244813323020935,10.846942901611328,4.1015625,0,F2,6.1,180,0,0.3187645511663555,[4500|0|0|0]
4500,0.6474259495735168,0.40091779828071594,-0.02974691055715084,-0.20427769422531128,0.9401634335517883,10.845636367797852,4.1015625,0,F2,6.1,180,0,0.3191403445109802,[4600|0|0|0]
4600,0.6471706628799438,0.40143606066703796,-0.029835611581802368,-0.21689733862876892,0.9516767859458923,10.851682662963867,4.1015625,0,F2,6.1,180,0,0.31972484007876995,[4700|0|0|0]
4701,0.6487663388252258,0.4007733464241028,-0.029650267213582993,-0.18827667832374573,0.9567269682884216,10.853623390197754,4.1015625,0,F2,6.1,180,0,0.32146257550885454,[4800|0|0|0]
4801,0.6484366059303284,0.4009864330291748,-0.029717978090047836,-0.20249022543430328,0.962046205997467,10.847884178161621,4.1015625,0,F2,6.1,180,0,0.3218609653255294,[4900|0|0|0]
4901,0.6487675905227661,0.40097060799598694,-0.029773779213428497,-0.20221629738807678,0.9467682242393494,10.848099708557129,4.1015625,0,F2,6.1,180,0,0.32219699359439546,[5000|0|0|0]
5001,0.6474339365959167,0.40124619007110596,-0.029484642669558525,-0.20359307527542114,0.9465638399124146,10.853606224060059,4.1015625,0,F2,6.1,180,0,0.3235891782867868,[5100|0|0|0]
5101,0.6475895047187805,0.400831937789917,-0.029672065749764442,-0.1973908543586731,0.945817232131958,10.893414497375488,4.1015625,0,F2,6.1,180,0,0.32406973401125116,[5200|0|0|0]
5201,0.6474391222000122,0.4008309841156006,-0.02981838956475258,-0.20453020930290222,0.9541551470756531,10.895950317382812,4.1015625,0,F2,6.1,180,0,0.3242795588674491,[5300|0|0|0]
5302,0.6473777890205383,0.4010348916053772,-0.029637174680829048,-0.20909187197685242,0.9599280953407288,10.885613441467285,4.1015625,0,F2,6.1,180,0,0.32455916369116783,[5400|0|0|0]
5401,0.6474609375,0.4008524417877197,-0.02974005788564682,-0.20801647007465363,0.9558896422386169,10.871018409729004,4.1015625,0,F2,6.1,180,0,0.32478452242615186,[5500|0|0|0]
5501,0.6473413705825806,0.4011670649051666,-0.029674911871552467,-0.21523234248161316,0.9591193199157715,10.891850471496582,4.1015625,0,F2,6.1,180,0,0.32512734593311365,[5600|0|0|0]
5602,0.6476278305053711,0.40123915672302246,-0.029837477952241898,-0.2186015397310257,0.9503006935119629,10.867666244506836,4.1015625,0,F2,6.1,180,0,0.3254645168810876,[5700|0|0|0]
5702,0.6483871936798096,0.40076950192451477,-0.029371406883001328,-0.19575683772563934,0.9814323782920837,10.882225036621094,4.1015625,0,F2,6.1,180,0,0.32647170618903204,[5800|0|0|0]
5802,0.6485722064971924,0.4006935656070709,-0.029684728011488914,-0.20453286170959473,0.9724100232124329,10.861978530883789,4.1015625,0,F2,6.1,180,0,0.3268434133270582,[5900|0|0|0]
5902,0.6485679745674133,0.40111762285232544,-0.029603179544210434,-0.21574316918849945,0.9692796468734741,10.868144035339355,4.1015625,0,F2,6.1,180,0,0.32727526122736333,[6000|0|0|0]
6000,0.6485141515731812,0.4008297920227051,-0.029833819717168808,-0.20586639642715454,0.9716113209724426,10.883100509643555,4.1015625,0,F2,6.1,180,0,0.3276480056311715,[6100|0|0|0]
6100,0.6486244201660156,0.4008181095123291,-0.029559988528490067,-0.21060332655906677,0.9568648338317871,10.890470504760742,4.1015625,0,F2,6.1,180,0,0.3279434361027001,[6200|0|0|0]
6200,0.6487517952919006,0.4010156989097595,-0.029439909383654594,-0.20930366218090057,0.9508008360862732,10.880380630493164,4.1015625,0,F2,6.1,180,0,0.3282074152566035,[6300|0|0|0]
6300,0.6485825181007385,0.400789350271225,-0.029603473842144012,-0.20910993218421936,0.957431972026825,10.885127067565918,4.1015625,0,F2,6.1,180,0,0.3285339758263224,[6400|0|0|0]
6400,0.6486890316009521,0.40076690912246704,-0.029638202860951424,-0.2082492858171463,0.9590020775794983,10.898117065429688,4.1015625,0,A/E1,6.1,180,0,0.3286482335859392,[6400|0|0|0]
6500,0.6481508016586304,0.40107908844947815,-0.029528692364692688,-0.19023515284061432,0.9778218865394592,10.959237098693848,3.23046875,0,A/E1,6.1,180,0,0.32928000882430775,[6400|0|0|0]
6600,0.6482130885124207,0.4013565480709076,-0.022259052842855453,4.956630229949951,-0.7713438272476196,10.919514656066895,3.55859375,0,A/E1,6.1,180,0,0.3365552079467467,[6400|0|0|0]
6700,0.6541449427604675,0.3936418890953064,0.009675754234194756,10.918065071105957,-7.34614896774292,11.723114013671875,3.68359375,0,A/E1,6.1,180,0,0.3699398565292661,[6400|0|0|0]
6800,0.6766924858093262,0.3732856512069702,0.052661340683698654,10.29371452331543,-8.273225784301758,12.067822456359863,3.65234375,0,A/E1,6.1,180,0,0.4225756690613667,[6400|0|0|0]
6900,0.7122920751571655,0.34360945224761963,0.10149968415498734,-1.49471116065979,1.6713505983352661,7.936962604522705,3.60546875,0,A/E1,6.1,180,0,0.4899046475136596,[6400|0|0|0]
7000,0.7436779737472534,0.3201334774494171,0.16234414279460907,-5.137734413146973,8.40446949005127,3.417562246322632,3.63671875,0,A/E1,6.1,180,0,0.5622803628481677,[6400|0|0|0]
7100,0.7611485719680786,0.30916500091552734,0.23220273852348328,-5.338699817657471,9.199027061462402,-0.36857062578201294,3.65234375,0,A/E1,6.1,180,0,0.6351209605727764,[6400|0|0|0]
7200,0.7639743089675903,0.3098818063735962,0.3086272180080414,-3.437897205352783,7.56329870223999,-2.4305951595306396,3.65234375,0,A/E1,6.1,180,0,0.7116010211385263,[6400|0|0|0]
7300,0.7554104328155518,0.3193480670452118,0.38955768942832947,-1.0518471002578735,4.870816230773926,-2.801975965499878,3.6640625,0,A/E1,6.1,180,0,0.793532036451169,[6400|0|0|0]
7400,0.7404263615608215,0.3316003978252411,0.47528108954429626,1.7290421724319458,1.480141520500183,-2.680054187774658,3.66796875,0,A/E1,6.1,180,0,0.8814134527367081,[6400|0|0|0]
7500,0.7234506011009216,0.34106412529945374,0.5646085143089294,2.9484360218048096,-1.2602099180221558,-2.734595537185669,3.6640625,0,A/E1,6.1,180,0,0.972830778206114,[6400|0|0|0]
7600,0.7108581066131592,0.345177561044693,0.6558624505996704,3.5142858028411865,-3.057920455932617,-2.7960526943206787,3.6640625,0,A/E1,6.1,180,0,1.065041255699776,[6400|0|0|0]
7700,0.7040466070175171,0.34377607703208923,0.7490679025650024,3.012608766555786,-2.7981953620910645,-3.13445782661438,3.6640625,0,A/E1,6.1,180,0,1.158505778168148,[6400|0|0|0]
7800,0.7028748393058777,0.3363661766052246,0.8431912660598755,1.9711905717849731,-2.3739101886749268,-3.3013899326324463,3.6640625,0,A/E1,6.1,180,0,1.252927635910379,[6400|0|0|0]
7900,0.707166314125061,0.3265511095523834,0.9376078844070435,1.0998064279556274,-0.9378373026847839,-3.3982367515563965,3.658203125,0,A/E1,6.1,180,0,1.3479500023168742,[6400|0|0|0]
8000,0.7127465605735779,0.3146607279777527,1.0334131717681885,0.160066157579422,-0.1528088003396988,-3.5876352787017822,3.6640625,0,A/E1,6.1,180,0,1.444651467718222,[6400|0|0|0]
8100,0.7175319194793701,0.304395854473114,1.1287391185760498,-0.38630932569503784,1.1271681785583496,-3.5289506912231445,3.6484375,0,A/E1,6.1,180,0,1.5406478396430958,[6400|0|0|0]
8200,0.7201939821243286,0.29509881138801575,1.2262282371520996,-1.139971137046814,1.8819652795791626,-3.2568562030792236,3.642578125,0,A/E1,6.1,180,0,1.638615435451031,[6400|0|0|0]
8300,0.7193015217781067,0.28945738077163696,1.325312852859497,-1.4850502014160156,1.3490618467330933,-3.298917055130005,3.65234375,0,A/E1,6.1,180,0,1.737864532649704,[6400|0|0|0]
8400,0.7151473164558411,0.2864038348197937,1.424662470817566,-1.2784007787704468,0.8406620621681213,-1.0934234857559204,3.6640625,0,A/E1,6.1,180,0,1.8373478385515174,[6400|0|0|0]
8500,0.7105363011360168,0.28693142533302307,1.5239510536193848,-0.8982422947883606,-0.0717388242483139,4.090125560760498,3.6953125,0,A/E1,6.1,180,0,1.9367448329166537,[6400|0|0|0]
8600,0.6987975835800171,0.29341617226600647,1.6149181127548218,-1.1617534160614014,-0.9086109399795532,0.3526957631111145,3.701171875,0,A/E1,6.1,180,0,2.028695119922157,[6400|0|0|0]
8700,0.6905112266540527,0.3035474419593811,1.7000837326049805,-0.2552933096885681,-1.2787175178527832,-2.1833131313323975,3.7265625,0,A/E1,6.1,180,0,2.1148605952656268,[6400|0|0|0]
8800,0.6836010217666626,0.3142227828502655,1.771928310394287,-0.045718468725681305,-1.2095423936843872,-3.7409067153930664,3.736328125,0,A/E1,6.1,180,0,2.1878219356620727,[6400|0|0|0]
8900,0.6776629686355591,0.32238292694091797,1.8274409770965576,1.1568119525909424,-1.0521434545516968,-4.45235538482666,3.7265625,0,A/E1,6.1,180,0,2.2442444895830485,[6400|0|0|0]
9000,0.6729171872138977,0.3270943760871887,1.8668055534362793,1.433819055557251,-1.1666585206985474,-4.815814018249512,3.716796875,0,A/E1,6.1,180,0,2.2841730516003045,[6400|0|0|0]
9100,0.6694777607917786,0.32824528217315674,1.8921819925308228,1.0324320793151855,-1.287502408027649,-4.907425403594971,3.6953125,0,A/E1,6.1,180,0,2.309807362592624,[6400|0|0|0]
9200,0.6687629818916321,0.325537770986557,1.907444953918457,0.3805662989616394,-1.5533549785614014,-4.818766117095947,3.689453125,0,A/E1,6.1,180,0,2.3253250787912814,[6400|0|0|0]
9300,0.6711911559104919,0.3178689777851105,1.9158698320388794,-0.4121697247028351,-0.8574137687683105,-4.8040361404418945,3.673828125,0,A/E1,6.1,180,0,2.336973468790607,[6400|0|0|0]
9400,0.6775954961776733,0.30792057514190674,1.9193836450576782,-1.1298644542694092,-0.40305763483047485,-4.62937068939209,3.673828125,0,A/E1,6.1,180,92.72631099390625,2.3493158012824917,[6400|0|0|0]
9500,0.6881211996078491,0.29372549057006836,1.918182611465454,-8.730626106262207,-0.5381399393081665,-3.334418773651123,3.7890625,0,A/E1,6.1,180,92.72631099390625,2.3670283205948683,[6400|0|0|0]
9600,0.7021141052246094,0.3026030957698822,1.9174296855926514,-14.314009666442871,-0.40702974796295166,5.293764114379883,3.7578125,0,A/E1,6.1,180,92.72631099390625,2.3836168762599423,[6400|0|0|0]
9700,0.7106347680091858,0.3343946933746338,1.868691086769104,-16.388181686401367,1.6523774862289429,1.93930184841156,3.701171875,0,A/E1,6.1,180,92.72631099390625,2.442428085972323,[6400|0|0|0]
9800,0.7184245586395264,0.3756997883319855,1.7922056913375854,-11.981928825378418,1.288334846496582,4.740752220153809,3.58984375,0,A/E1,6.1,180,92.72631099390625,2.5297024087815903,[6400|0|0|0]
9900,0.6782269477844238,0.4481152296066284,1.7089533805847168,-8.719464302062988,0.4851507544517517,9.740422248840332,3.55859375,0,A/E1,6.1,180,92.72631099390625,2.6471366086517802,[6400|0|0|0]
10000,0.661125898361206,0.5113386511802673,1.632514238357544,-1.2433959245681763,-2.6029276847839355,-0.7409884333610535,3.552734375,0,A/E1,6.1,180,92.72631099390625,2.747797372563442,[6400|0|0|0]
10100,0.647770345211029,0.5862671732902527,1.584992527961731,2.383469820022583,-5.2298784255981445,-6.946188449859619,3.583984375,0,A/E1,6.1,180,92.72631099390625,2.8375245545345553,[6400|0|0|0]
10200,0.6306232213973999,0.6525611281394958,1.5540841817855835,8.011396408081055,-5.088796138763428,-6.159834384918213,3.59375,0,A/E1,6.1,180,92.72631099390625,2.9126526995135045,[6400|0|0|0]
10300,0.6157506704330444,0.6951339244842529,1.5377894639968872,10.682229995727539,-4.982841491699219,-6.493772983551025,3.611328125,0,A/E1,6.1,180,92.72631099390625,2.960602189485899,[6400|0|0|0]
10400,0.5966902375221252,0.7163160443305969,1.5299535989761353,9.394696235656738,-4.120567321777344,-6.6053853034973145,3.63671875,0,A/E1,6.1,180,92.72631099390625,2.9901552449042477,[6400|0|0|0]
10500,0.5749855041503906,0.7173594832420349,1.5270497798919678,6.652430057525635,-4.417712688446045,-6.0708394050598145,3.6484375,0,A/E1,6.1,180,92.72631099390625,3.012078209593668,[6400|0|0|0]
10600,0.5541945099830627,0.7063797116279602,1.527750849723816,2.6032772064208984,-5.545979022979736,-6.010459899902344,3.642578125,0,A/E1,6.1,180,92.72631099390625,3.0356008013316598,[6400|0|0|0]
10700,0.53900146484375,0.690051257610321,1.5296168327331543,-1.1992419958114624,-6.7357892990112305,-5.641096591949463,3.6640625,0,A/E1,6.1,180,92.72631099390625,3.057982242835783,[6400|0|0|0]
10800,0.5343142747879028,0.6729241609573364,1.5312693119049072,-3.3911919593811035,-7.1924262046813965,-3.9290153980255127,3.6640625,0,A/E1,6.1,180,92.72631099390625,3.0758158593448757,[6400|0|0|0]
10900,0.5360172986984253,0.6624442934989929,1.5269919633865356,-5.126401424407959,-6.433882713317871,-2.6272993087768555,3.626953125,0,A/E1,6.1,180,92.72631099390625,3.0872624144044503,[6400|0|0|0]
11000,0.5504765510559082,0.6603801250457764,1.5228880643844604,-4.898468971252441,-4.247119426727295,-2.0098865032196045,3.658203125,0,A/E1,6.1,180,92.72631099390625,3.102433859858324,[6400|0|0|0]
11100,0.5710217356681824,0.6685729622840881,1.516768455505371,-3.9632790088653564,-2.3471500873565674,-2.9185702800750732,3.6484375,0,A/E1,6.1,180,92.72631099390625,3.1253833000606237,[6400|0|0|0]
11200,0.5912933945655823,0.6808903217315674,1.50566565990448,-1.4395616054534912,-0.5503848195075989,-4.153948783874512,3.630859375,0,A/E1,6.1,180,92.72631099390625,3.1515735571873895,[6400|0|0|0]
11300,0.6155349612236023,0.6976742148399353,1.49799382686615,0.6472170948982239,0.03084048070013523,-4.953784942626953,3.63671875,0,A/E1,6.1,180,92.72631099390625,3.1820400903685107,[6400|0|0|0]
11400,0.63665372133255,0.711759090423584,1.4881175756454468,2.0228748321533203,0.6681921482086182,-4.659421443939209,3.642578125,0,A/E1,6.1,180,92.72631099390625,3.2092784105612204,[6400|0|0|0]
11500,0.6568425893783569,0.7243244051933289,1.4814132452011108,2.5004172325134277,1.155685305595398,-4.1593241691589355,3.63671875,0,A/E1,6.1,180,92.72631099390625,3.233985202642359,[6400|0|0|0]
11600,0.6747928857803345,0.7328648567199707,1.4749603271484375,2.9573445320129395,1.69291090965271,-3.7626519203186035,3.6484375,0,A/E1,6.1,180,92.72631099390625,3.2548847864801362,[6400|0|0|0]
11700,0.6889075040817261,0.7379778027534485,1.4674283266067505,2.3300037384033203,2.1278882026672363,-3.28831148147583,3.6484375,0,A/E1,6.1,180,92.72631099390625,3.271680491261276,[6400|0|0|0]
11800,0.7006189823150635,0.7391855120658875,1.458688497543335,2.2396984100341797,1.6746188402175903,-2.7295114994049072,3.626953125,0,A/E1,6.1,180,92.72631099390625,3.2863434342213713,[6400|0|0|0]
11900,0.7088778614997864,0.7391343116760254,1.4476885795593262,1.383040189743042,1.2916266918182373,-2.247870922088623,3.63671875,0,A/E1,6.1,180,92.72631099390625,3.300098793268764,[6400|0|0|0]
12000,0.7150213718414307,0.7371793389320374,1.4376490116119385,0.9169070720672607,1.458547592163086,-2.5463414192199707,3.630859375,0,A/E1,6.1,180,92.72631099390625,3.3120301621054837,[6400|0|0|0]
12100,0.7196270823478699,0.7347943186759949,1.4275760650634766,0.7016374468803406,0.41665253043174744,-2.427537441253662,3.62109375,0,A/E1,6.1,180,92.72631099390625,3.323359996308111,[6400|0|0|0]
12200,0.7234068512916565,0.7326908111572266,1.4186288118362427,0.33971813321113586,0.269051194190979,-2.5229098796844482,3.630859375,0,A/E1,6.1,180,92.72631099390625,3.333298041259819,[6400|0|0|0]
12300,0.7288551330566406,0.7318843603134155,1.412926435470581,0.2581993043422699,0.04670368507504463,-2.9363646507263184,3.630859375,0,A/E1,6.1,180,92.72631099390625,3.3412259182372828,[6400|0|0|0]
12400,0.7316679358482361,0.7311224937438965,1.4043070077896118,0.5076528787612915,0.28427359461784363,-2.506682872772217,3.615234375,0,A/E1,6.1,180,0,3.3503246452780076,[6400|0|0|0]
12500,0.7363587021827698,0.730686366558075,1.394224762916565,0.7590835094451904,0.5306842923164368,-2.4188382625579834,3.884765625,0,A/E1,6.1,180,0,3.36145321919417,[6400|0|0|0]
12600,0.7398402690887451,0.7298749089241028,1.3542532920837402,0.6976054310798645,1.198914647102356,-2.467656373977661,3.822265625,0,A/E1,6.1,180,0,3.401584232789043,[6400|0|0|0]
12700,0.7419368028640747,0.729026734828949,1.2728502750396729,1.1249215602874756,0.45188236236572266,-1.004651665687561,3.7109375,0,A/E1,6.1,180,0,3.483018660625453,[6400|0|0|0]
12800,0.7439109683036804,0.724005401134491,1.1603922843933105,0.8212711215019226,0.9792768359184265,-0.30675873160362244,3.630859375,0,A/E1,6.1,180,0,3.5956060079672896,[6400|0|0|0]
12900,0.7451291680335999,0.71730637550354,1.0336123704910278,0.9146188497543335,0.17178387939929962,-0.8380410075187683,3.62109375,0,A/E1,6.1,180,0,3.722568630514464,[6400|0|0|0]
13000,0.7462519407272339,0.708060622215271,0.9031909108161926,0.3850516080856323,0.7769057154655457,-1.5973591804504395,3.615234375,0,A/E1,6.1,180,0,3.8533222221137153,[6400|0|0|0]
13100,0.7453615069389343,0.6993980407714844,0.7742758393287659,-0.02791544795036316,0.4435024857521057,-2.6889090538024902,3.630859375,0,A/E1,6.1,180,0,3.982531079574069,[6400|0|0|0]
13200,0.7441347241401672,0.6899487972259521,0.6467389464378357,-0.5826404094696045,1.5160712003707886,-4.219780445098877,3.63671875,0,A/E1,6.1,180,0,4.1104234258966335,[6400|0|0|0]
13300,0.7420066595077515,0.6820772886276245,0.5220136046409607,-1.5466903448104858,-0.2053404450416565,-6.115869522094727,3.57421875,0,A/E1,6.1,180,0,4.235415026386589,[6400|0|0|0]
13400,0.7416273355484009,0.6784176230430603,0.4044029712677002,-2.5473697185516357,-0.748418390750885,-5.540194988250732,3.515625,0,A/E1,6.1,180,0,4.353083195919885,[6400|0|0|0]
13500,0.7444273233413696,0.6814330816268921,0.30247756838798523,-2.24615740776062,-0.6830328106880188,-4.060801029205322,3.5,0,A/E1,6.1,180,0,4.455091630249129,[6400|0|0|0]
13600,0.7509255409240723,0.6900097727775574,0.22142764925956726,-0.946063756942749,1.0644725561141968,-2.7958555221557617,3.509765625,0,A/E1,6.1,180,0,4.536852720344413,[6400|0|0|0]
13700,0.758355975151062,0.7007405757904053,0.1629592478275299,0.938130795955658,1.2024770975112915,-1.432920217514038,3.525390625,0,A/E1,6.1,180,0,4.5967602778986985,[6400|0|0|0]
13800,0.7656645774841309,0.7114296555519104,0.1255190670490265,1.1714518070220947,1.7671891450881958,1.1191861629486084,3.546875,0,A/E1,6.1,180,0,4.636376426511831,[6400|0|0|0]
13900,0.7709217667579651,0.7200157046318054,0.10511159896850586,3.540449857711792,2.712007761001587,3.5609004497528076,3.57421875,0,A/E1,6.1,180,0,4.65913215175452,[6400|0|0|0]
14000,0.774618923664093,0.7240862846374512,0.097634457051754,2.792485237121582,1.7548837661743164,4.100287914276123,3.58984375,0,A/E1,6.1,180,0,4.6684136517418136,[6400|0|0|0]
14100,0.77549147605896,0.7225344181060791,0.09684574604034424,2.7691237926483154,3.1028356552124023,3.342228889465332,3.599609375,0,A/E1,6.1,180,0,4.670360881176806,[6400|0|0|0]
14200,0.772269606590271,0.7175819277763367,0.09796401858329773,0.786415696144104,2.3475615978240967,0.32499828934669495,3.60546875,0,A/E1,6.1,180,0,4.676374044805029,[6400|0|0|0]
14300,0.7645652294158936,0.7116411924362183,0.09903200715780258,0.7183425426483154,0.9725568890571594,-2.379692316055298,3.60546875,0,A/E1,6.1,180,0,4.686161299967825,[6400|0|0|0]
14400,0.7543755173683167,0.7049151659011841,0.10111326724290848,-0.22449199855327606,0.4564420282840729,-2.802732467651367,3.599609375,0,A/E1,6.1,180,0,4.698546828140025,[6400|0|0|0]
14500,0.7429817914962769,0.6995887160301208,0.1035921722650528,0.5768862366676331,-0.4172578454017639,-1.695974349975586,3.60546875,0,A/E1,6.1,180,0,4.711366072563351,[6400|0|0|0]
14600,0.7318304181098938,0.6943429112434387,0.10607990622520447,-1.3589160442352295,-1.6203557252883911,-1.427791953086853,3.599609375,0,A/E1,6.1,180,0,4.72393828066372,[6400|0|0|0]
14700,0.7240048050880432,0.6903374791145325,0.10589201748371124,-0.8643581867218018,-1.9088187217712402,-1.4852584600448608,3.599609375,0,A/E1,6.1,180,0,4.732731403424504,[6400|0|0|0]
14800,0.7199689149856567,0.689487099647522,0.10413207113742828,-3.0090243816375732,-2.106794834136963,-2.241071939468384,3.599609375,0,A/E1,6.1,180,0,4.737215705521625,[6400|0|0|0]
14900,0.7195730805397034,0.6935434341430664,0.10229326039552689,-2.6117072105407715,-0.6168608665466309,-3.043722629547119,3.59375,0,A/E1,6.1,180,0,4.741686920053817,[6400|0|0|0]
15000,0.7223208546638489,0.7034180164337158,0.09902232885360718,-0.888627827167511,-1.5097503662109375,-2.937617540359497,3.58984375,0,A/E1,6.1,180,0,4.752445945623266,[6400|0|0|0]
15100,0.7268804907798767,0.7133181095123291,0.09933921694755554,3.5820672512054443,0.060752782970666885,-1.0939961671829224,3.599609375,0,A/E1,6.1,180,0,4.76335018986759,[6400|0|0|0]
15200,0.7329590320587158,0.7175275683403015,0.10023961961269379,2.297806978225708,0.08911057561635971,-0.5522911548614502,3.59375,0,A/E1,6.1,180,0,4.770798607999136,[6400|0|0|0]
15300,0.7395431399345398,0.7159644365310669,0.1015552505850792,2.4465301036834717,0.799877405166626,0.26023417711257935,3.59375,0,A/E1,6.1,180,0,4.777692427145953,[6400|0|0|0]
15400,0.744361937046051,0.7107418179512024,0.10351061820983887,0.5806401968002319,2.0528697967529297,1.3507390022277832,3.611328125,0,F1,6.1,180,0,4.785062638335642,[6400|0|100|0]
15500,0.7455677390098572,0.7052016258239746,0.10331543534994125,-1.0187324285507202,1.0151124000549316,2.924647569656372,3.59375,0,F1,6.1,180,0,4.790735889919286,[6400|0|200|0]
15600,0.7455033659934998,0.6995882987976074,0.10189017653465271,0.3630542457103729,0.40750816464424133,4.782628536224365,3.58984375,0,F1,6.1,180,0,4.796527689888271,[6400|0|300|0]
15700,0.7457138299942017,0.6945310235023499,0.100737065076828,-1.937579870223999,1.0785768032073975,5.816903114318848,3.583984375,0,F1,6.1,180,0,4.801719028303534,[6400|0|400|0]
15800,0.7431239485740662,0.692095935344696,0.10181225091218948,-1.5101104974746704,0.7104002237319946,5.747066974639893,3.583984375,0,F1,6.1,180,0,4.80543294331151,[6400|0|500|0]
15900,0.7390539646148682,0.6932191848754883,0.10311790555715561,-1.3772605657577515,0.9832801818847656,4.839410781860352,3.58984375,0,F1,6.1,180,0,4.809852354243804,[6400|0|600|0]
16000,0.7324659824371338,0.6976752877235413,0.10474984347820282,-1.3589950799942017,0.9444864988327026,4.154971599578857,3.599609375,0,F1,6.1,180,0,4.817971564990221,[6400|0|700|0]
16100,0.724526584148407,0.7057201862335205,0.1054074764251709,-0.904330849647522,1.009342074394226,3.6321756839752197,3.58984375,0,F1,6.1,180,0,4.829293531176173,[6400|0|800|0]
16200,0.7151269316673279,0.7180762887001038,0.1070457473397255,-1.088495135307312,-0.04687199369072914,2.9848926067352295,3.58984375,0,F1,6.1,180,0,4.8449047664418154,[6400|0|900|0]
16300,0.7047376036643982,0.7332853674888611,0.11002602428197861,-0.42144107818603516,0.09080096334218979,3.0428318977355957,3.599609375,0,F1,6.1,180,0,4.863563176465385,[6400|0|1000|0]
16400,0.6942400932312012,0.7518289089202881,0.11350619792938232,-0.6767928004264832,-0.35391077399253845,2.692647933959961,3.59375,0,F1,6.1,180,0,4.885154199200082,[6400|0|1100|0]
16500,0.6833711862564087,0.771796703338623,0.11858000606298447,0.4820328950881958,0.9118867516517639,3.256596565246582,3.60546875,0,F1,6.1,180,0,4.908447749417603,[6400|0|1200|0]
16600,0.6736443638801575,0.7911916971206665,0.12054242193698883,1.2815582752227783,-0.8402676582336426,4.629762172698975,3.59375,0,F1,6.1,180,0,4.93023370667009,[6400|0|1300|0]
16700,0.664539635181427,0.8093112707138062,0.11972057074308395,0.9298392534255981,0.037603702396154404,5.673588752746582,3.58984375,0,F1,6.1,180,0,4.950528791574066,[6400|0|1400|0]
16800,0.6568939685821533,0.8245103359222412,0.11600563675165176,1.5321911573410034,-0.870277464389801,6.291249752044678,3.57421875,0,F1,6.1,180,0,4.967943398532542,[6400|0|1500|0]
16900,0.6508526802062988,0.836430549621582,0.11239193379878998,1.7701367139816284,0.13958513736724854,5.765285968780518,3.568359375,0,F1,6.1,180,0,4.981787079723241,[6400|0|1600|0]
17000,0.6460686326026917,0.8446517586708069,0.11188972741365433,1.3445465564727783,0.18238909542560577,4.520474433898926,3.578125,0,F1,6.1,180,0,4.9913121834475005,[6400|0|1700|0]
17100,0.6423149108886719,0.8500953912734985,0.11545441299676895,0.7266222834587097,-0.13950835168361664,3.546475410461426,3.59375,0,F1,6.1,180,0,4.9988242101997065,[6400|0|1800|0]
17200,0.6390455365180969,0.854386031627655,0.12155192345380783,0.6568642854690552,0.5508190989494324,2.8361167907714844,3.599609375,0,F1,6.1,180,0,5.006965342626917,[6400|0|1900|0]
17300,0.6360762715339661,0.8562346696853638,0.12720265984535217,0.532914936542511,0.3357875347137451,2.5106618404388428,3.599609375,0,F1,6.1,180,0,5.013611004293081,[6400|0|2000|0]
17400,0.6330525875091553,0.8584743142127991,0.12656269967556,0.27459612488746643,-0.6405144333839417,2.1287269592285156,3.98046875,0,F1,6.1,180,0,5.0174278382834565,[6400|0|2100|0]
17500,0.6319317817687988,0.8603177666664124,0.08614067733287811,-0.971983015537262,-5.771705627441406,1.286928653717041,3.984375,0,F1,6.1,180,0,5.057907393774205,[6400|0|2200|0]
17600,0.6328617334365845,0.8620466589927673,-0.0236014686524868,-2.7206966876983643,-13.66356372833252,0.16229602694511414,3.990234375,0,F1,6.1,180,0,5.1676670971459515,[6400|0|2300|0]
17700,0.6277641654014587,0.8679490089416504,-0.05727091059088707,-3.599353790283203,0.13693848252296448,-2.921159029006958,3.990234375,0,F1,6.1,180,0,5.202227974670041,[6400|0|2400|0]
17800,0.6281738877296448,0.8689554333686829,-0.05541697144508362,-4.645073890686035,0.8456542491912842,-1.99813711643219,3.990234375,0,F1,6.1,180,0,5.204376893670349,[6400|0|2500|0]
17900,0.6286506652832031,0.8679863810539246,-0.0544341541826725,-4.467070579528809,0.8525449633598328,-1.9088311195373535,3.99609375,0,F1,6.1,180,0,5.205837136456878,[6400|0|2600|0]
18000,0.6288939118385315,0.8680388927459717,-0.05396806821227074,-4.376181602478027,0.9395558834075928,-1.8144553899765015,3.99609375,0,F1,6.1,180,0,5.206365494759818,[6400|0|2700|0]
18100,0.6293799877166748,0.8677098155021667,-0.053829170763492584,-4.241378307342529,1.0361449718475342,-1.7779057025909424,4.0,0,F1,6.1,180,0,5.2069686979535925,[6400|0|2800|0]
18200,0.6343750953674316,0.8720744848251343,-0.04991736263036728,-4.20090913772583,1.0701090097427368,-1.79610013961792,4.0,0,F1,6.1,180,0,5.214669586318703,[6400|0|2900|0]
18300,0.6307452917098999,0.8666398525238037,-0.05311920866370201,-3.5398781299591064,0.9609400033950806,-2.6322124004364014,4.0,0,F1,6.1,180,0,5.221947121675132,[6400|0|3000|0]
18400,0.6306979656219482,0.87114018201828,-0.05254913493990898,-4.136016845703125,1.5215353965759277,-1.6501680612564087,4.0,0,F1,6.1,180,0,5.226483661035483,[6400|0|3100|0]
18500,0.6310160756111145,0.8605332374572754,-0.042851150035858154,-6.344473838806152,5.744446754455566,-2.7336771488189697,4.0078125,0,F1,6.1,180,0,5.24085931330189,[6400|0|3200|0]
18600,0.6661632061004639,0.8094655275344849,0.005329713691025972,-10.80960750579834,12.549152374267578,-10.555728912353516,4.0078125,0,F1,6.1,180,0,5.319374454566885,[6400|0|3300|0]
18700,0.7187463045120239,0.7806415557861328,0.003028078470379114,-7.244822978973389,15.957879066467285,-5.895735263824463,4.0078125,0,F1,6.1,180,0,5.379383629787001,[6400|0|3400|0]
18800,0.7345945239067078,0.7668456435203552,-0.019516555592417717,-2.310227632522583,13.5438232421875,-13.457716941833496,4.0078125,0,F1,6.1,180,0,5.410201705298825,[6400|0|3500|0]
18900,0.7320244908332825,0.7609076499938965,-0.030107839033007622,1.168732762336731,1.9826971292495728,-11.495024681091309,4.0078125,0,F1,6.1,180,0,5.422612995402504,[6400|0|3600|0]
19000,0.7373027205467224,0.7619305849075317,-0.028984015807509422,-1.9263222217559814,-1.0587186813354492,-12.721869468688965,4.01171875,0,F1,6.1,180,0,5.428105634421004,[6400|0|3700|0]
19100,0.7399390935897827,0.7649974822998047,-0.028690360486507416,-2.189380645751953,-1.1896721124649048,-12.630477905273438,4.01171875,0,F1,6.1,180,0,5.432160576576505,[6400|0|3800|0]
19200,0.7342563271522522,0.7597029805183411,-0.03265349194407463,-2.039499044418335,-0.9329990744590759,-12.535948753356934,4.01171875,0,F1,6.1,180,0,5.44088020927791,[6400|0|3900|0]
19300,0.7348200082778931,0.7597339749336243,-0.03144766762852669,-2.0087826251983643,-0.7872796058654785,-12.426920890808105,4.01171875,0,F1,6.1,180,0,5.442211640592379,[6400|0|4000|0]
19400,0.7342046499252319,0.7601720094680786,-0.03305578604340553,-2.0303566455841064,-0.6513922214508057,-12.392495155334473,4.01171875,0,F1,6.1,180,0,5.443988318670095,[6400|0|4100|0]
19500,0.7339173555374146,0.7600970268249512,-0.03272770345211029,-2.0454201698303223,-0.5302160382270813,-12.374897003173828,4.01171875,0,F1,6.1,180,0,5.444430810081031,[6400|0|4200|0]
19600,0.7340041995048523,0.7602119445800781,-0.03293627128005028,-2.058454751968384,-0.4447495937347412,-12.39284610748291,4.0859375,0,F1,6.1,180,0,5.444684282967106,[6400|0|4300|0]
19700,0.733860194683075,0.7604885697364807,-0.03277191147208214,-2.0682504177093506,-0.3849273920059204,-12.378510475158691,4.08984375,0,F1,6.1,180,0,5.445036806742652,[6400|0|4400|0]
19800,0.7340118885040283,0.7602667212486267,-0.03300216421484947,-2.063119411468506,-0.3553452789783478,-12.40155029296875,4.08984375,0,F1,6.1,180,0,5.445390705163715,[6400|0|4500|0]
19900,0.7340549826622009,0.7602459192276001,-0.033003609627485275,-2.0661003589630127,-0.32693934440612793,-12.404413223266602,4.09765625,0,F1,6.1,180,0,5.445438579162556,[6400|0|4600|0]
20000,0.733894944190979,0.7604766488075256,-0.03282903879880905,-2.05013108253479,-0.29362577199935913,-12.41858196258545,4.09765625,0,F1,6.1,180,0,5.445769220094004,[6400|0|4700|0]
20100,0.743010938167572,0.7756046652793884,-0.02325388975441456,-2.474936008453369,-0.5085338354110718,-12.320305824279785,4.09765625,0,F1,6.1,180,0,5.46586005650707,[6400|0|4800|0]
20200,0.7429410815238953,0.7758703231811523,-0.02270467020571232,-2.479720115661621,-0.5004628896713257,-12.312638282775879,4.09765625,0,F1,6.1,180,0,5.466474138084804,[6400|0|4900|0]
20300,0.7424523234367371,0.7759402990341187,-0.02295232005417347,-2.4743661880493164,-0.47322967648506165,-12.321165084838867,4.09765625,0,F1,6.1,180,0,5.467026507105662,[6400|0|5000|0]
20400,0.7429694533348083,0.7757562398910522,-0.0227762870490551,-2.466695785522461,-0.48663628101348877,-12.33055305480957,4.1015625,0,F1,6.1,180,0,5.467602952002002,[6400|0|5100|0]
20500,0.7427277565002441,0.7757889628410339,-0.023290101438760757,-2.4826560020446777,-0.47733810544013977,-12.346035957336426,4.1015625,0,F1,6.1,180,0,5.468171716784986,[6400|0|5200|0]
20600,0.7427586317062378,0.7758091688156128,-0.022799663245677948,-2.4872612953186035,-0.4768897593021393,-12.333785057067871,4.1015625,0,F1,6.1,180,0,5.468663541124551,[6400|0|5300|0]
20700,0.7429510951042175,0.7756662964820862,-0.023105647414922714,-2.489154815673828,-0.47931230068206787,-12.344283103942871,4.1015625,0,F1,6.1,180,0,5.469052232486788,[6400|0|5400|0]
20800,0.7427498698234558,0.7756802439689636,-0.023429865017533302,-2.4943268299102783,-0.4757829010486603,-12.338687896728516,4.10546875,0,F1,6.1,180,0,5.469434074338672,[6400|0|5500|0]
20900,0.7426983118057251,0.7755829095840454,-0.022965822368860245,-2.490648031234741,-0.4812246263027191,-12.328859329223633,4.10546875,0,F1,6.1,180,0,5.469911010174469,[6400|0|5600|0]
21000,0.7426612377166748,0.7758752703666687,-0.022851135581731796,-2.4867360591888428,-0.4817695617675781,-12.315155982971191,4.10546875,0,F1,6.1,180,0,5.4702272416947775,[6400|0|5700|0]
21100,0.7428869009017944,0.7758525013923645,-0.022911228239536285,-2.513017177581787,-0.486709862947464,-12.31753158569336,4.10546875,0,F1,6.1,180,0,5.470461876361507,[6400|0|5800|0]
21200,0.7427634596824646,0.7757905721664429,-0.02306055836379528,-2.5301506519317627,-0.48629310727119446,-12.303557395935059,4.10546875,0,F1,6.1,180,0,5.470665278548477,[6400|0|5900|0]
21300,0.7426336407661438,0.7758517861366272,-0.02287132851779461,-2.5284903049468994,-0.48324039578437805,-12.294968605041504,4.10546875,0,F1,6.1,180,0,5.470902782308022,[6400|0|6000|0]
21400,0.7427047491073608,0.7758952379226685,-0.022886941209435463,-2.5285539627075195,-0.4880980849266052,-12.307998657226562,4.11328125,0,F1,6.1,180,0,5.470987565620301,[6400|0|6100|0]
21500,0.7427496314048767,0.775479257106781,-0.023165453225374222,-2.5220232009887695,-0.4940781891345978,-12.31801986694336,4.11328125,0,F1,6.1,180,0,5.471490182176772,[6400|0|6200|0]
21600,0.742821455001831,0.7761673927307129,-0.02284744754433632,-2.5416927337646484,-0.49348339438438416,-12.342158317565918,4.11328125,0,F1,6.1,180,0,5.472251639253156,[6400|0|6300|0]
21700,0.7425097227096558,0.7759132385253906,-0.02287045307457447,-2.52994704246521,-0.4803449213504791,-12.34916877746582,4.11328125,0,F1,6.1,180,0,5.472654504784679,[6400|0|6400|0]
21801,0.7425096035003662,0.7755070328712463,-0.0234035886824131,-2.5136260986328125,-0.48079144954681396,-12.350497245788574,4.11328125,0,F1,6.1,180,0,5.4733247559495535,[6400|0|6500|0]
21901,0.7427220940589905,0.77585768699646,-0.0231381393969059,-2.5253753662109375,-0.4878208339214325,-12.331717491149902,4.11328125,0,F1,6.1,180,0,5.473813196197906,[6400|0|6600|0]
22001,0.7426350116729736,0.7756969928741455,-0.022835053503513336,-2.5213303565979004,-0.49415135383605957,-12.30374526977539,4.11328125,0,F1,6.1,180,0,5.474167126984465,[6400|0|6700|0]
22101,0.7429138422012329,0.7758918404579163,-0.023084238171577454,-2.5438976287841797,-0.4973374307155609,-12.324316024780273,4.11328125,0,F1,6.1,180,0,5.474588796337382,[6400|0|6800|0]
22201,0.7425259947776794,0.7757675051689148,-0.02339605614542961,-2.5378191471099854,-0.48302513360977173,-12.349787712097168,4.1171875,0,F1,6.1,180,0,5.475101744031465,[6400|0|6900|0]
22301,0.7426533102989197,0.7756587266921997,-0.023081699386239052,-2.538831949234009,-0.48659002780914307,-12.336599349975586,4.1171875,0,F1,6.1,180,0,5.4754579211938355,[6400|0|7000|0]
22401,0.7426807284355164,0.7759373188018799,-0.022891413420438766,-2.548388719558716,-0.47471797466278076,-12.349228858947754,4.1171875,0,F1,6.1,180,0,5.475796409105837,[6400|0|7100|0]
22501,0.7425339818000793,0.7759350538253784,-0.022912509739398956,-2.5476372241973877,-0.4701121747493744,-12.332655906677246,4.1171875,0,F1,6.1,180,0,5.475944681691989,[6400|0|7200|0]
22601,0.7424803376197815,0.7758765816688538,-0.022743189707398415,-2.5434353351593018,-0.46637579798698425,-12.33788013458252,4.1171875,0,F1,6.1,180,0,5.476131673575249,[6400|0|7300|0]
22701,0.7428040504455566,0.7759014368057251,-0.02312902733683586,-2.5435683727264404,-0.4798404574394226,-12.336258888244629,4.1171875,0,F1,6.1,180,0,5.476635933872804,[6400|0|7400|0]
22802,0.7427859306335449,0.7757574915885925,-0.023341426625847816,-2.5312135219573975,-0.4680151641368866,-12.33641242980957,4.1171875,0,F1,6.1,180,0,5.47689315364478,[6400|0|7500|0]
22902,0.74244624376297,0.7758097648620605,-0.02299766056239605,-2.5350630283355713,-0.46236953139305115,-12.335366249084473,4.12109375,0,F1,6.1,180,0,5.477379255250971,[6400|0|7600|0]
23002,0.7427883148193359,0.7755909562110901,-0.022888166829943657,-2.5364677906036377,-0.4770658612251282,-12.335230827331543,4.12109375,0,F1,6.1,180,0,5.477799824758649,[6400|0|7700|0]
23100,0.7427277565002441,0.7759152054786682,-0.022964730858802795,-2.5477588176727295,-0.47541162371635437,-12.3181734085083,4.12109375,0,F1,6.1,180,0,5.478138449843442,[6400|0|7800|0]
23200,0.7426415085792542,0.7754451632499695,-0.02311047539114952,-2.535343885421753,-0.4777294397354126,-12.321545600891113,4.12109375,0,F1,6.1,180,0,5.478638069568177,[6400|0|7900|0]
23300,0.7429474592208862,0.7759074568748474,-0.023231055587530136,-2.5484251976013184,-0.4954715967178345,-12.316744804382324,4.12109375,0,F1,6.1,180,0,5.479205397316905,[6400|0|8000|0]
23400,0.7425824403762817,0.7760311365127563,-0.023063035681843758,-2.5455245971679688,-0.4862789809703827,-12.3175687789917,4.12109375,0,F1,6.1,180,0,5.479625832922506,[6400|0|8100|0]
23500,0.7426243424415588,0.7760571837425232,-0.02328520268201828,-2.5468170642852783,-0.49381017684936523,-12.330605506896973,4.12109375,0,F1,6.1,180,0,5.479853412397018,[6400|0|8200|0]
23600,0.7426782846450806,0.7757422924041748,-0.023410920053720474,-2.5395069122314453,-0.5010365843772888,-12.339380264282227,4.12109375,0,F1,6.1,180,0,5.480196736112825,[6400|0|8300|0]
23700,0.7426979541778564,0.7756243944168091,-0.023086698725819588,-2.535236120223999,-0.5066947340965271,-12.334178924560547,4.12109375,0,F1,6.1,180,0,5.480542288273012,[6400|0|8400|0]
23800,0.7425359487533569,0.7756749391555786,-0.02276543527841568,-2.528395175933838,-0.49247342348098755,-12.334272384643555,4.12890625,0,F1,6.1,180,0,5.4809056210830125,[6400|0|8500|0]
23900,0.7426527142524719,0.7754766345024109,-0.023235391825437546,-2.530359983444214,-0.4932544529438019,-12.324143409729004,4.12890625,0,F1,6.1,180,0,5.4814288973707805,[6400|0|8600|0]
24000,0.742581307888031,0.7758917212486267,-0.02327827364206314,-2.542384624481201,-0.48458102345466614,-12.329834938049316,4.12890625,0,F1,6.1,180,0,5.481852258594754,[6400|0|8700|0]
24100,0.7424749135971069,0.7759479880332947,-0.0227969903498888,-2.540628433227539,-0.48464953899383545,-12.311293601989746,4.12890625,0,F1,6.1,180,0,5.482348362720441,[6400|0|8800|0]
24200,0.7427504062652588,0.7758314609527588,-0.022788483649492264,-2.5408246517181396,-0.49374625086784363,-12.314830780029297,4.12890625,0,F1,6.1,180,0,5.482647606992994,[6400|0|8900|0]
24300,0.7429633736610413,0.7756896615028381,-0.023390032351017,-2.53947377204895,-0.505677342414856,-12.295273780822754,4.12890625,0,F1,6.1,180,0,5.483301306492741,[6400|0|9000|0]
24400,0.7425220012664795,0.7756748199462891,-0.02284018136560917,-2.5426013469696045,-0.49286770820617676,-12.312370300292969,4.12890625,0,F1,6.1,180,0,5.48400654827301,[6400|0|9100|0]
24500,0.742781400680542,0.7758991718292236,-0.02282492071390152,-2.5463292598724365,-0.5013186931610107,-12.309213638305664,4.12890625,0,F1,6.1,180,0,5.484349848012134,[6400|0|9200|0]
24600,0.7425788640975952,0.7761219143867493,-0.023313356563448906,-2.547363042831421,-0.495880663394928,-12.306218147277832,4.12890625,0,F1,6.1,180,0,5.4849236118080364,[6400|0|9300|0]
24700,0.742343008518219,0.7755857110023499,-0.022893238812685013,-2.532541275024414,-0.4988526999950409,-12.327848434448242,4.12890625,0,F1,6.1,180,0,5.485644472993197,[6400|0|9400|0]
24800,0.7427533268928528,0.7756189703941345,-0.02296680584549904,-2.5361194610595703,-0.512828528881073,-12.325727462768555,4.1328125,0,F1,6.1,180,0,5.486062658913598,[6400|0|9500|0]
24900,0.7428584694862366,0.7757388353347778,-0.02337620221078396,-2.542064666748047,-0.5185911059379578,-12.318647384643555,4.1328125,0,F1,6.1,180,0,5.486502008379112,[6400|0|9600|0]
25000,0.7426007390022278,0.7756328582763672,-0.0230448879301548,-2.5376734733581543,-0.5126356482505798,-12.334006309509277,4.1328125,0,F1,6.1,180,0,5.486934934806864,[6400|0|9700|0]
25100,0.742913007736206,0.7760353088378906,-0.023150429129600525,-2.547307014465332,-0.5200667381286621,-12.31194019317627,4.1328125,0,F1,6.1,180,0,5.4874551435740635,[6400|0|9800|0]
25200,0.7425479888916016,0.7760130763053894,-0.02288813330233097,-2.5371134281158447,-0.5096316337585449,-12.304160118103027,4.1328125,0,F1,6.1,180,0,5.487905179287559,[6400|0|9900|0]
25300,0.7429669499397278,0.7758126258850098,-0.023077523335814476,-2.5283100605010986,-0.5052611231803894,-12.310185432434082,4.1328125,0,F1,6.1,180,0,5.488406754123112,[6400|0|10000|0]
25400,0.742540180683136,0.775996744632721,-0.022982914000749588,-2.534935235977173,-0.4986023008823395,-12.2988862991333,4.1328125,0,F1,6.1,180,0,5.488881077470537,[6400|0|10100|0]
25500,0.7426183223724365,0.775946319103241,-0.022901039570569992,-2.5327062606811523,-0.49808090925216675,-12.314179420471191,4.1328125,0,F1,6.1,180,0,5.489004981788248,[6400|0|10200|0]
25600,0.7426058650016785,0.775510847568512,-0.022857103496789932,-2.525853395462036,-0.5031702518463135,-12.35403060913086,4.1328125,0,F1,6.1,180,0,5.489442841380154,[6400|0|10300|0]
25700,0.7431787848472595,0.7746208310127258,-0.023246224969625473,-2.5366427898406982,-0.5089439153671265,-12.356891632080078,4.1328125,0,F1,6.1,180,0,5.490570574566531,[6400|0|10400|0]
25800,0.7432423233985901,0.7748093605041504,-0.023153485730290413,-2.5322587490081787,-0.500074565410614,-12.336414337158203,4.13671875,0,F1,6.1,180,0,5.490790076464369,[6400|0|10500|0]
25900,0.7434620261192322,0.7749763131141663,-0.0234002023935318,-2.538583278656006,-0.4924944043159485,-12.342265129089355,4.13671875,0,F1,6.1,180,0,5.491160227205783,[6400|0|10600|0]
26000,0.7429956197738647,0.7748129963874817,-0.02362021617591381,-2.53497052192688,-0.4793703854084015,-12.348844528198242,4.13671875,0,F1,6.1,180,0,5.491701164629753,[6400|0|10700|0]
26100,0.7432359457015991,0.774894118309021,-0.0234313253313303,-2.5348074436187744,-0.4900648593902588,-12.342334747314453,4.1328125,0,F1,6.1,180,0,5.492017419382861,[6400|0|10800|0]
26200,0.7432194948196411,0.7748284935951233,-0.023113857954740524,-2.5317044258117676,-0.4834284782409668,-12.34471321105957,4.13671875,0,F1,6.1,180,0,5.4923420157010625,[6400|0|10900|0]
26300,0.7431360483169556,0.7748793959617615,-0.023026278242468834,-2.5304250717163086,-0.48057788610458374,-12.331295013427734,4.13671875,0,F1,6.1,180,0,5.49247325813224,[6400|0|11000|0]
26400,0.7434138655662537,0.7743523716926575,-0.02336939610540867,-2.520256280899048,-0.4863874614238739,-12.358109474182129,4.13671875,0,F1,6.1,180,0,5.493160765857361,[6400|0|11100|0]
26500,0.7431909441947937,0.7746900320053101,-0.023063883185386658,-2.5315823554992676,-0.47516071796417236,-12.378929138183594,4.13671875,0,F1,6.1,180,0,5.493667763459816,[6400|0|11200|0]
26600,0.7432945966720581,0.7747169137001038,-0.023834871128201485,-2.5378735065460205,-0.48104149103164673,-12.3740234375,4.13671875,0,F1,6.1,180,0,5.4944461520963745,[6400|0|11300|0]
26700,0.7430198788642883,0.7749007344245911,-0.02305728755891323,-2.540564775466919,-0.47786200046539307,-12.367278099060059,4.13671875,0,F1,6.1,180,0,5.495291075844345,[6400|0|11400|0]
26800,0.7431252002716064,0.7748154997825623,-0.023160846903920174,-2.5312798023223877,-0.4799957275390625,-12.356673240661621,4.13671875,0,F1,6.1,180,0,5.49546161053577,[6400|0|11500|0]
26900,0.7432523369789124,0.7747201919555664,-0.02336304262280464,-2.537644147872925,-0.4866723418235779,-12.35900592803955,4.13671875,0,F1,6.1,180,0,5.495718768916864,[6400|0|11600|0]
27000,0.7431668043136597,0.7748859524726868,-0.02314041554927826,-2.5417613983154297,-0.4796326756477356,-12.358963966369629,4.13671875,0,F1,6.1,180,0,5.496009208583108,[6400|0|11700|0]
27100,0.743448793888092,0.7748146057128906,-0.02290675975382328,-2.5434863567352295,-0.49084168672561646,-12.374183654785156,4.13671875,0,F1,6.1,180,0,5.496382308450398,[6400|0|11800|0]
27200,0.7429810166358948,0.7749942541122437,-0.023192977532744408,-2.5430424213409424,-0.4771689474582672,-12.363719940185547,4.14453125,0,F1,6.1,180,0,5.496959378395928,[6400|0|11900|0]
27300,0.7429655194282532,0.7745558619499207,-0.023827148601412773,-2.5366363525390625,-0.4819006621837616,-12.372108459472656,4.14453125,0,F1,6.1,180,0,5.497730482017867,[6400|0|12000|0]
27400,0.7429697513580322,0.7749896049499512,-0.02318437211215496,-2.549100637435913,-0.48521021008491516,-12.355033874511719,4.14453125,0,F1,6.1,180,0,5.4985059254487165,[6400|0|12100|0]
27500,0.7434403300285339,0.7747731804847717,-0.023228224366903305,-2.5444936752319336,-0.4990326464176178,-12.34294605255127,4.14453125,0,F1,6.1,180,0,5.49902573969872,[6400|0|12200|0]
27600,0.7431488633155823,0.7746677398681641,-0.022999240085482597,-2.5423152446746826,-0.48606184124946594,-12.35029411315918,4.14453125,0,F1,6.1,180,0,5.4994111023454915,[6400|0|12300|0]
27700,0.7435111999511719,0.7746917009353638,-0.023381192237138748,-2.5480799674987793,-0.4995950162410736,-12.328373908996582,4.14453125,0,F1,6.1,180,0,5.499938121715521,[6400|0|12400|0]
27800,0.7433699369430542,0.7745400667190552,-0.023474793881177902,-2.539426565170288,-0.49867549538612366,-12.317748069763184,4.14453125,0,F1,6.1,180,0,5.500165518814854,[6400|0|12500|0]
27900,0.7430174350738525,0.7748249173164368,-0.02340572699904442,-2.5423479080200195,-0.48811736702919006,-12.330384254455566,4.14453125,0,F1,6.1,180,0,5.500623959285174,[6400|0|12600|0]
28000,0.7430666089057922,0.7748945355415344,-0.02334723062813282,-2.5390987396240234,-0.4909835457801819,-12.340578079223633,4.14453125,0,F1,6.1,180,0,5.500727335241872,[6400|0|12700|0]
28100,0.7433117628097534,0.7746560573577881,-0.02358163520693779,-2.532801866531372,-0.4994749426841736,-12.336054801940918,4.14453125,0,F1,6.1,180,0,5.501141964940899,[6400|0|12800|0]
28200,0.7434490919113159,0.7749036550521851,-0.02313309721648693,-2.537548303604126,-0.5039167404174805,-12.348729133605957,4.14453125,0,F1,6.1,180,0,5.501672389515448,[6400|0|12900|0]
28300,0.7428723573684692,0.7745928168296814,-0.023591307923197746,-2.524965763092041,-0.4898832440376282,-12.350113868713379,4.14453125,0,F1,6.1,180,0,5.502471889474939,[6400|0|13000|0]
28400,0.7432112693786621,0.7749237418174744,-0.02333591692149639,-2.5394701957702637,-0.5055763125419617,-12.351542472839355,4.14453125,0,F1,6.1,180,0,5.503010031892844,[6400|0|13100|0]
28500,0.7430840134620667,0.7745657563209534,-0.023339292034506798,-2.534092664718628,-0.5050409436225891,-12.342130661010742,4.14453125,0,F1,6.1,180,0,5.50338997804089,[6400|0|13200|0]
28600,0.743526816368103,0.7747021913528442,-0.023383313789963722,-2.5463480949401855,-0.5135241150856018,-12.33453369140625,4.14453125,0,F1,6.1,180,0,5.503855409933303,[6400|0|13300|0]
28700,0.7437346577644348,0.7746587991714478,-0.023222612217068672,-2.5468883514404297,-0.5159249305725098,-12.341926574707031,4.14453125,0,F1,6.1,180,0,5.504121691594269,[6400|0|13400|0]
28800,0.7429420351982117,0.77461838722229,-0.02325059287250042,-2.5405921936035156,-0.49089768528938293,-12.358970642089844,4.1484375,0,F1,6.1,180,0,5.504915836779483,[6400|0|13500|0]
28900,0.7435241937637329,0.7748873829841614,-0.023350484669208527,-2.552260398864746,-0.5072022676467896,-12.351953506469727,4.1484375,0,F1,6.1,180,0,5.50556487120566,[6400|0|13600|0]
29000,0.7433242797851562,0.7747091054916382,-0.023620763793587685,-2.5463390350341797,-0.5029155015945435,-12.347983360290527,4.1484375,0,F1,6.1,180,0,5.505945396195965,[6400|0|13700|0]
29100,0.7434653639793396,0.7746983766555786,-0.023281637579202652,-2.5431790351867676,-0.5056349039077759,-12.339729309082031,4.1484375,0,F1,6.1,180,0,5.506312855645502,[6400|0|13800|0]
29200,0.7429152727127075,0.7747451663017273,-0.023161517456173897,-2.541182279586792,-0.4914935529232025,-12.351358413696289,4.1484375,0,F1,6.1,180,0,5.506877849907923,[6400|0|13900|0]
29300,0.7436985373497009,0.7763146162033081,-0.02121933177113533,-2.597935914993286,-0.5744414925575256,-12.340466499328613,4.1484375,0,F1,6.1,180,0,5.509494863801716,[6400|0|14000|0]
29400,0.7442277669906616,0.7752209305763245,-0.022281352430582047,-2.397307872772217,-0.5820047855377197,-12.24370002746582,4.1484375,0,F1,6.1,180,0,5.511108592448246,[6400|0|14100|0]
29500,0.7437438368797302,0.774528980255127,-0.023854242637753487,-2.4242591857910156,-0.5215423703193665,-12.247224807739258,4.1484375,0,F1,6.1,180,0,5.5128938003361645,[6400|0|14200|0]
29600,0.7436053156852722,0.7741865515708923,-0.023696517571806908,-2.4641664028167725,-0.5079149007797241,-12.279542922973633,4.1484375,0,F1,6.1,180,0,5.513295450334955,[6400|0|14300|0]
29700,0.7429894804954529,0.7744305729866028,-0.02330424077808857,-2.4939615726470947,-0.4808254539966583,-12.290480613708496,4.1484375,0,F1,6.1,180,0,5.514065307799188,[6400|0|14400|0]
29800,0.743226170539856,0.7748453617095947,-0.02345740795135498,-2.5271809101104736,-0.4769083261489868,-12.332497596740723,4.1484375,0,F1,6.1,180,0,5.514566837503999,[6400|0|14500|0]
29900,0.7432968020439148,0.7749340534210205,-0.023451950401067734,-2.5397398471832275,-0.4737934470176697,-12.326567649841309,4.1484375,0,F1,6.1,180,0,5.514680348798135,[6400|0|14600|0]
30000,0.7429531812667847,0.7748827338218689,-0.023279692977666855,-2.5478951930999756,-0.4629398584365845,-12.326584815979004,4.1484375,0,F1,6.1,180,0,5.515068139411287,[6400|0|14700|0]
30100,0.7430819272994995,0.7748100757598877,-0.023182326927781105,-2.558349609375,-0.4706302583217621,-12.340476989746094,4.1484375,0,F1,6.1,180,0,5.515245156027968,[6400|0|14800|0]
30200,0.7428920865058899,0.7747781872749329,-0.023255666717886925,-2.56394362449646,-0.4775712788105011,-12.35179328918457,4.1484375,0,F1,6.1,180,0,5.5154511539095195,[6400|0|14900|0]
30300,0.7426220774650574,0.7754946351051331,-0.022603752091526985,-2.8775906562805176,-0.5895835161209106,-12.35574722290039,4.1484375,0,F1,6.1,180,0,5.51645673585824,[6400|0|15000|0]
30400,0.743019163608551,0.7753108739852905,-0.02251700684428215,-2.8100922107696533,-0.5763315558433533,-12.35695743560791,4.1484375,0,F1,6.1,180,0,5.516902796720052,[6400|0|15100|0]
30500,0.7432342767715454,0.77549809217453,-0.022476399317383766,-2.786759614944458,-0.5647841095924377,-12.355733871459961,4.15234375,0,F1,6.1,180,0,5.517190847574097,[6400|0|15200|0]
30600,0.7428355813026428,0.7755488157272339,-0.02263915352523327,-2.7670319080352783,-0.5437243580818176,-12.369681358337402,3.505859375,0,A/E1,6.1,180,0,5.517624460175269,[6400|0|15200|0]
30700,0.7438340783119202,0.7767083644866943,-0.02266753278672695,-3.278013229370117,-1.17530357837677,-11.983718872070312,3.330078125,0,A/E1,6.1,180,0,5.519154935586893,[6400|0|15200|0]
30800,0.7448066473007202,0.7795752882957458,-0.01236757356673479,2.6453495025634766,1.1764708757400513,-8.953333854675293,3.537109375,0,A/E1,6.1,180,0,5.529890591249142,[6400|0|15200|0]
30900,0.7381213307380676,0.7764950394630432,0.01985286921262741,4.206112384796143,-3.2818026542663574,-4.2644853591918945,3.583984375,0,A/E1,6.1,180,0,5.562941133201013,[6400|0|15200|0]
31000,0.7333146333694458,0.7697171568870544,0.07270311564207077,1.6995055675506592,0.09672108292579651,-0.633209228515625,3.615234375,0,A/E1,6.1,180,0,5.616440596557764,[6400|0|15200|0]
31100,0.728643536567688,0.7660499811172485,0.14129188656806946,-0.37372782826423645,0.7949482798576355,2.235015869140625,3.630859375,0,A/E1,6.1,180,0,5.685285979994834,[6400|0|15200|0]
31200,0.7242714166641235,0.7673165798187256,0.21826834976673126,0.3988262116909027,-0.06872241199016571,2.8819477558135986,3.63671875,0,A/E1,6.1,180,0,5.762396910421698,[6400|0|15200|0]
31300,0.7190718054771423,0.7702659964561462,0.3009324371814728,1.135626196861267,0.546022355556488,2.056941032409668,3.642578125,0,A/E1,6.1,180,0,5.845276861936578,[6400|0|15200|0]
31400,0.7137430310249329,0.7720066905021667,0.38562220335006714,1.093153953552246,-1.4448829889297485,1.029308557510376,3.630859375,0,A/E1,6.1,180,0,5.930151960443829,[6400|0|15200|0]
31500,0.7123784422874451,0.7724974155426025,0.47277674078941345,1.0586553812026978,-1.2027775049209595,-0.4867074489593506,3.63671875,0,A/E1,6.1,180,0,6.017318561328309,[6400|0|15200|0]
31600,0.7123984694480896,0.7711560130119324,0.5618210434913635,1.5736546516418457,-1.2521978616714478,-1.0384224653244019,3.626953125,0,A/E1,6.1,180,0,6.106372969447801,[6400|0|15200|0]
31700,0.7149360775947571,0.7680580019950867,0.653375506401062,0.6591257452964783,-1.1976277828216553,-0.8652586936950684,3.630859375,0,A/E1,6.1,180,0,6.198014972950833,[6400|0|15200|0]
31800,0.7196171879768372,0.762013852596283,0.7468386888504028,0.8766999244689941,-0.4130249619483948,-0.872115969657898,3.63671875,0,A/E1,6.1,180,0,6.291790294917345,[6400|0|15200|0]
31900,0.7257382273674011,0.7546319365501404,0.8417527079582214,0.2634698152542114,-0.1705462783575058,-0.9919347763061523,3.63671875,0,A/E1,6.1,180,0,6.387187521454245,[6400|0|15200|0]
32000,0.7313779592514038,0.7465296983718872,0.9385010600090027,-0.4025961458683014,0.6873735785484314,-1.1641298532485962,3.630859375,0,A/E1,6.1,180,0,6.48443821021151,[6400|0|15200|0]
32100,0.7358408570289612,0.7375080585479736,1.0362595319747925,-0.18987521529197693,0.7759618759155273,-1.4225962162017822,3.626953125,0,A/E1,6.1,180,0,6.582713467945955,[6400|0|15200|0]
32200,0.7387173771858215,0.7288190126419067,1.134462594985962,-1.0945638418197632,0.8908860087394714,-1.8669841289520264,3.658203125,0,A/E1,6.1,180,0,6.681342142639202,[6400|0|15200|0]
