time.ms,stateEstimate.x,stateEstimate.y,stateEstimate.z,stabilizer.roll,stabilizer.pitch,stabilizer.yaw,pm.vbat,drone_id,node_name,wind_speed,global_wind_direction,relative_wind_direction,travel_dist,waiting_time
0,1.777442455291748,-0.12537452578544617,-0.0169806070625782,0.1353345811367035,0.4556404650211334,1.6734861135482788,4.14453125,1,B1,6.1,180,0,0.10027045209440562,[100|0|0|0]
100,1.7773805856704712,-0.12547804415225983,-0.01682581938803196,0.13675180077552795,0.46064847707748413,1.679426670074463,4.14453125,1,B1,6.1,180,0,0.10046667422999725,[200|0|0|0]
200,1.777573585510254,-0.12532798945903778,-0.01672930270433426,0.1315010040998459,0.4590587615966797,1.660510540008545,4.14453125,1,B1,6.1,180,0,0.10072950653270397,[300|0|0|0]
300,1.7774653434753418,-0.12566964328289032,-0.016715262085199356,0.14203421771526337,0.47179096937179565,1.657576084136963,4.14453125,1,B1,6.1,180,0,0.10108817185366582,[400|0|0|0]
400,1.7775071859359741,-0.1253429502248764,-0.01701165921986103,0.13684578239917755,0.46824711561203003,1.6571574211120605,4.1484375,1,B1,6.1,180,0,0.10153126372574418,[500|0|0|0]
500,1.7776309251785278,-0.12559711933135986,-0.016818227246403694,0.14483223855495453,0.46929678320884705,1.680085301399231,4.1484375,1,B1,6.1,180,0,0.10187379732000024,[600|0|0|0]
600,1.777327299118042,-0.12539313733577728,-0.017074543982744217,0.1373516023159027,0.47603705525398254,1.6714885234832764,4.1484375,1,B1,6.1,180,0,0.1023204467445563,[700|0|0|0]
700,1.7775150537490845,-0.12534202635288239,-0.01703767664730549,0.14171595871448517,0.4701326787471771,1.6591051816940308,4.1484375,1,B1,6.1,180,0,0.10251849556296412,[800|0|0|0]
800,1.7772859334945679,-0.12523490190505981,-0.01692892424762249,0.1385841816663742,0.4732917845249176,1.6414263248443604,4.14453125,1,B1,6.1,180,0,0.10279381142300101,[900|0|0|0]
900,1.7776274681091309,-0.12566469609737396,-0.016726970672607422,0.14466723799705505,0.4669833183288574,1.667189598083496,4.1484375,1,B1,6.1,180,0,0.10337875089606897,[1000|0|0|0]
1000,1.7773488759994507,-0.1254585236310959,-0.01687886379659176,0.1379462629556656,0.4743664860725403,1.6949542760849,4.1484375,1,B1,6.1,180,0,0.10375715830950184,[1100|0|0|0]
1100,1.777369499206543,-0.12555262446403503,-0.01681572012603283,0.14109981060028076,0.4697093665599823,1.6830414533615112,4.14453125,1,B1,6.1,180,0,0.10387234253829324,[1200|0|0|0]
1200,1.777349591255188,-0.12548620998859406,-0.016983265057206154,0.13864725828170776,0.47083139419555664,1.68195378780365,4.14453125,1,B1,6.1,180,0,0.10405366686936088,[1300|0|0|0]
1300,1.777842402458191,-0.12535445392131805,-0.016852790489792824,0.13554774224758148,0.4608937203884125,1.7023996114730835,4.1484375,1,B1,6.1,180,0,0.10458020856363677,[1400|0|0|0]
1400,1.7775590419769287,-0.12511925399303436,-0.01701098121702671,0.1333174854516983,0.4623083174228668,1.685516357421875,4.14453125,1,B1,6.1,180,0,0.10498100336748106,[1500|0|0|0]
1500,1.7773915529251099,-0.12541450560092926,-0.0172194205224514,0.14463679492473602,0.46234941482543945,1.658636450767517,4.14453125,1,B1,6.1,180,0,0.10537934121214264,[1600|0|0|0]
1600,1.7774133682250977,-0.12567754089832306,-0.016972366720438004,0.14640270173549652,0.46208637952804565,1.654225468635559,4.14453125,1,B1,6.1,180,0,0.10574086445631634,[1700|0|0|0]
1700,1.77736496925354,-0.12534421682357788,-0.016757577657699585,0.14497511088848114,0.46197402477264404,1.6289342641830444,4.14453125,1,B1,6.1,180,0,0.10614034129009348,[1800|0|0|0]
1800,1.7774639129638672,-0.12507747113704681,-0.017049545422196388,0.13885867595672607,0.4513786733150482,1.608908772468567,4.14453125,1,B1,6.1,180,0,0.10654800327581387,[1900|0|0|0]
1900,1.7774747610092163,-0.12572301924228668,-0.016907772049307823,0.16462717950344086,0.4512504041194916,1.6217280626296997,4.14453125,1,B1,6.1,180,0,0.10720902500429705,[2000|0|0|0]
2000,1.7774559259414673,-0.12557651102542877,-0.016987420618534088,0.154880553483963,0.44519945979118347,1.6131919622421265,4.14453125,1,B1,6.1,180,0,0.10737684428794403,[2100|0|0|0]
2100,1.777522325515747,-0.12552763521671295,-0.016863884404301643,0.15476840734481812,0.4451292157173157,1.651930809020996,4.14453125,1,B1,6.1,180,0,0.1075253668261968,[2200|0|0|0]
2200,2.012836217880249,-0.01877867430448532,-0.36517226696014404,5.475022315979004,-1.0902124643325806,1.0445678234100342,4.14453125,1,B1,6.1,180,0,0.5412150000366758,[2300|0|0|0]
2300,1.7866902351379395,-0.10631710290908813,0.0165118221193552,-7.713218688964844,0.02249101549386978,2.229768991470337,4.14453125,1,B1,6.1,180,0,0.9934181909249038,[2400|0|0|0]
2400,1.770628571510315,-0.12208101898431778,0.002174112945795059,-8.358277320861816,1.855563998222351,2.0347506999969482,4.14453125,1,B1,6.1,180,0,1.0201024183422271,[2500|0|0|0]
2500,1.7722680568695068,-0.12501932680606842,-0.008231190033257008,-9.781418800354004,0.1070309579372406,1.3763538599014282,4.14453125,1,B1,6.1,180,0,1.0310382262769082,[2600|0|0|0]
2600,1.7751970291137695,-0.1224362850189209,-0.01183516625314951,-9.969109535217285,-1.055610179901123,0.9722942113876343,4.14453125,1,B1,6.1,180,0,1.0363523233662888,[2700|0|0|0]
2700,1.777340054512024,-0.12053438276052475,-0.013699633069336414,-9.132607460021973,-1.540225863456726,0.7718595266342163,4.1484375,1,B1,6.1,180,0,1.0397708064460653,[2800|0|0|0]
2800,1.7784814834594727,-0.11987341940402985,-0.01512724906206131,-7.878690242767334,-1.6250962018966675,0.7273231148719788,4.14453125,1,B1,6.1,180,0,1.0417144679452432,[2900|0|0|0]
2900,1.77923583984375,-0.11962434649467468,-0.015717661008238792,-6.597443103790283,-1.526962161064148,0.7339338064193726,4.14453125,1,B1,6.1,180,0,1.0427042543539515,[3000|0|0|0]
3000,1.7791975736618042,-0.12028585374355316,-0.016170162707567215,-5.416426181793213,-1.3295178413391113,0.7896280288696289,4.14453125,1,B1,6.1,180,0,1.0435066345187702,[3100|0|0|0]
3100,1.77921462059021,-0.12079598009586334,-0.016292117536067963,-4.421543598175049,-1.110767126083374,0.8657358884811401,4.14453125,1,B1,6.1,180,0,1.0440314130180288,[3200|0|0|0]
3200,1.7795233726501465,-0.12117161601781845,-0.016612783074378967,-3.5899319648742676,-0.9052096009254456,0.9370082020759583,4.14453125,1,B1,6.1,180,0,1.0446138703708354,[3300|0|0|0]
3300,1.7792561054229736,-0.12153639644384384,-0.016376221552491188,-2.888916492462158,-0.707136332988739,1.0191172361373901,4.14453125,1,B1,6.1,180,0,1.04512422111647,[3400|0|0|0]
3400,1.7789380550384521,-0.12216058373451233,-0.016579175367951393,-2.2924883365631104,-0.5202412605285645,1.113606333732605,4.14453125,1,B1,6.1,180,0,1.0458535743039836,[3500|0|0|0]
3500,1.778520941734314,-0.1225188598036766,-0.01656920090317726,-1.811767578125,-0.3531566858291626,1.2014223337173462,4.14453125,1,B1,6.1,180,0,1.0464035240654823,[3600|0|0|0]
3600,1.7785409688949585,-0.12331513315439224,-0.01653945818543434,-1.4021204710006714,-0.2122417688369751,1.2399665117263794,4.14453125,1,B1,6.1,180,0,1.0472006043409139,[3700|0|0|0]
3700,1.778564691543579,-0.12353023886680603,-0.016722287982702255,-1.0854270458221436,-0.09473122656345367,1.3002279996871948,4.14453125,1,B1,6.1,180,0,1.0474839062405539,[3800|0|0|0]
3800,1.7781808376312256,-0.12389986217021942,-0.016552718356251717,-0.8281441926956177,0.016149921342730522,1.3902820348739624,4.14453125,1,B1,6.1,180,0,1.0480431191433646,[3900|0|0|0]
3900,1.778102993965149,-0.12406949698925018,-0.016909876838326454,-0.6222915649414062,0.10267017781734467,1.4085601568222046,4.1484375,1,B1,6.1,180,0,1.048446105234308,[4000|0|0|0]
4000,1.7780709266662598,-0.1244795024394989,-0.016861025243997574,-0.44991761445999146,0.16824737191200256,1.4578713178634644,4.14453125,1,B1,6.1,180,0,1.0488602540712737,[4100|0|0|0]
4100,1.7778774499893188,-0.12481752038002014,-0.016907213255763054,-0.31514236330986023,0.2311602085828781,1.4836870431900024,4.14453125,1,B1,6.1,180,0,1.049252456423466,[4200|0|0|0]
4200,1.7777149677276611,-0.12441203743219376,-0.016952158883213997,-0.224381685256958,0.27506187558174133,1.529685378074646,4.1484375,1,B1,6.1,180,0,1.049691588539985,[4300|0|0|0]
4300,1.7778161764144897,-0.1250738948583603,-0.017201147973537445,-0.12028402835130692,0.31646525859832764,1.5550122261047363,4.14453125,1,B1,6.1,180,0,1.0504059372069265,[4400|0|0|0]
4400,1.777935266494751,-0.12489181011915207,-0.016940686851739883,-0.06296695023775101,0.347048282623291,1.564050555229187,4.14453125,1,B1,6.1,180,0,1.0507453150132682,[4500|0|0|0]
4500,1.7776508331298828,-0.12541791796684265,-0.016698798164725304,0.0008621152373962104,0.3780496120452881,1.5998618602752686,4.14453125,1,B1,6.1,180,0,1.05139045216408,[4600|0|0|0]
4600,1.7774888277053833,-0.12527291476726532,-0.016641223803162575,0.03664257377386093,0.39813217520713806,1.6343814134597778,4.14453125,1,B1,6.1,180,0,1.051615366575722,[4700|0|0|0]
4700,1.7776508331298828,-0.12516391277313232,-0.01698685996234417,0.062349751591682434,0.40781170129776,1.6656484603881836,4.14453125,1,B1,6.1,180,0,1.052012344593786,[4800|0|0|0]
4800,1.7775050401687622,-0.12542729079723358,-0.016761943697929382,0.09239567071199417,0.4196324944496155,1.6565788984298706,4.14453125,1,B1,6.1,180,0,1.0523881249779068,[4900|0|0|0]
4900,1.7776862382888794,-0.12522068619728088,-0.017086150124669075,0.10280386358499527,0.4251803159713745,1.6625157594680786,4.14453125,1,B1,6.1,180,0,1.0528131285385918,[5000|0|0|0]
5000,1.7776005268096924,-0.1252843737602234,-0.0165560245513916,0.12030359357595444,0.43262988328933716,1.6763101816177368,4.14453125,1,B1,6.1,180,0,1.0533539017690505,[5100|0|0|0]
5100,1.777541160583496,-0.12573596835136414,-0.01661447435617447,0.14046557247638702,0.43093833327293396,1.6779204607009888,4.14453125,1,B1,6.1,180,0,1.0538131167549118,[5200|0|0|0]
5200,1.7774540185928345,-0.12541832029819489,-0.017245721071958542,0.133170947432518,0.44117051362991333,1.6934833526611328,4.14453125,1,B1,6.1,180,0,1.0545251325050233,[5300|0|0|0]
5300,1.7773816585540771,-0.12536869943141937,-0.017053192481398582,0.13786306977272034,0.4461527168750763,1.6863981485366821,4.14453125,1,B1,6.1,180,0,1.0547367110101025,[5400|0|0|0]
5400,1.7775636911392212,-0.12558746337890625,-0.016732309013605118,0.14797256886959076,0.44274991750717163,1.6921429634094238,4.14453125,1,B1,6.1,180,0,1.0551656162754903,[5500|0|0|0]
5500,1.777366042137146,-0.12529954314231873,-0.016961578279733658,0.149620920419693,0.4424331486225128,1.6837258338928223,4.14453125,1,B1,6.1,180,0,1.055583381265705,[5600|0|0|0]
5600,1.7776581048965454,-0.12536875903606415,-0.016937389969825745,0.15476305782794952,0.43576082587242126,1.6753824949264526,4.14453125,1,B1,6.1,180,0,1.0558845067706213,[5700|0|0|0]
5700,1.7773525714874268,-0.12564456462860107,-0.016705047339200974,0.15450900793075562,0.4536142945289612,1.7056993246078491,4.1484375,1,B1,6.1,180,0,1.056357161493403,[5800|0|0|0]
5800,1.7773665189743042,-0.12557023763656616,-0.017009511590003967,0.14466378092765808,0.450316846370697,1.7104860544204712,4.14453125,1,B1,6.1,180,0,1.0566708771515272,[5900|0|0|0]
5900,1.7774728536605835,-0.12516914308071136,-0.01707371510565281,0.13044442236423492,0.4460831582546234,1.6901872158050537,4.14453125,1,B1,6.1,180,0,1.0570907652314534,[6000|0|0|0]
6000,1.7774598598480225,-0.12534785270690918,-0.017268065363168716,0.14081069827079773,0.44565558433532715,1.6763519048690796,4.14453125,1,B1,6.1,180,0,1.0573551096890408,[6100|0|0|0]
6100,1.7774332761764526,-0.1253596693277359,-0.017079966142773628,0.13919900357723236,0.4447503983974457,1.663083553314209,4.14453125,1,B1,6.1,180,0,1.0575454452895865,[6200|0|0|0]
6200,1.7776225805282593,-0.1252204179763794,-0.016753412783145905,0.1354818344116211,0.4415968358516693,1.6554365158081055,4.14453125,1,B1,6.1,180,0,1.0579477687578949,[6300|0|0|0]
6300,1.7773540019989014,-0.1254960149526596,-0.016969794407486916,0.137290820479393,0.4569651782512665,1.6669180393218994,4.14453125,1,B1,6.1,180,0,1.0583892538959452,[6400|0|0|0]
6400,1.7775006294250488,-0.12556192278862,-0.016996020451188087,0.13076935708522797,0.45586803555488586,1.6728919744491577,3.537109375,1,J1,6.1,180,0,1.0585521380581828,[6400|0|0|0]
6500,1.7773054838180542,-0.1250244379043579,-0.016890529543161392,0.012202190235257149,0.36867132782936096,2.426603317260742,3.505859375,1,J1,6.1,180,0,1.0591336018493305,[6400|0|0|0]
6601,1.7778304815292358,-0.12333518266677856,-0.007503248751163483,-1.8467037677764893,-0.7098525166511536,3.7135531902313232,3.689453125,1,J1,6.1,180,0,1.0686861013401574,[6400|0|0|0]
6701,1.7808691263198853,-0.11603907495737076,0.031169192865490913,-2.2356441020965576,-0.3234408497810364,5.445082187652588,3.732421875,1,J1,6.1,180,0,1.108157917747115,[6400|0|0|0]
6801,1.786057472229004,-0.10792303085327148,0.0840437263250351,0.647832989692688,-0.32803258299827576,5.7932586669921875,3.7421875,1,J1,6.1,180,0,1.1619027351134137,[6400|0|0|0]
6901,1.7920629978179932,-0.09860450029373169,0.1499515026807785,3.0094192028045654,-1.4654817581176758,4.839782238006592,3.7421875,1,J1,6.1,180,0,1.2287363818308252,[6400|0|0|0]
7001,1.7992873191833496,-0.0937197133898735,0.22311866283416748,4.2655029296875,-2.0726659297943115,3.305311918258667,3.748046875,1,J1,6.1,180,0,1.3024214229667146,[6400|0|0|0]
7101,1.810237169265747,-0.09600502997636795,0.30197253823280334,3.999336004257202,-2.727076530456543,1.6230944395065308,3.748046875,1,J1,6.1,180,0,1.382064724970782,[6400|0|0|0]
7201,1.8243882656097412,-0.10490643978118896,0.3864116072654724,3.0173234939575195,-1.852213740348816,0.14145256578922272,3.75390625,1,J1,6.1,180,0,1.4681428581019915,[6400|0|0|0]
7301,1.8406065702438354,-0.11894296109676361,0.4738926589488983,2.3718881607055664,0.1435818076133728,-1.165016770362854,3.7578125,1,J1,6.1,180,0,1.5582150055144137,[6400|0|0|0]
7401,1.8568925857543945,-0.13639064133167267,0.5629991888999939,0.793194591999054,0.6050534248352051,-1.7903472185134888,3.7890625,1,J1,6.1,180,0,1.6504626587458933,[6400|0|0|0]
7502,1.8709838390350342,-0.15446913242340088,0.6543586850166321,-1.2566676139831543,2.222437620162964,-2.452195882797241,3.826171875,1,J1,6.1,180,0,1.7446537028523201,[6400|0|0|0]
7600,1.8811557292938232,-0.1720122992992401,0.7276797294616699,-1.027099609375,2.167667865753174,-2.911025285720825,3.837890625,1,J1,6.1,180,0,1.820727388276267,[6400|0|0|0]
7700,1.888088345527649,-0.18602809309959412,0.7909438610076904,-2.633551597595215,2.0153439044952393,-3.230081558227539,3.826171875,1,J1,6.1,180,0,1.8858952790198817,[6400|0|0|0]
7800,1.891634225845337,-0.19760088622570038,0.8387736082077026,-3.122605323791504,2.0380947589874268,-2.889997720718384,3.81640625,1,J1,6.1,180,0,1.9352327650237724,[6400|0|0|0]
7900,1.8923155069351196,-0.20438240468502045,0.8723189234733582,-3.2648370265960693,1.711316704750061,-1.7422722578048706,3.80078125,1,J1,6.1,180,0,1.969463472185758,[6400|0|0|0]
8000,1.8903650045394897,-0.20655646920204163,0.8945721983909607,-3.2375733852386475,0.9462835788726807,-0.6306402683258057,3.7890625,1,J1,6.1,180,0,1.99190760862889,[6400|0|0|0]
8100,1.8868129253387451,-0.20456171035766602,0.9095495939254761,-3.0037803649902344,0.3286634087562561,0.8417866826057434,3.78515625,1,J1,6.1,180,0,2.00742916481675,[6400|0|0|0]
8200,1.8820867538452148,-0.19832685589790344,0.9196368455886841,-1.6121199131011963,0.39845946431159973,0.12435052543878555,3.7734375,1,J1,6.1,180,0,2.0201948513724184,[6400|0|0|0]
8300,1.8766636848449707,-0.18931815028190613,0.9278327822685242,-0.3603036403656006,-0.1771528720855713,-0.3135443925857544,3.7734375,1,J1,6.1,180,0,2.0335267616750365,[6400|0|0|0]
8400,1.8717195987701416,-0.18073564767837524,0.9346827864646912,0.22618429362773895,-0.8978220224380493,-0.6146141886711121,3.76953125,1,J1,6.1,180,0,2.0455694314596995,[6400|0|0|0]
8500,1.868000864982605,-0.17188315093517303,0.9403083920478821,0.8895734548568726,-1.046245813369751,-0.9786006212234497,3.76953125,1,J1,6.1,180,0,2.0566979137348618,[6400|0|0|0]
8600,1.8658603429794312,-0.1656346172094345,0.9468935132026672,1.212881326675415,-0.8686655759811401,-1.2667510509490967,3.76953125,1,J1,6.1,180,0,2.0660247475379787,[6400|0|0|0]
8700,1.8648830652236938,-0.16055288910865784,0.9523868560791016,1.2784581184387207,-0.6628738641738892,-1.0636943578720093,3.7734375,1,J1,6.1,180,0,2.073571657386397,[6400|0|0|0]
8800,1.8653485774993896,-0.15715059638023376,0.9563789963722229,1.1014585494995117,-0.4554522931575775,-0.7268876433372498,3.7734375,1,J1,6.1,180,0,2.078837536383172,[6400|0|0|0]
8900,1.865703821182251,-0.1558070331811905,0.9585141539573669,0.9354491233825684,0.3694585859775543,-0.026492785662412643,3.76953125,1,J1,6.1,180,0,2.081385134871442,[6400|0|0|0]
9000,1.8656959533691406,-0.1556660681962967,0.9590436816215515,0.7591248154640198,0.17772874236106873,0.16373799741268158,3.763671875,1,J1,6.1,180,0,2.081933160944349,[6400|0|0|0]
9100,1.8652970790863037,-0.15533483028411865,0.9574331641197205,0.06201499328017235,-0.011536919511854649,0.41578081250190735,3.7578125,1,J1,6.1,180,0,2.083625078753132,[6400|0|0|0]
9200,1.8645814657211304,-0.1557743400335312,0.956052303314209,0.05049794539809227,0.02796863205730915,0.39966127276420593,3.7578125,1,J1,6.1,180,0,2.0852412618716065,[6400|0|0|0]
9300,1.8637986183166504,-0.1559755802154541,0.9549906849861145,0.25315678119659424,-0.31327247619628906,0.041104186326265335,3.7578125,1,J1,6.1,180,0,2.086575571110152,[6400|0|0|0]
9400,1.8638452291488647,-0.1567300409078598,0.954933226108551,0.2853277921676636,-0.28684699535369873,-0.368488073348999,3.7578125,1,J1,6.1,180,49.4748965062461,2.087333650940167,[6400|0|0|0]
9500,1.8618886470794678,-0.1564214676618576,0.955711305141449,-8.55875301361084,8.37240219116211,0.5334054231643677,3.736328125,1,J1,6.1,180,49.4748965062461,2.089461757569044,[6400|0|0|0]
9600,1.844356894493103,-0.1393721103668213,0.9540114402770996,-16.028812408447266,16.225025177001953,3.2008228302001953,3.720703125,1,J1,6.1,180,49.4748965062461,2.1139756816425246,[6400|0|0|0]
9700,1.8009530305862427,-0.0980556309223175,0.9478204250335693,-17.41400909423828,15.060735702514648,1.9154528379440308,3.716796875,1,J1,6.1,180,49.4748965062461,2.174219150545626,[6400|0|0|0]
9800,1.7319085597991943,-0.031507108360528946,0.9411327242851257,-12.835116386413574,10.619033813476562,-0.30220454931259155,3.7109375,1,J1,6.1,180,49.4748965062461,2.2703470348598103,[6400|0|0|0]
9900,1.647421956062317,0.05296396464109421,0.9395492076873779,-6.197968482971191,1.9863617420196533,-2.467799663543701,3.716796875,1,J1,6.1,180,49.4748965062461,2.3898286481308615,[6400|0|0|0]
10000,1.5592312812805176,0.16029436886310577,0.9381378293037415,0.2279476821422577,-4.702588081359863,-2.141552448272705,3.748046875,1,J1,6.1,180,49.4748965062461,2.528750938559256,[6400|0|0|0]
10100,1.4839508533477783,0.2422175407409668,0.9513701796531677,9.930545806884766,-8.86540412902832,0.9000329971313477,3.736328125,1,J1,6.1,180,49.4748965062461,2.6407939839303807,[6400|0|0|0]
10200,1.4286208152770996,0.30531948804855347,0.9668024778366089,10.616167068481445,-12.597761154174805,-1.5775223970413208,3.7578125,1,J1,6.1,180,49.4748965062461,2.726125248389164,[6400|0|0|0]
10300,1.3960936069488525,0.3429641127586365,0.983153223991394,6.777796268463135,-11.108107566833496,-10.731268882751465,3.76953125,1,J1,6.1,180,49.4748965062461,2.77849397904984,[6400|0|0|0]
10400,1.3781492710113525,0.3646615743637085,0.994737446308136,5.774118900299072,-6.882375717163086,-8.255892753601074,3.7578125,1,J1,6.1,180,49.4748965062461,2.8089402142690774,[6400|0|0|0]
10500,1.3728039264678955,0.37914732098579407,1.0066219568252563,2.8567564487457275,-3.8101086616516113,-6.064675331115723,3.7890625,1,J1,6.1,180,49.4748965062461,2.828424853185903,[6400|0|0|0]
10600,1.3644521236419678,0.38886961340904236,1.0091133117675781,2.2345128059387207,0.12257512658834457,-5.016408920288086,3.76953125,1,J1,6.1,180,49.4748965062461,2.8414817452301437,[6400|0|0|0]
10700,1.3557060956954956,0.3935818076133728,1.0060977935791016,0.752165675163269,-0.8850064277648926,-4.717290878295898,3.7421875,1,J1,6.1,180,49.4748965062461,2.851863995901594,[6400|0|0|0]
10800,1.3454715013504028,0.3947395086288452,1.0002399682998657,0.40565571188926697,-1.262346625328064,-5.067309379577637,3.75390625,1,J1,6.1,180,49.4748965062461,2.8637131017772237,[6400|0|0|0]
10900,1.336404800415039,0.394831120967865,0.9934502243995667,-0.6665559411048889,-2.1552135944366455,-5.139601707458496,3.736328125,1,J1,6.1,180,49.4748965062461,2.875040682317817,[6400|0|0|0]
11000,1.330586552619934,0.39467620849609375,0.9876147508621216,-0.4900769889354706,-2.8889753818511963,-4.377379417419434,3.720703125,1,J1,6.1,180,49.4748965062461,2.88328257267655,[6400|0|0|0]
11100,1.3291064500808716,0.39320746064186096,0.9850794076919556,-0.592964768409729,-2.861560583114624,-3.3979618549346924,3.748046875,1,J1,6.1,180,49.4748965062461,2.8865652375659288,[6400|0|0|0]
11200,1.3310283422470093,0.3911442458629608,0.9823405146598816,0.24832522869110107,-2.23816180229187,-2.789902925491333,3.736328125,1,J1,6.1,180,49.4748965062461,2.8904961483717444,[6400|0|0|0]
11300,1.3364572525024414,0.3876813054084778,0.9801477193832397,0.38360562920570374,-1.9812926054000854,-2.8031742572784424,3.720703125,1,J1,6.1,180,49.4748965062461,2.897298601920141,[6400|0|0|0]
11400,1.3433759212493896,0.3822347819805145,0.9772226214408875,0.286114364862442,-0.9315380454063416,-3.4717259407043457,3.736328125,1,J1,6.1,180,49.4748965062461,2.9065770065596093,[6400|0|0|0]
11500,1.3522801399230957,0.37738969922065735,0.9739612936973572,-0.9665696620941162,-0.3238109052181244,-4.369481563568115,3.732421875,1,J1,6.1,180,49.4748965062461,2.9172257715485532,[6400|0|0|0]
11600,1.3603817224502563,0.3722209930419922,0.9700960516929626,-0.66082763671875,0.5112881660461426,-4.768397808074951,3.7109375,1,J1,6.1,180,49.4748965062461,2.9275839209372374,[6400|0|0|0]
11700,1.366860270500183,0.3701079189777374,0.9639418125152588,-1.3668358325958252,0.6038420796394348,-4.601083755493164,3.736328125,1,J1,6.1,180,49.4748965062461,2.936766040882687,[6400|0|0|0]
11800,1.3728468418121338,0.36744028329849243,0.9581555128097534,-0.2348896563053131,1.1032215356826782,-4.15077543258667,3.7265625,1,J1,6.1,180,49.4748965062461,2.945508842520159,[6400|0|0|0]
11900,1.377463936805725,0.36624133586883545,0.9520407915115356,-0.3903387188911438,0.8016275763511658,-3.7149081230163574,3.7109375,1,J1,6.1,180,49.4748965062461,2.9532641540982847,[6400|0|0|0]
12000,1.3809148073196411,0.365526020526886,0.9485740065574646,-0.9094664454460144,0.47357258200645447,-3.128561496734619,3.732421875,1,J1,6.1,180,49.4748965062461,2.958207713672116,[6400|0|0|0]
12100,1.3846596479415894,0.3653729557991028,0.9476544260978699,-1.1311249732971191,-0.20621344447135925,-2.6806607246398926,3.732421875,1,J1,6.1,180,49.4748965062461,2.962066844185114,[6400|0|0|0]
12200,1.3890737295150757,0.36901500821113586,0.948233962059021,-1.4041478633880615,-0.27810484170913696,-1.9858916997909546,3.720703125,1,J1,6.1,180,49.4748965062461,2.967818758982784,[6400|0|0|0]
12300,1.3953397274017334,0.37553665041923523,0.9506729245185852,-0.9339142441749573,-0.3456774055957794,-1.429456353187561,3.7421875,1,J1,6.1,180,49.4748965062461,2.9771858868502377,[6400|0|0|0]
12400,1.4022196531295776,0.38328817486763,0.9535589814186096,0.32262226939201355,0.7181487679481506,-0.9199926853179932,3.7421875,1,J1,6.1,180,0,2.9879445500443755,[6400|0|0|0]
12500,1.4091540575027466,0.3913405239582062,0.9497686624526978,0.5637608766555786,0.1920761615037918,-0.09026506543159485,3.953125,1,J1,6.1,180,0,2.999226961477685,[6400|0|0|0]
12600,1.4154013395309448,0.3989115357398987,0.913493812084198,1.5542466640472412,0.712820291519165,1.060678243637085,3.896484375,1,J1,6.1,180,0,3.0368063909756886,[6400|0|0|0]
12700,1.421066403388977,0.4037092924118042,0.8348938226699829,1.8529213666915894,0.46623098850250244,-1.3790923357009888,3.806640625,1,J1,6.1,180,0,3.115756183587912,[6400|0|0|0]
12800,1.4264682531356812,0.407436728477478,0.7266356348991394,2.263237714767456,0.7066922783851624,-0.05209197849035263,3.7421875,1,J1,6.1,180,0,3.2242131288691476,[6400|0|0|0]
12900,1.4318618774414062,0.4111396372318268,0.6039313077926636,-1.5975145101547241,-0.7829382419586182,0.09312467277050018,3.716796875,1,J1,6.1,180,0,3.3470917462403054,[6400|0|0|0]
13000,1.4384524822235107,0.41905584931373596,0.4767926335334778,0.49275803565979004,2.1383419036865234,1.7996035814285278,3.658203125,1,J1,6.1,180,0,3.474647008685659,[6400|0|0|0]
13100,1.4425342082977295,0.4340050220489502,0.36005929112434387,-3.5564539432525635,2.0165586471557617,2.649732828140259,3.66796875,1,J1,6.1,180,0,3.5924044351318085,[6400|0|0|0]
13200,1.441978096961975,0.4540373682975769,0.2526110112667084,-7.275428295135498,3.650681734085083,7.864513397216797,3.6640625,1,J1,6.1,180,0,3.7017055650454895,[6400|0|0|0]
13300,1.4399628639221191,0.48038268089294434,0.1612149178981781,3.879340171813965,1.776041030883789,28.323095321655273,3.6953125,1,J1,6.1,180,0,3.7968443192047787,[6400|0|0|0]
13400,1.4416582584381104,0.5019661784172058,0.07485999912023544,16.320507049560547,-6.079617023468018,32.87520217895508,3.689453125,1,J1,6.1,180,0,3.88587180779729,[6400|0|0|0]
13500,1.457337498664856,0.5031400322914124,-0.007899884134531021,11.278294563293457,1.5831557512283325,30.84228515625,3.65234375,1,J1,6.1,180,0,3.970112028495888,[6400|0|0|0]
13600,1.4732657670974731,0.4907028079032898,-0.021450398489832878,-5.9467244148254395,4.472848892211914,18.479175567626953,3.68359375,1,J1,6.1,180,0,3.9944432990142,[6400|0|0|0]
13700,1.4718706607818604,0.49879780411720276,0.015985636040568352,-18.11191177368164,17.17133903503418,6.856612205505371,3.732421875,1,J1,6.1,180,0,4.032769947272253,[6400|0|0|0]
13800,1.4417243003845215,0.5262244939804077,0.046738944947719574,10.58614730834961,7.568708896636963,2.2283215522766113,3.7109375,1,J1,6.1,180,0,4.0838267036400175,[6400|0|0|0]
13900,1.3983290195465088,0.5379542708396912,0.0713004618883133,7.135343551635742,2.4938225746154785,1.5990623235702515,3.705078125,1,J1,6.1,180,0,4.135051757847911,[6400|0|0|0]
14000,1.3606421947479248,0.5413832068443298,0.09409886598587036,13.182794570922852,-4.97763729095459,2.7611234188079834,3.732421875,1,J1,6.1,180,0,4.179231182865883,[6400|0|0|0]
14100,1.3220068216323853,0.5104568004608154,0.11731015145778656,8.047731399536133,-5.084262847900391,-0.5329191088676453,3.748046875,1,J1,6.1,180,0,4.233892855368963,[6400|0|0|0]
14200,1.2932124137878418,0.4668111801147461,0.1337401419878006,-1.7845498323440552,-9.43199634552002,-3.167340040206909,3.7421875,1,J1,6.1,180,0,4.28870163830863,[6400|0|0|0]
14300,1.276732087135315,0.42629092931747437,0.14298610389232635,-2.4194326400756836,-5.914516925811768,-2.782001495361328,3.720703125,1,J1,6.1,180,0,4.333411589133784,[6400|0|0|0]
14400,1.2720800638198853,0.3949192464351654,0.1469835489988327,-5.682834625244141,-5.694972038269043,-2.208203077316284,3.7265625,1,J1,6.1,180,0,4.365377248444598,[6400|0|0|0]
14500,1.2768681049346924,0.37769269943237305,0.1450374275445938,-6.547019958496094,-4.913092613220215,-1.9566936492919922,3.7109375,1,J1,6.1,180,0,4.383362427011161,[6400|0|0|0]
14600,1.2902930974960327,0.37352344393730164,0.14141905307769775,-6.465234756469727,-3.055908203125,-1.3309404850006104,3.705078125,1,J1,6.1,180,0,4.397878134036239,[6400|0|0|0]
14700,1.3098056316375732,0.38161489367485046,0.13888931274414062,-2.7124478816986084,0.043170731514692307,-0.6702740788459778,3.7109375,1,J1,6.1,180,0,4.419152769958748,[6400|0|0|0]
14800,1.330506443977356,0.39749875664711,0.13834668695926666,-1.5693503618240356,1.4175091981887817,0.6627299785614014,3.716796875,1,J1,6.1,180,0,4.445250953366618,[6400|0|0|0]
14900,1.3509323596954346,0.4143764078617096,0.1399173140525818,3.2667832374572754,1.8662688732147217,0.3132273256778717,3.7109375,1,J1,6.1,180,0,4.471794125989912,[6400|0|0|0]
15000,1.3691996335983276,0.42778050899505615,0.14018531143665314,4.7204389572143555,1.9068493843078613,-0.026259122416377068,3.7109375,1,J1,6.1,180,0,4.494453231127453,[6400|0|0|0]
15100,1.3851972818374634,0.4348854422569275,0.1423995941877365,2.67765212059021,1.61544930934906,0.45622220635414124,3.716796875,1,J1,6.1,180,0,4.512097150021523,[6400|0|0|0]
15200,1.4007759094238281,0.4355592429637909,0.1438812017440796,6.460994243621826,1.189274549484253,1.6867135763168335,3.7109375,1,J1,6.1,180,0,4.527760572566364,[6400|0|0|0]
15300,1.41559898853302,0.4295269548892975,0.14485487341880798,0.7786852717399597,1.7897086143493652,0.6300885677337646,3.716796875,1,J1,6.1,180,0,4.543793669903473,[6400|0|0|0]
15400,1.4278370141983032,0.4212471544742584,0.14491721987724304,2.4253909587860107,2.8834986686706543,-1.6851623058319092,3.716796875,1,J1,6.1,180,0,4.55856960487145,[6400|0|0|0]
15500,1.4345180988311768,0.41198453307151794,0.1427328735589981,-0.4931735694408417,2.8044068813323975,-4.543098449707031,3.705078125,1,B2,6.1,180,0,4.570197348244958,[6400|100|0|0]
15600,1.436285376548767,0.40161842107772827,0.14078359305858612,0.021058041602373123,3.0676491260528564,-6.334700584411621,3.7109375,1,B2,6.1,180,0,4.580892171425739,[6400|200|0|0]
15700,1.4325915575027466,0.39428240060806274,0.1391039788722992,-2.1481285095214844,1.0001261234283447,-5.3654913902282715,3.705078125,1,B2,6.1,180,0,4.589275643217954,[6400|300|0|0]
15800,1.4277085065841675,0.38963189721107483,0.13957422971725464,-0.3783787488937378,0.48347267508506775,-3.7132389545440674,3.7109375,1,B2,6.1,180,0,4.596035266282594,[6400|400|0|0]
15900,1.424856185913086,0.3870657980442047,0.13998660445213318,0.3481987714767456,-0.9684357047080994,-3.3054909706115723,3.6953125,1,B2,6.1,180,0,4.599894106920254,[6400|500|0|0]
16000,1.4225751161575317,0.3837640881538391,0.14229702949523926,-0.6046116352081299,1.2646293640136719,-1.2992228269577026,3.701171875,1,B2,6.1,180,0,4.604524725810818,[6400|600|0|0]
16100,1.4198722839355469,0.38104796409606934,0.14485926926136017,-0.1576911211013794,0.7415220737457275,1.362260341644287,3.716796875,1,B2,6.1,180,0,4.609134249054765,[6400|700|0|0]
16200,1.4169317483901978,0.3800356090068817,0.14546287059783936,0.5183401107788086,0.1597297191619873,2.6379661560058594,3.6953125,1,B2,6.1,180,0,4.612302205287649,[6400|800|0|0]
16300,1.4125664234161377,0.3760920763015747,0.1452191025018692,1.7644470930099487,0.23273059725761414,1.025631308555603,3.705078125,1,B2,6.1,180,0,4.6181900686702,[6400|900|0|0]
16400,1.4074152708053589,0.3690856397151947,0.1429499387741089,1.0934360027313232,0.10026852786540985,-0.6057237386703491,3.705078125,1,B2,6.1,180,0,4.627177483809264,[6400|1000|0|0]
16500,1.4019033908843994,0.3587101697921753,0.14087265729904175,0.47534292936325073,-0.7766790986061096,-1.8027875423431396,3.6953125,1,B2,6.1,180,0,4.639108380452568,[6400|1100|0|0]
16600,1.3982943296432495,0.3477301299571991,0.1394655853509903,-0.13037894666194916,0.0024523285683244467,-2.6347501277923584,3.6953125,1,B2,6.1,180,0,4.6507516810708225,[6400|1200|0|0]
16700,1.3971002101898193,0.3381095230579376,0.13942670822143555,-0.2704281210899353,-1.687574863433838,-2.1238255500793457,3.6953125,1,B2,6.1,180,0,4.660446190331759,[6400|1300|0|0]
16800,1.3993141651153564,0.32880011200904846,0.1392848640680313,1.9764013290405273,-1.0045207738876343,-1.06535005569458,3.6953125,1,B2,6.1,180,0,4.6700162922253305,[6400|1400|0|0]
16900,1.4053735733032227,0.3176063895225525,0.14021559059619904,0.6278157830238342,-0.9309818148612976,-1.6994800567626953,3.705078125,1,B2,6.1,180,0,4.682778819504914,[6400|1500|0|0]
17000,1.4131947755813599,0.30556294322013855,0.13881750404834747,0.4014100432395935,-0.08371102809906006,-3.192817211151123,3.6953125,1,B2,6.1,180,0,4.6972069326840495,[6400|1600|0|0]
17100,1.4215292930603027,0.2917942702770233,0.13613353669643402,1.1240272521972656,0.8821731209754944,-4.028012275695801,3.689453125,1,B2,6.1,180,0,4.713523924348183,[6400|1700|0|0]
17200,1.426240086555481,0.2645924985408783,0.13445326685905457,1.790500521659851,-0.7079755067825317,-3.9670372009277344,3.68359375,1,B2,6.1,180,0,4.741181676745404,[6400|1800|0|0]
17300,1.4352327585220337,0.2461647242307663,0.13436166942119598,-0.2501964867115021,-0.9183090925216675,-4.649372577667236,3.68359375,1,B2,6.1,180,0,4.7616867835535395,[6400|1900|0|0]
17400,1.445034384727478,0.23192378878593445,0.1320541352033615,-1.3635963201522827,0.01700703427195549,-5.70518684387207,4.0390625,1,B2,6.1,180,0,4.77912813765182,[6400|2000|0|0]
17500,1.454537272453308,0.22151032090187073,0.08995913714170456,-7.916708946228027,1.2894384860992432,-7.705291271209717,4.04296875,1,B2,6.1,180,0,4.823521088109218,[6400|2100|0|0]
17600,1.4641627073287964,0.2163868397474289,-0.022608013823628426,-20.366758346557617,-1.1804091930389404,-10.700178146362305,4.04296875,1,B2,6.1,180,0,4.936615130976799,[6400|2200|0|0]
17700,1.4681580066680908,0.21523427963256836,-0.0348709337413311,-1.0615458488464355,-1.0811983346939087,-11.972811698913574,4.046875,1,B2,6.1,180,0,4.949563876728297,[6400|2300|0|0]
17800,1.4712045192718506,0.2152249664068222,-0.034367408603429794,-4.934174537658691,-0.9862384796142578,-11.047310829162598,4.046875,1,B2,6.1,180,0,4.952651734131989,[6400|2400|0|0]
17900,1.4715338945388794,0.21473515033721924,-0.03254149854183197,-4.5348896980285645,-0.8959248065948486,-11.03038215637207,4.0546875,1,B2,6.1,180,0,4.954570680562095,[6400|2500|0|0]
18000,1.4719586372375488,0.21477806568145752,-0.03160141035914421,-4.0818657875061035,-0.7807231545448303,-11.05955696105957,4.0546875,1,B2,6.1,180,0,4.9556031600427985,[6400|2600|0|0]
18100,1.472226858139038,0.21449722349643707,-0.03113935887813568,-3.6123297214508057,-0.6864192485809326,-11.066489219665527,4.0546875,1,B2,6.1,180,0,4.95620673800461,[6400|2700|0|0]
18200,1.473125696182251,0.21518442034721375,-0.03020235151052475,-3.1928858757019043,-0.6196157336235046,-11.05915641784668,4.05859375,1,B2,6.1,180,0,4.957675796256213,[6400|2800|0|0]
18300,1.4722222089767456,0.21436864137649536,-0.03061387687921524,-2.766167640686035,-0.4869002401828766,-11.065874099731445,4.05859375,1,B2,6.1,180,0,4.958960762243566,[6400|2900|0|0]
18400,1.472364902496338,0.21398578584194183,-0.030238449573516846,-2.3624370098114014,-0.3925849497318268,-11.07084846496582,4.05859375,1,B2,6.1,180,0,4.959515636520079,[6400|3000|0|0]
18500,1.4722541570663452,0.21341891586780548,-0.030105356127023697,-1.9925131797790527,-0.2998073101043701,-11.052133560180664,4.05859375,1,B2,6.1,180,0,4.960108359038077,[6400|3100|0|0]
18600,1.472206950187683,0.2133270651102066,-0.029654283076524734,-1.6800681352615356,-0.20936957001686096,-11.035079956054688,4.05859375,1,B2,6.1,180,0,4.960571102971533,[6400|3200|0|0]
18700,1.4724841117858887,0.21310371160507202,-0.029692145064473152,-1.414797306060791,-0.1412908434867859,-11.041988372802734,4.06640625,1,B2,6.1,180,0,4.960929067871918,[6400|3300|0|0]
18800,1.472350835800171,0.21276713907718658,-0.029614293947815895,-1.1848737001419067,-0.07093057036399841,-11.037056922912598,4.06640625,1,B2,6.1,180,0,4.961299343919295,[6400|3400|0|0]
18900,1.4722570180892944,0.21263505518436432,-0.029540827497839928,-0.9979949593544006,-0.0060080853290855885,-11.027960777282715,4.06640625,1,B2,6.1,180,0,4.961477235000829,[6400|3500|0|0]
19000,1.4721139669418335,0.21244478225708008,-0.029412897303700447,-0.8373633623123169,0.04427185654640198,-11.000481605529785,4.06640625,1,B2,6.1,180,0,4.961747482206587,[6400|3600|0|0]
19100,1.4732718467712402,0.2134246677160263,-0.02924243174493313,-0.7332203984260559,0.06788983196020126,-10.981054306030273,4.0703125,1,B2,6.1,180,0,4.963273889661602,[6400|3700|0|0]
19200,1.4730321168899536,0.21306554973125458,-0.029215633869171143,-0.6096703410148621,0.11636528372764587,-10.982763290405273,4.0703125,1,B2,6.1,180,0,4.963706502963656,[6400|3800|0|0]
19300,1.4728091955184937,0.21307958662509918,-0.02906917780637741,-0.5195122361183167,0.15561774373054504,-10.973773002624512,4.0703125,1,B2,6.1,180,0,4.963973599108464,[6400|3900|0|0]
19400,1.4729193449020386,0.2128196507692337,-0.029552089050412178,-0.4398385286331177,0.1815723031759262,-10.966059684753418,4.0703125,1,B2,6.1,180,0,4.964532976266986,[6400|4000|0|0]
19500,1.4727195501327515,0.21276287734508514,-0.028884444385766983,-0.382893443107605,0.20337718725204468,-10.955129623413086,4.0703125,1,B2,6.1,180,0,4.965232183367745,[6400|4100|0|0]
19600,1.4729738235473633,0.21276505291461945,-0.029352493584156036,-0.343648225069046,0.2070271223783493,-10.933174133300781,4.07421875,1,B2,6.1,180,0,4.965764846257943,[6400|4200|0|0]
19700,1.4727177619934082,0.21292701363563538,-0.029143624007701874,-0.3147318959236145,0.23817548155784607,-10.917651176452637,4.07421875,1,B2,6.1,180,0,4.966132848016817,[6400|4300|0|0]
19800,1.4725316762924194,0.2126094400882721,-0.029082277789711952,-0.27554795145988464,0.2654555141925812,-10.932068824768066,4.07421875,1,B2,6.1,180,0,4.966506002414565,[6400|4400|0|0]
19900,1.4726747274398804,0.21246197819709778,-0.029050784185528755,-0.2514776289463043,0.28818100690841675,-10.937139511108398,4.07421875,1,B2,6.1,180,0,4.966713849683595,[6400|4500|0|0]
20000,1.4730048179626465,0.21191225945949554,-0.029554855078458786,-0.2116578370332718,0.301046758890152,-10.795610427856445,4.07421875,1,B2,6.1,180,0,4.967529470863304,[6400|4600|0|0]
20100,1.4730854034423828,0.21208207309246063,-0.029517142102122307,-0.1965486705303192,0.32158082723617554,-10.331661224365234,4.07421875,1,B2,6.1,180,0,4.96772118147352,[6400|4700|0|0]
20200,1.4766817092895508,0.2232285737991333,-0.029485449194908142,-0.33980128169059753,0.31463053822517395,-2.7039682865142822,4.07421875,1,B2,6.1,180,0,4.979433521042991,[6400|4800|0|0]
20300,1.4515913724899292,0.2381080836057663,-0.009551642462611198,-7.328527927398682,-6.6288323402404785,8.7726411819458,4.08203125,1,B2,6.1,180,0,5.014764547968976,[6400|4900|0|0]
20400,1.390154242515564,0.31933102011680603,0.04925853759050369,-11.2429780960083,-11.344001770019531,-0.2880813479423523,4.08203125,1,B2,6.1,180,0,5.132366944342704,[6400|5000|0|0]
20500,1.341694951057434,0.44107669591903687,0.05623946711421013,-6.302079200744629,-6.838991165161133,-12.329427719116211,4.08203125,1,B2,6.1,180,0,5.263588306483862,[6400|5100|0|0]
20600,1.3597441911697388,0.5580534934997559,0.037049632519483566,-1.2430224418640137,-7.019562244415283,-13.750630378723145,4.08203125,1,B2,6.1,180,0,5.383494920115659,[6400|5200|0|0]
20700,1.363906741142273,0.5655983686447144,0.01098506711423397,1.1387643814086914,-4.479213237762451,-14.467550277709961,4.08203125,1,B2,6.1,180,0,5.4109469425000185,[6400|5300|0|0]
20800,1.368178129196167,0.5575221180915833,-0.00028778892010450363,0.6996784210205078,-0.1853332370519638,-12.50784683227539,4.08203125,1,B2,6.1,180,0,5.425457209970841,[6400|5400|0|0]
20900,1.3686678409576416,0.5532162189483643,-0.0015523997135460377,3.0660898685455322,-0.21017031371593475,-10.71407413482666,4.08203125,1,B2,6.1,180,0,5.429971611979944,[6400|5500|0|0]
21000,1.3673210144042969,0.5530195832252502,-0.001294668996706605,3.3317692279815674,-0.7219030857086182,-11.083048820495605,4.08203125,1,B2,6.1,180,0,5.431356903463641,[6400|5600|0|0]
21100,1.3512479066848755,0.5577106475830078,0.008280579932034016,3.119401216506958,-0.29946476221084595,-2.880556344985962,4.0859375,1,B2,6.1,180,0,5.450645145182784,[6400|5700|0|0]
21200,1.2906512022018433,0.5785885453224182,0.04687872156500816,2.738830089569092,-0.5940768718719482,-5.615731716156006,4.08203125,1,B2,6.1,180,0,5.5254626815345,[6400|5800|0|0]
21300,1.2919049263000488,0.5791710615158081,0.047380488365888596,2.7318122386932373,-1.203723430633545,-7.490814685821533,4.0859375,1,B2,6.1,180,0,5.526933368160688,[6400|5900|0|0]
21400,1.293772578239441,0.5785768032073975,0.04617314785718918,2.692141532897949,-1.4478574991226196,-8.650793075561523,4.0859375,1,B2,6.1,180,0,5.529235310342363,[6400|6000|0|0]
21500,1.2952755689620972,0.5777039527893066,0.04490390419960022,2.659269094467163,-1.5503290891647339,-9.427216529846191,4.0859375,1,B2,6.1,180,0,5.531387478650624,[6400|6100|0|0]
21600,1.295762300491333,0.5782096982002258,0.044919319450855255,2.5994555950164795,-1.548892617225647,-9.954505920410156,4.0859375,1,B2,6.1,180,0,5.532089563853565,[6400|6200|0|0]
21700,1.2957104444503784,0.5778446197509766,0.04483039677143097,2.5853898525238037,-1.51129949092865,-10.352082252502441,4.0859375,1,B2,6.1,180,0,5.532468877135702,[6400|6300|0|0]
21800,1.2958418130874634,0.5775672793388367,0.04430081322789192,2.565884828567505,-1.4780415296554565,-10.647429466247559,4.12109375,1,B2,6.1,180,0,5.533080950785357,[6400|6400|0|0]
21900,1.2961483001708984,0.577788770198822,0.04435470700263977,2.5382790565490723,-1.4419604539871216,-10.870025634765625,4.1484375,1,B2,6.1,180,0,5.533462915538085,[6400|6500|0|0]
22000,1.2960349321365356,0.5779457092285156,0.044524505734443665,2.516665458679199,-1.3924407958984375,-11.047819137573242,4.15234375,1,B2,6.1,180,0,5.533720430158211,[6400|6600|0|0]
22101,1.2958705425262451,0.5780903100967407,0.04464982822537422,2.508352518081665,-1.3466012477874756,-11.182929992675781,4.15234375,1,B2,6.1,180,0,5.53397269803527,[6400|6700|0|0]
22200,1.295552134513855,0.5779802203178406,0.044423364102840424,2.5133306980133057,-1.3002502918243408,-11.286458969116211,4.15234375,1,B2,6.1,180,0,5.534378640667383,[6400|6800|0|0]
22300,1.2957838773727417,0.5777671337127686,0.044562630355358124,2.510103702545166,-1.292407751083374,-11.37859058380127,4.15234375,1,B2,6.1,180,0,5.534722887298444,[6400|6900|0|0]
22400,1.2955156564712524,0.5781384110450745,0.044894199818372726,2.4896938800811768,-1.26889967918396,-11.454813003540039,4.15234375,1,B2,6.1,180,0,5.535288331918441,[6400|7000|0|0]
22500,1.295302152633667,0.5783145427703857,0.04503890872001648,2.4748125076293945,-1.2464715242385864,-11.522627830505371,4.15234375,1,B2,6.1,180,0,5.5356006569727345,[6400|7100|0|0]
22600,1.2952948808670044,0.5781938433647156,0.04504544287919998,2.481861114501953,-1.2349928617477417,-11.579154014587402,4.15234375,1,B2,6.1,180,0,5.53572175164791,[6400|7200|0|0]
22700,1.2951650619506836,0.5782745480537415,0.04516024887561798,2.474529981613159,-1.2170884609222412,-11.633110046386719,4.15234375,1,B2,6.1,180,0,5.5359129233369195,[6400|7300|0|0]
22800,1.295242428779602,0.5783351063728333,0.044821228832006454,2.4671530723571777,-1.2057052850723267,-11.68242359161377,4.16015625,1,B2,6.1,180,0,5.5362658929194595,[6400|7400|0|0]
22900,1.2952749729156494,0.5781669020652771,0.04485930874943733,2.4674713611602783,-1.1984457969665527,-11.69932746887207,4.16015625,1,B2,6.1,180,0,5.536441397591713,[6400|7500|0|0]
23000,1.2953773736953735,0.5778718590736389,0.04510138928890228,2.4612197875976562,-1.197658658027649,-11.722086906433105,4.16015625,1,B2,6.1,180,0,5.536836542216111,[6400|7600|0|0]
23100,1.2951096296310425,0.5784417986869812,0.04506325721740723,2.4426417350769043,-1.1820396184921265,-11.725933074951172,4.16015625,1,B2,6.1,180,0,5.537467392516672,[6400|7700|0|0]
23200,1.295277714729309,0.5778304934501648,0.04478325694799423,2.4627628326416016,-1.189928650856018,-11.721501350402832,4.16015625,1,B2,6.1,180,0,5.53816046310737,[6400|7800|0|0]
23300,1.2953593730926514,0.5785155892372131,0.044815994799137115,2.428586721420288,-1.183302402496338,-11.744887351989746,4.16015625,1,B2,6.1,180,0,5.5388511845364805,[6400|7900|0|0]
23400,1.295170545578003,0.5783958435058594,0.04482588544487953,2.4406545162200928,-1.1673506498336792,-11.744476318359375,4.16015625,1,B2,6.1,180,0,5.539074998511333,[6400|8000|0|0]
23500,1.2951899766921997,0.5784898996353149,0.0447818860411644,2.4385218620300293,-1.1658732891082764,-11.761748313903809,4.16015625,1,B2,6.1,180,0,5.539180639749561,[6400|8100|0|0]
23600,1.295150637626648,0.5781226754188538,0.04458845034241676,2.451538562774658,-1.1716945171356201,-11.773463249206543,4.16015625,1,B2,6.1,180,0,5.539597555276718,[6400|8200|0|0]
23700,1.295196771621704,0.5779303312301636,0.04501212015748024,2.4563114643096924,-1.1738578081130981,-11.768632888793945,4.16015625,1,B2,6.1,180,0,5.540065124249831,[6400|8300|0|0]
23800,1.2951244115829468,0.578045666217804,0.04521298408508301,2.450007438659668,-1.1739100217819214,-11.800823211669922,4.1640625,1,B2,6.1,180,0,5.540307785437488,[6400|8400|0|0]
23900,1.2952754497528076,0.5779054760932922,0.044844482094049454,2.448728561401367,-1.175350308418274,-11.776033401489258,4.1640625,1,B2,6.1,180,0,5.5407299933449945,[6400|8500|0|0]
24000,1.2948238849639893,0.5784257054328918,0.04510420560836792,2.4372081756591797,-1.1556023359298706,-11.771222114562988,4.1640625,1,B2,6.1,180,0,5.54146620366017,[6400|8600|0|0]
24100,1.2946985960006714,0.5785334706306458,0.04567495733499527,2.4291369915008545,-1.159554362297058,-11.76610279083252,4.1640625,1,B2,6.1,180,0,5.5420603990788875,[6400|8700|0|0]
24200,1.2951301336288452,0.5782647728919983,0.045145485550165176,2.429757595062256,-1.1835999488830566,-11.748626708984375,4.1640625,1,B2,6.1,180,0,5.542794404235692,[6400|8800|0|0]
24300,1.295540452003479,0.5780642628669739,0.04462184011936188,2.4401919841766357,-1.192692518234253,-11.73950481414795,4.1640625,1,B2,6.1,180,0,5.543489220740892,[6400|8900|0|0]
24400,1.295166015625,0.5779873132705688,0.04511726275086403,2.451301336288452,-1.1710857152938843,-11.757549285888672,4.1640625,1,B2,6.1,180,0,5.544114974227275,[6400|9000|0|0]
24500,1.295272946357727,0.57830810546875,0.04506414756178856,2.44203519821167,-1.1653856039047241,-11.762105941772461,4.1640625,1,B2,6.1,180,0,5.54445726509675,[6400|9100|0|0]
24600,1.295119047164917,0.5785011649131775,0.044726595282554626,2.4460794925689697,-1.1524072885513306,-11.752777099609375,4.171875,1,B2,6.1,180,0,5.544875473719146,[6400|9200|0|0]
24700,1.2951444387435913,0.5778319835662842,0.04493609443306923,2.4685287475585938,-1.1572445631027222,-11.747014999389648,4.171875,1,B2,6.1,180,0,5.545577141946561,[6400|9300|0|0]
24800,1.2952255010604858,0.5778698921203613,0.045135028660297394,2.4601712226867676,-1.164717674255371,-11.750436782836914,4.171875,1,B2,6.1,180,0,5.545795277190058,[6400|9400|0|0]
24900,1.2956286668777466,0.5778896808624268,0.04451713711023331,2.4495186805725098,-1.1757067441940308,-11.752297401428223,4.171875,1,B2,6.1,180,0,5.546533331549953,[6400|9500|0|0]
25000,1.2953357696533203,0.5778773427009583,0.04481871426105499,2.4529800415039062,-1.1581463813781738,-11.752958297729492,4.171875,1,B2,6.1,180,0,5.546953914231721,[6400|9600|0|0]
25100,1.2951322793960571,0.5786027312278748,0.04516100883483887,2.4334912300109863,-1.1502704620361328,-11.761798858642578,4.171875,1,B2,6.1,180,0,5.547781417932634,[6400|9700|0|0]
25200,1.2949663400650024,0.5783752799034119,0.045128483325242996,2.4475464820861816,-1.1423934698104858,-11.764016151428223,4.171875,1,B2,6.1,180,0,5.548064839659686,[6400|9800|0|0]
25300,1.2951245307922363,0.5784767270088196,0.04526151716709137,2.4460995197296143,-1.151847243309021,-11.743603706359863,4.171875,1,B2,6.1,180,0,5.548295086971191,[6400|9900|0|0]
25400,1.294824481010437,0.5784438848495483,0.04505110904574394,2.4505271911621094,-1.1473314762115479,-11.747228622436523,4.171875,1,B2,6.1,180,0,5.54866302726052,[6400|10000|0|0]
25500,1.2952604293823242,0.5779913663864136,0.04491935297846794,2.452974319458008,-1.1853680610656738,-11.809011459350586,3.55859375,1,J1,6.1,180,0,5.549305042528013,[6400|10000|0|0]
25600,1.2961616516113281,0.5759657025337219,0.044981762766838074,2.8291146755218506,-1.4816845655441284,-12.278186798095703,3.58984375,1,J1,6.1,180,0,5.551523016948928,[6400|10000|0|0]
25700,1.2964919805526733,0.572502851486206,0.05181892588734627,3.332149028778076,1.9274860620498657,-10.513362884521484,3.658203125,1,J1,6.1,180,0,5.559194213343442,[6400|10000|0|0]
25800,1.29341721534729,0.570210874080658,0.08193589746952057,-4.311489582061768,2.988060474395752,-5.30881404876709,3.7109375,1,J1,6.1,180,0,5.589554373401935,[6400|10000|0|0]
25900,1.2885520458221436,0.5772420763969421,0.12937867641448975,-1.3506951332092285,0.05856241285800934,-1.3908053636550903,3.6796875,1,J1,6.1,180,0,5.637761478215874,[6400|10000|0|0]
26000,1.285973310470581,0.5865124464035034,0.19023163616657257,3.9920361042022705,-4.119512557983398,-0.5383250713348389,3.701171875,1,J1,6.1,180,0,5.69937050634212,[6400|10000|0|0]
26100,1.292933464050293,0.5904908776283264,0.25551077723503113,5.0879411697387695,-4.336064338684082,0.00870622880756855,3.7109375,1,J1,6.1,180,0,5.76514008830445,[6400|10000|0|0]
26200,1.3101128339767456,0.5847676992416382,0.3383149802684784,5.035189151763916,-3.082228183746338,0.2653997242450714,3.716796875,1,J1,6.1,180,0,5.8499010555117685,[6400|10000|0|0]
26300,1.3315989971160889,0.5731200575828552,0.42205289006233215,4.2276787757873535,0.7138367891311646,0.3358275890350342,3.716796875,1,J1,6.1,180,0,5.937132702861256,[6400|10000|0|0]
26400,1.3526334762573242,0.5559086203575134,0.5074331760406494,3.101827621459961,2.1734211444854736,0.3262631893157959,3.716796875,1,J1,6.1,180,0,6.026734466894361,[6400|10000|0|0]
26500,1.3689249753952026,0.5353285670280457,0.5954029560089111,0.32055696845054626,2.58048152923584,-1.7486178874969482,3.736328125,1,J1,6.1,180,0,6.118536611351163,[6400|10000|0|0]
26600,1.3787922859191895,0.5145337581634521,0.6828956604003906,-0.7884445190429688,3.0758771896362305,-3.647773265838623,3.7734375,1,J1,6.1,180,0,6.209006281486666,[6400|10000|0|0]
26700,1.3815525770187378,0.49700677394866943,0.7671564817428589,-1.156290054321289,3.701511859893799,-3.750127077102661,3.7890625,1,J1,6.1,180,0,6.295114936080306,[6400|10000|0|0]
26800,1.3792487382888794,0.48386645317077637,0.8376842141151428,-2.25998592376709,1.8095368146896362,-3.055265188217163,3.7890625,1,J1,6.1,180,0,6.3668933223579005,[6400|10000|0|0]
26900,1.3732941150665283,0.4749312400817871,0.8948879241943359,-1.9363666772842407,1.4330134391784668,-2.2872753143310547,3.78515625,1,J1,6.1,180,0,6.42509607158412,[6400|10000|0|0]
27000,1.3646295070648193,0.46887460350990295,0.9367700219154358,-0.035814061760902405,0.4625846743583679,-1.9390705823898315,3.76953125,1,J1,6.1,180,0,6.468291770304096,[6400|10000|0|0]
27100,1.354481816291809,0.4614584445953369,0.9663406014442444,0.9897359609603882,-0.13352471590042114,-1.7046564817428589,3.7578125,1,J1,6.1,180,0,6.500422662211111,[6400|10000|0|0]
27200,1.3438001871109009,0.4495503008365631,0.9868085980415344,0.19051918387413025,-1.279630422592163,-1.8660143613815308,3.75390625,1,J1,6.1,180,0,6.526400344448846,[6400|10000|0|0]
27300,1.3347063064575195,0.434736967086792,1.0007011890411377,-0.5416465401649475,-1.812433123588562,-2.044910192489624,3.748046875,1,J1,6.1,180,0,6.548652032178147,[6400|10000|0|0]
27400,1.3286542892456055,0.4190049171447754,1.0101864337921143,-1.705552339553833,-1.8867518901824951,-1.143202781677246,3.736328125,1,J1,6.1,180,0,6.567993546485392,[6400|10000|0|0]
27500,1.3257458209991455,0.40356358885765076,1.0168251991271973,-2.893555164337158,-1.479404330253601,-0.8799883723258972,3.736328125,1,J1,6.1,180,0,6.585051301671398,[6400|10000|0|0]
27600,1.3241790533065796,0.39401835203170776,1.0210665464401245,-3.6461451053619385,-1.4153032302856445,-1.1369723081588745,3.732421875,1,J1,6.1,180,0,6.595613277532698,[6400|10000|0|0]
27700,1.3810433149337769,0.34553325176239014,0.993708610534668,-5.151840686798096,0.8055493235588074,-1.1779487133026123,3.66796875,1,J1,6.1,180,0,6.67519220599708,[6400|10000|0|0]
27800,1.3793048858642578,0.34705665707588196,1.0043962001800537,-8.146411895751953,2.911674976348877,-1.0621216297149658,3.716796875,1,J1,6.1,180,0,6.686126897204749,[6400|10000|0|0]
27900,1.3725907802581787,0.360372394323349,1.0204070806503296,-5.770298480987549,2.709286689758301,-1.0019755363464355,3.75390625,1,J1,6.1,180,0,6.708006942130814,[6400|10000|0|0]
28000,1.3645228147506714,0.379158079624176,1.0364711284637451,-1.7239006757736206,-0.24058376252651215,-1.22367262840271,3.76953125,1,J1,6.1,180,0,6.734007858880108,[6400|10000|0|0]
28100,1.3580645322799683,0.396427184343338,1.0479414463043213,0.6099575161933899,-1.7150899171829224,-1.0537471771240234,3.76953125,1,J1,6.1,180,0,6.755721899997243,[6400|10000|0|0]
28200,1.3548911809921265,0.40549057722091675,1.0499451160430908,2.1949594020843506,-3.1041927337646484,-0.9448052644729614,3.7578125,1,J1,6.1,180,0,6.765531586091684,[6400|10000|0|0]
28300,1.3605228662490845,0.41477060317993164,1.0525743961334229,2.4454009532928467,-2.9107441902160645,-0.6897056102752686,3.748046875,1,J1,6.1,180,0,6.7767006448894005,[6400|10000|0|0]
28400,1.3714590072631836,0.41513341665267944,1.0471018552780151,2.6405346393585205,-1.6971200704574585,-0.46671485900878906,3.7421875,1,J1,6.1,180,0,6.788935002956352,[6400|10000|0|0]
28500,1.383234977722168,0.4049920439720154,1.0346391201019287,0.4634559452533722,0.7025676369667053,-0.15221524238586426,3.65234375,1,J1,6.1,180,4.258846122170354,6.808855863584554,[6400|10000|0|0]
28600,1.3945351839065552,0.40325018763542175,1.0363670587539673,-6.910006523132324,10.160995483398438,0.5713416934013367,3.611328125,1,J1,6.1,180,4.258846122170354,6.820419361986517,[6400|10000|0|0]
28700,1.380465030670166,0.4065077304840088,1.046356439590454,-9.617615699768066,20.93726921081543,4.920533180236816,3.611328125,1,J1,6.1,180,4.258846122170354,6.837979787009911,[6400|10000|0|0]
28800,1.3360849618911743,0.4152120053768158,1.061004877090454,-7.674288272857666,21.677200317382812,6.346900939941406,3.611328125,1,J1,6.1,180,4.258846122170354,6.885518525186571,[6400|10000|0|0]
28900,1.247399091720581,0.4347763657569885,1.0888727903366089,-4.581597805023193,14.898719787597656,6.254893779754639,3.611328125,1,J1,6.1,180,4.258846122170354,6.980516253336752,[6400|10000|0|0]
29000,1.1355470418930054,0.45271143317222595,1.1311781406402588,2.8453497886657715,2.3906970024108887,4.760543346405029,3.62109375,1,J1,6.1,180,4.258846122170354,7.101438916051952,[6400|10000|0|0]
29100,1.0112148523330688,0.4536625146865845,1.175133466720581,5.773386478424072,-5.29357385635376,3.160245418548584,3.68359375,1,J1,6.1,180,4.258846122170354,7.233315633510503,[6400|10000|0|0]
29200,0.8976377844810486,0.4704674780368805,1.2351526021957397,4.345811367034912,-6.960870265960693,1.5989083051681519,3.68359375,1,J1,6.1,180,4.258846122170354,7.362870462668866,[6400|10000|0|0]
29300,0.8007116913795471,0.484482079744339,1.303304672241211,3.7883920669555664,-7.427270889282227,0.653154194355011,3.7265625,1,J1,6.1,180,4.258846122170354,7.482184255821303,[6400|10000|0|0]
29400,0.7164212465286255,0.49075761437416077,1.3692818880081177,2.5836308002471924,-6.376688003540039,0.31245309114456177,3.748046875,1,J1,6.1,180,4.258846122170354,7.589409506711237,[6400|10000|0|0]
29500,0.6426896452903748,0.49209579825401306,1.4267255067825317,1.7076579332351685,-6.315770149230957,0.13953645527362823,3.75390625,1,J1,6.1,180,4.258846122170354,7.682886290434004,[6400|10000|0|0]
29600,0.5788716673851013,0.4896002411842346,1.4727355241775513,0.6663243770599365,-6.674726963043213,0.06214481219649315,3.748046875,1,J1,6.1,180,4.258846122170354,7.761600226999878,[6400|10000|0|0]
29700,0.5255327820777893,0.48298540711402893,1.506676197052002,-0.7296215891838074,-6.751145362854004,-0.07158507406711578,3.7421875,1,J1,6.1,180,4.258846122170354,7.825167215215251,[6400|10000|0|0]
29800,0.484870046377182,0.47247055172920227,1.528624176979065,-1.628893256187439,-6.934659481048584,-0.2118440866470337,3.732421875,1,J1,6.1,180,4.258846122170354,7.872556392052373,[6400|10000|0|0]
29900,0.4564225375652313,0.4626171290874481,1.540107011795044,-3.0118672847747803,-6.11094331741333,-0.12894463539123535,3.716796875,1,J1,6.1,180,4.258846122170354,7.904777599211232,[6400|10000|0|0]
30000,0.509174644947052,0.35909828543663025,1.584510087966919,-2.211430549621582,-5.046790599822998,3.1430108547210693,3.7109375,1,J1,6.1,180,4.258846122170354,8.029158341279894,[6400|10000|0|0]
30100,0.5499036908149719,0.3078436553478241,1.623100996017456,-8.263980865478516,-0.3185822665691376,6.624152660369873,3.76953125,1,J1,6.1,180,4.258846122170354,8.105152752041585,[6400|10000|0|0]
30200,0.5534993410110474,0.3150396943092346,1.6105010509490967,-11.17172908782959,5.235668182373047,3.3391363620758057,3.736328125,1,J1,6.1,180,4.258846122170354,8.120101674838642,[6400|10000|0|0]
30300,0.5478112697601318,0.33283567428588867,1.5801939964294434,-8.544618606567383,6.91288423538208,-1.5265940427780151,3.689453125,1,J1,6.1,180,4.258846122170354,8.155704604655472,[6400|10000|0|0]
30400,0.4965371787548065,0.3757728040218353,1.5510390996932983,-3.838521718978882,6.791228294372559,-0.7297660112380981,3.6484375,1,J1,6.1,180,4.258846122170354,8.2286610130243,[6400|10000|0|0]
30500,0.4620908796787262,0.41738826036453247,1.5228735208511353,-0.6083102226257324,0.11333765834569931,-0.2844538390636444,3.658203125,1,J1,6.1,180,4.258846122170354,8.289584682957782,[6400|10000|0|0]
30600,0.42696160078048706,0.45684540271759033,1.5005333423614502,3.0266613960266113,-3.3371481895446777,-0.369732528924942,3.6796875,1,J1,6.1,180,4.258846122170354,8.34694334310192,[6400|10000|0|0]
30700,0.3936871588230133,0.49132272601127625,1.4799429178237915,5.671579837799072,-6.41957426071167,-0.27457186579704285,3.68359375,1,J1,6.1,180,4.258846122170354,8.399095427352885,[6400|10000|0|0]
30800,0.3729355037212372,0.5221887826919556,1.473567008972168,6.217804431915283,-6.587122440338135,-1.9855231046676636,3.68359375,1,J1,6.1,180,4.258846122170354,8.43683131025182,[6400|10000|0|0]
30900,0.37294572591781616,0.5391972661018372,1.486528992652893,5.282176971435547,-5.7418718338012695,-4.156132698059082,3.6953125,1,J1,6.1,180,4.258846122170354,8.45821592232071,[6400|10000|0|0]
31000,0.379056453704834,0.5480239987373352,1.4876025915145874,4.021538734436035,-2.7887496948242188,-1.528856873512268,3.720703125,1,J1,6.1,180,4.258846122170354,8.469005028753655,[6400|10000|0|0]
31100,0.3824816048145294,0.5509505271911621,1.4850387573242188,2.631762981414795,-0.23719042539596558,-2.351973533630371,3.705078125,1,J1,6.1,180,4.258846122170354,8.474188606154543,[6400|10000|0|0]
31200,0.386817067861557,0.5461453795433044,1.47639799118042,2.1073720455169678,0.6168246269226074,-2.2280561923980713,3.6953125,1,J1,6.1,180,4.258846122170354,8.48498437029154,[6400|10000|0|0]
31300,0.38755500316619873,0.5407065749168396,1.4695149660110474,0.2673167884349823,0.516162097454071,-1.9839707612991333,3.6953125,1,J1,6.1,180,4.258846122170354,8.493787845728033,[6400|10000|0|0]
31400,0.38686180114746094,0.532133936882019,1.4613704681396484,-0.5540382266044617,-0.13817989826202393,-1.7202051877975464,3.701171875,1,J1,6.1,180,4.258846122170354,8.505632823460898,[6400|10000|0|0]
31500,0.3861980736255646,0.5298734903335571,1.4585952758789062,-1.126252293586731,-0.20958760380744934,-0.8903343677520752,3.701171875,1,J1,6.1,180,0,8.509273131814027,[6400|10000|0|0]
31600,0.38730084896087646,0.5215489268302917,1.4368537664413452,-0.7755768299102783,-1.4562220573425293,0.1956002116203308,3.900390625,1,J1,6.1,180,0,8.532579948490348,[6400|10000|0|0]
31700,0.3900790810585022,0.5177993178367615,1.3809369802474976,-1.7594965696334839,-1.0842103958129883,1.756968379020691,3.810546875,1,J1,6.1,180,0,8.588691133823053,[6400|10000|0|0]
31800,0.39270681142807007,0.5155417323112488,1.2887966632843018,-1.766705870628357,-0.9843043684959412,2.6827008724212646,3.7421875,1,J1,6.1,180,0,8.680896554864217,[6400|10000|0|0]
31900,0.39702510833740234,0.5147601366043091,1.17471182346344,-1.0911225080490112,-0.353561133146286,2.232294797897339,3.701171875,1,J1,6.1,180,0,8.795065768126804,[6400|10000|0|0]
32000,0.40171903371810913,0.5148173570632935,1.0515916347503662,-0.003927193116396666,-1.4166250228881836,3.87374210357666,3.68359375,1,J1,6.1,180,0,8.918275414982899,[6400|10000|0|0]
32100,0.40872278809547424,0.5150193572044373,0.9259490370750427,-0.957948625087738,0.28619080781936646,0.7477632761001587,3.6953125,1,J1,6.1,180,0,9.04411323016593,[6400|10000|0|0]
32200,0.41611286997795105,0.5151825547218323,0.8030518293380737,0.8523401021957397,1.1540963649749756,-0.793786883354187,3.701171875,1,J1,6.1,180,0,9.167232536585367,[6400|10000|0|0]
