time.ms,stateEstimate.x,stateEstimate.y,stateEstimate.z,stabilizer.roll,stabilizer.pitch,stabilizer.yaw,pm.vbat,drone_id,node_name,wind_speed,global_wind_direction,relative_wind_direction,travel_dist,waiting_time
0,0.8495765924453735,-0.7398707866668701,0.023346595466136932,0.2744877338409424,-0.28031817078590393,-8.650513648986816,4.1640625,2,G1,6.1,180,0,0.15138770499454138,[100|0|0|0]
100,0.8498461246490479,-0.7396407127380371,0.023629264906048775,0.26926442980766296,-0.2844446003437042,-8.651601791381836,4.1640625,2,G1,6.1,180,0,0.15184100802101072,[200|0|0|0]
200,0.8499390482902527,-0.7395167946815491,0.02356252260506153,0.26655274629592896,-0.2840330898761749,-8.644389152526855,4.1640625,2,G1,6.1,180,0,0.15200966454344494,[300|0|0|0]
300,0.8498148322105408,-0.7399379014968872,0.023715166375041008,0.2792259156703949,-0.2844730317592621,-8.641145706176758,4.1640625,2,G1,6.1,180,0,0.15247448784847253,[400|0|0|0]
400,0.8500111699104309,-0.739442765712738,0.02338664047420025,0.26586633920669556,-0.2909543812274933,-8.644002914428711,4.1640625,2,G1,6.1,180,0,0.15310029708831036,[500|0|0|0]
500,0.8501500487327576,-0.7398682236671448,0.023603586480021477,0.28597500920295715,-0.28907498717308044,-8.637054443359375,4.1640625,2,G1,6.1,180,0,0.15359765748852391,[600|0|0|0]
600,0.8495428562164307,-0.7399094104766846,0.02324274368584156,0.2895868420600891,-0.267267644405365,-8.639886856079102,4.1640625,2,G1,6.1,180,0,0.1543051789562371,[700|0|0|0]
700,0.8499504923820496,-0.7396273016929626,0.023410219699144363,0.2766455113887787,-0.27457788586616516,-8.631702423095703,4.1640625,2,G1,6.1,180,0,0.15482843876207483,[800|0|0|0]
800,0.8498872518539429,-0.7393287420272827,0.023410217836499214,0.2720664441585541,-0.26492294669151306,-8.623495101928711,4.16015625,2,G1,6.1,180,0,0.15513362270393546,[900|0|0|0]
900,0.8502758145332336,-0.7396456599235535,0.023699142038822174,0.27985748648643494,-0.27558693289756775,-8.621527671813965,4.1640625,2,G1,6.1,180,0,0.15571232392512155,[1000|0|0|0]
1000,0.8501850962638855,-0.739456295967102,0.023704079911112785,0.27040061354637146,-0.27126675844192505,-8.631570816040039,4.1640625,2,G1,6.1,180,0,0.15592235462520898,[1100|0|0|0]
1100,0.8500291109085083,-0.7396558523178101,0.023615757003426552,0.2766021192073822,-0.2698337733745575,-8.642579078674316,4.1640625,2,G1,6.1,180,0,0.156190599111121,[1200|0|0|0]
1200,0.8499730229377747,-0.7396050691604614,0.023332897573709488,0.26835694909095764,-0.2714245021343231,-8.64417552947998,4.1640625,2,G1,6.1,180,0,0.1564834032205716,[1300|0|0|0]
1300,0.8498328924179077,-0.7399516701698303,0.02341798134148121,0.276411235332489,-0.27431806921958923,-8.644964218139648,4.1640625,2,G1,6.1,180,0,0.15686681953455936,[1400|0|0|0]
1400,0.849467396736145,-0.7397533655166626,0.023244662210345268,0.27022475004196167,-0.2673909068107605,-8.645879745483398,4.1640625,2,G1,6.1,180,0,0.15731732075550428,[1500|0|0|0]
1500,0.8498765826225281,-0.7394955158233643,0.023206904530525208,0.2557434141635895,-0.2811564803123474,-8.650721549987793,4.1640625,2,G1,6.1,180,0,0.15780244465342577,[1600|0|0|0]
1600,0.8500986695289612,-0.7396434545516968,0.023330336436629295,0.25455930829048157,-0.2914392054080963,-8.683043479919434,4.1640625,2,G1,6.1,180,0,0.1580964580830411,[1700|0|0|0]
1700,0.8499174118041992,-0.7395051717758179,0.023624669760465622,0.2558746933937073,-0.2897402346134186,-8.640106201171875,4.1640625,2,G1,6.1,180,0,0.15846875983486508,[1800|0|0|0]
1800,0.8494775295257568,-0.7396516799926758,0.023141469806432724,0.26190561056137085,-0.27261754870414734,-8.654463768005371,4.1640625,2,G1,6.1,180,0,0.15913841890638725,[1900|0|0|0]
1900,0.849810779094696,-0.7400162816047668,0.023542137816548347,0.27614855766296387,-0.29082244634628296,-8.647960662841797,4.1640625,2,G1,6.1,180,0,0.15977444128419135,[2000|0|0|0]
2000,0.8499618768692017,-0.7397805452346802,0.023309409618377686,0.2704950273036957,-0.2975461184978485,-8.649551391601562,4.1640625,2,G1,6.1,180,0,0.16013853548610338,[2100|0|0|0]
2100,0.8499053120613098,-0.7397990822792053,0.02342396043241024,0.2723463475704193,-0.29505372047424316,-8.664657592773438,4.1640625,2,G1,6.1,180,0,0.1602676288186465,[2200|0|0|0]
2200,0.8498615026473999,-0.7398285269737244,0.023384880274534225,0.2721747159957886,-0.29074782133102417,-8.681443214416504,4.1640625,2,G1,6.1,180,0,0.16033330616270108,[2300|0|0|0]
2300,0.8500440120697021,-0.7394693493843079,0.02337094396352768,0.2605663537979126,-0.29743635654449463,-8.67568302154541,4.1640625,2,G1,6.1,180,0,0.16073643449305336,[2400|0|0|0]
2400,0.8498958945274353,-0.7397505640983582,0.02334093488752842,0.27190011739730835,-0.29368188977241516,-8.672954559326172,4.1640625,2,G1,6.1,180,0,0.16105568528219552,[2500|0|0|0]
2500,0.8497433662414551,-0.7397242784500122,0.023306213319301605,0.265299916267395,-0.2901368737220764,-8.675567626953125,4.1640625,2,G1,6.1,180,0,0.1612143087376905,[2600|0|0|0]
2600,0.8498124480247498,-0.7399366497993469,0.023379914462566376,0.269199937582016,-0.2993521988391876,-8.681681632995605,4.1640625,2,G1,6.1,180,0,0.1614494804649877,[2700|0|0|0]
2700,0.8501290678977966,-0.7396681904792786,0.023834148421883583,0.2589571177959442,-0.31480076909065247,-8.677031517028809,4.1640625,2,G1,6.1,180,0,0.1620648234915483,[2800|0|0|0]
2800,0.8501574397087097,-0.7395957708358765,0.023526089265942574,0.2621902823448181,-0.31191274523735046,-8.676543235778809,4.1640625,2,G1,6.1,180,0,0.16238254980138755,[2900|0|0|0]
2900,0.849877655506134,-0.7397480607032776,0.02331990748643875,0.26839572191238403,-0.29465892910957336,-8.654088973999023,4.1640625,2,G1,6.1,180,0,0.16276199983752318,[3000|0|0|0]
3000,0.8501955270767212,-0.739581286907196,0.023393750190734863,0.2624015510082245,-0.30106374621391296,-8.645373344421387,4.16015625,2,G1,6.1,180,0,0.16312848118687776,[3100|0|0|0]
3100,0.8500498533248901,-0.7396799325942993,0.023468609899282455,0.2653234302997589,-0.2974019944667816,-8.646263122558594,4.1640625,2,G1,6.1,180,0,0.1633196768707214,[3200|0|0|0]
3200,0.8501500487327576,-0.7398307919502258,0.02312142215669155,0.2611481845378876,-0.29626598954200745,-8.643814086914062,4.1640625,2,G1,6.1,180,0,0.16371125954862437,[3300|0|0|0]
3300,0.8499298095703125,-0.7396805882453918,0.023413091897964478,0.2518666386604309,-0.2918608486652374,-8.628585815429688,4.16015625,2,G1,6.1,180,0,0.16410640215527997,[3400|0|0|0]
3400,0.8501154184341431,-0.7396650314331055,0.023573167622089386,0.25014999508857727,-0.2979397177696228,-8.627217292785645,4.1640625,2,G1,6.1,180,0,0.16435199715155452,[3500|0|0|0]
3500,0.8499267101287842,-0.7393525838851929,0.023517923429608345,0.24342051148414612,-0.2909078896045685,-8.621251106262207,4.1640625,2,G1,6.1,180,0,0.164721166781279,[3600|0|0|0]
3600,0.8501935601234436,-0.7396422028541565,0.02364889718592167,0.24908657371997833,-0.30245476961135864,-8.626104354858398,4.1640625,2,G1,6.1,180,0,0.1651361874936249,[3700|0|0|0]
3700,0.8499876856803894,-0.7396292090415955,0.02332153543829918,0.24995934963226318,-0.29525884985923767,-8.619348526000977,4.1640625,2,G1,6.1,180,0,0.1655231226810584,[3800|0|0|0]
3800,0.8499335050582886,-0.7396911978721619,0.02361121214926243,0.25365787744522095,-0.28971773386001587,-8.62727165222168,4.1640625,2,G1,6.1,180,0,0.16582427173352363,[3900|0|0|0]
3900,0.8500819802284241,-0.7393179535865784,0.023315437138080597,0.23836395144462585,-0.28508612513542175,-8.614356994628906,4.1640625,2,G1,6.1,180,0,0.1663231094126409,[4000|0|0|0]
4000,0.8500963449478149,-0.7396204471588135,0.023439481854438782,0.2504257261753082,-0.2863193452358246,-8.615131378173828,4.1640625,2,G1,6.1,180,0,0.16665036435616828,[4100|0|0|0]
4100,0.8500791192054749,-0.739737868309021,0.02359452284872532,0.2502506971359253,-0.2844225764274597,-8.639122009277344,4.1640625,2,G1,6.1,180,0,0.16684561333215683,[4200|0|0|0]
4200,0.8496485352516174,-0.7396288514137268,0.02342025376856327,0.2480746954679489,-0.2645452618598938,-8.64055061340332,4.16015625,2,G1,6.1,180,0,0.167322747419264,[4300|0|0|0]
4300,0.8310463428497314,-0.7900235056877136,-0.011982688680291176,-0.9708693027496338,-0.8113648891448975,-5.546217441558838,4.1640625,2,G1,6.1,180,0,0.23165804935831097,[4400|0|0|0]
4400,0.7886724472045898,-0.7872527241706848,0.01052779145538807,0.07173658162355423,1.2540926933288574,-7.111804962158203,4.1640625,2,G1,6.1,180,0,0.27971994672305583,[4500|0|0|0]
4500,0.7886502742767334,-0.7884351015090942,0.010110881179571152,0.8620545864105225,0.6399122476577759,-7.499602794647217,4.16015625,2,G1,6.1,180,0,0.28097386936309215,[4600|0|0|0]
4600,0.7887275815010071,-0.7892446517944336,0.009330722503364086,1.2001402378082275,0.15810194611549377,-7.625033855438232,4.1640625,2,G1,6.1,180,0,0.2821008101918312,[4700|0|0|0]
4700,0.7892013788223267,-0.7895427346229553,0.008680942468345165,1.175337791442871,-0.11004741489887238,-7.752118110656738,4.1640625,2,G1,6.1,180,0,0.28295845310602,[4800|0|0|0]
4800,0.7891476154327393,-0.7899675369262695,0.008701657876372337,1.0811209678649902,-0.20210306346416473,-7.805200099945068,4.16015625,2,G1,6.1,180,0,0.2833871448683513,[4900|0|0|0]
4900,0.7893217206001282,-0.7897751927375793,0.008246649987995625,0.936811625957489,-0.2507273554801941,-7.863210678100586,4.1640625,2,G1,6.1,180,0,0.2839109206550382,[5000|0|0|0]
5000,0.7893813848495483,-0.7898548245429993,0.008717017248272896,0.8328378796577454,-0.27299046516418457,-7.8830084800720215,4.1640625,2,G1,6.1,180,0,0.28439169753326143,[5100|0|0|0]
5100,0.7895668745040894,-0.7901597619056702,0.00864063948392868,0.7461398839950562,-0.2886403501033783,-7.895016193389893,4.16015625,2,G1,6.1,180,0,0.2847566999578844,[5200|0|0|0]
5200,0.7892460227012634,-0.7897737622261047,0.008139057084918022,0.6482505798339844,-0.2764343023300171,-7.921983242034912,4.1640625,2,G1,6.1,180,0,0.28546629599437173,[5300|0|0|0]
5300,0.7891888618469238,-0.7897889018058777,0.008189910091459751,0.5802332162857056,-0.27459588646888733,-7.928110122680664,4.16015625,2,G1,6.1,180,0,0.2855442870093598,[5400|0|0|0]
5400,0.7893967628479004,-0.7897803783416748,0.008290781639516354,0.5189674496650696,-0.2761237323284149,-7.967436790466309,4.16015625,2,G1,6.1,180,0,0.2857755239978725,[5500|0|0|0]
5500,0.7892946004867554,-0.7898074984550476,0.008463355712592602,0.4721943140029907,-0.2731887102127075,-7.968214988708496,4.1640625,2,G1,6.1,180,0,0.28597789607915397,[5600|0|0|0]
5600,0.789621114730835,-0.7897921800613403,0.00855262205004692,0.42758622765541077,-0.27970460057258606,-7.97942590713501,4.16015625,2,G1,6.1,180,0,0.2863167392342791,[5700|0|0|0]
5700,0.7892979383468628,-0.7896570563316345,0.008483030833303928,0.38901716470718384,-0.26515573263168335,-7.969855308532715,4.16015625,2,G1,6.1,180,0,0.28667387273163647,[5800|0|0|0]
5800,0.7894400358200073,-0.7898527979850769,0.008433355949819088,0.361150860786438,-0.2679184079170227,-7.975323677062988,4.16015625,2,G1,6.1,180,0,0.286920802034911,[5900|0|0|0]
5900,0.7892555594444275,-0.7894437909126282,0.00824193935841322,0.33014264702796936,-0.2583426833152771,-7.979491710662842,4.16015625,2,G1,6.1,180,0,0.28740861206958185,[6000|0|0|0]
6000,0.7894736528396606,-0.7897962927818298,0.008498286828398705,0.3181550204753876,-0.25912827253341675,-7.983422756195068,4.16015625,2,G1,6.1,180,0,0.2878959890511915,[6100|0|0|0]
6100,0.7895406484603882,-0.7897777557373047,0.008622895926237106,0.2990752160549164,-0.25920370221138,-7.993529796600342,4.1640625,2,G1,6.1,180,0,0.2880386756394908,[6200|0|0|0]
6200,0.7896250486373901,-0.7894392609596252,0.008666045032441616,0.2797340750694275,-0.2573028802871704,-8.010233879089355,4.16015625,2,G1,6.1,180,0,0.28839019228171486,[6300|0|0|0]
6300,0.7892084121704102,-0.7894958853721619,0.008193877525627613,0.2665278911590576,-0.2480955570936203,-7.996211528778076,4.16015625,2,G1,6.1,180,0,0.2890224378227854,[6400|0|0|0]
6400,0.7894831299781799,-0.7896122932434082,0.008316922932863235,0.2591342628002167,-0.25280997157096863,-8.005464553833008,4.16015625,2,G1,6.1,180,0,0.28934517740609633,[6500|0|0|0]
6500,0.7893879413604736,-0.7896851897239685,0.008686747401952744,0.25087544322013855,-0.25330695509910583,-7.994275093078613,4.16015625,2,G1,6.1,180,0,0.2897339510005652,[6600|0|0|0]
6600,0.789391040802002,-0.7893152236938477,0.008400828577578068,0.2327193170785904,-0.24822640419006348,-7.977750301361084,4.16015625,2,G1,6.1,180,0,0.2902015341954225,[6700|0|0|0]
6700,0.7891753315925598,-0.7894608378410339,0.00841476023197174,0.22991648316383362,-0.2378746122121811,-7.9922661781311035,4.1640625,2,G1,6.1,180,0,0.29046216426639104,[6800|0|0|0]
6800,0.7891785502433777,-0.789517879486084,0.008466278202831745,0.23257850110530853,-0.24527208507061005,-8.005138397216797,4.16015625,2,G1,6.1,180,0,0.2905390941715297,[6900|0|0|0]
6900,0.7896671295166016,-0.7897170782089233,0.008646246045827866,0.23574873805046082,-0.2625836133956909,-8.02885913848877,4.16015625,2,G1,6.1,180,0,0.29109656906954523,[7000|0|0|0]
7000,0.7892785668373108,-0.7895039916038513,0.008596079424023628,0.23979757726192474,-0.2449127435684204,-8.028359413146973,4.16015625,2,G1,6.1,180,0,0.29154255510849936,[7100|0|0|0]
7100,0.7894331216812134,-0.7896811366081238,0.008405537344515324,0.24347829818725586,-0.2506025731563568,-8.055839538574219,4.16015625,2,G1,6.1,180,0,0.29184516680089706,[7200|0|0|0]
7200,0.7894222140312195,-0.7895065546035767,0.00848736148327589,0.23648042976856232,-0.2496834695339203,-8.058342933654785,4.16015625,2,G1,6.1,180,0,0.29203828086776945,[7300|0|0|0]
7300,0.7894310355186462,-0.7895299792289734,0.008670258335769176,0.2436506301164627,-0.24598532915115356,-8.0226411819458,4.1640625,2,G1,6.1,180,0,0.2922228825751487,[7400|0|0|0]
7400,0.7895535826683044,-0.7893590927124023,0.008600159548223019,0.23855216801166534,-0.24504446983337402,-8.006918907165527,4.1640625,2,G1,6.1,180,0,0.292444544131244,[7500|0|0|0]
7500,0.7892240285873413,-0.7895017862319946,0.008433443494141102,0.23742976784706116,-0.2318701297044754,-8.000450134277344,4.16015625,2,G1,6.1,180,0,0.2928404754074798,[7600|0|0|0]
7600,0.7895520925521851,-0.7897786498069763,0.008592521771788597,0.2429773211479187,-0.23833556473255157,-8.01380443572998,4.1640625,2,G1,6.1,180,0,0.29329828028141625,[7700|0|0|0]
7700,0.7893965840339661,-0.7895082831382751,0.00832458771765232,0.23256702721118927,-0.23746159672737122,-7.99920129776001,4.16015625,2,G1,6.1,180,0,0.29370946113231905,[7800|0|0|0]
7800,0.7894864678382874,-0.7898240685462952,0.00855562649667263,0.23777544498443604,-0.24219158291816711,-8.050115585327148,4.16015625,2,G1,6.1,180,0,0.2941109314794293,[7900|0|0|0]
7900,0.7895757555961609,-0.7895514369010925,0.008367616683244705,0.22953206300735474,-0.24563394486904144,-8.048789024353027,4.1640625,2,G1,6.1,180,0,0.29445393003280407,[8000|0|0|0]
8000,0.789409875869751,-0.7896767258644104,0.008770516142249107,0.2385132610797882,-0.24583253264427185,-8.027202606201172,4.16015625,2,G1,6.1,180,0,0.29490729675195,[8100|0|0|0]
8100,0.7894519567489624,-0.7895565032958984,0.008472971618175507,0.235707625746727,-0.24914680421352386,-8.05033016204834,4.16015625,2,G1,6.1,180,0,0.2952309586282669,[8200|0|0|0]
8200,0.7895601391792297,-0.7896711230278015,0.00857212208211422,0.23553721606731415,-0.2504846751689911,-8.042001724243164,4.16015625,2,G1,6.1,180,0,0.2954171626444947,[8300|0|0|0]
8300,0.7894510626792908,-0.7896144986152649,0.008659673854708672,0.2315899282693863,-0.25293800234794617,-8.031777381896973,4.1640625,2,G1,6.1,180,0,0.2955680577067681,[8400|0|0|0]
8400,0.7891402840614319,-0.7893226146697998,0.00804930366575718,0.22508250176906586,-0.24203723669052124,-8.045042991638184,4.16015625,2,G1,6.1,180,0,0.2963125920273331,[8500|0|0|0]
8500,0.7894493937492371,-0.7894708514213562,0.008285561576485634,0.23172040283679962,-0.24907854199409485,-8.055092811584473,4.16015625,2,G1,6.1,180,0,0.2967289341150312,[8600|0|0|0]
8600,0.7894861698150635,-0.7895326614379883,0.008604259230196476,0.23381496965885162,-0.25533902645111084,-8.068910598754883,4.16015625,2,G1,6.1,180,0,0.2970556467588859,[8700|0|0|0]
8700,0.7894608378410339,-0.7896320819854736,0.008736787363886833,0.23227524757385254,-0.25608593225479126,-8.064326286315918,4.16015625,2,G1,6.1,180,0,0.2972232470583784,[8800|0|0|0]
8800,0.7899309992790222,-0.7893487215042114,0.008545775897800922,0.21973009407520294,-0.26352643966674805,-8.078783988952637,4.16015625,2,G1,6.1,180,0,0.29780447878522115,[8900|0|0|0]
8900,0.7896726131439209,-0.7895380854606628,0.008556438609957695,0.22993801534175873,-0.2505102753639221,-8.085512161254883,4.16015625,2,G1,6.1,180,0,0.29812500303741757,[9000|0|0|0]
9000,0.7894299626350403,-0.7895680069923401,0.008687706664204597,0.23170451819896698,-0.24144037067890167,-8.087188720703125,4.16015625,2,G1,6.1,180,0,0.29840250235198196,[9100|0|0|0]
9101,0.7893805503845215,-0.7893331050872803,0.00810775626450777,0.22607655823230743,-0.23487138748168945,-8.071467399597168,4.16015625,2,G1,6.1,180,0,0.29903016702488505,[9200|0|0|0]
9200,0.7894656658172607,-0.7893947958946228,0.008459297940135002,0.22823382914066315,-0.24859996140003204,-8.064042091369629,4.16015625,2,G1,6.1,180,0,0.29939708928136965,[9300|0|0|0]
9300,0.7891916632652283,-0.7895172238349915,0.008205554448068142,0.23234650492668152,-0.2501789927482605,-8.063582420349121,4.16015625,2,G1,6.1,180,0,0.2997900927913661,[9400|0|0|0]
9401,0.7896630167961121,-0.7894856929779053,0.008919934742152691,0.22766059637069702,-0.2569597065448761,-8.05038833618164,4.1640625,2,G1,6.1,180,0,0.30064654334487256,[9500|0|0|0]
9501,0.7896212339401245,-0.7895508408546448,0.008435615338385105,0.2380525767803192,-0.2479071468114853,-8.065169334411621,4.16015625,2,G1,6.1,180,0,0.30113700775516544,[9600|0|0|0]
9601,0.7893797159194946,-0.7895457148551941,0.008252200670540333,0.2402506172657013,-0.2359241098165512,-8.069314956665039,4.16015625,2,G1,6.1,180,0,0.3014403197571369,[9700|0|0|0]
9701,0.7894228100776672,-0.7894530296325684,0.00832414161413908,0.23766031861305237,-0.2385348230600357,-8.052010536193848,4.1640625,2,G1,6.1,180,0,0.30156531238223,[9800|0|0|0]
9801,0.7895071506500244,-0.7895864248275757,0.00888906605541706,0.23622480034828186,-0.24004636704921722,-8.061737060546875,4.1640625,2,G1,6.1,180,0,0.30215186777991193,[9900|0|0|0]
9900,0.7894407510757446,-0.7893725037574768,0.008492747321724892,0.23170222342014313,-0.23809956014156342,-8.026788711547852,4.16015625,2,G1,6.1,180,0,0.3026071036159048,[10000|0|0|0]
10001,0.7891744375228882,-0.7894241809844971,0.00831771083176136,0.2312355637550354,-0.24197658896446228,-8.030580520629883,4.16015625,2,G1,6.1,180,0,0.3029299522136194,[10100|0|0|0]
10101,0.7894418239593506,-0.7896230816841125,0.008282966911792755,0.23527459800243378,-0.25463682413101196,-8.057435989379883,4.16015625,2,G1,6.1,180,0,0.3032650106185078,[10200|0|0|0]
10200,0.7895084023475647,-0.7895938158035278,0.008744537830352783,0.23756223917007446,-0.25902867317199707,-8.056443214416504,4.16015625,2,G1,6.1,180,0,0.3037322759461365,[10300|0|0|0]
10300,0.789508581161499,-0.7896705269813538,0.008674231357872486,0.23941726982593536,-0.2647199034690857,-8.063529968261719,4.16015625,2,G1,6.1,180,0,0.3038363318774931,[10400|0|0|0]
10400,0.789633572101593,-0.789583146572113,0.008605403825640678,0.23538748919963837,-0.2618861794471741,-8.085095405578613,4.16015625,2,G1,6.1,180,0,0.30400364983892514,[10500|0|0|0]
10500,0.7896748185157776,-0.7899202108383179,0.008721492253243923,0.23615102469921112,-0.25734657049179077,-8.08738899230957,4.16015625,2,G1,6.1,180,0,0.30436252322782253,[10600|0|0|0]
10600,0.7895863652229309,-0.7896541953086853,0.008442873135209084,0.23233772814273834,-0.24447129666805267,-8.063097953796387,4.16015625,2,G1,6.1,180,0,0.30475776601391186,[10700|0|0|0]
10700,0.7898550033569336,-0.7895419001579285,0.008645477704703808,0.2257431596517563,-0.2548154890537262,-8.094720840454102,4.16015625,2,G1,6.1,180,0,0.3051124845777115,[10800|0|0|0]
10800,0.7893304824829102,-0.7895558476448059,0.00828414224088192,0.2292177528142929,-0.24293279647827148,-8.077736854553223,4.16015625,2,G1,6.1,180,0,0.30574957169663003,[10900|0|0|0]
10900,0.7894537448883057,-0.7897824645042419,0.008668089285492897,0.23385195434093475,-0.2499893456697464,-8.05980110168457,4.16015625,2,G1,6.1,180,0,0.30621213429199423,[11000|0|0|0]
11000,0.7893823981285095,-0.7896655797958374,0.008306515403091908,0.22578811645507812,-0.24581927061080933,-8.060002326965332,4.16015625,2,G1,6.1,180,0,0.3065987711599036,[11100|0|0|0]
11100,0.7894879579544067,-0.789584755897522,0.0083775008097291,0.22171148657798767,-0.244745671749115,-8.06199836730957,4.16015625,2,G1,6.1,180,0,0.3067494838247258,[11200|0|0|0]
11200,0.7895904779434204,-0.7899356484413147,0.008682439103722572,0.2273963838815689,-0.2467680722475052,-8.053664207458496,4.16015625,2,G1,6.1,180,0,0.30722553349501275,[11300|0|0|0]
11300,0.7896257042884827,-0.7896250486373901,0.008674097247421741,0.22019940614700317,-0.2396194040775299,-8.065791130065918,4.16015625,2,G1,6.1,180,0,0.3075382357817824,[11400|0|0|0]
11400,0.7894870042800903,-0.7895100712776184,0.008683321997523308,0.2177859991788864,-0.2344772070646286,-8.05852222442627,4.16015625,2,G1,6.1,180,0,0.3077186314070136,[11500|0|0|0]
11500,0.789549708366394,-0.7896753549575806,0.00852358527481556,0.22265033423900604,-0.24156585335731506,-8.057670593261719,4.16015625,2,G1,6.1,180,0,0.30795688823877804,[11600|0|0|0]
11600,0.7895156145095825,-0.7897024750709534,0.008515548892319202,0.2250233143568039,-0.2449028491973877,-8.080602645874023,4.16015625,2,G1,6.1,180,0,0.30800118807021415,[11700|0|0|0]
11700,0.7893680334091187,-0.7897006869316101,0.008214328438043594,0.22722117602825165,-0.2496912181377411,-8.073973655700684,4.16015625,2,G1,6.1,180,0,0.3083366238177582,[11800|0|0|0]
11800,0.7894850969314575,-0.789705216884613,0.008543869480490685,0.23103339970111847,-0.2585420310497284,-8.081136703491211,4.16015625,2,G1,6.1,180,0,0.3086863689926981,[11900|0|0|0]
11900,0.7895973324775696,-0.7897032499313354,0.008123436011373997,0.23086200654506683,-0.26102346181869507,-8.061210632324219,4.16015625,2,G1,6.1,180,0,0.3091215298694664,[12000|0|0|0]
12000,0.7895025610923767,-0.7895234227180481,0.008456387557089329,0.22072333097457886,-0.25212037563323975,-8.051348686218262,4.16015625,2,G1,6.1,180,0,0.30951162751606826,[12100|0|0|0]
12100,0.7895467877388,-0.7894880771636963,0.008799522183835506,0.2186085283756256,-0.2573089897632599,-8.049800872802734,4.16015625,2,G1,6.1,180,0,0.3098594014031537,[12200|0|0|0]
12200,0.789421796798706,-0.7896777987480164,0.008709745481610298,0.2257848083972931,-0.2508799135684967,-8.059060096740723,4.16015625,2,G1,6.1,180,0,0.3101036899025247,[12300|0|0|0]
12300,0.7894474864006042,-0.7894803285598755,0.008439742028713226,0.2215259075164795,-0.2520088851451874,-8.047070503234863,4.16015625,2,G1,6.1,180,0,0.3104391840089206,[12400|0|0|0]
12400,0.7894558310508728,-0.7897832989692688,0.008858717978000641,0.23407579958438873,-0.254192590713501,-8.047295570373535,4.16015625,2,G1,6.1,180,0,0.31095629284488974,[12500|0|0|0]
12500,0.7894777655601501,-0.7895443439483643,0.008262131363153458,0.22313471138477325,-0.25187191367149353,-8.06248950958252,4.16015625,2,G1,6.1,180,0,0.31159932955747116,[12600|0|0|0]
12600,0.7893170714378357,-0.7895588278770447,0.00834021158516407,0.22662769258022308,-0.2510732412338257,-8.06873893737793,4.16015625,2,G1,6.1,180,0,0.31177857493734373,[12700|0|0|0]
12700,0.7892639636993408,-0.7895523309707642,0.008167137391865253,0.2217344045639038,-0.2539996802806854,-8.056640625,4.16015625,2,G1,6.1,180,0,0.3119597304453066,[12800|0|0|0]
12800,0.7892001867294312,-0.7894288897514343,0.008433802053332329,0.2243756502866745,-0.2515750229358673,-8.049847602844238,4.16015625,2,G1,6.1,180,0,0.31226042177906244,[12900|0|0|0]
12900,0.7896193265914917,-0.7894034385681152,0.00861223042011261,0.22793853282928467,-0.2578885555267334,-8.046618461608887,4.16015625,2,G1,6.1,180,0,0.3127166702516871,[13000|0|0|0]
13000,0.7896246314048767,-0.7896407246589661,0.008638059720396996,0.23475751280784607,-0.2564643621444702,-8.055702209472656,4.16015625,2,G1,6.1,180,0,0.3129554169432024,[13100|0|0|0]
13100,0.7892728447914124,-0.7893217206001282,0.008424444124102592,0.23007482290267944,-0.24649102985858917,-8.027788162231445,4.16015625,2,G1,6.1,180,0,0.31347613667006896,[13200|0|0|0]
13200,0.7893921732902527,-0.7896610498428345,0.008391406387090683,0.23953968286514282,-0.26046067476272583,-8.029574394226074,4.16015625,2,G1,6.1,180,0,0.31383735006635705,[13300|0|0|0]
13300,0.7891945242881775,-0.7895481586456299,0.00846121646463871,0.22926589846611023,-0.25961530208587646,-8.021851539611816,4.16015625,2,G1,6.1,180,0,0.314075431979477,[13400|0|0|0]
13400,0.7896609306335449,-0.7899906039237976,0.008723589591681957,0.2316010594367981,-0.27959388494491577,-8.035999298095703,4.16015625,2,G1,6.1,180,0,0.3147697894961544,[13500|0|0|0]
13500,0.7891609072685242,-0.7895435094833374,0.008373945020139217,0.2171226143836975,-0.2563745975494385,-8.047070503234863,4.16015625,2,G1,6.1,180,0,0.3155262074564557,[13600|0|0|0]
13600,0.7896485924720764,-0.7896552085876465,0.008784386329352856,0.2247711569070816,-0.27094265818595886,-8.029828071594238,4.16015625,2,G1,6.1,180,0,0.3161733362040603,[13700|0|0|0]
13700,0.7894719243049622,-0.7897547483444214,0.008755245245993137,0.22750750184059143,-0.2625839412212372,-8.017884254455566,4.16015625,2,G1,6.1,180,0,0.3163781995907103,[13800|0|0|0]
13800,0.7895830273628235,-0.789779543876648,0.008823685348033905,0.22438813745975494,-0.26823729276657104,-8.025189399719238,4.16015625,2,G1,6.1,180,0,0.3165110256252513,[13900|0|0|0]
13900,0.7894150614738464,-0.7898159623146057,0.008411386981606483,0.22894997894763947,-0.26335570216178894,-8.043931007385254,4.16015625,2,G1,6.1,180,0,0.3169577120761784,[14000|0|0|0]
14000,0.7895035147666931,-0.7895869016647339,0.008664916269481182,0.22891007363796234,-0.266871839761734,-8.045768737792969,4.16015625,2,G1,6.1,180,0,0.3173106566414367,[14100|0|0|0]
14100,0.7894608378410339,-0.78975510597229,0.008666462264955044,0.2409207969903946,-0.25858935713768005,-8.04992961883545,4.16015625,2,G1,6.1,180,0,0.31748419741234135,[14200|0|0|0]
14200,0.7895165085792542,-0.7896891236305237,0.008386124856770039,0.2384684681892395,-0.2608153522014618,-8.042905807495117,4.16015625,2,G1,6.1,180,0,0.31777752651581875,[14300|0|0|0]
14300,0.7891777157783508,-0.7893316149711609,0.008127815090119839,0.2416139841079712,-0.24758462607860565,-8.024555206298828,4.16015625,2,G1,6.1,180,0,0.31833368920695343,[14400|0|0|0]
14400,0.7895008325576782,-0.7898090481758118,0.008590992540121078,0.25926288962364197,-0.2508522868156433,-8.052672386169434,4.16015625,2,G1,6.1,180,0,0.31907320274176926,[14500|0|0|0]
14500,0.7895074486732483,-0.7897706627845764,0.008560349233448505,0.25729861855506897,-0.2576979398727417,-8.035188674926758,4.16015625,2,G1,6.1,180,0,0.31912276304331555,[14600|0|0|0]
14600,0.7893856763839722,-0.789668619632721,0.008748863823711872,0.25694748759269714,-0.25428706407546997,-8.02341079711914,4.16015625,2,G1,6.1,180,0,0.3193692971099642,[14700|0|0|0]
14700,0.7895030975341797,-0.7898257970809937,0.00852876715362072,0.25769391655921936,-0.26767322421073914,-8.057156562805176,4.16015625,2,G1,6.1,180,0,0.31966414456365305,[14800|0|0|0]
14800,0.7894955277442932,-0.7895928621292114,0.008772065863013268,0.25308704376220703,-0.25956621766090393,-8.038750648498535,4.16015625,2,G1,6.1,180,0,0.3200010573943271,[14900|0|0|0]
14900,0.7894684672355652,-0.7897675037384033,0.00877472572028637,0.25467851758003235,-0.2596852779388428,-8.044394493103027,4.16015625,2,G1,6.1,180,0,0.320177803080652,[15000|0|0|0]
15000,0.7893696427345276,-0.789484977722168,0.0082389572635293,0.2478790283203125,-0.25098133087158203,-8.042001724243164,4.16015625,2,G1,6.1,180,0,0.32079150909423754,[15100|0|0|0]
15100,0.7892701625823975,-0.7894136309623718,0.008488178253173828,0.23605185747146606,-0.2430403083562851,-8.051729202270508,4.16015625,2,G1,6.1,180,0,0.321069173932632,[15200|0|0|0]
15200,0.7892500758171082,-0.7895134687423706,0.00837977509945631,0.2377820909023285,-0.24011574685573578,-8.028129577636719,4.16015625,2,G1,6.1,180,0,0.3212179096182988,[15300|0|0|0]
15300,0.7896479964256287,-0.7898476123809814,0.008635043166577816,0.23705998063087463,-0.24797064065933228,-8.041356086730957,4.16015625,2,G1,6.1,180,0,0.3217968349744557,[15400|0|0|0]
15400,0.789531409740448,-0.7898344993591309,0.008613476529717445,0.2348913699388504,-0.24269218742847443,-8.059134483337402,4.16015625,2,G1,6.1,180,0,0.3219161225527233,[15500|0|0|0]
15500,0.7892166972160339,-0.7895568013191223,0.00824691727757454,0.22449462115764618,-0.23407137393951416,-8.065176010131836,4.16015625,2,G1,6.1,180,0,0.32247337102493223,[15600|0|0|0]
15600,0.7894544005393982,-0.789738118648529,0.008579710498452187,0.22758832573890686,-0.2462373971939087,-8.067266464233398,4.16015625,2,G1,6.1,180,0,0.32292073013319283,[15700|0|0|0]
15700,0.7893394231796265,-0.7895692586898804,0.008164780214428902,0.22750557959079742,-0.24210508167743683,-8.069404602050781,4.16015625,2,G1,6.1,180,0,0.32338322404611985,[15800|0|0|0]
15800,0.7893359661102295,-0.7897006869316101,0.008349856361746788,0.2283887267112732,-0.2401767522096634,-8.070626258850098,4.16015625,2,G1,6.1,180,0,0.3236102450018905,[15900|0|0|0]
15900,0.7893115878105164,-0.7894555926322937,0.008017109706997871,0.22353029251098633,-0.2421695739030838,-8.059261322021484,4.16015625,2,G1,6.1,180,0,0.3240242327472416,[16000|0|0|0]
16000,0.7893284559249878,-0.7894616723060608,0.008505481295287609,0.2240452915430069,-0.246407151222229,-8.062370300292969,4.16015625,2,G1,6.1,180,0,0.3245129333754053,[16100|0|0|0]
16100,0.7895830273628235,-0.7898592352867126,0.008478781208395958,0.23293761909008026,-0.2563554048538208,-8.03494930267334,4.16015625,2,G1,6.1,180,0,0.3249857714398487,[16200|0|0|0]
16200,0.7894420623779297,-0.7894575595855713,0.008166083134710789,0.22160476446151733,-0.2513788938522339,-8.040810585021973,4.16015625,2,G1,6.1,180,0,0.32551397081616407,[16300|0|0|0]
16300,0.7896341681480408,-0.7896389365196228,0.008699165657162666,0.22246946394443512,-0.2627951502799988,-8.049347877502441,4.16015625,2,G1,6.1,180,0,0.32610893232320426,[16400|0|0|0]
16400,0.7893835306167603,-0.7894952297210693,0.008170269429683685,0.22283868491649628,-0.2557806074619293,-8.05066204071045,4.16015625,2,G1,6.1,180,0,0.32671159477887773,[16500|0|0|0]
16500,0.7893783450126648,-0.789686381816864,0.008812833577394485,0.2295730710029602,-0.2558530867099762,-8.0606689453125,4.16015625,2,G1,6.1,180,0,0.32738200860491345,[16600|0|0|0]
16600,0.7895523905754089,-0.7897833585739136,0.008636007085442543,0.22627316415309906,-0.266282320022583,-8.0867338180542,4.16015625,2,G1,6.1,180,0,0.32764839921581185,[16700|0|0|0]
16700,0.7896651029586792,-0.7898702025413513,0.008828197605907917,0.23039917647838593,-0.26955196261405945,-8.093063354492188,4.16015625,2,G1,6.1,180,0,0.3278875292059418,[16800|0|0|0]
16800,0.7896214127540588,-0.7896823287010193,0.008522004820406437,0.22846783697605133,-0.26429206132888794,-8.073675155639648,4.16015625,2,G1,6.1,180,0,0.32824941238564764,[16900|0|0|0]
16900,0.7896088361740112,-0.789727509021759,0.008722285740077496,0.2266390025615692,-0.259475439786911,-8.059176445007324,4.16015625,2,G1,6.1,180,0,0.32845511089933244,[17000|0|0|0]
17000,0.7892408967018127,-0.7896884083747864,0.008356849662959576,0.22588685154914856,-0.2508854866027832,-8.072433471679688,4.16015625,2,G1,6.1,180,0,0.3289751607452652,[17100|0|0|0]
17100,0.789395272731781,-0.7898171544075012,0.008518470451235771,0.23547331988811493,-0.25509607791900635,-8.088550567626953,4.16015625,2,G1,6.1,180,0,0.32923309247803884,[17200|0|0|0]
17200,0.789182722568512,-0.7892938256263733,0.008191446773707867,0.22463703155517578,-0.24893119931221008,-8.059857368469238,4.16015625,2,G1,6.1,180,0,0.3298857754567708,[17300|0|0|0]
17300,0.7893668413162231,-0.7897260785102844,0.008593798615038395,0.23539255559444427,-0.2557818591594696,-8.017105102539062,4.16015625,2,G1,6.1,180,0,0.33050434580291604,[17400|0|0|0]
17400,0.7891070246696472,-0.7895707488059998,0.008244710974395275,0.231088787317276,-0.25028473138809204,-8.011706352233887,4.16015625,2,G1,6.1,180,0,0.3309664001154388,[17500|0|0|0]
17500,0.7892829775810242,-0.7895188927650452,0.008189658634364605,0.22643175721168518,-0.252334326505661,-8.025880813598633,4.16015625,2,G1,6.1,180,0,0.33115791835516645,[17600|0|0|0]
17600,0.7892864346504211,-0.7895320653915405,0.008146160282194614,0.22376185655593872,-0.2504020929336548,-8.019770622253418,4.16015625,2,G1,6.1,180,0,0.3312034987902138,[17700|0|0|0]
17700,0.7894450426101685,-0.7895458340644836,0.008252191357314587,0.22147445380687714,-0.2524251639842987,-8.021493911743164,4.16015625,2,G1,6.1,180,0,0.33139478038927894,[17800|0|0|0]
17800,0.7893711924552917,-0.7895129919052124,0.008191280998289585,0.21866706013679504,-0.24941983819007874,-8.028329849243164,4.16015625,2,G1,6.1,180,0,0.3314959857480178,[17900|0|0|0]
17900,0.7893967032432556,-0.7897874116897583,0.008553104475140572,0.22635845839977264,-0.24669155478477478,-8.038957595825195,4.16015625,2,G1,6.1,180,0,0.3319508189557471,[18000|0|0|0]
18000,0.789396345615387,-0.7895412445068359,0.008483657613396645,0.21843598783016205,-0.2417878806591034,-8.064030647277832,4.16015625,2,G1,6.1,180,0,0.3322065947881701,[18100|0|0|0]
18100,0.7895423173904419,-0.7897151708602905,0.008445806801319122,0.21942096948623657,-0.24066513776779175,-8.072587966918945,4.16015625,2,G1,6.1,180,0,0.33243679213722876,[18200|0|0|0]
18200,0.7895781993865967,-0.7896877527236938,0.008737688884139061,0.22031530737876892,-0.2397339642047882,-8.057059288024902,4.16015625,2,G1,6.1,180,0,0.3327321468767096,[18300|0|0|0]
18300,0.7894667387008667,-0.7893567681312561,0.008439786732196808,0.21014304459095,-0.2355506718158722,-8.032876014709473,4.16015625,2,G1,6.1,180,0,0.33319118933338043,[18400|0|0|0]
18400,0.7895611524581909,-0.7894866466522217,0.0085597550496459,0.21845954656600952,-0.23553311824798584,-8.045007705688477,4.16015625,2,G1,6.1,180,0,0.3333916258195097,[18500|0|0|0]
18500,0.7896143794059753,-0.7897355556488037,0.008702504448592663,0.22693414986133575,-0.2414606213569641,-8.027384757995605,4.16015625,2,G1,6.1,180,0,0.33368345828420404,[18600|0|0|0]
18600,0.7895940542221069,-0.7895398736000061,0.008847846649587154,0.2237573117017746,-0.23639649152755737,-8.030708312988281,4.16015625,2,G1,6.1,180,0,0.3339280578195896,[18700|0|0|0]
18700,0.7896971702575684,-0.7896686792373657,0.008649802766740322,0.23116488754749298,-0.23604334890842438,-8.030287742614746,4.16015625,2,G1,6.1,180,0,0.334185827461941,[18800|0|0|0]
18800,0.7894840836524963,-0.789766788482666,0.00852986890822649,0.23625017702579498,-0.2358604222536087,-8.02053451538086,4.16015625,2,G1,6.1,180,0,0.33444929559225756,[18900|0|0|0]
18900,0.7895470857620239,-0.7897261381149292,0.008638930507004261,0.2353135645389557,-0.23512756824493408,-8.062186241149902,4.16015625,2,G1,6.1,180,0,0.334581644186999,[19000|0|0|0]
19000,0.7894431948661804,-0.7898297905921936,0.008676723577082157,0.24366004765033722,-0.23405864834785461,-8.07863712310791,4.16015625,2,G1,6.1,180,0,0.33473318781249384,[19100|0|0|0]
19100,0.7894319891929626,-0.7895990610122681,0.00839056447148323,0.23881813883781433,-0.24074681103229523,-8.067002296447754,4.16015625,2,G1,6.1,180,0,0.3351009496102408,[19200|0|0|0]
19200,0.7894105315208435,-0.7898157835006714,0.008415164425969124,0.2370355874300003,-0.24204473197460175,-8.09083366394043,4.16015625,2,G1,6.1,180,0,0.3353201167301133,[19300|0|0|0]
19300,0.789402961730957,-0.7897487282752991,0.008607042953372002,0.23282688856124878,-0.242843359708786,-8.083003997802734,4.16015625,2,G1,6.1,180,0,0.3355235155360266,[19400|0|0|0]
19400,0.7893097996711731,-0.7895587682723999,0.0081368712708354,0.22951564192771912,-0.24145320057868958,-8.058438301086426,4.16015625,2,G1,6.1,180,0,0.3360390981027838,[19500|0|0|0]
19500,0.7893301844596863,-0.7895830869674683,0.008596093393862247,0.22868822515010834,-0.2465846836566925,-8.07541275024414,4.16015625,2,G1,6.1,180,0,0.3364994152725807,[19600|0|0|0]
19600,0.7893969416618347,-0.7896194458007812,0.008417049422860146,0.23692375421524048,-0.2440398782491684,-8.059309005737305,4.16015625,2,G1,6.1,180,0,0.33669392808025866,[19700|0|0|0]
19700,0.7893540263175964,-0.7895263433456421,0.008503730408847332,0.2347329705953598,-0.24449576437473297,-8.035845756530762,4.16015625,2,G1,6.1,180,0,0.3368281792897718,[19800|0|0|0]
19800,0.7894637584686279,-0.7896270155906677,0.008352493867278099,0.23628713190555573,-0.2520799934864044,-8.030860900878906,4.16015625,2,G1,6.1,180,0,0.33704042569703074,[19900|0|0|0]
19900,0.7895291447639465,-0.7897648215293884,0.008412822149693966,0.23735979199409485,-0.2527865767478943,-8.023405075073242,4.16015625,2,G1,6.1,180,0,0.33720445418852363,[20000|0|0|0]
20000,0.7895558476448059,-0.7896008491516113,0.00862134713679552,0.2271306961774826,-0.2467688024044037,-8.033254623413086,4.16015625,2,G1,6.1,180,0,0.3374710674942039,[20100|0|0|0]
20100,0.7895633578300476,-0.7897025346755981,0.008344960398972034,0.2232232540845871,-0.24986764788627625,-8.035369873046875,4.16015625,2,G1,6.1,180,0,0.3377656620927891,[20200|0|0|0]
20200,0.789656400680542,-0.7898514270782471,0.008769877254962921,0.22954212129116058,-0.25148552656173706,-8.043601989746094,4.16015625,2,G1,6.1,180,0,0.3382254231765052,[20300|0|0|0]
20300,0.7892969846725464,-0.7894400358200073,0.008342533372342587,0.21594832837581635,-0.2426823228597641,-8.039644241333008,4.16015625,2,G1,6.1,180,0,0.3389189975619698,[20400|0|0|0]
20400,0.7895632386207581,-0.7899357080459595,0.008807179518043995,0.22161811590194702,-0.2467624992132187,-8.042336463928223,4.16015625,2,G1,6.1,180,0,0.3396487085741067,[20500|0|0|0]
20500,0.7893468141555786,-0.7896990776062012,0.008287284523248672,0.21348300576210022,-0.24467158317565918,-8.038516998291016,4.16015625,2,G1,6.1,180,0,0.3402595476034439,[20600|0|0|0]
20600,0.7894540429115295,-0.789767861366272,0.008636189624667168,0.21169140934944153,-0.2497664839029312,-8.033798217773438,4.16015625,2,G1,6.1,180,0,0.34063098263349373,[20700|0|0|0]
20700,0.7895612120628357,-0.7896389365196228,0.00849376805126667,0.21355700492858887,-0.2554987668991089,-8.029619216918945,4.16015625,2,G1,6.1,180,0,0.3408509616044093,[20800|0|0|0]
20800,0.7894647121429443,-0.789543092250824,0.008116508834064007,0.21397247910499573,-0.2515856623649597,-8.008441925048828,4.16015625,2,G1,6.1,180,0,0.3412519888794979,[20900|0|0|0]
20900,0.789554238319397,-0.789455235004425,0.008766292594373226,0.21379227936267853,-0.2484305053949356,-8.037558555603027,4.16015625,2,G1,6.1,180,0,0.3419137688785736,[21000|0|0|0]
21000,0.7896152138710022,-0.7895577549934387,0.008388048969209194,0.21713577210903168,-0.24655354022979736,-8.033391952514648,4.16015625,2,G1,6.1,180,0,0.34231037524011887,[21100|0|0|0]
21100,0.789794385433197,-0.7894765138626099,0.00860903225839138,0.21688061952590942,-0.25244417786598206,-8.0374755859375,4.16015625,2,G1,6.1,180,0,0.3426062403853041,[21200|0|0|0]
21200,0.7897116541862488,-0.789454996585846,0.008699312806129456,0.22740046679973602,-0.2517971992492676,-8.011645317077637,4.16015625,2,G1,6.1,180,0,0.34273057071032914,[21300|0|0|0]
21300,0.7896084785461426,-0.7896860837936401,0.008617905899882317,0.24047045409679413,-0.25166499614715576,-8.032520294189453,4.16015625,2,G1,6.1,180,0,0.3429964157680266,[21400|0|0|0]
21400,0.7894576191902161,-0.7895633578300476,0.008754569105803967,0.2392311543226242,-0.23969446122646332,-8.022236824035645,4.16015625,2,G1,6.1,180,0,0.34323410682646815,[21500|0|0|0]
21500,0.7895693182945251,-0.7895321846008301,0.008779462426900864,0.23344896733760834,-0.25004443526268005,-8.040849685668945,4.16015625,2,G1,6.1,180,0,0.3433527160063765,[21600|0|0|0]
21600,0.789688766002655,-0.789599597454071,0.00862380862236023,0.23282718658447266,-0.253078818321228,-8.077045440673828,4.16015625,2,G1,6.1,180,0,0.3435601777007385,[21700|0|0|0]
21700,0.7894256114959717,-0.7898530960083008,0.00847579725086689,0.24145981669425964,-0.2478915899991989,-8.054615020751953,4.16015625,2,G1,6.1,180,0,0.3439544100909294,[21800|0|0|0]
21800,0.7893788814544678,-0.7898578643798828,0.008345562033355236,0.2398342341184616,-0.25185951590538025,-8.03868579864502,4.16015625,2,G1,6.1,180,0,0.34409285735896605,[21900|0|0|0]
21900,0.7894425988197327,-0.7895640134811401,0.008487880229949951,0.23102816939353943,-0.2585143744945526,-8.017364501953125,4.16015625,2,G1,6.1,180,0,0.34442551742932337,[22000|0|0|0]
22000,0.789397656917572,-0.7897566556930542,0.008633407764136791,0.23267385363578796,-0.25846946239471436,-8.037830352783203,4.16015625,2,G1,6.1,180,0,0.34467109645853283,[22100|0|0|0]
22100,0.7896277904510498,-0.7896799445152283,0.00843034591525793,0.22767892479896545,-0.26765793561935425,-8.043389320373535,4.16015625,2,G1,6.1,180,0,0.34498745094720734,[22200|0|0|0]
22200,0.7891491055488586,-0.7896347045898438,0.008244788274168968,0.23157891631126404,-0.2515130341053009,-8.03541088104248,4.16015625,2,G1,6.1,180,0,0.3455028318981563,[22300|0|0|0]
22300,0.7894673347473145,-0.789824903011322,0.008727427572011948,0.2302507907152176,-0.25224003195762634,-8.035019874572754,4.16015625,2,G1,6.1,180,0,0.3461114253208163,[22400|0|0|0]
22400,0.7895969152450562,-0.7897174954414368,0.008748986758291721,0.22454507648944855,-0.24904069304466248,-8.020309448242188,4.16015625,2,G1,6.1,180,0,0.3462811082309065,[22500|0|0|0]
22500,0.7894444465637207,-0.7895232439041138,0.008506730198860168,0.221350759267807,-0.2412133663892746,-7.994576454162598,4.16015625,2,G1,6.1,180,0,0.34662703972575504,[22600|0|0|0]
22600,0.7893731594085693,-0.7898141145706177,0.008714479394257069,0.2282322198152542,-0.2361767292022705,-8.001029014587402,4.16015625,2,G1,6.1,180,0,0.34699152200421324,[22700|0|0|0]
22700,0.7895618677139282,-0.7897065877914429,0.008543452247977257,0.23140601813793182,-0.23640505969524384,-8.001391410827637,4.16015625,2,G1,6.1,180,0,0.3472679693183904,[22800|0|0|0]
22800,0.7893995046615601,-0.7897584438323975,0.008390466682612896,0.22629688680171967,-0.22992779314517975,-8.014925956726074,4.16015625,2,G1,6.1,180,0,0.34749700074192796,[22900|0|0|0]
22900,0.7895846962928772,-0.7896535396575928,0.008396810851991177,0.22163540124893188,-0.23470979928970337,-8.031546592712402,4.16015625,2,G1,6.1,180,0,0.34770993517945853,[23000|0|0|0]
23000,0.7896528244018555,-0.789490282535553,0.008892185054719448,0.22469370067119598,-0.23029470443725586,-7.994233131408691,4.16015625,2,G1,6.1,180,0,0.348235948418701,[23100|0|0|0]
23100,0.7895440459251404,-0.7897051572799683,0.00845403503626585,0.22320953011512756,-0.22947438061237335,-8.030010223388672,4.16015625,2,G1,6.1,180,0,0.3487359277697295,[23200|0|0|0]
23200,0.7895427346229553,-0.7897123098373413,0.008692923933267593,0.22062167525291443,-0.22658281028270721,-8.022591590881348,4.16015625,2,G1,6.1,180,0,0.3489749273172209,[23300|0|0|0]
23300,0.7895081639289856,-0.7894117832183838,0.008349623531103134,0.2161150574684143,-0.2287609726190567,-7.960129261016846,4.16015625,2,G1,6.1,180,0,0.34943249321161196,[23400|0|0|0]
23400,0.7892587780952454,-0.7894364595413208,0.008358986116945744,0.21059530973434448,-0.22929202020168304,-7.9712324142456055,4.16015625,2,G1,6.1,180,0,0.34968327174537767,[23500|0|0|0]
23500,0.7893353700637817,-0.789549708366394,0.008160402998328209,0.19732314348220825,-0.2348703145980835,-8.024802207946777,4.16015625,2,G1,6.1,180,0,0.34992436691543427,[23600|0|0|0]
23600,0.7893574833869934,-0.7892491221427917,0.008259009569883347,0.1953854113817215,-0.24189305305480957,-7.955204486846924,4.16015625,2,G1,6.1,180,0,0.3502414857146828,[23700|0|0|0]
23700,0.7896208763122559,-0.7897223830223083,0.00876510888338089,0.200745090842247,-0.2593368887901306,-7.958775043487549,4.16015625,2,G1,6.1,180,0,0.3509827604331791,[23800|0|0|0]
23800,0.7893840670585632,-0.7894901037216187,0.008829697966575623,0.19848686456680298,-0.25364843010902405,-7.971049785614014,4.16015625,2,G1,6.1,180,0,0.3513207013242108,[23900|0|0|0]
23900,0.7895423769950867,-0.789512038230896,0.008748874999582767,0.20090670883655548,-0.2520214915275574,-7.997935771942139,4.16015625,2,G1,6.1,180,0,0.3514997976968508,[24000|0|0|0]
24000,0.7893249988555908,-0.7895025014877319,0.008258610963821411,0.20314882695674896,-0.2478789985179901,-7.982260704040527,4.16015625,2,G1,6.1,180,0,0.35203617725440484,[24100|0|0|0]
24100,0.7894012928009033,-0.7894629836082458,0.008783036842942238,0.2030298262834549,-0.2557699680328369,-7.972836494445801,4.16015625,2,G1,6.1,180,0,0.3525675951046715,[24200|0|0|0]
24200,0.7895334959030151,-0.7894026041030884,0.00876355729997158,0.2008965015411377,-0.25260359048843384,-7.9778337478637695,4.16015625,2,G1,6.1,180,0,0.352714233426557,[24300|0|0|0]
24300,0.7898367047309875,-0.7895514369010925,0.008378323167562485,0.20591595768928528,-0.25856107473373413,-7.986668586730957,4.16015625,2,G1,6.1,180,0,0.35322657328631335,[24400|0|0|0]
24400,0.7895163893699646,-0.7895547747612,0.008794261142611504,0.21034419536590576,-0.24855808913707733,-7.999619483947754,4.16015625,2,G1,6.1,180,0,0.3537515661156979,[24500|0|0|0]
24500,0.7895406484603882,-0.7894408702850342,0.008802896365523338,0.2065226435661316,-0.2487134337425232,-8.00948715209961,4.16015625,2,G1,6.1,180,0,0.3538683449675227,[24600|0|0|0]
24600,0.789252758026123,-0.789042055606842,0.00811200961470604,0.2016601264476776,-0.23474833369255066,-7.984583854675293,4.16015625,2,G1,6.1,180,0,0.3547164360900666,[24700|0|0|0]
24701,0.7894681096076965,-0.7895907163619995,0.008875774219632149,0.21102960407733917,-0.25198546051979065,-7.990128993988037,4.16015625,2,G1,6.1,180,0,0.35568118543558286,[24800|0|0|0]
24800,0.7897428870201111,-0.7894085645675659,0.008946910500526428,0.2100212126970291,-0.255267471075058,-7.973946571350098,4.16015625,2,G1,6.1,180,0,0.35601844241927344,[24900|0|0|0]
24900,0.789537787437439,-0.7891492247581482,0.008496957831084728,0.20495402812957764,-0.25261804461479187,-7.951953411102295,4.16015625,2,G1,6.1,180,0,0.3565768153952481,[25000|0|0|0]
25001,0.7895326614379883,-0.789617121219635,0.008767864666879177,0.2137254774570465,-0.25829246640205383,-7.991814136505127,4.16015625,2,G1,6.1,180,0,0.357117503741916,[25100|0|0|0]
25101,0.7895238995552063,-0.7891787886619568,0.008480486460030079,0.20370729267597198,-0.2527866065502167,-7.998040199279785,4.16015625,2,G1,6.1,180,0,0.35764171594654537,[25200|0|0|0]
25201,0.789371907711029,-0.7893568873405457,0.008624686859548092,0.21172133088111877,-0.24761734902858734,-7.962392330169678,4.16015625,2,G1,6.1,180,0,0.35791669670084036,[25300|0|0|0]
25301,0.7896040081977844,-0.7895042300224304,0.00872378796339035,0.2180708646774292,-0.256448894739151,-7.948914051055908,4.16015625,2,G1,6.1,180,0,0.35820893210362353,[25400|0|0|0]
25401,0.7893616557121277,-0.7892868518829346,0.008426127955317497,0.2140340358018875,-0.25054386258125305,-7.935803413391113,4.16015625,2,G1,6.1,180,0,0.35865005506067815,[25500|0|0|0]
25502,0.7894386053085327,-0.7893155813217163,0.008598835207521915,0.21395917236804962,-0.25244542956352234,-7.956671237945557,3.162109375,2,E2,6.1,180,0,0.3588412994488406,[25500|0|0|0]
25602,0.7898946404457092,-0.7892518639564514,0.009719297289848328,-0.12377917766571045,0.7966281175613403,-7.040299892425537,3.521484375,2,E2,6.1,180,0,0.3600526884148243,[25500|0|0|0]
25701,0.7875014543533325,-0.7837896347045898,0.03226924315094948,-2.1313419342041016,8.380849838256836,-4.660002708435059,3.7421875,2,E2,6.1,180,0,0.38337785393216267,[25500|0|0|0]
25801,0.7741735577583313,-0.7696462273597717,0.08178107440471649,-0.7007261514663696,3.5307388305664062,-2.894345283508301,3.75390625,2,E2,6.1,180,0,0.43656704675429525,[25500|0|0|0]
25902,0.7568387389183044,-0.7500948905944824,0.1460833102464676,-0.45990127325057983,0.33559495210647583,-1.55696439743042,3.763671875,2,E2,6.1,180,0,0.5059754630146774,[25500|0|0|0]
26000,0.7439783215522766,-0.7312366962432861,0.21991710364818573,2.0063207149505615,-2.641406774520874,0.05384960398077965,3.76953125,2,E2,6.1,180,0,0.5832570965190459,[25500|0|0|0]
26102,0.7368667721748352,-0.7129487991333008,0.29340603947639465,4.753478050231934,-2.769695520401001,1.7681270837783813,3.763671875,2,E2,6.1,180,0,0.6593205240280388,[25500|0|0|0]
26202,0.7350868582725525,-0.7003116011619568,0.36944809556007385,4.432924747467041,-1.8645354509353638,1.103088617324829,3.7578125,2,E2,6.1,180,0,0.7364260436715759,[25500|0|0|0]
26300,0.7358388304710388,-0.6940999627113342,0.4474588930606842,3.7072036266326904,0.26010993123054504,-0.1315826028585434,3.763671875,2,E2,6.1,180,0,0.8146873651599701,[25500|0|0|0]
26402,0.7326808571815491,-0.6905723810195923,0.533643901348114,2.276768207550049,1.0678002834320068,-0.29122745990753174,3.76953125,2,E2,6.1,180,0,0.9010023249374813,[25500|0|0|0]
26502,0.7324104905128479,-0.693444550037384,0.6115179657936096,1.953384280204773,1.6205769777297974,0.11420547962188721,3.76953125,2,E2,6.1,180,0,0.9789298063946894,[25500|0|0|0]
26600,0.7286356687545776,-0.6985850930213928,0.6994429230690002,0.7053999900817871,1.212573766708374,0.1623285412788391,3.76953125,2,E2,6.1,180,0,1.0670857623667984,[25500|0|0|0]
26700,0.7220785617828369,-0.7051482796669006,0.7902542948722839,0.327739417552948,1.2990237474441528,0.29734107851982117,3.763671875,2,E2,6.1,180,0,1.1583698043433501,[25500|0|0|0]
26800,0.7135007381439209,-0.7116000652313232,0.882805585861206,-0.19836625456809998,0.5476316213607788,0.2826855182647705,3.810546875,2,E2,6.1,180,0,1.2515413990440194,[25500|0|0|0]
26900,0.7033385634422302,-0.7178717255592346,0.9727334976196289,-0.6722524762153625,-0.3277812898159027,-0.01606566831469536,3.837890625,2,E2,6.1,180,0,1.3422587228094782,[25500|0|0|0]
27000,0.695114254951477,-0.7237889766693115,1.053242564201355,-0.3608795702457428,-1.5317226648330688,-0.4592548608779907,3.84765625,2,E2,6.1,180,0,1.4234028101646983,[25500|0|0|0]
27100,0.6870553493499756,-0.7294928431510925,1.118442177772522,-0.25018781423568726,-1.8738335371017456,4.721929550170898,3.837890625,2,E2,6.1,180,0,1.4893457374743453,[25500|0|0|0]
27200,0.6798222064971924,-0.7336564660072327,1.167330265045166,-0.47515690326690674,-1.8058902025222778,7.715452194213867,3.826171875,2,E2,6.1,180,0,1.5389410919744857,[25500|0|0|0]
27300,0.684127926826477,-0.7294450402259827,1.2054376602172852,0.03359648585319519,-1.636207938194275,8.352784156799316,3.81640625,2,E2,6.1,180,0,1.5775215131939209,[25500|0|0|0]
27400,0.6808775067329407,-0.7333537340164185,1.2297312021255493,-0.23654861748218536,-1.0486032962799072,8.047709465026855,3.806640625,2,E2,6.1,180,0,1.6023412492195204,[25500|0|0|0]
27500,0.6791530847549438,-0.737127423286438,1.2461801767349243,-0.07281842082738876,-0.4650471806526184,7.340330600738525,3.794921875,2,E2,6.1,180,0,1.6193054210992415,[25500|0|0|0]
27600,0.6766178011894226,-0.741159200668335,1.2560914754867554,0.04911508038640022,-0.6184996366500854,6.685397624969482,3.7890625,2,E2,6.1,180,0,1.6303016356552977,[25500|0|0|0]
27700,0.675538957118988,-0.744679868221283,1.2619402408599854,0.33363044261932373,-0.6380471587181091,6.1018147468566895,3.78515625,2,E2,6.1,180,0,1.637213007511723,[25500|0|0|0]
27800,0.67400723695755,-0.7476920485496521,1.2648202180862427,0.6527414917945862,-0.5703041553497314,5.297451019287109,3.779296875,2,E2,6.1,180,0,1.6416530149224522,[25500|0|0|0]
27900,0.6737343668937683,-0.7548611760139465,1.267208218574524,0.8706750273704529,-0.70073401927948,-2.526599645614624,3.7734375,2,E2,6.1,180,0,1.6492143238701835,[25500|0|0|0]
28000,0.6740416884422302,-0.7620725631713867,1.2691959142684937,0.4982720911502838,-0.34965306520462036,-6.3583879470825195,3.7734375,2,E2,6.1,180,0,1.6567009442986858,[25500|0|0|0]
28100,0.6720449924468994,-0.7723802924156189,1.2714444398880005,-0.5436140894889832,-0.5937241911888123,-6.462601184844971,3.779296875,2,E2,6.1,180,0,1.6674383529493682,[25500|0|0|0]
28200,0.6719598174095154,-0.7823952436447144,1.2742946147918701,-1.232155203819275,-0.7529568076133728,-3.7466061115264893,3.78515625,2,E2,6.1,180,0,1.6778513256224719,[25500|0|0|0]
28300,0.6727174520492554,-0.7909033298492432,1.2757236957550049,-2.0885651111602783,-0.9470568895339966,-0.8263276815414429,3.78515625,2,E2,6.1,180,0,1.686511799830633,[25500|0|0|0]
28400,0.6759567856788635,-0.796533465385437,1.275810718536377,-2.4172778129577637,-0.8227498531341553,1.011501431465149,3.779296875,2,E2,6.1,180,0,1.6930078972347904,[25500|0|0|0]
28500,0.6805064678192139,-0.798957884311676,1.2741554975509644,-2.3095998764038086,-0.4558248817920685,1.732021689414978,3.837890625,2,E2,6.1,180,118.07248693585296,1.698422430568207,[25500|0|0|0]
28600,0.6864185333251953,-0.8059003949165344,1.2654258012771606,-13.21953296661377,-12.363299369812012,-1.0830366611480713,3.837890625,2,E2,6.1,180,118.07248693585296,1.711046160962922,[25500|0|0|0]
28700,0.7056920528411865,-0.7832497954368591,1.2313287258148193,-15.617325782775879,-14.213805198669434,-3.1891446113586426,3.7734375,2,E2,6.1,180,118.07248693585296,1.7562913680726984,[25500|0|0|0]
28800,0.7414872646331787,-0.7403339147567749,1.1708495616912842,-18.51593780517578,-16.245830535888672,-4.6056413650512695,3.705078125,2,E2,6.1,180,118.07248693585296,1.838636976910464,[25500|0|0|0]
28900,0.804715096950531,-0.6709679961204529,1.0984891653060913,-14.2686767578125,-11.898025512695312,-4.105897426605225,3.6640625,2,E2,6.1,180,118.07248693585296,1.9571503365490899,[25500|0|0|0]
29000,0.9037361741065979,-0.5879518985748291,1.037768006324768,-9.916241645812988,-6.010931015014648,-7.372267723083496,3.658203125,2,E2,6.1,180,118.07248693585296,2.0999225513560593,[25500|0|0|0]
29100,1.115942120552063,-0.6040477752685547,1.1180411577224731,-4.905010223388672,5.277656555175781,-9.164629936218262,3.7890625,2,E2,6.1,180,118.07248693585296,2.3273741281557685,[25500|0|0|0]
29200,1.243333101272583,-0.5318229794502258,1.1198267936706543,-6.239267349243164,12.836654663085938,-6.165445327758789,3.806640625,2,E2,6.1,180,118.07248693585296,2.473825729702746,[25500|0|0|0]
29300,1.3507375717163086,-0.45281460881233215,1.1189429759979248,-5.438319206237793,16.454755783081055,-3.9507460594177246,3.7890625,2,E2,6.1,180,118.07248693585296,2.6071629864460526,[25500|0|0|0]
29400,1.4325358867645264,-0.368163138628006,1.1102759838104248,-4.289705753326416,17.882015228271484,-2.4741625785827637,3.7734375,2,E2,6.1,180,118.07248693585296,2.725196678681251,[25500|0|0|0]
29500,1.4862966537475586,-0.2797333300113678,1.0931271314620972,-3.869328498840332,18.553375244140625,-1.3924000263214111,3.7421875,2,E2,6.1,180,118.07248693585296,2.830097270936223,[25500|0|0|0]
29600,1.5118907690048218,-0.1878083497285843,1.0732653141021729,-2.725224733352661,15.61818790435791,-0.6609492301940918,3.7265625,2,E2,6.1,180,118.07248693585296,2.9275639448541897,[25500|0|0|0]
29700,1.512847661972046,-0.09505203366279602,1.05451500415802,-2.0224945545196533,10.976057052612305,-0.3301239609718323,3.7265625,2,E2,6.1,180,118.07248693585296,3.022201273309979,[25500|0|0|0]
29800,1.4981470108032227,-0.0016363589093089104,1.0407594442367554,-1.5400182008743286,6.336160182952881,-0.22225728631019592,3.732421875,2,E2,6.1,180,118.07248693585296,3.117761792684793,[25500|0|0|0]
29900,1.475390911102295,0.09093872457742691,1.0326359272003174,1.0989339351654053,2.1732192039489746,-0.2659534513950348,3.748046875,2,E2,6.1,180,118.07248693585296,3.2134382144678844,[25500|0|0|0]
30000,1.4657362699508667,0.2073516696691513,1.0364383459091187,3.098801851272583,-0.8368028998374939,-0.607122004032135,3.748046875,2,E2,6.1,180,118.07248693585296,3.3303126952955173,[25500|0|0|0]
30100,1.4409728050231934,0.28919488191604614,1.0315970182418823,8.402525901794434,-2.0612266063690186,-3.120070695877075,3.7421875,2,E2,6.1,180,118.07248693585296,3.4159571874692465,[25500|0|0|0]
30200,1.4258580207824707,0.351332426071167,1.027491569519043,10.614537239074707,-3.320124626159668,-2.908524513244629,3.736328125,2,E2,6.1,180,118.07248693585296,3.4800382752057155,[25500|0|0|0]
30300,1.4191731214523315,0.39398252964019775,1.0204973220825195,10.400819778442383,-3.542968511581421,-2.8061554431915283,3.732421875,2,E2,6.1,180,118.07248693585296,3.5237720003009603,[25500|0|0|0]
30400,1.419420599937439,0.42063769698143005,1.0147995948791504,8.299665451049805,-1.9624181985855103,-4.037027835845947,3.7265625,2,E2,6.1,180,118.07248693585296,3.5510304537947612,[25500|0|0|0]
30500,1.4233287572860718,0.4326208233833313,1.008007526397705,5.489640712738037,-0.8477445840835571,-5.7666120529174805,3.7265625,2,E2,6.1,180,118.07248693585296,3.5653483169901636,[25500|0|0|0]
30600,1.430463433265686,0.4410587549209595,1.0067402124404907,3.228039503097534,0.5606978535652161,-1.33452570438385,3.732421875,2,E2,6.1,180,118.07248693585296,3.57647074364238,[25500|0|0|0]
30700,1.4354194402694702,0.44051393866539,1.0045853853225708,0.8998109698295593,1.3414572477340698,1.9014294147491455,3.732421875,2,E2,6.1,180,118.07248693585296,3.5819023281333013,[25500|0|0|0]
30800,1.4387588500976562,0.43744710087776184,1.0033466815948486,-0.2462622970342636,1.139052391052246,3.278420925140381,3.732421875,2,E2,6.1,180,118.07248693585296,3.5866024918476076,[25500|0|0|0]
30900,1.4394783973693848,0.4352043569087982,1.0016157627105713,-0.5766893029212952,0.859757661819458,3.7750210762023926,3.736328125,2,E2,6.1,180,118.07248693585296,3.5895254576309386,[25500|0|0|0]
31000,1.4399433135986328,0.4340314567089081,0.999671459197998,-0.463825523853302,0.5056492686271667,3.8102307319641113,3.748046875,2,E2,6.1,180,118.07248693585296,3.591843249279928,[25500|0|0|0]
31100,1.437878966331482,0.43339821696281433,0.9965806603431702,0.00969812460243702,0.402645081281662,3.390869617462158,3.7421875,2,E2,6.1,180,118.07248693585296,3.595613602018921,[25500|0|0|0]
31200,1.4343563318252563,0.4292236864566803,0.9893091320991516,0.14141331613063812,-0.008280511014163494,2.7689266204833984,3.7421875,2,E2,6.1,180,118.07248693585296,3.6047081488363637,[25500|0|0|0]
31300,1.4326391220092773,0.43263542652130127,0.9890912771224976,-0.2749643623828888,-0.48114901781082153,2.8816170692443848,3.736328125,2,E2,6.1,180,118.07248693585296,3.6085338828327997,[25500|0|0|0]
31400,1.429666519165039,0.43171432614326477,0.9867731332778931,0.17069879174232483,-0.6354607939720154,3.0129692554473877,3.7421875,2,E2,6.1,180,118.07248693585296,3.612414422029905,[25500|0|0|0]
31500,1.428110957145691,0.4307290017604828,0.9847303032875061,0.45571115612983704,-0.7494084239006042,3.162341356277466,3.875,2,E2,6.1,180,0,3.615164656875326,[25500|0|0|0]
31600,1.4272074699401855,0.42982909083366394,0.9723330140113831,0.4637335240840912,-0.28688308596611023,2.944657564163208,3.953125,2,E2,6.1,180,0,3.6276273576340943,[25500|0|0|0]
31700,1.426283836364746,0.428215354681015,0.9231756329536438,1.2164359092712402,0.6470696330070496,2.3933238983154297,3.87890625,2,E2,6.1,180,0,3.676819891171287,[25500|0|0|0]
31800,1.425060510635376,0.42391034960746765,0.8328979015350342,0.6119100451469421,-1.5113496780395508,0.9565363526344299,3.794921875,2,E2,6.1,180,0,3.767208487712079,[25500|0|0|0]
31900,1.4250563383102417,0.41896215081214905,0.7158324718475342,-1.1981655359268188,0.17300237715244293,-0.3865828216075897,3.736328125,2,E2,6.1,180,0,3.8843784476704455,[25500|0|0|0]
32000,1.4265084266662598,0.41826632618904114,0.590081512928009,-3.9898569583892822,-0.057592231780290604,-1.471306324005127,3.701171875,2,E2,6.1,180,0,4.010139715164376,[25500|0|0|0]
32100,1.4273465871810913,0.4278075397014618,0.46196308732032776,-4.643087387084961,0.573639452457428,-0.34475451707839966,3.673828125,2,E2,6.1,180,0,4.138615659405036,[25500|0|0|0]
32200,1.4273245334625244,0.448201984167099,0.3423299491405487,-4.631987571716309,-0.7364422082901001,2.7097318172454834,3.642578125,2,E2,6.1,180,0,4.259974720056356,[25500|0|0|0]
