time.ms,stateEstimate.x,stateEstimate.y,stateEstimate.z,stabilizer.roll,stabilizer.pitch,stabilizer.yaw,pm.vbat,drone_id,node_name,wind_speed,global_wind_direction,relative_wind_direction,travel_dist,waiting_time
0,1.8574285507202148,-0.15770861506462097,-0.01681412197649479,0.1424577534198761,0.4978673458099365,-0.03668992966413498,4.03125,1,B1,7.6,90,0,0.02111886549407284,[100|0|0|0]
100,1.8571569919586182,-0.15723523497581482,-0.01725821942090988,0.12530498206615448,0.5010613799095154,-0.031278423964977264,4.03125,1,B1,7.6,90,0,0.021822467234842473,[200|0|0|0]
200,1.8571491241455078,-0.15756483376026154,-0.01678158901631832,0.13808147609233856,0.4908025860786438,-0.04223809763789177,4.03125,1,B1,7.6,90,0,0.022402013439879662,[300|0|0|0]
300,1.8574888706207275,-0.15752148628234863,-0.016784558072686195,0.1355188488960266,0.47998979687690735,-0.047858282923698425,4.03125,1,B1,7.6,90,0,0.022744526923645418,[400|0|0|0]
400,1.8571257591247559,-0.1572990119457245,-0.016805024817585945,0.132272869348526,0.48898547887802124,-0.03847908228635788,4.03125,1,B1,7.6,90,0,0.023170864438544044,[500|0|0|0]
500,1.8573685884475708,-0.15729326009750366,-0.017222996801137924,0.13388793170452118,0.4852575361728668,-0.021042414009571075,4.03125,1,B1,7.6,90,0,0.023654289451147958,[600|0|0|0]
600,1.8571778535842896,-0.15745164453983307,-0.016948653385043144,0.13948869705200195,0.4957796037197113,-0.04000268131494522,4.03125,1,B1,7.6,90,0,0.024024059284419235,[700|0|0|0]
700,1.8570952415466309,-0.15732131898403168,-0.017444990575313568,0.13876354694366455,0.4998044967651367,-0.039036691188812256,4.03125,1,B1,7.6,90,0,0.024543828565645628,[800|0|0|0]
800,1.8572685718536377,-0.15733562409877777,-0.01735587604343891,0.1395382285118103,0.49457257986068726,-0.031115978956222534,4.03125,1,B1,7.6,90,0,0.024739249729868497,[900|0|0|0]
900,1.8570612668991089,-0.1576087325811386,-0.017010612413287163,0.14917071163654327,0.49659934639930725,-0.0349784754216671,4.03125,1,B1,7.6,90,0,0.025225840483598154,[1000|0|0|0]
1000,1.8573353290557861,-0.15751126408576965,-0.016641609370708466,0.1403927505016327,0.4937160313129425,-0.04684930667281151,4.03125,1,B1,7.6,90,0,0.025695705803391398,[1100|0|0|0]
1100,1.8572726249694824,-0.1573178768157959,-0.017107265070080757,0.13281303644180298,0.4989607632160187,-0.027441032230854034,4.03125,1,B1,7.6,90,0,0.026203805861436055,[1200|0|0|0]
1200,1.8569221496582031,-0.15750913321971893,-0.01679188944399357,0.1374436318874359,0.5145966410636902,-0.028059620410203934,4.03125,1,B1,7.6,90,0,0.026712602226780558,[1300|0|0|0]
1300,1.857336163520813,-0.1576206088066101,-0.016942225396633148,0.13424363732337952,0.5076087713241577,-0.049295924603939056,4.03125,1,B1,7.6,90,0,0.02716695361454329,[1400|0|0|0]
1400,1.8569715023040771,-0.15748567879199982,-0.017222421243786812,0.1271584928035736,0.517279863357544,-0.041403427720069885,4.03125,1,B1,7.6,90,0,0.027646217241992895,[1500|0|0|0]
1500,1.8571332693099976,-0.15721623599529266,-0.016903458163142204,0.11747130006551743,0.5095940232276917,-0.06650879234075546,4.03125,1,B1,7.6,90,0,0.028093995570762975,[1600|0|0|0]
1600,1.8569799661636353,-0.15719462931156158,-0.017327692359685898,0.11346501857042313,0.5059409141540527,-0.06770689785480499,4.03125,1,B1,7.6,90,0,0.028545596453161924,[1700|0|0|0]
1700,1.8572546243667603,-0.15709875524044037,-0.01720626838505268,0.11654318869113922,0.4960051476955414,-0.04375190660357475,4.03125,1,B1,7.6,90,0,0.028860830886041546,[1800|0|0|0]
1800,1.8571304082870483,-0.15713223814964294,-0.017051538452506065,0.11644475162029266,0.4955178201198578,-0.03225984796881676,4.03125,1,B1,7.6,90,0,0.029062057354711908,[1900|0|0|0]
1900,1.8571763038635254,-0.15702246129512787,-0.01716623269021511,0.11793473362922668,0.48892977833747864,-0.028269140049815178,4.03125,1,B1,7.6,90,0,0.02922732117377417,[2000|0|0|0]
2000,1.8571443557739258,-0.15782472491264343,-0.016914941370487213,0.13748861849308014,0.48990997672080994,-0.012628385797142982,4.03125,1,B1,7.6,90,0,0.03006862665918884,[2100|0|0|0]
2100,1.8569995164871216,-0.15748225152492523,-0.017069974914193153,0.13181455433368683,0.4916199743747711,-0.004311230964958668,4.03125,1,B1,7.6,90,0,0.030471493684361108,[2200|0|0|0]
2200,1.9372164011001587,-0.09761153161525726,-0.10745710134506226,0.8471021056175232,-0.33609533309936523,0.019354471936821938,4.03125,1,B1,7.6,90,0,0.16533840698763627,[2300|0|0|0]
2300,1.8533974885940552,-0.06645742058753967,-0.11882852762937546,-2.7425003051757812,3.238124370574951,0.37219008803367615,4.03125,1,B1,7.6,90,0,0.255479951590404,[2400|0|0|0]
2400,1.835545539855957,-0.022291898727416992,-0.19838809967041016,-6.236738681793213,4.614296913146973,0.22277309000492096,4.03125,1,B1,7.6,90,0,0.34821080351292893,[2500|0|0|0]
2500,1.8200761079788208,0.01749510131776333,-0.26500093936920166,-6.0818867683410645,3.875272274017334,-0.19415223598480225,4.03125,1,B1,7.6,90,0,0.427328305419482,[2600|0|0|0]
2600,1.8146350383758545,0.0316404327750206,-0.29131177067756653,-2.958003520965576,2.107272148132324,-0.5108988285064697,4.03125,1,B1,7.6,90,0,0.4576920252936547,[2700|0|0|0]
2700,1.815387487411499,0.0327400341629982,-0.2976033687591553,-0.758202850818634,0.8884503841400146,-0.5086584687232971,4.03125,1,B1,7.6,90,0,0.4641231612107331,[2800|0|0|0]
2800,1.8169485330581665,0.028004184365272522,-0.2912595868110657,0.3535018265247345,0.362901896238327,-0.4335193932056427,4.03125,1,B1,7.6,90,0,0.47219215781641494,[2900|0|0|0]
2900,1.8197733163833618,0.02237038128077984,-0.2811627686023712,0.8345019221305847,0.08205299824476242,-0.32637861371040344,4.03125,1,B1,7.6,90,0,0.48409446330604866,[3000|0|0|0]
3000,1.8221648931503296,0.01629302091896534,-0.2710123062133789,1.0821775197982788,-0.03708026558160782,-0.2405090034008026,4.03125,1,B1,7.6,90,0,0.49616450204293766,[3100|0|0|0]
3100,1.8239989280700684,0.012112895958125591,-0.2630884349346161,1.0810272693634033,-0.06634263694286346,-0.1672864556312561,4.03125,1,B1,7.6,90,0,0.5053091652306915,[3200|0|0|0]
3200,1.8250360488891602,0.00895614642649889,-0.2582003176212311,1.0141124725341797,-0.04317083954811096,-0.10040639340877533,4.03125,1,B1,7.6,90,0,0.511219696346271,[3300|0|0|0]
3300,1.8261723518371582,0.0073490203358232975,-0.2547668516635895,0.8714325428009033,-0.007363386917859316,-0.047161903232336044,4.03125,1,B1,7.6,90,0,0.5151773126924121,[3400|0|0|0]
3400,1.8260210752487183,0.007338220253586769,-0.25466352701187134,0.7156379818916321,0.06363989412784576,-0.0292739849537611,4.03125,1,B1,7.6,90,0,0.5153608262658583,[3500|0|0|0]
3500,1.826103687286377,0.00712553970515728,-0.25409331917762756,0.5955618619918823,0.12181802839040756,-0.027682142332196236,4.03125,1,B1,7.6,90,0,0.5159749880838504,[3600|0|0|0]
3600,1.82616126537323,0.007354178465902805,-0.2547589838504791,0.4990088939666748,0.17273975908756256,-0.001993065234273672,4.03125,1,B1,7.6,90,0,0.5166811752939325,[3700|0|0|0]
3700,1.8258156776428223,0.008234144188463688,-0.25583335757255554,0.3985838294029236,0.2291179597377777,-0.00042813917389139533,4.03125,1,B1,7.6,90,0,0.5181122760754915,[3800|0|0|0]
3800,1.8258299827575684,0.00839724950492382,-0.25601571798324585,0.3406941890716553,0.268919974565506,-8.283526403829455e-05,4.03125,1,B1,7.6,90,0,0.5183573542261957,[3900|0|0|0]
3900,1.8253308534622192,0.00887769740074873,-0.25651365518569946,0.29025977849960327,0.32352414727211,0.001829163869842887,4.03125,1,B1,7.6,90,0,0.5192105257749862,[4000|0|0|0]
4000,1.825333595275879,0.009528452530503273,-0.25751566886901855,0.2498781383037567,0.3514751195907593,-0.017846455797553062,4.03125,1,B1,7.6,90,0,0.5204053149522064,[4100|0|0|0]
4100,1.8252524137496948,0.00905102863907814,-0.2570480704307556,0.2530953586101532,0.3818832039833069,-0.023861581459641457,4.03125,1,B1,7.6,90,0,0.5210784956944763,[4200|0|0|0]
4200,1.8253178596496582,0.00913748238235712,-0.2569563388824463,0.22465984523296356,0.410136342048645,-0.0019121522782370448,4.03125,1,B1,7.6,90,0,0.5212205241863509,[4300|0|0|0]
4300,1.8253912925720215,0.008923143148422241,-0.25672343373298645,0.21353679895401,0.42551907896995544,-0.008118703030049801,4.03125,1,B1,7.6,90,0,0.5215454526553029,[4400|0|0|0]
4400,1.8253750801086426,0.00927036628127098,-0.25710636377334595,0.18648336827754974,0.4457104206085205,-0.01806601881980896,4.03125,1,B1,7.6,90,0,0.5220626200979788,[4500|0|0|0]
4500,1.8253612518310547,0.00936864223331213,-0.2572825253009796,0.18046018481254578,0.4621469974517822,-0.015398489311337471,4.03125,1,B1,7.6,90,0,0.522264813737416,[4600|0|0|0]
4600,1.8251405954360962,0.009888378903269768,-0.2577190399169922,0.15949192643165588,0.47811535000801086,-0.00832921639084816,4.03125,1,B1,7.6,90,0,0.5229785086727541,[4700|0|0|0]
4700,1.825029730796814,0.009520630352199078,-0.2572290599346161,0.1745840460062027,0.48965469002723694,-0.0021366113796830177,4.03125,1,B1,7.6,90,0,0.5236010922801411,[4800|0|0|0]
4800,1.825029969215393,0.009408550336956978,-0.2571941316127777,0.1726987659931183,0.49370166659355164,-0.032366346567869186,4.03125,1,B1,7.6,90,0,0.5237184889339542,[4900|0|0|0]
4900,1.8249448537826538,0.009683904238045216,-0.2574822008609772,0.15319378674030304,0.49648016691207886,-0.018195055425167084,4.03125,1,B1,7.6,90,0,0.5241259791786143,[5000|0|0|0]
5000,1.8249626159667969,0.009357673116028309,-0.25763657689094543,0.17435641586780548,0.4973753094673157,-0.012752407230436802,4.03125,1,B1,7.6,90,0,0.5244873296992818,[5100|0|0|0]
5100,1.8248668909072876,0.009270711801946163,-0.25741812586784363,0.15554726123809814,0.5036332011222839,-0.03998652473092079,4.03125,1,B1,7.6,90,0,0.5247411926675525,[5200|0|0|0]
5200,1.825149655342102,0.009636578150093555,-0.2573709189891815,0.1365600824356079,0.49551281332969666,-0.021607249975204468,4.03125,1,B1,7.6,90,0,0.5252059962816689,[5300|0|0|0]
5300,1.8248934745788574,0.00945520680397749,-0.25700682401657104,0.14705084264278412,0.5019533038139343,-0.024038339033722878,4.03125,1,B1,7.6,90,0,0.5256867137639064,[5400|0|0|0]
5400,1.8248590230941772,0.00993296317756176,-0.2578873932361603,0.1334443986415863,0.500691294670105,-0.026726750656962395,4.03125,1,B1,7.6,90,0,0.5266891309464133,[5500|0|0|0]
5500,1.8247026205062866,0.01000274159014225,-0.2579740881919861,0.13756759464740753,0.5104212760925293,-0.0267785731703043,4.03125,1,B1,7.6,90,0,0.5268810861800663,[5600|0|0|0]
5600,1.824998140335083,0.010136377066373825,-0.25835302472114563,0.14099489152431488,0.49647265672683716,-0.03209831938147545,4.03125,1,B1,7.6,90,0,0.5273798679989521,[5700|0|0|0]
5700,1.8247528076171875,0.010095345787703991,-0.2582974135875702,0.14723187685012817,0.5057470798492432,-0.03964078053832054,4.03125,1,B1,7.6,90,0,0.527634748964261,[5800|0|0|0]
5800,1.8249719142913818,0.010052374564111233,-0.2583126425743103,0.1515040248632431,0.500583827495575,-0.03873293101787567,4.03125,1,B1,7.6,90,0,0.5278585483895746,[5900|0|0|0]
5900,1.8250912427902222,0.009575018659234047,-0.25733041763305664,0.158852681517601,0.49599581956863403,-0.02097967639565468,4.03125,1,B1,7.6,90,0,0.528957126464077,[6000|0|0|0]
6000,1.8251516819000244,0.009704047814011574,-0.258289635181427,0.15478165447711945,0.4933272898197174,-0.018405640497803688,4.03125,1,B1,7.6,90,0,0.5299268685503442,[6100|0|0|0]
6100,1.8249009847640991,0.010181871242821217,-0.2587814927101135,0.12989000976085663,0.5014065504074097,-0.02392370067536831,4.03125,1,B1,7.6,90,0,0.5306569973825418,[6200|0|0|0]
6200,1.8250501155853271,0.010015561245381832,-0.258647620677948,0.13926999270915985,0.49006375670433044,-0.02332366444170475,4.03125,1,B1,7.6,90,0,0.53091742153289,[6300|0|0|0]
6300,1.824867844581604,0.00958005990833044,-0.2573587894439697,0.13816030323505402,0.4919767379760742,0.005220206454396248,4.03125,1,B1,7.6,90,0,0.5322899994297868,[6400|0|0|0]
6400,1.8249890804290771,0.009720278903841972,-0.25729644298553467,0.1219525933265686,0.4958761930465698,-0.0038915087934583426,3.626953125,1,E2,7.6,90,0,0.5324855667539854,[6400|0|0|0]
6500,1.8245515823364258,0.009693827480077744,-0.2574004530906677,0.27336180210113525,0.5158405303955078,0.6609696745872498,3.21484375,1,E2,7.6,90,0,0.5329360357993842,[6400|0|0|0]
6600,1.8250685930252075,0.008272398263216019,-0.2453925609588623,6.456443786621094,-1.2320419549942017,1.8860403299331665,3.484375,1,E2,7.6,90,0,0.5450388137664436,[6400|0|0|0]
6700,1.8308275938034058,-0.007785058114677668,-0.19528783857822418,6.100886821746826,-2.0186450481414795,1.6698509454727173,3.583984375,1,E2,7.6,90,0,0.5979679286289846,[6400|0|0|0]
6800,1.8447643518447876,-0.03730975091457367,-0.1198568120598793,3.2462542057037354,-0.8234145045280457,0.9989110827445984,3.626953125,1,E2,7.6,90,0,0.6801614835541946,[6400|0|0|0]
6900,1.864440679550171,-0.07324529439210892,-0.033106379210948944,-0.07737964391708374,0.2296091467142105,0.5903800129890442,3.642578125,1,E2,7.6,90,0,0.776099790587789,[6400|0|0|0]
7000,1.8871103525161743,-0.109478659927845,0.057397037744522095,-2.8969457149505615,1.0630857944488525,-0.9076226949691772,3.642578125,1,E2,7.6,90,0,0.876187948384042,[6400|0|0|0]
7100,1.9098838567733765,-0.139407679438591,0.1489543914794922,-4.190220832824707,3.2919578552246094,-0.5525867938995361,3.63671875,1,E2,7.6,90,0,0.9751683895225713,[6400|0|0|0]
7200,1.9275509119033813,-0.16349028050899506,0.23859094083309174,-5.203024387359619,4.534994125366211,-0.04837197810411453,3.626953125,1,E2,7.6,90,0,1.0696501734351496,[6400|0|0|0]
7300,1.9368090629577637,-0.17990487813949585,0.32871273159980774,-4.58858585357666,4.624725818634033,0.1692824363708496,3.62109375,1,E2,7.6,90,0,1.161721284796514,[6400|0|0|0]
7400,1.9367622137069702,-0.1903158575296402,0.4216151833534241,-4.677793025970459,4.019299507141113,0.2908962666988373,3.62109375,1,E2,7.6,90,0,1.2552052739526647,[6400|0|0|0]
7500,1.9288777112960815,-0.1944267749786377,0.513626217842102,-2.163891077041626,2.1960930824279785,0.035410959273576736,3.611328125,1,E2,7.6,90,0,1.3476449596304971,[6400|0|0|0]
7600,1.9160059690475464,-0.19485022127628326,0.6050633788108826,-2.243013620376587,1.0885059833526611,-0.49108320474624634,3.642578125,1,E2,7.6,90,0,1.4399846339926605,[6400|0|0|0]
7700,1.9030672311782837,-0.1938769668340683,0.6869062781333923,-1.0711421966552734,-0.7095195055007935,-0.9090822339057922,3.68359375,1,E2,7.6,90,0,1.5228496949735906,[6400|0|0|0]
7800,1.8880537748336792,-0.19071272015571594,0.768265962600708,-0.18684633076190948,-2.579733371734619,0.9654334187507629,3.701171875,1,E2,7.6,90,0,1.605643502622919,[6400|0|0|0]
7900,1.8762575387954712,-0.18691882491111755,0.8362520337104797,0.5267850756645203,-3.309870719909668,4.208910942077637,3.6953125,1,E2,7.6,90,0,1.6747495855009047,[6400|0|0|0]
8000,1.8663787841796875,-0.18133904039859772,0.8872864842414856,0.2719295918941498,-3.0715763568878174,3.582841634750366,3.66796875,1,E2,7.6,90,0,1.727029973113916,[6400|0|0|0]
8100,1.8622475862503052,-0.17469042539596558,0.9173654317855835,-0.1653279960155487,-2.8649256229400635,0.209156334400177,3.642578125,1,E2,7.6,90,0,1.7581107382773664,[6400|0|0|0]
8200,1.8610249757766724,-0.16645044088363647,0.9352772831916809,-0.2023206204175949,-2.2157328128814697,-3.002272844314575,3.62109375,1,E2,7.6,90,0,1.7778648908010202,[6400|0|0|0]
8300,1.861647129058838,-0.15756356716156006,0.948498010635376,0.5711110830307007,-1.1791929006576538,-5.13521146774292,3.615234375,1,E2,7.6,90,0,1.7938070121592056,[6400|0|0|0]
8400,1.8633923530578613,-0.15007217228412628,0.9613199234008789,1.2992743253707886,-0.9271647334098816,-5.819866180419922,3.62109375,1,E2,7.6,90,0,1.8087592110270168,[6400|0|0|0]
8500,1.8648250102996826,-0.143976092338562,0.9736106395721436,1.3463205099105835,-0.32914382219314575,-6.4535064697265625,3.626953125,1,E2,7.6,90,0,1.8225532822707737,[6400|0|0|0]
8600,1.8655996322631836,-0.1398301124572754,0.9847405552864075,1.5717440843582153,-0.693495512008667,-5.989490985870361,3.626953125,1,E2,7.6,90,0,1.8344555598750387,[6400|0|0|0]
8700,1.865957498550415,-0.1379762887954712,0.9935905933380127,1.269584059715271,-0.21971438825130463,-3.2734224796295166,3.62109375,1,E2,7.6,90,0,1.843504753428249,[6400|0|0|0]
8800,1.8664926290512085,-0.13655634224414825,0.9996459484100342,0.8546468615531921,-0.3060155510902405,-4.988999843597412,3.62109375,1,E2,7.6,90,0,1.8497473440691408,[6400|0|0|0]
8900,1.866222620010376,-0.1358291357755661,1.002189040184021,0.9426524043083191,-0.1271839141845703,-5.596084117889404,3.615234375,1,E2,7.6,90,0,1.8524061125624471,[6400|0|0|0]
9000,1.8655645847320557,-0.13785947859287262,1.0026144981384277,1.6040512323379517,-0.06349402666091919,-6.228641033172607,3.60546875,1,E2,7.6,90,0,1.8545824206413437,[6400|0|0|0]
9100,1.8648593425750732,-0.14145010709762573,1.001697301864624,0.9238505959510803,-0.5794480443000793,-6.165415287017822,3.60546875,1,E2,7.6,90,0,1.8583548507021679,[6400|0|0|0]
9200,1.864559531211853,-0.14588606357574463,1.0007069110870361,0.32389795780181885,-0.6160455942153931,-5.078024864196777,3.60546875,1,E2,7.6,90,0,1.8629098996175597,[6400|0|0|0]
9300,1.8649559020996094,-0.15043200552463531,0.9991241097450256,0.1594388484954834,-0.3185078501701355,-3.802206039428711,3.599609375,1,E2,7.6,90,0,1.8677398021188132,[6400|0|0|0]
9400,1.8657363653182983,-0.15581047534942627,0.9975613951683044,-0.5130094885826111,-0.27456188201904297,-2.8785533905029297,3.599609375,1,E2,7.6,90,-40.5251034937539,1.873394812051626,[6400|0|0|0]
9500,1.8663530349731445,-0.15976352989673615,0.9979528188705444,-7.771512508392334,7.033714294433594,-1.6367164850234985,3.5625,1,E2,7.6,90,-40.5251034937539,1.8774147789957552,[6400|0|0|0]
9600,1.854099988937378,-0.1481657475233078,1.0014461278915405,-14.898998260498047,14.828274726867676,-0.2096301019191742,3.568359375,1,E2,7.6,90,-40.5251034937539,1.8946440825525503,[6400|0|0|0]
9700,1.8228408098220825,-0.11854581534862518,1.0045218467712402,-17.481586456298828,16.919984817504883,-1.440449833869934,3.568359375,1,E2,7.6,90,-40.5251034937539,1.937817415845474,[6400|0|0|0]
9800,1.7680573463439941,-0.05997700244188309,1.0091947317123413,-14.341764450073242,12.236172676086426,-4.581165313720703,3.57421875,1,E2,7.6,90,-40.5251034937539,2.0181502831516567,[6400|0|0|0]
9900,1.6963379383087158,0.019832856953144073,1.0155901908874512,-9.451351165771484,6.3264946937561035,-6.5537519454956055,3.583984375,1,E2,7.6,90,-40.5251034937539,2.12564069688072,[6400|0|0|0]
10000,1.6220108270645142,0.11221609264612198,1.029007911682129,-3.028745651245117,-0.7668285369873047,-7.072691440582275,3.611328125,1,E2,7.6,90,-40.5251034937539,2.244968886904436,[6400|0|0|0]
10100,1.5528017282485962,0.20901428163051605,1.0449379682540894,2.5782859325408936,-5.113224983215332,-6.603967189788818,3.626953125,1,E2,7.6,90,-40.5251034937539,2.365025354668384,[6400|0|0|0]
10200,1.4925537109375,0.30482470989227295,1.0542352199554443,8.297073364257812,-7.382395267486572,-3.7548718452453613,3.62109375,1,E2,7.6,90,-40.5251034937539,2.4785854737367337,[6400|0|0|0]
10300,1.4451217651367188,0.37792086601257324,1.060478925704956,13.06959056854248,-5.993304252624512,6.604687690734863,3.599609375,1,E2,7.6,90,-40.5251034937539,2.565945770116142,[6400|0|0|0]
10400,1.4107993841171265,0.43726682662963867,1.0568917989730835,12.54396915435791,-7.5250468254089355,0.57282954454422,3.58984375,1,E2,7.6,90,-40.5251034937539,2.634595871052753,[6400|0|0|0]
10500,1.3872555494308472,0.4757559895515442,1.0500649213790894,11.180121421813965,-5.630424499511719,-0.08410944789648056,3.568359375,1,E2,7.6,90,-40.5251034937539,2.680228469837473,[6400|0|0|0]
10600,1.3723350763320923,0.4962427318096161,1.044348955154419,8.742769241333008,-3.315800428390503,2.2121567726135254,3.568359375,1,E2,7.6,90,-40.5251034937539,2.706209220321647,[6400|0|0|0]
10701,1.362449049949646,0.5043390989303589,1.0419341325759888,4.907909393310547,-1.7724683284759521,-1.334192156791687,3.578125,1,E2,7.6,90,-40.5251034937539,2.7192136828739235,[6400|0|0|0]
10801,1.3553712368011475,0.5073130130767822,1.042382836341858,2.4269332885742188,-1.225197196006775,-2.751627206802368,3.58984375,1,E2,7.6,90,-40.5251034937539,2.7269039975218985,[6400|0|0|0]
10901,1.3482744693756104,0.5096846222877502,1.0428800582885742,1.6401044130325317,-0.7569678425788879,-3.09269380569458,3.59375,1,E2,7.6,90,-40.5251034937539,2.734403055316449,[6400|0|0|0]
11001,1.3425374031066895,0.5117402672767639,1.0435127019882202,1.190983533859253,-0.10140440613031387,-2.5660243034362793,3.58984375,1,E2,7.6,90,-40.5251034937539,2.7405300320379284,[6400|0|0|0]
11101,1.3363168239593506,0.5146975517272949,1.042057752609253,1.241387963294983,-0.03440931811928749,-1.8484126329421997,3.58984375,1,E2,7.6,90,-40.5251034937539,2.747569777341916,[6400|0|0|0]
11201,1.3285942077636719,0.5176644325256348,1.0374501943588257,1.6236419677734375,0.24406762421131134,-0.8512229323387146,3.57421875,1,E2,7.6,90,-40.5251034937539,2.7570392427760573,[6400|0|0|0]
11301,1.3200368881225586,0.5194611549377441,1.0314795970916748,1.5098117589950562,-0.43100833892822266,0.25650760531425476,3.568359375,1,E2,7.6,90,-40.5251034937539,2.7676271586518504,[6400|0|0|0]
11401,1.3116931915283203,0.5188614726066589,1.0250130891799927,1.9097775220870972,-1.3952560424804688,0.6865524649620056,3.5625,1,E2,7.6,90,-40.5251034937539,2.7782003613987367,[6400|0|0|0]
11500,1.3048187494277954,0.5160004496574402,1.0201598405838013,1.593758225440979,-1.3978890180587769,0.6270685195922852,3.568359375,1,E2,7.6,90,-40.5251034937539,2.7870884111536527,[6400|0|0|0]
11600,1.2997852563858032,0.5115106701850891,1.0159351825714111,1.4615538120269775,-1.6815727949142456,0.46328631043434143,3.568359375,1,E2,7.6,90,-40.5251034937539,2.7950471740748473,[6400|0|0|0]
11700,1.2960739135742188,0.5049912929534912,1.0137699842453003,0.509173572063446,-2.29510498046875,0.13424433767795563,3.57421875,1,E2,7.6,90,-40.5251034937539,2.8028551462023827,[6400|0|0|0]
11801,1.295601725578308,0.49801164865493774,1.0125317573547363,0.3404017388820648,-1.859365463256836,-0.32198187708854675,3.57421875,1,E2,7.6,90,-40.5251034937539,2.809959483037748,[6400|0|0|0]
11900,1.2972385883331299,0.49173828959465027,1.0108176469802856,-0.2432539165019989,-2.0335476398468018,-0.536602258682251,3.57421875,1,E2,7.6,90,-40.5251034937539,2.8166656390121654,[6400|0|0|0]
12000,1.3009496927261353,0.4852272868156433,1.008880615234375,-0.11951275169849396,-1.1148735284805298,-0.12773862481117249,3.568359375,1,E2,7.6,90,-40.5251034937539,2.824406281426635,[6400|0|0|0]
12100,1.306451678276062,0.47890982031822205,1.0071375370025635,-0.49668264389038086,-0.5030428171157837,-0.21620021760463715,3.568359375,1,E2,7.6,90,-40.5251034937539,2.832963182130737,[6400|0|0|0]
12200,1.3132781982421875,0.4728969633579254,1.0040868520736694,-0.5328103303909302,-0.41548436880111694,-0.6248695254325867,3.5625,1,E2,7.6,90,-40.5251034937539,2.8425581027770104,[6400|0|0|0]
12300,1.320009708404541,0.4680722951889038,1.0003037452697754,-0.544195830821991,-0.06857439130544662,-1.0721389055252075,3.55859375,1,E2,7.6,90,-40.5251034937539,2.8516631864722166,[6400|0|0|0]
12400,1.326755166053772,0.4646868109703064,0.996651828289032,-0.5665085315704346,0.6081787347793579,-1.3917027711868286,3.55859375,1,E2,7.6,90,0,2.860047648287156,[6400|0|0|0]
12500,1.3327546119689941,0.4620567262172699,0.9920246601104736,0.03477461636066437,0.3994293212890625,-1.6518356800079346,3.810546875,1,E2,7.6,90,0,2.868067709536953,[6400|0|0|0]
12600,1.3375006914138794,0.45875126123428345,0.9593423008918762,1.0112435817718506,0.6663402915000916,-1.3446789979934692,3.75390625,1,E2,7.6,90,0,2.9012578883997486,[6400|0|0|0]
12700,1.3407031297683716,0.45462101697921753,0.8845611810684204,0.6357980370521545,0.09546162188053131,-2.7252204418182373,3.65234375,1,E2,7.6,90,0,2.976221415605123,[6400|0|0|0]
12800,1.342070460319519,0.4506729245185852,0.7746804356575012,0.11446840316057205,-0.21844996511936188,0.677390456199646,3.55859375,1,E2,7.6,90,0,3.0861815685650615,[6400|0|0|0]
12900,1.3436553478240967,0.4464019238948822,0.6494241952896118,-1.1257001161575317,0.07043136656284332,4.325575828552246,3.515625,1,E2,7.6,90,0,3.211520624991334,[6400|0|0|0]
13000,1.346063494682312,0.4434328079223633,0.5242444276809692,-2.125744342803955,0.6235664486885071,7.379819393157959,3.46875,1,E2,7.6,90,0,3.3367587543270227,[6400|0|0|0]
13100,1.3491226434707642,0.4415946900844574,0.4116255044937134,-0.8037363290786743,-0.22556276619434357,8.561820983886719,3.453125,1,E2,7.6,90,0,3.4494342127390167,[6400|0|0|0]
13200,1.3558748960494995,0.4380797743797302,0.315789133310318,2.181943416595459,-4.100150108337402,8.718070983886719,3.46875,1,E2,7.6,90,0,3.545572434008707,[6400|0|0|0]
13300,1.3691023588180542,0.4333907663822174,0.23897068202495575,-3.0372517108917236,2.316990375518799,8.800395011901855,3.47265625,1,E2,7.6,90,0,3.623662299069263,[6400|0|0|0]
13400,1.3805937767028809,0.4311099946498871,0.1878000646829605,-5.7027435302734375,5.908187389373779,9.276688575744629,3.478515625,1,E2,7.6,90,0,3.676156933879495,[6400|0|0|0]
13500,1.3800060749053955,0.4341450035572052,0.15580564737319946,-2.12369704246521,4.6719183921813965,8.007295608520508,3.484375,1,E2,7.6,90,0,3.708300353290961,[6400|0|0|0]
13600,1.3721858263015747,0.4366462528705597,0.1413329392671585,0.4654823839664459,0.8739677667617798,6.280998706817627,3.509765625,1,E2,7.6,90,0,3.7249398189156673,[6400|0|0|0]
13700,1.3640979528427124,0.4374809265136719,0.1388818323612213,0.1565653681755066,-1.6426690816879272,5.391632556915283,3.53125,1,E2,7.6,90,0,3.7334320684551834,[6400|0|0|0]
13800,1.359570860862732,0.4371580481529236,0.1420360803604126,-0.23926831781864166,-0.1935926377773285,4.398096084594727,3.541015625,1,E2,7.6,90,0,3.7389591013546193,[6400|0|0|0]
13900,1.3581302165985107,0.43881121277809143,0.14466063678264618,-0.591127872467041,-1.3897348642349243,3.5242795944213867,3.541015625,1,E2,7.6,90,0,3.742379146030852,[6400|0|0|0]
14000,1.3593791723251343,0.4421713948249817,0.14716510474681854,-1.2878851890563965,-0.6207902431488037,3.4334018230438232,3.541015625,1,E2,7.6,90,0,3.7467521396941077,[6400|0|0|0]
14100,1.3612205982208252,0.44807180762290955,0.14842765033245087,0.19722969830036163,0.48876500129699707,3.072016477584839,3.541015625,1,E2,7.6,90,0,3.7530608433542167,[6400|0|0|0]
14200,1.3625277280807495,0.45358067750930786,0.14821921288967133,0.8104656934738159,0.6268883347511292,1.56049644947052,3.541015625,1,E2,7.6,90,0,3.7587265014857603,[6400|0|0|0]
14300,1.3629881143569946,0.45893096923828125,0.14540940523147583,0.840536892414093,0.07620805501937866,0.0867169052362442,3.537109375,1,E2,7.6,90,0,3.764787243699758,[6400|0|0|0]
14400,1.3631298542022705,0.4631097614765167,0.14232420921325684,0.49432268738746643,-0.6308495998382568,-2.086737632751465,3.537109375,1,E2,7.6,90,0,3.769983475914056,[6400|0|0|0]
14500,1.3650649785995483,0.46706441044807434,0.1389145404100418,-0.04052671417593956,-0.6603244543075562,-2.906848192214966,3.53125,1,E2,7.6,90,0,3.7755521199383044,[6400|0|0|0]
14600,1.3696590662002563,0.471690833568573,0.13666655123233795,1.4796820878982544,-0.6709632873535156,-2.190265655517578,3.537109375,1,E2,7.6,90,0,3.782448705116198,[6400|0|0|0]
14700,1.3770588636398315,0.4754098057746887,0.13759104907512665,1.0565762519836426,1.234979271888733,-2.1625678539276123,3.546875,1,E2,7.6,90,0,3.7907819189426832,[6400|0|0|0]
14800,1.3855186700820923,0.4777728319168091,0.1404774785041809,1.4893701076507568,1.4133328199386597,-1.729163646697998,3.546875,1,E2,7.6,90,0,3.800027658093112,[6400|0|0|0]
14900,1.3930387496948242,0.4778642952442169,0.14290285110473633,0.3776109516620636,1.694849967956543,-1.8610252141952515,3.546875,1,E2,7.6,90,0,3.8079297081545587,[6400|0|0|0]
15000,1.39857816696167,0.47896191477775574,0.14372235536575317,1.4164597988128662,3.637916088104248,-0.8500986099243164,3.537109375,1,E2,7.6,90,0,3.813635976596409,[6400|0|0|0]
15100,1.4000523090362549,0.47778743505477905,0.14391283690929413,0.544592022895813,2.2953312397003174,0.23278740048408508,3.537109375,1,E2,7.6,90,0,3.8155303843387327,[6400|0|0|0]
15200,1.3960626125335693,0.4752650260925293,0.14415785670280457,1.605983853340149,3.4594502449035645,0.7649161219596863,3.541015625,1,E2,7.6,90,0,3.820256932746989,[6400|0|0|0]
15300,1.3878220319747925,0.4688090682029724,0.14237631857395172,0.8364906907081604,0.885115921497345,1.091844916343689,3.53125,1,E2,7.6,90,0,3.830875804547796,[6400|0|0|0]
15400,1.3774627447128296,0.46107378602027893,0.14020191133022308,-1.4115773439407349,0.32275110483169556,0.5328487157821655,3.53125,1,E2,7.6,90,0,3.843986009347239,[6400|0|0|0]
15500,1.3688563108444214,0.4534403681755066,0.13965803384780884,0.6386654376983643,-0.4164082109928131,0.2780683636665344,3.53125,1,B2,7.6,90,0,3.8555027612608668,[6400|100|0|0]
15600,1.3625249862670898,0.4454730153083801,0.14071957767009735,-0.5737419128417969,-0.8411111831665039,-0.17592136561870575,3.537109375,1,B2,7.6,90,0,3.8657346358642553,[6400|200|0|0]
15700,1.358747959136963,0.4388881027698517,0.14287161827087402,-3.4655532836914062,-1.4618345499038696,-0.3772810995578766,3.541015625,1,B2,7.6,90,0,3.8736250278589015,[6400|300|0|0]
15800,1.3587286472320557,0.43521618843078613,0.14671841263771057,-1.7412439584732056,-0.016467848792672157,-0.5906699299812317,3.541015625,1,B2,7.6,90,0,3.8789430307513255,[6400|400|0|0]
15900,1.3611745834350586,0.4354347586631775,0.14886967837810516,-1.9977751970291138,-1.195999026298523,-0.8827934861183167,3.541015625,1,B2,7.6,90,0,3.882207739182632,[6400|500|0|0]
16000,1.3674334287643433,0.43832358717918396,0.15165767073631287,-0.34940484166145325,-0.4856228530406952,-0.9155786037445068,3.541015625,1,B2,7.6,90,0,3.8896435563159555,[6400|600|0|0]
16100,1.3754184246063232,0.44247978925704956,0.15320760011672974,-0.5585336685180664,-0.10880979895591736,-1.2457916736602783,3.546875,1,B2,7.6,90,0,3.898777912089231,[6400|700|0|0]
16200,1.3842815160751343,0.44676220417022705,0.15032874047756195,0.33177438378334045,0.5075606107711792,-0.8136114478111267,3.525390625,1,B2,7.6,90,0,3.909033705607782,[6400|800|0|0]
16300,1.3928905725479126,0.44970592856407166,0.14482806622982025,0.4843072295188904,0.8790470361709595,0.07376327365636826,3.515625,1,B2,7.6,90,0,3.919665675502311,[6400|900|0|0]
16400,1.3994102478027344,0.45226043462753296,0.13817720115184784,-0.9483650922775269,0.0874982476234436,0.14808474481105804,3.515625,1,B2,7.6,90,0,3.9293230909403043,[6400|1000|0|0]
16500,1.404715657234192,0.45592156052589417,0.13400349020957947,-0.9137505292892456,1.0633524656295776,-0.16776931285858154,3.515625,1,B2,7.6,90,0,3.9370023536072964,[6400|1100|0|0]
16600,1.4080299139022827,0.4599820375442505,0.13337115943431854,-0.30356085300445557,1.2590525150299072,-0.017041003331542015,3.525390625,1,B2,7.6,90,0,3.9422817108681687,[6400|1200|0|0]
16700,1.4090381860733032,0.46671509742736816,0.1327051818370819,-1.0004888772964478,0.8111395239830017,-0.09390772134065628,3.525390625,1,B2,7.6,90,0,3.949122342002832,[6400|1300|0|0]
16800,1.4070003032684326,0.4743768274784088,0.13192351162433624,0.46145182847976685,0.9789366126060486,0.8864349126815796,3.515625,1,B2,7.6,90,0,3.9570889022406575,[6400|1400|0|0]
16900,1.4025126695632935,0.48201656341552734,0.13036967813968658,0.13141460716724396,0.0104861781001091,1.7385146617889404,3.515625,1,B2,7.6,90,0,3.966084391107774,[6400|1500|0|0]
17000,1.3974019289016724,0.4882056713104248,0.1306559145450592,0.40860414505004883,0.10776809602975845,1.393090844154358,3.521484375,1,B2,7.6,90,0,3.9741159948034745,[6400|1600|0|0]
17100,1.3906195163726807,0.49329674243927,0.1313585489988327,-0.28454703092575073,0.39703652262687683,-0.1661076694726944,3.521484375,1,B2,7.6,90,0,3.9826256258253236,[6400|1700|0|0]
17200,1.3830960988998413,0.4982016980648041,0.1328982412815094,-0.5322462320327759,-0.03456559777259827,-1.238498330116272,3.525390625,1,B2,7.6,90,0,3.991737763471585,[6400|1800|0|0]
17300,1.3760340213775635,0.5034972429275513,0.13734295964241028,0.21986103057861328,-0.027072535827755928,-1.0237399339675903,3.525390625,1,B2,7.6,90,0,4.001620640362034,[6400|1900|0|0]
17400,1.3709450960159302,0.5088798403739929,0.14020399749279022,1.9736566543579102,-1.0823991298675537,0.3813837468624115,3.890625,1,B2,7.6,90,0,4.009561361625749,[6400|2000|0|0]
17500,1.3690105676651,0.5118385553359985,0.10622313618659973,4.918172836303711,-5.494628429412842,2.6056222915649414,3.896484375,1,B2,7.6,90,0,4.043725602130656,[6400|2100|0|0]
17600,1.3718998432159424,0.5124043226242065,0.0010991171002388,4.843428134918213,-20.289840698242188,5.02517032623291,3.896484375,1,B2,7.6,90,0,4.1488908406589005,[6400|2200|0|0]
17700,1.3549442291259766,0.5254098176956177,-0.12753044068813324,7.807980060577393,4.694045066833496,0.6153393983840942,3.896484375,1,B2,7.6,90,0,4.279283320841051,[6400|2300|0|0]
17800,1.3282699584960938,0.5419768691062927,-0.1255076825618744,52.21196365356445,-9.316274642944336,14.94013500213623,3.900390625,1,B2,7.6,90,0,4.310748785346084,[6400|2400|0|0]
17900,1.3151687383651733,0.5477800965309143,-0.1367507129907608,13.387628555297852,-3.787329912185669,22.656435012817383,3.900390625,1,B2,7.6,90,0,4.3289621087848635,[6400|2500|0|0]
18000,1.3086810111999512,0.5486257076263428,-0.13152089715003967,10.916826248168945,-1.967397928237915,22.50417137145996,3.90625,1,B2,7.6,90,0,4.337338064588408,[6400|2600|0|0]
18100,1.3161463737487793,0.5444921255111694,-0.12802551686763763,18.165895462036133,-8.82476806640625,24.354511260986328,3.90625,1,B2,7.6,90,0,4.346559551583841,[6400|2700|0|0]
18200,1.31890869140625,0.5418784618377686,-0.12491928786039352,17.90773582458496,-7.785048961639404,24.030014038085938,3.90625,1,B2,7.6,90,0,4.351469775131081,[6400|2800|0|0]
18300,1.3171266317367554,0.5396033525466919,-0.12207956612110138,17.40475845336914,-6.451816558837891,23.69832420349121,3.90625,1,B2,7.6,90,0,4.355521426462155,[6400|2900|0|0]
18400,1.3167259693145752,0.5399242639541626,-0.12221216410398483,16.89471435546875,-5.225054740905762,23.745962142944336,3.912109375,1,B2,7.6,90,0,4.356051612026893,[6400|3000|0|0]
18500,1.3166308403015137,0.5389626026153564,-0.12101397663354874,16.492746353149414,-4.156783103942871,23.87508201599121,3.912109375,1,B2,7.6,90,0,4.357590928522612,[6400|3100|0|0]
18600,1.31621515750885,0.5387817025184631,-0.12069860100746155,16.131685256958008,-3.232384204864502,24.11063003540039,3.912109375,1,B2,7.6,90,0,4.358143177392871,[6400|3200|0|0]
18700,1.3158677816390991,0.5385863184928894,-0.12056954205036163,15.818819999694824,-2.434878349304199,24.373600006103516,3.912109375,1,B2,7.6,90,0,4.358562105938977,[6400|3300|0|0]
18800,1.3156126737594604,0.5390457510948181,-0.12028434872627258,15.52672290802002,-1.7823609113693237,24.61100959777832,3.912109375,1,B2,7.6,90,0,4.359160013605823,[6400|3400|0|0]
18900,1.3152388334274292,0.5391984581947327,-0.1206183135509491,15.31856632232666,-1.2308635711669922,24.815431594848633,3.916015625,1,B2,7.6,90,0,4.359684044670111,[6400|3500|0|0]
19000,1.3148952722549438,0.5394915342330933,-0.12113966792821884,15.145002365112305,-0.795748770236969,25.06275749206543,3.916015625,1,B2,7.6,90,0,4.360373782468263,[6400|3600|0|0]
19100,1.3144917488098145,0.5394104719161987,-0.12088735401630402,14.999959945678711,-0.45454320311546326,25.283367156982422,3.916015625,1,B2,7.6,90,0,4.360856550093663,[6400|3700|0|0]
19200,1.3146657943725586,0.5389565825462341,-0.12050016969442368,14.904789924621582,-0.18832561373710632,25.494470596313477,3.916015625,1,B2,7.6,90,0,4.361478015392121,[6400|3800|0|0]
19300,1.31441330909729,0.538826048374176,-0.12059139460325241,14.81724739074707,0.017488697543740273,25.652921676635742,3.916015625,1,B2,7.6,90,0,4.361776528320306,[6400|3900|0|0]
19400,1.3140734434127808,0.5390489101409912,-0.12080413103103638,14.72476863861084,0.17572031915187836,25.787561416625977,3.921875,1,B2,7.6,90,0,4.362235257912028,[6400|4000|0|0]
19500,1.3138740062713623,0.5397320985794067,-0.12130948901176453,14.649847984313965,0.2392568439245224,25.728837966918945,3.921875,1,B2,7.6,90,0,4.363108131502216,[6400|4100|0|0]
19600,1.3126094341278076,0.5424523949623108,-0.12396379560232162,14.557207107543945,0.24993370473384857,25.54898452758789,3.921875,1,B2,7.6,90,0,4.367113689964374,[6400|4200|0|0]
19700,1.3117533922195435,0.545452892780304,-0.1272038221359253,14.507349967956543,0.23939576745033264,25.424495697021484,3.921875,1,B2,7.6,90,0,4.3716118636874475,[6400|4300|0|0]
19800,1.3106095790863037,0.5486322641372681,-0.13067789375782013,14.456453323364258,0.26688921451568604,25.309139251708984,3.921875,1,B2,7.6,90,0,4.376458087407347,[6400|4400|0|0]
19900,1.3095098733901978,0.5520223379135132,-0.13418273627758026,14.408827781677246,0.28588366508483887,25.232637405395508,3.927734375,1,B2,7.6,90,0,4.381456674599219,[6400|4500|0|0]
20000,1.3084617853164673,0.5543495416641235,-0.13698558509349823,14.390408515930176,0.3181758522987366,25.137451171875,3.927734375,1,B2,7.6,90,0,4.385247496065873,[6400|4600|0|0]
20100,1.3077082633972168,0.5563142895698547,-0.13886931538581848,14.359233856201172,0.32773610949516296,25.076797485351562,3.927734375,1,B2,7.6,90,0,4.388071760471001,[6400|4700|0|0]
20200,1.313883900642395,0.5394289493560791,-0.12103553861379623,14.498929977416992,0.44544559717178345,25.519269943237305,3.927734375,1,B2,7.6,90,0,4.41339559911117,[6400|4800|0|0]
20300,1.3136271238327026,0.5398728251457214,-0.12139343470335007,14.518275260925293,0.4976173937320709,25.55154800415039,3.927734375,1,B2,7.6,90,0,4.414020938744924,[6400|4900|0|0]
20400,1.3114206790924072,0.5424575805664062,-0.12261546403169632,14.424559593200684,0.4964621961116791,25.42765998840332,3.931640625,1,B2,7.6,90,0,4.417632408619653,[6400|5000|0|0]
20500,1.3079193830490112,0.5477789640426636,-0.12500283122062683,13.158456802368164,1.6478049755096436,24.855295181274414,3.931640625,1,B2,7.6,90,0,4.424435034449409,[6400|5100|0|0]
20600,1.3017792701721191,0.5522297024726868,-0.12347453087568283,0.45632389187812805,7.768191337585449,20.554418563842773,3.931640625,1,B2,7.6,90,0,4.43217103862843,[6400|5200|0|0]
20700,1.3023571968078613,0.574149489402771,-0.10713519155979156,-3.835632085800171,-0.5050906538963318,18.514331817626953,3.931640625,1,B2,7.6,90,0,4.459516697653884,[6400|5300|0|0]
20800,1.3054386377334595,0.6214357018470764,-0.10941777378320694,-0.036973435431718826,-1.8407495021820068,11.254651069641113,3.931640625,1,B2,7.6,90,0,4.506958149435133,[6400|5400|0|0]
20900,1.302342414855957,0.6464176177978516,-0.12201621383428574,1.7709213495254517,-5.190269470214844,10.026769638061523,3.931640625,1,B2,7.6,90,0,4.5351078103993325,[6400|5500|0|0]
21000,1.293826699256897,0.6694223284721375,-0.13669265806674957,-2.776095390319824,-0.8411546945571899,7.439966678619385,3.931640625,1,B2,7.6,90,0,4.563693333670392,[6400|5600|0|0]
21100,1.284340262413025,0.6832544803619385,-0.13953931629657745,-3.473881721496582,-1.3759353160858154,9.209089279174805,3.931640625,1,B2,7.6,90,0,4.580705810649738,[6400|5700|0|0]
21200,1.2745132446289062,0.7009764313697815,-0.1415984332561493,-3.765716552734375,-1.7636326551437378,9.05406379699707,3.931640625,1,B2,7.6,90,0,4.6010743596581225,[6400|5800|0|0]
21300,1.26389741897583,0.7203577756881714,-0.14393268525600433,-3.728109121322632,-1.7487510442733765,8.965537071228027,3.931640625,1,B2,7.6,90,0,4.62329554311633,[6400|5900|0|0]
21400,1.3039140701293945,0.6795280575752258,-0.18738685548305511,-3.173489570617676,-2.0276472568511963,9.9952974319458,3.9375,1,B2,7.6,90,0,4.695105453023321,[6400|6000|0|0]
21500,1.35955810546875,0.5312587022781372,-0.02496706321835518,-2.9033992290496826,-2.0650815963745117,6.795292854309082,3.9375,1,B2,7.6,90,0,4.921953969237049,[6400|6100|0|0]
21600,1.356518268585205,0.5291417241096497,-0.026659568771719933,-2.91471004486084,-1.8258349895477295,8.447748184204102,3.9375,1,B2,7.6,90,0,4.926026656297527,[6400|6200|0|0]
21700,1.3556910753250122,0.525607705116272,-0.027131730690598488,-2.7761788368225098,-1.8062278032302856,8.830171585083008,3.9375,1,B2,7.6,90,0,4.929686775942143,[6400|6300|0|0]
21800,1.3561961650848389,0.5239408612251282,-0.02617052011191845,-2.775038242340088,-1.8526827096939087,9.128278732299805,3.9375,1,B2,7.6,90,0,4.9316760999478015,[6400|6400|0|0]
21900,1.356722354888916,0.5230858325958252,-0.02470090053975582,-2.7705271244049072,-1.8745216131210327,9.371191024780273,4.0,1,B2,7.6,90,0,4.933455912115904,[6400|6500|0|0]
22000,1.3572537899017334,0.521781325340271,-0.023083521053195,-2.7235376834869385,-1.882002830505371,9.886063575744629,4.0078125,1,B2,7.6,90,0,4.935600691534909,[6400|6600|0|0]
22100,1.3321503400802612,0.5958880186080933,-0.09981295466423035,-3.6195573806762695,-1.789352297782898,10.195978164672852,4.0078125,1,B2,7.6,90,0,5.0451880592480745,[6400|6700|0|0]
22200,1.3263291120529175,0.6120152473449707,-0.1171598732471466,-3.525570869445801,-1.777246117591858,10.249434471130371,4.0078125,1,B2,7.6,90,0,5.0695784218284095,[6400|6800|0|0]
22300,1.3205775022506714,0.628499448299408,-0.1343516856431961,-3.4401817321777344,-1.7763211727142334,10.27127456665039,4.0078125,1,B2,7.6,90,0,5.094080836196886,[6400|6900|0|0]
22400,1.3256933689117432,0.6134911775588989,-0.119069904088974,-3.010693073272705,-1.8360304832458496,10.55204963684082,4.01171875,1,B2,7.6,90,0,5.116102487583311,[6400|7000|0|0]
22500,1.327258825302124,0.6085436344146729,-0.11449950933456421,-2.591008186340332,-1.860190987586975,10.955414772033691,4.01171875,1,B2,7.6,90,0,5.123017496266263,[6400|7100|0|0]
22600,1.327745795249939,0.6070902943611145,-0.11367832124233246,-2.2478675842285156,-1.878657341003418,11.320789337158203,4.01171875,1,B2,7.6,90,0,5.124756371455623,[6400|7200|0|0]
22700,1.328647255897522,0.604884147644043,-0.1109958067536354,-2.0522637367248535,-1.8755446672439575,11.594358444213867,4.01171875,1,B2,7.6,90,0,5.128344629893704,[6400|7300|0|0]
22800,1.3293815851211548,0.6032306551933289,-0.10912925004959106,-1.9809950590133667,-1.8814674615859985,11.782952308654785,4.01171875,1,B2,7.6,90,0,5.130944112654305,[6400|7400|0|0]
22900,1.3297693729400635,0.6015790700912476,-0.10734274983406067,-1.9611692428588867,-1.8791249990463257,11.940842628479004,4.01171875,1,B2,7.6,90,0,5.133407787909285,[6400|7500|0|0]
23000,1.3301714658737183,0.6009178757667542,-0.10609757155179977,-2.0081562995910645,-1.8830922842025757,12.03814697265625,4.01171875,1,B2,7.6,90,0,5.134873845758298,[6400|7600|0|0]
23100,1.32993745803833,0.6009844541549683,-0.10617577284574509,-2.0692250728607178,-1.8734616041183472,12.121496200561523,4.015625,1,B2,7.6,90,0,5.135129399649238,[6400|7700|0|0]
23200,1.3304203748703003,0.6007146239280701,-0.10595720261335373,-2.1148500442504883,-1.8878697156906128,12.173075675964355,4.015625,1,B2,7.6,90,0,5.135724202107569,[6400|7800|0|0]
23300,1.330020546913147,0.6010157465934753,-0.10610304027795792,-2.1813151836395264,-1.8675833940505981,12.20028018951416,4.015625,1,B2,7.6,90,0,5.1362455521621,[6400|7900|0|0]
23400,1.33033287525177,0.6009764671325684,-0.10621072351932526,-2.2132763862609863,-1.8717877864837646,12.253060340881348,4.015625,1,B2,7.6,90,0,5.136578249543556,[6400|8000|0|0]
23500,1.3299732208251953,0.6015356779098511,-0.10695038735866547,-2.2648398876190186,-1.8580713272094727,12.276836395263672,4.015625,1,B2,7.6,90,0,5.1375728201017425,[6400|8100|0|0]
23600,1.3299305438995361,0.6018727421760559,-0.10702928155660629,-2.29522442817688,-1.8549302816390991,12.285913467407227,4.015625,1,B2,7.6,90,0,5.137921615075911,[6400|8200|0|0]
23700,1.3297039270401,0.6017428636550903,-0.10669610649347305,-2.305172920227051,-1.8364319801330566,12.287860870361328,4.015625,1,B2,7.6,90,0,5.138344969837172,[6400|8300|0|0]
23800,1.329880952835083,0.6016712188720703,-0.10651182383298874,-2.3128960132598877,-1.8481650352478027,12.307887077331543,4.015625,1,B2,7.6,90,0,5.1386103586198635,[6400|8400|0|0]
23900,1.3297195434570312,0.6020215749740601,-0.10736566036939621,-2.3283658027648926,-1.8498469591140747,12.311553001403809,4.015625,1,B2,7.6,90,0,5.139547289362463,[6400|8500|0|0]
24000,1.3301438093185425,0.6016798615455627,-0.10671547055244446,-2.331109046936035,-1.8597615957260132,12.319539070129395,4.0234375,1,B2,7.6,90,0,5.1403955324800465,[6400|8600|0|0]
24100,1.3300994634628296,0.6014828085899353,-0.10661376267671585,-2.3299570083618164,-1.8585827350616455,12.37788200378418,4.0234375,1,B2,7.6,90,0,5.140621676049988,[6400|8700|0|0]
24200,1.3301881551742554,0.6013773083686829,-0.10622918605804443,-2.340277910232544,-1.8696025609970093,12.391873359680176,4.0234375,1,B2,7.6,90,0,5.141030204741745,[6400|8800|0|0]
24300,1.3298496007919312,0.6014220118522644,-0.10664627701044083,-2.349623203277588,-1.852344036102295,12.375776290893555,4.0234375,1,B2,7.6,90,0,5.141569261634666,[6400|8900|0|0]
24400,1.3297234773635864,0.6017054915428162,-0.1067434698343277,-2.363701581954956,-1.8475611209869385,12.373284339904785,4.0234375,1,B2,7.6,90,0,5.141894398988946,[6400|9000|0|0]
24500,1.3293852806091309,0.6019812226295471,-0.10722067207098007,-2.3669252395629883,-1.838868498802185,12.368188858032227,4.0234375,1,B2,7.6,90,0,5.142541026123839,[6400|9100|0|0]
24600,1.3296583890914917,0.6019314527511597,-0.1067461147904396,-2.364337205886841,-1.8457411527633667,12.38347339630127,4.0234375,1,B2,7.6,90,0,5.143090816898995,[6400|9200|0|0]
24700,1.329756498336792,0.6016650795936584,-0.10674691945314407,-2.354069709777832,-1.8450075387954712,12.40971851348877,4.0234375,1,B2,7.6,90,0,5.143374684351396,[6400|9300|0|0]
24800,1.3297911882400513,0.6020668745040894,-0.10736832022666931,-2.3759403228759766,-1.8512539863586426,12.40924072265625,4.0234375,1,B2,7.6,90,0,5.144115482205587,[6400|9400|0|0]
24900,1.3298605680465698,0.6022466421127319,-0.1073114201426506,-2.385267972946167,-1.8508554697036743,12.41828727722168,4.0234375,1,B2,7.6,90,0,5.144316399029748,[6400|9500|0|0]
25000,1.3294180631637573,0.602477490901947,-0.10751011222600937,-2.390069007873535,-1.8365159034729004,12.421616554260254,4.02734375,1,B2,7.6,90,0,5.144853595715129,[6400|9600|0|0]
25101,1.3296117782592773,0.6024115085601807,-0.10775365680456161,-2.3709259033203125,-1.843450665473938,12.408651351928711,4.02734375,1,B2,7.6,90,0,5.145171704453455,[6400|9700|0|0]
25201,1.329769492149353,0.6023013591766357,-0.10803470760583878,-2.3680732250213623,-1.8500919342041016,12.399693489074707,4.02734375,1,B2,7.6,90,0,5.145512286471061,[6400|9800|0|0]
25301,1.3296279907226562,0.6022807955741882,-0.10743187367916107,-2.3748464584350586,-1.8427799940109253,12.383363723754883,4.02734375,1,B2,7.6,90,0,5.1461318462007535,[6400|9900|0|0]
25401,1.3295555114746094,0.6024765372276306,-0.10788212716579437,-2.3860435485839844,-1.847109079360962,12.397661209106445,4.02734375,1,B2,7.6,90,0,5.146628128618853,[6400|10000|0|0]
25501,1.3293406963348389,0.6026217341423035,-0.10797266662120819,-2.3884449005126953,-1.8487297296524048,12.399872779846191,4.02734375,1,B2,7.6,90,0,5.14690276488975,[6400|10100|0|0]
25601,1.3295626640319824,0.6022318005561829,-0.1071208044886589,-2.3735852241516113,-1.8510960340499878,12.370813369750977,4.02734375,1,B2,7.6,90,0,5.147865566506404,[6400|10200|0|0]
25701,1.3299789428710938,0.6016409397125244,-0.10684911906719208,-2.351917028427124,-1.8504329919815063,12.391475677490234,4.02734375,1,B2,7.6,90,0,5.148637717771829,[6400|10300|0|0]
25801,1.329843521118164,0.6014869809150696,-0.10647931694984436,-2.359985828399658,-1.8444478511810303,12.392963409423828,4.03125,1,B2,7.6,90,0,5.1490605604949256,[6400|10400|0|0]
25901,1.3297028541564941,0.6019541025161743,-0.10753036290407181,-2.3793935775756836,-1.846830129623413,12.428617477416992,4.02734375,1,B2,7.6,90,0,5.150219304376127,[6400|10500|0|0]
26001,1.329445481300354,0.6020870804786682,-0.10774041712284088,-2.3856914043426514,-1.8450886011123657,12.446661949157715,4.03125,1,B2,7.6,90,0,5.1505771405123815,[6400|10600|0|0]
26102,1.329801082611084,0.6017816662788391,-0.10728496313095093,-2.3740642070770264,-1.8547463417053223,12.454623222351074,4.03125,1,B2,7.6,90,0,5.151230721773112,[6400|10700|0|0]
26202,1.3300323486328125,0.6018162369728088,-0.10674379765987396,-2.385373115539551,-1.87282133102417,12.447370529174805,4.03125,1,B2,7.6,90,0,5.151820246304217,[6400|10800|0|0]
26302,1.3296685218811035,0.6023784875869751,-0.10792715102434158,-2.397559642791748,-1.8626556396484375,12.401167869567871,4.03125,1,B2,7.6,90,0,5.153179959819479,[6400|10900|0|0]
26402,1.329681634902954,0.6020570993423462,-0.10712282359600067,-2.38578462600708,-1.8478219509124756,12.392719268798828,4.03125,1,B2,7.6,90,0,5.1540462189995795,[6400|11000|0|0]
26502,1.3300058841705322,0.6019460558891296,-0.106652170419693,-2.3863158226013184,-1.8454557657241821,12.393962860107422,4.03125,1,B2,7.6,90,0,5.154628441163702,[6400|11100|0|0]
26602,1.3297240734100342,0.6017323136329651,-0.10692983865737915,-2.3747501373291016,-1.827017068862915,12.389351844787598,4.03125,1,B2,7.6,90,0,5.155078110716843,[6400|11200|0|0]
26702,1.329986333847046,0.6012744903564453,-0.10638427734375,-2.3710215091705322,-1.8323652744293213,12.369293212890625,4.03125,1,B2,7.6,90,0,5.1558370704234635,[6400|11300|0|0]
26802,1.3298168182373047,0.6015086770057678,-0.10639160126447678,-2.39707350730896,-1.8285435438156128,12.350176811218262,4.03125,1,B2,7.6,90,0,5.1561262633841,[6400|11400|0|0]
26902,1.329799771308899,0.6018192768096924,-0.10712084919214249,-2.4035444259643555,-1.8368302583694458,12.340757369995117,4.03125,1,B2,7.6,90,0,5.156919084534152,[6400|11500|0|0]
27002,1.3296904563903809,0.6017103791236877,-0.1070910096168518,-2.3986692428588867,-1.8347853422164917,12.355168342590332,4.0390625,1,B2,7.6,90,0,5.157076243236365,[6400|11600|0|0]
27102,1.3295512199401855,0.6019344329833984,-0.10673177242279053,-2.4066174030303955,-1.8318538665771484,12.314149856567383,4.0390625,1,B2,7.6,90,0,5.157521931785367,[6400|11700|0|0]
27200,1.329733967781067,0.6021257042884827,-0.10743160545825958,-2.400752305984497,-1.840627908706665,12.322150230407715,4.0390625,1,B2,7.6,90,0,5.158270094710825,[6400|11800|0|0]
27300,1.329453706741333,0.602376401424408,-0.10756541043519974,-2.405982255935669,-1.8287928104400635,12.334766387939453,4.0390625,1,B2,7.6,90,0,5.158669217594418,[6400|11900|0|0]
27400,1.3294428586959839,0.6021494269371033,-0.10729382932186127,-2.3883979320526123,-1.8283015489578247,12.311676979064941,4.0390625,1,B2,7.6,90,0,5.159023324074304,[6400|12000|0|0]
27500,1.3296144008636475,0.602390706539154,-0.10742716491222382,-2.3895766735076904,-1.8376710414886475,12.320072174072266,4.0390625,1,B2,7.6,90,0,5.159348009986086,[6400|12100|0|0]
27600,1.3294388055801392,0.6023074984550476,-0.1075310930609703,-2.3800508975982666,-1.8334696292877197,12.318038940429688,4.0390625,1,B2,7.6,90,0,5.159568369576195,[6400|12200|0|0]
27700,1.3292124271392822,0.6020511984825134,-0.10739126801490784,-2.3728888034820557,-1.826578974723816,12.322503089904785,4.0390625,1,B2,7.6,90,0,5.15993781228882,[6400|12300|0|0]
27800,1.3297239542007446,0.6021818518638611,-0.10726184397935867,-2.38436222076416,-1.8474395275115967,12.307392120361328,4.0390625,1,B2,7.6,90,0,5.160481393765366,[6400|12400|0|0]
27900,1.3296167850494385,0.6015793681144714,-0.10658834874629974,-2.3577637672424316,-1.841533899307251,12.323013305664062,4.0390625,1,B2,7.6,90,0,5.16139137603125,[6400|12500|0|0]
28000,1.329791784286499,0.6013044714927673,-0.10622286796569824,-2.359052896499634,-1.8405687808990479,12.310508728027344,4.0390625,1,B2,7.6,90,0,5.161881038248074,[6400|12600|0|0]
28100,1.3298619985580444,0.6020098328590393,-0.10727234929800034,-2.3903121948242188,-1.84951651096344,12.318333625793457,4.04296875,1,B2,7.6,90,0,5.163147480417227,[6400|12700|0|0]
28200,1.3296021223068237,0.6019521355628967,-0.10694979876279831,-2.384577751159668,-1.8315516710281372,12.329070091247559,4.0390625,1,B2,7.6,90,0,5.163565695065094,[6400|12800|0|0]
28300,1.3296011686325073,0.6016108393669128,-0.10702703148126602,-2.368708848953247,-1.8308145999908447,12.327225685119629,4.04296875,1,B2,7.6,90,0,5.16391562205132,[6400|12900|0|0]
28400,1.3294118642807007,0.6021474003791809,-0.10732448101043701,-2.4019508361816406,-1.8387880325317383,12.367451667785645,4.0390625,1,B2,7.6,90,0,5.164557657938092,[6400|13000|0|0]
28500,1.3297778367996216,0.6016247272491455,-0.10677783936262131,-2.380772590637207,-1.8354007005691528,12.355151176452637,4.04296875,1,B2,7.6,90,0,5.16539786039976,[6400|13100|0|0]
28600,1.3298588991165161,0.6016162633895874,-0.10648563504219055,-2.3851521015167236,-1.8407918214797974,12.36336612701416,4.04296875,1,B2,7.6,90,0,5.165701218440724,[6400|13200|0|0]
28700,1.329707145690918,0.6019254326820374,-0.1067410260438919,-2.402782678604126,-1.8373959064483643,12.349820137023926,4.04296875,1,B2,7.6,90,0,5.166129983314897,[6400|13300|0|0]
28800,1.3298795223236084,0.6019696593284607,-0.1068711131811142,-2.3907668590545654,-1.8408479690551758,12.33696460723877,4.04296875,1,B2,7.6,90,0,5.166350420070049,[6400|13400|0|0]
28900,1.3297381401062012,0.6019943356513977,-0.10733608901500702,-2.387559652328491,-1.8327076435089111,12.356063842773438,4.04296875,1,B2,7.6,90,0,5.166837041461294,[6400|13500|0|0]
29000,1.3298449516296387,0.6019976139068604,-0.10705555230379105,-2.3955557346343994,-1.8388817310333252,12.34274959564209,4.04296875,1,B2,7.6,90,0,5.16713724188574,[6400|13600|0|0]
29100,1.3292367458343506,0.6027039289474487,-0.10810869932174683,-2.413074016571045,-1.8361724615097046,12.346564292907715,4.04296875,1,B2,7.6,90,0,5.168543625143395,[6400|13700|0|0]
29200,1.3295447826385498,0.6019065380096436,-0.10724452137947083,-2.374866008758545,-1.8298007249832153,12.354101181030273,4.04296875,1,B2,7.6,90,0,5.1697591589752365,[6400|13800|0|0]
29300,1.3297611474990845,0.6018679141998291,-0.10659953206777573,-2.3862359523773193,-1.8363280296325684,12.341202735900879,4.04296875,1,B2,7.6,90,0,5.17044056690281,[6400|13900|0|0]
29400,1.329864263534546,0.6013027429580688,-0.10639899969100952,-2.362487316131592,-1.8322662115097046,12.301122665405273,4.04296875,1,B2,7.6,90,0,5.17104906068537,[6400|14000|0|0]
29500,1.329882264137268,0.6018497347831726,-0.10669621080160141,-2.3894283771514893,-1.8375589847564697,12.333179473876953,4.04296875,1,B2,7.6,90,0,5.171671843571043,[6400|14100|0|0]
29600,1.329548716545105,0.6018985509872437,-0.10692360252141953,-2.3906373977661133,-1.8200299739837646,12.337725639343262,4.04296875,1,B2,7.6,90,0,5.172078468720609,[6400|14200|0|0]
29700,1.3295503854751587,0.6022066473960876,-0.10707253962755203,-2.4050567150115967,-1.8240021467208862,12.374838829040527,4.046875,1,B2,7.6,90,0,5.172420679830968,[6400|14300|0|0]
29800,1.3295050859451294,0.6021372675895691,-0.10709071159362793,-2.3978068828582764,-1.8195183277130127,12.356538772583008,4.04296875,1,B2,7.6,90,0,5.172505508041632,[6400|14400|0|0]
29900,1.3298637866973877,0.6017721891403198,-0.10698854178190231,-2.3812549114227295,-1.8282049894332886,12.371508598327637,4.04296875,1,B2,7.6,90,0,5.173027415288377,[6400|14500|0|0]
30000,1.3298320770263672,0.6019034385681152,-0.10700579732656479,-2.3975820541381836,-1.8287512063980103,12.380171775817871,4.046875,1,B2,7.6,90,0,5.173163539016487,[6400|14600|0|0]
30100,1.3297663927078247,0.6022934913635254,-0.10746969282627106,-2.407881498336792,-1.8281501531600952,12.37063980102539,4.046875,1,B2,7.6,90,0,5.17377317386421,[6400|14700|0|0]
30200,1.3294168710708618,0.6023657321929932,-0.10759986937046051,-2.408504009246826,-1.817165493965149,12.3497953414917,4.046875,1,B2,7.6,90,0,5.174153081806749,[6400|14800|0|0]
30300,1.3293410539627075,0.60220867395401,-0.10736999660730362,-2.4039876461029053,-1.8100143671035767,12.360516548156738,4.046875,1,B2,7.6,90,0,5.174441624717878,[6400|14900|0|0]
30400,1.329639196395874,0.6017146110534668,-0.10701080411672592,-2.385329008102417,-1.8166537284851074,12.36613655090332,4.046875,1,B2,7.6,90,0,5.1751213351749366,[6400|15000|0|0]
30500,1.3302134275436401,0.6011781096458435,-0.10601085424423218,-2.381585121154785,-1.8270071744918823,12.352511405944824,4.046875,1,B2,7.6,90,0,5.176393135048716,[6400|15100|0|0]
30600,1.3298360109329224,0.6016939282417297,-0.10655158013105392,-2.420400857925415,-1.8280842304229736,12.359492301940918,4.046875,1,B2,7.6,90,0,5.177230330728702,[6400|15200|0|0]
30700,1.3296805620193481,0.6019077301025391,-0.10709913074970245,-2.419675350189209,-1.823807954788208,12.366072654724121,4.046875,1,B2,7.6,90,0,5.177838349873466,[6400|15300|0|0]
30800,1.3297662734985352,0.6019670367240906,-0.10683201998472214,-2.423130989074707,-1.8279544115066528,12.382112503051758,4.046875,1,B2,7.6,90,0,5.178125076038635,[6400|15400|0|0]
30900,1.3301931619644165,0.6018291115760803,-0.10712806135416031,-2.413350820541382,-1.8365432024002075,12.400540351867676,4.046875,1,B2,7.6,90,0,5.178662567993156,[6400|15500|0|0]
31000,1.3298331499099731,0.6020978093147278,-0.1070360392332077,-2.424459457397461,-1.8237494230270386,12.383604049682617,4.046875,1,B2,7.6,90,0,5.179121125759248,[6400|15600|0|0]
31100,1.3294007778167725,0.6021623015403748,-0.10724438726902008,-2.4151976108551025,-1.8129205703735352,12.395851135253906,4.046875,1,B2,7.6,90,0,5.179605391985795,[6400|15700|0|0]
31200,1.3294386863708496,0.6019408702850342,-0.10723546147346497,-2.4047844409942627,-1.8183789253234863,12.392205238342285,4.046875,1,B2,7.6,90,0,5.17983022198633,[6400|15800|0|0]
31300,1.3295350074768066,0.6021960973739624,-0.10692019015550613,-2.4094433784484863,-1.8227603435516357,12.377663612365723,4.046875,1,B2,7.6,90,0,5.180247132799698,[6400|15900|0|0]
31400,1.3294007778167725,0.6023135185241699,-0.10719387233257294,-2.406934976577759,-1.816824197769165,12.395596504211426,4.046875,1,B2,7.6,90,0,5.18057379357511,[6400|16000|0|0]
31500,1.329803228378296,0.602092981338501,-0.10684698820114136,-2.400810480117798,-1.8263118267059326,12.384137153625488,4.0546875,1,B2,7.6,90,0,5.181149060213611,[6400|16100|0|0]
31600,1.3297299146652222,0.6018322110176086,-0.10702751576900482,-2.3882508277893066,-1.8245446681976318,12.377487182617188,4.0546875,1,B2,7.6,90,0,5.181474584811056,[6400|16200|0|0]
31700,1.3297749757766724,0.6021511554718018,-0.10704653710126877,-2.4096102714538574,-1.8391309976577759,12.4008207321167,4.0546875,1,B2,7.6,90,0,5.1817972578339555,[6400|16300|0|0]
31800,1.3296260833740234,0.6022182106971741,-0.10766372084617615,-2.405627489089966,-1.84316086769104,12.39094352722168,4.0546875,1,B2,7.6,90,0,5.18243567864016,[6400|16400|0|0]
31900,1.3298920392990112,0.6017733216285706,-0.10656234622001648,-2.3876264095306396,-1.8440576791763306,12.389153480529785,4.0546875,1,B2,7.6,90,0,5.183652923440744,[6400|16500|0|0]
32000,1.329690933227539,0.6017637848854065,-0.10696182399988174,-2.3793795108795166,-1.834513545036316,12.390085220336914,4.0546875,1,B2,7.6,90,0,5.184100267936697,[6400|16600|0|0]
32100,1.329751968383789,0.6016425490379333,-0.10702400654554367,-2.383641004562378,-1.8409414291381836,12.393104553222656,4.0546875,1,B2,7.6,90,0,5.184249566597092,[6400|16700|0|0]
32200,1.3300423622131348,0.601736307144165,-0.10703166574239731,-2.396829843521118,-1.8563565015792847,12.390839576721191,4.0546875,1,B2,7.6,90,0,5.1845548170219935,[6400|16800|0|0]
32300,1.329820156097412,0.6015867590904236,-0.10642226040363312,-2.392275333404541,-1.8445442914962769,12.39928913116455,4.0546875,1,B2,7.6,90,0,5.185220485892496,[6400|16900|0|0]
32400,1.3301180601119995,0.6018046140670776,-0.10662207752466202,-2.4041919708251953,-1.853406548500061,12.367147445678711,4.0546875,1,B2,7.6,90,0,5.185640169671807,[6400|17000|0|0]
32500,1.330076813697815,0.6013948917388916,-0.10653554648160934,-2.3903753757476807,-1.847690463066101,12.376553535461426,4.0546875,1,B2,7.6,90,0,5.186060956166729,[6400|17100|0|0]
32600,1.329893708229065,0.6018235683441162,-0.10687251389026642,-2.4112892150878906,-1.8449375629425049,12.401139259338379,4.0546875,1,B2,7.6,90,0,5.186636141596874,[6400|17200|0|0]
