time.ms,stateEstimate.x,stateEstimate.y,stateEstimate.z,stabilizer.roll,stabilizer.pitch,stabilizer.yaw,pm.vbat,drone_id,node_name,wind_speed,global_wind_direction,relative_wind_direction,travel_dist,waiting_time
0,0.6467045545578003,0.3983161747455597,-0.027086511254310608,-0.6977412700653076,0.5947532653808594,0.6582240462303162,4.13671875,0,"['F2', 'B2', 'A1']",6.1,270,0,0.07240885316091566,[100|0|0]
100,0.6464763283729553,0.3982386291027069,-0.027190320193767548,-0.6947051286697388,0.6046932339668274,0.6614120602607727,4.13671875,0,"['F2', 'B2', 'A1']",6.1,270,0,0.07267129708651791,[200|0|0]
200,0.646802544593811,0.39824119210243225,-0.027123315259814262,-0.7004404664039612,0.59846431016922,0.6570971608161926,4.13671875,0,"['F2', 'B2', 'A1']",6.1,270,0,0.07300433350027932,[300|0|0]
300,0.6470221281051636,0.3987940847873688,-0.032092269510030746,-0.017118103802204132,-0.04274086281657219,0.43110254406929016,4.13671875,0,"['F2', 'B2', 'A1']",6.1,270,0,0.07800877288748931,[400|0|0]
400,0.6474279761314392,0.39766231179237366,-0.026928070932626724,-0.31526049971580505,-0.030951257795095444,0.7252888083457947,4.13671875,0,"['F2', 'B2', 'A1']",6.1,270,0,0.08331109027515046,[500|0|0]
500,0.6473132371902466,0.39735883474349976,-0.0273162592202425,-0.683879017829895,0.21828295290470123,0.7868689894676208,4.13671875,0,"['F2', 'B2', 'A1']",6.1,270,0,0.08381700873741615,[600|0|0]
600,0.6466366648674011,0.398276686668396,-0.02695685625076294,-0.9460082650184631,0.4864470660686493,0.7902470231056213,4.13671875,0,"['F2', 'B2', 'A1']",6.1,270,0,0.08501257252013415,[700|0|0]
700,0.646584153175354,0.3982078433036804,-0.026666777208447456,-0.9675505757331848,0.5869513750076294,0.7845416069030762,4.13671875,0,"['F2', 'B2', 'A1']",6.1,270,0,0.08531529803517654,[800|0|0]
800,0.646461546421051,0.39859193563461304,-0.02677568607032299,-0.9859355092048645,0.6387678980827332,0.7302742004394531,4.13671875,0,"['F2', 'B2', 'A1']",6.1,270,0,0.08573293480927215,[900|0|0]
900,0.6470156311988831,0.398935467004776,-0.0267343670129776,-0.9899353384971619,0.6087169647216797,0.7090158462524414,4.13671875,0,"['F2', 'B2', 'A1']",6.1,270,0,0.0863861813230869,[1000|0|0]
1000,0.6470778584480286,0.39794525504112244,-0.0271767545491457,-0.9000118374824524,0.639641284942627,0.6846579909324646,4.13671875,0,"['F2', 'B2', 'A1']",6.1,270,0,0.08747250479961484,[1100|0|0]
1100,0.6464667320251465,0.3984018564224243,-0.02721348963677883,-0.8611313104629517,0.675392746925354,0.6996378898620605,4.13671875,0,"['F2', 'B2', 'A1']",6.1,270,0,0.0882362520043985,[1200|0|0]
1200,0.6468085646629333,0.39801400899887085,-0.026970891281962395,-0.8003035187721252,0.6677955389022827,0.7018429040908813,4.13671875,0,"['F2', 'B2', 'A1']",6.1,270,0,0.08880732917779367,[1300|0|0]
1300,0.6464818120002747,0.3980664312839508,-0.0273665152490139,-0.7716382741928101,0.6807094216346741,0.6805588603019714,4.1328125,0,"['F2', 'B2', 'A1']",6.1,270,0,0.0893231137470017,[1400|0|0]
1400,0.6467670202255249,0.3986648619174957,-0.02666730061173439,-0.8765888810157776,0.5897731184959412,0.671036958694458,4.13671875,0,"['F2', 'B2', 'A1']",6.1,270,0,0.09028663025640946,[1500|0|0]
1500,0.6467278003692627,0.39851582050323486,-0.026625117287039757,-0.8272737860679626,0.6009919047355652,0.6491423845291138,4.13671875,0,"['F2', 'B2', 'A1']",6.1,270,0,0.09044641440196964,[1600|0|0]
1600,0.6467607021331787,0.39859867095947266,-0.027043480426073074,-0.7959917187690735,0.6130358576774597,0.6358407735824585,4.13671875,0,"['F2', 'B2', 'A1']",6.1,270,0,0.09087416951914465,[1700|0|0]
1700,0.6466377973556519,0.3981229066848755,-0.02713952027261257,-0.7603171467781067,0.6185168623924255,0.6568255424499512,4.13671875,0,"['F2', 'B2', 'A1']",6.1,270,0,0.09137484993762057,[1800|0|0]
1800,0.6464178562164307,0.398479700088501,-0.026882043108344078,-0.7508882880210876,0.6120239496231079,0.6496920585632324,4.13671875,0,"['F2', 'B2', 'A1']",6.1,270,0,0.09186675452970355,[1900|0|0]
1900,0.6470914483070374,0.3983520269393921,-0.027048446238040924,-0.7312615513801575,0.5941411256790161,0.6675968766212463,4.13671875,0,"['F2', 'B2', 'A1']",6.1,270,0,0.09257224495423402,[2000|0|0]
2000,0.6466426849365234,0.3982197046279907,-0.027117740362882614,-0.7160710692405701,0.6117280125617981,0.6662145853042603,4.13671875,0,"['F2', 'B2', 'A1']",6.1,270,0,0.09304521369796577,[2100|0|0]
2100,0.6466295719146729,0.39830639958381653,-0.02714535780251026,-0.7045391798019409,0.6157145500183105,0.6792581677436829,4.13671875,0,"['F2', 'B2', 'A1']",6.1,270,0,0.09313714133080421,[2200|0|0]
2200,0.6468963623046875,0.397819846868515,-0.027198296040296555,-0.6866224408149719,0.60636305809021,0.686257004737854,4.13671875,0,"['F2', 'B2', 'A1']",6.1,270,0,0.09369455779449304,[2300|0|0]
2300,0.6465386748313904,0.3980920910835266,-0.02686680108308792,-0.6937713027000427,0.6147552728652954,0.6751941442489624,4.13671875,0,"['F2', 'B2', 'A1']",6.1,270,0,0.0942530791887258,[2400|0|0]
2400,0.6469027400016785,0.39826932549476624,-0.026840588077902794,-0.6981369256973267,0.6010591387748718,0.6721545457839966,4.13671875,0,"['F2', 'B2', 'A1']",6.1,270,0,0.09465884094935041,[2500|0|0]
2500,0.64708012342453,0.3982667922973633,-0.026686765253543854,-0.6830785870552063,0.5947745442390442,0.6791375875473022,4.13671875,0,"['F2', 'B2', 'A1']",6.1,270,0,0.09489364460580699,[2600|0|0]
2600,0.6464404463768005,0.397868812084198,-0.026955366134643555,-0.659329354763031,0.6217783093452454,0.6612643003463745,4.13671875,0,"['F2', 'B2', 'A1']",6.1,270,0,0.09569347046734844,[2700|0|0]
2700,0.6464629769325256,0.39795124530792236,-0.02714374102652073,-0.6694225668907166,0.618753969669342,0.6479305624961853,4.13671875,0,"['F2', 'B2', 'A1']",6.1,270,0,0.09590032298051812,[2800|0|0]
2800,0.6468348503112793,0.3984595835208893,-0.027043236419558525,-0.6870020627975464,0.6021596193313599,0.6503884792327881,4.1328125,0,"['F2', 'B2', 'A1']",6.1,270,0,0.09653813072945873,[2900|0|0]
2900,0.6464318037033081,0.398212730884552,-0.027170579880475998,-0.6644415855407715,0.6243109107017517,0.6620571613311768,4.13671875,0,"['F2', 'B2', 'A1']",6.1,270,0,0.09702761939051452,[3000|0|0]
3000,0.6467824578285217,0.3983815908432007,-0.027238180860877037,-0.6598125100135803,0.6211785674095154,0.6583403944969177,4.13671875,0,"['F2', 'B2', 'A1']",6.1,270,0,0.0974226407743855,[3100|0|0]
3100,0.6466657519340515,0.39787253737449646,-0.02698667161166668,-0.6357618570327759,0.6324191093444824,0.6406219005584717,4.13671875,0,"['F2', 'B2', 'A1']",6.1,270,0,0.09800230671459784,[3200|0|0]
3200,0.6466463208198547,0.3980858027935028,-0.027270063757896423,-0.6355161070823669,0.6296567320823669,0.6353208422660828,4.13671875,0,"['F2', 'B2', 'A1']",6.1,270,0,0.09835751202943362,[3300|0|0]
3300,0.6468737721443176,0.39829355478286743,-0.026867954060435295,-0.6339213252067566,0.628551721572876,0.6396642327308655,4.1328125,0,"['F2', 'B2', 'A1']",6.1,270,0,0.09886405640347913,[3400|0|0]
3400,0.6469407081604004,0.39786529541015625,-0.027258777990937233,-0.6164239645004272,0.6223939061164856,0.6366114020347595,4.13671875,0,"['F2', 'B2', 'A1']",6.1,270,0,0.09944769144802065,[3500|0|0]
3500,0.6468372344970703,0.3980652093887329,-0.026722295209765434,-0.6228752732276917,0.6229698061943054,0.6236163377761841,4.13671875,0,"['F2', 'B2', 'A1']",6.1,270,0,0.10002948709283688,[3600|0|0]
3600,0.646659255027771,0.39791879057884216,-0.027039775624871254,-0.6231740117073059,0.6309582591056824,0.6277326345443726,4.13671875,0,"['F2', 'B2', 'A1']",6.1,270,0,0.100421799434419,[3700|0|0]
3700,0.6467984914779663,0.3979698419570923,-0.027322333306074142,-0.6227550506591797,0.6268218755722046,0.6488407850265503,4.13671875,0,"['F2', 'B2', 'A1']",6.1,270,0,0.10074091050519372,[3800|0|0]
3800,0.646752119064331,0.3980898857116699,-0.027008479461073875,-0.6234123110771179,0.6290304064750671,0.6401093006134033,4.1328125,0,"['F2', 'B2', 'A1']",6.1,270,0,0.1010801230341205,[3900|0|0]
3900,0.646886944770813,0.3981546461582184,-0.027128931134939194,-0.6235430240631104,0.6221631169319153,0.6300176978111267,4.13671875,0,"['F2', 'B2', 'A1']",6.1,270,0,0.1012721659780223,[4000|0|0]
4000,0.6471171379089355,0.3980065882205963,-0.027154404670000076,-0.6246276497840881,0.6113993525505066,0.6433067321777344,4.13671875,0,"['F2', 'B2', 'A1']",6.1,270,0,0.10154704583308649,[4100|0|0]
4100,0.6468389630317688,0.3983515799045563,-0.02661060355603695,-0.7293033003807068,0.553006649017334,0.625893771648407,4.13671875,0,"['F2', 'B2', 'A1']",6.1,270,0,0.10224855860975973,[4200|0|0]
4200,0.646791934967041,0.39836251735687256,-0.026779934763908386,-0.7120984196662903,0.5659523606300354,0.6276432871818542,4.13671875,0,"['F2', 'B2', 'A1']",6.1,270,0,0.10242463905925488,[4300|0|0]
4300,0.6466229557991028,0.3981917202472687,-0.02703193575143814,-0.7029927968978882,0.5759384632110596,0.6520071625709534,4.1328125,0,"['F2', 'B2', 'A1']",6.1,270,0,0.10277282020400874,[4400|0|0]
4400,0.6467934846878052,0.39827054738998413,-0.026850052177906036,-0.703762948513031,0.580402135848999,0.6543068885803223,4.13671875,0,"['F2', 'B2', 'A1']",6.1,270,0,0.10303430721062966,[4500|0|0]
4500,0.6466742157936096,0.39836931228637695,-0.027074865996837616,-0.7036111950874329,0.5848031044006348,0.6745165586471558,4.13671875,0,"['F2', 'B2', 'A1']",6.1,270,0,0.10330729224147332,[4600|0|0]
4600,0.6466655135154724,0.3982623815536499,-0.027151169255375862,-0.7017191648483276,0.5909069776535034,0.6650468111038208,4.13671875,0,"['F2', 'B2', 'A1']",6.1,270,0,0.10343894366953195,[4700|0|0]
4700,0.6471317410469055,0.398222953081131,-0.026999639347195625,-0.700808048248291,0.5772408246994019,0.6484155058860779,4.13671875,0,"['F2', 'B2', 'A1']",6.1,270,0,0.1039307607377438,[4800|0|0]
4800,0.6469229459762573,0.3983237147331238,-0.027081076055765152,-0.7039415240287781,0.5840238928794861,0.6550418138504028,4.1328125,0,"['F2', 'B2', 'A1']",6.1,270,0,0.10417648462657421,[4900|0|0]
4900,0.6463337540626526,0.39834579825401306,-0.027179643511772156,-0.7086419463157654,0.5916760563850403,0.6637159585952759,4.13671875,0,"['F2', 'B2', 'A1']",6.1,270,0,0.10477427249558442,[5000|0|0]
5000,0.646837055683136,0.3984276056289673,-0.027247395366430283,-0.7077318429946899,0.5788751244544983,0.6871979832649231,4.13671875,0,"['F2', 'B2', 'A1']",6.1,270,0,0.10528866075515858,[5100|0|0]
5100,0.646866500377655,0.39821818470954895,-0.026667743921279907,-0.7020441889762878,0.5800027251243591,0.6953181028366089,4.13671875,0,"['F2', 'B2', 'A1']",6.1,270,0,0.10590568580277841,[5200|0|0]
5200,0.6470988392829895,0.3980334401130676,-0.026877064257860184,-0.70486980676651,0.574016273021698,0.6770082116127014,4.13671875,0,"['F2', 'B2', 'A1']",6.1,270,0,0.10626890328056156,[5300|0|0]
5300,0.64679354429245,0.39832228422164917,-0.02655867114663124,-0.709181547164917,0.5790133476257324,0.6918460726737976,4.1328125,0,"['F2', 'B2', 'A1']",6.1,270,0,0.10679616993377306,[5400|0|0]
5400,0.6465957760810852,0.3980162739753723,-0.026809627190232277,-0.6987686157226562,0.5832048058509827,0.6935331225395203,4.13671875,0,"['F2', 'B2', 'A1']",6.1,270,0,0.10723858769118422,[5500|0|0]
5500,0.6466574668884277,0.3981388211250305,-0.026728468015789986,-0.700343906879425,0.5802894830703735,0.6689704060554504,4.13671875,0,"['F2', 'B2', 'A1']",6.1,270,0,0.10739799399970454,[5600|0|0]
5600,0.6465587019920349,0.3979552090167999,-0.026884770020842552,-0.6934183239936829,0.5803622007369995,0.6482136845588684,4.13671875,0,"['F2', 'B2', 'A1']",6.1,270,0,0.10765856688361962,[5700|0|0]
5700,0.6465517282485962,0.3981347382068634,-0.026920346543192863,-0.6932332515716553,0.5838656425476074,0.6502524614334106,4.13671875,0,"['F2', 'B2', 'A1']",6.1,270,0,0.10784171996747283,[5800|0|0]
5800,0.6468085646629333,0.39788296818733215,-0.026896577328443527,-0.6861178278923035,0.5721032619476318,0.6511577367782593,4.1328125,0,"['F2', 'B2', 'A1']",6.1,270,0,0.10820216144959459,[5900|0|0]
5900,0.6469155550003052,0.3980809450149536,-0.026982365176081657,-0.6929985880851746,0.5657240748405457,0.6393871307373047,4.13671875,0,"['F2', 'B2', 'A1']",6.1,270,0,0.10844299606373545,[6000|0|0]
6000,0.6473142504692078,0.39801138639450073,-0.02706490084528923,-0.6893189549446106,0.5579541921615601,0.6528970003128052,4.13671875,0,"['F2', 'B2', 'A1']",6.1,270,0,0.10885604402135575,[6100|0|0]
6100,0.6465144157409668,0.3979932367801666,-0.026831844821572304,-0.6896445751190186,0.5746375322341919,0.6482222080230713,4.13671875,0,"['F2', 'B2', 'A1']",6.1,270,0,0.10968933875384332,[6200|0|0]
6200,0.6463961005210876,0.3986407220363617,-0.02711433358490467,-0.7067631483078003,0.5699425339698792,0.6488933563232422,4.13671875,0,"['F2', 'B2', 'A1']",6.1,270,0,0.11040560375344478,[6300|0|0]
6300,0.6465674638748169,0.39839714765548706,-0.02705688774585724,-0.7032580375671387,0.5636022686958313,0.6748440265655518,4.1328125,0,"['F2', 'B2', 'A1']",6.1,270,0,0.11070890871951633,[6400|0|0]
6400,0.6468237042427063,0.3984433114528656,-0.026831630617380142,-0.7095264196395874,0.5561611652374268,0.6725061535835266,4.13671875,0,"['F2', 'B2', 'A1']",6.1,270,0,0.11105319202764243,[6500|0|0]
6500,0.6466050148010254,0.39808329939842224,-0.02723119407892227,-0.7050303816795349,0.5668097734451294,0.681057870388031,4.13671875,0,"['F2', 'B2', 'A1']",6.1,270,0,0.11163378199573244,[6600|0|0]
6600,0.6467724442481995,0.3978523313999176,-0.027241647243499756,-0.7006579041481018,0.5644556879997253,0.6918160319328308,4.13671875,0,"['F2', 'B2', 'A1']",6.1,270,0,0.11191924320984732,[6700|0|0]
6700,0.6467952728271484,0.3977901041507721,-0.027159443125128746,-0.701447606086731,0.562876284122467,0.6903332471847534,4.13671875,0,"['F2', 'B2', 'A1']",6.1,270,0,0.112024840992164,[6800|0|0]
6800,0.6467346549034119,0.3978014588356018,-0.02719368226826191,-0.7024022340774536,0.5621486902236938,0.6787164211273193,4.1328125,0,"['F2', 'B2', 'A1']",6.1,270,0,0.11209538020443781,[6900|0|0]
6900,0.6467347145080566,0.3982142508029938,-0.02715154178440571,-0.7098881602287292,0.5672441124916077,0.6962556838989258,4.13671875,0,"['F2', 'B2', 'A1']",6.1,270,0,0.11251031758799789,[7000|0|0]
7000,0.6467265486717224,0.3981444835662842,-0.026995019987225533,-0.7006598114967346,0.5674465298652649,0.6767038106918335,4.13671875,0,"['F2', 'B2', 'A1']",6.1,270,0,0.11268187871760958,[7100|0|0]
7100,0.6470440030097961,0.3976290822029114,-0.027310770004987717,-0.6919937133789062,0.5579007863998413,0.6590207815170288,4.1328125,0,"['F2', 'B2', 'A1']",6.1,270,0,0.11336460406197962,[7200|0|0]
7200,0.6468687057495117,0.39783310890197754,-0.02705545350909233,-0.7026956081390381,0.5675598978996277,0.666733980178833,4.13671875,0,"['F2', 'B2', 'A1']",6.1,270,0,0.1137354713380655,[7300|0|0]
7300,0.6469677090644836,0.3977396786212921,-0.02732234075665474,-0.7004227638244629,0.5675784349441528,0.6571574211120605,4.1328125,0,"['F2', 'B2', 'A1']",6.1,270,0,0.11403507053138187,[7400|0|0]
7400,0.6466655135154724,0.3982328176498413,-0.027385730296373367,-0.7118983268737793,0.5731663107872009,0.6704506874084473,4.13671875,0,"['F2', 'B2', 'A1']",6.1,270,0,0.11461690082026892,[7500|0|0]
7500,0.6467183232307434,0.3979475796222687,-0.026950737461447716,-0.7046802639961243,0.568917989730835,0.6685870289802551,4.13671875,0,"['F2', 'B2', 'A1']",6.1,270,0,0.11513974722681407,[7600|0|0]
7600,0.6464353799819946,0.3979860842227936,-0.027046119794249535,-0.6876025199890137,0.5772855877876282,0.6572710275650024,4.13671875,0,"['F2', 'B2', 'A1']",6.1,270,0,0.1154408074793962,[7700|0|0]
7700,0.647045910358429,0.3979034125804901,-0.0272703655064106,-0.666990339756012,0.5648157000541687,0.6691536903381348,4.13671875,0,"['F2', 'B2', 'A1']",6.1,270,0,0.11609645073636816,[7800|0|0]
7800,0.6466453075408936,0.3980123698711395,-0.027128323912620544,-0.6557947993278503,0.5864208340644836,0.6770046949386597,4.1328125,0,"['F2', 'B2', 'A1']",6.1,270,0,0.11653523328270449,[7900|0|0]
7900,0.6464624404907227,0.3979511559009552,-0.027028672397136688,-0.645537257194519,0.5985769629478455,0.6777237057685852,4.13671875,0,"['F2', 'B2', 'A1']",6.1,270,0,0.11675229993772585,[8000|0|0]
8000,0.6464606523513794,0.3981105387210846,-0.0273541621863842,-0.6512911319732666,0.6017671227455139,0.6618514657020569,4.13671875,0,"['F2', 'B2', 'A1']",6.1,270,0,0.11711472190684348,[8100|0|0]
8100,0.6468453407287598,0.39766016602516174,-0.02721785567700863,-0.639210045337677,0.5942670702934265,0.6490330100059509,4.13671875,0,"['F2', 'B2', 'A1']",6.1,270,0,0.11772250490876317,[8200|0|0]
8200,0.6470432281494141,0.397491991519928,-0.02723442018032074,-0.6371285915374756,0.5944045186042786,0.6466551423072815,4.13671875,0,"['F2', 'B2', 'A1']",6.1,270,0,0.11798272880896031,[8300|0|0]
8300,0.6470919251441956,0.3977527916431427,-0.027347318828105927,-0.6420875787734985,0.59844970703125,0.6432019472122192,4.1328125,0,"['F2', 'B2', 'A1']",6.1,270,0,0.11827105883903224,[8400|0|0]
8400,0.6466765403747559,0.397870272397995,-0.02748633176088333,-0.6448203325271606,0.6143421530723572,0.6575254201889038,4.13671875,0,"['F2', 'B2', 'A1']",6.1,270,0,0.11872456829860559,[8500|0|0]
8500,0.646678626537323,0.39768704771995544,-0.026903830468654633,-0.6393502950668335,0.619498074054718,0.6588180661201477,4.13671875,0,"['F2', 'B2', 'A1']",6.1,270,0,0.1193352100840781,[8600|0|0]
8600,0.6468014717102051,0.3979339599609375,-0.027132833376526833,-0.6477395296096802,0.6148889660835266,0.6540130972862244,4.1328125,0,"['F2', 'B2', 'A1']",6.1,270,0,0.11969367754851683,[8700|0|0]
8700,0.6468677520751953,0.39788660407066345,-0.027110988274216652,-0.6499298810958862,0.6087961196899414,0.6543045043945312,4.13671875,0,"['F2', 'B2', 'A1']",6.1,270,0,0.1197780154144006,[8800|0|0]
8800,0.6466701030731201,0.39777499437332153,-0.027043739333748817,-0.6443941593170166,0.61613529920578,0.656220555305481,4.1328125,0,"['F2', 'B2', 'A1']",6.1,270,0,0.12001475213009151,[8900|0|0]
8900,0.6469120979309082,0.39782822132110596,-0.02709420770406723,-0.6433280110359192,0.6158386468887329,0.6662829518318176,4.1328125,0,"['F2', 'B2', 'A1']",6.1,270,0,0.1202676190428518,[9000|0|0]
9000,0.6467407941818237,0.3980764150619507,-0.02698070928454399,-0.654928982257843,0.6232227683067322,0.641366720199585,4.1328125,0,"['F2', 'B2', 'A1']",6.1,270,0,0.12058984101398221,[9100|0|0]
9100,0.6469787359237671,0.3980880677700043,-0.027262961491942406,-0.6589655876159668,0.6171333193778992,0.6504231691360474,4.13671875,0,"['F2', 'B2', 'A1']",6.1,270,0,0.12095918958477313,[9200|0|0]
9200,0.6468605399131775,0.3980153203010559,-0.02695458196103573,-0.6560729742050171,0.6177365779876709,0.6566557288169861,4.13671875,0,"['F2', 'B2', 'A1']",6.1,270,0,0.12129736176908153,[9300|0|0]
9300,0.6471292972564697,0.3979264199733734,-0.026952829211950302,-0.652237057685852,0.6120302081108093,0.6578729152679443,4.1328125,0,"['F2', 'B2', 'A1']",6.1,270,0,0.12158044629703195,[9400|0|0]
9400,0.6465538740158081,0.3980088531970978,-0.027308804914355278,-0.6618653535842896,0.6265103816986084,0.6641952395439148,4.13671875,0,"['F2', 'B2', 'A1']",6.1,270,0,0.12226208098142663,[9500|0|0]
9500,0.6467500329017639,0.39790982007980347,-0.02681533806025982,-0.6540653109550476,0.6169508099555969,0.6725717782974243,4.13671875,0,"['F2', 'B2', 'A1']",6.1,270,0,0.12280226187978506,[9600|0|0]
9600,0.6466631293296814,0.3976636528968811,-0.027289966121315956,-0.6469737887382507,0.6198456883430481,0.6418290138244629,4.13671875,0,"['F2', 'B2', 'A1']",6.1,270,0,0.1233439465750927,[9700|0|0]
9700,0.6467155814170837,0.3977887034416199,-0.027402503415942192,-0.6463884115219116,0.6154351830482483,0.6503724455833435,4.13671875,0,"['F2', 'B2', 'A1']",6.1,270,0,0.12352016661621777,[9800|0|0]
9800,0.6469019651412964,0.3978644907474518,-0.026904722675681114,-0.6408430933952332,0.6050141453742981,0.6645876169204712,4.1328125,0,"['F2', 'B2', 'A1']",6.1,270,0,0.12405707282194788,[9900|0|0]
9900,0.6467839479446411,0.3980157673358917,-0.02724163420498371,-0.6406646370887756,0.6129018664360046,0.6490952968597412,4.13671875,0,"['F2', 'B2', 'A1']",6.1,270,0,0.12444478669001738,[10000|0|0]
10000,0.6466461420059204,0.39776134490966797,-0.027093667536973953,-0.6367146968841553,0.6165770292282104,0.6510759592056274,4.13671875,0,"['F2', 'B2', 'A1']",6.1,270,0,0.12476977189361008,[10100|0|0]
10100,0.6467884182929993,0.39800935983657837,-0.02707778848707676,-0.6462052464485168,0.6065254211425781,0.6624767780303955,4.13671875,0,"['F2', 'B2', 'A1']",6.1,270,0,0.12505613894838585,[10200|0|0]
10200,0.6463742852210999,0.39771828055381775,-0.027110140770673752,-0.6455345749855042,0.6202970147132874,0.6559011340141296,4.13671875,0,"['F2', 'B2', 'A1']",6.1,270,0,0.12556336672793586,[10300|0|0]
10300,0.64695805311203,0.39774274826049805,-0.027093546465039253,-0.644964337348938,0.6036604642868042,0.6587124466896057,4.1328125,0,"['F2', 'B2', 'A1']",6.1,270,0,0.12614788275862343,[10400|0|0]
10400,0.6469119787216187,0.3978915512561798,-0.02683335170149803,-0.6564605236053467,0.6044912934303284,0.6634003520011902,4.13671875,0,"['F2', 'B2', 'A1']",6.1,270,0,0.12645114254156525,[10500|0|0]
10500,0.647207498550415,0.39788588881492615,-0.027033720165491104,-0.6644808650016785,0.5930497050285339,0.674096405506134,4.13671875,0,"['F2', 'B2', 'A1']",6.1,270,0,0.12680823014120396,[10600|0|0]
10600,0.6437949538230896,0.3934873640537262,-0.029540903866291046,-0.5206423401832581,0.7151784896850586,0.6340973377227783,4.13671875,0,"['F2', 'B2', 'A1']",6.1,270,0,0.13291383835828133,[10700|0|0]
10700,0.6436078548431396,0.3933919668197632,-0.02941424772143364,-0.5160811543464661,0.7221671938896179,0.6113965511322021,4.13671875,0,"['F2', 'B2', 'A1']",6.1,270,0,0.1331590901464017,[10800|0|0]
10800,0.6437738537788391,0.39378079771995544,-0.02927308902144432,-0.5976486802101135,0.6690437197685242,0.632247269153595,4.1328125,0,"['F2', 'B2', 'A1']",6.1,270,0,0.13360481527939327,[10900|0|0]
10900,0.6468952894210815,0.398073673248291,-0.027401071041822433,-0.6688840389251709,0.6082760095596313,0.646428644657135,4.13671875,0,"['F2', 'B2', 'A1']",6.1,270,0,0.1392330114457037,[11000|0|0]
11000,0.6471419930458069,0.3981795310974121,-0.027420800179243088,-0.6584169268608093,0.6080007553100586,0.6497021913528442,4.1328125,0,"['F2', 'B2', 'A1']",6.1,270,0,0.13950219131407526,[11100|0|0]
11100,0.6438022255897522,0.3932938277721405,-0.02929167076945305,-0.5481099486351013,0.6890698075294495,0.6307463049888611,4.1328125,0,"['F2', 'B2', 'A1']",6.1,270,0,0.14570898601088977,[11200|0|0]
11200,0.6433771252632141,0.39367106556892395,-0.02916383557021618,-0.560698926448822,0.7119051814079285,0.6234175562858582,4.13671875,0,"['F2', 'B2', 'A1']",6.1,270,0,0.14629153255933783,[11300|0|0]
11300,0.6434944272041321,0.39349234104156494,-0.029256822541356087,-0.5535795092582703,0.7086186408996582,0.6167303919792175,4.1328125,0,"['F2', 'B2', 'A1']",6.1,270,0,0.14652466080478355,[11400|0|0]
11400,0.6435484290122986,0.39372560381889343,-0.02919035032391548,-0.5565500259399414,0.7045045495033264,0.6243494749069214,4.13671875,0,"['F2', 'B2', 'A1']",6.1,270,0,0.1467731487808784,[11500|0|0]
11500,0.6434286236763,0.3936215043067932,-0.02921028807759285,-0.6032159924507141,0.6710888147354126,0.6245695352554321,4.13671875,0,"['F2', 'B2', 'A1']",6.1,270,0,0.14693310984168673,[11600|0|0]
11600,0.643604576587677,0.3938397467136383,-0.029049301519989967,-0.5958051085472107,0.6708590388298035,0.6571860909461975,4.13671875,0,"['F2', 'B2', 'A1']",6.1,270,0,0.14725638348258,[11700|0|0]
11700,0.6436495184898376,0.39366263151168823,-0.029181696474552155,-0.5775975584983826,0.6795472502708435,0.6684087514877319,4.13671875,0,"['F2', 'B2', 'A1']",6.1,270,0,0.1474820336395158,[11800|0|0]
11800,0.6433188319206238,0.3938528001308441,-0.029200753197073936,-0.5714864730834961,0.6915813684463501,0.690597653388977,4.1328125,0,"['F2', 'B2', 'A1']",6.1,270,0,0.14786397718173555,[11900|0|0]
11900,0.6435684561729431,0.3935261368751526,-0.029305974021553993,-0.5610550045967102,0.6881413459777832,0.6725227236747742,4.1328125,0,"['F2', 'B2', 'A1']",6.1,270,0,0.14828835033341842,[12000|0|0]
12000,0.6433624029159546,0.3935853838920593,-0.029209597036242485,-0.5662490725517273,0.6911365985870361,0.6706441640853882,4.13671875,0,"['F2', 'B2', 'A1']",6.1,270,0,0.1485234177216833,[12100|0|0]
12100,0.6433840394020081,0.39398157596588135,-0.02938424050807953,-0.5635978579521179,0.6891435980796814,0.6584312915802002,4.1328125,0,"['F2', 'B2', 'A1']",6.1,270,0,0.14895693431784016,[12200|0|0]
12200,0.6433393955230713,0.39355865120887756,-0.0292672012001276,-0.5467679500579834,0.6928942203521729,0.6471787691116333,4.13671875,0,"['F2', 'B2', 'A1']",6.1,270,0,0.1493980200528386,[12300|0|0]
12300,0.6433470249176025,0.3936365842819214,-0.029446415603160858,-0.5472621321678162,0.6940996646881104,0.632160484790802,4.1328125,0,"['F2', 'B2', 'A1']",6.1,270,0,0.1495935950353633,[12400|0|0]
12401,0.6434518098831177,0.39344415068626404,-0.028980813920497894,-0.5461320281028748,0.68853360414505,0.6320046782493591,4.13671875,0,"['F2', 'B2', 'A1']",6.1,270,0,0.15010817788062167,[12500|0|0]
12501,0.6435800194740295,0.3933226764202118,-0.0295406524091959,-0.5553338527679443,0.6772477626800537,0.6107756495475769,4.1328125,0,"['F2', 'B2', 'A1']",6.1,270,0,0.15069521521328663,[12600|0|0]
12601,0.6434982419013977,0.3933950364589691,-0.029250649735331535,-0.5307731628417969,0.7012697458267212,0.6259668469429016,4.13671875,0,"['F2', 'B2', 'A1']",6.1,270,0,0.15100509437916101,[12700|0|0]
12701,0.6432468891143799,0.39346104860305786,-0.029340209439396858,-0.5266563892364502,0.7114934921264648,0.6155397891998291,4.13671875,0,"['F2', 'B2', 'A1']",6.1,270,0,0.15127997029171264,[12800|0|0]
12801,0.6431888937950134,0.39377543330192566,-0.02954835072159767,-0.5247493982315063,0.7178441286087036,0.6210496425628662,4.1328125,0,"['F2', 'B2', 'A1']",6.1,270,0,0.15166144635820544,[12900|0|0]
12901,0.6431713104248047,0.39325982332229614,-0.029402226209640503,-0.5048701763153076,0.7172697186470032,0.620505690574646,4.1328125,0,"['F2', 'B2', 'A1']",6.1,270,0,0.1521976507958933,[13000|0|0]
13001,0.6433923244476318,0.39342617988586426,-0.029514504596590996,-0.5033115148544312,0.7215744853019714,0.6369386315345764,4.13671875,0,"['F2', 'B2', 'A1']",6.1,270,0,0.15249619416075785,[13100|0|0]
13101,0.6435871124267578,0.39322376251220703,-0.02904951013624668,-0.5019451975822449,0.722088634967804,0.6411435008049011,4.1328125,0,"['F2', 'B2', 'A1']",6.1,270,0,0.15303945744694714,[13200|0|0]
13201,0.643482506275177,0.39341625571250916,-0.029138093814253807,-0.506523072719574,0.7282535433769226,0.6481779217720032,4.13671875,0,"['F2', 'B2', 'A1']",6.1,270,0,0.1532757689936823,[13300|0|0]
13301,0.6435718536376953,0.3931773602962494,-0.029236605390906334,-0.4998418688774109,0.7323806285858154,0.6554642915725708,4.1328125,0,"['F2', 'B2', 'A1']",6.1,270,0,0.15354918900361844,[13400|0|0]
13402,0.6435956954956055,0.3934531807899475,-0.029108382761478424,-0.5050817728042603,0.7309373021125793,0.662379801273346,4.1328125,0,"['F2', 'B2', 'A1']",6.1,270,0,0.1538542896781996,[13500|0|0]
13502,0.6437107920646667,0.3936053216457367,-0.029228603467345238,-0.5038214325904846,0.7260622978210449,0.6457736492156982,4.1328125,0,"['F2', 'B2', 'A1']",6.1,270,0,0.15407978264556013,[13600|0|0]
13602,0.6434513330459595,0.3932470977306366,-0.029324045404791832,-0.5018491744995117,0.7167659401893616,0.6396936178207397,4.13671875,0,"['F2', 'B2', 'A1']",6.1,270,0,0.15453227852306814,[13700|0|0]
13700,0.6437631249427795,0.3936499059200287,-0.029580458998680115,-0.5226046442985535,0.6986777186393738,0.6407259702682495,4.1328125,0,"['F2', 'B2', 'A1']",6.1,270,0,0.15510255613572244,[13800|0|0]
13800,0.6434531807899475,0.393577516078949,-0.029204072430729866,-0.5304882526397705,0.7026774287223816,0.6277693510055542,4.1328125,0,"['F2', 'B2', 'A1']",6.1,270,0,0.15559547855913172,[13900|0|0]
13902,0.6438671946525574,0.3933219611644745,-0.029471928253769875,-0.5374939441680908,0.6844682097434998,0.619236946105957,4.13671875,0,"['F2', 'B2', 'A1']",6.1,270,0,0.15615087259464314,[14000|0|0]
14002,0.6435084939002991,0.39352402091026306,-0.029007872566580772,-0.5519754886627197,0.6886425018310547,0.6149178743362427,4.1328125,0,"['F2', 'B2', 'A1']",6.1,270,0,0.15677122898523757,[14100|0|0]
14102,0.6437625288963318,0.3935566544532776,-0.0291980542242527,-0.6066975593566895,0.6454567313194275,0.6138260960578918,4.1328125,0,"['F2', 'B2', 'A1']",6.1,270,0,0.15709023962809116,[14200|0|0]
14202,0.6432604193687439,0.393941730260849,-0.029250027611851692,-0.601503849029541,0.672644317150116,0.6055671572685242,4.1328125,0,"['F2', 'B2', 'A1']",6.1,270,0,0.15772514008350902,[14300|0|0]
14300,0.6437219977378845,0.3937223255634308,-0.029305623844265938,-0.5873702764511108,0.6631249785423279,0.6008626222610474,4.1328125,0,"['F2', 'B2', 'A1']",6.1,270,0,0.1582392256339443,[14400|0|0]
14400,0.6433888673782349,0.3934701383113861,-0.029133759438991547,-0.5813849568367004,0.6776996850967407,0.5762540102005005,4.1328125,0,"['F2', 'B2', 'A1']",6.1,270,0,0.15869101277454756,[14500|0|0]
14500,0.6435982584953308,0.39363211393356323,-0.02903551608324051,-0.5813111662864685,0.6723825931549072,0.5837273597717285,4.13671875,0,"['F2', 'B2', 'A1']",6.1,270,0,0.15897338221171733,[14600|0|0]
14600,0.6431140303611755,0.3930046558380127,-0.029444338753819466,-0.4665207266807556,0.7513519525527954,0.5776427984237671,4.1328125,0,"['F2', 'B2', 'A1']",6.1,270,0,0.1598651874166577,[14700|0|0]
14700,0.6435946226119995,0.39339783787727356,-0.02963189221918583,-0.4960573613643646,0.7338305711746216,0.5735479593276978,4.1328125,0,"['F2', 'B2', 'A1']",6.1,270,0,0.16051383009943485,[14800|0|0]
14800,0.6437863111495972,0.39320018887519836,-0.029210077598690987,-0.5022409558296204,0.71977698802948,0.6015334725379944,4.1328125,0,"['F2', 'B2', 'A1']",6.1,270,0,0.1610175534337473,[14900|0|0]
14900,0.6434422135353088,0.3932185769081116,-0.029510319232940674,-0.5113356113433838,0.7260512113571167,0.6156788468360901,4.1328125,0,"['F2', 'B2', 'A1']",6.1,270,0,0.16147459427092736,[15000|0|0]
15000,0.6434270143508911,0.39350518584251404,-0.029431771486997604,-0.5186150670051575,0.7204688191413879,0.632522702217102,4.1328125,0,"['F2', 'B2', 'A1']",6.1,270,0,0.1617721601373822,[15100|0|0]
15100,0.643660843372345,0.3931209146976471,-0.029498668387532234,-0.5165664553642273,0.7131784558296204,0.6132699251174927,4.13671875,0,"['F2', 'B2', 'A1']",6.1,270,0,0.16222692988060677,[15200|0|0]
15200,0.6436164975166321,0.3932991027832031,-0.029252108186483383,-0.5260518789291382,0.7144859433174133,0.6059920787811279,4.13671875,0,"['F2', 'B2', 'A1']",6.1,270,0,0.16253435382485035,[15300|0|0]
15300,0.6434276700019836,0.39338406920433044,-0.029386641457676888,-0.5265087485313416,0.7185490131378174,0.6046023368835449,4.1328125,0,"['F2', 'B2', 'A1']",6.1,270,0,0.162781283620674,[15400|0|0]
15400,0.6436741948127747,0.39370763301849365,-0.029386261478066444,-0.53327876329422,0.7193635702133179,0.5898940563201904,4.13671875,0,"['F2', 'B2', 'A1']",6.1,270,0,0.16318806140836145,[15500|0|0]
15500,0.6433636546134949,0.393787682056427,-0.029438167810440063,-0.5324195027351379,0.7258893251419067,0.5832363367080688,4.1328125,0,"['F2', 'B2', 'A1']",6.1,270,0,0.16351292650526056,[15600|0|0]
15600,0.6434429287910461,0.3933134973049164,-0.02944483794271946,-0.5209739208221436,0.7202621698379517,0.6036165356636047,4.1328125,0,"['F2', 'B2', 'A1']",6.1,270,0,0.1639937383857879,[15700|0|0]
15700,0.643631100654602,0.39329686760902405,-0.029325302690267563,-0.5172286629676819,0.7110083699226379,0.6186996102333069,4.1328125,0,"['F2', 'B2', 'A1']",6.1,270,0,0.16421728675549413,[15800|0|0]
15800,0.6435719132423401,0.3937985301017761,-0.029545104131102562,-0.606282651424408,0.6619537472724915,0.6448171138763428,4.1328125,0,"['F2', 'B2', 'A1']",6.1,270,0,0.16476817792423587,[15900|0|0]
15900,0.6435660123825073,0.3935626149177551,-0.02922278270125389,-0.5865859985351562,0.6687065958976746,0.6286887526512146,4.1328125,0,"['F2', 'B2', 'A1']",6.1,270,0,0.16516765495528787,[16000|0|0]
16000,0.6436319351196289,0.3935168385505676,-0.029312942177057266,-0.5688074827194214,0.6779571771621704,0.6184942126274109,4.13671875,0,"['F2', 'B2', 'A1']",6.1,270,0,0.1652883612688743,[16100|0|0]
16100,0.6439928412437439,0.39326682686805725,-0.029425108805298805,-0.5594580173492432,0.6750679612159729,0.6293055415153503,4.1328125,0,"['F2', 'B2', 'A1']",6.1,270,0,0.16574150630559703,[16200|0|0]
16200,0.6436723470687866,0.39328059554100037,-0.02937595546245575,-0.557131290435791,0.6852595806121826,0.6335107088088989,4.1328125,0,"['F2', 'B2', 'A1']",6.1,270,0,0.1660660400382795,[16300|0|0]
16300,0.6433176398277283,0.393825888633728,-0.02926810085773468,-0.562915563583374,0.6928887963294983,0.6389901638031006,4.1328125,0,"['F2', 'B2', 'A1']",6.1,270,0,0.16672542945250698,[16400|0|0]
16400,0.6437582969665527,0.3937552571296692,-0.029221784323453903,-0.5576619505882263,0.6839350461959839,0.6267232894897461,4.1328125,0,"['F2', 'B2', 'A1']",6.1,270,0,0.16717410834070026,[16500|0|0]
16500,0.6435756683349609,0.39375391602516174,-0.029116464778780937,-0.6137241125106812,0.6500359773635864,0.6329078078269958,4.1328125,0,"['F2', 'B2', 'A1']",6.1,270,0,0.16738493343913144,[16600|0|0]
16600,0.6435165405273438,0.39388102293014526,-0.02913949266076088,-0.5959898233413696,0.6594297289848328,0.6537578105926514,4.1328125,0,"['F2', 'B2', 'A1']",6.1,270,0,0.167526998727913,[16700|0|0]
16700,0.6435996890068054,0.3934535086154938,-0.028906092047691345,-0.5816823244094849,0.6712458729743958,0.6488821506500244,4.1328125,0,"['F2', 'B2', 'A1']",6.1,270,0,0.1680211221993753,[16800|0|0]
16800,0.643511176109314,0.3935035169124603,-0.028971368446946144,-0.5713823437690735,0.6716437935829163,0.6340427994728088,4.1328125,0,"['F2', 'B2', 'A1']",6.1,270,0,0.16814193764163124,[16900|0|0]
16900,0.6439907550811768,0.3934059143066406,-0.029318876564502716,-0.5614407062530518,0.6695918440818787,0.6340786814689636,4.1328125,0,"['F2', 'B2', 'A1']",6.1,270,0,0.16874217438716044,[17000|0|0]
17000,0.6432881951332092,0.39368578791618347,-0.029408063739538193,-0.5691130757331848,0.6960676312446594,0.6445453763008118,4.1328125,0,"['F2', 'B2', 'A1']",6.1,270,0,0.1695036690161615,[17100|0|0]
17100,0.6436843872070312,0.3934127390384674,-0.029159724712371826,-0.5599706172943115,0.6826910376548767,0.6288161277770996,4.1328125,0,"['F2', 'B2', 'A1']",6.1,270,0,0.1700451448894886,[17200|0|0]
17200,0.6435326933860779,0.3936239778995514,-0.029146140441298485,-0.5654494166374207,0.6844598650932312,0.6337890625,4.13671875,0,"['F2', 'B2', 'A1']",6.1,270,0,0.1703055626388224,[17300|0|0]
17300,0.6434358954429626,0.39368975162506104,-0.02918677218258381,-0.5617216229438782,0.6837784647941589,0.6212544441223145,4.1328125,0,"['F2', 'B2', 'A1']",6.1,270,0,0.1704294454994555,[17400|0|0]
17400,0.6436660289764404,0.3936616778373718,-0.02895245887339115,-0.5618941187858582,0.6706710457801819,0.6318483352661133,4.1328125,0,"['F2', 'B2', 'A1']",6.1,270,0,0.1707590699943751,[17500|0|0]
17500,0.6436553597450256,0.3935188949108124,-0.02917122282087803,-0.5336096882820129,0.6868225932121277,0.6390674114227295,4.13671875,0,"['F2', 'B2', 'A1']",6.1,270,0,0.1710205245054012,[17600|0|0]
17600,0.6435033082962036,0.39358794689178467,-0.029258808121085167,-0.5241808891296387,0.7103486061096191,0.6273086071014404,4.1328125,0,"['F2', 'B2', 'A1']",6.1,270,0,0.1712090954575053,[17700|0|0]
17700,0.6437146067619324,0.3937060534954071,-0.029325325042009354,-0.514926016330719,0.7103415727615356,0.619202733039856,4.1328125,0,"['F2', 'B2', 'A1']",6.1,270,0,0.1714601347217804,[17800|0|0]
17800,0.6435965895652771,0.3934914767742157,-0.029408704489469528,-0.4978596568107605,0.7227306962013245,0.6100677251815796,4.1328125,0,"['F2', 'B2', 'A1']",6.1,270,0,0.17171883021892403,[17900|0|0]
17900,0.6432542204856873,0.3937048017978668,-0.029516607522964478,-0.4966368079185486,0.7372531294822693,0.6010649800300598,4.1328125,0,"['F2', 'B2', 'A1']",6.1,270,0,0.17213640322692667,[18000|0|0]
18000,0.6437873244285583,0.3934343159198761,-0.02931801602244377,-0.47330015897750854,0.7176476120948792,0.6101449728012085,4.1328125,0,"['F2', 'B2', 'A1']",6.1,270,0,0.17276632465708774,[18100|0|0]
18100,0.6436002254486084,0.39358094334602356,-0.029533181339502335,-0.5560788512229919,0.6663885712623596,0.6203780174255371,4.1328125,0,"['F2', 'B2', 'A1']",6.1,270,0,0.17308695176770358,[18200|0|0]
18200,0.6434537172317505,0.3936185836791992,-0.029251184314489365,-0.5466752648353577,0.6881399750709534,0.6204714179039001,4.1328125,0,"['F2', 'B2', 'A1']",6.1,270,0,0.17340695766515646,[18300|0|0]
18300,0.6432851552963257,0.39369997382164,-0.02916877157986164,-0.5445049405097961,0.697723925113678,0.6079080104827881,4.1328125,0,"['F2', 'B2', 'A1']",6.1,270,0,0.17361147988935108,[18400|0|0]
18400,0.6435354948043823,0.3937450349330902,-0.029356753453612328,-0.5418571829795837,0.6987786293029785,0.6167944073677063,4.1328125,0,"['F2', 'B2', 'A1']",6.1,270,0,0.1739277670340756,[18500|0|0]
18500,0.6437045335769653,0.3934800326824188,-0.02892697975039482,-0.5898725986480713,0.6595093607902527,0.615286648273468,4.1328125,0,"['F2', 'B2', 'A1']",6.1,270,0,0.17446021960048366,[18600|0|0]
18600,0.6437218189239502,0.3933357298374176,-0.02905876748263836,-0.5827561616897583,0.667076587677002,0.6139417886734009,4.1328125,0,"['F2', 'B2', 'A1']",6.1,270,0,0.17465640854172584,[18700|0|0]
18700,0.6434382796287537,0.393754780292511,-0.029336068779230118,-0.5470570921897888,0.708537220954895,0.6241064071655273,4.1328125,0,"['F2', 'B2', 'A1']",6.1,270,0,0.17523337805992067,[18800|0|0]
18800,0.643760085105896,0.39342692494392395,-0.02938195690512657,-0.5194653868675232,0.713612973690033,0.6195180416107178,4.1328125,0,"['F2', 'B2', 'A1']",6.1,270,0,0.17569506368327734,[18900|0|0]
18900,0.6437026262283325,0.39342623949050903,-0.02947441302239895,-0.5022416114807129,0.7263543605804443,0.6343393921852112,4.1328125,0,"['F2', 'B2', 'A1']",6.1,270,0,0.1758039219676581,[19000|0|0]
19000,0.6436121463775635,0.39363136887550354,-0.02927401289343834,-0.4996504485607147,0.7336773872375488,0.6377885937690735,4.13671875,0,"['F2', 'B2', 'A1']",6.1,270,0,0.17610462926665638,[19100|0|0]
19100,0.6435925364494324,0.3933846354484558,-0.028954261913895607,-0.4827291965484619,0.7374297380447388,0.6382521390914917,4.1328125,0,"['F2', 'B2', 'A1']",6.1,270,0,0.17650898384153166,[19200|0|0]
19200,0.6435708999633789,0.3932909369468689,-0.029276741668581963,-0.48628494143486023,0.7295728325843811,0.6413904428482056,4.1328125,0,"['F2', 'B2', 'A1']",6.1,270,0,0.17684549645483308,[19300|0|0]
19300,0.6433557868003845,0.39373353123664856,-0.029538756236433983,-0.49822816252708435,0.7357617616653442,0.6328179836273193,4.1328125,0,"['F2', 'B2', 'A1']",6.1,270,0,0.17740300431307876,[19400|0|0]
19400,0.6437538266181946,0.3933154046535492,-0.02938041277229786,-0.49188438057899475,0.7280287742614746,0.6403787732124329,4.1328125,0,"['F2', 'B2', 'A1']",6.1,270,0,0.17800161786846425,[19500|0|0]
19500,0.6432768106460571,0.3934788107872009,-0.02932075411081314,-0.49887534976005554,0.7438665628433228,0.6365522742271423,4.1328125,0,"['F2', 'B2', 'A1']",6.1,270,0,0.17850936284192967,[19600|0|0]
19600,0.6433722972869873,0.3933543562889099,-0.029314197599887848,-0.49722397327423096,0.7361956834793091,0.633606493473053,4.1328125,0,"['F2', 'B2', 'A1']",6.1,270,0,0.17866636478005946,[19700|0|0]
19700,0.6436249613761902,0.39344534277915955,-0.029550256207585335,-0.497092068195343,0.7279075980186462,0.6175466775894165,4.1328125,0,"['F2', 'B2', 'A1']",6.1,270,0,0.1790239138671073,[19800|0|0]
19800,0.6435294151306152,0.3934156000614166,-0.02962891012430191,-0.5003756284713745,0.7306221723556519,0.6181785464286804,4.1328125,0,"['F2', 'B2', 'A1']",6.1,270,0,0.17915119368843443,[19900|0|0]
19900,0.6433588862419128,0.3933936059474945,-0.029404133558273315,-0.5046336650848389,0.7365784645080566,0.6224585175514221,4.1328125,0,"['F2', 'B2', 'A1']",6.1,270,0,0.1794341925357199,[20000|0|0]
20000,0.6437907814979553,0.39350852370262146,-0.02945166826248169,-0.5066699981689453,0.7265368700027466,0.6265133619308472,4.1328125,0,"['F2', 'B2', 'A1']",6.1,270,0,0.179883635692014,[20100|0|0]
20100,0.643885612487793,0.39365556836128235,-0.029036523774266243,-0.5894133448600769,0.6770980954170227,0.6258140802383423,4.1328125,0,"['F2', 'B2', 'A1']",6.1,270,0,0.18033414650694515,[20200|0|0]
20200,0.6432586908340454,0.3939580023288727,-0.029208853840827942,-0.5827805399894714,0.6926717162132263,0.6244094371795654,4.13671875,0,"['F2', 'B2', 'A1']",6.1,270,0,0.18105122022458592,[20300|0|0]
20300,0.6437093019485474,0.39333266019821167,-0.029129214584827423,-0.5588007569313049,0.6946151852607727,0.6131662130355835,4.1328125,0,"['F2', 'B2', 'A1']",6.1,270,0,0.18182610445335087,[20400|0|0]
20400,0.6437545418739319,0.3935978412628174,-0.0292309932410717,-0.5600773096084595,0.6954858303070068,0.6024129986763,4.1328125,0,"['F2', 'B2', 'A1']",6.1,270,0,0.18211372667561665,[20500|0|0]
20500,0.6436730623245239,0.39353057742118835,-0.02919617109000683,-0.5574405789375305,0.7044647336006165,0.5976574420928955,4.1328125,0,"['F2', 'B2', 'A1']",6.1,270,0,0.1822249738039715,[20600|0|0]
20600,0.6438040137290955,0.3933413028717041,-0.029235832393169403,-0.551185131072998,0.7030578255653381,0.6010541319847107,4.1328125,0,"['F2', 'B2', 'A1']",6.1,270,0,0.18245852496412765,[20700|0|0]
20700,0.6437629461288452,0.39329060912132263,-0.029177626594901085,-0.5509409308433533,0.6960409283638,0.6080420017242432,4.1328125,0,"['F2', 'B2', 'A1']",6.1,270,0,0.1825459567608043,[20800|0|0]
20800,0.6437402367591858,0.39390507340431213,-0.0293076541274786,-0.5682604908943176,0.6922118067741394,0.6283562779426575,4.1328125,0,"['F2', 'B2', 'A1']",6.1,270,0,0.18317443844690845,[20900|0|0]
20900,0.6436449289321899,0.3936800956726074,-0.02915038727223873,-0.5578439831733704,0.696902871131897,0.6127371191978455,4.1328125,0,"['F2', 'B2', 'A1']",6.1,270,0,0.18346500930815696,[21000|0|0]
21000,0.6436495780944824,0.39319586753845215,-0.029296142980456352,-0.5442992448806763,0.6907287836074829,0.6220222115516663,4.1328125,0,"['F2', 'B2', 'A1']",6.1,270,0,0.18397071992411784,[21100|0|0]
21100,0.6435478329658508,0.39367160201072693,-0.029444118961691856,-0.5565825700759888,0.6977567672729492,0.6211950778961182,4.1328125,0,"['F2', 'B2', 'A1']",6.1,270,0,0.18447921992444571,[21200|0|0]
21200,0.6437895894050598,0.3933616578578949,-0.028928719460964203,-0.552478551864624,0.6912272572517395,0.6156853437423706,4.1328125,0,"['F2', 'B2', 'A1']",6.1,270,0,0.18512740832230862,[21300|0|0]
21300,0.6436764597892761,0.3934982120990753,-0.029054412618279457,-0.5576593279838562,0.688620388507843,0.6236435174942017,4.1328125,0,"['F2', 'B2', 'A1']",6.1,270,0,0.1853447654950626,[21400|0|0]
21400,0.6437984704971313,0.3932362198829651,-0.029195239767432213,-0.5580757856369019,0.6829099059104919,0.6278825998306274,4.1328125,0,"['F2', 'B2', 'A1']",6.1,270,0,0.18566626016076046,[21500|0|0]
21500,0.6440002918243408,0.393534392118454,-0.02932620234787464,-0.569076418876648,0.6747779846191406,0.6141682267189026,4.1328125,0,"['F2', 'B2', 'A1']",6.1,270,0,0.1860493916363784,[21600|0|0]
21600,0.6439439654350281,0.3937149941921234,-0.02947833761572838,-0.5733808279037476,0.6737431883811951,0.6151613593101501,4.1328125,0,"['F2', 'B2', 'A1']",6.1,270,0,0.1862921567715845,[21700|0|0]
21700,0.6438204050064087,0.3933456540107727,-0.02941887453198433,-0.6235752105712891,0.6343278884887695,0.5997095704078674,4.1328125,0,"['F2', 'B2', 'A1']",6.1,270,0,0.18668613038416423,[21800|0|0]
21800,0.6435618996620178,0.39362823963165283,-0.029223835095763206,-0.6201717257499695,0.6563594937324524,0.6130324006080627,4.1328125,0,"['F2', 'B2', 'A1']",6.1,270,0,0.18711592106331898,[21900|0|0]
21900,0.643795907497406,0.393673837184906,-0.02940133400261402,-0.608427882194519,0.6582962870597839,0.6064611673355103,4.1328125,0,"['F2', 'B2', 'A1']",6.1,270,0,0.18741314936920347,[22000|0|0]
22000,0.6435423493385315,0.3938293159008026,-0.0292665995657444,-0.5996625423431396,0.6750195622444153,0.6164225339889526,4.1328125,0,"['F2', 'B2', 'A1']",6.1,270,0,0.1877396746201524,[22100|0|0]
22100,0.6435864567756653,0.39349180459976196,-0.029440762475132942,-0.5856078863143921,0.6768547296524048,0.6230137944221497,4.1328125,0,"['F2', 'B2', 'A1']",6.1,270,0,0.1881220253274191,[22200|0|0]
22200,0.643649160861969,0.39350625872612,-0.02898399718105793,-0.5685710906982422,0.6797299385070801,0.6397938132286072,4.1328125,0,"['F2', 'B2', 'A1']",6.1,270,0,0.18858330101296883,[22300|0|0]
22300,0.6434347629547119,0.39359045028686523,-0.02931189350783825,-0.5678192973136902,0.6902170181274414,0.6448434591293335,4.1328125,0,"['F2', 'B2', 'A1']",6.1,270,0,0.1889840137313257,[22400|0|0]
22400,0.6437591314315796,0.3931381106376648,-0.02926851622760296,-0.55491042137146,0.6839840412139893,0.6513437032699585,4.1328125,0,"['F2', 'B2', 'A1']",6.1,270,0,0.18954232158140918,[22500|0|0]
22500,0.6435539722442627,0.3936346173286438,-0.029524652287364006,-0.5387498736381531,0.7072983980178833,0.6627254486083984,4.1328125,0,"['F2', 'B2', 'A1']",6.1,270,0,0.19013748111249087,[22600|0|0]
22600,0.6437863111495972,0.39360350370407104,-0.028994223102927208,-0.5303359627723694,0.7018089294433594,0.6564114093780518,4.13671875,0,"['F2', 'B2', 'A1']",6.1,270,0,0.19071739881722868,[22700|0|0]
22700,0.6435117721557617,0.3934345841407776,-0.029329106211662292,-0.5161409974098206,0.7158240675926208,0.6439587473869324,4.1328125,0,"['F2', 'B2', 'A1']",6.1,270,0,0.19118221294622598,[22800|0|0]
22800,0.6433855891227722,0.3935089111328125,-0.02928028255701065,-0.5113674402236938,0.7197776436805725,0.6421912312507629,4.1328125,0,"['F2', 'B2', 'A1']",6.1,270,0,0.1913365839564997,[22900|0|0]
22900,0.6433156132698059,0.3934783637523651,-0.029087815433740616,-0.5089039206504822,0.7264589071273804,0.6284974813461304,4.1328125,0,"['F2', 'B2', 'A1']",6.1,270,0,0.19154364277903668,[23000|0|0]
23000,0.6434590220451355,0.393752783536911,-0.029316464439034462,-0.5147899985313416,0.7232982516288757,0.6279255151748657,4.1328125,0,"['F2', 'B2', 'A1']",6.1,270,0,0.19192854882291444,[23100|0|0]
23100,0.6437773108482361,0.393631249666214,-0.029499642550945282,-0.5137067437171936,0.7204674482345581,0.6356640458106995,4.1328125,0,"['F2', 'B2', 'A1']",6.1,270,0,0.19231537238035248,[23200|0|0]
23200,0.6439239382743835,0.39362984895706177,-0.029262835159897804,-0.5930206775665283,0.66339510679245,0.6156318187713623,4.1328125,0,"['F2', 'B2', 'A1']",6.1,270,0,0.19259390299723234,[23300|0|0]
23300,0.6438519358634949,0.39373132586479187,-0.02923932485282421,-0.5758600831031799,0.6757217049598694,0.6364157199859619,4.1328125,0,"['F2', 'B2', 'A1']",6.1,270,0,0.19272053097405792,[23400|0|0]
23400,0.6440877914428711,0.3933742940425873,-0.029203733429312706,-0.5524601936340332,0.686022162437439,0.6314358115196228,4.1328125,0,"['F2', 'B2', 'A1']",6.1,270,0,0.1931499099742631,[23500|0|0]
23500,0.6437447667121887,0.3934914469718933,-0.029158486053347588,-0.5446878671646118,0.7022891640663147,0.6101488471031189,4.1328125,0,"['F2', 'B2', 'A1']",6.1,270,0,0.19351520177506956,[23600|0|0]
23600,0.6436266899108887,0.39354464411735535,-0.029065489768981934,-0.5358272194862366,0.7144743800163269,0.6073064208030701,4.1328125,0,"['F2', 'B2', 'A1']",6.1,270,0,0.1936746394625728,[23700|0|0]
23700,0.6438591480255127,0.39361828565597534,-0.029058787971735,-0.5391124486923218,0.7103724479675293,0.6359333395957947,4.1328125,0,"['F2', 'B2', 'A1']",6.1,270,0,0.19391857544874788,[23800|0|0]
23800,0.644171953201294,0.39350393414497375,-0.02919498085975647,-0.535527765750885,0.6912184953689575,0.6429314017295837,4.1328125,0,"['F2', 'B2', 'A1']",6.1,270,0,0.19427839741696482,[23900|0|0]
23900,0.6438129544258118,0.3933626413345337,-0.02933630719780922,-0.5287851095199585,0.6981199383735657,0.6378307938575745,4.1328125,0,"['F2', 'B2', 'A1']",6.1,270,0,0.1946892707708187,[24000|0|0]
24000,0.6437183022499084,0.3934931457042694,-0.029126154258847237,-0.5340800881385803,0.7061483860015869,0.6416551470756531,4.1328125,0,"['F2', 'B2', 'A1']",6.1,270,0,0.19495413806339693,[24100|0|0]
24100,0.6437768936157227,0.3937704563140869,-0.02923160418868065,-0.5432794690132141,0.7021527886390686,0.6401020884513855,4.1328125,0,"['F2', 'B2', 'A1']",6.1,270,0,0.19525655137356565,[24200|0|0]
24200,0.6436947584152222,0.39351686835289,-0.029290586709976196,-0.5980334281921387,0.6611894369125366,0.6402036547660828,4.1328125,0,"['F2', 'B2', 'A1']",6.1,270,0,0.19552955683696085,[24300|0|0]
24300,0.6436583399772644,0.3936194181442261,-0.029127679765224457,-0.5874964594841003,0.6814883351325989,0.6392225623130798,4.1328125,0,"['F2', 'B2', 'A1']",6.1,270,0,0.19572546864103274,[24400|0|0]
24400,0.6435396075248718,0.39354074001312256,-0.029081683605909348,-0.5749260783195496,0.6926372051239014,0.6467668414115906,4.1328125,0,"['F2', 'B2', 'A1']",6.1,270,0,0.1958751459280099,[24500|0|0]
24500,0.6436043977737427,0.3936324417591095,-0.02897767536342144,-0.5726668238639832,0.6987998485565186,0.6417101621627808,4.1328125,0,"['F2', 'B2', 'A1']",6.1,270,0,0.19602819723009918,[24600|0|0]
24600,0.6436960101127625,0.3935592770576477,-0.02891581505537033,-0.5645483136177063,0.7015860080718994,0.6522176861763,4.1328125,0,"['F2', 'B2', 'A1']",6.1,270,0,0.19616075888335097,[24700|0|0]
24700,0.643571138381958,0.39359351992607117,-0.029137013480067253,-0.5657142400741577,0.7015159130096436,0.6357739567756653,4.1328125,0,"['F2', 'B2', 'A1']",6.1,270,0,0.19641706781078105,[24800|0|0]
24800,0.6434125900268555,0.39337581396102905,-0.028992852196097374,-0.5597500205039978,0.7106707096099854,0.6290612816810608,4.1328125,0,"['F2', 'B2', 'A1']",6.1,270,0,0.19672254439567174,[24900|0|0]
24900,0.64349764585495,0.39360523223876953,-0.029413240030407906,-0.5665699243545532,0.7067363262176514,0.6210436224937439,4.1328125,0,"['F2', 'B2', 'A1']",6.1,270,0,0.19720895283648104,[25000|0|0]
25000,0.6438353061676025,0.3936004340648651,-0.02905440889298916,-0.5655936598777771,0.6963241100311279,0.6372328400611877,4.1328125,0,"['F2', 'B2', 'A1']",6.1,270,0,0.1977016974908353,[25100|0|0]
25100,0.6435863375663757,0.39326295256614685,-0.029475966468453407,-0.5593075752258301,0.7066500782966614,0.6230599284172058,4.1328125,0,"['F2', 'B2', 'A1']",6.1,270,0,0.19829633176146327,[25200|0|0]
25200,0.6436833739280701,0.3933700621128082,-0.029396245256066322,-0.5653849840164185,0.6998539566993713,0.6145346760749817,4.1328125,0,"['F2', 'B2', 'A1']",6.1,270,0,0.1984613892732019,[25300|0|0]
25300,0.6435416340827942,0.39367103576660156,-0.029178323224186897,-0.5726127624511719,0.7017649412155151,0.6084387898445129,4.1328125,0,"['F2', 'B2', 'A1']",6.1,270,0,0.19885908933102814,[25400|0|0]
25400,0.6437618136405945,0.3932841718196869,-0.029258815571665764,-0.5661250948905945,0.6961720585823059,0.5939747095108032,4.1328125,0,"['F2', 'B2', 'A1']",6.1,270,0,0.19931144070893936,[25500|0|0]
25500,0.6438035368919373,0.3933258056640625,-0.029544532299041748,-0.5424771904945374,0.7254071235656738,0.6036580801010132,4.1328125,0,"['F2', 'B2', 'A1']",6.1,270,0,0.1996031739004047,[25600|0|0]
25600,0.6440216898918152,0.3934243321418762,-0.029223607853055,-0.5344345569610596,0.7234321236610413,0.5946032404899597,4.1328125,0,"['F2', 'B2', 'A1']",6.1,270,0,0.20000353710827726,[25700|0|0]
25700,0.6437628269195557,0.3935123383998871,-0.02928081341087818,-0.5274619460105896,0.7397385239601135,0.5898852944374084,4.1328125,0,"['F2', 'B2', 'A1']",6.1,270,0,0.20028287134481473,[25800|0|0]
25800,0.6437221169471741,0.3933510184288025,-0.029292941093444824,-0.5169057846069336,0.7379123568534851,0.5916916131973267,4.1328125,0,"['F2', 'B2', 'A1']",6.1,270,0,0.20044969015552408,[25900|0|0]
25900,0.6438925862312317,0.3937602639198303,-0.02923595905303955,-0.5212376117706299,0.7345122694969177,0.5827704668045044,4.1328125,0,"['F2', 'B2', 'A1']",6.1,270,0,0.20089666733800934,[26000|0|0]
26000,0.6437414288520813,0.39360156655311584,-0.02928520180284977,-0.5141891241073608,0.7317652702331543,0.5908754467964172,4.1328125,0,"['F2', 'B2', 'A1']",6.1,270,0,0.20112129648990776,[26100|0|0]
26100,0.6437571048736572,0.3934965133666992,-0.029381776228547096,-0.5075428485870361,0.7307953834533691,0.5979009866714478,4.1328125,0,"['F2', 'B2', 'A1']",6.1,270,0,0.2012648532010971,[26200|0|0]
26200,0.6436198949813843,0.3935989737510681,-0.029279282316565514,-0.50724196434021,0.7326444387435913,0.5846412777900696,4.1328125,0,"['F2', 'B2', 'A1']",6.1,270,0,0.2014644269641419,[26300|0|0]
26300,0.6437365412712097,0.39389798045158386,-0.029249396175146103,-0.5965046882629395,0.6666744351387024,0.5950877666473389,4.1328125,0,"['F2', 'B2', 'A1']",6.1,270,0,0.2017867692439196,[26400|0|0]
26400,0.643701434135437,0.39342719316482544,-0.02933337353169918,-0.5670265555381775,0.6814191937446594,0.5806214809417725,4.1328125,0,"['F2', 'B2', 'A1']",6.1,270,0,0.20226627458984306,[26500|0|0]
26500,0.6435492634773254,0.3936478793621063,-0.029212335124611855,-0.5570456385612488,0.6959528923034668,0.6008012294769287,4.1328125,0,"['F2', 'B2', 'A1']",6.1,270,0,0.20256039803816137,[26600|0|0]
26600,0.6438734531402588,0.39348888397216797,-0.029309475794434547,-0.5441945195198059,0.6952539086341858,0.6036003828048706,4.1328125,0,"['F2', 'B2', 'A1']",6.1,270,0,0.20293431618603344,[26700|0|0]
26700,0.6438735723495483,0.3936052918434143,-0.029091814532876015,-0.5464692115783691,0.6931596994400024,0.603225827217102,4.1328125,0,"['F2', 'B2', 'A1']",6.1,270,0,0.20318115060721942,[26800|0|0]
26800,0.6438097357749939,0.3932812809944153,-0.02944747358560562,-0.5356283783912659,0.6903772950172424,0.5912113785743713,4.1328125,0,"['F2', 'B2', 'A1']",6.1,270,0,0.20366648708875407,[26900|0|0]
26900,0.6435932517051697,0.39359429478645325,-0.029398735612630844,-0.5455616116523743,0.6957246661186218,0.5964328646659851,4.1328125,0,"['F2', 'B2', 'A1']",6.1,270,0,0.2040501775584081,[27000|0|0]
27000,0.6437329649925232,0.39359942078590393,-0.029195111244916916,-0.5453253984451294,0.6909511089324951,0.6211950182914734,4.1328125,0,"['F2', 'B2', 'A1']",6.1,270,0,0.20429717748079754,[27100|0|0]
27100,0.6436792612075806,0.3934527337551117,-0.02921866625547409,-0.5938755869865417,0.6543195247650146,0.6172800064086914,4.1328125,0,"['F2', 'B2', 'A1']",6.1,270,0,0.20445515222574798,[27200|0|0]
27200,0.6437767744064331,0.39338505268096924,-0.02908056601881981,-0.5802125930786133,0.6633293628692627,0.6347076892852783,4.1328125,0,"['F2', 'B2', 'A1']",6.1,270,0,0.20463725446931325,[27300|0|0]
27300,0.6439677476882935,0.39315924048423767,-0.02911071479320526,-0.5715863704681396,0.6735988855361938,0.6256386041641235,4.1328125,0,"['F2', 'B2', 'A1']",6.1,270,0,0.20493452688844122,[27400|0|0]
27400,0.6439773440361023,0.393421471118927,-0.02937299944460392,-0.5676608681678772,0.6783797740936279,0.6262691617012024,4.1328125,0,"['F2', 'B2', 'A1']",6.1,270,0,0.2053055393330036,[27500|0|0]
27500,0.6439332365989685,0.39344608783721924,-0.02920052781701088,-0.5645654797554016,0.6850587129592896,0.6147267818450928,4.1328125,0,"['F2', 'B2', 'A1']",6.1,270,0,0.20548525552914235,[27600|0|0]
27600,0.64344722032547,0.3935224413871765,-0.029349051415920258,-0.5656550526618958,0.7039629817008972,0.6279871463775635,4.1328125,0,"['F2', 'B2', 'A1']",6.1,270,0,0.20599916305207763,[27700|0|0]
27700,0.6436620354652405,0.3932305574417114,-0.029542390257120132,-0.5540693402290344,0.6957946419715881,0.6326399445533752,4.1328125,0,"['F2', 'B2', 'A1']",6.1,270,0,0.20640992051021004,[27800|0|0]
27800,0.6437547206878662,0.39351847767829895,-0.029167400673031807,-0.5642367005348206,0.69474858045578,0.6033344864845276,4.1328125,0,"['F2', 'B2', 'A1']",6.1,270,0,0.2068916941098443,[27900|0|0]
27900,0.6467980146408081,0.3982301354408264,-0.026764485985040665,-0.6462185382843018,0.611182451248169,0.6384734511375427,4.1328125,0,"['F2', 'B2', 'A1']",6.1,270,0,0.21299377211270212,[28000|0|0]
28000,0.643832266330719,0.39371952414512634,-0.029309194535017014,-0.5679221749305725,0.6945468783378601,0.6270800232887268,4.1328125,0,"['F2', 'B2', 'A1']",6.1,270,0,0.21896175492970288,[28100|0|0]
28100,0.6437216997146606,0.39335712790489197,-0.02921394817531109,-0.5536664724349976,0.696652889251709,0.6028730869293213,4.1328125,0,"['F2', 'B2', 'A1']",6.1,270,0,0.21935243111346614,[28200|0|0]
28200,0.643611490726471,0.3932824432849884,-0.02924220822751522,-0.5573352575302124,0.6999602317810059,0.6195914149284363,4.1328125,0,"['F2', 'B2', 'A1']",6.1,270,0,0.21948852829961824,[28300|0|0]
28300,0.6438176035881042,0.3932410180568695,-0.029377276077866554,-0.5636544227600098,0.6908835768699646,0.6234017610549927,4.1328125,0,"['F2', 'B2', 'A1']",6.1,270,0,0.21973841204349506,[28400|0|0]
28400,0.6468950510025024,0.39806079864501953,-0.02713238261640072,-0.6489133238792419,0.6108405590057373,0.6587761640548706,4.1328125,0,"['F2', 'B2', 'A1']",6.1,270,0,0.2258817429119756,[28500|0|0]
28500,0.6471898555755615,0.3981051445007324,-0.027119211852550507,-0.666535496711731,0.5941328406333923,0.6354305744171143,4.1328125,0,"['F2', 'B2', 'A1']",6.1,270,0,0.22618015497647007,[28600|0|0]
28600,0.6467999219894409,0.39814454317092896,-0.02678614668548107,-0.6569697260856628,0.6240488886833191,0.6327758431434631,4.1328125,0,"['F2', 'B2', 'A1']",6.1,270,0,0.22669448255915753,[28700|0|0]
28700,0.6467585563659668,0.3982994854450226,-0.02727927453815937,-0.6547757387161255,0.6290021538734436,0.6309199333190918,4.1328125,0,"['F2', 'B2', 'A1']",6.1,270,0,0.22721303178747998,[28800|0|0]
28800,0.6469927430152893,0.3984282612800598,-0.02696867473423481,-0.6477503776550293,0.631741464138031,0.6337268352508545,4.1328125,0,"['F2', 'B2', 'A1']",6.1,270,0,0.22762278639771447,[28900|0|0]
28900,0.6468115448951721,0.398414671421051,-0.02674638293683529,-0.6375423073768616,0.6419239044189453,0.6279304027557373,4.1328125,0,"['F2', 'B2', 'A1']",6.1,270,0,0.22790989454143906,[29000|0|0]
29000,0.6467423439025879,0.3981437683105469,-0.02697865478694439,-0.6323886513710022,0.6420548558235168,0.6363381147384644,4.1328125,0,"['F2', 'B2', 'A1']",6.1,270,0,0.22827338798705887,[29100|0|0]
29100,0.6466716527938843,0.3984825313091278,-0.027183983474969864,-0.6400070190429688,0.6432360410690308,0.6430869698524475,4.1328125,0,"['F2', 'B2', 'A1']",6.1,270,0,0.22867577768894443,[29200|0|0]
29200,0.6468122005462646,0.39800339937210083,-0.02698221616446972,-0.6298547983169556,0.6395425796508789,0.6361380815505981,4.1328125,0,"['F2', 'B2', 'A1']",6.1,270,0,0.22921432307362882,[29300|0|0]
29300,0.6464455127716064,0.39799606800079346,-0.026930635794997215,-0.6428825855255127,0.636447012424469,0.63277667760849,4.1328125,0,"['F2', 'B2', 'A1']",6.1,270,0,0.22958469343907933,[29400|0|0]
29400,0.646613359451294,0.39797934889793396,-0.027392704039812088,-0.6377983093261719,0.6234768629074097,0.6377453804016113,4.1328125,0,"['F2', 'B2', 'A1']",6.1,270,0,0.230076586820971,[29500|0|0]
29500,0.6465556621551514,0.398112028837204,-0.02700876258313656,-0.6404919624328613,0.6245432496070862,0.6363770365715027,4.1328125,0,"['F2', 'B2', 'A1']",6.1,270,0,0.23048688425749844,[29600|0|0]
29601,0.6465301513671875,0.39813777804374695,-0.027160799130797386,-0.6386748552322388,0.6230783462524414,0.6221147775650024,4.1328125,0,"['F2', 'B2', 'A1']",6.1,270,0,0.23064318183830107,[29700|0|0]
29701,0.6463891863822937,0.398300439119339,-0.027260513976216316,-0.641700267791748,0.6229016780853271,0.6205899119377136,4.1328125,0,"['F2', 'B2', 'A1']",6.1,270,0,0.23088040073062585,[29800|0|0]
29801,0.6467598080635071,0.39809009432792664,-0.02715233899652958,-0.6288217306137085,0.609056830406189,0.6393827199935913,4.1328125,0,"['F2', 'B2', 'A1']",6.1,270,0,0.23132006786390963,[29900|0|0]
29901,0.6469593048095703,0.3983469307422638,-0.02701432816684246,-0.6349212527275085,0.6042975783348083,0.6270795464515686,4.1328125,0,"['F2', 'B2', 'A1']",6.1,270,0,0.23167335370360648,[30000|0|0]
