time.ms,stateEstimate.x,stateEstimate.y,stateEstimate.z,stabilizer.roll,stabilizer.pitch,stabilizer.yaw,pm.vbat,drone_id,node_name,wind_speed,global_wind_direction,relative_wind_direction,travel_dist,waiting_time
0,1.3377553224563599,-0.31908994913101196,-0.00774342892691493,0.3037559390068054,0.6711634397506714,3.2663590908050537,4.16015625,2,"['F2', 'B2', 'A1']",6.1,270,0,0.06335742874012704,[100|0|0]
100,1.3373693227767944,-0.31937089562416077,-0.008012844249606133,0.3425067067146301,0.7038483619689941,3.2671823501586914,4.16015625,2,"['F2', 'B2', 'A1']",6.1,270,0,0.06390561785050596,[200|0|0]
200,1.337712049484253,-0.3195645809173584,-0.00791244301944971,0.37330904603004456,0.7111625075340271,3.2521984577178955,4.16015625,2,"['F2', 'B2', 'A1']",6.1,270,0,0.06431188869098471,[300|0|0]
300,1.337552785873413,-0.31992828845977783,-0.0076126824133098125,0.3938017189502716,0.7222954034805298,3.257413148880005,4.16015625,2,"['F2', 'B2', 'A1']",6.1,270,0,0.0648093869273071,[400|0|0]
400,1.337722897529602,-0.3194977343082428,-0.007538758683949709,0.40062204003334045,0.7296777963638306,3.276677370071411,4.16015625,2,"['F2', 'B2', 'A1']",6.1,270,0,0.0652781934660178,[500|0|0]
500,1.3312925100326538,-0.33003541827201843,-0.011662394739687443,0.681614875793457,0.9620169401168823,3.2933316230773926,4.16015625,2,"['F2', 'B2', 'A1']",6.1,270,0,0.07829345531515103,[600|0|0]
600,1.337363839149475,-0.3194218575954437,-0.007786925416439772,0.40733063220977783,0.7494741082191467,3.2820193767547607,4.16015625,2,"['F2', 'B2', 'A1']",6.1,270,0,0.09112030098957655,[700|0|0]
700,1.337445616722107,-0.3197757303714752,-0.007471777498722076,0.4167323410511017,0.7520546317100525,3.249354362487793,4.16015625,2,"['F2', 'B2', 'A1']",6.1,270,0,0.09160116658726845,[800|0|0]
801,1.3373920917510986,-0.31947648525238037,-0.007611062843352556,0.412185400724411,0.7554560899734497,3.262596845626831,4.16015625,2,"['F2', 'B2', 'A1']",6.1,270,0,0.09193555105319408,[900|0|0]
901,1.3376871347427368,-0.3196161389350891,-0.00764030497521162,0.41792818903923035,0.7524435520172119,3.254302978515625,4.16015625,2,"['F2', 'B2', 'A1']",6.1,270,0,0.09226328359702302,[1000|0|0]
1001,1.3377606868743896,-0.3200330138206482,-0.007721345871686935,0.42888709902763367,0.7475600838661194,3.2769713401794434,4.16015625,2,"['F2', 'B2', 'A1']",6.1,270,0,0.09269428500442455,[1100|0|0]
1101,1.3373045921325684,-0.31970450282096863,-0.007998138666152954,0.41638097167015076,0.7568945288658142,3.2784759998321533,4.16015625,2,"['F2', 'B2', 'A1']",6.1,270,0,0.093320828012921,[1200|0|0]
1201,1.3375815153121948,-0.3199360966682434,-0.007545060478150845,0.4214622676372528,0.7476511001586914,3.283076524734497,4.16015625,2,"['F2', 'B2', 'A1']",6.1,270,0,0.09390013967511437,[1300|0|0]
1301,1.337363839149475,-0.31987980008125305,-0.007884474471211433,0.41225340962409973,0.745463490486145,3.253542184829712,4.16015625,2,"['F2', 'B2', 'A1']",6.1,270,0,0.09430726874090123,[1400|0|0]
1401,1.3374909162521362,-0.3195532560348511,-0.007703440263867378,0.40747544169425964,0.7459445595741272,3.2641608715057373,4.16015625,2,"['F2', 'B2', 'A1']",6.1,270,0,0.09470167080541156,[1500|0|0]
1502,1.3376015424728394,-0.31955400109291077,-0.007511557079851627,0.4134218692779541,0.7424673438072205,3.2454123497009277,4.16015625,2,"['F2', 'B2', 'A1']",6.1,270,0,0.09492316092285835,[1600|0|0]
1601,1.3372257947921753,-0.31852877140045166,-0.0072268154472112656,0.19567950069904327,0.5730866193771362,3.2617926597595215,4.16015625,2,"['F2', 'B2', 'A1']",6.1,270,0,0.09605159348140269,[1700|0|0]
1701,1.337106704711914,-0.3191017210483551,-0.007376793771982193,0.24421988427639008,0.6005849838256836,3.279029607772827,4.16015625,2,"['F2', 'B2', 'A1']",6.1,270,0,0.09665570211745286,[1800|0|0]
1802,1.3311524391174316,-0.329769492149353,-0.011671667918562889,0.5832839012145996,0.8616522550582886,3.280332326889038,4.16015625,2,"['F2', 'B2', 'A1']",6.1,270,0,0.10960562732835238,[1900|0|0]
1902,1.3375369310379028,-0.31902360916137695,-0.007323563098907471,0.27630773186683655,0.6179549694061279,3.2811508178710938,4.16015625,2,"['F2', 'B2', 'A1']",6.1,270,0,0.1228397405890339,[2000|0|0]
2000,1.3371367454528809,-0.3190711438655853,-0.007501593790948391,0.28476956486701965,0.6390234231948853,3.282310724258423,4.16015625,2,"['F2', 'B2', 'A1']",6.1,270,0,0.12328031178404342,[2100|0|0]
2102,1.3370379209518433,-0.3191266655921936,-0.007483216468244791,0.2977437973022461,0.6506173610687256,3.263875722885132,4.16015625,2,"['F2', 'B2', 'A1']",6.1,270,0,0.12339514501146756,[2200|0|0]
2202,1.3376868963241577,-0.3198399841785431,-0.007635175250470638,0.3079870045185089,0.6482513546943665,3.294466495513916,4.16015625,2,"['F2', 'B2', 'A1']",6.1,270,0,0.12437140517709856,[2300|0|0]
2300,1.3376671075820923,-0.3195429742336273,-0.007513327989727259,0.29917123913764954,0.6478133797645569,3.282832622528076,4.16015625,2,"['F2', 'B2', 'A1']",6.1,270,0,0.12469304668039387,[2400|0|0]
2400,1.3378729820251465,-0.3195834457874298,-0.007550498936325312,0.29973798990249634,0.645689845085144,3.2950587272644043,4.16015625,2,"['F2', 'B2', 'A1']",6.1,270,0,0.12490612861825126,[2500|0|0]
2502,1.337936520576477,-0.31952419877052307,-0.00718245143070817,0.2951865792274475,0.6414092779159546,3.321889877319336,4.16015625,2,"['F2', 'B2', 'A1']",6.1,270,0,0.12528429038642533,[2600|0|0]
2600,1.3374969959259033,-0.31994590163230896,-0.007379285059869289,0.3006715774536133,0.6533246636390686,3.2868661880493164,4.16015625,2,"['F2', 'B2', 'A1']",6.1,270,0,0.12592441435853471,[2700|0|0]
2700,1.3375498056411743,-0.319532185792923,-0.007730303332209587,0.2892801761627197,0.6495330929756165,3.280987501144409,4.16015625,2,"['F2', 'B2', 'A1']",6.1,270,0,0.12646954139813432,[2800|0|0]
2800,1.3378093242645264,-0.3193835914134979,-0.007562518119812012,0.2765743136405945,0.63592928647995,3.2614595890045166,4.16015625,2,"['F2', 'B2', 'A1']",6.1,270,0,0.12681244383755777,[2900|0|0]
2900,1.337375283241272,-0.31935417652130127,-0.00780370831489563,0.2674120366573334,0.6397503018379211,3.293914794921875,4.16015625,2,"['F2', 'B2', 'A1']",6.1,270,0,0.12730986675214367,[3000|0|0]
3000,1.337632417678833,-0.31906500458717346,-0.007920282892882824,0.26321348547935486,0.6317799687385559,3.2907931804656982,4.16015625,2,"['F2', 'B2', 'A1']",6.1,270,0,0.12771400553857717,[3100|0|0]
3100,1.3375556468963623,-0.31988295912742615,-0.00751720555126667,0.30773627758026123,0.6548116207122803,3.26790452003479,4.16015625,2,"['F2', 'B2', 'A1']",6.1,270,0,0.12862910920827011,[3200|0|0]
3200,1.3374048471450806,-0.3197515904903412,-0.008005030453205109,0.33356794714927673,0.6870271563529968,3.2689993381500244,4.16015625,2,"['F2', 'B2', 'A1']",6.1,270,0,0.12915633915691438,[3300|0|0]
3300,1.3376847505569458,-0.31968316435813904,-0.007574118673801422,0.34827330708503723,0.6932306885719299,3.2683656215667725,4.16015625,2,"['F2', 'B2', 'A1']",6.1,270,0,0.1296747145201125,[3400|0|0]
3400,1.3376405239105225,-0.31984400749206543,-0.007701111026108265,0.36424848437309265,0.7045063376426697,3.264592409133911,4.16015625,2,"['F2', 'B2', 'A1']",6.1,270,0,0.1298843655814729,[3500|0|0]
3500,1.337633490562439,-0.3197503387928009,-0.007382301613688469,0.3649299740791321,0.7140247821807861,3.267446517944336,4.16015625,2,"['F2', 'B2', 'A1']",6.1,270,0,0.13021672492714356,[3600|0|0]
3600,1.3374189138412476,-0.3199845552444458,-0.00770186260342598,0.3758438527584076,0.7231782078742981,3.263155937194824,4.16015625,2,"['F2', 'B2', 'A1']",6.1,270,0,0.1306673020478015,[3700|0|0]
3700,1.3375535011291504,-0.31989097595214844,-0.00787745788693428,0.3778923749923706,0.7181904315948486,3.2808640003204346,4.16015625,2,"['F2', 'B2', 'A1']",6.1,270,0,0.13090751971077047,[3800|0|0]
3800,1.3374197483062744,-0.3198801577091217,-0.007674388121813536,0.37823083996772766,0.7171834707260132,3.261052370071411,4.1640625,2,"['F2', 'B2', 'A1']",6.1,270,0,0.13115092098750433,[3900|0|0]
3900,1.3375883102416992,-0.319723904132843,-0.007831976749002934,0.37522876262664795,0.7084973454475403,3.274594306945801,4.16015625,2,"['F2', 'B2', 'A1']",6.1,270,0,0.1314296008784069,[4000|0|0]
4000,1.3379396200180054,-0.3197595179080963,-0.0076848771423101425,0.3786395192146301,0.6919755339622498,3.2722904682159424,4.16015625,2,"['F2', 'B2', 'A1']",6.1,270,0,0.13181212564127232,[4100|0|0]
4100,1.3375822305679321,-0.3197373151779175,-0.007390091195702553,0.36510661244392395,0.6788519620895386,3.2919723987579346,4.16015625,2,"['F2', 'B2', 'A1']",6.1,270,0,0.13227593479875888,[4200|0|0]
4200,1.3376214504241943,-0.31967777013778687,-0.007601318880915642,0.3750665783882141,0.6801221966743469,3.2771143913269043,4.16015625,2,"['F2', 'B2', 'A1']",6.1,270,0,0.13249887188389695,[4300|0|0]
4300,1.3374253511428833,-0.319898784160614,-0.007816238328814507,0.38520464301109314,0.6956304907798767,3.295600414276123,4.16015625,2,"['F2', 'B2', 'A1']",6.1,270,0,0.13286423813234102,[4400|0|0]
4400,1.3376386165618896,-0.31980612874031067,-0.007750110700726509,0.38626229763031006,0.6901401281356812,3.2948145866394043,4.16015625,2,"['F2', 'B2', 'A1']",6.1,270,0,0.1331059818583239,[4500|0|0]
4500,1.5633794069290161,-0.2805507183074951,-0.3477824330329895,5.510824680328369,-0.28272148966789246,2.0620100498199463,4.16015625,2,"['F2', 'B2', 'A1']",6.1,270,0,0.5431326540572136,[4600|0|0]
4600,1.3454002141952515,-0.3478066027164459,0.0627736821770668,-7.503216743469238,-6.426925182342529,2.8560445308685303,4.16015625,2,"['F2', 'B2', 'A1']",6.1,270,0,1.0128076546574871,[4700|0|0]
4700,1.4019279479980469,-0.4271140396595001,0.17523272335529327,-2.921233654022217,-11.128127098083496,2.40147066116333,4.16015625,2,"['F2', 'B2', 'A1']",6.1,270,0,1.161576233954603,[4800|0|0]
4800,1.4064635038375854,-0.4354825019836426,0.18207179009914398,-5.032724380493164,-9.920746803283691,2.054532289505005,4.16015625,2,"['F2', 'B2', 'A1']",6.1,270,0,1.1732969533169548,[4900|0|0]
4900,1.3749990463256836,-0.37670478224754333,0.08078133314847946,-8.449681282043457,-7.115060329437256,2.1668167114257812,4.16015625,2,"['F2', 'B2', 'A1']",6.1,270,0,1.294559433471239,[5000|0|0]
5000,1.3434537649154663,-0.31409257650375366,-0.014164517633616924,-10.082215309143066,-5.221378326416016,2.4608278274536133,4.16015625,2,"['F2', 'B2', 'A1']",6.1,270,0,1.412585310583373,[5100|0|0]
5100,1.3447520732879639,-0.3104555904865265,-0.012404880486428738,-9.271628379821777,-4.7817254066467285,2.425405740737915,4.16015625,2,"['F2', 'B2', 'A1']",6.1,270,0,1.4168290818789742,[5200|0|0]
5200,1.3450522422790527,-0.30885523557662964,-0.010961968451738358,-7.949512481689453,-3.871544361114502,2.4641940593719482,4.16015625,2,"['F2', 'B2', 'A1']",6.1,270,0,1.4190046811988621,[5300|0|0]
5300,1.3441275358200073,-0.30886420607566833,-0.00992470234632492,-6.369985580444336,-2.7879843711853027,2.5557262897491455,4.16015625,2,"['F2', 'B2', 'A1']",6.1,270,0,1.4203943154956082,[5400|0|0]
5400,1.342849850654602,-0.31055521965026855,-0.009310678578913212,-4.849841117858887,-1.7913073301315308,2.6236112117767334,4.16015625,2,"['F2', 'B2', 'A1']",6.1,270,0,1.4226009036942364,[5500|0|0]
5500,1.3404918909072876,-0.31519269943237305,-0.008636062033474445,-3.6339221000671387,-1.0186100006103516,2.668637275695801,4.16015625,2,"['F2', 'B2', 'A1']",6.1,270,0,1.4278469784537842,[5600|0|0]
5600,1.3397083282470703,-0.3163435757160187,-0.008527647703886032,-2.6675150394439697,-0.4452555477619171,2.6922988891601562,4.16015625,2,"['F2', 'B2', 'A1']",6.1,270,0,1.4292434885073122,[5700|0|0]
5700,1.3392696380615234,-0.31673672795295715,-0.008307572454214096,-1.9188977479934692,-0.02995499037206173,2.7392635345458984,4.16015625,2,"['F2', 'B2', 'A1']",6.1,270,0,1.4298723373570552,[5800|0|0]
5800,1.339112401008606,-0.31767788529396057,-0.00804373249411583,-1.3519477844238281,0.2499753087759018,2.798586845397949,4.16015625,2,"['F2', 'B2', 'A1']",6.1,270,0,1.4308623434963692,[5900|0|0]
5900,1.3388397693634033,-0.3179418742656708,-0.007981603033840656,-0.9302292466163635,0.45534393191337585,2.879718542098999,4.16015625,2,"['F2', 'B2', 'A1']",6.1,270,0,1.4312468929223012,[6000|0|0]
6000,1.339010238647461,-0.3184974491596222,-0.008066399954259396,-0.5890886187553406,0.5827229022979736,2.9503486156463623,4.16015625,2,"['F2', 'B2', 'A1']",6.1,270,0,1.431834186509282,[6100|0|0]
6100,1.338206171989441,-0.31885069608688354,-0.007859403267502785,-0.33539655804634094,0.6911180019378662,3.002983331680298,4.16015625,2,"['F2', 'B2', 'A1']",6.1,270,0,1.4327364914524623,[6200|0|0]
6200,1.3372259140014648,-0.3180104196071625,-0.007878588512539864,-0.23119156062602997,0.7135047912597656,3.0477490425109863,4.16015625,2,"['F2', 'B2', 'A1']",6.1,270,0,1.434027746020311,[6300|0|0]
6300,1.3375588655471802,-0.3184747099876404,-0.007831279188394547,-0.08506610989570618,0.7296510934829712,3.098863363265991,4.16015625,2,"['F2', 'B2', 'A1']",6.1,270,0,1.434601035180639,[6400|0|0]
6400,1.337662696838379,-0.3186895549297333,-0.007312058936804533,0.02697553113102913,0.7346049547195435,3.142152786254883,4.16015625,2,"['F2', 'B2', 'A1']",6.1,270,0,1.435172462302708,[6500|0|0]
6500,1.3374347686767578,-0.3189258277416229,-0.0076960367150604725,0.1016390398144722,0.7431148290634155,3.1897499561309814,4.16015625,2,"['F2', 'B2', 'A1']",6.1,270,0,1.4356776504089541,[6600|0|0]
6600,1.3374837636947632,-0.31927111744880676,-0.007680146489292383,0.16037164628505707,0.7368963956832886,3.207489490509033,4.16015625,2,"['F2', 'B2', 'A1']",6.1,270,0,1.4360267606966162,[6700|0|0]
6700,1.337476372718811,-0.3194767236709595,-0.007541682571172714,0.20464777946472168,0.733901858329773,3.1998345851898193,4.16015625,2,"['F2', 'B2', 'A1']",6.1,270,0,1.4362747542484164,[6800|0|0]
6800,1.3375897407531738,-0.31938308477401733,-0.007606371305882931,0.23133297264575958,0.7169308066368103,3.199519634246826,4.16015625,2,"['F2', 'B2', 'A1']",6.1,270,0,1.4364353941769343,[6900|0|0]
6900,1.3375440835952759,-0.31910306215286255,-0.007696677930653095,0.24767139554023743,0.7033036351203918,3.23093318939209,4.16015625,2,"['F2', 'B2', 'A1']",6.1,270,0,1.4367331399256917,[7000|0|0]
7000,1.3375030755996704,-0.31927287578582764,-0.007396162953227758,0.26591435074806213,0.6952598690986633,3.2544891834259033,4.16015625,2,"['F2', 'B2', 'A1']",6.1,270,0,1.4370807425397518,[7100|0|0]
7100,1.3377578258514404,-0.3196433484554291,-0.0074741533026099205,0.2832714319229126,0.6720698475837708,3.2692501544952393,4.16015625,2,"['F2', 'B2', 'A1']",6.1,270,0,1.4375370649962398,[7200|0|0]
7200,1.3377532958984375,-0.31963902711868286,-0.007498296909034252,0.2864142656326294,0.670915961265564,3.2634997367858887,4.16015625,2,"['F2', 'B2', 'A1']",6.1,270,0,1.4375620070923156,[7300|0|0]
7300,1.3376845121383667,-0.31966954469680786,-0.0076728928834199905,0.296676367521286,0.6688168048858643,3.2795121669769287,4.16015625,2,"['F2', 'B2', 'A1']",6.1,270,0,1.4377521288493447,[7400|0|0]
7400,1.3375751972198486,-0.31931614875793457,-0.0081018740311265,0.2858256697654724,0.6619141697883606,3.288189649581909,4.16015625,2,"['F2', 'B2', 'A1']",6.1,270,0,1.4383185767870321,[7500|0|0]
7500,1.3376727104187012,-0.3195647597312927,-0.0075553711503744125,0.28541550040245056,0.6551539897918701,3.2903995513916016,4.16015625,2,"['F2', 'B2', 'A1']",6.1,270,0,1.4389268379469748,[7600|0|0]
7600,1.3374137878417969,-0.319522500038147,-0.007555611431598663,0.28447195887565613,0.6542047262191772,3.28035569190979,4.16015625,2,"['F2', 'B2', 'A1']",6.1,270,0,1.4391891866466677,[7700|0|0]
7700,1.3377755880355835,-0.3196336030960083,-0.007582251448184252,0.291013240814209,0.6421161890029907,3.277568817138672,4.16015625,2,"['F2', 'B2', 'A1']",6.1,270,0,1.4395685979804123,[7800|0|0]
7800,1.337541103363037,-0.3195382058620453,-0.007593722082674503,0.3114520311355591,0.6562414169311523,3.2661924362182617,4.16015625,2,"['F2', 'B2', 'A1']",6.1,270,0,1.4398220052994908,[7900|0|0]
7900,1.3374701738357544,-0.31965601444244385,-0.0076258499175310135,0.3415643572807312,0.6730861663818359,3.260908842086792,4.16015625,2,"['F2', 'B2', 'A1']",6.1,270,0,1.439963221648504,[8000|0|0]
8000,1.337371826171875,-0.319511741399765,-0.007987651973962784,0.3516262173652649,0.6821721792221069,3.259746789932251,4.16015625,2,"['F2', 'B2', 'A1']",6.1,270,0,1.4403649525309026,[8100|0|0]
8100,1.3377009630203247,-0.3199921250343323,-0.007716546766459942,0.3749721646308899,0.6846522688865662,3.2429351806640625,4.16015625,2,"['F2', 'B2', 'A1']",6.1,270,0,1.4410072900861666,[8200|0|0]
8200,1.3376774787902832,-0.3201572000980377,-0.007682445924729109,0.3862729072570801,0.6903231739997864,3.2760729789733887,4.16015625,2,"['F2', 'B2', 'A1']",6.1,270,0,1.4411774786672311,[8300|0|0]
8300,1.3378772735595703,-0.31996244192123413,-0.007876237854361534,0.38785889744758606,0.6916108131408691,3.2784457206726074,4.16015625,2,"['F2', 'B2', 'A1']",6.1,270,0,1.4415171903232822,[8400|0|0]
8400,1.3374758958816528,-0.31974488496780396,-0.008089466951787472,0.378787100315094,0.7049516439437866,3.3054611682891846,4.16015625,2,"['F2', 'B2', 'A1']",6.1,270,0,1.4420210769338457,[8500|0|0]
8500,1.3374769687652588,-0.31999778747558594,-0.007528157439082861,0.3874107897281647,0.7110649943351746,3.29571795463562,4.16015625,2,"['F2', 'B2', 'A1']",6.1,270,0,1.4426367304066487,[8600|0|0]
8600,1.3377487659454346,-0.3198326528072357,-0.0076841870322823524,0.3786785304546356,0.6981096863746643,3.2801620960235596,4.16015625,2,"['F2', 'B2', 'A1']",6.1,270,0,1.442990973825496,[8700|0|0]
8700,1.3383718729019165,-0.32010921835899353,-0.007965841330587864,0.3773529529571533,0.6980564594268799,3.2942492961883545,4.16015625,2,"['F2', 'B2', 'A1']",6.1,270,0,1.4437285915634803,[8800|0|0]
8800,1.3379759788513184,-0.3201931118965149,-0.007947993464767933,0.3821985721588135,0.708763062953949,3.2814671993255615,4.16015625,2,"['F2', 'B2', 'A1']",6.1,270,0,1.4441336702857692,[8900|0|0]
8900,1.3382573127746582,-0.3201282024383545,-0.007939481176435947,0.3837543725967407,0.7139694690704346,3.3064444065093994,4.16015625,2,"['F2', 'B2', 'A1']",6.1,270,0,1.4444225205466885,[9000|0|0]
9000,1.3381080627441406,-0.319891095161438,-0.007859484292566776,0.37579163908958435,0.7154922485351562,3.3058972358703613,4.16015625,2,"['F2', 'B2', 'A1']",6.1,270,0,1.4447138878986774,[9100|0|0]
9100,1.3383817672729492,-0.31995946168899536,-0.008089225739240646,0.3690774142742157,0.7036316394805908,3.3053877353668213,4.16015625,2,"['F2', 'B2', 'A1']",6.1,270,0,1.4450777137959145,[9200|0|0]
9200,1.3382805585861206,-0.3200703263282776,-0.007904048077762127,0.3688454329967499,0.7031946778297424,3.2884042263031006,4.16015625,2,"['F2', 'B2', 'A1']",6.1,270,0,1.4453160936038754,[9300|0|0]
9300,1.3385956287384033,-0.3197629451751709,-0.00753542548045516,0.337930828332901,0.6733852624893188,3.2700114250183105,4.16015625,2,"['F2', 'B2', 'A1']",6.1,270,0,1.4458902320831555,[9400|0|0]
9400,1.338168740272522,-0.3196544647216797,-0.00799689069390297,0.357424259185791,0.7109984755516052,3.2800064086914062,4.16015625,2,"['F2', 'B2', 'A1']",6.1,270,0,1.4465281599116084,[9500|0|0]
9500,1.338297724723816,-0.31982067227363586,-0.007677569519728422,0.3816407024860382,0.7200686931610107,3.287245273590088,4.16015625,2,"['F2', 'B2', 'A1']",6.1,270,0,1.4469105575466417,[9600|0|0]
9600,1.3380389213562012,-0.32016968727111816,-0.008054475300014019,0.4026872217655182,0.7347798943519592,3.2758123874664307,4.16015625,2,"['F2', 'B2', 'A1']",6.1,270,0,1.447485751964877,[9700|0|0]
9700,1.3381643295288086,-0.3200222849845886,-0.008087958209216595,0.4075757563114166,0.7453599572181702,3.269341468811035,4.16015625,2,"['F2', 'B2', 'A1']",6.1,270,0,1.4476821590651547,[9800|0|0]
9800,1.338393211364746,-0.3198508322238922,-0.00775724183768034,0.407586932182312,0.7467358708381653,3.257272958755493,4.16015625,2,"['F2', 'B2', 'A1']",6.1,270,0,1.4481193732716653,[9900|0|0]
9900,1.3381550312042236,-0.3197949528694153,-0.008018548600375652,0.4080740809440613,0.7547049522399902,3.2750163078308105,4.16015625,2,"['F2', 'B2', 'A1']",6.1,270,0,1.4484773306928114,[10000|0|0]
10000,1.3381307125091553,-0.3200497031211853,-0.007937174290418625,0.412484347820282,0.7607124447822571,3.2788772583007812,4.16015625,2,"['F2', 'B2', 'A1']",6.1,270,0,1.448745865361016,[10100|0|0]
10100,1.338438630104065,-0.3199237585067749,-0.007797710131853819,0.41196301579475403,0.7568423748016357,3.3077590465545654,4.16015625,2,"['F2', 'B2', 'A1']",6.1,270,0,1.4491065945429213,[10200|0|0]
10200,1.3379267454147339,-0.32009369134902954,-0.007902709767222404,0.41412192583084106,0.7722141742706299,3.2907421588897705,4.16015625,2,"['F2', 'B2', 'A1']",6.1,270,0,1.4496560743236921,[10300|0|0]
10300,1.3382668495178223,-0.3200032114982605,-0.00781429186463356,0.41483327746391296,0.763920783996582,3.30045223236084,4.16015625,2,"['F2', 'B2', 'A1']",6.1,270,0,1.450018945002903,[10400|0|0]
10400,1.3383482694625854,-0.3201068043708801,-0.007653610780835152,0.42035138607025146,0.7684939503669739,3.287532091140747,4.16015625,2,"['F2', 'B2', 'A1']",6.1,270,0,1.4502267408193996,[10500|0|0]
10500,1.338541030883789,-0.3199549615383148,-0.007730591576546431,0.40825703740119934,0.7559323906898499,3.273045778274536,4.16015625,2,"['F2', 'B2', 'A1']",6.1,270,0,1.4504839163513117,[10600|0|0]
10600,1.3383738994598389,-0.31990861892700195,-0.00803291518241167,0.4061427414417267,0.7607814073562622,3.2766244411468506,4.16015625,2,"['F2', 'B2', 'A1']",6.1,270,0,1.450832456324856,[10700|0|0]
10700,1.3381578922271729,-0.3197459280490875,-0.008290872909128666,0.4064584970474243,0.7678731679916382,3.276951789855957,4.16015625,2,"['F2', 'B2', 'A1']",6.1,270,0,1.451206180334111,[10800|0|0]
10800,1.3382303714752197,-0.3201727569103241,-0.007846024818718433,0.4233425259590149,0.7675395011901855,3.2749733924865723,4.16015625,2,"['F2', 'B2', 'A1']",6.1,270,0,1.4518269266121695,[10900|0|0]
10900,1.3373922109603882,-0.3197331130504608,-0.007950539700686932,0.3579663038253784,0.7298937439918518,3.287794351577759,4.16015625,2,"['F2', 'B2', 'A1']",6.1,270,0,1.4527791467194404,[11000|0|0]
11000,1.3375502824783325,-0.3197200894355774,-0.0077751134522259235,0.332047700881958,0.6959992051124573,3.2867794036865234,4.16015625,2,"['F2', 'B2', 'A1']",6.1,270,0,1.4530156432056278,[11100|0|0]
11100,1.3377503156661987,-0.3197171986103058,-0.007341374177485704,0.2966992259025574,0.657086193561554,3.2841947078704834,4.16015625,2,"['F2', 'B2', 'A1']",6.1,270,0,1.4534932951621515,[11200|0|0]
11200,1.337958574295044,-0.32003045082092285,-0.007864667102694511,0.283509224653244,0.6524395942687988,3.2932538986206055,4.16015625,2,"['F2', 'B2', 'A1']",6.1,270,0,1.454137759350077,[11300|0|0]
11300,1.3380882740020752,-0.3202369213104248,-0.0078707505017519,0.28248849511146545,0.6377881169319153,3.2617151737213135,4.16015625,2,"['F2', 'B2', 'A1']",6.1,270,0,1.4543816631933908,[11400|0|0]
11400,1.338402509689331,-0.31992393732070923,-0.00753792654722929,0.27308008074760437,0.628038227558136,3.2681210041046143,4.16015625,2,"['F2', 'B2', 'A1']",6.1,270,0,1.4549361673229224,[11500|0|0]
11500,1.3383420705795288,-0.3201189637184143,-0.007799397222697735,0.2762854993343353,0.6295695900917053,3.2577085494995117,4.16015625,2,"['F2', 'B2', 'A1']",6.1,270,0,1.4552679128517927,[11600|0|0]
11600,1.3380557298660278,-0.3200114071369171,-0.007868356071412563,0.27629438042640686,0.6307108402252197,3.2686281204223633,4.16015625,2,"['F2', 'B2', 'A1']",6.1,270,0,1.4555814646740608,[11700|0|0]
11700,1.3383580446243286,-0.3198995590209961,-0.007625054568052292,0.267210453748703,0.6220383644104004,3.275283098220825,4.16015625,2,"['F2', 'B2', 'A1']",6.1,270,0,1.455985320880722,[11800|0|0]
11800,1.3376480340957642,-0.31932753324508667,-0.007519523147493601,0.2622283697128296,0.6240354776382446,3.3002796173095703,4.16015625,2,"['F2', 'B2', 'A1']",6.1,270,0,1.4569031799765,[11900|0|0]
11900,1.3382982015609741,-0.3200353980064392,-0.007966811768710613,0.26954150199890137,0.6236425042152405,3.2943453788757324,4.16015625,2,"['F2', 'B2', 'A1']",6.1,270,0,1.4579633013675928,[12000|0|0]
12000,1.338120460510254,-0.3198716938495636,-0.008105154149234295,0.26372846961021423,0.626950740814209,3.2799084186553955,4.16015625,2,"['F2', 'B2', 'A1']",6.1,270,0,1.4582417426474679,[12100|0|0]
12100,1.338410496711731,-0.3198707699775696,-0.007712143007665873,0.26279011368751526,0.611797571182251,3.258638620376587,4.16015625,2,"['F2', 'B2', 'A1']",6.1,270,0,1.4587301887643565,[12200|0|0]
12200,1.3379833698272705,-0.3201122581958771,-0.008156444877386093,0.27638158202171326,0.6315627694129944,3.2530605792999268,4.16015625,2,"['F2', 'B2', 'A1']",6.1,270,0,1.4593921238717855,[12300|0|0]
12300,1.3380262851715088,-0.32026615738868713,-0.008176431991159916,0.2816512882709503,0.6325467824935913,3.2747933864593506,4.16015625,2,"['F2', 'B2', 'A1']",6.1,270,0,1.4595531399363122,[12400|0|0]
12400,1.3382655382156372,-0.3201358914375305,-0.0076806629076600075,0.2971353828907013,0.6362808346748352,3.263613224029541,4.16015625,2,"['F2', 'B2', 'A1']",6.1,270,0,1.4601188237891043,[12500|0|0]
12500,1.3385181427001953,-0.3203437626361847,-0.008010085672140121,0.33403605222702026,0.6578688025474548,3.26832914352417,4.16015625,2,"['F2', 'B2', 'A1']",6.1,270,0,1.4605830853733501,[12600|0|0]
12600,1.3385059833526611,-0.3201642334461212,-0.007676490116864443,0.34552034735679626,0.6806730628013611,3.2973411083221436,4.16015625,2,"['F2', 'B2', 'A1']",6.1,270,0,1.4609621164727562,[12700|0|0]
12700,1.3381102085113525,-0.32000160217285156,-0.008230541832745075,0.3590478003025055,0.6996274590492249,3.2694034576416016,4.16015625,2,"['F2', 'B2', 'A1']",6.1,270,0,1.4616621592999663,[12800|0|0]
12800,1.3381352424621582,-0.32021841406822205,-0.008104044944047928,0.37240055203437805,0.7022632956504822,3.278754711151123,4.16015625,2,"['F2', 'B2', 'A1']",6.1,270,0,1.4619144201957015,[12900|0|0]
12900,1.3381139039993286,-0.32020291686058044,-0.008121141232550144,0.37284162640571594,0.7087199091911316,3.2915103435516357,4.16015625,2,"['F2', 'B2', 'A1']",6.1,270,0,1.4619458491078872,[13000|0|0]
13000,1.3380200862884521,-0.3200490176677704,-0.008186428807675838,0.361942857503891,0.7001024484634399,3.3021512031555176,4.16015625,2,"['F2', 'B2', 'A1']",6.1,270,0,1.462137549895281,[13100|0|0]
13100,1.3383567333221436,-0.32021620869636536,-0.007840033620595932,0.38024085760116577,0.707985520362854,3.294576406478882,4.16015625,2,"['F2', 'B2', 'A1']",6.1,270,0,1.4626486992775247,[13200|0|0]
13200,1.3382863998413086,-0.3199865221977234,-0.007944978773593903,0.3742940127849579,0.7154337763786316,3.3065860271453857,4.16015625,2,"['F2', 'B2', 'A1']",6.1,270,0,1.4629108369728732,[13300|0|0]
13300,1.3381649255752563,-0.3201795816421509,-0.00800644513219595,0.37710025906562805,0.7220531105995178,3.3099849224090576,4.16015625,2,"['F2', 'B2', 'A1']",6.1,270,0,1.4631470700349865,[13400|0|0]
13400,1.3382138013839722,-0.32019665837287903,-0.00786824431270361,0.3815805912017822,0.7158607840538025,3.2930853366851807,4.16015625,2,"['F2', 'B2', 'A1']",6.1,270,0,1.463294650270514,[13500|0|0]
13500,1.338133454322815,-0.31982532143592834,-0.008208037354052067,0.37425848841667175,0.7147806286811829,3.2716329097747803,4.16015625,2,"['F2', 'B2', 'A1']",6.1,270,0,1.4638043620340915,[13600|0|0]
13600,1.3382900953292847,-0.3202216327190399,-0.007823355495929718,0.38187214732170105,0.7112228870391846,3.272803544998169,4.16015625,2,"['F2', 'B2', 'A1']",6.1,270,0,1.4643784518963934,[13700|0|0]
13700,1.338609218597412,-0.3200397491455078,-0.008071265183389187,0.3828725516796112,0.7023038268089294,3.2812342643737793,4.16015625,2,"['F2', 'B2', 'A1']",6.1,270,0,1.4648216003001109,[13800|0|0]
13800,1.3382081985473633,-0.3200153112411499,-0.007795128505676985,0.3782416582107544,0.7104253172874451,3.2757513523101807,4.16015625,2,"['F2', 'B2', 'A1']",6.1,270,0,1.465309110050258,[13900|0|0]
13900,1.3378746509552002,-0.3200215697288513,-0.008409427478909492,0.5011717081069946,0.8210939764976501,3.2734062671661377,4.16015625,2,"['F2', 'B2', 'A1']",6.1,270,0,1.4660081496724688,[14000|0|0]
14000,1.338078260421753,-0.32013896107673645,-0.007719480898231268,0.4792434573173523,0.78797847032547,3.2851150035858154,4.16015625,2,"['F2', 'B2', 'A1']",6.1,270,0,1.4667370281449303,[14100|0|0]
14100,1.3382693529129028,-0.32008591294288635,-0.007745909504592419,0.449504554271698,0.7601725459098816,3.299254894256592,4.16015625,2,"['F2', 'B2', 'A1']",6.1,270,0,1.4669371004216532,[14200|0|0]
14200,1.3382034301757812,-0.3199426531791687,-0.007798532024025917,0.42509326338768005,0.7482421398162842,3.2809038162231445,4.16015625,2,"['F2', 'B2', 'A1']",6.1,270,0,1.4671033481185443,[14300|0|0]
14300,1.3382978439331055,-0.31994134187698364,-0.00791970081627369,0.3975379168987274,0.7303928732872009,3.278998374938965,4.16015625,2,"['F2', 'B2', 'A1']",6.1,270,0,1.467256963069966,[14400|0|0]
14400,1.3381009101867676,-0.32021716237068176,-0.007801231928169727,0.3964668810367584,0.7320133447647095,3.274329900741577,4.16015625,2,"['F2', 'B2', 'A1']",6.1,270,0,1.467615982181768,[14500|0|0]
14500,1.3383538722991943,-0.31994426250457764,-0.007768884766846895,0.38891083002090454,0.7235715389251709,3.262070655822754,4.16015625,2,"['F2', 'B2', 'A1']",6.1,270,0,1.4679894932339321,[14600|0|0]
14600,1.3388458490371704,-0.3202437162399292,-0.00811026617884636,0.3993169963359833,0.7329971790313721,3.2638978958129883,4.16015625,2,"['F2', 'B2', 'A1']",6.1,270,0,1.468659011656968,[14700|0|0]
14700,1.338934302330017,-0.32021453976631165,-0.008196010254323483,0.39381200075149536,0.7299304604530334,3.2800533771514893,4.16015625,2,"['F2', 'B2', 'A1']",6.1,270,0,1.4687856106226336,[14800|0|0]
14800,1.33902907371521,-0.3201654255390167,-0.008039033971726894,0.3908824622631073,0.7294103503227234,3.2702646255493164,4.16015625,2,"['F2', 'B2', 'A1']",6.1,270,0,1.468975440483488,[14900|0|0]
14900,1.3390098810195923,-0.32017645239830017,-0.008238783106207848,0.38958269357681274,0.7345404624938965,3.2926182746887207,4.16015625,2,"['F2', 'B2', 'A1']",6.1,270,0,1.4691764122922488,[15000|0|0]
15000,1.3380168676376343,-0.32029831409454346,-0.008106821216642857,0.39277446269989014,0.7428967952728271,3.2928194999694824,4.16015625,2,"['F2', 'B2', 'A1']",6.1,270,0,1.4701855405249609,[15100|0|0]
15100,1.3389636278152466,-0.3201372027397156,-0.008250400424003601,0.38500213623046875,0.7352282404899597,3.306043863296509,4.16015625,2,"['F2', 'B2', 'A1']",6.1,270,0,1.471156584649269,[15200|0|0]
15200,1.338964819908142,-0.320056289434433,-0.008090613409876823,0.3835117816925049,0.7395365834236145,3.3030033111572266,4.16015625,2,"['F2', 'B2', 'A1']",6.1,270,0,1.4713356943194176,[15300|0|0]
15300,1.3387863636016846,-0.3200002908706665,-0.008245703764259815,0.38671961426734924,0.7514359951019287,3.284188747406006,4.16015625,2,"['F2', 'B2', 'A1']",6.1,270,0,1.4715786665616202,[15400|0|0]
15400,1.3386694192886353,-0.3198394775390625,-0.008542222902178764,0.3833167552947998,0.7594610452651978,3.304353952407837,4.16015625,2,"['F2', 'B2', 'A1']",6.1,270,0,1.4719356826664787,[15500|0|0]
15500,1.3379466533660889,-0.3194299638271332,-0.008069819770753384,0.14068220555782318,0.5662032961845398,3.3064796924591064,4.16015625,2,"['F2', 'B2', 'A1']",6.1,270,0,1.472891327358628,[15600|0|0]
15600,1.3382534980773926,-0.31978848576545715,-0.008009959012269974,0.1950780153274536,0.5970625281333923,3.306363105773926,4.16015625,2,"['F2', 'B2', 'A1']",6.1,270,0,1.4733670110429402,[15700|0|0]
15700,1.3296445608139038,-0.3300246298313141,-0.011378882452845573,0.509548008441925,0.8579667806625366,3.2847344875335693,4.16015625,2,"['F2', 'B2', 'A1']",6.1,270,0,1.487159838573658,[15800|0|0]
15800,1.3382951021194458,-0.3198970556259155,-0.008006535470485687,0.23475617170333862,0.6319441199302673,3.294240713119507,4.16015625,2,"['F2', 'B2', 'A1']",6.1,270,0,1.5008992835527746,[15900|0|0]
15900,1.3383806943893433,-0.3198987543582916,-0.007685038726776838,0.23750776052474976,0.6297092437744141,3.284475803375244,4.16015625,2,"['F2', 'B2', 'A1']",6.1,270,0,1.5012319832350307,[16000|0|0]
16000,1.3297233581542969,-0.3300928771495819,-0.011500200256705284,0.5463194251060486,0.8846234679222107,3.285017728805542,4.16015625,2,"['F2', 'B2', 'A1']",6.1,270,0,1.51513971733049,[16100|0|0]
16100,1.3299951553344727,-0.330380916595459,-0.011581029742956161,0.5616413950920105,0.8882240056991577,3.2741432189941406,4.16015625,2,"['F2', 'B2', 'A1']",6.1,270,0,1.5155439126241046,[16200|0|0]
16200,1.3295196294784546,-0.3302542269229889,-0.01149988453835249,0.5642015933990479,0.9043305516242981,3.2645857334136963,4.16015625,2,"['F2', 'B2', 'A1']",6.1,270,0,1.5160426707389083,[16300|0|0]
16300,1.329338788986206,-0.3298821449279785,-0.011612238362431526,0.557849109172821,0.9063719511032104,3.2797088623046875,4.16015625,2,"['F2', 'B2', 'A1']",6.1,270,0,1.5164713567270545,[16400|0|0]
16400,1.3296188116073608,-0.3300156593322754,-0.01134372316300869,0.5671419501304626,0.8974220156669617,3.2836198806762695,4.16015625,2,"['F2', 'B2', 'A1']",6.1,270,0,1.5168816483024423,[16500|0|0]
16500,1.3296117782592773,-0.3300875425338745,-0.011382896453142166,0.5649566650390625,0.9002020359039307,3.295789957046509,4.16015625,2,"['F2', 'B2', 'A1']",6.1,270,0,1.5169638140454091,[16600|0|0]
16600,1.329559087753296,-0.3301977217197418,-0.011500713415443897,0.5739349722862244,0.8986313939094543,3.297816276550293,4.16015625,2,"['F2', 'B2', 'A1']",6.1,270,0,1.5171335095934502,[16700|0|0]
16700,1.3296884298324585,-0.3302094042301178,-0.011212910525500774,0.5787401795387268,0.8970420956611633,3.3006622791290283,4.16015625,2,"['F2', 'B2', 'A1']",6.1,270,0,1.517449256894231,[16800|0|0]
16800,1.3296186923980713,-0.330155611038208,-0.011308497749269009,0.5735316276550293,0.8965888619422913,3.2978248596191406,4.16015625,2,"['F2', 'B2', 'A1']",6.1,270,0,1.5175792335636702,[16900|0|0]
16900,1.3297451734542847,-0.33028504252433777,-0.01132117584347725,0.5764127969741821,0.8953537344932556,3.304055690765381,4.16015625,2,"['F2', 'B2', 'A1']",6.1,270,0,1.5177606466317093,[17000|0|0]
17000,1.329203486442566,-0.32979461550712585,-0.01180482842028141,0.5625502467155457,0.9098436832427979,3.3344666957855225,4.16015625,2,"['F2', 'B2', 'A1']",6.1,270,0,1.5186369247228,[17100|0|0]
17100,1.329648494720459,-0.330292671918869,-0.011288336478173733,0.5784620642662048,0.9013335108757019,3.307131767272949,4.16015625,2,"['F2', 'B2', 'A1']",6.1,270,0,1.5194812330094667,[17200|0|0]
17200,1.3295763731002808,-0.3300541639328003,-0.01141703687608242,0.5691749453544617,0.9008333683013916,3.281787157058716,4.16015625,2,"['F2', 'B2', 'A1']",6.1,270,0,1.5197616815429582,[17300|0|0]
17300,1.3294800519943237,-0.32991719245910645,-0.01152387447655201,0.5677014589309692,0.8968753218650818,3.2741928100585938,4.16015625,2,"['F2', 'B2', 'A1']",6.1,270,0,1.5199603098715841,[17400|0|0]
17400,1.3296397924423218,-0.32989421486854553,-0.011264464817941189,0.5688283443450928,0.8885616660118103,3.2750895023345947,4.16015625,2,"['F2', 'B2', 'A1']",6.1,270,0,1.5202658231305028,[17500|0|0]
17501,1.3296693563461304,-0.33007892966270447,-0.011384900659322739,0.5784013867378235,0.8954008221626282,3.2782528400421143,4.16015625,2,"['F2', 'B2', 'A1']",6.1,270,0,1.5204883054252565,[17600|0|0]
17601,1.3295382261276245,-0.33014050126075745,-0.011433443985879421,0.5839217901229858,0.9044690728187561,3.260214328765869,4.16015625,2,"['F2', 'B2', 'A1']",6.1,270,0,1.520641088442786,[17700|0|0]
17700,1.3296303749084473,-0.3300589323043823,-0.011523708701133728,0.5809691548347473,0.9001289010047913,3.255176305770874,4.16015625,2,"['F2', 'B2', 'A1']",6.1,270,0,1.5207937076135056,[17800|0|0]
17801,1.3296557664871216,-0.33012470602989197,-0.01150007825344801,0.5851096510887146,0.9058809876441956,3.257868766784668,4.16015625,2,"['F2', 'B2', 'A1']",6.1,270,0,1.520868066965929,[17900|0|0]
17901,1.3293813467025757,-0.32970964908599854,-0.011849909089505672,0.5730950236320496,0.9106491208076477,3.2654659748077393,4.16015625,2,"['F2', 'B2', 'A1']",6.1,270,0,1.5214763104193925,[18000|0|0]
18001,1.3297871351242065,-0.3300710916519165,-0.011355473659932613,0.5852022767066956,0.8917960524559021,3.2558071613311768,4.16015625,2,"['F2', 'B2', 'A1']",6.1,270,0,1.5222110017597552,[18100|0|0]
18101,1.3293936252593994,-0.3300514817237854,-0.011755714192986488,0.5833942294120789,0.900341272354126,3.2712697982788086,4.16015625,2,"['F2', 'B2', 'A1']",6.1,270,0,1.5227726306828717,[18200|0|0]
18201,1.3295303583145142,-0.33009839057922363,-0.01163080520927906,0.5877540707588196,0.8908234238624573,3.2896318435668945,4.16015625,2,"['F2', 'B2', 'A1']",6.1,270,0,1.5229636768115693,[18300|0|0]
18301,1.329466462135315,-0.33009806275367737,-0.011347588151693344,0.5875347256660461,0.8916535973548889,3.2712595462799072,4.16015625,2,"['F2', 'B2', 'A1']",6.1,270,0,1.523254012360363,[18400|0|0]
18402,1.3293801546096802,-0.32999885082244873,-0.011697348207235336,0.5804365277290344,0.8872071504592896,3.276402473449707,4.16015625,2,"['F2', 'B2', 'A1']",6.1,270,0,1.5236276754341769,[18500|0|0]
18502,1.3296780586242676,-0.3301986753940582,-0.011315847747027874,0.5859801173210144,0.883666455745697,3.2899415493011475,4.16015625,2,"['F2', 'B2', 'A1']",6.1,270,0,1.5241513349251294,[18600|0|0]
18602,1.3296842575073242,-0.33038073778152466,-0.011296283453702927,0.5825814604759216,0.8816792368888855,3.27588152885437,4.16015625,2,"['F2', 'B2', 'A1']",6.1,270,0,1.5243345503738623,[18700|0|0]
18702,1.329472303390503,-0.33002927899360657,-0.011564613319933414,0.5705124139785767,0.8788423538208008,3.3032610416412354,4.16015625,2,"['F2', 'B2', 'A1']",6.1,270,0,1.5248249061063195,[18800|0|0]
18802,1.3297864198684692,-0.33016079664230347,-0.01134945172816515,0.5736935138702393,0.8696563839912415,3.286606550216675,4.16015625,2,"['F2', 'B2', 'A1']",6.1,270,0,1.525227721900723,[18900|0|0]
18900,1.3296656608581543,-0.3301659822463989,-0.01148865558207035,0.5732149481773376,0.8758607506752014,3.297490119934082,4.16015625,2,"['F2', 'B2', 'A1']",6.1,270,0,1.5254120784628633,[19000|0|0]
19000,1.3295973539352417,-0.3299930989742279,-0.011445041745901108,0.5678251385688782,0.8821287155151367,3.2844409942626953,4.16015625,2,"['F2', 'B2', 'A1']",6.1,270,0,1.525603014651732,[19100|0|0]
19102,1.3297152519226074,-0.33014729619026184,-0.011027160100638866,0.5628812313079834,0.8683062195777893,3.265380382537842,4.16015625,2,"['F2', 'B2', 'A1']",6.1,270,0,1.5260637768315002,[19200|0|0]
19202,1.329742193222046,-0.33020392060279846,-0.01140096690505743,0.5680575966835022,0.871468186378479,3.267210006713867,4.16015625,2,"['F2', 'B2', 'A1']",6.1,270,0,1.5264428067574165,[19300|0|0]
19300,1.3303841352462769,-0.3296312391757965,-0.011997261084616184,0.5859336853027344,0.8983080387115479,3.2697393894195557,4.16015625,2,"['F2', 'B2', 'A1']",6.1,270,0,1.5274895255963998,[19400|0|0]
19400,1.3305721282958984,-0.3300882875919342,-0.011483895592391491,0.6312863826751709,0.9240308403968811,3.282554864883423,4.16015625,2,"['F2', 'B2', 'A1']",6.1,270,0,1.5282021115701652,[19500|0|0]
19500,1.330199956893921,-0.3300962746143341,-0.011690789833664894,0.6537616848945618,0.9568694233894348,3.2694530487060547,4.16015625,2,"['F2', 'B2', 'A1']",6.1,270,0,1.5286279995507996,[19600|0|0]
19600,1.3302584886550903,-0.33027079701423645,-0.011648694053292274,0.6721095442771912,0.9691759347915649,3.2605865001678467,4.16015625,2,"['F2', 'B2', 'A1']",6.1,270,0,1.5288168277527676,[19700|0|0]
19700,1.3304163217544556,-0.33010053634643555,-0.01172771118581295,0.6778045296669006,0.9701350331306458,3.260352849960327,4.16015625,2,"['F2', 'B2', 'A1']",6.1,270,0,1.5290620698565895,[19800|0|0]
19800,1.3303217887878418,-0.33009985089302063,-0.011784495785832405,0.6832178831100464,0.9674708247184753,3.2757112979888916,4.16015625,2,"['F2', 'B2', 'A1']",6.1,270,0,1.529172348786683,[19900|0|0]
19900,1.330167293548584,-0.33025944232940674,-0.01171625405550003,0.6861051917076111,0.9736924767494202,3.2778220176696777,4.16015625,2,"['F2', 'B2', 'A1']",6.1,270,0,1.5294047173286156,[20000|0|0]
20000,1.33052396774292,-0.3297288119792938,-0.011501646600663662,0.519989013671875,0.8242902755737305,3.2862744331359863,4.16015625,2,"['F2', 'B2', 'A1']",6.1,270,0,1.5300791366410893,[20100|0|0]
20100,1.3304768800735474,-0.32979610562324524,-0.011375879868865013,0.541288435459137,0.845346987247467,3.285893678665161,4.16015625,2,"['F2', 'B2', 'A1']",6.1,270,0,1.5302293463410108,[20200|0|0]
20200,1.330167531967163,-0.32968869805336,-0.011672521941363811,0.5607918500900269,0.8783661127090454,3.290727138519287,4.16015625,2,"['F2', 'B2', 'A1']",6.1,270,0,1.5306711937764097,[20300|0|0]
20300,1.330483317375183,-0.3300686180591583,-0.011444471776485443,0.592117965221405,0.8853503465652466,3.278668165206909,4.16015625,2,"['F2', 'B2', 'A1']",6.1,270,0,1.5312153137194602,[20400|0|0]
20400,1.3302905559539795,-0.32983118295669556,-0.011649945750832558,0.6061203479766846,0.9018118381500244,3.271179676055908,4.16015625,2,"['F2', 'B2', 'A1']",6.1,270,0,1.5315837590308972,[20500|0|0]
20500,1.330251693725586,-0.3299296796321869,-0.01152935903519392,0.6071645617485046,0.9107496738433838,3.25618839263916,4.16015625,2,"['F2', 'B2', 'A1']",6.1,270,0,1.5317442365180007,[20600|0|0]
20600,1.3296605348587036,-0.32993820309638977,-0.011189187876880169,0.4970338046550751,0.8477144837379456,3.244574546813965,4.16015625,2,"['F2', 'B2', 'A1']",6.1,270,0,1.5324263346577756,[20700|0|0]
20700,1.3296136856079102,-0.32999733090400696,-0.0112604396417737,0.5321543216705322,0.8634516000747681,3.227895736694336,4.16015625,2,"['F2', 'B2', 'A1']",6.1,270,0,1.5325301024944784,[20800|0|0]
20800,1.329525113105774,-0.32968276739120483,-0.011644372716546059,0.545316219329834,0.8887174725532532,3.2432358264923096,4.16015625,2,"['F2', 'B2', 'A1']",6.1,270,0,1.533034284899591,[20900|0|0]
20900,1.3295456171035767,-0.3297300636768341,-0.011409556493163109,0.5583765506744385,0.8935056328773499,3.242065191268921,4.16015625,2,"['F2', 'B2', 'A1']",6.1,270,0,1.533274692909699,[21000|0|0]
21000,1.3295546770095825,-0.33040058612823486,-0.011431839317083359,0.5914368629455566,0.9067188501358032,3.2375431060791016,4.16015625,2,"['F2', 'B2', 'A1']",6.1,270,0,1.5339456466815575,[21100|0|0]
21100,1.3293792009353638,-0.32993364334106445,-0.01160646602511406,0.5821763873100281,0.9148030281066895,3.244290828704834,4.16015625,2,"['F2', 'B2', 'A1']",6.1,270,0,1.5344741558170238,[21200|0|0]
21200,1.3295320272445679,-0.3302769958972931,-0.011183592490851879,0.5929767489433289,0.9112058877944946,3.257133960723877,4.16015625,2,"['F2', 'B2', 'A1']",6.1,270,0,1.5350399021246857,[21300|0|0]
21300,1.330412745475769,-0.33008816838264465,-0.011475110426545143,0.5819589495658875,0.9036039113998413,3.2530338764190674,4.16015625,2,"['F2', 'B2', 'A1']",6.1,270,0,1.5359866350014197,[21400|0|0]
21400,1.3304542303085327,-0.33028456568717957,-0.011449692770838737,0.5896238088607788,0.902679443359375,3.2785956859588623,4.16015625,2,"['F2', 'B2', 'A1']",6.1,270,0,1.5361889687598478,[21500|0|0]
21500,1.330545425415039,-0.33002084493637085,-0.011561514809727669,0.5862820148468018,0.9008041620254517,3.285341739654541,4.16015625,2,"['F2', 'B2', 'A1']",6.1,270,0,1.5364895837133001,[21600|0|0]
21600,1.330478310585022,-0.32991981506347656,-0.01178562268614769,0.5781968235969543,0.8987019658088684,3.281188488006592,4.16015625,2,"['F2', 'B2', 'A1']",6.1,270,0,1.5367444087040265,[21700|0|0]
21700,1.3305405378341675,-0.33013591170310974,-0.011592364870011806,0.5767630934715271,0.8861539959907532,3.2719995975494385,4.16015625,2,"['F2', 'B2', 'A1']",6.1,270,0,1.5370409193643653,[21800|0|0]
21800,1.3304585218429565,-0.32996228337287903,-0.011584269814193249,0.6172065138816833,0.9149921536445618,3.245734691619873,4.16015625,2,"['F2', 'B2', 'A1']",6.1,270,0,1.5372331144470333,[21900|0|0]
21900,1.3305109739303589,-0.329967200756073,-0.011733705177903175,0.6517713665962219,0.9367713928222656,3.248854160308838,4.16015625,2,"['F2', 'B2', 'A1']",6.1,270,0,1.5373915642184357,[22000|0|0]
22000,1.330277919769287,-0.32988154888153076,-0.011716663837432861,0.679679274559021,0.9597199559211731,3.2446134090423584,4.16015625,2,"['F2', 'B2', 'A1']",6.1,270,0,1.537640443492162,[22100|0|0]
22100,1.3303468227386475,-0.3300911486148834,-0.011820202693343163,0.6961341500282288,0.9676265716552734,3.252480983734131,4.16015625,2,"['F2', 'B2', 'A1']",6.1,270,0,1.5378841645665307,[22200|0|0]
22200,1.3304502964019775,-0.3301871120929718,-0.011363368481397629,0.7053794264793396,0.9679384827613831,3.2634763717651367,4.16015625,2,"['F2', 'B2', 'A1']",6.1,270,0,1.5383622997831103,[22300|0|0]
22300,1.3302804231643677,-0.33009710907936096,-0.01169960480183363,0.7038273811340332,0.9774261713027954,3.2625203132629395,4.16015625,2,"['F2', 'B2', 'A1']",6.1,270,0,1.5387496140256776,[22400|0|0]
22400,1.3302940130233765,-0.3304034471511841,-0.01154299359768629,0.714566707611084,0.9829074144363403,3.2574925422668457,4.16015625,2,"['F2', 'B2', 'A1']",6.1,270,0,1.5390939318552779,[22500|0|0]
22500,1.3302505016326904,-0.3300883173942566,-0.011928931809961796,0.7085511088371277,0.9869478940963745,3.286180019378662,4.16015625,2,"['F2', 'B2', 'A1']",6.1,270,0,1.539594080141804,[22600|0|0]
22600,1.3304216861724854,-0.3301790654659271,-0.011298141442239285,0.7195035815238953,0.982531726360321,3.2802889347076416,4.16015625,2,"['F2', 'B2', 'A1']",6.1,270,0,1.540253955771895,[22700|0|0]
22700,1.3302820920944214,-0.3303753435611725,-0.01161944679915905,0.7161915302276611,0.9789682030677795,3.2515146732330322,4.16015625,2,"['F2', 'B2', 'A1']",6.1,270,0,1.540655513650275,[22800|0|0]
22800,1.3301403522491455,-0.33024871349334717,-0.011619667522609234,0.7049177289009094,0.9712647199630737,3.22489857673645,4.16015625,2,"['F2', 'B2', 'A1']",6.1,270,0,1.5408455804978185,[22900|0|0]
22900,1.3302488327026367,-0.3302333354949951,-0.011414017528295517,0.7047775387763977,0.9729636907577515,3.247446060180664,4.16015625,2,"['F2', 'B2', 'A1']",6.1,270,0,1.541078596402392,[23000|0|0]
23000,1.3302081823349,-0.32994192838668823,-0.011840889230370522,0.6898775696754456,0.9616098999977112,3.2604475021362305,4.16015625,2,"['F2', 'B2', 'A1']",6.1,270,0,1.5415970460192319,[23100|0|0]
23100,1.3302583694458008,-0.32992738485336304,-0.011938185431063175,0.6934012174606323,0.9675354957580566,3.2654173374176025,4.16015625,2,"['F2', 'B2', 'A1']",6.1,270,0,1.5417074851931303,[23200|0|0]
23200,1.3303989171981812,-0.3301740884780884,-0.011612430214881897,0.6958600878715515,0.962346076965332,3.2700788974761963,4.16015625,2,"['F2', 'B2', 'A1']",6.1,270,0,1.5421396111123034,[23300|0|0]
23300,1.3302876949310303,-0.33006441593170166,-0.011808124370872974,0.6858721375465393,0.9647867679595947,3.2832565307617188,4.16015625,2,"['F2', 'B2', 'A1']",6.1,270,0,1.542390000135286,[23400|0|0]
23400,1.330429196357727,-0.33024027943611145,-0.011462711729109287,0.6845500469207764,0.9585379362106323,3.296870708465576,4.16015625,2,"['F2', 'B2', 'A1']",6.1,270,0,1.5428026265026338,[23500|0|0]
23500,1.3303724527359009,-0.33019089698791504,-0.011468064039945602,0.6776334643363953,0.9510044455528259,3.2876715660095215,4.16015625,2,"['F2', 'B2', 'A1']",6.1,270,0,1.5428780394460793,[23600|0|0]
23600,1.330123782157898,-0.330203652381897,-0.011530434712767601,0.6778489351272583,0.9547331929206848,3.288923501968384,4.16015625,2,"['F2', 'B2', 'A1']",6.1,270,0,1.5431347296431421,[23700|0|0]
23700,1.3303278684616089,-0.3301689922809601,-0.011454908177256584,0.6730507612228394,0.9467640519142151,3.297647476196289,4.16015625,2,"['F2', 'B2', 'A1']",6.1,270,0,1.5433550857175435,[23800|0|0]
23800,1.3307031393051147,-0.3301592767238617,-0.011524258181452751,0.6706258654594421,0.9361478090286255,3.294177532196045,4.16015625,2,"['F2', 'B2', 'A1']",6.1,270,0,1.5437368343535822,[23900|0|0]
23900,1.3303661346435547,-0.3302924931049347,-0.011658435687422752,0.6666414141654968,0.9469526410102844,3.2892343997955322,4.16015625,2,"['F2', 'B2', 'A1']",6.1,270,0,1.5441232568544898,[24000|0|0]
24000,1.3302587270736694,-0.33008867502212524,-0.01152572501450777,0.6646204590797424,0.9534532427787781,3.293747901916504,4.16015625,2,"['F2', 'B2', 'A1']",6.1,270,0,1.5443891333665294,[24100|0|0]
24100,1.330331802368164,-0.32999545335769653,-0.01173879113048315,0.6631551384925842,0.947266697883606,3.290337085723877,4.16015625,2,"['F2', 'B2', 'A1']",6.1,270,0,1.5446329108206984,[24200|0|0]
24200,1.3303951025009155,-0.33018577098846436,-0.011826799251139164,0.677432656288147,0.9457033276557922,3.2809243202209473,4.16015625,2,"['F2', 'B2', 'A1']",6.1,270,0,1.5448519385282808,[24300|0|0]
24300,1.3303338289260864,-0.330128014087677,-0.011541099287569523,0.6764233708381653,0.9406813383102417,3.270937919616699,4.16015625,2,"['F2', 'B2', 'A1']",6.1,270,0,1.5451497887922467,[24400|0|0]
24400,1.3301242589950562,-0.3302365839481354,-0.011528363451361656,0.6813348531723022,0.9400192499160767,3.2702789306640625,4.16015625,2,"['F2', 'B2', 'A1']",6.1,270,0,1.545386155397578,[24500|0|0]
24500,1.3303403854370117,-0.33006149530410767,-0.011390988714993,0.6730085015296936,0.9315467476844788,3.2814815044403076,4.16015625,2,"['F2', 'B2', 'A1']",6.1,270,0,1.5456963786887286,[24600|0|0]
24600,1.3303325176239014,-0.33016183972358704,-0.01134491991251707,0.66843581199646,0.9287691712379456,3.286652088165283,4.16015625,2,"['F2', 'B2', 'A1']",6.1,270,0,1.5458070730407316,[24700|0|0]
24700,1.3306021690368652,-0.32968956232070923,-0.01132392231374979,0.5104156136512756,0.7855496406555176,3.2974002361297607,4.16015625,2,"['F2', 'B2', 'A1']",6.1,270,0,1.5463513144659617,[24800|0|0]
24800,1.3304246664047241,-0.3299175798892975,-0.011224298737943172,0.5463472008705139,0.8057026267051697,3.303318977355957,4.16015625,2,"['F2', 'B2', 'A1']",6.1,270,0,1.5466569679509057,[24900|0|0]
24900,1.3305749893188477,-0.3297237455844879,-0.0115131800994277,0.46151217818260193,0.7521700859069824,3.291576385498047,4.16015625,2,"['F2', 'B2', 'A1']",6.1,270,0,1.5470359417722241,[25000|0|0]
25000,1.3306620121002197,-0.3297974169254303,-0.011360769160091877,0.5035020709037781,0.7823222279548645,3.294253349304199,4.16015625,2,"['F2', 'B2', 'A1']",6.1,270,0,1.5472262823232983,[25100|0|0]
25100,1.330468773841858,-0.3300776481628418,-0.01153663918375969,0.5459586381912231,0.8197488188743591,3.2870583534240723,4.16015625,2,"['F2', 'B2', 'A1']",6.1,270,0,1.547609428295665,[25200|0|0]
25200,1.330641269683838,-0.3300182819366455,-0.011551085859537125,0.563976526260376,0.8377923369407654,3.279715061187744,4.16015625,2,"['F2', 'B2', 'A1']",6.1,270,0,1.547792425210268,[25300|0|0]
25300,1.3304611444473267,-0.329833984375,-0.011606057174503803,0.5696574449539185,0.857435941696167,3.2792627811431885,4.16015625,2,"['F2', 'B2', 'A1']",6.1,270,0,1.5480559257558573,[25400|0|0]
25400,1.3305436372756958,-0.33023127913475037,-0.011342628858983517,0.5905982255935669,0.8742256164550781,3.2775251865386963,4.16015625,2,"['F2', 'B2', 'A1']",6.1,270,0,1.5485397053237135,[25500|0|0]
25500,1.3304499387741089,-0.3301701843738556,-0.011771388351917267,0.5975714325904846,0.8971201181411743,3.299699544906616,4.16015625,2,"['F2', 'B2', 'A1']",6.1,270,0,1.5489828155603242,[25600|0|0]
25600,1.3306314945220947,-0.3302292227745056,-0.01142550352960825,0.5940550565719604,0.8966056108474731,3.2881503105163574,4.16015625,2,"['F2', 'B2', 'A1']",6.1,270,0,1.549377890657846,[25700|0|0]
25700,1.330428957939148,-0.33007633686065674,-0.011441520415246487,0.5885512232780457,0.9045674800872803,3.2749147415161133,4.16015625,2,"['F2', 'B2', 'A1']",6.1,270,0,1.5496321576645744,[25800|0|0]
25800,1.3303791284561157,-0.33017921447753906,-0.011451038531959057,0.5956881642341614,0.9037566781044006,3.268878936767578,4.16015625,2,"['F2', 'B2', 'A1']",6.1,270,0,1.5497468632702804,[25900|0|0]
25900,1.3305240869522095,-0.3299715518951416,-0.011538969352841377,0.5900658965110779,0.9043664336204529,3.247126817703247,4.16015625,2,"['F2', 'B2', 'A1']",6.1,270,0,1.5500149463599724,[26000|0|0]
26000,1.330458164215088,-0.32993555068969727,-0.011538496240973473,0.5896701812744141,0.8969793319702148,3.266166925430298,4.16015625,2,"['F2', 'B2', 'A1']",6.1,270,0,1.550090060392602,[26100|0|0]
26100,1.3303651809692383,-0.3300991356372833,-0.011582248844206333,0.5856042504310608,0.9049482345581055,3.277952194213867,4.16015625,2,"['F2', 'B2', 'A1']",6.1,270,0,1.5502832447847643,[26200|0|0]
26200,1.3303649425506592,-0.32994845509529114,-0.01159483753144741,0.5772958993911743,0.8998053073883057,3.266423225402832,4.16015625,2,"['F2', 'B2', 'A1']",6.1,270,0,1.5504344504646344,[26300|0|0]
26300,1.3303362131118774,-0.3298385739326477,-0.011621839366853237,0.567660391330719,0.8947034478187561,3.28108811378479,4.16015625,2,"['F2', 'B2', 'A1']",6.1,270,0,1.5505511909874696,[26400|0|0]
26400,1.3303433656692505,-0.33006852865219116,-0.011741877533495426,0.6030330061912537,0.9075175523757935,3.271589517593384,4.16015625,2,"['F2', 'B2', 'A1']",6.1,270,0,1.550810689529986,[26500|0|0]
26500,1.3302463293075562,-0.32997381687164307,-0.011698837392032146,0.6388213038444519,0.9403312802314758,3.289074420928955,4.16015625,2,"['F2', 'B2', 'A1']",6.1,270,0,1.550952952774159,[26600|0|0]
26600,1.3304194211959839,-0.330098956823349,-0.011664539575576782,0.6550946831703186,0.9559150338172913,3.269299268722534,4.15234375,2,"['F2', 'B2', 'A1']",6.1,270,0,1.5511692792625187,[26700|0|0]
26700,1.3304402828216553,-0.3301489055156708,-0.011482966132462025,0.6717020273208618,0.9674007296562195,3.2659714221954346,4.16015625,2,"['F2', 'B2', 'A1']",6.1,270,0,1.551358749562394,[26800|0|0]
26800,1.3304158449172974,-0.3302054703235626,-0.011725206859409809,0.6718788146972656,0.9646737575531006,3.2670416831970215,4.16015625,2,"['F2', 'B2', 'A1']",6.1,270,0,1.551608704275199,[26900|0|0]
26900,1.3303548097610474,-0.3300442099571228,-0.011844179593026638,0.6696131825447083,0.9725878238677979,3.2601888179779053,4.16015625,2,"['F2', 'B2', 'A1']",6.1,270,0,1.5518181910466835,[27000|0|0]
27000,1.3311718702316284,-0.329740047454834,-0.011667592450976372,0.5169424414634705,0.8449700474739075,3.28100323677063,4.16015625,2,"['F2', 'B2', 'A1']",6.1,270,0,1.5527077334341628,[27100|0|0]
27100,1.3305938243865967,-0.32974934577941895,-0.011480167508125305,0.44304901361465454,0.7997317910194397,3.288022518157959,4.15234375,2,"['F2', 'B2', 'A1']",6.1,270,0,1.553315476444819,[27200|0|0]
27200,1.3307379484176636,-0.329914391040802,-0.01131083257496357,0.4981998801231384,0.8360622525215149,3.2969374656677246,4.16015625,2,"['F2', 'B2', 'A1']",6.1,270,0,1.5535923988061855,[27300|0|0]
27300,1.330573320388794,-0.3301351070404053,-0.011326326988637447,0.5413566827774048,0.8723010420799255,3.283413887023926,4.16015625,2,"['F2', 'B2', 'A1']",6.1,270,0,1.553868184986451,[27400|0|0]
27400,1.3306206464767456,-0.33001869916915894,-0.011595334857702255,0.5702457427978516,0.8847479820251465,3.2627928256988525,4.16015625,2,"['F2', 'B2', 'A1']",6.1,270,0,1.554165095384901,[27500|0|0]
27500,1.3306643962860107,-0.3298570513725281,-0.01150793582201004,0.5789952874183655,0.8972236514091492,3.2605226039886475,4.16015625,2,"['F2', 'B2', 'A1']",6.1,270,0,1.5543539938957642,[27600|0|0]
27600,1.330259919166565,-0.3298792839050293,-0.011763512156903744,0.5919273495674133,0.9150990843772888,3.282616138458252,4.16015625,2,"['F2', 'B2', 'A1']",6.1,270,0,1.5548329670564052,[27700|0|0]
27700,1.3302336931228638,-0.3300045132637024,-0.011872275732457638,0.6030330061912537,0.916448712348938,3.2832353115081787,4.16015625,2,"['F2', 'B2', 'A1']",6.1,270,0,1.5550008947581377,[27800|0|0]
27800,1.3304892778396606,-0.329965740442276,-0.011478610336780548,0.6068318486213684,0.9098073840141296,3.279463052749634,4.15234375,2,"['F2', 'B2', 'A1']",6.1,270,0,1.5554718505128484,[27900|0|0]
27900,1.3304293155670166,-0.3302765488624573,-0.011370774358510971,0.6171705722808838,0.9101837277412415,3.2845118045806885,4.16015625,2,"['F2', 'B2', 'A1']",6.1,270,0,1.5558062543800593,[28000|0|0]
28000,1.33049738407135,-0.3297095000743866,-0.01163248810917139,0.605797529220581,0.9033894538879395,3.2927517890930176,4.16015625,2,"['F2', 'B2', 'A1']",6.1,270,0,1.5564344834279544,[28100|0|0]
28100,1.3305188417434692,-0.330010324716568,-0.011510868556797504,0.6154784560203552,0.9009472727775574,3.288837194442749,4.15234375,2,"['F2', 'B2', 'A1']",6.1,270,0,1.5567596713929162,[28200|0|0]
28200,1.3303278684616089,-0.33021998405456543,-0.011621390469372272,0.6131269931793213,0.907304048538208,3.2750277519226074,4.16015625,2,"['F2', 'B2', 'A1']",6.1,270,0,1.5570640443968984,[28300|0|0]
28300,1.3304976224899292,-0.3301422595977783,-0.011505002155900002,0.5932468771934509,0.890277087688446,3.2778687477111816,4.16015625,2,"['F2', 'B2', 'A1']",6.1,270,0,1.557284052944066,[28400|0|0]
28400,1.3304611444473267,-0.3299861550331116,-0.01155212614685297,0.5861614346504211,0.8933905959129333,3.2713687419891357,4.16015625,2,"['F2', 'B2', 'A1']",6.1,270,0,1.5574511455926932,[28500|0|0]
28500,1.3304609060287476,-0.3301565945148468,-0.01158245000988245,0.5897763967514038,0.8887628316879272,3.295262336730957,4.16015625,2,"['F2', 'B2', 'A1']",6.1,270,0,1.5576242617688485,[28600|0|0]
28600,1.3304980993270874,-0.3303457200527191,-0.011419500224292278,0.5867441892623901,0.8895047903060913,3.280651330947876,4.15234375,2,"['F2', 'B2', 'A1']",6.1,270,0,1.5578766591601598,[28700|0|0]
28700,1.330328106880188,-0.3297756314277649,-0.011726105585694313,0.5639456510543823,0.8864281177520752,3.26999568939209,4.16015625,2,"['F2', 'B2', 'A1']",6.1,270,0,1.5585459164499562,[28800|0|0]
28800,1.3305234909057617,-0.33003219962120056,-0.011504776775836945,0.607882559299469,0.9103214740753174,3.269259452819824,4.16015625,2,"['F2', 'B2', 'A1']",6.1,270,0,1.558937054018345,[28900|0|0]
28900,1.330426573753357,-0.3300885558128357,-0.011537833139300346,0.644508421421051,0.9376294016838074,3.2400617599487305,4.16015625,2,"['F2', 'B2', 'A1']",6.1,270,0,1.5590539371990482,[29000|0|0]
29000,1.3314540386199951,-0.3299446403980255,-0.011657712049782276,0.6541691422462463,0.9419552683830261,3.2637012004852295,4.16015625,2,"['F2', 'B2', 'A1']",6.1,270,0,1.5600983349451076,[29100|0|0]
29100,1.3312222957611084,-0.3300195634365082,-0.012046469375491142,0.6744899153709412,0.9626347422599792,3.301504373550415,4.16015625,2,"['F2', 'B2', 'A1']",6.1,270,0,1.56055708375724,[29200|0|0]
29200,1.3313554525375366,-0.33010149002075195,-0.011645479127764702,0.6844353675842285,0.9677501320838928,3.301755905151367,4.16015625,2,"['F2', 'B2', 'A1']",6.1,270,0,1.560987474127818,[29300|0|0]
29300,1.3303589820861816,-0.3302451968193054,-0.01154117938131094,0.6812601685523987,0.9605578184127808,3.2796244621276855,4.16015625,2,"['F2', 'B2', 'A1']",6.1,270,0,1.5619996418221673,[29400|0|0]
29400,1.3314170837402344,-0.33012139797210693,-0.01189119927585125,0.6842465400695801,0.9557295441627502,3.3130574226379395,4.16015625,2,"['F2', 'B2', 'A1']",6.1,270,0,1.5631209888654376,[29500|0|0]
29500,1.3312686681747437,-0.3300347328186035,-0.011547110974788666,0.6896053552627563,0.9586837887763977,3.313505172729492,4.16015625,2,"['F2', 'B2', 'A1']",6.1,270,0,1.5635056117818633,[29600|0|0]
29600,1.3312528133392334,-0.33004316687583923,-0.011685412377119064,0.7008773684501648,0.9648042917251587,3.289667844772339,4.15234375,2,"['F2', 'B2', 'A1']",6.1,270,0,1.5636450742750903,[29700|0|0]
29700,1.3311767578125,-0.3296791911125183,-0.011978394351899624,0.688068687915802,0.9573601484298706,3.2753210067749023,4.16015625,2,"['F2', 'B2', 'A1']",6.1,270,0,1.5641184675967352,[29800|0|0]
29800,1.3314858675003052,-0.3302381932735443,-0.011825036257505417,0.7022693753242493,0.9565810561180115,3.299229860305786,4.16015625,2,"['F2', 'B2', 'A1']",6.1,270,0,1.564775392950366,[29900|0|0]
29900,1.3312273025512695,-0.3301393389701843,-0.01165804173797369,0.7006884813308716,0.9659298658370972,3.2873048782348633,4.16015625,2,"['F2', 'B2', 'A1']",6.1,270,0,1.5650986810196112,[30000|0|0]
