time.ms,stateEstimate.x,stateEstimate.y,stateEstimate.z,stabilizer.roll,stabilizer.pitch,stabilizer.yaw,pm.vbat,drone_id,node_name,wind_speed,global_wind_direction,relative_wind_direction,travel_dist,waiting_time,curr_node_role
0,1.263724446296692,-0.3081018030643463,0.0,-0.272227019071579,0.9106075763702391,-5.693718910217285,4.1171875,0,C1,6.1,0,270.0,0.0,[6200|0|0],start
100,1.263966679573059,-0.3081585466861725,0.0,-0.2702314555644989,0.9102677702903748,-5.697845458984375,4.1171875,0,C1,6.1,0,270.0,0.0002487906726497,[6300|0|0],start
200,1.2640703916549685,-0.3077576160430908,0.0,-0.2730821669101715,0.9120268821716307,-5.7366719245910645,4.12109375,0,C1,6.1,0,270.0,0.0006629181608655,[6400|0|0],start
300,1.2637691497802734,-0.3082412779331207,0.0,-0.2570571899414062,0.920296847820282,-5.751622676849365,4.12109375,0,C1,6.1,0,270.0,0.0012327211890577,[6500|0|0],start
400,1.2638373374938965,-0.3080064654350281,0.0,-0.2624801397323608,0.9148748517036438,-5.741384506225586,4.1171875,0,C1,6.1,0,270.0,0.0014772339158219,[6600|0|0],start
500,1.2636507749557495,-0.3081271052360534,0.0,-0.270594447851181,0.909256398677826,-5.72154426574707,4.1171875,0,C1,6.1,0,270.0,0.0016994039908349,[6700|0|0],start
600,1.2637332677841189,-0.3079032003879547,0.0,-0.2687798738479614,0.9103950262069702,-5.702829360961914,4.1171875,0,C1,6.1,0,270.0,0.0019380217767069,[6800|0|0],start
700,1.2639917135238647,-0.3084560036659241,0.0,-0.2552821636199951,0.9045014381408693,-5.68803596496582,4.1171875,0,C1,6.1,0,270.0,0.0025482558830354,[6900|0|0],start
800,1.2636170387268066,-0.3080593645572662,0.0,-0.2618334591388702,0.920644998550415,-5.680012226104736,4.12109375,0,C1,6.1,0,270.0,0.0030938782671688,[7000|0|0],start
900,1.2637410163879397,-0.3081976771354675,0.0,-0.2755859792232513,0.8937522172927856,-5.684205532073975,4.1171875,0,C1,6.1,0,270.0,0.0032796222569739,[7100|0|0],start
1000,1.264034867286682,-0.3082821667194366,0.0,-0.3127484321594238,0.8669403195381165,-5.676166534423828,4.1171875,0,C1,6.1,0,270.0,0.0035853784351468,[7200|0|0],start
1100,1.2639752626419067,-0.3078088164329529,0.0,-0.358608990907669,0.8518173098564148,-5.677292823791504,4.12109375,0,C1,6.1,0,270.0,0.0040624666946889,[7300|0|0],start
1200,1.2639095783233645,-0.3081223666667938,0.0,-0.3572476804256439,0.8441954255104065,-5.687195777893066,4.1171875,0,C1,6.1,0,270.0,0.0043828230257393,[7400|0|0],start
1300,1.2640562057495115,-0.307976484298706,0.0,-0.372099369764328,0.8346788883209229,-5.675485134124756,4.1171875,0,C1,6.1,0,270.0,0.0045896593557624,[7500|0|0],start
1400,1.2639182806015017,-0.3081488609313965,0.0,-0.3746853470802307,0.8365878462791443,-5.669559955596924,4.12109375,0,C1,6.1,0,270.0,0.0048104240493872,[7600|0|0],start
1500,1.2639135122299194,-0.3076704740524292,0.0,-0.5228216648101807,0.7818766832351685,-5.693813323974609,4.1171875,0,C1,6.1,0,270.0,0.0052888346923871,[7700|0|0],start
1600,1.2642042636871338,-0.307715892791748,0.0,-0.5003645420074463,0.7857160568237305,-5.689300060272217,4.12109375,0,C1,6.1,0,270.0,0.0055831122344347,[7800|0|0],start
1700,1.2641255855560305,-0.3077162802219391,0.0,-0.466277152299881,0.8057017922401428,-5.6960062980651855,4.12109375,0,C1,6.1,0,270.0,0.0056617913194323,[7900|0|0],start
1800,1.2642494440078735,-0.308008998632431,0.0,-0.4350779354572296,0.8135109543800354,-5.6982102394104,4.12109375,0,C1,6.1,0,270.0,0.005979635595665,[8000|0|0],start
1900,1.263919234275818,-0.3076419234275818,0.0,-0.4259588420391083,0.8354789614677429,-5.70693302154541,4.12109375,0,C1,6.1,0,270.0,0.006473379125404,[8100|0|0],start
2000,1.2640278339385986,-0.308359831571579,0.0,-0.3940487205982208,0.8338401913642883,-5.706608772277832,4.1171875,0,C1,6.1,0,270.0,0.007199454872123,[8200|0|0],start
2100,1.2642664909362793,-0.3080231547355652,0.0,-0.4062471687793731,0.828539252281189,-5.69855546951294,4.1171875,0,C1,6.1,0,270.0,0.0076121393211276,[8300|0|0],start
2200,1.2641444206237793,-0.307964414358139,0.0,-0.4033613204956054,0.8398159742355347,-5.729875087738037,4.1171875,0,C1,6.1,0,270.0,0.0077476073732064,[8400|0|0],start
2300,1.263925075531006,-0.308047890663147,0.0,-0.3898732662200928,0.8457179069519043,-5.738151550292969,4.1171875,0,C1,6.1,0,270.0,0.0079822998597105,[8500|0|0],start
2400,1.2640100717544556,-0.3081996738910675,0.0,-0.3807715475559234,0.8476749062538147,-5.724314212799072,4.12109375,0,C1,6.1,0,270.0,0.0081562610803277,[8600|0|0],start
2500,1.2639485597610474,-0.3080368638038635,0.0,-0.3828015923500061,0.8454942107200623,-5.712080001831055,4.1171875,0,C1,6.1,0,270.0,0.0083303037470173,[8700|0|0],start
2600,1.2638556957244873,-0.307995855808258,0.0,-0.3762574791908264,0.8489894270896912,-5.73692798614502,4.1171875,0,C1,6.1,0,270.0,0.0084318191891422,[8800|0|0],start
2700,1.26381254196167,-0.3080917596817016,0.0,-0.3733923435211181,0.8470727801322937,-5.766648292541504,4.1171875,0,C1,6.1,0,270.0,0.0085369847737542,[8900|0|0],start
2800,1.2637523412704468,-0.3079250752925873,0.0,-0.3794088363647461,0.8450973033905029,-5.773279666900635,4.1171875,0,C1,6.1,0,270.0,0.0087142072576499,[9000|0|0],start
2900,1.2641702890396118,-0.308041363954544,0.0,-0.3801699876785278,0.8308249711990356,-5.760770797729492,4.1171875,0,C1,6.1,0,270.0,0.0091480314047991,[9100|0|0],start
3000,1.2639169692993164,-0.3079368472099304,0.0,-0.3892426788806915,0.8389863967895508,-5.7363762855529785,4.1171875,0,C1,6.1,0,270.0,0.0094220654186148,[9200|0|0],start
3100,1.264005184173584,-0.3079202473163605,0.0,-0.3917352557182312,0.8388293981552124,-5.7330322265625,4.1171875,0,C1,6.1,0,270.0,0.0095118285541916,[9300|0|0],start
3200,1.263746738433838,-0.3076565861701965,0.0,-0.4076707065105438,0.8345999717712402,-5.710726261138916,4.1171875,0,C1,6.1,0,270.0,0.0098810322925116,[9400|0|0],start
3300,1.2641314268112185,-0.3079729676246643,0.0,-0.398063600063324,0.830272376537323,-5.7066969871521,4.1171875,0,C1,6.1,0,270.0,0.0103791109734676,[9500|0|0],start
3400,1.2639306783676147,-0.3080771565437317,0.0,-0.3935166597366333,0.8399500250816345,-5.709368705749512,4.1171875,0,C1,6.1,0,270.0,0.0106052862781888,[9600|0|0],start
3500,1.263967752456665,-0.3081793487071991,0.0,-0.3901571333408355,0.8493359088897705,-5.710279941558838,4.1171875,0,C1,6.1,0,270.0,0.0107139956446347,[9700|0|0],start
3600,1.263957381248474,-0.3080235123634338,0.0,-0.3968050479888916,0.8530510663986206,-5.717377185821533,4.1171875,0,C1,6.1,0,270.0,0.0108701767190243,[9800|0|0],start
3700,1.2636780738830566,-0.3085183501243591,0.0,-0.1836453676223755,0.9708813428878784,-5.748380184173584,4.1171875,0,C1,6.1,0,270.0,0.0114383993989781,[9900|0|0],start
3800,1.263515591621399,-0.308001697063446,0.0,-0.2331445962190628,0.9477668404579164,-5.729826927185059,4.1171875,0,C1,6.1,0,270.0,0.0119799996858172,[10000|0|0],start
3900,1.2637966871261597,-0.308176040649414,0.0,-0.2502576410770416,0.9300047755241394,-5.716653347015381,4.1171875,0,C1,6.1,0,270.0,0.0123107720679245,[10100|0|0],start
4000,1.2637276649475098,-0.3083128631114959,0.0,-0.2678602337837219,0.9255704283714294,-5.720376968383789,4.1171875,0,C1,6.1,0,270.0,0.0124640184293029,[10200|0|0],start
4100,1.263753890991211,-0.3080201745033264,0.0,-0.2863282561302185,0.915395438671112,-5.7314324378967285,4.1171875,0,C1,6.1,0,270.0,0.0127578796664888,[10300|0|0],start
4200,1.2637131214141846,-0.3080186545848846,0.0,-0.3119314014911651,0.8964254856109619,-5.72020435333252,4.1171875,0,C1,6.1,0,270.0,0.0127986775654908,[10400|0|0],start
4300,1.2637993097305298,-0.3080675601959228,0.0,-0.3071044683456421,0.8892543911933899,-5.7127180099487305,4.1171875,0,C1,6.1,0,270.0,0.0128977744103722,[10500|0|0],start
4400,1.2637039422988892,-0.3080045878887176,0.0,-0.3091499209403991,0.8989323377609253,-5.702420234680176,4.1171875,0,C1,6.1,0,270.0,0.0130120567733705,[10600|0|0],start
4500,1.2641029357910156,-0.307964026927948,0.0,-0.3060014545917511,0.8892573118209839,-5.698257446289063,4.1171875,0,C1,6.1,0,270.0,0.0134131066434588,[10700|0|0],start
4600,1.263738036155701,-0.3079986572265625,0.0,-0.2954694330692291,0.9044454097747804,-5.697124481201172,4.1171875,0,C1,6.1,0,270.0,0.0137796458656915,[10800|0|0],start
4700,1.2638611793518066,-0.3082110583782196,0.0,-0.2807523906230926,0.9031901359558104,-5.703574180603027,4.1171875,0,C1,6.1,0,270.0,0.0140251626593582,[10900|0|0],start
4800,1.2646766901016235,-0.3079370856285095,0.0,-0.299515426158905,0.8885868191719055,-5.690349578857422,4.1171875,0,C1,6.1,0,270.0,0.0148854642638264,[11000|0|0],start
4900,1.2647703886032104,-0.3075169622898102,0.0,-0.3468665480613708,0.8632614016532898,-5.685780048370361,4.1171875,0,C1,6.1,0,270.0,0.015315909415872,[11100|0|0],start
5000,1.2647627592086792,-0.3079702258110046,0.0,-0.3570815622806549,0.851203441619873,-5.708287239074707,4.1171875,0,C1,6.1,0,270.0,0.0157692371420332,[11200|0|0],start
5100,1.265042424201965,-0.3080086708068847,0.0,-0.3703170418739319,0.8363012075424194,-5.699906349182129,4.1171875,0,C1,6.1,0,270.0,0.0160515322468044,[11300|0|0],start
5200,1.2645490169525146,-0.3077166080474853,0.0,-0.3814838826656341,0.8428326845169067,-5.6919426918029785,4.1171875,0,C1,6.1,0,270.0,0.0166249006878947,[11400|0|0],start
5300,1.264487862586975,-0.3076936304569244,0.0,-0.3950640857219696,0.8364349603652954,-5.671215057373047,4.1171875,0,C1,6.1,0,270.0,0.0166902292887716,[11500|0|0],start
5400,1.2645853757858276,-0.3078159391880035,0.0,-0.3920456171035766,0.8377054333686829,-5.676846981048584,4.1171875,0,C1,6.1,0,270.0,0.0168466525915389,[11600|0|0],start
5500,1.2649470567703247,-0.30801922082901,0.0,-0.3847423195838928,0.8231481909751892,-5.698880672454834,4.1171875,0,C1,6.1,0,270.0,0.0172615460237803,[11700|0|0],start
5600,1.2645645141601562,-0.3077943027019501,0.0,-0.3917621672153473,0.8326524496078491,-5.702230930328369,4.1171875,0,C1,6.1,0,270.0,0.0177053106150612,[11800|0|0],start
5700,1.2639597654342651,-0.3077707886695862,0.0,-0.5168992877006531,0.7723227739334106,-5.714443683624268,4.1171875,0,C1,6.1,0,270.0,0.0183105163083464,[11900|0|0],start
5800,1.2641829252243042,-0.3077292144298553,0.0,-0.4928770959377289,0.7839149236679077,-5.731124401092529,4.1171875,0,C1,6.1,0,270.0,0.018537515668036,[12000|0|0],start
5900,1.2642208337783811,-0.3079078793525696,0.0,-0.45480877161026,0.8062320351600647,-5.727278709411621,4.1171875,0,C1,6.1,0,270.0,0.0187201579771561,[12100|0|0],start
6000,1.2641277313232422,-0.3077988624572754,0.0,-0.4307228326797485,0.824840784072876,-5.699583530426025,4.1171875,0,C1,6.1,0,270.0,0.0188635202825661,[12200|0|0],start
6100,1.2638486623764038,-0.3076698184013366,0.0,-0.4191428422927856,0.8419990539550781,-5.700474739074707,4.1171875,0,C1,6.1,0,270.0,0.0191709805978307,[12300|0|0],start
6200,1.2640466690063477,-0.3078097105026245,0.0,-0.407179057598114,0.8407425284385681,-5.6931891441345215,4.1171875,0,C1,6.1,0,270.0,0.0194134190962266,[12400|0|0],start
6300,1.264106273651123,-0.3078493475914001,0.0,-0.4000484347343445,0.8465280532836914,-5.714540004730225,4.1171875,0,C1,6.1,0,270.0,0.0194849999071008,[12500|0|0],start
6400,1.2639514207839966,-0.308144211769104,0.0,-0.3765352666378021,0.8646061420440674,-5.728785991668701,4.1171875,0,C1,6.1,0,270.0,0.0198180528965038,[12600|0|0],start
6500,1.263839602470398,-0.3080125749111175,0.0,-0.3870970904827118,0.8661306500434875,-5.732988834381104,4.1171875,0,C1,6.1,0,270.0,0.0199907711573699,[12700|0|0],start
6600,1.2639541625976562,-0.3078810274600982,0.0,-0.3890127837657928,0.8667215704917908,-5.733589172363281,4.1171875,0,C1,6.1,0,270.0,0.0201652095551701,[12800|0|0],start
6700,1.2639107704162598,-0.3082456290721893,0.0,-0.3799791932106018,0.867073655128479,-5.719143390655518,4.1171875,0,C1,6.1,0,270.0,0.0205323841961051,[12900|0|0],start
6800,1.2638096809387207,-0.3079176843166351,0.0,-0.3949028253555298,0.8626174330711365,-5.711988925933838,4.1171875,0,C1,6.1,0,270.0,0.0208755559390628,[13000|0|0],start
6900,1.2639983892440796,-0.3079605400562286,0.0,-0.3926135301589966,0.8591784834861755,-5.742845058441162,4.1171875,0,C1,6.1,0,270.0,0.0210690693466798,[13100|0|0],start
7000,1.2637760639190674,-0.3077502250671386,0.0,-0.4004203379154205,0.8691878318786621,-5.710705280303955,4.1171875,0,C1,6.1,0,270.0,0.0213751101034062,[13200|0|0],start
7100,1.2639013528823853,-0.3081858456134796,0.0,-0.3927976191043854,0.8607990741729736,-5.706539154052734,4.1171875,0,C1,6.1,0,270.0,0.0218283899118289,[13300|0|0],start
7200,1.2640421390533447,-0.3078166842460632,0.0,-0.4074807167053222,0.8543549180030823,-5.722896099090576,4.1171875,0,C1,6.1,0,270.0,0.0222234859269015,[13400|0|0],start
7300,1.2637747526168823,-0.3078776001930237,0.0,-0.4049336016178131,0.8635013103485107,-5.728417873382568,4.1171875,0,C1,6.1,0,270.0,0.022497723522789,[13500|0|0],start
7400,1.2639251947402954,-0.3078804612159729,0.0,-0.4085438847541809,0.852868914604187,-5.748344421386719,4.1171875,0,C1,6.1,0,270.0,0.0226481928483984,[13600|0|0],start
7500,1.2639782428741455,-0.3078208267688751,0.0,-0.3973721861839294,0.8611426949501038,-5.758716583251953,4.1171875,0,C1,6.1,0,270.0,0.0227280074572469,[13700|0|0],start
7600,1.2639362812042236,-0.3081729114055633,0.0,-0.3825433254241943,0.8655099868774414,-5.744975090026856,4.1171875,0,C1,6.1,0,270.0,0.0230825837863137,[13800|0|0],start
7700,1.2638713121414185,-0.3081032037734985,0.0,-0.3900538682937622,0.8661472201347351,-5.75850248336792,4.1171875,0,C1,6.1,0,270.0,0.023177873518656,[13900|0|0],start
7800,1.263982892036438,-0.3081102967262268,0.0,-0.3866854608058929,0.8672242760658264,-5.748986721038818,4.1171875,0,C1,6.1,0,270.0,0.0232896786301267,[14000|0|0],start
7900,1.2641255855560305,-0.3080053329467773,0.0,-0.3918595910072326,0.8592590093612671,-5.726233005523682,4.1171875,0,C1,6.1,0,270.0,0.02346681935252,[14100|0|0],start
8000,1.26381516456604,-0.3079707026481628,0.0,-0.3901103734970093,0.8650829195976257,-5.720322608947754,4.1171875,0,C1,6.1,0,270.0,0.0237791660326829,[14200|0|0],start
8100,1.2639029026031494,-0.3078415393829345,0.0,-0.3930405080318451,0.864283561706543,-5.709834098815918,4.1171875,0,C1,6.1,0,270.0,0.0239353105562507,[14300|0|0],start
8200,1.2637897729873655,-0.3079101741313934,0.0,-0.3920804858207702,0.8592162132263184,-5.710522651672363,4.1171875,0,C1,6.1,0,270.0,0.0240676322803304,[14400|0|0],start
8300,1.263928771018982,-0.308002769947052,0.0,-0.3930374383926391,0.8501571416854858,-5.720049381256104,4.1171875,0,C1,6.1,0,270.0,0.024234648560587,[14500|0|0],start
8400,1.263962984085083,-0.308136522769928,0.0,-0.3877861797809601,0.8448010683059692,-5.735076427459717,4.1171875,0,C1,6.1,0,270.0,0.0243727077925106,[14600|0|0],start
8500,1.264180302619934,-0.3081937730312347,0.0,-0.3893256187438965,0.8383952379226685,-5.735759735107422,4.1171875,0,C1,6.1,0,270.0,0.0245974408297114,[14700|0|0],start
8600,1.2640783786773682,-0.308001309633255,0.0,-0.3994509577751159,0.8449207544326782,-5.753473281860352,4.1171875,0,C1,6.1,0,270.0,0.0248152266181138,[14800|0|0],start
8700,1.264028549194336,-0.3078521192073822,0.0,-0.4021563231945038,0.8513033390045166,-5.720648765563965,4.1171875,0,C1,6.1,0,270.0,0.0249725185777029,[14900|0|0],start
8800,1.26402485370636,-0.3081644475460052,0.0,-0.4010266661643982,0.8474304676055908,-5.738261699676514,4.1171875,0,C1,6.1,0,270.0,0.0252848687781804,[15000|0|0],start
8900,1.2643048763275146,-0.3080752193927765,0.0,-0.4043499529361725,0.8417745232582092,-5.724744319915772,4.1171875,0,C1,6.1,0,270.0,0.0255787638813837,[15100|0|0],start
9000,1.264141082763672,-0.3081480860710144,0.0,-0.4155201017856598,0.8365508913993835,-5.740713119506836,4.1171875,0,C1,6.1,0,270.0,0.025758034303801,[15200|0|0],start
9100,1.2640857696533203,-0.3078602850437164,0.0,-0.4155539572238922,0.8394589424133301,-5.742072105407715,4.1171875,0,C1,6.1,0,270.0,0.0260511025065979,[15300|0|0],start
9200,1.264121651649475,-0.3079122304916382,0.0,-0.409603476524353,0.8405731320381165,-5.720111846923828,4.1171875,0,C1,6.1,0,270.0,0.0261142360730095,[15400|0|0],start
9300,1.2641502618789673,-0.3079600036144256,0.0,-0.4078947603702545,0.8441057801246643,-5.724560260772705,4.1171875,0,C1,6.1,0,270.0,0.0261699210484738,[15500|0|0],start
9400,1.2642464637756348,-0.3080064654350281,0.0,-0.4043877720832824,0.8438358306884766,-5.719534873962402,4.1171875,0,C1,6.1,0,270.0,0.0262767550584899,[15600|0|0],start
9500,1.2641645669937134,-0.3082336485385895,0.0,-0.4069012701511383,0.834450364112854,-5.727046966552734,4.1171875,0,C1,6.1,0,270.0,0.0265182488377739,[15700|0|0],start
9600,1.2648054361343384,-0.307797223329544,0.0,-0.413754791021347,0.8462516665458679,-5.731334209442139,4.1171875,0,C1,6.1,0,270.0,0.0272936069605119,[15800|0|0],start
9700,1.265014410018921,-0.307826817035675,0.0,-0.4075857102870941,0.8468909859657288,-5.734117031097412,4.1171875,0,C1,6.1,0,270.0,0.0275046658903871,[15900|0|0],start
9800,1.264666199684143,-0.3079293370246887,0.0,-0.4006794095039367,0.8567336201667786,-5.699441432952881,4.1171875,0,C1,6.1,0,270.0,0.0278676545753257,[16000|0|0],start
9900,1.2646843194961548,-0.3076944649219513,0.0,-0.4034484326839447,0.8478626012802124,-5.717236518859863,4.1171875,0,C1,6.1,0,270.0,0.0281032245908872,[16100|0|0],start
10000,1.2646900415420532,-0.3080038726329803,0.0,-0.3971193134784698,0.8414760828018188,-5.711370468139648,4.1171875,0,C1,6.1,0,270.0,0.028412685207854,[16200|0|0],start
10100,1.2648545503616333,-0.3080373704433441,0.0,-0.386200338602066,0.8402995467185974,-5.72663164138794,4.1171875,0,C1,6.1,0,270.0,0.0285805698558085,[16300|0|0],start
10200,1.2649580240249634,-0.3081169724464416,0.0,-0.3351520001888275,0.8611462116241455,-5.739955902099609,4.1171875,0,C1,6.1,0,270.0,0.028711119761592,[16400|0|0],start
10300,1.2647424936294556,-0.3080451488494873,0.0,-0.3090739548206329,0.8810293078422546,-5.739527702331543,4.1171875,0,C1,6.1,0,270.0,0.0289383024644265,[16500|0|0],start
10400,1.2645792961120603,-0.3079328238964081,0.0,-0.280164897441864,0.9062575101852416,-5.723557949066162,4.1171875,0,C1,6.1,0,270.0,0.0291364194116274,[16600|0|0],start
10500,1.2647935152053833,-0.3078347146511078,0.0,-0.2617355585098266,0.9085318446159364,-5.722021579742432,4.1171875,0,C1,6.1,0,270.0,0.0293720361426919,[16700|0|0],start
10600,1.2647775411605835,-0.3082084655761719,0.0,-0.2491398006677627,0.91275817155838,-5.723501682281494,4.1171875,0,C1,6.1,0,270.0,0.0297461282758537,[16800|0|0],start
10700,1.2712879180908203,-0.2974705994129181,0.0,-0.5576872825622559,0.7355703115463257,-5.662996292114258,4.1171875,0,C1,6.1,0,270.0,0.0423034678632707,[16900|0|0],start
10800,1.2647446393966677,-0.3081133067607879,0.0,-0.2531954944133758,0.905434250831604,-5.719165325164795,4.1171875,0,C1,6.1,0,270.0,0.0547967346803107,[17000|0|0],start
10900,1.2647831439971924,-0.3075840473175049,0.0,-0.2683396339416504,0.905363917350769,-5.729755878448486,4.1171875,0,C1,6.1,0,270.0,0.0553273929154921,[17100|0|0],start
11000,1.2650150060653689,-0.3081739544868469,0.0,-0.2552785575389862,0.8986482620239258,-5.746515274047852,4.1171875,0,C1,6.1,0,270.0,0.0559612308183507,[17200|0|0],start
11100,1.2650426626205444,-0.3081772327423095,0.0,-0.2579360604286194,0.8957029581069946,-5.724125862121582,4.1171875,0,C1,6.1,0,270.0,0.0559890809889617,[17300|0|0],start
11200,1.27172589302063,-0.2974009215831756,0.0,-0.5775391459465027,0.7131468057632446,-5.677950859069824,4.1171875,0,C1,6.1,0,270.0,0.0686695561685085,[17400|0|0],start
11300,1.2713881731033323,-0.2972933351993561,0.0,-0.5830429196357727,0.7218924760818481,-5.701627254486084,4.1171875,0,C1,6.1,0,270.0,0.0690239987908368,[17500|0|0],start
11400,1.2717586755752563,-0.2975999116897583,0.0,-0.5771109461784363,0.7173625826835632,-5.714898586273193,4.1171875,0,C1,6.1,0,270.0,0.0695048950646519,[17600|0|0],start
11500,1.271069049835205,-0.297421932220459,0.0,-0.5838218331336975,0.7362830638885498,-5.7306108474731445,4.1171875,0,C1,6.1,0,270.0,0.0702171171878924,[17700|0|0],start
11600,1.2710129022598269,-0.2977993488311767,0.0,-0.5743700265884399,0.7396891713142395,-5.716773509979248,4.1171875,0,C1,6.1,0,270.0,0.0705986874281714,[17800|0|0],start
11700,1.2713664770126345,-0.2963993847370147,0.0,-0.825949490070343,0.5906221270561218,-5.726276397705078,4.1171875,0,C1,6.1,0,270.0,0.0720426107539632,[17900|0|0],start
11800,1.2713396549224854,-0.2963953614234924,0.0,-0.7943432927131653,0.6166869401931763,-5.731956958770752,4.1171875,0,C1,6.1,0,270.0,0.0720697329141218,[18000|0|0],start
11900,1.2707821130752563,-0.2964509725570678,0.0,-0.7662959098815918,0.6410280466079712,-5.706332206726074,4.1171875,0,C1,6.1,0,270.0,0.072630041319903,[18100|0|0],start
12000,1.271044135093689,-0.2965235710144043,0.0,-0.744269609451294,0.6436140537261963,-5.67731523513794,4.1171875,0,C1,6.1,0,270.0,0.0729019348177126,[18200|0|0],start
12100,1.2714718580245972,-0.2969661653041839,0.0,-0.7427692413330078,0.6433618664741516,-5.700981140136719,4.1171875,0,C1,6.1,0,270.0,0.0735174318615481,[18300|0|0],start
12200,1.271387219429016,-0.2970081567764282,0.0,-0.7179359793663025,0.6604798436164856,-5.689614772796631,4.1171875,0,C1,6.1,0,270.0,0.073611914535109,[18400|0|0],start
12300,1.2712969779968262,-0.2967366874217987,0.0,-0.7196503281593323,0.6659233570098877,-5.649744987487793,4.1171875,0,C1,6.1,0,270.0,0.073897989921304,[18500|0|0],start
12400,1.27149760723114,-0.2971739768981933,0.0,-0.7118711471557617,0.6631854176521301,-5.641257286071777,4.1171875,0,C1,6.1,0,270.0,0.0743791075533097,[18600|0|0],start
12501,1.271483063697815,-0.2972117960453033,0.0,-0.7177429795265198,0.6660035252571106,-5.638773441314697,4.1171875,0,C1,6.1,0,270.0,0.0744196267123545,[18700|0|0],start
12601,1.271334528923035,-0.2972161769866943,0.0,-0.7176446318626404,0.6701823472976685,-5.639796733856201,4.1171875,0,C1,6.1,0,270.0,0.0745682260796696,[18800|0|0],start
12701,1.271163821220398,-0.2974038124084472,0.0,-0.7075638175010681,0.6704660058021545,-5.653069019317627,4.1171875,0,C1,6.1,0,270.0,0.0748218954929539,[18900|0|0],start
12801,1.2707462310791016,-0.2967557609081268,0.0,-0.7205438017845154,0.6634010672569275,-5.663372039794922,4.1171875,0,C1,6.1,0,270.0,0.0755928379507129,[19000|0|0],start
12901,1.2709524631500244,-0.2966445684432983,0.0,-0.7253344058990479,0.6510244607925415,-5.673041820526123,4.1171875,0,C1,6.1,0,270.0,0.0758271356914441,[19100|0|0],start
13001,1.2716293334960938,-0.2972548305988312,0.0,-0.7243269085884094,0.6485862731933594,-5.682476997375488,4.1171875,0,C1,6.1,0,270.0,0.0767384936693341,[19200|0|0],start
13101,1.271424651145935,-0.2972648441791534,0.0,-0.7257046103477478,0.6522908210754395,-5.678679943084717,4.1171875,0,C1,6.1,0,270.0,0.0769434208179927,[19300|0|0],start
13201,1.2715915441513062,-0.2972193658351898,0.0,-0.7330744862556458,0.641917884349823,-5.687905311584473,4.1171875,0,C1,6.1,0,270.0,0.0771163992993465,[19400|0|0],start
13301,1.2712860107421875,-0.2971402704715729,0.0,-0.7302944660186768,0.6587529182434082,-5.703001022338867,4.1171875,0,C1,6.1,0,270.0,0.0774320046551841,[19500|0|0],start
13401,1.271371841430664,-0.2972792983055115,0.0,-0.728141188621521,0.6610409021377563,-5.712917327880859,4.1171875,0,C1,6.1,0,270.0,0.0775953926770645,[19600|0|0],start
13501,1.2714608907699585,-0.2973862588405609,0.0,-0.7272161245346069,0.6582373380661011,-5.719855785369873,4.1171875,0,C1,6.1,0,270.0,0.0777345700491005,[19700|0|0],start
13602,1.2716604471206665,-0.2971542477607727,0.0,-0.7344254851341248,0.6560487747192383,-5.717796802520752,4.1171875,0,C1,6.1,0,270.0,0.0780405959928575,[19800|0|0],start
13702,1.2712777853012085,-0.2971706092357635,0.0,-0.7289024591445923,0.6618432402610779,-5.711855411529541,4.1171875,0,C1,6.1,0,270.0,0.0784236074364657,[19900|0|0],start
13802,1.270890235900879,-0.2969618737697601,0.0,-0.721105694770813,0.650092601776123,-5.706038951873779,4.1171875,0,C1,6.1,0,270.0,0.078863794933407,[20000|0|0],start
13901,1.2713394165039062,-0.2970383465290069,0.0,-0.733246922492981,0.6562640070915222,-5.706820964813232,4.1171875,0,C1,6.1,0,270.0,0.0793194387603627,[20100|0|0],start
14000,1.2711410522460938,-0.2973137199878692,0.0,-0.728419303894043,0.6611073613166809,-5.709224224090576,4.1171875,0,C1,6.1,0,270.0,0.079658818961057,[20200|0|0],start
14102,1.2714738845825195,-0.297232836484909,0.0,-0.7340775728225708,0.6483363509178162,-5.708709239959717,4.1171875,0,C1,6.1,0,270.0,0.0800013383111991,[20300|0|0],start
14202,1.2714084386825562,-0.2970037162303924,0.0,-0.7389360070228577,0.6493678092956543,-5.699343204498291,4.1171875,0,C1,6.1,0,270.0,0.0802396222948232,[20400|0|0],start
14302,1.271226406097412,-0.2967380583286285,0.0,-0.7344171404838562,0.6572500467300415,-5.696780204772949,4.1171875,0,C1,6.1,0,270.0,0.0805616626382956,[20500|0|0],start
14402,1.2711457014083862,-0.2971753776073456,0.0,-0.7197079062461853,0.6496485471725464,-5.690288543701172,4.1171875,0,C1,6.1,0,270.0,0.0810063663580556,[20600|0|0],start
14502,1.271508812904358,-0.2971935868263244,0.0,-0.7234236598014832,0.6408495903015137,-5.680180549621582,4.1171875,0,C1,6.1,0,270.0,0.0813699341428807,[20700|0|0],start
14600,1.2712719440460205,-0.2973846793174743,0.0,-0.7239908576011658,0.6450802087783813,-5.683334827423096,4.1171875,0,C1,6.1,0,270.0,0.081674274735349,[20800|0|0],start
14700,1.2711137533187866,-0.2971904575824737,0.0,-0.7300372123718262,0.6433491706848145,-5.6858391761779785,4.1171875,0,C1,6.1,0,270.0,0.0819247670277043,[20900|0|0],start
14800,1.2713361978530884,-0.2973120510578155,0.0,-0.7227339744567871,0.638761043548584,-5.66582727432251,4.1171875,0,C1,6.1,0,270.0,0.0821782754971613,[21000|0|0],start
14900,1.2711689472198486,-0.2972632050514221,0.0,-0.716768205165863,0.6535795331001282,-5.699427127838135,4.1171875,0,C1,6.1,0,270.0,0.0823525129978885,[21100|0|0],start
15000,1.271710991859436,-0.2970625758171081,0.0,-0.7231496572494507,0.6383780837059021,-5.687291145324707,4.1171875,0,C1,6.1,0,270.0,0.0829304961126651,[21200|0|0],start
15100,1.2709808349609375,-0.297159194946289,0.0,-0.7239528894424438,0.6570418477058411,-5.6782965660095215,4.1171875,0,C1,6.1,0,270.0,0.0836670179063337,[21300|0|0],start
15200,1.2714415788650513,-0.2970443069934845,0.0,-0.7378910779953003,0.6392775177955627,-5.681722164154053,4.1171875,0,C1,6.1,0,270.0,0.0841418696588603,[21400|0|0],start
15300,1.2714483737945557,-0.2971018850803375,0.0,-0.7165408134460449,0.6432885527610779,-5.708774566650391,4.1171875,0,C1,6.1,0,270.0,0.084199847302419,[21500|0|0],start
15400,1.271501898765564,-0.2972737848758697,0.0,-0.684293806552887,0.6608486175537109,-5.689665794372559,4.1171875,0,C1,6.1,0,270.0,0.0843798874707855,[21600|0|0],start
15500,1.271278738975525,-0.2972389161586761,0.0,-0.6613719463348389,0.6809912919998169,-5.659743309020996,4.1171875,0,C1,6.1,0,270.0,0.084605754952573,[21700|0|0],start
15600,1.2711396217346191,-0.2975453734397888,0.0,-0.6344835162162781,0.6912984848022461,-5.682863712310791,4.1171875,0,C1,6.1,0,270.0,0.0849423105525327,[21800|0|0],start
15700,1.2712583541870115,-0.2975949347019195,0.0,-0.6243890523910522,0.6979271173477173,-5.679963111877441,4.1171875,0,C1,6.1,0,270.0,0.085070971789722,[21900|0|0],start
15800,1.271208882331848,-0.2974885106086731,0.0,-0.6196184158325195,0.7024720907211304,-5.70201301574707,4.1171875,0,C1,6.1,0,270.0,0.0851883325671421,[22000|0|0],start
15900,1.27110493183136,-0.2970265746116638,0.0,-0.6330175399780273,0.6944091320037842,-5.693774700164795,4.1171875,0,C1,6.1,0,270.0,0.0856618202352863,[22100|0|0],start
16000,1.2716113328933716,-0.2968799769878387,0.0,-0.6449851989746094,0.6846659779548645,-5.709513187408447,4.1171875,0,C1,6.1,0,270.0,0.0861890136522762,[22200|0|0],start
16100,1.2716162204742432,-0.2974418699741363,0.0,-0.5943576097488403,0.7023465633392334,-5.704871654510498,4.1171875,0,C1,6.1,0,270.0,0.086750927895286,[22300|0|0],start
16200,1.271357774734497,-0.2969473302364349,0.0,-0.586016833782196,0.7233173847198486,-5.6931657791137695,4.1171875,0,C1,6.1,0,270.0,0.0873089276735643,[22400|0|0],start
16300,1.271328687667847,-0.2974642515182495,0.0,-0.555819571018219,0.7311181426048279,-5.696822643280029,4.1171875,0,C1,6.1,0,270.0,0.0878266666705881,[22500|0|0],start
16400,1.2718234062194824,-0.2974106073379516,0.0,-0.563947856426239,0.7332107424736023,-5.692004680633545,4.1171875,0,C1,6.1,0,270.0,0.0883242851423234,[22600|0|0],start
16500,1.2712458372116089,-0.297705203294754,0.0,-0.5481542348861694,0.7338998317718506,-5.69035005569458,4.1171875,0,C1,6.1,0,270.0,0.0889726467209355,[22700|0|0],start
16600,1.2714639902114868,-0.297274112701416,0.0,-0.5562149882316589,0.7351544499397278,-5.710541248321533,4.1171875,0,C1,6.1,0,270.0,0.0894557924867456,[22800|0|0],start
16700,1.27111554145813,-0.2974898219108581,0.0,-0.550652801990509,0.7390815019607544,-5.69782829284668,4.1171875,0,C1,6.1,0,270.0,0.0898656058549438,[22900|0|0],start
16800,1.2709673643112185,-0.297587901353836,0.0,-0.5517789125442505,0.7406184077262878,-5.686011791229248,4.1171875,0,C1,6.1,0,270.0,0.0900433023490052,[23000|0|0],start
16900,1.2717231512069702,-0.2974585592746734,0.0,-0.5602318048477173,0.7463349103927612,-5.687158107757568,4.1171875,0,C1,6.1,0,270.0,0.0908100768955521,[23100|0|0],start
17000,1.270874261856079,-0.2973022758960724,0.0,-0.557195246219635,0.7534711956977844,-5.667370796203613,4.1171875,0,C1,6.1,0,270.0,0.0916732325156365,[23200|0|0],start
17100,1.2717465162277222,-0.2972716391086578,0.0,-0.5720612406730652,0.7430992722511292,-5.673558712005615,4.1171875,0,C1,6.1,0,270.0,0.0925460247598697,[23300|0|0],start
17200,1.2718740701675415,-0.2976404726505279,0.0,-0.5649061799049377,0.7406522035598755,-5.68796968460083,4.1171875,0,C1,6.1,0,270.0,0.0929362915777928,[23400|0|0],start
17300,1.2718806266784668,-0.2975010871887207,0.0,-0.571060061454773,0.7389782667160034,-5.693483352661133,4.1171875,0,C1,6.1,0,270.0,0.0930758311592696,[23500|0|0],start
17400,1.2721036672592163,-0.2976297736167907,0.0,-0.5696495771408081,0.7330470085144043,-5.679962158203125,4.1171875,0,C1,6.1,0,270.0,0.0933333331931072,[23600|0|0],start
17500,1.271964192390442,-0.2979357838630676,0.0,-0.5538744330406189,0.7346700429916382,-5.668231964111328,4.1171875,0,C1,6.1,0,270.0,0.0936696299517091,[23700|0|0],start
17600,1.27171528339386,-0.2980088293552398,0.0,-0.5635128021240234,0.7359009385108948,-5.657347679138184,4.1171875,0,C1,6.1,0,270.0,0.0939290356812257,[23800|0|0],start
17700,1.2718719244003296,-0.2977884113788605,0.0,-0.5782639384269714,0.7321311235427856,-5.661781311035156,4.1171875,0,C1,6.1,0,270.0,0.0941994436863197,[23900|0|0],start
17800,1.2722012996673584,-0.2978587746620178,0.0,-0.5762324929237366,0.7301786541938782,-5.672824859619141,4.1171875,0,C1,6.1,0,270.0,0.0945362508390748,[24000|0|0],start
17900,1.2716481685638428,-0.2975561618804931,0.0,-0.5876200199127197,0.7392531633377075,-5.696408271789551,4.1171875,0,C1,6.1,0,270.0,0.0951667494617684,[24100|0|0],start
18000,1.2717745304107666,-0.297575831413269,0.0,-0.5950107574462891,0.7283369898796082,-5.698561668395996,4.11328125,0,C1,6.1,0,270.0,0.0952946330294291,[24200|0|0],start
18100,1.2718559503555298,-0.2976718544960022,0.0,-0.5979933738708496,0.7278692126274109,-5.733150482177734,4.1171875,0,C1,6.1,0,270.0,0.0954205283820948,[24300|0|0],start
18200,1.2719827890396118,-0.2974863648414612,0.0,-0.6053745746612549,0.7189857363700867,-5.705974102020264,4.1171875,0,C1,6.1,0,270.0,0.0956452381142414,[24400|0|0],start
18300,1.2721765041351318,-0.2974808514118194,0.0,-0.604680061340332,0.7154348492622375,-5.697644233703613,4.1171875,0,C1,6.1,0,270.0,0.0958390316542234,[24500|0|0],start
18400,1.27181875705719,-0.2973341643810272,0.0,-0.605362594127655,0.7243749499320984,-5.668408393859863,4.1171875,0,C1,6.1,0,270.0,0.0962256840262304,[24600|0|0],start
18500,1.272264838218689,-0.2977771461009979,0.0,-0.5944291353225708,0.7164706587791443,-5.659094333648682,4.1171875,0,C1,6.1,0,270.0,0.0968543502388365,[24700|0|0],start
18600,1.2716209888458252,-0.2974653542041778,0.0,-0.6031973958015442,0.7256494760513306,-5.667196750640869,4.1171875,0,fly,6.1,0,270.0,0.0975697216122222,[24700|0|0],fly
18700,1.2717097997665403,-0.2976638674736023,0.0,-0.5837993621826172,0.705517053604126,-5.718253612518311,3.009765625,0,fly,6.1,0,270.0,0.0977871955135894,[24700|0|0],fly
18800,1.271347999572754,-0.299029529094696,0.0,3.2456064224243164,1.8009487390518188,-4.151020526885986,3.404296875,0,fly,6.1,0,270.0,0.0991999697501722,[24700|0|0],fly
18900,1.2670718431472778,-0.3096068501472473,0.0302902981638908,4.681785106658936,7.192410945892334,-1.3546254634857178,3.583984375,0,fly,6.1,0,270.0,0.1315676603888522,[24700|0|0],fly
19000,1.2535827159881592,-0.3270690441131592,0.0819913148880004,-4.6229119300842285,0.5543530583381653,4.817691802978516,3.58984375,0,fly,6.1,0,270.0,0.1877804694266921,[24700|0|0],fly
19100,1.241460919380188,-0.3391867280006408,0.142729640007019,-3.563661336898804,-5.392175197601318,8.395626068115234,3.60546875,0,fly,6.1,0,270.0,0.2508908517267983,[24700|0|0],fly
19200,1.2376304864883425,-0.3395441472530365,0.2143977135419845,-3.1284542083740234,-7.065118789672852,9.89143180847168,3.60546875,0,fly,6.1,0,270.0,0.3226621045295337,[24700|0|0],fly
19300,1.2501401901245115,-0.3384284377098083,0.288847267627716,-1.263160228729248,-4.65508508682251,9.799561500549316,3.62109375,0,fly,6.1,0,270.0,0.3981635852859658,[24700|0|0],fly
19400,1.2726072072982788,-0.3309875130653381,0.3700863122940063,-0.5267205834388733,-0.7338079810142517,8.630233764648438,3.62109375,0,fly,6.1,0,270.0,0.4827798756711071,[24700|0|0],fly
19500,1.2945646047592163,-0.3246193528175354,0.4544239044189453,-0.2544402182102203,3.04127836227417,8.341619491577148,3.626953125,0,fly,6.1,0,270.0,0.5701612822381329,[24700|0|0],fly
19600,1.3092046976089478,-0.3190137147903442,0.5398227572441101,-0.0391793511807918,4.757800102233887,8.500191688537598,3.62109375,0,fly,6.1,0,270.0,0.656987082321949,[24700|0|0],fly
19700,1.3134845495224,-0.3150852620601654,0.6263492703437805,-0.0067703649401664,5.349340915679932,8.98769760131836,3.62109375,0,fly,6.1,0,270.0,0.7437084023213688,[24700|0|0],fly
19800,1.3075050115585327,-0.3127069771289825,0.714950442314148,-0.0252241976559162,3.843560695648194,9.055447578430176,3.615234375,0,fly,6.1,0,270.0,0.83254296084449,[24700|0|0],fly
19900,1.2933111190795898,-0.311975359916687,0.8044206500053406,-0.2196185737848281,1.970064640045166,8.845096588134766,3.615234375,0,fly,6.1,0,270.0,0.9231350129890036,[24700|0|0],fly
20000,1.275507569313049,-0.311829537153244,0.8955488204956055,0.623058557510376,-0.285421758890152,8.298324584960938,3.658203125,0,fly,6.1,0,270.0,1.015986136328847,[24700|0|0],fly
20100,1.2585084438323977,-0.3123552501201629,0.9842256903648376,0.4094007015228271,-1.754685878753662,6.54004430770874,3.6953125,0,fly,6.1,0,270.0,1.10627918086183,[24700|0|0],fly
20200,1.2433964014053345,-0.3122144639492035,1.0632963180541992,0.2561426758766174,-2.777026414871216,7.888897895812988,3.7109375,0,fly,6.1,0,270.0,1.1867810927040523,[24700|0|0],fly
20300,1.2314759492874146,-0.3134515583515167,1.1290329694747925,0.1426845043897628,-3.0907678604125977,7.647562503814697,3.7109375,0,fly,6.1,0,270.0,1.2536012612256031,[24700|0|0],fly
20400,1.2228158712387085,-0.3142648637294769,1.1793416738510132,0.0112778302282094,-3.031665802001953,11.160225868225098,3.6953125,0,fly,6.1,0,270.0,1.3046563702105174,[24700|0|0],fly
20500,1.2226053476333618,-0.3118501603603363,1.22053062915802,-0.5214204788208008,-2.5641539096832275,7.65953779220581,3.689453125,0,fly,6.1,0,270.0,1.3459165829078843,[24700|0|0],fly
20600,1.2146472930908203,-0.3094040751457214,1.239210844039917,-0.2934423387050628,-1.3917102813720703,7.655505180358887,3.6796875,0,fly,6.1,0,270.0,1.3663680961285012,[24700|0|0],fly
20700,1.2157011032104492,-0.304870069026947,1.254343867301941,-0.0459262207150459,-1.850874066352844,7.456183433532715,3.6484375,0,fly,6.1,0,270.0,1.3822008507941388,[24700|0|0],fly
20800,1.2140120267868042,-0.304199606180191,1.260270118713379,0.536322832107544,-0.7180431485176086,9.720685005187988,3.642578125,0,fly,6.1,0,270.0,1.3883994760760352,[24700|0|0],fly
20900,1.215986967086792,-0.3023334741592407,1.263485312461853,0.5766497850418091,-0.2807104289531708,10.740710258483888,3.63671875,0,fly,6.1,0,270.0,1.3926090257845385,[24700|0|0],fly
21000,1.2185065746307373,-0.3021961748600006,1.267647385597229,0.9260942935943604,0.4964284300804138,9.450653076171877,3.63671875,0,fly,6.1,0,270.0,1.3974762761435495,[24700|0|0],fly
21100,1.2202551364898682,-0.2975430488586426,1.269237041473389,1.3072727918624878,1.005610466003418,4.140442371368408,3.63671875,0,fly,6.1,0,270.0,1.402695093630714,[24700|0|0],fly
21200,1.2183029651641846,-0.2957948446273803,1.2702431678771973,1.323718547821045,1.2577552795410156,2.0468153953552246,3.63671875,0,fly,6.1,0,270.0,1.4055021350018848,[24700|0|0],fly
21300,1.2139639854431152,-0.2941221296787262,1.2713627815246582,0.7203643918037415,0.9383072257041932,1.574825406074524,3.63671875,0,fly,6.1,0,270.0,1.4102852568944235,[24700|0|0],fly
21400,1.2042239904403689,-0.2943391501903534,1.2684950828552246,0.3570106029510498,0.1509810239076614,1.7872275114059448,3.63671875,0,fly,6.1,0,270.0,1.420440959539473,[24700|0|0],fly
21500,1.1952348947525024,-0.2919762432575226,1.2670741081237793,0.1980096101760864,-0.8281158804893494,2.0198233127593994,3.626953125,0,fly,6.1,0,270.0,1.4298434240911873,[24700|0|0],fly
21600,1.1926273107528689,-0.2904687821865082,1.2697142362594604,0.2757086753845215,-1.694460153579712,4.073891639709473,3.630859375,0,fly,6.1,0,244.0,1.4338486968370292,[24700|0|0],fly
21700,1.1796633005142212,-0.2880618274211883,1.2601463794708252,-1.917873740196228,0.9882259964942932,5.493258476257324,3.583984375,0,fly,6.1,0,244.0,1.4501398869788786,[24700|0|0],fly
21800,1.162251591682434,-0.2815540134906769,1.2534123659133911,-16.87488555908203,15.063801765441896,11.77017879486084,3.62109375,0,fly,6.1,0,244.0,1.4699102229696703,[24700|0|0],fly
21900,1.1224309206008911,-0.2541928291320801,1.2458440065383911,-25.161840438842773,18.521175384521484,15.862720489501951,3.59375,0,fly,6.1,0,244.0,1.5188142137937195,[24700|0|0],fly
22000,1.0521854162216189,-0.1935625970363617,1.2294169664382937,-22.65506935119629,6.564753532409668,15.981048583984377,3.521484375,0,fly,6.1,0,244.0,1.6130495764551391,[24700|0|0],fly
22100,0.9671751856803894,-0.1067582741379737,1.214266061782837,-7.608547687530518,-4.968947887420654,12.39735507965088,3.494140625,0,fly,6.1,0,244.0,1.7354884578711312,[24700|0|0],fly
22200,0.8935321569442749,0.0071966107934713,1.2085307836532593,7.198149681091309,-18.12461280822754,12.019478797912598,3.55859375,0,fly,6.1,0,244.0,1.8712894331857093,[24700|0|0],fly
22300,0.8418793082237244,0.1064404025673866,1.206364631652832,12.097578048706056,-18.70246315002441,11.672548294067385,3.515625,0,fly,6.1,0,244.0,1.983191350957932,[24700|0|0],fly
22400,0.8247474431991577,0.191912904381752,1.212167739868164,3.430305957794189,-10.226574897766112,9.875706672668455,3.509765625,0,fly,6.1,0,244.0,2.0705568214287395,[24700|0|0],fly
22500,0.85494464635849,0.205674797296524,1.2612484693527222,-6.339339733123779,3.981947183609009,9.662263870239258,3.59375,0,fly,6.1,0,244.0,2.1298035832134987,[24700|0|0],fly
22600,0.8559133410453796,0.2792422473430633,1.2975817918777466,-12.47335433959961,8.44198226928711,7.859768867492676,3.583984375,0,fly,6.1,0,244.0,2.2118597737261827,[24700|0|0],fly
22700,0.8428124785423279,0.3743149638175964,1.3354684114456177,-6.954904556274414,6.308428764343262,5.423883438110352,3.59375,0,fly,6.1,0,244.0,2.315038501952748,[24700|0|0],fly
22800,0.8163824677467346,0.4747399091720581,1.3719546794891355,-0.4885282516479492,3.0093796253204346,3.5784401893615723,3.611328125,0,fly,6.1,0,244.0,2.425106494011499,[24700|0|0],fly
22900,0.7858729958534241,0.5741943717002869,1.4080466032028198,5.756900787353516,-0.3410186469554901,2.001869440078736,3.630859375,0,fly,6.1,0,244.0,2.5352184595254337,[24700|0|0],fly
23000,0.7601662874221802,0.6671892404556274,1.4498491287231443,10.823274612426758,-3.0903990268707275,0.4655241072177887,3.6640625,0,fly,6.1,0,244.0,2.64036755183283,[24700|0|0],fly
23100,0.7360674142837524,0.7374840378761292,1.476616144180298,12.44283390045166,-4.673519611358643,-0.7676824331283569,3.658203125,0,fly,6.1,0,244.0,2.719352280403706,[24700|0|0],fly
23200,0.7187488675117493,0.7892508506774902,1.492949604988098,12.465583801269531,-4.893643379211426,-1.629678726196289,3.642578125,0,fly,6.1,0,244.0,2.7763304947655576,[24700|0|0],fly
23300,0.7091264128684998,0.8227760195732117,1.5003072023391724,11.234685897827148,-4.371650695800781,-2.1742403507232666,3.626953125,0,fly,6.1,0,244.0,2.811976852526605,[24700|0|0],fly
23400,0.6983165740966797,0.8490087389945984,1.4926676750183103,9.09135627746582,-2.6612675189971924,-2.4966838359832764,3.62109375,0,fly,6.1,0,244.0,2.8413600205008063,[24700|0|0],fly
23500,0.6969062685966492,0.8564487099647522,1.4893087148666382,6.814820289611816,-1.7866852283477783,-2.400355815887451,3.599609375,0,fly,6.1,0,244.0,2.8496440257483098,[24700|0|0],fly
23600,0.6969630718231201,0.8557664155960083,1.4850534200668335,4.443709850311279,-0.4294100403785705,-1.919700503349304,3.599609375,0,fly,6.1,0,244.0,2.853954047331249,[24700|0|0],fly
23700,0.6981031894683838,0.8488929867744446,1.4812862873077393,2.452962875366211,0.0136218881234526,-0.7878244519233704,3.60546875,0,fly,6.1,0,244.0,2.8618746016827314,[24700|0|0],fly
23800,0.698259174823761,0.842199444770813,1.478460431098938,0.4514466226100921,0.3822417259216308,0.0364179648458957,3.615234375,0,fly,6.1,0,244.0,2.869141877602792,[24700|0|0],fly
23900,0.698226809501648,0.8364233374595642,1.4748854637145996,-0.5081210136413574,0.3117052316665649,0.3627848029136657,3.60546875,0,fly,6.1,0,244.0,2.8759348780432616,[24700|0|0],fly
24000,0.6966122388839722,0.8335388898849487,1.4690802097320557,-0.3421186804771423,0.3384920060634613,0.4479020237922668,3.60546875,0,fly,6.1,0,244.0,2.8826152859568555,[24700|0|0],fly
24100,0.6942713856697083,0.8318182229995728,1.462510108947754,0.2046908885240554,0.3578811883926391,0.3709697723388672,3.60546875,0,fly,6.1,0,244.0,2.889799053256611,[24700|0|0],fly
24200,0.6918556094169617,0.8312300443649292,1.4546208381652832,0.6987888216972351,0.0135948834940791,0.1343777328729629,3.599609375,0,fly,6.1,0,244.0,2.898070844023352,[24700|0|0],fly
24300,0.6892023682594299,0.831210732460022,1.4467179775238037,1.337106227874756,-0.176030084490776,-0.2265436202287674,3.59375,0,fly,6.1,0,244.0,2.906407226206789,[24700|0|0],fly
24400,0.6860281825065613,0.8283078670501709,1.4381030797958374,1.4665987491607666,-0.2166130393743515,-0.2473279386758804,3.599609375,0,fly,6.1,0,244.0,2.9160362731816845,[24700|0|0],fly
24500,0.6842605471611023,0.8240753412246704,1.4307520389556885,1.3139890432357788,-0.3074721097946167,-0.4018951058387756,3.59375,0,fly,6.1,0,244.0,2.924700949229384,[24700|0|0],fly
24600,0.6816936135292053,0.8183562159538269,1.4225901365280151,0.6232091784477234,-0.2554022371768951,-0.426625519990921,3.58984375,0,fly,6.1,0,244.0,2.934992411388525,[24700|0|0],fly
24700,0.680440366268158,0.8122073411941528,1.41325581073761,0.1431519836187362,-0.4751848876476288,-0.4026906490325928,3.86328125,0,fly,6.1,0,270.0,2.9462400301351264,[24700|0|0],fly
24800,0.6789621710777283,0.8069678544998169,1.3835288286209106,-0.6563168168067932,-1.627535104751587,-0.6429529190063477,3.810546875,0,fly,6.1,0,270.0,2.9764613925731056,[24700|0|0],fly
24900,0.6773297786712646,0.8033530116081238,1.31803297996521,-0.5643684267997742,-1.40704083442688,-1.484073281288147,3.7109375,0,fly,6.1,0,270.0,3.04207722896365,[24700|0|0],fly
25000,0.6771156787872314,0.80143803358078,1.2211236953735352,-1.0751363039016724,-1.607891082763672,-2.8814897537231445,3.615234375,0,fly,6.1,0,270.0,3.1390056686481715,[24700|0|0],fly
25100,0.6848400235176086,0.796776294708252,1.114593744277954,1.143633246421814,0.5663628578186035,-5.576693534851074,3.60546875,0,fly,6.1,0,270.0,3.245916976708901,[24700|0|0],fly
25200,0.6853662729263306,0.7940854430198669,0.9961335062980652,0.1290671229362487,0.0948170647025108,-8.81521987915039,3.578125,0,fly,6.1,0,270.0,3.3644089410081777,[24700|0|0],fly
25300,0.687727689743042,0.7902552485466003,0.8762707710266113,1.7760491371154783,1.4761592149734497,-10.362738609313965,3.611328125,0,fly,6.1,0,270.0,3.4843561043170275,[24700|0|0],fly
25400,0.6885800957679749,0.7857176661491394,0.7584238052368164,-0.8168919682502747,-0.675616443157196,-9.589261054992676,3.58984375,0,fly,6.1,0,270.0,3.6022934758152347,[24700|0|0],fly
25500,0.6904109716415405,0.7830334901809692,0.6430754065513611,-0.8059980273246765,0.260904848575592,-7.780596733093262,3.611328125,0,fly,6.1,0,270.0,3.717687626387919,[24700|0|0],fly
25600,0.6938212513923645,0.7821111083030701,0.5280426740646362,-0.677232027053833,0.3666599988937378,-8.003517150878906,3.60546875,0,fly,6.1,0,270.0,3.8327745949798055,[24700|0|0],fly
25700,0.6976104974746704,0.781833827495575,0.4117610156536102,-0.1441248506307602,0.5335949063301086,-8.861678123474121,3.55859375,0,fly,6.1,0,270.0,3.9491183071147424,[24700|0|0],fly
25800,0.7009651064872742,0.7819070816040039,0.2994946241378784,0.7826569080352783,0.3315843939781189,-8.880553245544434,3.494140625,0,fly,6.1,0,270.0,4.06143483052851,[24700|0|0],fly
25900,0.7052074074745178,0.7819560170173645,0.2012618035078048,0.8611690402030945,0.9746362566947936,-6.073918342590332,3.5,0,fly,6.1,0,270.0,4.159759225066597,[24700|0|0],fly
26000,0.7076582312583923,0.781400203704834,0.1196766719222068,-0.6749553680419922,3.5047645568847656,-2.163594007492065,3.505859375,0,fly,6.1,0,270.0,4.241383052234265,[24700|0|0],fly
26100,0.7066522240638733,0.7804692983627319,0.0525846481323242,-1.1574050188064575,0.1270759403705597,1.2005245685577393,3.494140625,0,fly,6.1,0,270.0,4.308489075000136,[24700|0|0],fly
26200,0.7085099220275879,0.7797935605049133,0.0026918081566691,1.784517526626587,-0.4450894296169281,3.76042103767395,3.546875,0,fly,6.1,0,270.0,4.358421060182113,[24700|0|0],fly
26300,0.7102097272872925,0.7804551124572754,0.0,-4.429203510284424,2.981144428253174,6.631434917449951,3.599609375,0,fly,6.1,0,270.0,4.361672647495858,[24700|0|0],fly
26400,0.703845739364624,0.7893019914627075,0.0,2.722276210784912,0.352586954832077,8.1898775100708,3.57421875,0,fly,6.1,0,270.0,4.372570702846086,[24700|0|0],fly
26500,0.6978212594985962,0.7961825132369995,0.0,0.7595914006233215,-2.2804527282714844,7.095154762268066,3.60546875,0,fly,6.1,0,270.0,4.381715971433868,[24700|0|0],fly
26600,0.6956873536109924,0.7985466122627258,0.0,4.566215515136719,-2.9366304874420166,5.069728374481201,3.630859375,0,fly,6.1,0,270.0,4.384900703532584,[24700|0|0],fly
26700,0.6988011002540588,0.7940571308135986,0.0004987019929103,2.687702178955078,-2.1851484775543213,3.825299263000488,3.626953125,0,fly,6.1,0,270.0,4.390387010625429,[24700|0|0],fly
26800,0.7034798264503479,0.7839393019676208,0.0062159593217074,1.6044865846633911,-0.5516732931137085,2.951122999191284,3.60546875,0,fly,6.1,0,270.0,4.402914898346031,[24700|0|0],fly
26900,0.708966076374054,0.7707058787345886,0.0059882537461817,0.6088259220123291,0.0021797209046781,2.776836633682251,3.58984375,0,fly,6.1,0,270.0,4.417242294429027,[24700|0|0],fly
27000,0.7142595648765564,0.7563032507896423,0.004233343526721,-0.3964305520057678,1.6285194158554075,2.946955442428589,3.59375,0,fly,6.1,0,270.0,4.432686918805328,[24700|0|0],fly
27100,0.7168987393379211,0.7414836883544922,0.001422131084837,-1.1464329957962036,0.7475447058677673,2.989274263381958,3.578125,0,fly,6.1,0,270.0,4.447999906364921,[24700|0|0],fly
27200,0.7177731394767761,0.728023111820221,0.0,-1.784833550453186,0.3195403218269348,2.2965972423553467,3.583984375,0,fly,6.1,0,270.0,4.461563613566872,[24700|0|0],fly
27300,0.7175968885421753,0.7172730565071106,0.0012735961936414,-3.64971661567688,0.9627799987792968,1.6322206258773804,3.58984375,0,fly,6.1,0,270.0,4.4723902843797925,[24700|0|0],fly
27400,0.7162755727767944,0.7116644382476807,0.004770154133439,-1.5346816778182983,0.1266304403543472,1.6043696403503418,3.59375,0,fly,6.1,0,270.0,4.479130343100473,[24700|0|0],fly
27500,0.7138532996177673,0.7083456516265869,0.010490852408111,-3.108755588531494,-0.1228645071387291,1.4905097484588623,3.58984375,0,fly,6.1,0,270.0,4.48617364776825,[24700|0|0],fly
27600,0.7117699980735779,0.7077441215515137,0.0164620485156774,-0.2406139373779297,-0.3796286880970001,0.9429819583892822,3.599609375,0,fly,6.1,0,270.0,4.49252637684403,[24700|0|0],fly
27700,0.7094926238059998,0.7062380909919739,0.0168917998671531,-3.3114047050476074,-0.9978742599487304,1.3229234218597412,3.583984375,0,F1,6.1,0,270.0,4.495290295769213,[24700|100|0],intermediate
27800,0.7104954123497009,0.7106466889381409,0.0171949416399002,-0.6588243246078491,1.639504075050354,1.7408307790756226,3.58984375,0,F1,6.1,0,270.0,4.499821654908446,[24700|200|0],intermediate
27900,0.7087382674217224,0.7133316397666931,0.0145602477714419,-0.0623152740299701,-0.9660868644714355,2.5444414615631104,3.568359375,0,F1,6.1,0,270.0,4.503973537737978,[24700|300|0],intermediate
28000,0.7059062719345093,0.7167472839355469,0.0107041401788592,-1.7004141807556152,1.4712899923324585,3.6279854774475098,3.57421875,0,F1,6.1,0,270.0,4.5098520060158025,[24700|400|0],intermediate
28100,0.7031291127204895,0.720849871635437,0.0088864797726273,-0.1008386760950088,-1.7572181224822998,3.3330955505371094,3.57421875,0,F1,6.1,0,270.0,4.515129100717216,[24700|500|0],intermediate
28200,0.7028220295906067,0.7250292897224426,0.0084129963070154,-0.0104199945926666,-0.7430817484855652,2.025033473968506,3.578125,0,F1,6.1,0,270.0,4.519346448484102,[24700|600|0],intermediate
28300,0.7031569480895996,0.7253311276435852,0.0079916678369045,0.4890718758106231,-0.8432967066764832,0.8736687898635864,3.578125,0,F1,6.1,0,270.0,4.519963533738611,[24700|700|0],intermediate
28400,0.7065698504447937,0.7286602854728699,0.0084821386262774,-1.6171526908874512,0.0615317299962043,0.206414595246315,3.57421875,0,F1,6.1,0,270.0,4.524756419709882,[24700|800|0],intermediate
28500,0.709794819355011,0.7332056760787964,0.0085234586149454,0.0643547400832176,0.6275056004524231,1.5224725008010864,3.568359375,0,F1,6.1,0,270.0,4.530329812534165,[24700|900|0],intermediate
28600,0.7136927843093872,0.738111674785614,0.0110457651317119,-1.725028157234192,0.0598535388708114,2.8091957569122314,3.583984375,0,F1,6.1,0,270.0,4.537084439412192,[24700|1000|0],intermediate
28700,0.7185701727867126,0.7457972764968872,0.0128702716901898,-1.9758296012878416,0.5636541247367859,3.39452600479126,3.583984375,0,F1,6.1,0,270.0,4.546368092583493,[24700|1100|0],intermediate
28800,0.7227582931518555,0.7558865547180176,0.0128522468730807,1.0630751848220823,0.0755517855286598,4.0863447189331055,3.568359375,0,F1,6.1,0,270.0,4.557292112544585,[24700|1200|0],intermediate
28900,0.7282761335372925,0.7674310207366943,0.0116771645843982,-2.025608539581299,1.499929666519165,2.991832971572876,3.578125,0,F1,6.1,0,270.0,4.570141317833657,[24700|1300|0],intermediate
29000,0.7317553758621216,0.7782801389694214,0.0098432237282395,1.2641996145248413,-0.1716343164443969,2.5718324184417725,3.55859375,0,F1,6.1,0,270.0,4.581681327913655,[24700|1400|0],intermediate
29100,0.7346864938735962,0.7877721786499023,0.0100933648645877,0.9883079528808594,0.6083013415336609,2.9902210235595703,3.568359375,0,F1,6.1,0,270.0,4.591618774299981,[24700|1500|0],intermediate
29200,0.7367956638336182,0.7958976030349731,0.0129220839589834,-1.0448352098464966,0.8724837303161621,2.9537465572357178,3.57421875,0,F1,6.1,0,270.0,4.600477260122782,[24700|1600|0],intermediate
29300,0.7376750111579895,0.8063738942146301,0.0132799232378602,-0.2387934327125549,0.8279839158058167,3.047723293304444,3.55859375,0,F1,6.1,0,270.0,4.6109964795590015,[24700|1700|0],intermediate
29400,0.7379553318023682,0.8178790211677551,0.0146216824650764,-0.2871216237545013,0.0673756822943687,3.541771173477173,3.55859375,0,F1,6.1,0,270.0,4.622582973579844,[24700|1800|0],intermediate
29500,0.7381784319877625,0.8304346799850464,0.0179041046649217,-0.5498726963996887,0.7794950604438782,4.460171699523926,3.568359375,0,F1,6.1,0,270.0,4.6355625204720505,[24700|1900|0],intermediate
29600,0.7375732660293579,0.8457592129707336,0.0194640010595321,-1.3348454236984253,1.4749274253845217,4.248868465423584,3.96875,0,F1,6.1,0,270.0,4.650978123406368,[24700|2000|0],intermediate
29701,0.7347913980484009,0.8600788116455078,0.0,3.0057339668273926,4.081450939178467,6.508908271789551,3.984375,0,F1,6.1,0,270.0,4.675301713456267,[24700|2100|0],intermediate
29801,0.7310054898262024,0.8725069165229797,0.0,-1.2221667766571045,1.7007774114608765,6.242854118347168,3.990234375,0,F1,6.1,0,270.0,4.688293668348136,[24700|2200|0],intermediate
29901,0.7297633290290833,0.8743895888328552,0.0,-1.4067058563232422,1.253296136856079,5.198647499084473,3.99609375,0,F1,6.1,0,270.0,4.690549198989087,[24700|2300|0],intermediate
30001,0.7297880053520203,0.8744822144508362,0.0,-1.590139865875244,1.1751354932785034,5.250991344451904,3.99609375,0,F1,6.1,0,270.0,4.690645055267025,[24700|2400|0],intermediate
30101,0.729681134223938,0.8744737505912781,0.0,-1.673901081085205,1.087474346160889,5.273992538452148,4.0,0,F1,6.1,0,270.0,4.690752261026834,[24700|2500|0],intermediate
30201,0.7296111583709717,0.8743245005607605,0.0,-1.7078955173492432,1.0422179698944092,5.326561450958252,4.0,0,F1,6.1,0,270.0,4.690917100923727,[24700|2600|0],intermediate
30301,0.7299687266349792,0.8743622899055481,0.0,-1.7848254442214966,1.0164495706558228,5.334312438964844,4.0,0,F1,6.1,0,270.0,4.691276660512676,[24700|2700|0],intermediate
30400,0.7291809320449829,0.8723989129066467,0.0,-1.8400360345840447,0.9416697025299072,5.408838748931885,4.0078125,0,F1,6.1,0,270.0,4.693392191073987,[24700|2800|0],intermediate
30501,0.7301269173622131,0.8743542432785034,0.0,-2.0506234169006348,0.8320069909095764,5.42896842956543,4.0078125,0,F1,6.1,0,270.0,4.69556433404431,[24700|2900|0],intermediate
30601,0.7298762202262878,0.8747450113296509,0.0,-2.035501480102539,0.862878680229187,5.429923057556152,4.01171875,0,F1,6.1,0,270.0,4.696028606296075,[24700|3000|0],intermediate
30702,0.7299002408981323,0.8744107484817505,0.0,-2.0495529174804688,0.8981395959854126,5.415418148040772,4.01171875,0,F1,6.1,0,270.0,4.696363731114855,[24700|3100|0],intermediate
30801,0.7264921069145203,0.8768837451934814,0.0,-1.9739480018615725,0.8669987916946411,0.8147967457771301,4.01171875,0,F1,6.1,0,270.0,4.700574561197687,[24700|3200|0],intermediate
30900,0.7230942845344543,0.8794764876365662,0.0,-2.272190809249878,3.3843042850494385,-0.5515404343605042,4.01171875,0,F1,6.1,0,270.0,4.704848612004901,[24700|3300|0],intermediate
31000,0.7203292846679688,0.8718931674957275,0.0,-5.889096736907959,21.47459602355957,1.965023159980774,4.015625,0,F1,6.1,0,270.0,4.7129202889446775,[24700|3400|0],intermediate
31102,0.7287428379058838,0.8410598635673523,0.0121283512562513,-10.319907188415527,24.05909538269043,-1.4769905805587769,4.015625,0,F1,6.1,0,270.0,4.747104750523322,[24700|3500|0],intermediate
31202,0.7390528321266174,0.7742229104042053,0.032753936946392,-7.772825717926025,23.002614974975582,4.9955878257751465,4.015625,0,F1,6.1,0,270.0,4.817807572772689,[24700|3600|0],intermediate
31302,0.7446087598800659,0.7196798920631409,0.0250245295464992,-4.07703161239624,21.139759063720703,14.945164680480955,4.015625,0,F1,6.1,0,270.0,4.873175008343688,[24700|3700|0],intermediate
31402,0.7588528990745544,0.7074116468429565,0.0,-10.10493278503418,23.84730529785156,18.35056495666504,4.0234375,0,F1,6.1,0,270.0,4.904474088541006,[24700|3800|0],intermediate
31500,0.7552310824394226,0.7025249600410461,0.0,-9.650710105895996,10.590709686279297,23.6706657409668,4.015625,0,F1,6.1,0,270.0,4.910556626139615,[24700|3900|0],intermediate
31600,0.7574560046195984,0.7072751522064209,0.0,-5.492359638214111,0.1284223645925521,31.46601104736328,4.0234375,0,F1,6.1,0,270.0,4.91580206266252,[24700|4000|0],intermediate
31700,0.7609311938285828,0.7070851922035217,0.0,-3.473763465881348,-0.9420630931854248,34.31928634643555,4.0234375,0,F1,6.1,0,270.0,4.919282439774406,[24700|4100|0],intermediate
31800,0.760501503944397,0.7052834033966064,0.0,-2.377485990524292,-1.3883123397827148,34.489933013916016,4.0234375,0,F1,6.1,0,270.0,4.921134756243397,[24700|4200|0],intermediate
31900,0.7603603005409241,0.7077261805534363,0.0,-2.6933367252349854,-1.1335221529006958,30.05330467224121,4.0234375,0,F1,6.1,0,270.0,4.923581611089742,[24700|4300|0],intermediate
32000,0.7596537470817566,0.7058263421058655,0.0,-2.673468828201294,-0.7648906707763672,26.809877395629883,4.0234375,0,F1,6.1,0,270.0,4.92560858023542,[24700|4400|0],intermediate
32100,0.759721577167511,0.7058511972427368,0.0,-2.478640079498291,-0.4177854359149933,24.37799072265625,4.02734375,0,F1,6.1,0,270.0,4.925680820794405,[24700|4500|0],intermediate
32200,0.7598800659179688,0.705471932888031,0.0,-2.1863443851470947,-0.1068781092762947,22.5766658782959,4.02734375,0,F1,6.1,0,270.0,4.926091868400859,[24700|4600|0],intermediate
32300,0.7598157525062561,0.7051120400428772,0.0,-1.9110040664672847,0.1771852523088455,21.1750717163086,4.02734375,0,F1,6.1,0,270.0,4.926457462540472,[24700|4700|0],intermediate
32400,0.7594448328018188,0.7047428488731384,0.0,-1.700710654258728,0.3754421770572662,20.08300018310547,4.02734375,0,F1,6.1,0,270.0,4.926980801385727,[24700|4800|0],intermediate
32500,0.7594370245933533,0.7041211724281311,0.0,-1.454861760139465,0.544732928276062,19.2194766998291,4.1171875,0,F1,6.1,0,270.0,4.92760252686405,[24700|4900|0],intermediate
32600,0.7595909237861633,0.7038046717643738,0.0,-1.2722930908203125,0.6667307019233704,18.63015365600586,4.12109375,0,F1,6.1,0,270.0,4.927954460993834,[24700|5000|0],intermediate
32700,0.759570300579071,0.70328688621521,0.0,-1.1266756057739258,0.7673161029815674,18.166318893432617,4.12109375,0,F1,6.1,0,270.0,4.9284726570876,[24700|5100|0],intermediate
32800,0.7594023942947388,0.7031079530715942,0.0,-1.014488935470581,0.8533258438110352,17.801321029663086,4.12109375,0,F1,6.1,0,270.0,4.928718033513123,[24700|5200|0],intermediate
32900,0.7595521807670593,0.7031611800193787,0.0,-0.9380106329917908,0.905090630054474,17.55870819091797,4.12109375,0,F1,6.1,0,270.0,4.928876996072428,[24700|5300|0],intermediate
33000,0.7597323656082153,0.7028598189353943,0.0,-0.8808007836341858,0.942590832710266,17.343158721923828,4.12109375,0,F1,6.1,0,270.0,4.929228115823969,[24700|5400|0],intermediate
33100,0.759190559387207,0.7026473879814148,0.0,-0.8724525570869446,0.9539870023727416,17.164661407470703,4.12890625,0,F1,6.1,0,270.0,4.9298100787878525,[24700|5500|0],intermediate
33200,0.7596762180328369,0.702487051486969,0.0,-0.8424246907234192,0.962315022945404,17.06014060974121,4.12890625,0,F1,6.1,0,270.0,4.930321519998087,[24700|5600|0],intermediate
33300,0.7596262693405151,0.7026491165161133,0.0,-0.831748366355896,0.9754528999328612,16.942171096801758,4.12890625,0,F1,6.1,0,270.0,4.930491107572916,[24700|5700|0],intermediate
33400,0.759580671787262,0.7023102045059204,0.0,-0.8198325634002686,0.988189160823822,16.87836265563965,4.12890625,0,F1,6.1,0,270.0,4.930833073196211,[24700|5800|0],intermediate
33500,0.7595030069351196,0.7022637724876404,0.0,-0.8183761835098267,0.993677020072937,16.815746307373047,4.12890625,0,F1,6.1,0,270.0,4.930923559446988,[24700|5900|0],intermediate
33600,0.759680449962616,0.7022870182991028,0.0,-0.8125571012496948,1.0002251863479614,16.79542350769043,4.1328125,0,F1,6.1,0,270.0,4.931102518648365,[24700|6000|0],intermediate
33700,0.7599429488182068,0.7020377516746521,0.0,-0.8114935755729675,1.0055062770843506,16.75657081604004,4.1328125,0,F1,6.1,0,270.0,4.931464512431808,[24700|6100|0],intermediate
33800,0.7597222328186035,0.7023206353187561,0.0,-0.8308935165405273,1.0108124017715454,16.768598556518555,4.1328125,0,F1,6.1,0,270.0,4.931823314199616,[24700|6200|0],intermediate
33900,0.7593910694122314,0.7019739151000977,0.0,-0.8385288119316101,1.0205713510513306,16.741174697875977,4.1328125,0,F1,6.1,0,270.0,4.932302776514868,[24700|6300|0],intermediate
34000,0.7594207525253296,0.7018768787384033,0.0,-0.8452062606811523,1.0257278680801392,16.73998260498047,4.13671875,0,F1,6.1,0,270.0,4.932404251352606,[24700|6400|0],intermediate
