time.ms,stateEstimate.x,stateEstimate.y,stateEstimate.z,stabilizer.roll,stabilizer.pitch,stabilizer.yaw,pm.vbat,drone_id,node_name,wind_speed,global_wind_direction,relative_wind_direction,travel_dist,waiting_time,curr_node_role
0,1.7135359048843384,1.187608003616333,0.0,4.191597938537598,7.1335859298706055,-2.776031017303467,4.13671875,2,A1,6.1,0,270.0,0.0,[6200|0|0],start
100,1.7133878469467163,1.187138915061951,0.0,3.737715482711792,6.209683895111084,-2.9098503589630127,4.13671875,2,A1,6.1,0,270.0,0.0004918996084011,[6300|0|0],start
200,1.713509202003479,1.1876689195632937,0.0,3.2443337440490723,5.462828636169434,-2.991888523101806,4.13671875,2,A1,6.1,0,270.0,0.0010356199604622,[6400|0|0],start
300,1.71355938911438,1.1874996423721311,0.0,2.832214593887329,4.6806254386901855,-2.9630227088928223,4.13671875,2,A1,6.1,0,270.0,0.0012121801868681,[6500|0|0],start
400,1.713814377784729,1.1877450942993164,0.0,2.4776973724365234,4.064227104187012,-2.8851537704467773,4.13671875,2,A1,6.1,0,270.0,0.0015661093754994,[6600|0|0],start
500,1.7136352062225342,1.1874628067016602,0.0,2.199775218963623,3.5174241065979004,-2.7546095848083496,4.13671875,2,A1,6.1,0,270.0,0.001900457601889,[6700|0|0],start
600,1.714063048362732,1.1878081560134888,0.0,1.92553973197937,3.0511229038238525,-2.6070284843444824,4.13671875,2,A1,6.1,0,270.0,0.002450289434461,[6800|0|0],start
700,1.714450478553772,1.1875486373901367,0.0,1.703389048576355,2.662324905395508,-2.497004747390747,4.13671875,2,A1,6.1,0,270.0,0.0029166069966393,[6900|0|0],start
800,1.7142935991287231,1.187981128692627,0.0,1.4979829788208008,2.3526713848114014,-2.380412578582764,4.13671875,2,A1,6.1,0,270.0,0.0033766720797888,[7000|0|0],start
900,1.7146492004394531,1.1879690885543823,0.0,1.3319700956344604,2.0630528926849365,-2.288657665252685,4.13671875,2,A1,6.1,0,270.0,0.0037324771628354,[7100|0|0],start
1000,1.7152208089828491,1.188227653503418,0.0,1.1845015287399292,1.829835295677185,-2.2052369117736816,4.13671875,2,A1,6.1,0,270.0,0.0043598464000101,[7200|0|0],start
1100,1.7152960300445557,1.188741683959961,0.0,1.0562456846237185,1.6368553638458252,-2.11934494972229,4.13671875,2,A1,6.1,0,270.0,0.004879351470609,[7300|0|0],start
1200,1.7152678966522217,1.1885054111480713,0.0,0.9649363160133362,1.481218695640564,-2.047400951385498,4.13671875,2,A1,6.1,0,270.0,0.0051172933320006,[7400|0|0],start
1300,1.7155858278274536,1.1888024806976318,0.0,0.8356961011886597,1.307728290557861,-1.9811707735061648,4.13671875,2,A1,6.1,0,270.0,0.005552414636306,[7500|0|0],start
1400,1.7155293226242063,1.1887054443359375,0.0,0.7819821238517761,1.2052321434020996,-1.9048497676849363,4.13671875,2,A1,6.1,0,270.0,0.0056647039656516,[7600|0|0],start
1500,1.715683937072754,1.1891733407974243,0.0,0.7184000015258789,1.1296359300613403,-1.844222903251648,4.13671875,2,A1,6.1,0,270.0,0.006157484572384,[7700|0|0],start
1600,1.7157052755355835,1.1891231536865234,0.0,0.6874215006828308,1.0710670948028564,-1.787081956863403,3.072265625,2,fly,6.1,0,270.0,0.0062120196628901,[7700|0|0],fly
1700,1.7155669927597046,1.189444899559021,0.0,-0.7729859948158264,0.984983205795288,-1.6619945764541626,3.220703125,2,fly,6.1,0,270.0,0.0065622232216584,[7700|0|0],fly
1800,1.716233730316162,1.1958264112472534,0.0,-5.727028846740723,0.965795874595642,-0.6203243732452393,3.515625,2,fly,6.1,0,270.0,0.0129784705981424,[7700|0|0],fly
1900,1.7175579071044922,1.215424656867981,0.0284799132496118,-0.3657276630401611,2.8002870082855225,0.2251536846160888,3.5625,2,fly,6.1,0,270.0,0.0475754377236367,[7700|0|0],fly
2000,1.717862248420715,1.236607789993286,0.0977756828069686,3.257797241210937,2.29924750328064,0.7572983503341675,3.611328125,2,fly,6.1,0,270.0,0.1200372996317291,[7700|0|0],fly
2100,1.7167456150054932,1.2539507150650024,0.1760142296552658,5.312071323394775,1.628059148788452,0.5316717028617859,3.611328125,2,fly,6.1,0,270.0,0.2001827557297535,[7700|0|0],fly
2200,1.713988184928894,1.2622644901275637,0.2571889758110046,5.71608829498291,1.2987191677093506,0.2336045503616333,3.57421875,2,fly,6.1,0,270.0,0.2818287090273104,[7700|0|0],fly
2300,1.7101876735687256,1.261562466621399,0.3408548533916473,4.622164726257324,0.9085404872894288,-0.0010361248860135,3.541015625,2,fly,6.1,0,270.0,0.3655838031705388,[7700|0|0],fly
2400,1.70648193359375,1.2539937496185305,0.4270041286945343,2.7679269313812256,0.4141691625118255,-0.491975724697113,3.541015625,2,fly,6.1,0,270.0,0.4521442769506901,[7700|0|0],fly
2500,1.702691912651062,1.2440003156661987,0.5148626565933228,1.3451991081237793,0.6686114072799683,-0.6126028299331665,3.546875,2,fly,6.1,0,270.0,0.5406505134848905,[7700|0|0],fly
2600,1.6993844509124756,1.2332561016082764,0.6054893732070923,0.0632877051830291,0.3297694623470306,-0.8293226957321167,3.552734375,2,fly,6.1,0,270.0,0.6319718100321207,[7700|0|0],fly
2700,1.695862889289856,1.2241865396499634,0.6987394094467163,-0.4957983493804931,0.7950267791748047,-0.7648186087608337,3.546875,2,fly,6.1,0,270.0,0.7257280237412331,[7700|0|0],fly
2800,1.6936651468276978,1.212272047996521,0.7972689270973206,-1.0049580335617063,0.2749911546707153,-0.5536256432533264,3.583984375,2,fly,6.1,0,270.0,0.8249996260842529,[7700|0|0],fly
2900,1.690261960029602,1.2090612649917605,0.8935030102729797,-1.3762723207473757,0.2056535482406616,-0.676796019077301,3.53125,2,fly,6.1,0,270.0,0.9213473794184438,[7700|0|0],fly
3000,1.6858489513397217,1.2088249921798706,0.991118848323822,-0.1083363592624664,0.4470252692699432,-1.3377351760864258,3.53125,2,fly,6.1,0,270.0,1.0190632036686995,[7700|0|0],fly
3100,1.681768536567688,1.2096930742263794,1.089705467224121,0.934244990348816,0.3898439705371856,-1.266278624534607,3.541015625,2,fly,6.1,0,270.0,1.117738047359197,[7700|0|0],fly
3200,1.6764826774597168,1.2096532583236694,1.1902426481246948,0.949880838394165,-0.2014257162809372,-3.831568479537964,3.541015625,2,fly,6.1,0,270.0,1.2184140953311455,[7700|0|0],fly
3300,1.672382116317749,1.2070510387420654,1.2925071716308594,1.3419554233551023,0.065557986497879,0.1596706062555313,3.53125,2,fly,6.1,0,270.0,1.320793873199496,[7700|0|0],fly
3400,1.6683965921401978,1.2033826112747192,1.3952418565750122,1.0124919414520264,-0.3976463973522186,0.4585709869861603,3.62109375,2,fly,6.1,0,270.0,1.4236712626182957,[7700|0|0],fly
3500,1.6643136739730835,1.2003045082092283,1.4949067831039429,0.9390319585800172,-0.1013467758893966,-3.230733156204224,3.6796875,2,fly,6.1,0,270.0,1.523467267143819,[7700|0|0],fly
3600,1.6618767976760864,1.1911110877990725,1.582108974456787,0.7260738015174866,-0.3778713345527649,1.329262137413025,3.6484375,2,fly,6.1,0,270.0,1.6111865895401003,[7700|0|0],fly
3700,1.6588112115859983,1.1860013008117676,1.651332974433899,-0.4196248054504394,-0.361715704202652,-1.4258414506912231,3.630859375,2,fly,6.1,0,270.0,1.6806665860424217,[7700|0|0],fly
3800,1.6542589664459229,1.1815242767333984,1.7015987634658811,-1.0033479928970337,-0.5338053703308105,7.066257953643799,3.583984375,2,fly,6.1,0,270.0,1.7313362636358445,[7700|0|0],fly
3900,1.6537872552871704,1.1760969161987305,1.7384663820266724,-1.2029643058776855,-0.6671183705329895,5.866791248321533,3.59375,2,fly,6.1,0,270.0,1.7686042130311967,[7700|0|0],fly
4000,1.650010585784912,1.174594759941101,1.761391043663025,-1.1218093633651731,-0.6561570167541504,-0.5957502126693726,3.5625,2,fly,6.1,0,270.0,1.7918863911314706,[7700|0|0],fly
4100,1.6491621732711792,1.1733500957489014,1.774959921836853,-0.855992317199707,-1.006811499595642,-9.43915557861328,3.546875,2,fly,6.1,0,270.0,1.805538623463254,[7700|0|0],fly
4200,1.649527072906494,1.1742146015167236,1.779970407485962,-0.4245880246162414,-0.8377751708030701,-14.369206428527832,3.53125,2,fly,6.1,0,270.0,1.8106362197994088,[7700|0|0],fly
4300,1.6505650281906128,1.1722201108932495,1.7805529832839966,0.2452309876680374,-0.3932339251041412,-12.80908489227295,3.521484375,2,fly,6.1,0,270.0,1.8129588774537804,[7700|0|0],fly
4400,1.6521470546722412,1.1735804080963137,1.7783554792404177,-0.6027183532714844,-0.2795564234256744,-5.110676288604736,3.525390625,2,fly,6.1,0,270.0,1.8159890986158047,[7700|0|0],fly
4500,1.6538796424865725,1.1765003204345703,1.7771189212799072,-0.390788584947586,0.035845298320055,-0.8692483305931091,3.53125,2,fly,6.1,0,270.0,1.819602521395826,[7700|0|0],fly
4600,1.6552438735961914,1.180381417274475,1.776954174041748,0.1278474181890487,0.4556184113025665,1.995156168937683,3.658203125,2,fly,6.1,0,155.0,1.8237197025739689,[7700|0|0],fly
4700,1.6577671766281128,1.1685396432876587,1.7715766429901123,13.274261474609377,13.237748146057127,1.8907558917999268,3.701171875,2,fly,6.1,0,155.0,1.8369678160078524,[7700|0|0],fly
4800,1.6451228857040403,1.1506346464157104,1.7456717491149902,13.560699462890623,14.636122703552246,1.9899805784225464,3.568359375,2,fly,6.1,0,155.0,1.870902024892669,[7700|0|0],fly
4900,1.6152516603469849,1.1083377599716189,1.6995831727981567,12.408683776855469,18.11761474609375,1.6823453903198242,3.46875,2,fly,6.1,0,155.0,1.940223548059064,[7700|0|0],fly
5000,1.5624884366989136,1.0448274612426758,1.6457123756408691,7.14152717590332,14.898199081420898,2.6702444553375244,3.431640625,2,fly,6.1,0,155.0,2.0388114712582954,[7700|0|0],fly
5100,1.4779046773910522,0.9618412852287292,1.5921727418899536,0.2920636832714081,10.202593803405762,2.6516213417053223,3.447265625,2,fly,6.1,0,155.0,2.168840737695702,[7700|0|0],fly
5200,1.3895351886749268,0.8838441967964172,1.5601290464401243,-5.9167680740356445,5.057754993438721,2.8918826580047607,3.478515625,2,fly,6.1,0,155.0,2.290986186886201,[7700|0|0],fly
5300,1.2928582429885864,0.8157935738563538,1.5370681285858154,-9.760022163391112,1.6412074565887451,3.030578374862671,3.521484375,2,fly,6.1,0,155.0,2.411440016389681,[7700|0|0],fly
5400,1.194594144821167,0.764381468296051,1.5208765268325806,-10.40436553955078,0.3892647325992584,4.004324913024902,3.515625,2,fly,6.1,0,155.0,2.523516800578626,[7700|0|0],fly
5500,1.0971235036849976,0.7321712374687195,1.5088980197906494,-10.394970893859863,-2.6368637084960938,4.963683128356934,3.53125,2,fly,6.1,0,155.0,2.626868188979554,[7700|0|0],fly
5600,1.0036677122116089,0.7204149961471558,1.501824975013733,-8.337481498718262,-4.782947063446045,3.736395835876465,3.537109375,2,fly,6.1,0,155.0,2.7213257039391623,[7700|0|0],fly
5700,0.9182900190353394,0.722656786441803,1.497631311416626,-5.030820369720459,-6.051991939544678,2.4170079231262207,3.546875,2,fly,6.1,0,155.0,2.8068357204880563,[7700|0|0],fly
5800,0.8448201417922974,0.7314796447753906,1.495615005493164,-0.5344337224960327,-8.08362102508545,0.5705158114433289,3.55859375,2,fly,6.1,0,155.0,2.880860926876551,[7700|0|0],fly
5900,0.7838869094848633,0.7418708205223083,1.49253249168396,0.4946713447570801,-8.273006439208984,-3.340712547302246,3.546875,2,fly,6.1,0,155.0,2.942750645119721,[7700|0|0],fly
6000,0.7355435490608215,0.7456758618354797,1.4892187118530271,1.754700779914856,-7.802225589752197,-2.413323163986206,3.515625,2,fly,6.1,0,155.0,2.991356611556483,[7700|0|0],fly
6100,0.701048731803894,0.7432841658592224,1.4864561557769775,1.3707046508789062,-6.175323486328125,-1.9320770502090447,3.525390625,2,fly,6.1,0,155.0,3.0260444241612725,[7700|0|0],fly
6200,0.6717167496681213,0.7388513684272766,1.4835317134857178,-0.1466916501522064,-5.5655198097229,-0.9923407435417176,3.537109375,2,fly,6.1,0,155.0,3.0558532690198184,[7700|0|0],fly
6300,0.6480277180671692,0.7331945896148682,1.4808119535446167,-1.525546908378601,-5.171194076538086,0.2145743817090988,3.515625,2,fly,6.1,0,155.0,3.080359726512909,[7700|0|0],fly
6400,0.6302245855331421,0.7300943732261658,1.4780501127243042,-2.194344520568848,-4.707301139831543,1.073488473892212,3.541015625,2,fly,6.1,0,155.0,3.0986406081764843,[7700|0|0],fly
6500,0.6165390610694885,0.7321957349777222,1.475343942642212,-2.5409743785858154,-4.010965824127197,1.4401140213012695,3.525390625,2,fly,6.1,0,155.0,3.112748501625521,[7700|0|0],fly
6600,0.6077716946601868,0.7366374731063843,1.472808599472046,-1.4317054748535156,-3.52380633354187,1.5318564176559448,3.537109375,2,fly,6.1,0,155.0,3.1228985615440177,[7700|0|0],fly
6700,0.6021453738212585,0.7439122200012207,1.4694067239761353,-0.7885959148406982,-3.180358409881592,1.6608757972717283,3.521484375,2,fly,6.1,0,155.0,3.132704181639461,[7700|0|0],fly
6800,0.5993174314498901,0.7524597644805908,1.4668675661087036,-0.2349160462617874,-2.748115539550781,1.453307032585144,3.53125,2,fly,6.1,0,155.0,3.142058597567692,[7700|0|0],fly
6900,0.5992993116378784,0.7607737183570862,1.4643319845199585,0.4347535371780395,-2.366220712661743,1.459707498550415,3.53125,2,fly,6.1,0,155.0,3.150750624453365,[7700|0|0],fly
7000,0.601280927658081,0.7673346996307373,1.4618507623672483,0.8493762016296387,-1.82821786403656,1.2825570106506348,3.541015625,2,fly,6.1,0,155.0,3.158039639523717,[7700|0|0],fly
7100,0.6052465438842773,0.77158123254776,1.457423210144043,1.035152792930603,-1.8763806819915767,1.2254024744033811,3.541015625,2,fly,6.1,0,155.0,3.165344594866362,[7700|0|0],fly
7200,0.6117305159568787,0.7753069400787354,1.450333833694458,0.524949848651886,-1.560354232788086,1.0128215551376345,3.537109375,2,fly,6.1,0,155.0,3.1756490622901823,[7700|0|0],fly
7300,0.6174450516700745,0.7763406038284302,1.4410932064056396,0.6069672107696533,-0.9051053524017334,0.8196257948875427,3.5,2,fly,6.1,0,155.0,3.1865629787208536,[7700|0|0],fly
7400,0.6243561506271362,0.7763582468032837,1.4318745136260986,0.1183897852897644,-0.7494971752166748,0.646373987197876,3.5,2,fly,6.1,0,155.0,3.198084606063917,[7700|0|0],fly
7500,0.632354199886322,0.7761441469192505,1.4236698150634766,-0.4606779813766479,-0.6482473015785217,0.3160682320594787,3.5,2,fly,6.1,0,155.0,3.2095446108290204,[7700|0|0],fly
7600,0.6402381658554077,0.7770556211471558,1.416717767715454,-0.8415682911872864,-0.7112873792648315,0.2907138168811798,3.83203125,2,fly,6.1,0,270.0,3.2200953770096814,[7700|0|0],fly
7700,0.6498754620552063,0.7784130573272705,1.397191882133484,-0.3259455859661102,-0.8858739137649536,0.209278404712677,3.869140625,2,fly,6.1,0,270.0,3.2419123501908063,[7700|0|0],fly
7800,0.6589574217796326,0.7808659076690674,1.3397849798202517,0.6604594588279724,-0.0217527914792299,-0.0854608863592147,3.7421875,2,fly,6.1,0,270.0,3.3000849459764194,[7700|0|0],fly
7900,0.6674954891204834,0.7826916575431824,1.2469782829284668,1.8419245481491089,0.2174721509218216,-1.5470646619796753,3.615234375,2,fly,6.1,0,270.0,3.393301441000012,[7700|0|0],fly
8000,0.6736436486244202,0.7838758826255798,1.1320143938064575,-0.1619478613138198,0.4422408044338226,-4.045215129852295,3.55859375,2,fly,6.1,0,270.0,3.5084357020016324,[7700|0|0],fly
8100,0.6807965040206909,0.7847932577133179,1.0081493854522705,-0.3375081419944763,-0.3668681979179382,-5.34110689163208,3.53125,2,fly,6.1,0,270.0,3.6325104585476535,[7700|0|0],fly
8200,0.688206136226654,0.7861448526382446,0.8950286507606506,0.4311721622943878,-0.0012002889998257,-4.684443473815918,3.48828125,2,fly,6.1,0,270.0,3.745881663337232,[7700|0|0],fly
8300,0.6926353573799133,0.7925223112106323,0.7672672867774963,0.3945148885250091,2.1492373943328857,-3.3281991481781006,3.515625,2,fly,6.1,0,270.0,3.873878757463244,[7700|0|0],fly
8400,0.6986324787139893,0.7913599014282227,0.6497929692268372,-0.2506970167160034,1.564342379570007,-2.925975561141968,3.578125,2,fly,6.1,0,270.0,3.99151179680505,[7700|0|0],fly
8500,0.7040075659751892,0.7898611426353455,0.533767580986023,0.4045561850070953,1.3252601623535156,-2.279512643814087,3.5625,2,fly,6.1,0,270.0,4.107671293004958,[7700|0|0],fly
8600,0.7080662846565247,0.7886945605278015,0.4166552126407623,0.124766431748867,1.3925920724868774,-1.548999309539795,3.435546875,2,fly,6.1,0,270.0,4.224859777637979,[7700|0|0],fly
8700,0.711785078048706,0.7865417003631592,0.3069775700569153,-0.3789241015911102,1.1877752542495728,0.6215760111808777,3.416015625,2,fly,6.1,0,270.0,4.3346215629456735,[7700|0|0],fly
8800,0.7146069407463074,0.7829050421714783,0.2114903628826141,1.5474389791488647,1.129139065742493,3.902290582656861,3.416015625,2,fly,6.1,0,270.0,4.430219653542898,[7700|0|0],fly
8900,0.7171103954315186,0.775269627571106,0.1340660601854324,1.5257925987243652,0.3476987779140472,7.2483134269714355,3.447265625,2,fly,6.1,0,270.0,4.508059806996147,[7700|0|0],fly
9000,0.7190947532653809,0.7635303139686584,0.0733224526047706,-0.3990373313426971,1.697839617729187,10.828736305236816,3.521484375,2,fly,6.1,0,270.0,4.569959201353304,[7700|0|0],fly
9100,0.7174863815307617,0.7516695857048035,0.0273282639682292,-2.178495168685913,2.961899757385254,13.958189010620115,3.515625,2,fly,6.1,0,270.0,4.61748529021952,[7700|0|0],fly
9200,0.7103533148765564,0.7415148615837097,0.0,-1.4920982122421265,1.0157972574234009,14.23215389251709,3.494140625,2,fly,6.1,0,270.0,4.647499171564426,[7700|0|0],fly
9300,0.7003271579742432,0.7321043610572815,0.0,-1.3693137168884275,-1.4667993783950806,11.861953735351562,3.537109375,2,fly,6.1,0,270.0,4.66124985672509,[7700|0|0],fly
9400,0.6897549629211426,0.7235805988311768,0.0,-0.7813429236412048,-1.242465615272522,8.200965881347656,3.599609375,2,fly,6.1,0,270.0,4.674830203949221,[7700|0|0],fly
9500,0.6810586452484131,0.7166458368301392,0.0127240931615233,-1.6490001678466797,-3.055532217025757,5.043649196624756,3.599609375,2,fly,6.1,0,270.0,4.691730482404299,[7700|0|0],fly
9600,0.6763293147087097,0.7132514715194702,0.0307801868766546,-2.108935594558716,-2.985332489013672,3.491252899169922,3.578125,2,fly,6.1,0,270.0,4.710701797684629,[7700|0|0],fly
9700,0.6754621863365173,0.7122852206230164,0.0402089357376098,-1.474766492843628,-1.7733616828918457,2.6780881881713867,3.509765625,2,fly,6.1,0,270.0,4.720219510513441,[7700|0|0],fly
9800,0.6768683791160583,0.7140172719955444,0.041098091751337,-1.2511259317398071,-1.5336477756500244,2.5753536224365234,3.48828125,2,fly,6.1,0,270.0,4.72262117212721,[7700|0|0],fly
9900,0.6817162036895752,0.7174907922744751,0.0365524068474769,-0.5070933699607849,-1.3175705671310425,2.5998353958129883,3.5,2,fly,6.1,0,270.0,4.730119838506568,[7700|0|0],fly
10000,0.687217116355896,0.7207666039466858,0.0318719744682312,0.253272533416748,0.1346634775400161,2.258887529373169,3.541015625,2,fly,6.1,0,270.0,4.738050628475479,[7700|0|0],fly
10100,0.6941617727279663,0.7250811457633972,0.0310268960893154,0.0160166788846254,0.324204683303833,1.5246689319610596,3.53125,2,fly,6.1,0,270.0,4.7462699764229015,[7700|0|0],fly
10200,0.6976409554481506,0.7250788807868958,0.0297924634069204,0.0419236272573471,0.3634762465953827,0.6954391598701477,3.541015625,2,fly,6.1,0,270.0,4.749961661888635,[7700|0|0],fly
10300,0.6995550990104675,0.7259120345115662,0.029878718778491,-0.3101387023925781,1.1665408611297607,-0.028819428756833,3.505859375,2,fly,6.1,0,270.0,4.752051047132007,[7700|0|0],fly
10400,0.7023293972015381,0.7290186285972595,0.0312776416540145,-0.304335206747055,0.5695772767066956,-0.8578655123710632,3.478515625,2,fly,6.1,0,270.0,4.756444752001237,[7700|0|0],fly
10500,0.7017593383789062,0.73079514503479,0.0333214476704597,-0.4664173722267151,0.6203828454017639,-1.1538550853729248,3.478515625,2,fly,6.1,0,270.0,4.759212082980166,[7700|0|0],fly
10600,0.6993406414985657,0.7311842441558838,0.0338430851697921,-0.8091062903404236,-0.4068754017353058,-1.525792360305786,3.46875,2,F1,6.1,0,270.0,4.761716798214621,[7700|100|0],intermediate
10700,0.7002515196800232,0.7367153763771057,0.0376016236841678,-0.6051552891731262,-0.4111127853393554,-1.918583393096924,3.48828125,2,F1,6.1,0,270.0,4.768465852553871,[7700|200|0],intermediate
10800,0.6995962262153625,0.7413142919540405,0.0395235046744346,-0.502291738986969,0.084754928946495,-2.077556848526001,3.48828125,2,F1,6.1,0,270.0,4.773493084451183,[7700|300|0],intermediate
10900,0.6990770697593689,0.7475182414054871,0.0410962291061878,0.2237299382686615,-0.175899252295494,-1.8659708499908447,3.48828125,2,F1,6.1,0,270.0,4.7799142972930175,[7700|400|0],intermediate
11000,0.6991888880729675,0.7528388500213623,0.0431595034897327,0.5219569802284241,-0.6603440642356873,-0.5454490184783936,3.484375,2,F1,6.1,0,270.0,4.785622053468642,[7700|500|0],intermediate
11100,0.7006122469902039,0.7582126259803772,0.0453727580606937,0.4543381929397583,-0.0232380181550979,1.5246450901031494,3.525390625,2,F1,6.1,0,270.0,4.791605523570585,[7700|600|0],intermediate
11200,0.7032111287117004,0.7626198530197144,0.0463741831481456,0.9753237366676332,-0.0242863446474075,3.142256498336792,3.55859375,2,F1,6.1,0,270.0,4.796819033768558,[7700|700|0],intermediate
11300,0.7059419751167297,0.7655943036079407,0.0454042144119739,0.7614924311637878,0.1067435517907142,3.839523077011109,3.552734375,2,F1,6.1,0,270.0,4.800971830144352,[7700|800|0],intermediate
11400,0.7094209790229797,0.7670162320137024,0.0425469502806663,0.8359043598175049,-0.1273394525051117,3.609651803970337,3.53125,2,F1,6.1,0,270.0,4.8056929853935335,[7700|900|0],intermediate
11501,0.7118660807609558,0.7666040658950806,0.0401266291737556,0.0653546899557113,0.1534685343503952,2.578460454940796,3.5,2,F1,6.1,0,270.0,4.809158004539072,[7700|1000|0],intermediate
11600,0.7144412994384766,0.7651241421699524,0.039274912327528,-0.1179560124874115,0.0181008819490671,1.6759512424468994,3.509765625,2,F1,6.1,0,270.0,4.812247882700974,[7700|1100|0],intermediate
11700,0.716168224811554,0.7641472220420837,0.0404991805553436,-0.3239119350910187,0.081183798611164,0.894852876663208,3.53125,2,F1,6.1,0,270.0,4.81457929362015,[7700|1200|0],intermediate
11800,0.7173801064491272,0.7635977268218994,0.0407847687602043,-0.960501194000244,0.6522635817527771,0.9587229490280152,3.537109375,2,F1,6.1,0,270.0,4.815940235471681,[7700|1300|0],intermediate
11901,0.7175353169441223,0.7639925479888916,0.0399629659950733,-0.2933675646781921,-0.0864299237728118,1.7901512384414673,3.505859375,2,F1,6.1,0,270.0,4.81686507807258,[7700|1400|0],intermediate
12001,0.7180732488632202,0.7652074694633484,0.0396424792706966,-0.5991950631141663,0.3489839732646942,2.483555793762207,3.5,2,F1,6.1,0,270.0,4.818231868721942,[7700|1500|0],intermediate
12101,0.7179782390594482,0.7671105861663818,0.040865521878004,-0.3177803754806518,-0.0243222080171108,2.825193166732788,3.505859375,2,F1,6.1,0,270.0,4.82049609337234,[7700|1600|0],intermediate
12201,0.7174255847930908,0.7696948647499084,0.0432724207639694,-0.5012116432189941,0.0458020754158496,3.0966272354125977,3.515625,2,F1,6.1,0,270.0,4.824070598202755,[7700|1700|0],intermediate
12301,0.7166835069656372,0.7731088995933533,0.0464800931513309,0.1271992772817611,0.0480334535241127,3.477372407913208,3.521484375,2,F1,6.1,0,270.0,4.828813537751062,[7700|1800|0],intermediate
12401,0.7161743640899658,0.7752934694290161,0.0490284785628318,0.155994027853012,-0.2454155683517456,3.766954898834229,3.515625,2,F1,6.1,0,270.0,4.832208510510935,[7700|1900|0],intermediate
12501,0.7158144116401672,0.777533233165741,0.0495894663035869,-0.0738444626331329,-0.0653348937630653,3.8502018451690674,3.515625,2,F1,6.1,0,270.0,4.834545349103509,[7700|2000|0],intermediate
12601,0.7154250741004944,0.7806633710861206,0.0395075529813766,-2.8284029960632324,-0.1065030246973037,4.670990467071533,4.0078125,2,F1,6.1,0,270.0,4.845109170540705,[7700|2100|0],intermediate
12701,0.7154114842414856,0.7857697010040283,0.0,-8.101984024047852,-2.238366842269897,6.641255855560303,4.01171875,2,F1,6.1,0,270.0,4.884945354249628,[7700|2200|0],intermediate
12802,0.7101143002510071,0.7998067736625671,0.0,-1.727626919746399,-1.1410738229751587,18.5124626159668,4.015625,2,F1,6.1,0,270.0,4.899948672784208,[7700|2300|0],intermediate
12902,0.7096030116081238,0.8025102019309998,0.0,-1.5292110443115234,-0.7923886775970459,18.715972900390625,4.015625,2,F1,6.1,0,270.0,4.902700025265971,[7700|2400|0],intermediate
13002,0.7095860838890076,0.8024752140045166,0.0,-1.4643808603286743,-0.6068596839904785,18.432029724121094,4.0234375,2,F1,6.1,0,270.0,4.90273889302477,[7700|2500|0],intermediate
13102,0.7091103792190552,0.8026247024536133,0.0,-1.367397665977478,-0.4353097379207611,18.24364852905273,4.0234375,2,F1,6.1,0,270.0,4.90323753290427,[7700|2600|0],intermediate
13202,0.7080795168876648,0.8022662401199341,0.0,-1.2986246347427368,-0.3443907797336578,19.195541381835938,4.0234375,2,F1,6.1,0,270.0,4.904328941347955,[7700|2700|0],intermediate
13300,0.7066339254379272,0.8026328682899475,0.0,-1.2205145359039309,-0.3280331790447235,19.25325965881348,4.02734375,2,F1,6.1,0,270.0,4.905820300075626,[7700|2800|0],intermediate
13400,0.705450713634491,0.8046775460243225,0.0,-1.1996318101882937,-0.2950861155986786,18.7410888671875,4.02734375,2,F1,6.1,0,270.0,4.908182650009324,[7700|2900|0],intermediate
13502,0.7056212425231934,0.804340660572052,0.0,0.8624082207679749,0.1732616871595382,8.943779945373535,4.03125,2,F1,6.1,0,270.0,4.908560236965975,[7700|3000|0],intermediate
13602,0.7077040076255798,0.8008052706718445,0.0,17.56737518310547,-0.4304664134979248,4.431930541992188,4.03125,2,F1,6.1,0,270.0,4.912663515194199,[7700|3100|0],intermediate
13700,0.7132822871208191,0.7917450666427612,0.002224835101515,22.698156356811523,-6.36096715927124,-5.675573348999023,4.03125,2,F1,6.1,0,270.0,4.9235333997568125,[7700|3200|0],intermediate
13800,0.7338918447494507,0.7629991769790649,0.0353307127952575,13.630846977233888,-6.645855903625488,-3.801289558410645,4.03125,2,F1,6.1,0,270.0,4.971980062965731,[7700|3300|0],intermediate
13900,0.7578679323196411,0.7322322726249695,0.0247357226908206,8.92121410369873,-1.7881311178207395,0.3268611133098602,4.0390625,2,F1,6.1,0,270.0,5.012399229137494,[7700|3400|0],intermediate
14000,0.7677602171897888,0.7180207967758179,0.0,9.909815788269045,4.348019123077393,-0.2753118276596069,4.0390625,2,F1,6.1,0,270.0,5.042593257070189,[7700|3500|0],intermediate
14100,0.7696766257286072,0.7164649963378906,0.0,4.31455659866333,4.931911945343018,-3.1009716987609863,4.0390625,2,F1,6.1,0,270.0,5.045061685049757,[7700|3600|0],intermediate
14200,0.7714893221855164,0.7161576747894287,0.0,0.5157989859580994,0.7199227809906006,-3.456228256225586,4.0390625,2,F1,6.1,0,270.0,5.046900248341852,[7700|3700|0],intermediate
14300,0.7716846466064453,0.7187081575393677,0.0,-4.162809371948242,-1.4488648176193235,-2.1308560371398926,4.0390625,2,F1,6.1,0,270.0,5.049458199453024,[7700|3800|0],intermediate
14400,0.7719259858131409,0.7184068560600281,0.0,-4.765702247619629,-1.7714742422103882,-2.7863097190856934,4.04296875,2,F1,6.1,0,270.0,5.049844239857827,[7700|3900|0],intermediate
14500,0.7726423740386963,0.7174111008644104,0.0,0.4409984648227691,0.7447950839996338,-3.239553928375244,4.04296875,2,F1,6.1,0,270.0,5.0510709185033225,[7700|4000|0],intermediate
14600,0.7737932205200195,0.7194366455078125,0.0,-4.439334392547607,-2.030850887298584,-3.3183014392852783,4.04296875,2,F1,6.1,0,270.0,5.053400570564466,[7700|4100|0],intermediate
14700,0.7737361192703247,0.7188765406608582,0.0,-4.375110149383545,-1.821845769882202,-3.380379199981689,4.04296875,2,F1,6.1,0,270.0,5.053963578550465,[7700|4200|0],intermediate
14800,0.7739874720573425,0.7187610268592834,0.0,-4.247870922088623,-1.8215123414993288,-3.405601739883423,4.04296875,2,F1,6.1,0,270.0,5.054240204040787,[7700|4300|0],intermediate
14900,0.7739027738571167,0.7187526822090149,0.0,-4.134206771850586,-1.808421611785889,-3.39851450920105,4.046875,2,F1,6.1,0,270.0,5.054325312314824,[7700|4400|0],intermediate
15000,0.7744014263153076,0.7189375162124634,0.0,-4.047337532043457,-1.8084832429885864,-3.41570782661438,4.1171875,2,F1,6.1,0,270.0,5.054857118560454,[7700|4500|0],intermediate
15100,0.7736577391624451,0.7187721729278564,0.0,-3.9515881538391113,-1.7716894149780271,-3.416364908218384,4.1328125,2,F1,6.1,0,270.0,5.055618964334281,[7700|4600|0],intermediate
15200,0.774110734462738,0.7188231945037842,0.0,-3.8764827251434326,-1.7715684175491333,-3.4135258197784424,4.1328125,2,F1,6.1,0,270.0,5.056074823899605,[7700|4700|0],intermediate
15300,0.7741397619247437,0.7187016010284424,0.0,-3.810060739517212,-1.7676808834075928,-3.421472787857056,4.13671875,2,F1,6.1,0,270.0,5.056199834166368,[7700|4800|0],intermediate
15400,0.7741606831550598,0.7185840010643005,0.0,-3.756899356842041,-1.763860821723938,-3.3954086303710938,4.13671875,2,F1,6.1,0,270.0,5.05631928059555,[7700|4900|0],intermediate
15500,0.7738499045372009,0.7186475992202759,0.0,-3.7125325202941895,-1.7484921216964722,-3.405257225036621,4.13671875,2,F1,6.1,0,270.0,5.056636499880527,[7700|5000|0],intermediate
15600,0.7738276124000549,0.7182844281196594,0.0,-3.661607980728149,-1.7455978393554688,-3.425534009933472,4.14453125,2,F1,6.1,0,270.0,5.057000354504933,[7700|5100|0],intermediate
15700,0.7740382552146912,0.7184249758720398,0.0,-3.62908673286438,-1.754281997680664,-3.399550199508667,4.14453125,2,F1,6.1,0,270.0,5.057253581806102,[7700|5200|0],intermediate
15800,0.7739747166633606,0.7183200716972351,0.0,-3.5938096046447754,-1.7502259016036987,-3.405745506286621,4.14453125,2,F1,6.1,0,270.0,5.057376227773816,[7700|5300|0],intermediate
15900,0.7738996744155884,0.7186903953552246,0.0,-3.585685968399048,-1.7428123950958252,-3.410691261291504,4.14453125,2,F1,6.1,0,270.0,5.057754078208006,[7700|5400|0],intermediate
16000,0.7741950154304504,0.7185587882995605,0.0,-3.573235988616944,-1.7454254627227783,-3.4269285202026367,4.14453125,2,F1,6.1,0,270.0,5.058077415079025,[7700|5500|0],intermediate
16100,0.7742994427680969,0.7181748747825623,0.0,-3.5466561317443848,-1.7493993043899536,-3.444709062576294,4.1484375,2,F1,6.1,0,270.0,5.058475277690214,[7700|5600|0],intermediate
16200,0.7739995121955872,0.7187424302101135,0.0,-3.555660963058472,-1.7463072538375854,-3.407357692718506,4.1484375,2,F1,6.1,0,270.0,5.059117210328167,[7700|5700|0],intermediate
16300,0.7742881178855896,0.7182652950286865,0.0,-3.5355441570281982,-1.746362566947937,-3.422565698623657,4.1484375,2,F1,6.1,0,270.0,5.059674840336019,[7700|5800|0],intermediate
16400,0.7741385102272034,0.7185001969337463,0.0,-3.524832248687744,-1.7381929159164429,-3.417554378509521,4.1484375,2,F1,6.1,0,270.0,5.059953338731792,[7700|5900|0],intermediate
16500,0.7742562890052795,0.7180125713348389,0.0,-3.5031089782714844,-1.7398254871368408,-3.427685737609864,4.1484375,2,F1,6.1,0,270.0,5.060454986581658,[7700|6000|0],intermediate
16600,0.7743964195251465,0.7183489799499512,0.0,-3.504408359527588,-1.7380108833312988,-3.414866209030152,4.15234375,2,F1,6.1,0,270.0,5.060819413966634,[7700|6100|0],intermediate
16700,0.774080216884613,0.7180938124656677,0.0,-3.490608930587769,-1.724909782409668,-3.416938304901123,4.15234375,2,F1,6.1,0,270.0,5.061225732259252,[7700|6200|0],intermediate
16800,0.7738235592842102,0.7181781530380249,0.0,-3.54754376411438,-1.7563477754592896,-3.399494409561157,4.15234375,2,F1,6.1,0,270.0,5.061495892315496,[7700|6300|0],intermediate
16900,0.7740419507026672,0.7184253931045532,0.0,-3.548973560333252,-1.7501777410507202,-3.41297459602356,4.15234375,2,F1,6.1,0,270.0,5.06182577481299,[7700|6400|0],intermediate
17000,0.773884117603302,0.7184934616088867,0.0,-3.549194812774658,-1.745538353919983,-3.4124844074249268,4.15234375,2,F1,6.1,0,270.0,5.0619976602647805,[7700|6500|0],intermediate
17100,0.7740853428840637,0.7185565233230591,0.0,-3.543420553207397,-1.750923752784729,-3.417402029037476,4.15234375,2,F1,6.1,0,270.0,5.062208535567772,[7700|6600|0],intermediate
17200,0.7741141319274902,0.7183822393417358,0.0,-3.538177013397217,-1.749197244644165,-3.4340529441833496,4.16015625,2,F1,6.1,0,270.0,5.062385181301282,[7700|6700|0],intermediate
17300,0.774133026599884,0.7185226082801819,0.0,-3.5334768295288086,-1.74132239818573,-3.432330369949341,4.16015625,2,F1,6.1,0,270.0,5.062526816210557,[7700|6800|0],intermediate
17400,0.774211585521698,0.7184329032897949,0.0,-3.5291714668273926,-1.7450469732284546,-3.4176857471466064,4.16015625,2,F1,6.1,0,270.0,5.062646057518403,[7700|6900|0],intermediate
17500,0.7741286754608154,0.7181881070137024,0.0,-3.5133252143859863,-1.741138577461243,-3.401566743850708,4.16015625,2,F1,6.1,0,270.0,5.062904513114172,[7700|7000|0],intermediate
17600,0.7739521861076355,0.7179412245750427,0.0,-3.500205039978028,-1.7284590005874634,-3.387739896774292,4.16015625,2,F1,6.1,0,270.0,5.063207991993675,[7700|7100|0],intermediate
17700,0.7741941213607788,0.7182514667510986,0.0,-3.49629807472229,-1.7337713241577148,-3.3886876106262207,4.16015625,2,F1,6.1,0,270.0,5.063601416541101,[7700|7200|0],intermediate
17800,0.7743141055107117,0.7181357741355896,0.0,-3.4978530406951904,-1.7339216470718384,-3.3955318927764893,4.1640625,2,F1,6.1,0,270.0,5.063768092806714,[7700|7300|0],intermediate
17900,0.7741166949272156,0.718383252620697,0.0,-3.517460346221924,-1.7305313348770142,-3.4082372188568115,4.1640625,2,F1,6.1,0,270.0,5.064084662765913,[7700|7400|0],intermediate
18000,0.7740917801856995,0.7182896137237549,0.0,-3.5061404705047607,-1.72294819355011,-3.3930914402008057,4.1640625,2,F1,6.1,0,270.0,5.064181559553091,[7700|7500|0],intermediate
18100,0.7742841243743896,0.7182632684707642,0.0,-3.4999754428863525,-1.7199395895004272,-3.4099490642547607,4.1640625,2,F1,6.1,0,270.0,5.0643756996037705,[7700|7600|0],intermediate
18200,0.7743375301361084,0.7183827757835388,0.0,-3.5011913776397705,-1.7170881032943726,-3.377779483795166,4.1640625,2,F1,6.1,0,270.0,5.064506597171324,[7700|7700|0],intermediate
18300,0.7744268178939819,0.7183936238288879,0.0,-3.5021862983703613,-1.714236617088318,-3.3851654529571533,4.1640625,2,F1,6.1,0,270.0,5.0645965415085215,[7700|7800|0],intermediate
18400,0.7740551233291626,0.7185101509094238,0.0,-3.505645513534546,-1.7070366144180298,-3.388929843902588,4.1640625,2,F1,6.1,0,270.0,5.064986073805018,[7700|7900|0],intermediate
18500,0.7745773792266846,0.7181289196014404,0.0,-3.4987733364105225,-1.723145604133606,-3.402584314346313,4.171875,2,F1,6.1,0,270.0,5.065632671464064,[7700|8000|0],intermediate
18600,0.7738250494003296,0.718417763710022,0.0,-3.559617042541504,-1.73911452293396,-3.4047720432281494,4.171875,2,fly,6.1,0,270.0,5.066438544336598,[7700|8000|0],fly
18700,0.7747452855110168,0.7187224626541138,0.0,-3.631056547164917,-1.868558883666992,-3.434474229812622,3.056640625,2,fly,6.1,0,270.0,5.067407913175556,[7700|8000|0],fly
18800,0.7750890851020813,0.7215995788574219,0.0,-5.719775676727295,-0.9291841983795166,-2.167759418487549,3.484375,2,fly,6.1,0,270.0,5.070305497653385,[7700|8000|0],fly
18900,0.7747231125831604,0.7374542951583862,0.0131110530346632,-3.546948194503784,4.678446292877197,0.6355258822441101,3.515625,2,fly,6.1,0,270.0,5.090882321425445,[7700|8000|0],fly
19000,0.7706643342971802,0.7640883326530457,0.0664751529693603,0.3775524199008941,4.934406757354736,2.8282203674316406,3.546875,2,fly,6.1,0,270.0,5.150661689072502,[7700|8000|0],fly
19100,0.7622994184494019,0.7944158315658569,0.1331532150506973,3.8852767944335938,4.04752779006958,3.1846704483032227,3.568359375,2,fly,6.1,0,270.0,5.224388841264687,[7700|8000|0],fly
19200,0.7512636184692383,0.821966290473938,0.2098295241594314,5.876458168029785,1.50363290309906,3.08396577835083,3.59375,2,fly,6.1,0,270.0,5.306608504641437,[7700|8000|0],fly
19300,0.7413404583930969,0.8418188095092773,0.2912116646766662,8.849893569946289,-0.3489057719707489,2.198667526245117,3.58984375,2,fly,6.1,0,270.0,5.390962783804453,[7700|8000|0],fly
19400,0.7364029884338379,0.8522351980209351,0.3668566644191742,7.353198528289795,-1.3117462396621704,1.482717514038086,3.583984375,2,fly,6.1,0,270.0,5.467481054467534,[7700|8000|0],fly
19500,0.7334095239639282,0.8533282279968262,0.4523166120052337,5.827857971191406,-0.957269549369812,1.056315302848816,3.583984375,2,fly,6.1,0,270.0,5.55300039839318,[7700|8000|0],fly
19600,0.733508825302124,0.8477860689163208,0.5407975316047668,3.963857889175415,0.3679144978523254,1.1956634521484375,3.583984375,2,fly,6.1,0,270.0,5.6416547751673045,[7700|8000|0],fly
19700,0.7352544665336609,0.8373466730117798,0.6299207210540771,2.974134922027588,0.6387547850608826,1.699028730392456,3.583984375,2,fly,6.1,0,270.0,5.731404266239838,[7700|8000|0],fly
19800,0.7373570799827576,0.8243936896324158,0.7194011807441711,0.668300986289978,1.24865460395813,1.98733651638031,3.578125,2,fly,6.1,0,270.0,5.821841832704736,[7700|8000|0],fly
19900,0.7371062636375427,0.8119125366210938,0.8102775812149048,-0.4738264083862304,1.9772056341171265,1.6698412895202637,3.57421875,2,fly,6.1,0,270.0,5.913571665648268,[7700|8000|0],fly
20000,0.734089732170105,0.8022022843360901,0.9035159945487976,-1.60562002658844,1.421114206314087,1.0741113424301147,3.568359375,2,fly,6.1,0,270.0,6.007362870899903,[7700|8000|0],fly
20100,0.7279078960418701,0.7973892688751221,0.9992733001708984,-1.023079514503479,1.219475507736206,0.8236427307128906,3.568359375,2,fly,6.1,0,270.0,6.103440140822337,[7700|8000|0],fly
20200,0.7208550572395325,0.7965275049209595,1.095966935157776,-0.8688107132911682,0.6102933883666992,0.4161998927593231,3.615234375,2,fly,6.1,0,270.0,6.200394481721856,[7700|8000|0],fly
20300,0.7133907675743103,0.7984333634376526,1.1933372020721436,0.2721964716911316,-0.3547353744506836,-0.0357020199298858,3.658203125,2,fly,6.1,0,270.0,6.298069027002943,[7700|8000|0],fly
20400,0.7064447402954102,0.7999638319015503,1.2837018966674805,1.4585657119750977,-0.64952552318573,-0.7326822280883789,3.68359375,2,fly,6.1,0,270.0,6.388713208603235,[7700|8000|0],fly
20500,0.6996150612831116,0.8004605770111084,1.360947608947754,1.5682207345962524,-0.8974947929382324,-1.4644992351531982,3.6796875,2,fly,6.1,0,270.0,6.466261847126433,[7700|8000|0],fly
20600,0.693385124206543,0.799532413482666,1.4220107793807983,1.4968984127044678,-0.7870006561279297,-1.3356657028198242,3.658203125,2,fly,6.1,0,270.0,6.527649015059549,[7700|8000|0],fly
20700,0.6879220008850098,0.7954975962638855,1.4647300243377686,0.9535772800445556,-0.9014585614204408,-1.5683659315109253,3.630859375,2,fly,6.1,0,270.0,6.57090475867943,[7700|8000|0],fly
20800,0.6817820072174072,0.7905300259590149,1.4936021566390991,0.4281316697597503,-1.1563907861709597,-1.2599021196365356,3.62109375,2,fly,6.1,0,270.0,6.600837621900271,[7700|8000|0],fly
20900,0.6770511865615845,0.7849680781364441,1.5118284225463867,-0.3940423130989074,-0.7518897652626038,-0.3324972093105316,3.60546875,2,fly,6.1,0,270.0,6.620472099142655,[7700|8000|0],fly
21000,0.6718716621398926,0.7808404564857483,1.5240081548690796,-0.5719928741455078,-0.649305522441864,0.1840268820524215,3.59375,2,fly,6.1,0,270.0,6.634336103368659,[7700|8000|0],fly
21100,0.6669337153434753,0.7773889303207397,1.5291153192520142,-0.826339066028595,-1.1356215476989746,0.831028163433075,3.578125,2,fly,6.1,0,270.0,6.642234171453089,[7700|8000|0],fly
21200,0.6636624932289124,0.7771037817001343,1.5311812162399292,-0.3949787020683288,-1.1418235301971436,1.3720412254333496,3.568359375,2,fly,6.1,0,270.0,6.6461136217006525,[7700|8000|0],fly
21300,0.6618122458457947,0.7769899964332581,1.529665231704712,-0.3647172749042511,-1.2914118766784668,1.424052596092224,3.568359375,2,fly,6.1,0,270.0,6.648508318252767,[7700|8000|0],fly
21400,0.660897433757782,0.778327226638794,1.5262014865875244,-0.2947045564651489,-1.3809186220169067,1.3706445693969729,3.57421875,2,fly,6.1,0,270.0,6.652332268568319,[7700|8000|0],fly
21500,0.6622188687324524,0.78079754114151,1.522654414176941,0.2954009771347046,-0.95512455701828,1.2149765491485596,3.568359375,2,fly,6.1,0,270.0,6.656852264898022,[7700|8000|0],fly
21600,0.6646612286567688,0.783167839050293,1.5185648202896118,0.4186499118804931,-0.8228639960289001,1.1956405639648438,3.5625,2,fly,6.1,0,270.0,6.662172811142495,[7700|8000|0],fly
21700,0.6677168607711792,0.7858801484107971,1.5142178535461426,-2.603876829147339,0.5121538043022156,0.6833520531654358,3.5,2,fly,6.1,0,254.0,6.668138515589961,[7700|8000|0],fly
21800,0.6684951782226562,0.7947246432304382,1.51226806640625,-12.002543449401855,4.29675817489624,0.9918525815010072,3.53125,2,fly,6.1,0,254.0,6.677228759621934,[7700|8000|0],fly
21900,0.661242663860321,0.8239798545837402,1.515837788581848,-10.928814888000488,4.080316066741943,-2.900999069213867,3.552734375,2,fly,6.1,0,254.0,6.707580189115669,[7700|8000|0],fly
22000,0.6492635011672974,0.87155681848526,1.5223606824874878,-6.365483283996582,2.6814990043640137,-3.356476306915283,3.5625,2,fly,6.1,0,254.0,6.757073784436849,[7700|8000|0],fly
22100,0.638275682926178,0.926904320716858,1.528828740119934,-1.2905360460281372,0.5548461675643921,-2.081744432449341,3.5625,2,fly,6.1,0,254.0,6.813870913963906,[7700|8000|0],fly
22200,0.628656268119812,0.9849932789802552,1.535740852355957,2.3238015174865723,-1.4425668716430664,-5.868224143981934,3.568359375,2,fly,6.1,0,254.0,6.873155292251167,[7700|8000|0],fly
22300,0.6227149963378906,1.035358190536499,1.5399861335754397,4.7891950607299805,-1.4523305892944336,-4.540923595428467,3.568359375,2,fly,6.1,0,254.0,6.924046798802726,[7700|8000|0],fly
22400,0.6217494010925293,1.0791027545928955,1.542818546295166,5.958935260772705,-1.487495183944702,-3.874305486679077,3.5625,2,fly,6.1,0,254.0,6.9678935982352606,[7700|8000|0],fly
22500,0.6244489550590515,1.1151628494262695,1.543715000152588,6.091752529144287,-0.6602109670639038,-2.4812889099121094,3.55859375,2,fly,6.1,0,254.0,7.004065709875702,[7700|8000|0],fly
22600,0.630736768245697,1.1369353532791138,1.5432394742965698,6.045218467712402,0.5328538417816162,-1.1340099573135376,3.546875,2,fly,6.1,0,254.0,7.026732969161554,[7700|8000|0],fly
22700,0.6386457681655884,1.1503591537475586,1.543656826019287,5.024341583251953,1.434214472770691,-1.6887022256851196,3.541015625,2,fly,6.1,0,254.0,7.042319016807122,[7700|8000|0],fly
22800,0.6449874639511108,1.1558953523635864,1.5423521995544434,3.4595513343811035,1.8709163665771484,-1.8518571853637693,3.546875,2,fly,6.1,0,254.0,7.050837740347946,[7700|8000|0],fly
22900,0.6492272019386292,1.1561897993087769,1.5413851737976074,2.056034564971924,2.452779054641724,-1.8294094800949097,3.552734375,2,fly,6.1,0,254.0,7.055196319935464,[7700|8000|0],fly
23000,0.6504460573196411,1.1534935235977173,1.539094090461731,0.8795887231826782,2.654606342315674,-1.6417791843414309,3.546875,2,fly,6.1,0,254.0,7.058938588499022,[7700|8000|0],fly
23100,0.647661030292511,1.1507130861282349,1.534688115119934,-0.2418249398469925,2.1843454837799072,-1.7066330909729004,3.53125,2,fly,6.1,0,254.0,7.064846196033048,[7700|8000|0],fly
23200,0.6404515504837036,1.149099826812744,1.527375340461731,-0.718294084072113,1.6870927810668943,-2.2518064975738525,3.525390625,2,fly,6.1,0,254.0,7.075241188959177,[7700|8000|0],fly
23300,0.633595883846283,1.1488919258117676,1.5218491554260254,-0.8975144624710083,0.6753339767456055,-2.976381301879883,3.515625,2,fly,6.1,0,254.0,7.084049259628655,[7700|8000|0],fly
23400,0.6252402067184448,1.151118278503418,1.5158411264419556,-0.6726208329200745,-0.0685573890805244,-3.71434497833252,3.505859375,2,fly,6.1,0,254.0,7.094578760986541,[7700|8000|0],fly
23500,0.617974042892456,1.1541986465454102,1.5103991031646729,-0.0961328074336052,-0.6884867548942566,-4.312164783477783,3.505859375,2,fly,6.1,0,254.0,7.104165283889592,[7700|8000|0],fly
23600,0.6111689209938049,1.1582623720169067,1.5065696239471436,0.487280935049057,-0.8325673341751099,-4.476534843444824,3.525390625,2,fly,6.1,0,254.0,7.112968036859015,[7700|8000|0],fly
23700,0.6067755818367004,1.1606202125549316,1.5029743909835815,0.7922356128692627,-0.8088417053222656,-4.906689643859863,3.484375,2,fly,6.1,0,254.0,7.119115112669055,[7700|8000|0],fly
23800,0.6035065650939941,1.1627845764160156,1.4995908737182615,1.2808220386505127,-0.3738240301609039,-5.175084590911865,3.5625,2,fly,6.1,0,254.0,7.124293831668188,[7700|8000|0],fly
23900,0.6010687947273254,1.1627235412597656,1.4967254400253296,1.1670044660568235,-0.6080659627914429,-5.565292835235596,3.5625,2,fly,6.1,0,254.0,7.128056431819612,[7700|8000|0],fly
24000,0.5989170670509338,1.1621965169906616,1.4942543506622314,1.093028903007507,-0.5031912922859192,-5.86614465713501,3.546875,2,fly,6.1,0,254.0,7.13137516188004,[7700|8000|0],fly
24100,0.5967705845832825,1.1596503257751465,1.4916285276412964,0.718737781047821,-0.2708140909671783,-5.707902431488037,3.546875,2,fly,6.1,0,254.0,7.135616084330071,[7700|8000|0],fly
24200,0.5948879718780518,1.1574360132217407,1.4883701801300049,0.8595636487007141,0.1095528826117515,-5.329463481903076,3.541015625,2,fly,6.1,0,254.0,7.139982345795719,[7700|8000|0],fly
24300,0.5926335453987122,1.1534253358840942,1.485098958015442,0.9081681370735168,0.301047146320343,-4.785284519195557,3.541015625,2,fly,6.1,0,254.0,7.145627597391553,[7700|8000|0],fly
24400,0.5895723700523376,1.148629665374756,1.481827974319458,0.57022625207901,0.0811463519930839,-4.074539661407471,3.537109375,2,fly,6.1,0,254.0,7.152190263349438,[7700|8000|0],fly
24500,0.5871811509132385,1.1419366598129272,1.4781808853149414,-0.1414459198713302,-0.1637212634086609,-3.141530036926269,3.537109375,2,fly,6.1,0,254.0,7.160178724442085,[7700|8000|0],fly
24600,0.5847818851470947,1.1362929344177246,1.47319495677948,-0.1698231697082519,-0.1389837861061096,-2.3853790760040283,3.53125,2,fly,6.1,0,254.0,7.16808236891244,[7700|8000|0],fly
24700,0.5836536884307861,1.1312921047210691,1.4655914306640625,-0.8317170143127441,-0.5052884817123413,-1.766749620437622,3.853515625,2,fly,6.1,0,270.0,7.177252687057057,[7700|8000|0],fly
24800,0.5825787782669067,1.1270506381988523,1.4376499652862549,0.5239151120185852,-0.1347532570362091,-0.8405129909515381,3.763671875,2,fly,6.1,0,270.0,7.205534677043243,[7700|8000|0],fly
24900,0.5806431174278259,1.1230722665786743,1.3712793588638306,0.1447637230157852,0.0888448432087898,-0.0650051012635231,3.6484375,2,fly,6.1,0,270.0,7.272052581554078,[7700|8000|0],fly
25000,0.5779796838760376,1.119046926498413,1.2713724374771118,0.4222391545772552,-0.6708645820617676,0.6956485509872437,3.55859375,2,fly,6.1,0,270.0,7.37207602971509,[7700|8000|0],fly
25100,0.5754889845848083,1.113576889038086,1.1531659364700315,-0.965694010257721,-0.5971630215644836,1.7534664869308472,3.525390625,2,fly,6.1,0,270.0,7.490435236256506,[7700|8000|0],fly
25200,0.5752457976341248,1.1090394258499146,1.029274821281433,-1.5682977437973022,-0.3136986196041107,5.072033405303955,3.521484375,2,fly,6.1,0,270.0,7.614409653515679,[7700|8000|0],fly
25300,0.5768981575965881,1.1081477403640747,0.9074467420578004,-1.9163779020309448,0.1089301630854606,4.819329261779785,3.541015625,2,fly,6.1,0,270.0,7.736252200615495,[7700|8000|0],fly
25400,0.5786604285240173,1.1097548007965088,0.7881050109863281,-1.279383420944214,-0.3114461600780487,4.789265155792236,3.552734375,2,fly,6.1,0,270.0,7.855617761047267,[7700|8000|0],fly
25500,0.5798311233520508,1.113456130027771,0.6697176098823547,-0.4043726921081543,0.7966009974479675,4.762339115142822,3.546875,2,fly,6.1,0,270.0,7.974068793565399,[7700|8000|0],fly
25600,0.57647305727005,1.1205308437347412,0.5410067439079285,-0.5009010434150696,1.0921961069107056,4.722679615020752,3.53125,2,fly,6.1,0,270.0,8.103017679569636,[7700|8000|0],fly
25700,0.5729607343673706,1.1256556510925293,0.4237501919269562,-0.3512376248836517,0.6973162889480591,4.683884143829346,3.5,2,fly,6.1,0,270.0,8.220438712800883,[7700|8000|0],fly
25800,0.5694440007209778,1.1295454502105713,0.3181140124797821,0.1793303042650222,0.3934854567050934,4.671952724456787,3.431640625,2,fly,6.1,0,270.0,8.326204966213368,[7700|8000|0],fly
25900,0.5674903988838196,1.1317952871322632,0.2119158655405044,2.697512149810791,-2.3003294467926025,4.7218427658081055,3.3984375,2,fly,6.1,0,270.0,8.432444905688355,[7700|8000|0],fly
26000,0.5693337917327881,1.1293517351150513,0.1244126409292221,0.8234739303588867,-0.1041856110095977,4.863548278808594,3.41015625,2,fly,6.1,0,270.0,8.520001649352272,[7700|8000|0],fly
26100,0.5766034722328186,1.1229851245880127,0.0555267855525016,2.355710506439209,-1.7404835224151611,4.182661056518555,3.44140625,2,fly,6.1,0,270.0,8.589562004836973,[7700|8000|0],fly
26200,0.5843807458877563,1.1136581897735596,0.00958429928869,-0.2373301386833191,-1.1971937417984009,3.884832859039306,3.435546875,2,fly,6.1,0,270.0,8.637082418793897,[7700|8000|0],fly
26300,0.5944557785987854,1.103188157081604,0.0,-2.200005054473877,1.052081823348999,4.47596549987793,3.5,2,fly,6.1,0,270.0,8.654488930838362,[7700|8000|0],fly
26400,0.6005028486251831,1.0968501567840576,0.0,-3.077728271484375,4.350105285644531,3.763044595718384,3.537109375,2,fly,6.1,0,270.0,8.663248913924868,[7700|8000|0],fly
26500,0.6004689931869507,1.0950888395309448,0.0,-0.8688821792602539,1.0218175649642944,2.7119662761688232,3.525390625,2,fly,6.1,0,270.0,8.665010556526763,[7700|8000|0],fly
26600,0.5988747477531433,1.0939594507217407,0.0014023303519934,-2.0221197605133057,0.8041937947273254,2.973554372787476,3.505859375,2,fly,6.1,0,270.0,8.667415482305595,[7700|8000|0],fly
26700,0.5970239639282227,1.0945011377334597,0.0078403148800134,-0.9202004075050354,1.2064642906188965,4.552014827728272,3.48828125,2,fly,6.1,0,270.0,8.674136082752598,[7700|8000|0],fly
26800,0.5928990244865417,1.0977866649627686,0.0085694324225187,0.0784220770001411,-1.3678746223449707,6.073683261871338,3.45703125,2,fly,6.1,0,270.0,8.679459749436647,[7700|8000|0],fly
26900,0.5904353857040405,1.1012086868286133,0.0064170658588409,0.1886181682348251,-0.4585171937942505,7.209602355957031,3.509765625,2,fly,6.1,0,270.0,8.684193926400535,[7700|8000|0],fly
27000,0.5888487696647644,1.1023913621902466,0.005657538305968,0.3991398513317108,-0.8165961503982544,6.727651119232178,3.505859375,2,fly,6.1,0,270.0,8.686313585234092,[7700|8000|0],fly
27100,0.5887359380722046,1.1024549007415771,0.0054106153547763,-0.5266756415367126,-0.2873966097831726,5.881857872009277,3.505859375,2,fly,6.1,0,270.0,8.68659240248537,[7700|8000|0],fly
27200,0.5893214344978333,1.103174328804016,0.0063214958645403,0.4207958877086639,-0.9776952266693116,6.166632652282715,3.521484375,2,fly,6.1,0,270.0,8.68789243560207,[7700|8000|0],fly
27300,0.590560793876648,1.10371196269989,0.0060163396410644,-1.4596775770187378,0.6693477034568787,6.247405529022217,3.521484375,2,fly,6.1,0,270.0,8.689277420149484,[7700|8000|0],fly
27400,0.5908139944076538,1.10635244846344,0.0041966969147324,-1.2808047533035278,0.4956550598144531,6.277674198150635,3.515625,2,fly,6.1,0,270.0,8.692494153776613,[7700|8000|0],fly
27500,0.5890002250671387,1.1115472316741943,0.0026118126697838,-0.4665287435054779,0.4262771904468536,5.480335235595703,3.505859375,2,fly,6.1,0,270.0,8.698220181186363,[7700|8000|0],fly
27600,0.5865104794502258,1.1173175573349,0.003276469418779,-0.935917317867279,0.4009095728397369,4.75376033782959,3.509765625,2,fly,6.1,0,270.0,8.704539774532577,[7700|8000|0],fly
27700,0.5825604200363159,1.124289870262146,0.0051981047727167,0.8820376396179199,-0.2801969051361084,4.82900857925415,3.525390625,2,E2,6.1,0,270.0,8.712780454077516,[7700|8000|100],destination
27800,0.5781057476997375,1.1310218572616575,0.0076569970697164,1.1498777866363523,-0.1991173475980758,5.075775146484375,3.521484375,2,E2,6.1,0,270.0,8.721219050282816,[7700|8000|200],destination
27900,0.5739145874977112,1.1362606287002563,0.0094583770260214,1.3242921829223633,-1.099387526512146,5.009402751922607,3.515625,2,E2,6.1,0,270.0,8.728165669588053,[7700|8000|300],destination
28001,0.5707578063011169,1.13865065574646,0.0099147092550992,1.6457678079605105,-1.7139424085617063,4.474781036376953,3.505859375,2,E2,6.1,0,270.0,8.732151360984544,[7700|8000|400],destination
28101,0.5691306591033936,1.1388390064239502,0.0109730204567313,0.8271698355674744,-1.035957932472229,3.119112491607666,3.509765625,2,E2,6.1,0,270.0,8.734101516511744,[7700|8000|500],destination
28201,0.5697709321975708,1.137157678604126,0.011100934818387,0.8193655610084534,-0.9711979031562804,1.577692985534668,3.509765625,2,E2,6.1,0,270.0,8.73590517250909,[7700|8000|600],destination
28301,0.5709795355796814,1.1347273588180542,0.0116443885490298,-0.0274386126548051,0.0734265074133873,1.049045205116272,3.505859375,2,E2,6.1,0,270.0,8.738673297931678,[7700|8000|700],destination
28401,0.5730010271072388,1.1317124366760254,0.0130397528409957,-0.1043808013200759,-0.4136452078819275,1.0972639322280884,3.521484375,2,E2,6.1,0,270.0,8.74256215702218,[7700|8000|800],destination
28501,0.576635479927063,1.1308088302612305,0.0140150114893913,-0.1047646477818489,-0.5294062495231628,1.099660873413086,3.505859375,2,E2,6.1,0,270.0,8.746432154604047,[7700|8000|900],destination
28601,0.5807795524597168,1.1295086145401,0.0130943832919001,-0.4764241874217987,-0.1824643313884735,0.7248651385307312,3.48828125,2,E2,6.1,0,270.0,8.750871912970826,[7700|8000|1000],destination
28701,0.5864247679710388,1.128512978553772,0.0124688576906919,-0.0465837568044662,-0.2758137285709381,0.191262274980545,3.505859375,2,E2,6.1,0,270.0,8.756638283706767,[7700|8000|1100],destination
28801,0.5928811430931091,1.126387119293213,0.0147734656929969,-0.0458055436611175,0.0596054643392562,0.3088885545730591,3.5,2,E2,6.1,0,270.0,8.763815697959608,[7700|8000|1200],destination
28902,0.600487232208252,1.1247597932815552,0.0178799945861101,0.3570227324962616,-0.0179201811552047,0.9929062724113464,3.505859375,2,E2,6.1,0,270.0,8.772191335448149,[7700|8000|1300],destination
29001,0.6076511144638062,1.123740553855896,0.0192797891795635,-1.7461788654327393,0.5509414672851562,1.4965492486953735,3.484375,2,E2,6.1,0,270.0,8.779561510675517,[7700|8000|1400],destination
29102,0.6152990460395813,1.1252657175064087,0.0189422033727169,-0.0579662509262561,-0.4378302693367004,2.222995519638061,3.505859375,2,E2,6.1,0,270.0,8.78736733835268,[7700|8000|1500],destination
29202,0.6241737008094788,1.1278587579727173,0.0185221415013074,0.1965701580047607,-0.1242033168673515,2.0996251106262207,3.494140625,2,E2,6.1,0,270.0,8.796622596756453,[7700|8000|1600],destination
29302,0.6348282098770142,1.1306531429290771,0.0184204019606113,-0.4237987995147705,-0.2677938938140869,1.5704965591430664,3.505859375,2,E2,6.1,0,270.0,8.807637927059657,[7700|8000|1700],destination
29400,0.646122932434082,1.1340746879577637,0.019274840131402,0.1037276312708854,0.0549053512513637,2.210043430328369,3.5,2,E2,6.1,0,270.0,8.819470415919241,[7700|8000|1800],destination
29502,0.6579660773277283,1.138869285583496,0.0200458616018295,-1.1464028358459473,0.5273004174232483,2.871903657913208,3.505859375,2,E2,6.1,0,270.0,8.832270522226317,[7700|8000|1900],destination
29602,0.6691896319389343,1.146386981010437,0.0193054992705583,-1.048053503036499,-0.0645623430609703,3.420116662979126,3.96875,2,E2,6.1,0,270.0,8.845799456368537,[7700|8000|2000],destination
29702,0.680898129940033,1.1540499925613403,0.0,8.535829544067383,-4.820911884307861,4.728578567504883,3.974609375,2,E2,6.1,0,270.0,8.86964296646157,[7700|8000|2100],destination
29800,0.6917946934700012,1.160271167755127,0.0,4.628783226013184,0.6661053895950317,4.876269340515137,3.98046875,2,E2,6.1,0,270.0,8.882190401161715,[7700|8000|2200],destination
29900,0.6989432573318481,1.159899353981018,0.0,-0.4141540825366974,-0.7423397898674011,-0.8015400767326355,3.984375,2,E2,6.1,0,270.0,8.889348627951188,[7700|8000|2300],destination
30000,0.6986979246139526,1.1605983972549438,0.0,-0.2015267610549926,-0.5071995258331299,-0.7995625734329224,3.984375,2,E2,6.1,0,270.0,8.89008947182225,[7700|8000|2400],destination
30100,0.6987380385398865,1.1604210138320925,0.0,-0.0822984352707862,-0.3940863013267517,-0.8384107351303101,3.984375,2,E2,6.1,0,270.0,8.890271334423563,[7700|8000|2500],destination
30200,0.7004204392433167,1.1604647636413574,0.0,0.0502775758504867,-0.2913582324981689,-0.7959148287773132,3.990234375,2,E2,6.1,0,270.0,8.891954303874478,[7700|8000|2600],destination
30300,0.6991863250732422,1.1599422693252563,0.0,0.1467177718877792,-0.121352419257164,-0.7264395952224731,3.990234375,2,E2,6.1,0,270.0,8.893294467332842,[7700|8000|2700],destination
30400,0.6996288299560547,1.1609245538711548,0.0,0.2299622893333435,-0.0398879274725914,-0.61814945936203,3.99609375,2,E2,6.1,0,270.0,8.894371822195653,[7700|8000|2800],destination
30500,0.6991848349571228,1.159989595413208,0.0,0.3504802584648132,0.0501014478504657,-0.6455212831497192,3.99609375,2,E2,6.1,0,270.0,8.89540684822294,[7700|8000|2900],destination
30600,0.6999502182006836,1.1606446504592896,0.0,0.43495574593544,0.0680036842823028,-0.6323543787002563,3.99609375,2,E2,6.1,0,270.0,8.896414274956216,[7700|8000|3000],destination
30700,0.7011110186576843,1.1598639488220217,0.0,0.5413021445274353,0.0806578621268272,-0.6740235090255737,4.0,2,E2,6.1,0,270.0,8.897813186228387,[7700|8000|3100],destination
30800,0.6978386044502258,1.159626841545105,0.0,0.6314567923545837,0.2236131429672241,-0.8061081171035767,4.0,2,E2,6.1,0,270.0,8.90109417915827,[7700|8000|3200],destination
30900,0.6986547112464905,1.159903049468994,0.0,0.6629104614257812,0.2103864997625351,-1.0425971746444702,4.0,2,E2,6.1,0,270.0,8.901955759752369,[7700|8000|3300],destination
31000,0.6986744403839111,1.159943461418152,0.0,0.7012045383453369,0.2486061453819275,-1.1158781051635742,4.0078125,2,E2,6.1,0,270.0,8.90200073045948,[7700|8000|3400],destination
31100,0.6992207169532776,1.1594239473342896,0.0,0.7423749566078186,0.2631019651889801,-1.0816402435302734,4.0078125,2,E2,6.1,0,270.0,8.902754595814548,[7700|8000|3500],destination
31200,0.6991525292396545,1.1596263647079468,0.0,0.7645094394683838,0.3038208484649658,-1.0684581995010376,4.0078125,2,E2,6.1,0,270.0,8.902968189722344,[7700|8000|3600],destination
31300,0.6989343762397766,1.1595847606658936,0.0,0.7854074239730835,0.3407045304775238,-1.066048502922058,4.0078125,2,E2,6.1,0,270.0,8.90319027445318,[7700|8000|3700],destination
31400,0.6983351111412048,1.1596581935882568,0.0,0.8021352887153625,0.3677262961864471,-1.046233892440796,4.01171875,2,E2,6.1,0,270.0,8.903794021960383,[7700|8000|3800],destination
31500,0.6986389756202698,1.159794569015503,0.0,0.8105794191360474,0.3753981590270996,-0.8349827527999878,4.01171875,2,E2,6.1,0,270.0,8.904127086336734,[7700|8000|3900],destination
31600,0.6982325315475464,1.1594282388687134,0.0,0.8207013010978699,0.4053531885147095,-0.6814718246459961,4.01171875,2,E2,6.1,0,270.0,8.904674255927171,[7700|8000|4000],destination
31700,0.6980721354484558,1.1594494581222534,0.0,0.8145222663879395,0.4048419594764709,-0.5723872780799866,4.01171875,2,E2,6.1,0,270.0,8.904836049515808,[7700|8000|4100],destination
31800,0.6977598071098328,1.1592518091201782,0.0,0.8174183964729309,0.4226747155189514,-0.7148151397705078,4.015625,2,E2,6.1,0,270.0,8.90520566298841,[7700|8000|4200],destination
31900,0.6981664299964905,1.1594182252883911,0.0,0.8188216686248779,0.4151459038257599,-0.8458371162414551,4.015625,2,E2,6.1,0,270.0,8.90564502219566,[7700|8000|4300],destination
32000,0.6978636980056763,1.159276247024536,0.0,0.8278335928916931,0.4355033934116363,-0.8999965786933899,4.015625,2,E2,6.1,0,270.0,8.905979393973281,[7700|8000|4400],destination
32100,0.6980713605880737,1.159409523010254,0.0,0.8298937678337097,0.4309920370578766,-0.9591779112815856,4.015625,2,E2,6.1,0,270.0,8.906226145339026,[7700|8000|4500],destination
32200,0.6981827616691589,1.1592828035354614,0.0,0.8435876965522766,0.4361069798469543,-0.9952604174613952,4.015625,2,E2,6.1,0,270.0,8.906394870044267,[7700|8000|4600],destination
32300,0.6982707381248474,1.159295916557312,0.0,0.8473330736160278,0.4389096796512604,-1.0191786289215088,4.0234375,2,E2,6.1,0,270.0,8.906483818389376,[7700|8000|4700],destination
32400,0.6979103088378906,1.159274697303772,0.0,0.8468275666236877,0.4536445438861847,-1.0280824899673462,4.0234375,2,E2,6.1,0,270.0,8.906844871747783,[7700|8000|4800],destination
32500,0.697827160358429,1.1591815948486328,0.0,0.8509132266044617,0.46320840716362,-1.0330888032913208,4.0234375,2,E2,6.1,0,270.0,8.906969698574986,[7700|8000|4900],destination
32600,0.6979172229766846,1.159203290939331,0.0,0.8514642119407654,0.4634034037590027,-1.1042648553848269,4.0234375,2,E2,6.1,0,270.0,8.90706233763564,[7700|8000|5000],destination
32700,0.6978491544723511,1.1590369939804075,0.0,0.8602643609046936,0.4674258232116699,-1.1225883960723877,4.0234375,2,E2,6.1,0,270.0,8.907242026254726,[7700|8000|5100],destination
32800,0.6977238059043884,1.1591776609420776,0.0,0.8622869253158569,0.4672552943229675,-1.1568070650100708,4.0234375,2,E2,6.1,0,270.0,8.907430439252144,[7700|8000|5200],destination
