time.ms,stateEstimate.x,stateEstimate.y,stateEstimate.z,stabilizer.roll,stabilizer.pitch,stabilizer.yaw,pm.vbat,drone_id,node_name,wind_speed,global_wind_direction,relative_wind_direction,travel_dist,waiting_time,curr_node_role
0,1.6763904094696045,1.1279584169387815,0.0,-0.4222861528396606,0.9738787412643432,4.090594291687012,4.1484375,0,A1,7.6,0,270.0,0.0,[6200|0|0],start
100,1.6764386892318726,1.1270838975906372,0.0,-0.4030879735946655,0.9773423075675964,4.095656871795654,4.1484375,0,A1,7.6,0,270.0,0.0008758510294127,[6300|0|0],start
200,1.6763465404510498,1.1277923583984375,0.0,-0.4275560677051544,0.9782790541648864,4.074085235595703,4.1484375,0,A1,7.6,0,270.0,0.0015902795520769,[6400|0|0],start
300,1.6762876510620115,1.1273115873336792,0.0,-0.4147136211395263,0.9779922366142272,4.077913761138916,4.1484375,0,A1,7.6,0,270.0,0.0020746438538686,[6500|0|0],start
400,1.6764646768569946,1.1273075342178345,0.0,-0.4164298474788666,0.9693849086761476,4.087631702423096,4.1484375,0,A1,7.6,0,270.0,0.0022517160420786,[6600|0|0],start
500,1.676777958869934,1.1277049779891968,0.0,-0.4305760264396667,0.9651954174041748,4.091289520263672,4.1484375,0,A1,7.6,0,270.0,0.0027577863642929,[6700|0|0],start
600,1.676922082901001,1.1275126934051514,0.0,-0.4259203672409057,0.9728280305862428,4.078038215637207,4.1484375,0,A1,7.6,0,270.0,0.0029980884608141,[6800|0|0],start
700,1.676297903060913,1.127395510673523,0.0,-0.4196628928184509,0.9885989427566528,4.091490745544434,4.1484375,0,A1,7.6,0,270.0,0.0036331729161143,[6900|0|0],start
800,1.6765607595443726,1.127169847488403,0.0,-0.4165362119674682,0.9813339114189148,4.077847957611084,4.1484375,0,A1,7.6,0,270.0,0.0039796081972494,[7000|0|0],start
900,1.6763900518417358,1.127218246459961,0.0,-0.4204366207122803,0.9933900237083436,4.081539630889893,4.1484375,0,A1,7.6,0,270.0,0.004157044327131,[7100|0|0],start
1000,1.676566481590271,1.1275417804718018,0.0,-0.4266522228717804,0.9885188341140748,4.081619739532471,4.1484375,0,A1,7.6,0,270.0,0.0045255571667797,[7200|0|0],start
1100,1.6766963005065918,1.1276757717132568,0.0,-0.4288982450962066,0.9893753528594972,4.086036205291748,4.1484375,0,A1,7.6,0,270.0,0.0047121224471011,[7300|0|0],start
1200,1.676602482795715,1.1276496648788452,0.0,-0.4238788485527038,0.9866933226585388,4.078685283660889,4.1484375,0,A1,7.6,0,270.0,0.0048095048360487,[7400|0|0],start
1300,1.676400899887085,1.1274917125701904,0.0,-0.4135833084583282,0.9986152052879332,4.062837600708008,4.1484375,0,A1,7.6,0,270.0,0.0050655997420136,[7500|0|0],start
1400,1.6767187118530271,1.1276155710220337,0.0,-0.421026349067688,0.9866978526115416,4.066859245300293,4.1484375,0,A1,7.6,0,270.0,0.0054066941010831,[7600|0|0],start
1500,1.6762797832489014,1.127315878868103,0.0,-0.4137550294399261,0.9940229058265686,4.086488723754883,4.1484375,0,A1,7.6,0,270.0,0.0059381766564387,[7700|0|0],start
1600,1.676498532295227,1.127303123474121,0.0,-0.4151436388492584,0.992404043674469,4.077580451965332,4.1484375,0,A1,7.6,0,270.0,0.0061572972746928,[7800|0|0],start
1700,1.6766798496246338,1.127597093582153,0.0,-0.4265497028827667,0.9921448826789856,4.064436912536621,4.1484375,0,A1,7.6,0,270.0,0.0065026874864237,[7900|0|0],start
1800,1.6767297983169556,1.12721848487854,0.0,-0.4094323217868805,0.9932156205177308,4.056793212890625,4.1484375,0,A1,7.6,0,270.0,0.0068845767666034,[8000|0|0],start
1900,1.6765209436416626,1.1272064447402954,0.0,-0.4118383228778839,0.9987828731536864,4.06242036819458,4.1484375,0,A1,7.6,0,270.0,0.0070937782013994,[8100|0|0],start
2000,1.6766630411148071,1.1276862621307373,0.0,-0.4172256588935852,0.9903680086135864,4.053908348083496,4.1484375,0,A1,7.6,0,270.0,0.0075941944481825,[8200|0|0],start
2100,1.6764740943908691,1.1275246143341064,0.0,-0.4234855771064758,0.9884520173072816,4.027133941650391,4.1484375,0,A1,7.6,0,270.0,0.0078428525963348,[8300|0|0],start
2200,1.6763044595718384,1.1273934841156006,0.0,-0.4148364663124084,0.991969108581543,4.059328079223633,4.1484375,0,A1,7.6,0,270.0,0.0080572613322412,[8400|0|0],start
2300,1.6765660047531128,1.1277347803115845,0.0,-0.4204637110233307,0.986438810825348,4.0671467781066895,4.1484375,0,A1,7.6,0,270.0,0.0084872485125628,[8500|0|0],start
2400,1.676385521888733,1.1273555755615234,0.0,-0.414018303155899,0.9977390170097352,4.059086322784424,4.1484375,0,A1,7.6,0,270.0,0.0089072131620318,[8600|0|0],start
2500,1.6766486167907717,1.1272118091583252,0.0,-0.4039252400398254,0.9922712445259094,4.0426764488220215,4.1484375,0,A1,7.6,0,270.0,0.0092070259472285,[8700|0|0],start
2600,1.676663875579834,1.12739896774292,0.0,-0.4106587171554565,0.997919499874115,4.036697864532471,4.1484375,0,A1,7.6,0,270.0,0.0093948055159551,[8800|0|0],start
2700,1.6764320135116575,1.127480149269104,0.0,-0.4032471776008606,1.0065069198608398,4.068742752075195,4.1484375,0,A1,7.6,0,270.0,0.0096404688197932,[8900|0|0],start
2800,1.6766579151153564,1.1276663541793823,0.0,-0.403108149766922,0.99684077501297,4.062501430511475,4.1484375,0,A1,7.6,0,270.0,0.0099332209387702,[9000|0|0],start
2900,1.6765323877334597,1.1278165578842163,0.0,-0.4084764719009399,1.000777006149292,4.06447696685791,4.1484375,0,A1,7.6,0,270.0,0.0101289714855171,[9100|0|0],start
3000,1.6766061782836914,1.1276423931121826,0.0,-0.4012719094753265,0.999107301235199,4.059481620788574,4.1484375,0,A1,7.6,0,270.0,0.0103181233110992,[9200|0|0],start
3100,1.6766401529312134,1.1275628805160522,0.0,-0.4024636149406433,0.9987281560897828,4.058118343353272,4.1484375,0,A1,7.6,0,270.0,0.0104045902389828,[9300|0|0],start
3200,1.6765050888061523,1.127426266670227,0.0,-0.3951598107814789,0.9986910820007324,4.058063983917236,4.1484375,0,A1,7.6,0,270.0,0.0105966986998836,[9400|0|0],start
3300,1.6765598058700562,1.1275396347045898,0.0,-0.398963987827301,0.997716188430786,4.034915447235107,4.1484375,0,A1,7.6,0,270.0,0.0107225806616475,[9500|0|0],start
3400,1.6765177249908447,1.1274919509887695,0.0,-0.3965286016464233,0.989879071712494,4.049117088317871,4.1484375,0,A1,7.6,0,270.0,0.0107861773372653,[9600|0|0],start
3500,1.6763591766357422,1.1275957822799685,0.0,-0.3960504531860351,0.9960691928863524,4.075259685516357,4.1484375,0,A1,7.6,0,270.0,0.010975699151149,[9700|0|0],start
3600,1.6766005754470823,1.127426266670227,0.0,-0.3954741656780243,0.9880625605583192,4.076682090759277,4.1484375,0,A1,7.6,0,270.0,0.011270671909319,[9800|0|0],start
3700,1.6766343116760254,1.1276222467422483,0.0,-0.4136651456356048,0.9853363633155824,4.064949035644531,4.1484375,0,A1,7.6,0,270.0,0.0114695344793838,[9900|0|0],start
3800,1.6766440868377686,1.127518892288208,0.0,-0.4086937606334686,0.9936349391937256,4.061944961547852,4.1484375,0,A1,7.6,0,270.0,0.0115733501668162,[10000|0|0],start
3900,1.676397442817688,1.127367615699768,0.0,-0.4040120840072632,0.9988701939582824,4.073448657989502,4.1484375,0,A1,7.6,0,270.0,0.0118626905871718,[10100|0|0],start
4000,1.67661714553833,1.127553105354309,0.0,-0.4007853865623474,0.997191846370697,4.070286273956299,4.1484375,0,A1,7.6,0,270.0,0.0121502244067466,[10200|0|0],start
4100,1.6767290830612185,1.127712965011597,0.0,-0.4083170592784881,1.000030517578125,4.052748203277588,4.1484375,0,A1,7.6,0,270.0,0.0123453784972971,[10300|0|0],start
4200,1.676642656326294,1.127498984336853,0.0,-0.4070995450019836,1.0050257444381714,4.030293941497803,4.1484375,0,A1,7.6,0,270.0,0.0125761539502238,[10400|0|0],start
4300,1.676740050315857,1.127607822418213,0.0,-0.4049862623214721,0.998296856880188,4.033443927764893,4.1484375,0,A1,7.6,0,270.0,0.0127222063968213,[10500|0|0],start
4400,1.6765111684799194,1.1274267435073853,0.0,-0.4003187119960785,1.002955436706543,4.043250560760498,4.1484375,0,A1,7.6,0,270.0,0.0130140564726627,[10600|0|0],start
4500,1.6764143705368042,1.1275638341903689,0.0,-0.406020313501358,0.9944260716438292,4.049434661865234,4.1484375,0,A1,7.6,0,270.0,0.0131818769039345,[10700|0|0],start
4600,1.6764158010482788,1.1277832984924316,0.0,-0.4102762937545776,0.9886753559112548,4.067280292510986,4.1484375,0,A1,7.6,0,270.0,0.0134013458681253,[10800|0|0],start
4700,1.6764235496520996,1.1275173425674438,0.0,-0.4037783741950989,0.9890975952148438,4.06534481048584,4.1484375,0,A1,7.6,0,270.0,0.0136674146466343,[10900|0|0],start
4800,1.6766856908798218,1.1276899576187134,0.0,-0.4026579558849334,0.9876510500907898,4.067513942718506,4.1484375,0,A1,7.6,0,270.0,0.0139812840130855,[11000|0|0],start
4900,1.676415205001831,1.127814531326294,0.0,-0.4028781354427337,0.9935736060142516,4.089123249053955,4.1484375,0,A1,7.6,0,270.0,0.0142790779331255,[11100|0|0],start
5000,1.6764665842056274,1.127397537231445,0.0,-0.3898281753063202,0.990900218486786,4.108406066894531,4.1484375,0,A1,7.6,0,270.0,0.0146992254045228,[11200|0|0],start
5100,1.6765841245651243,1.127505660057068,0.0,-0.3892189860343933,0.9975352883338928,4.073334693908691,4.1484375,0,A1,7.6,0,270.0,0.014858932265776,[11300|0|0],start
5200,1.67682683467865,1.1275488138198853,0.0,-0.3964037895202636,0.9892608523368835,4.0521745681762695,4.1484375,0,A1,7.6,0,270.0,0.0151054488908805,[11400|0|0],start
5300,1.6765518188476562,1.1274813413619995,0.0,-0.4012350440025329,0.9934630393981934,4.045669078826904,4.1484375,0,A1,7.6,0,270.0,0.0153886206406548,[11500|0|0],start
5400,1.676495909690857,1.1275628805160522,0.0,-0.4027963280677795,0.99355947971344,4.066135406494141,4.1484375,0,A1,7.6,0,270.0,0.0154874865471021,[11600|0|0],start
5500,1.676203727722168,1.1273051500320437,0.0,-0.3906038105487823,0.9958241581916808,4.065919399261475,4.1484375,0,A1,7.6,0,270.0,0.0158770957169304,[11700|0|0],start
5600,1.676231861114502,1.1274358034133911,0.0,-0.3974097669124603,0.9918606877326964,4.103719234466553,4.1484375,0,A1,7.6,0,270.0,0.0160107437390696,[11800|0|0],start
5700,1.6765438318252563,1.1274038553237915,0.0,-0.4017468392848968,0.9793360829353333,4.086828231811523,4.1484375,0,A1,7.6,0,270.0,0.0163243460426289,[11900|0|0],start
5800,1.6763575077056885,1.1272238492965698,0.0,-0.3960739076137543,0.9832243323326112,4.084005355834961,4.1484375,0,A1,7.6,0,270.0,0.0165834190967446,[12000|0|0],start
5900,1.6767736673355105,1.127550721168518,0.0,-0.4080212712287903,0.9728779196739196,4.092403888702393,4.1484375,0,A1,7.6,0,270.0,0.0171126015399195,[12100|0|0],start
6000,1.6761951446533203,1.1273033618927002,0.0,-0.406107634305954,0.9851778745651244,4.075785636901856,4.1484375,0,A1,7.6,0,270.0,0.0177417876055167,[12200|0|0],start
6100,1.676635980606079,1.1275421380996704,0.0,-0.4135381579399109,0.9678214192390442,4.081311225891113,4.1484375,0,A1,7.6,0,270.0,0.0182431362010666,[12300|0|0],start
6200,1.676846265792847,1.1275004148483276,0.0,-0.4093912541866302,0.962271809577942,4.071511268615723,4.1484375,0,A1,7.6,0,270.0,0.0184575206442442,[12400|0|0],start
6300,1.6766642332077026,1.1274358034133911,0.0,-0.4121114015579223,0.969485640525818,4.05478048324585,4.1484375,0,A1,7.6,0,270.0,0.0186506799038691,[12500|0|0],start
6400,1.6765012741088867,1.1274172067642212,0.0,-0.4176927506923675,0.9692683815956116,4.025467395782471,4.1484375,0,A1,7.6,0,270.0,0.0188146966812038,[12600|0|0],start
6500,1.6766904592514038,1.1275275945663452,0.0,-0.4175384938716888,0.9683865308761596,4.049102783203125,4.1484375,0,A1,7.6,0,270.0,0.0190337320322478,[12700|0|0],start
6600,1.6764596700668335,1.1275079250335691,0.0,-0.4140998423099518,0.9744348526000975,4.065036773681641,4.1484375,0,A1,7.6,0,270.0,0.0192653578905501,[12800|0|0],start
6700,1.6765834093093872,1.127213716506958,0.0,-0.4098673462867737,0.9722331762313844,4.074559211730957,4.1484375,0,A1,7.6,0,270.0,0.0195845287809496,[12900|0|0],start
6800,1.6765121221542358,1.1272403001785278,0.0,-0.4075545072555542,0.978127121925354,4.09919548034668,4.1484375,0,A1,7.6,0,270.0,0.0196606113024885,[13000|0|0],start
6900,1.6765108108520508,1.1274170875549316,0.0,-0.4096931517124176,0.9882466793060304,4.095315456390381,4.1484375,0,A1,7.6,0,270.0,0.01983740354205,[13100|0|0],start
7000,1.6764057874679563,1.127268671989441,0.0,-0.4088704884052276,0.9932384490966796,4.087345600128174,4.1484375,0,A1,7.6,0,270.0,0.0200192196339851,[13200|0|0],start
7100,1.6765236854553225,1.1273702383041382,0.0,-0.4126774072647095,0.9883481860160828,4.089212417602539,4.1484375,0,A1,7.6,0,270.0,0.0201748334242037,[13300|0|0],start
7200,1.676560878753662,1.1278319358825684,0.0,-0.4235291182994842,0.9862552285194396,4.086397171020508,4.1484375,0,A1,7.6,0,270.0,0.0206380266834051,[13400|0|0],start
7300,1.6763620376586914,1.127678394317627,0.0,-0.4190247654914856,0.9921178221702576,4.086061000823975,4.1484375,0,A1,7.6,0,270.0,0.0208892492803462,[13500|0|0],start
7400,1.676593780517578,1.1273252964019775,0.0,-0.4134432375431061,0.9918539524078368,4.06935453414917,4.1484375,0,A1,7.6,0,270.0,0.0213116032677558,[13600|0|0],start
7500,1.6763805150985718,1.127352952957153,0.0,-0.4166962802410126,0.9992511868476868,4.073470115661621,4.1484375,0,A1,7.6,0,270.0,0.0215266544802333,[13700|0|0],start
7600,1.6768288612365725,1.1275427341461182,0.0,-0.4231479167938232,0.9822270274162292,4.076163768768311,4.1484375,0,A1,7.6,0,270.0,0.0220135129392798,[13800|0|0],start
7700,1.676216721534729,1.1272687911987305,0.0,-0.4149954319000244,0.9993494749069214,4.063937187194824,4.1484375,0,A1,7.6,0,270.0,0.0226841542390791,[13900|0|0],start
7800,1.6767159700393677,1.1275030374526978,0.0,-0.4218716621398926,0.9772768616676332,4.0770134925842285,4.1484375,0,A1,7.6,0,270.0,0.0232356253415692,[14000|0|0],start
7900,1.6762815713882446,1.1275429725646973,0.0,-0.4209330677986145,0.9811736941337584,4.074730396270752,4.1484375,0,A1,7.6,0,270.0,0.0236718557867103,[14100|0|0],start
8000,1.6764883995056152,1.127592921257019,0.0,-0.4216647744178772,0.976189374923706,4.08100175857544,4.1484375,0,A1,7.6,0,270.0,0.0238846297089839,[14200|0|0],start
8100,1.6766003370285034,1.1273136138916016,0.0,-0.421448290348053,0.9721817374229432,4.070531845092773,4.1484375,0,A1,7.6,0,270.0,0.024185532705657,[14300|0|0],start
8200,1.6768019199371338,1.1273319721221924,0.0,-0.4262607097625732,0.9753531217575072,4.058270454406738,4.1484375,0,A1,7.6,0,270.0,0.0243879498335941,[14400|0|0],start
8300,1.6763743162155151,1.1275187730789185,0.0,-0.4245127737522125,0.9860081672668456,4.063482284545898,4.1484375,0,A1,7.6,0,270.0,0.0248545755296031,[14500|0|0],start
8400,1.6767405271530151,1.1274510622024536,0.0,-0.4203144907951355,0.9757418036460876,4.0651631355285645,4.1484375,0,A1,7.6,0,270.0,0.0252269935924522,[14600|0|0],start
8500,1.676296353340149,1.1273051500320437,0.0,-0.4167656004428863,0.9920106530189514,4.063625335693359,4.1484375,0,A1,7.6,0,270.0,0.0256945197815687,[14700|0|0],start
8600,1.6766468286514282,1.1277005672454834,0.0,-0.4270417392253876,0.9881776571273804,4.075608730316162,4.1484375,0,A1,7.6,0,270.0,0.0262229019505532,[14800|0|0],start
8700,1.6765928268432615,1.1274853944778442,0.0,-0.422456830739975,0.9911471605300904,4.060125350952148,4.1484375,0,A1,7.6,0,270.0,0.0264447476519287,[14900|0|0],start
8800,1.6762199401855469,1.1266974210739136,0.0,-0.4082871377468109,1.0001047849655151,4.0433430671691895,4.1484375,0,A1,7.6,0,270.0,0.0273164967814399,[15000|0|0],start
8900,1.6762725114822388,1.126874327659607,0.0,-0.413266122341156,0.9941136837005616,4.034463405609131,4.1484375,0,A1,7.6,0,270.0,0.0275010494332701,[15100|0|0],start
9000,1.6761267185211182,1.1271727085113523,0.0,-0.4215775430202484,0.9974375367164612,4.057204723358154,4.1484375,0,A1,7.6,0,270.0,0.0278331438779701,[15200|0|0],start
9100,1.6764247417449951,1.127249002456665,0.0,-0.4193338453769684,0.9909011721611024,4.051928997039795,4.1484375,0,A1,7.6,0,270.0,0.0281407777643699,[15300|0|0],start
9200,1.676766872406006,1.1273226737976074,0.0,-0.4235720634460449,0.9761279225349426,4.029531002044678,4.1484375,0,A1,7.6,0,270.0,0.0284907504142727,[15400|0|0],start
9300,1.6764559745788574,1.1268177032470703,0.0,-0.4094037115573883,0.9876435995101928,4.051419258117676,4.1484375,0,A1,7.6,0,270.0,0.0290837535473467,[15500|0|0],start
9400,1.6764988899230957,1.1272287368774414,0.0,-0.4201733469963074,0.9866703748703004,4.042300224304199,4.1484375,0,A1,7.6,0,270.0,0.0294970214653698,[15600|0|0],start
9500,1.6764419078826904,1.1273430585861206,0.0,-0.4146751165390014,0.9822906255722046,4.03513240814209,4.1484375,0,A1,7.6,0,270.0,0.0296247571534294,[15700|0|0],start
9600,1.6759272813796997,1.1271892786026,0.0,-0.4098729491233825,0.9964991211891174,4.052460193634033,4.1484375,0,A1,7.6,0,270.0,0.0301618686138471,[15800|0|0],start
9700,1.6763768196105957,1.1272945404052734,0.0,-0.4144535362720489,0.977058172225952,4.030275821685791,4.1484375,0,A1,7.6,0,270.0,0.0306235662076671,[15900|0|0],start
9800,1.6761518716812134,1.1270530223846436,0.0,-0.4042575061321258,0.9953149557113647,4.046493053436279,4.1484375,0,A1,7.6,0,270.0,0.0309536154846279,[16000|0|0],start
9900,1.6764005422592163,1.127662181854248,0.0,-0.4188872575759887,0.9910491108894348,4.068575382232666,4.1484375,0,A1,7.6,0,270.0,0.0316115762097272,[16100|0|0],start
10000,1.6762088537216189,1.1270146369934082,0.0,-0.3962662816047668,0.9987241625785828,4.068596839904785,4.1484375,0,A1,7.6,0,270.0,0.0322868974978903,[16200|0|0],start
10101,1.6762123107910156,1.126949667930603,0.0,-0.3908585608005523,1.004392385482788,4.048337459564209,4.1484375,0,A1,7.6,0,270.0,0.032351958472757,[16300|0|0],start
10200,1.676344871520996,1.1272722482681274,0.0,-0.4018914699554443,0.998574435710907,4.082747936248779,4.1484375,0,A1,7.6,0,270.0,0.032700714005029,[16400|0|0],start
10300,1.676471471786499,1.1271557807922363,0.0,-0.4018069505691528,0.9884707927703856,4.079346656799316,4.1484375,0,A1,7.6,0,270.0,0.032872738131726,[16500|0|0],start
10401,1.6765044927597046,1.127635478973389,0.0,-0.424473762512207,0.9962570071220398,4.064367294311523,4.1484375,0,A1,7.6,0,270.0,0.0333535715016916,[16600|0|0],start
10501,1.6764450073242188,1.1273372173309326,0.0,-0.4182132482528686,0.996502161026001,4.074409484863281,4.1484375,0,A1,7.6,0,270.0,0.0336577072023182,[16700|0|0],start
10601,1.6761136054992676,1.1270660161972046,0.0,-0.4076636731624603,1.000917911529541,4.067931652069092,4.1484375,0,A1,7.6,0,270.0,0.0340859328723993,[16800|0|0],start
10701,1.6763460636138916,1.1271562576293943,0.0,-0.4112094640731811,0.9939064383506776,4.067625522613525,4.1484375,0,A1,7.6,0,270.0,0.0343352926348675,[16900|0|0],start
10801,1.6762558221817017,1.127518892288208,0.0,-0.4266407489776611,0.9887022972106934,4.065540313720703,4.1484375,0,A1,7.6,0,270.0,0.0347089869107891,[17000|0|0],start
10901,1.676207423210144,1.127061367034912,0.0,-0.4153556823730469,0.9918529987335204,4.071704387664795,4.1484375,0,A1,7.6,0,270.0,0.0351690649670484,[17100|0|0],start
11001,1.6764484643936155,1.1274265050888062,0.0,-0.4300104081630707,0.9850733876228333,4.062733173370361,4.1484375,0,A1,7.6,0,270.0,0.0356065882813196,[17200|0|0],start
11101,1.676219463348389,1.127110242843628,0.0,-0.4132063388824463,0.995248556137085,4.058472633361816,4.1484375,0,A1,7.6,0,270.0,0.0359970537553888,[17300|0|0],start
11202,1.6760467290878296,1.127335548400879,0.0,-0.4216168522834778,0.9986339807510376,4.053661823272705,4.1484375,0,A1,7.6,0,270.0,0.0362809546516521,[17400|0|0],start
11301,1.6761555671691897,1.1272149085998535,0.0,-0.4197914004325866,1.00137197971344,4.03834342956543,4.1484375,0,A1,7.6,0,270.0,0.0364434344643846,[17500|0|0],start
11401,1.6763702630996704,1.127461552619934,0.0,-0.4214279949665069,1.0007716417312622,4.042240142822266,4.1484375,0,A1,7.6,0,270.0,0.0367704323469565,[17600|0|0],start
11502,1.6763938665390017,1.1270265579223633,0.0,-0.4054620563983917,1.0074968338012695,4.044503211975098,4.1484375,0,A1,7.6,0,270.0,0.037206066952174,[17700|0|0],start
11602,1.6760802268981934,1.12721848487854,0.0,-0.4096036851406097,1.0146019458770752,4.049878120422363,4.1484375,0,A1,7.6,0,270.0,0.03757377033915,[17800|0|0],start
11702,1.6759071350097656,1.1272215843200684,0.0,-0.4087645411491394,1.0115809440612793,4.063652992248535,4.1484375,0,A1,7.6,0,270.0,0.0377468899751745,[17900|0|0],start
11802,1.676206111907959,1.1274255514144895,0.0,-0.4129448235034942,1.0013915300369265,4.057105541229248,4.1484375,0,A1,7.6,0,270.0,0.0381088150520343,[18000|0|0],start
11902,1.676162600517273,1.1270692348480225,0.0,-0.4045175313949585,1.0083075761795044,4.065517425537109,4.1484375,0,A1,7.6,0,270.0,0.0384677784717003,[18100|0|0],start
12000,1.676465630531311,1.1272345781326294,0.0,-0.4147274792194366,0.9985530972480774,4.141019344329834,4.1484375,0,A1,7.6,0,270.0,0.0388129821668899,[18200|0|0],start
12100,1.6766825914382937,1.12765634059906,0.0,-0.423859030008316,0.9832813143730164,4.230874538421631,4.1484375,0,A1,7.6,0,270.0,0.0392872770258631,[18300|0|0],start
12200,1.6765952110290527,1.12750506401062,0.0,-0.4078617095947265,0.9841113090515136,4.182755947113037,4.1484375,0,A1,7.6,0,270.0,0.0394619766026491,[18400|0|0],start
12300,1.6768006086349487,1.127526879310608,0.0,-0.4024273753166199,0.9824419617652892,4.115584373474121,4.1484375,0,A1,7.6,0,270.0,0.0396685294622792,[18500|0|0],start
12400,1.6771265268325806,1.1275241374969482,0.0,-0.4005333185195923,0.9707244634628296,4.077879428863525,4.1484375,0,A1,7.6,0,270.0,0.0399944591925735,[18600|0|0],start
12500,1.677867412567139,1.127399206161499,0.0,-0.3981854021549225,0.957917094230652,4.03132963180542,4.1484375,0,A1,7.6,0,270.0,0.0407458043264828,[18700|0|0],start
12600,1.6787792444229126,1.1275211572647097,0.0,-0.4050690829753876,0.9470401406288148,4.009587287902832,4.1484375,0,A1,7.6,0,270.0,0.0416657550886315,[18800|0|0],start
12700,1.6797329187393188,1.1274466514587402,0.0,-0.3991623818874359,0.9410812258720398,3.966872453689575,4.1484375,0,A1,7.6,0,270.0,0.0426223353606924,[18900|0|0],start
12800,1.6808757781982422,1.1273685693740845,0.0,-0.3971073925495147,0.935982584953308,3.924036979675293,4.1484375,0,A1,7.6,0,270.0,0.0437678590639804,[19000|0|0],start
12900,1.682200908660889,1.1272073984146118,0.0,-0.3955822587013244,0.933895468711853,3.882094383239746,4.1484375,0,A1,7.6,0,270.0,0.0451027548731025,[19100|0|0],start
13000,1.6824322938919067,1.126944899559021,0.0,-0.3929904997348785,0.9399394989013672,3.90215516090393,4.1484375,0,A1,7.6,0,270.0,0.0454526759703797,[19200|0|0],start
13100,1.6846749782562256,1.1265456676483154,0.0,-0.3888672888278961,0.9245368242263794,3.8458001613616943,4.1484375,0,A1,7.6,0,270.0,0.0477306178652676,[19300|0|0],start
13200,1.6848691701889038,1.1265382766723633,0.0,-0.3960415124893188,0.9300332069396972,3.888092279434204,4.1484375,0,A1,7.6,0,270.0,0.0479249503979091,[19400|0|0],start
13300,1.6868771314620972,1.1263529062271118,0.0,-0.4039933979511261,0.9172345995903016,3.903531789779663,4.1484375,0,A1,7.6,0,270.0,0.0499414500077818,[19500|0|0],start
13400,1.6882373094558716,1.1261590719223022,0.0,-0.4026216864585876,0.9175518751144408,3.9059958457946777,4.1484375,0,A1,7.6,0,270.0,0.0513153699153708,[19600|0|0],start
13500,1.6900925636291504,1.1253973245620728,0.0,-0.3724186718463897,0.9168102741241456,3.9004831314086914,4.1484375,0,A1,7.6,0,270.0,0.0533209189893864,[19700|0|0],start
13600,1.6899265050888062,1.1256487369537354,0.0,-0.3977903425693512,0.9266703128814696,3.9021034240722656,4.1484375,0,A1,7.6,0,270.0,0.0536222222079267,[19800|0|0],start
13700,1.692408323287964,1.125257968902588,0.0,-0.3949758112430572,0.912196159362793,3.897355556488037,4.1484375,0,A1,7.6,0,270.0,0.0561346157367094,[19900|0|0],start
13800,1.6938058137893677,1.125186800956726,0.0,-0.3979620039463043,0.9127811789512634,3.9092090129852295,4.1484375,0,A1,7.6,0,270.0,0.0575339171974503,[20000|0|0],start
13900,1.696802854537964,1.1248462200164795,0.0,-0.3877349197864532,0.8971905708312988,3.8990533351898193,4.1484375,0,A1,7.6,0,270.0,0.0605502475218025,[20100|0|0],start
14000,1.6966710090637207,1.1247490644454956,0.0,-0.3827493488788605,0.9086530804634094,3.901433706283569,4.1484375,0,A1,7.6,0,270.0,0.0607140230817974,[20200|0|0],start
14100,1.6770615577697754,1.1273363828659058,0.0,-0.3797602653503418,0.95393705368042,4.014515399932861,4.1484375,0,A1,7.6,0,270.0,0.0804934264261404,[20300|0|0],start
14200,1.677850365638733,1.1270052194595337,0.0,-0.3784758746623993,0.947590172290802,3.972023725509644,4.1484375,0,A1,7.6,0,270.0,0.0813489304038339,[20400|0|0],start
14300,1.6795892715454102,1.1274538040161133,0.0,-0.4031859636306762,0.9151934385299684,3.9436750411987305,4.1484375,0,A1,7.6,0,270.0,0.0831447649888329,[20500|0|0],start
14400,1.6767332553863523,1.1275086402893066,0.0,-0.4114453494548797,1.0004823207855225,4.13701057434082,4.1484375,0,A1,7.6,0,270.0,0.086001307534929,[20600|0|0],start
14500,1.6770521402359009,1.1276153326034546,0.0,-0.4221681952476501,0.9916569590568542,4.240874290466309,4.1484375,0,A1,7.6,0,270.0,0.0863375675491589,[20700|0|0],start
14600,1.6771423816680908,1.1272969245910645,0.0,-0.4161053597927093,0.9909325242042542,4.207438945770264,4.1484375,0,A1,7.6,0,270.0,0.0866685164552425,[20800|0|0],start
14700,1.676384687423706,1.1270838975906372,0.0,-0.4138775467872619,1.0084199905395508,4.19211483001709,4.1484375,0,A1,7.6,0,270.0,0.0874555876533464,[20900|0|0],start
14800,1.6767375469207764,1.127073884010315,0.0,-0.4205921292304992,1.0036826133728027,4.18578577041626,4.1484375,0,A1,7.6,0,270.0,0.0878085892064076,[21000|0|0],start
14900,1.676939845085144,1.1275038719177246,0.0,-0.4245013296604156,0.9867915511131288,4.134527206420898,4.1484375,0,A1,7.6,0,270.0,0.0882837882676704,[21100|0|0],start
15000,1.676969051361084,1.1276508569717407,0.0,-0.4219568073749542,0.9786551594734192,4.092461585998535,4.1484375,0,A1,7.6,0,270.0,0.088433646909925,[21200|0|0],start
15100,1.677139401435852,1.1278347969055176,0.0,-0.4226013123989105,0.9748279452323914,4.148736476898193,4.1484375,0,A1,7.6,0,270.0,0.0886843520100154,[21300|0|0],start
15200,1.6773127317428589,1.1273192167282104,0.0,-0.3993979692459106,0.974899411201477,4.184207439422607,4.1484375,0,A1,7.6,0,270.0,0.089228287957126,[21400|0|0],start
15300,1.67760968208313,1.127209186553955,0.0,-0.4076934456825256,0.9698215126991272,3.947901725769043,4.1484375,0,A1,7.6,0,270.0,0.0895449678330794,[21500|0|0],start
15400,1.6784356832504272,1.1276288032531738,0.0,-0.4338676631450653,0.9523878693580629,3.959602117538452,4.1484375,0,A1,7.6,0,270.0,0.0904714429286106,[21600|0|0],start
15500,1.6797080039978027,1.1272156238555908,0.0,-0.4071379899978637,0.941312849521637,3.932518720626831,4.1484375,0,A1,7.6,0,270.0,0.0918091713385613,[21700|0|0],start
15600,1.6802377700805664,1.1271296739578247,0.0,-0.4061579704284668,0.9431812763214112,3.9482128620147705,4.1484375,0,A1,7.6,0,270.0,0.0923458644420876,[21800|0|0],start
15700,1.6812808513641355,1.1268986463546753,0.0,-0.391380250453949,0.937092423439026,3.9532487392425537,4.1484375,0,A1,7.6,0,270.0,0.0934142240807623,[21900|0|0],start
15800,1.6838266849517822,1.1266977787017822,0.0,-0.4051293432712555,0.9090427160263062,3.9141323566436768,4.1484375,0,A1,7.6,0,270.0,0.0959679696573554,[22000|0|0],start
15900,1.6844459772109983,1.1268291473388672,0.0,-0.4198199808597564,0.9173464179039,3.892496347427368,4.1484375,0,A1,7.6,0,270.0,0.0966010420237833,[22100|0|0],start
16000,1.6860183477401731,1.126475214958191,0.0,-0.3984647691249847,0.9148603677749634,3.8791770935058594,4.1484375,0,A1,7.6,0,270.0,0.09821275453261,[22200|0|0],start
16100,1.6886755228042605,1.1262340545654297,0.0,-0.401641845703125,0.9016579985618592,3.910707473754883,4.1484375,0,A1,7.6,0,270.0,0.1008808507932881,[22300|0|0],start
16200,1.6884732246398926,1.126478672027588,0.0,-0.4095876514911651,0.9155495762825012,3.9049243927001953,4.1484375,0,A1,7.6,0,270.0,0.1011982814945433,[22400|0|0],start
16300,1.6905452013015747,1.125652313232422,0.0,-0.3754628002643585,0.90852952003479,3.9160797595977774,4.1484375,0,A1,7.6,0,270.0,0.1034289666235795,[22500|0|0],start
16400,1.6936968564987185,1.1251280307769775,0.0,-0.3765050172805786,0.8888710141181946,3.888172864913941,4.1484375,0,A1,7.6,0,270.0,0.1066239318150597,[22600|0|0],start
16500,1.696540355682373,1.1245354413986206,0.0,-0.3751337230205536,0.8827199339866638,3.845847129821777,4.1484375,0,A1,7.6,0,270.0,0.1095285229702459,[22700|0|0],start
16600,1.694167137145996,1.1251782178878784,0.0,-0.4017699956893921,0.9038114547729492,3.8645811080932617,4.1484375,0,A1,7.6,0,270.0,0.1119872478097807,[22800|0|0],start
16700,1.6968177556991575,1.124953269958496,0.0,-0.3967300057411194,0.8893930315971375,3.8983662128448486,4.1484375,0,A1,7.6,0,270.0,0.1146473944759059,[22900|0|0],start
16800,1.6974672079086304,1.124977946281433,0.0,-0.4014564156532287,0.8932876586914062,3.879163026809693,4.1484375,0,A1,7.6,0,270.0,0.1152973153120874,[23000|0|0],start
16900,1.699581503868103,1.1246452331542969,0.0,-0.3839560449123382,0.8843761086463928,3.871255397796631,4.1484375,0,A1,7.6,0,270.0,0.117437629641622,[23100|0|0],start
17000,1.6988414525985718,1.1243023872375488,0.0,-0.3652907907962799,0.902124285697937,3.8849692344665527,4.1484375,0,A1,7.6,0,270.0,0.1182532393547604,[23200|0|0],start
17100,1.6765775680541992,1.1273915767669678,0.0,-0.3858367800712585,0.9731966853141784,3.836625099182129,4.1484375,0,A1,7.6,0,270.0,0.1407304199376054,[23300|0|0],start
17200,1.6759089231491089,1.1271284818649292,0.0,-0.3966556191444397,1.0310810804367063,3.9142792224884033,4.1484375,0,A1,7.6,0,270.0,0.1414489635595115,[23400|0|0],start
17300,1.676349639892578,1.127421736717224,0.0,-0.4062780141830444,1.018964409828186,3.955911636352539,4.1484375,0,A1,7.6,0,270.0,0.1419783307821163,[23500|0|0],start
17400,1.6762577295303345,1.1272952556610107,0.0,-0.4115228056907654,1.0202124118804932,3.999191284179688,4.1484375,0,A1,7.6,0,270.0,0.1421346796620883,[23600|0|0],start
17500,1.676377534866333,1.1271653175354004,0.0,-0.4112568497657776,1.0188212394714355,4.023728370666504,4.1484375,0,A1,7.6,0,270.0,0.1423114202488839,[23700|0|0],start
17600,1.6761598587036133,1.127156138420105,0.0,-0.4236986637115478,1.0207675695419312,4.058564186096191,4.1484375,0,A1,7.6,0,270.0,0.1425292898612074,[23800|0|0],start
17700,1.6761245727539062,1.1274291276931765,0.0,-0.4259048700332641,1.009613275527954,4.072670936584473,4.14453125,0,A1,7.6,0,270.0,0.1428045501770156,[23900|0|0],start
17800,1.676231026649475,1.1274455785751345,0.0,-0.422533631324768,0.9999024868011476,4.087824821472168,4.1484375,0,A1,7.6,0,270.0,0.1429122676936922,[24000|0|0],start
17900,1.67606782913208,1.1272151470184326,0.0,-0.4140644371509552,1.000006079673767,4.103934288024902,4.1484375,0,A1,7.6,0,270.0,0.1431946364809332,[24100|0|0],start
18000,1.6765679121017456,1.1272834539413452,0.0,-0.4135768711566925,0.9828751683235168,4.092424392700195,4.1484375,0,A1,7.6,0,270.0,0.1436993629536561,[24200|0|0],start
18100,1.676215410232544,1.126923680305481,0.0,-0.4012854397296905,1.0048911571502686,4.06820011138916,4.1484375,0,A1,7.6,0,270.0,0.1442030440401123,[24300|0|0],start
18200,1.676412582397461,1.127430081367493,0.0,-0.4155841469764709,0.9951651096343994,4.063912868499756,4.14453125,0,A1,7.6,0,270.0,0.1447464765549886,[24400|0|0],start
18300,1.6760613918304443,1.1276055574417114,0.0,-0.4141418635845184,0.998940408229828,4.098728656768799,4.1484375,0,A1,7.6,0,270.0,0.1451390662479056,[24500|0|0],start
18400,1.6761763095855713,1.127809762954712,0.0,-0.4160965979099273,0.997504472732544,4.127067565917969,4.1484375,0,A1,7.6,0,270.0,0.1453733865030761,[24600|0|0],start
18500,1.6760852336883545,1.1273715496063232,0.0,-0.4058353304862976,0.9998459219932556,4.162715435028076,4.1484375,0,A1,7.6,0,270.0,0.1458209641586398,[24700|0|0],start
18600,1.676378607749939,1.1271984577178955,0.0,-0.4038172662258148,0.9927557706832886,4.155068874359131,4.1484375,0,A1,7.6,0,270.0,0.1461615946649807,[24800|0|0],start
18700,1.6763627529144287,1.1269580125808716,0.0,-0.4027427732944488,0.9897229671478271,4.139420509338379,4.1484375,0,A1,7.6,0,270.0,0.1464025619651015,[24900|0|0],start
18800,1.6763485670089722,1.1276885271072388,0.0,-0.4311701953411102,0.9889968037605286,4.112427234649658,4.1484375,0,A1,7.6,0,270.0,0.1471332142169608,[25000|0|0],start
18900,1.6765103340148926,1.1275649070739746,0.0,-0.4256375133991241,0.9918252825737,4.1117377281188965,4.1484375,0,A1,7.6,0,270.0,0.1473368081187081,[25100|0|0],start
19000,1.6759082078933716,1.1275578737258911,0.0,-0.4211649596691131,1.0125187635421753,4.137027263641357,4.1484375,0,A1,7.6,0,270.0,0.1479389753165886,[25200|0|0],start
19100,1.6762917041778564,1.1273939609527588,0.0,-0.4214997291564941,0.9976378679275512,4.10722017288208,4.1484375,0,A1,7.6,0,270.0,0.1483560326236935,[25300|0|0],start
19200,1.6760658025741575,1.1271307468414309,0.0,-0.4168621897697449,1.0086520910263062,4.097118377685547,4.1484375,0,A1,7.6,0,270.0,0.1487028945601407,[25400|0|0],start
19300,1.6760995388031006,1.1275627613067627,0.0,-0.4225799739360809,0.9970894455909728,4.11765193939209,4.1484375,0,A1,7.6,0,270.0,0.1491362242630221,[25500|0|0],start
19400,1.6761581897735596,1.127663493156433,0.0,-0.4229567945003509,0.9909951090812684,4.147660732269287,4.1484375,0,A1,7.6,0,270.0,0.1492527868722662,[25600|0|0],start
19500,1.6760417222976685,1.1275750398635864,0.0,-0.4230185747146606,0.9875890612602234,4.148294448852539,4.1484375,0,A1,7.6,0,270.0,0.1493990354892028,[25700|0|0],start
19600,1.6765743494033811,1.127463698387146,0.0,-0.4177213609218597,0.975655436515808,4.134096622467041,4.1484375,0,A1,7.6,0,270.0,0.1499431756899928,[25800|0|0],start
19700,1.6760809421539309,1.127386212348938,0.0,-0.4102563858032226,0.990318775177002,4.1630401611328125,4.1484375,0,A1,7.6,0,270.0,0.1504426301923523,[25900|0|0],start
19800,1.6758997440338137,1.127526879310608,0.0,-0.4099554717540741,0.9888554215431212,4.149711608886719,4.1484375,0,A1,7.6,0,270.0,0.1506720205863087,[26000|0|0],start
19900,1.6762739419937134,1.1277284622192385,0.0,-0.4117805063724518,0.9749126434326172,4.15221118927002,4.1484375,0,A1,7.6,0,270.0,0.1510970615046272,[26100|0|0],start
20000,1.676320195198059,1.1273125410079956,0.0,-0.3961963951587677,0.9780768752098083,4.159027099609375,4.1484375,0,A1,7.6,0,270.0,0.1515155466451926,[26200|0|0],start
20100,1.6763339042663574,1.1276092529296875,0.0,-0.4050418734550476,0.9815091490745544,4.151227474212647,4.1484375,0,A1,7.6,0,270.0,0.1518125751001051,[26300|0|0],start
20200,1.6763286590576172,1.1276390552520752,0.0,-0.4009974300861358,0.984070360660553,4.180908203125,4.1484375,0,A1,7.6,0,270.0,0.1518428354807112,[26400|0|0],start
20300,1.6764038801193235,1.127537727355957,0.0,-0.3852242529392242,0.9827920198440552,4.154446125030518,4.1484375,0,A1,7.6,0,270.0,0.1519690319571119,[26500|0|0],start
20400,1.676572322845459,1.1277048587799072,0.0,-0.3808797299861908,0.9705199003219604,4.106102466583252,4.1484375,0,A1,7.6,0,270.0,0.1522063205258622,[26600|0|0],start
20500,1.6768029928207395,1.1279182434082031,0.0,-0.3903303444385528,0.9636977910995485,4.08111572265625,4.1484375,0,A1,7.6,0,270.0,0.1525205523464802,[26700|0|0],start
20600,1.6771979331970217,1.1278034448623655,0.0,-0.3866834342479706,0.956735610961914,4.086190223693848,4.1484375,0,A1,7.6,0,270.0,0.1529318388730579,[26800|0|0],start
20700,1.67773175239563,1.127842903137207,0.0,-0.3950890600681305,0.94864821434021,4.057700157165527,4.14453125,0,A1,7.6,0,270.0,0.1534671144023476,[26900|0|0],start
20800,1.6786251068115234,1.127539038658142,0.0,-0.3818959593772888,0.93897944688797,4.028426647186279,4.1484375,0,A1,7.6,0,270.0,0.1544107328284254,[27000|0|0],start
20900,1.679280400276184,1.1270979642868042,0.0,-0.3814671337604522,0.9348939657211304,4.01750373840332,4.1484375,0,A1,7.6,0,270.0,0.155200641763606,[27100|0|0],start
21000,1.6807997226715088,1.127357006072998,0.0,-0.4162279665470123,0.9119808077812196,4.033288478851318,4.14453125,0,A1,7.6,0,270.0,0.1567418890467924,[27200|0|0],start
21100,1.6760133504867554,1.1274076700210571,0.0,-0.4065142869949341,0.9904903769493104,4.162476062774658,4.1484375,0,A1,7.6,0,270.0,0.1615285293640311,[27300|0|0],start
21200,1.6761953830718994,1.1276609897613523,0.0,-0.4108674824237823,0.9914571046829224,4.164155006408691,4.1484375,0,A1,7.6,0,270.0,0.1618404696674185,[27400|0|0],start
21300,1.67637038230896,1.12751567363739,0.0,-0.411353200674057,0.999963641166687,4.15181303024292,4.1484375,0,A1,7.6,0,270.0,0.1620679372669909,[27500|0|0],start
21400,1.6763710975646973,1.12751042842865,0.0,-0.4148535132408142,1.0038518905639648,4.127145767211914,4.1484375,0,A1,7.6,0,270.0,0.1620732310185431,[27600|0|0],start
21500,1.6759185791015625,1.1275264024734497,0.0,-0.4094050228595733,1.0196760892868042,4.122325420379639,4.1484375,0,A1,7.6,0,270.0,0.1625260313383145,[27700|0|0],start
21600,1.675976276397705,1.1274011135101318,0.0,-0.4049636721611023,1.02024245262146,4.147987365722656,4.1484375,0,A1,7.6,0,270.0,0.1626639672013503,[27800|0|0],start
21700,1.6760321855545044,1.1272611618041992,0.0,-0.4018606543540954,1.0208454132080078,4.131541252136231,4.14453125,0,A1,7.6,0,270.0,0.1628146732523484,[27900|0|0],start
21800,1.6764699220657349,1.127191424369812,0.0,-0.4077033996582031,0.9990705847740172,4.1194844245910645,4.1484375,0,A1,7.6,0,270.0,0.1632579300210719,[28000|0|0],start
21900,1.6761125326156616,1.1274211406707764,0.0,-0.414312332868576,1.004238247871399,4.09621524810791,4.1484375,0,A1,7.6,0,270.0,0.1636827791683611,[28100|0|0],start
22000,1.6764291524887085,1.1273366212844849,0.0,-0.4093330502510071,0.9942938685417176,4.102198600769043,4.1484375,0,A1,7.6,0,270.0,0.1640104858522528,[28200|0|0],start
22100,1.676203370094299,1.1274774074554443,0.0,-0.4047627449035644,0.9994099736213684,4.11766529083252,4.14453125,0,A1,7.6,0,270.0,0.1642765656063843,[28300|0|0],start
22200,1.6762465238571167,1.1273967027664185,0.0,-0.4009480774402618,1.0021960735321045,4.11674690246582,4.14453125,0,A1,7.6,0,270.0,0.1643680833318591,[28400|0|0],start
22300,1.6760214567184448,1.12738835811615,0.0,-0.4036164581775665,1.0094585418701172,4.105281352996826,4.1484375,0,A1,7.6,0,270.0,0.1645933051116631,[28500|0|0],start
22400,1.676066517829895,1.1275981664657593,0.0,-0.40605229139328,0.9988651871681212,4.116560935974121,4.1484375,0,A1,7.6,0,270.0,0.1648078978592827,[28600|0|0],start
22500,1.676107406616211,1.127681016921997,0.0,-0.4074190258979797,0.9883983135223388,4.1283464431762695,4.14453125,0,A1,7.6,0,270.0,0.1649002888271594,[28700|0|0],start
22600,1.6759759187698364,1.1275843381881714,0.0,-0.4027743637561798,0.9890363216400146,4.137740135192871,4.14453125,0,A1,7.6,0,270.0,0.1650634937024492,[28800|0|0],start
22700,1.6759225130081177,1.1274566650390625,0.0,-0.3883064389228821,0.9997234344482422,4.132980346679688,4.1484375,0,A1,7.6,0,270.0,0.1652018866516487,[28900|0|0],start
22800,1.6763314008712769,1.1273338794708252,0.0,-0.3841325342655182,0.9878661036491394,4.140743255615234,4.1484375,0,A1,7.6,0,270.0,0.1656288123833705,[29000|0|0],start
22900,1.6761029958724976,1.1272228956222534,0.0,-0.380899578332901,0.9958111047744752,4.137561798095703,4.14453125,0,A1,7.6,0,270.0,0.1658827538295962,[29100|0|0],start
23000,1.676106333732605,1.1274253129959106,0.0,-0.3921398520469665,0.992209792137146,4.1382365226745605,4.1484375,0,A1,7.6,0,270.0,0.1660851987220197,[29200|0|0],start
23100,1.676464319229126,1.1272552013397217,0.0,-0.3868215382099151,0.9935299158096312,4.147795677185059,4.14453125,0,A1,7.6,0,270.0,0.1664815465380736,[29300|0|0],start
23200,1.675994634628296,1.1272722482681274,0.0,-0.386113166809082,1.000285029411316,4.153141975402832,4.14453125,0,A1,7.6,0,270.0,0.1669515403912515,[29400|0|0],start
23300,1.67597758769989,1.1276183128356934,0.0,-0.4001526534557342,0.9984057545661926,4.154853343963623,4.1484375,0,A1,7.6,0,270.0,0.1672980245650498,[29500|0|0],start
23400,1.67635977268219,1.1273669004440308,0.0,-0.3981360495090484,0.9787698984146118,4.138676643371582,4.14453125,0,A1,7.6,0,270.0,0.1677554888274541,[29600|0|0],start
23500,1.6761085987091064,1.127110481262207,0.0,-0.3996227979660034,0.988434076309204,4.117292881011963,4.1484375,0,A1,7.6,0,270.0,0.1681144305519188,[29700|0|0],start
23600,1.6762704849243164,1.1272459030151367,0.0,-0.3987905085086822,0.989184558391571,4.113274097442627,4.1484375,0,A1,7.6,0,270.0,0.1683254902539976,[29800|0|0],start
23700,1.676411509513855,1.1274651288986206,0.0,-0.404186874628067,0.9853209257125854,4.09725284576416,4.14453125,0,A1,7.6,0,270.0,0.1685861584776916,[29900|0|0],start
23800,1.6762449741363523,1.127232789993286,0.0,-0.3935580551624298,0.9894208312034608,4.108625888824463,4.14453125,0,A1,7.6,0,270.0,0.1688720175319335,[30000|0|0],start
23900,1.6760492324829102,1.127522587776184,0.0,-0.401040256023407,1.0018913745880127,4.091953277587891,4.1484375,0,A1,7.6,0,270.0,0.1692217281978632,[30100|0|0],start
24000,1.676140308380127,1.1276334524154663,0.0,-0.4073054790496826,0.9939810633659364,4.10160493850708,4.1484375,0,A1,7.6,0,270.0,0.1693652056779673,[30200|0|0],start
24100,1.67597496509552,1.1273353099822998,0.0,-0.4014680981636047,1.000383973121643,4.097109317779541,4.14453125,0,A1,7.6,0,270.0,0.1697061269477922,[30300|0|0],start
24200,1.676121950149536,1.1271581649780271,0.0,-0.3885007202625274,0.9927156567573548,4.108086585998535,4.1484375,0,A1,7.6,0,270.0,0.1699363115663983,[30400|0|0],start
24300,1.6761411428451538,1.1274921894073486,0.0,-0.3974250853061676,0.9911003112792968,4.10640811920166,4.14453125,0,A1,7.6,0,270.0,0.1702708869375012,[30500|0|0],start
24400,1.676185131072998,1.1276068687438965,0.0,-0.3947274386882782,0.99208265542984,4.110233783721924,4.14453125,0,A1,7.6,0,270.0,0.1703937132963169,[30600|0|0],start
24500,1.6762391328811646,1.127325415611267,0.0,-0.3816412091255188,1.001744508743286,4.116638660430908,4.14453125,0,A1,7.6,0,270.0,0.1706803002135901,[30700|0|0],start
24600,1.6761713027954102,1.1274975538253784,0.0,-0.386675477027893,0.9984779953956604,4.126903533935547,4.14453125,0,A1,7.6,0,270.0,0.170865320443,[30800|0|0],start
24700,1.6762691736221311,1.1275079250335691,0.0,-0.3907204866409302,1.005058526992798,4.12014102935791,4.1484375,0,A1,7.6,0,270.0,0.170963739245484,[30900|0|0],start
24800,1.675986647605896,1.1274445056915283,0.0,-0.3908396065235138,1.0149927139282229,4.124764442443848,4.14453125,0,A1,7.6,0,270.0,0.1712532957387536,[31000|0|0],start
24900,1.6761120557785034,1.1276253461837769,0.0,-0.3863105475902557,1.016136646270752,4.136573791503906,4.14453125,0,A1,7.6,0,270.0,0.1714733650310081,[31100|0|0],start
25000,1.676405906677246,1.1272495985031128,0.0,-0.3784219026565552,1.0063225030899048,4.132573127746582,4.14453125,0,A1,7.6,0,270.0,0.1719503709745941,[31200|0|0],start
25100,1.6760449409484863,1.127217173576355,0.0,-0.383425623178482,1.015094757080078,4.141066074371338,4.1484375,0,A1,7.6,0,270.0,0.1723127901148369,[31300|0|0],start
25200,1.6762189865112305,1.1277260780334473,0.0,-0.4016372263431549,1.0091413259506226,4.132433891296387,4.14453125,0,A1,7.6,0,270.0,0.1728506335905427,[31400|0|0],start
25300,1.676001787185669,1.1274205446243286,0.0,-0.3960946202278137,1.0219308137893677,4.113536357879639,4.14453125,0,A1,7.6,0,270.0,0.1732255018488843,[31500|0|0],start
25400,1.6758875846862793,1.1275324821472168,0.0,-0.3946393132209778,1.02922785282135,4.101672649383545,4.1484375,0,A1,7.6,0,270.0,0.1733854150124987,[31600|0|0],start
25500,1.6762115955352783,1.1274789571762085,0.0,-0.3957285583019256,1.016285061836243,4.099651336669922,4.1484375,0,A1,7.6,0,270.0,0.1737138171330621,[31700|0|0],start
25600,1.6762079000473022,1.1277716159820557,0.0,-0.4048573970794678,1.0098676681518557,4.099322319030762,4.1484375,0,A1,7.6,0,270.0,0.1740064992699807,[31800|0|0],start
25700,1.6760138273239136,1.127577304840088,0.0,-0.3986828625202179,1.0092511177062988,4.122691631317139,4.1484375,0,A1,7.6,0,270.0,0.1742811281866234,[31900|0|0],start
25800,1.6760214567184448,1.1270982027053833,0.0,-0.3945777416229248,1.012557029724121,4.120760440826416,4.14453125,0,A1,7.6,0,270.0,0.1747602910640872,[32000|0|0],start
25900,1.676020860671997,1.127612590789795,0.0,-0.4082177877426147,1.0126372575759888,4.133132457733154,4.1484375,0,A1,7.6,0,270.0,0.1752746794938327,[32100|0|0],start
26000,1.6760737895965576,1.1272821426391602,0.0,-0.3978143036365509,1.0007003545761108,4.125585556030273,4.1484375,0,A1,7.6,0,270.0,0.1756093396965952,[32200|0|0],start
26100,1.676208734512329,1.1274316310882568,0.0,-0.3986706435680389,0.992078959941864,4.14277458190918,4.14453125,0,A1,7.6,0,270.0,0.1758107272004427,[32300|0|0],start
26200,1.6764816045761108,1.1275802850723269,0.0,-0.4052057266235351,0.9781540036201476,4.154500961303711,4.14453125,0,A1,7.6,0,270.0,0.1761214619405156,[32400|0|0],start
26300,1.6760727167129517,1.1277154684066772,0.0,-0.4090872406959533,0.9915253520011902,4.148265838623047,4.14453125,0,A1,7.6,0,270.0,0.176552117044427,[32500|0|0],start
26400,1.6761475801467896,1.1271718740463257,0.0,-0.394063651561737,0.9882706999778748,4.145080089569092,4.1484375,0,A1,7.6,0,270.0,0.1771008422601152,[32600|0|0],start
26500,1.6763670444488523,1.127233862876892,0.0,-0.3963138461112976,0.9819733500480652,4.156153678894043,4.14453125,0,A1,7.6,0,270.0,0.1773288931206592,[32700|0|0],start
26600,1.6762043237686155,1.1277247667312622,0.0,-0.4069565236568451,0.980713188648224,4.169902801513672,4.1484375,0,A1,7.6,0,270.0,0.1778460629322416,[32800|0|0],start
26700,1.6761337518692017,1.127222180366516,0.0,-0.4014065861701965,0.983481228351593,4.174017429351807,4.14453125,0,A1,7.6,0,270.0,0.1783535798748315,[32900|0|0],start
26800,1.6759532690048218,1.1276272535324097,0.0,-0.4089029729366302,0.9863324165344238,4.154513835906982,4.1484375,0,A1,7.6,0,270.0,0.1787970416364998,[33000|0|0],start
26900,1.6762537956237793,1.127366304397583,0.0,-0.3905808329582214,0.9777334332466124,4.150480270385742,4.1484375,0,A1,7.6,0,270.0,0.1791950500530802,[33100|0|0],start
27000,1.6760423183441162,1.1275901794433594,0.0,-0.3982576131820678,0.9830772876739502,4.165797233581543,4.14453125,0,A1,7.6,0,270.0,0.1795030154341461,[33200|0|0],start
27100,1.676272749900818,1.127793312072754,0.0,-0.4008368551731109,0.9672728776931764,4.167787551879883,4.14453125,0,A1,7.6,0,270.0,0.1798101987140439,[33300|0|0],start
27200,1.675998330116272,1.1275936365127563,0.0,-0.4005874395370483,0.9766933917999268,4.170965194702148,4.14453125,0,A1,7.6,0,270.0,0.180149575418328,[33400|0|0],start
27300,1.6764518022537231,1.127827525138855,0.0,-0.4087082743644714,0.9600297808647156,4.1713175773620605,4.1484375,0,A1,7.6,0,270.0,0.1806598115096257,[33500|0|0],start
27400,1.6763319969177246,1.127691626548767,0.0,-0.4092028737068176,0.9627552628517152,4.192950248718262,4.14453125,0,A1,7.6,0,270.0,0.1808409792366678,[33600|0|0],start
27500,1.676190972328186,1.1274596452713013,0.0,-0.4079326391220093,0.9662391543388368,4.184142112731934,4.14453125,0,A1,7.6,0,270.0,0.1811124626577992,[33700|0|0],start
27600,1.676346778869629,1.1278939247131348,0.0,-0.4092685282230377,0.9731270670890808,4.172413349151611,4.14453125,0,A1,7.6,0,270.0,0.1815738457003523,[33800|0|0],start
27700,1.6764885187149048,1.1275345087051392,0.0,-0.4047693610191345,0.9620949625968932,4.1530585289001465,4.14453125,0,A1,7.6,0,270.0,0.1819602005250179,[33900|0|0],start
27800,1.676353931427002,1.1273179054260254,0.0,-0.403428852558136,0.9737792611122132,4.126850128173828,4.1484375,0,A1,7.6,0,270.0,0.1822152117376888,[34000|0|0],start
27900,1.6762545108795166,1.1271969079971311,0.0,-0.3973137140274048,0.978522539138794,4.145702362060547,4.14453125,0,A1,7.6,0,270.0,0.1823718157703996,[34100|0|0],start
28000,1.6763674020767212,1.1276532411575315,0.0,-0.4104763567447662,0.9723866581916808,4.128408908843994,4.14453125,0,A1,7.6,0,270.0,0.1828419055231993,[34200|0|0],start
28100,1.676458477973938,1.1275033950805664,0.0,-0.4072557389736175,0.9748671054840088,4.1320414543151855,4.14453125,0,A1,7.6,0,270.0,0.1830172584981832,[34300|0|0],start
28200,1.6763590574264526,1.1277562379837036,0.0,-0.4074548482894897,0.979786217212677,4.131688594818115,4.14453125,0,A1,7.6,0,270.0,0.1832889457796837,[34400|0|0],start
28300,1.676294207572937,1.1280617713928225,0.0,-0.4181941449642181,0.9841414093971252,4.138473987579346,4.14453125,0,A1,7.6,0,270.0,0.1836012856067772,[34500|0|0],start
28400,1.6766133308410645,1.1278406381607056,0.0,-0.4146282374858856,0.9742377400398254,4.129796028137207,4.1484375,0,A1,7.6,0,270.0,0.1839895375438062,[34600|0|0],start
28500,1.6767040491104126,1.127810001373291,0.0,-0.4100774526596069,0.9788730144500732,4.128140449523926,4.14453125,0,A1,7.6,0,270.0,0.1840852893956766,[34700|0|0],start
28601,1.6763416528701782,1.1280122995376587,0.0,-0.4112511575222015,0.9895073771476746,4.130543231964111,4.14453125,0,A1,7.6,0,270.0,0.1845003262401164,[34800|0|0],start
28701,1.6764053106307983,1.1281466484069824,0.0,-0.4178155660629272,0.9916470646858216,4.1258625984191895,4.14453125,0,A1,7.6,0,270.0,0.1846489934159682,[34900|0|0],start
28801,1.676163673400879,1.1277326345443726,0.0,-0.4065623581409454,1.0017595291137695,4.120269775390625,4.1484375,0,A1,7.6,0,270.0,0.1851283638669935,[35000|0|0],start
28901,1.6761571168899536,1.1276603937149048,0.0,-0.4037017226219177,0.999731421470642,4.134281158447266,4.14453125,0,A1,7.6,0,270.0,0.185200901617701,[35100|0|0],start
29001,1.676222324371338,1.127882480621338,0.0,-0.4074379801750183,0.9925176501274108,4.141385078430176,4.14453125,0,A1,7.6,0,270.0,0.1854323635144303,[35200|0|0],start
29101,1.6764066219329834,1.1273627281188965,0.0,-0.3911480605602264,0.9889379143714904,4.143832683563232,4.14453125,0,A1,7.6,0,270.0,0.1859838236263356,[35300|0|0],start
29201,1.6764146089553833,1.1279025077819824,0.0,-0.4063501954078674,0.9853058457374572,4.138505458831787,4.14453125,0,A1,7.6,0,270.0,0.186523662377453,[35400|0|0],start
29301,1.6766067743301392,1.1277395486831665,0.0,-0.4067411124706268,0.9858080744743348,4.122776985168457,4.14453125,0,A1,7.6,0,270.0,0.186775621102529,[35500|0|0],start
29401,1.676229476928711,1.1274735927581787,0.0,-0.4008939862251282,0.9953593611717224,4.137626647949219,4.14453125,0,A1,7.6,0,270.0,0.187237233367488,[35600|0|0],start
29501,1.676390528678894,1.1276934146881104,0.0,-0.414144903421402,0.9879361391067504,4.1490325927734375,4.14453125,0,A1,7.6,0,270.0,0.1875097390502103,[35700|0|0],start
29601,1.6760497093200684,1.1274759769439695,0.0,-0.4055282473564148,1.0040098428726196,4.1411452293396,4.14453125,0,A1,7.6,0,270.0,0.1879140124823418,[35800|0|0],start
29702,1.6761077642440796,1.1275256872177124,0.0,-0.4154147505760193,1.0027382373809814,4.141561508178711,4.14453125,0,A1,7.6,0,270.0,0.1879904420938647,[35900|0|0],start
29802,1.6761658191680908,1.127495050430298,0.0,-0.407329648733139,0.9946845769882202,4.163595199584961,4.14453125,0,A1,7.6,0,270.0,0.1880560849681545,[36000|0|0],start
29900,1.6763547658920288,1.1276118755340576,0.0,-0.4084619581699371,0.9945530891418456,4.141407489776611,4.14453125,0,A1,7.6,0,270.0,0.1882782312473385,[36100|0|0],start
30000,1.6763051748275757,1.1275242567062378,0.0,-0.4116555452346802,1.0002182722091677,4.142866134643555,4.14453125,0,A1,7.6,0,270.0,0.1883789106030284,[36200|0|0],start
30102,1.6766387224197388,1.1276732683181765,0.0,-0.4220421016216278,0.9854723215103148,4.130600929260254,4.14453125,0,A1,7.6,0,270.0,0.1887442302667892,[36300|0|0],start
30202,1.6765683889389038,1.127415418624878,0.0,-0.4139919877052307,0.9767723679542542,4.131846904754639,4.1484375,0,A1,7.6,0,270.0,0.1890115002854231,[36400|0|0],start
30302,1.676296591758728,1.1272844076156616,0.0,-0.4117384850978851,0.9826651215553284,4.155032157897949,4.14453125,0,A1,7.6,0,270.0,0.1893132246491847,[36500|0|0],start
30402,1.6762592792510986,1.127612590789795,0.0,-0.4211816787719726,0.9808455109596252,4.16499662399292,4.14453125,0,A1,7.6,0,270.0,0.1896435221196713,[36600|0|0],start
30502,1.676766872406006,1.1275734901428225,0.0,-0.4175427258014679,0.9724868535995485,4.12805700302124,4.14453125,0,A1,7.6,0,270.0,0.1901526190372642,[36700|0|0],start
30600,1.6761313676834106,1.127736210823059,0.0,-0.4213117063045501,0.9957086443901062,4.114339828491211,4.14453125,0,A1,7.6,0,270.0,0.1908086253422779,[36800|0|0],start
30700,1.6763248443603516,1.1280040740966797,0.0,-0.4086174070835113,0.9915057420730592,4.127326488494873,4.14453125,0,A1,7.6,0,270.0,0.191139055301384,[36900|0|0],start
30800,1.676418662071228,1.12789785861969,0.0,-0.4093661904335022,0.9874200224876404,4.127614974975586,4.1484375,0,A1,7.6,0,270.0,0.1912807715334333,[37000|0|0],start
30900,1.676439881324768,1.1277955770492554,0.0,-0.4116471409797668,0.9778788685798644,4.11644172668457,4.14453125,0,A1,7.6,0,270.0,0.1913852309818875,[37100|0|0],start
31000,1.6762127876281738,1.1275737285614014,0.0,-0.4048029482364654,0.9801424145698548,4.121759414672852,4.14453125,0,A1,7.6,0,270.0,0.1917027027107012,[37200|0|0],start
31100,1.6761847734451294,1.1275700330734253,0.0,-0.4052914977073669,0.9793298840522766,4.107756614685059,4.14453125,0,A1,7.6,0,270.0,0.1917309595874399,[37300|0|0],start
31200,1.676392674446106,1.1278343200683594,0.0,-0.40812748670578,0.9777712225914,4.101439476013184,4.14453125,0,A1,7.6,0,270.0,0.1920672190734003,[37400|0|0],start
31300,1.6764074563980105,1.127569556236267,0.0,-0.4024390578269958,0.9783746004104614,4.113402843475342,4.14453125,0,A1,7.6,0,270.0,0.1923323952278454,[37500|0|0],start
31400,1.676566481590271,1.1275008916854858,0.0,-0.4016080200672149,0.972074806690216,4.11848258972168,4.14453125,0,A1,7.6,0,270.0,0.1925056113711678,[37600|0|0],start
31500,1.6765854358673096,1.1278098821640017,0.0,-0.4154587984085083,0.9811636805534364,4.121911525726318,4.14453125,0,A1,7.6,0,270.0,0.1928151826560628,[37700|0|0],start
31600,1.6765936613082886,1.1279867887496948,0.0,-0.4186325073242187,0.9880120158195496,4.112612247467041,4.14453125,0,A1,7.6,0,270.0,0.192992280363391,[37800|0|0],start
31700,1.67656409740448,1.1276928186416626,0.0,-0.4076420366764068,0.9881144762039183,4.115267276763916,4.14453125,0,A1,7.6,0,270.0,0.1932877333187407,[37900|0|0],start
31800,1.6765012741088867,1.1277494430541992,0.0,-0.4102153778076172,0.99161696434021,4.140817642211914,4.14453125,0,A1,7.6,0,270.0,0.1933723092642826,[38000|0|0],start
31900,1.6766486167907717,1.127755880355835,0.0,-0.4189829230308532,0.9811199307441713,4.127841472625732,4.14453125,0,A1,7.6,0,270.0,0.1935197924997957,[38100|0|0],start
32000,1.6760507822036743,1.1277281045913696,0.0,-0.4170753061771393,0.9976736307144164,4.140285968780518,4.14453125,0,A1,7.6,0,270.0,0.1941182719786599,[38200|0|0],start
32100,1.6763827800750732,1.1274642944335938,0.0,-0.4073047935962677,0.9843138456344604,4.130286693572998,4.14453125,0,A1,7.6,0,270.0,0.1945423219591565,[38300|0|0],start
32200,1.6759823560714722,1.1275371313095093,0.0,-0.4143548309803009,0.9939095377922058,4.143573760986328,4.14453125,0,A1,7.6,0,270.0,0.1949493165453036,[38400|0|0],start
32300,1.6763311624526978,1.1279908418655396,0.0,-0.4252559840679168,0.9830322265625,4.130729675292969,4.14453125,0,A1,7.6,0,270.0,0.1955216094425485,[38500|0|0],start
32400,1.6763315200805664,1.12757670879364,0.0,-0.4129446148872375,0.9835288524627686,4.160245418548584,4.14453125,0,A1,7.6,0,270.0,0.1959357426688643,[38600|0|0],start
32500,1.6763807535171509,1.1277154684066772,0.0,-0.408001959323883,0.9926438331604004,4.1434006690979,4.14453125,0,A1,7.6,0,270.0,0.1960829777240929,[38700|0|0],start
32600,1.6763309240341189,1.1275712251663208,0.0,-0.4035195410251617,0.98954176902771,4.165247917175293,4.14453125,0,A1,7.6,0,270.0,0.1962355853574792,[38800|0|0],start
32700,1.6765155792236328,1.127685785293579,0.0,-0.4060807526111603,0.9862110614776612,4.142687797546387,4.14453125,0,A1,7.6,0,270.0,0.1964528905846871,[38900|0|0],start
32800,1.6762142181396484,1.1276007890701294,0.0,-0.4079144597053528,0.9974008202552797,4.119350910186768,4.14453125,0,A1,7.6,0,270.0,0.1967660085511805,[39000|0|0],start
32900,1.676247477531433,1.1275287866592407,0.0,-0.4041545689105987,0.9893121719360352,4.125871181488037,4.14453125,0,A1,7.6,0,270.0,0.1968453214398914,[39100|0|0],start
33000,1.6761819124221802,1.1278561353683472,0.0,-0.4176539480686188,0.9987465739250184,4.134903430938721,4.14453125,0,A1,7.6,0,270.0,0.1971791716471775,[39200|0|0],start
33100,1.6764684915542605,1.127474069595337,0.0,-0.4062916338443756,0.9876549243927002,4.1364593505859375,4.14453125,0,A1,7.6,0,270.0,0.197656771745429,[39300|0|0],start
33200,1.6764343976974487,1.1276514530181885,0.0,-0.4098643958568573,0.9769389629364014,4.120384693145752,4.14453125,0,A1,7.6,0,270.0,0.197837401947153,[39400|0|0],start
33300,1.6760817766189575,1.1277748346328735,0.0,-0.4050194025039673,0.9834544658660888,4.129374027252197,4.14453125,0,A1,7.6,0,270.0,0.1982109854690575,[39500|0|0],start
33400,1.6763848066329956,1.1278998851776123,0.0,-0.403624951839447,0.97264963388443,4.138184070587158,4.14453125,0,A1,7.6,0,270.0,0.1985388037543123,[39600|0|0],start
33500,1.6761422157287598,1.1280453205108645,0.0,-0.4088651239871979,0.9748584628105164,4.152223587036133,4.14453125,0,A1,7.6,0,270.0,0.1988216496186556,[39700|0|0],start
33600,1.67627215385437,1.127800464630127,0.0,-0.4057688415050506,0.9676759839057922,4.1306986808776855,4.14453125,0,A1,7.6,0,270.0,0.1990988468748088,[39800|0|0],start
33700,1.6761765480041504,1.1277267932891846,0.0,-0.3965373039245605,0.9716900587081908,4.147881031036377,4.14453125,0,A1,7.6,0,270.0,0.1992195446174241,[39900|0|0],start
33800,1.6766626834869385,1.1278681755065918,0.0,-0.3964714705944061,0.9604377746582032,4.144966125488281,4.14453125,0,A1,7.6,0,270.0,0.1997258218527652,[40000|0|0],start
33900,1.676102638244629,1.127557635307312,0.0,-0.3908795714378357,0.9751788973808287,4.139411926269531,4.14453125,0,A1,7.6,0,270.0,0.2003662013408832,[40100|0|0],start
34000,1.676650881767273,1.1279305219650269,0.0,-0.4056579768657684,0.9542155861854552,4.093471527099609,4.14453125,0,A1,7.6,0,270.0,0.2010292363472161,[40200|0|0],start
34100,1.676532506942749,1.1276919841766355,0.0,-0.4054422676563263,0.969415545463562,4.082273006439209,4.14453125,0,A1,7.6,0,270.0,0.2012955310628447,[40300|0|0],start
34200,1.6766855716705322,1.1276118755340576,0.0,-0.4090269207954407,0.9635337591171264,4.094451904296875,4.14453125,0,A1,7.6,0,270.0,0.2014682916066822,[40400|0|0],start
34300,1.67653226852417,1.1275097131729126,0.0,-0.4083130657672882,0.9748313426971436,4.103634357452393,4.14453125,0,A1,7.6,0,270.0,0.2016525170194767,[40500|0|0],start
34400,1.6766046285629272,1.1273078918457031,0.0,-0.4077251255512237,0.983088195323944,4.111674308776856,4.14453125,0,A1,7.6,0,270.0,0.2018669180999906,[40600|0|0],start
34500,1.6764999628067017,1.128074288368225,0.0,-0.4265662729740143,0.9851223826408386,4.143505573272705,4.14453125,0,A1,7.6,0,270.0,0.2026404286366093,[40700|0|0],start
34600,1.6764583587646484,1.127682328224182,0.0,-0.411480575799942,0.9827139973640442,4.151219367980957,4.14453125,0,A1,7.6,0,270.0,0.2030345905967646,[40800|0|0],start
34700,1.6766730546951294,1.1276904344558716,0.0,-0.4138479232788086,0.978049337863922,4.158056259155273,4.14453125,0,A1,7.6,0,270.0,0.203249439505436,[40900|0|0],start
34800,1.6760525703430176,1.1277945041656494,0.0,-0.4149007797241211,0.9984411597251892,4.165457725524902,4.14453125,0,A1,7.6,0,270.0,0.203878590787489,[41000|0|0],start
34900,1.676122546195984,1.1276808977127075,0.0,-0.4111873805522918,0.99266517162323,4.1554155349731445,4.14453125,0,A1,7.6,0,270.0,0.2040120188435658,[41100|0|0],start
35000,1.676410436630249,1.127485990524292,0.0,-0.4028993248939514,0.978234052658081,4.147696018218994,4.14453125,0,A1,7.6,0,270.0,0.2043596820631293,[41200|0|0],start
35100,1.676416039466858,1.127522587776184,0.0,-0.3971608877182007,0.978604793548584,4.123867988586426,4.14453125,0,A1,7.6,0,270.0,0.2043967057126539,[41300|0|0],start
35200,1.676507592201233,1.1277202367782593,0.0,-0.4034014940261841,0.9799529314041138,4.131427764892578,4.14453125,0,A1,7.6,0,270.0,0.204614529107157,[41400|0|0],start
35300,1.6765456199645996,1.1277599334716797,0.0,-0.4025371670722961,0.982474446296692,4.128660678863525,4.14453125,0,A1,7.6,0,270.0,0.2046695012660666,[41500|0|0],start
35400,1.6763241291046145,1.127489686012268,0.0,-0.396089494228363,0.9819951057434082,4.148590564727783,4.14453125,0,A1,7.6,0,270.0,0.205018917765928,[41600|0|0],start
35500,1.6763403415679932,1.1277248859405518,0.0,-0.4082669913768768,0.978658139705658,4.120548248291016,4.14453125,0,A1,7.6,0,270.0,0.2052546757991601,[41700|0|0],start
