time.ms,stateEstimate.x,stateEstimate.y,stateEstimate.z,stabilizer.roll,stabilizer.pitch,stabilizer.yaw,pm.vbat,drone_id,node_name,wind_speed,global_wind_direction,relative_wind_direction,travel_dist,waiting_time,curr_node_role
0,1.6886674165725708,1.142450928688049,0.0,-0.3660377562046051,0.953487753868103,4.881040096282959,4.1484375,0,A1,7.6,90,270.0,0.0,[6200|0|0],start
100,1.6886918544769287,1.142348289489746,0.0,-0.363250583410263,0.9487457871437072,4.879992961883545,4.1484375,0,A1,7.6,90,270.0,0.0001055083702731,[6300|0|0],start
200,1.6883686780929563,1.142194747924805,0.0,-0.3658994734287262,0.9587182998657228,4.848926544189453,4.1484375,0,A1,7.6,90,270.0,0.0004633043838367,[6400|0|0],start
300,1.6887309551239014,1.142150640487671,0.0,-0.3667898774147033,0.9547942280769348,4.871055603027344,4.1484375,0,A1,7.6,90,270.0,0.0008282565905171,[6500|0|0],start
400,1.6889160871505735,1.142298698425293,0.0,-0.3691819310188293,0.9492680430412292,4.890482902526856,4.1484375,0,A1,7.6,90,270.0,0.0010653114790823,[6600|0|0],start
500,1.6884647607803345,1.1424211263656616,0.0,-0.3683714270591736,0.9580078125,4.880725860595703,4.1484375,0,A1,7.6,90,270.0,0.0015329481896345,[6700|0|0],start
600,1.6889864206314087,1.1426548957824707,0.0,-0.3740566074848175,0.9353708624839784,4.914205551147461,4.1484375,0,A1,7.6,90,270.0,0.0021045924325496,[6800|0|0],start
700,1.6885358095169067,1.142195463180542,0.0,-0.361421525478363,0.9519713521003724,4.901844024658203,4.1484375,0,A1,7.6,90,270.0,0.0027481207475659,[6900|0|0],start
800,1.6890053749084473,1.14240562915802,0.0,-0.361186534166336,0.9403836131095886,4.919217586517334,4.1484375,0,A1,7.6,90,270.0,0.0032625732672622,[7000|0|0],start
900,1.6887388229370115,1.1425145864486694,0.0,-0.3841267824172973,0.9375344514846802,4.918193817138672,4.1484375,0,A1,7.6,90,270.0,0.0035505344532959,[7100|0|0],start
1000,1.688801646232605,1.1421794891357422,0.0,-0.3669981658458709,0.9395490288734436,4.915340900421143,4.1484375,0,A1,7.6,90,270.0,0.0038914698952791,[7200|0|0],start
1100,1.6888610124588013,1.1423556804656982,0.0,-0.3646330833435058,0.9370359778404236,4.931856155395508,4.1484375,0,A1,7.6,90,270.0,0.0040773938947103,[7300|0|0],start
1200,1.68890643119812,1.1425795555114746,0.0,-0.3739750385284424,0.936278998851776,4.937953948974609,4.1484375,0,A1,7.6,90,270.0,0.0043058296581158,[7400|0|0],start
1300,1.6884698867797852,1.1422781944274902,0.0,-0.3727546632289886,0.9479244351387024,4.922291278839111,4.1484375,0,A1,7.6,90,270.0,0.0048362912798374,[7500|0|0],start
1400,1.6886967420578003,1.1425167322158811,0.0,-0.3813498914241791,0.942141592502594,4.9108171463012695,4.1484375,0,A1,7.6,90,270.0,0.0051654775396565,[7600|0|0],start
1500,1.6889592409133911,1.142330288887024,0.0,-0.3713364601135254,0.93660169839859,4.901989936828613,4.1484375,0,A1,7.6,90,270.0,0.0054874507746651,[7700|0|0],start
1600,1.6888079643249512,1.1423927545547483,0.0,-0.3773413598537445,0.9452010989189148,4.902680397033691,4.1484375,0,A1,7.6,90,270.0,0.0056511167939063,[7800|0|0],start
1700,1.688859939575195,1.1424721479415894,0.0,-0.3790484666824341,0.9465970396995544,4.930251598358154,4.1484375,0,A1,7.6,90,270.0,0.005746010084038,[7900|0|0],start
1800,1.6886208057403564,1.142606496810913,0.0,-0.3801833689212799,0.951801300048828,4.928039073944092,4.1484375,0,A1,7.6,90,270.0,0.0060202993650046,[8000|0|0],start
1900,1.6891242265701294,1.1423293352127075,0.0,-0.3672649264335632,0.9336384534835817,4.948482990264893,4.1484375,0,A1,7.6,90,270.0,0.0065949741281265,[8100|0|0],start
2000,1.6885484457015991,1.1423910856246948,0.0,-0.3662079274654388,0.9508655667304992,4.972566604614258,4.1484375,0,A1,7.6,90,270.0,0.0071740567836654,[8200|0|0],start
2100,1.6880435943603516,1.141698718070984,0.0,-0.3357038795948028,0.9608364105224608,4.962728977203369,4.1484375,0,A1,7.6,90,270.0,0.0080309393346553,[8300|0|0],start
2200,1.6887314319610596,1.1424663066864014,0.0,-0.3640033900737762,0.9391194581985474,4.967621803283691,4.1484375,0,A1,7.6,90,270.0,0.009061624954748,[8400|0|0],start
2300,1.6889276504516602,1.1421645879745483,0.0,-0.3590487539768219,0.9372234344482422,4.94516658782959,4.1484375,0,A1,7.6,90,270.0,0.0094215358841956,[8500|0|0],start
2400,1.6888306140899658,1.142478108406067,0.0,-0.3704960346221924,0.9431862235069276,4.935558319091797,4.1484375,0,A1,7.6,90,270.0,0.0097497296020977,[8600|0|0],start
2500,1.6889410018920898,1.142564058303833,0.0,-0.3699072599411011,0.9391935467720032,4.949881553649902,4.1484375,0,A1,7.6,90,270.0,0.009889632610585,[8700|0|0],start
2600,1.6879770755767822,1.141912579536438,0.0,-0.3468901216983795,0.9661535620689392,4.892216682434082,4.1484375,0,A1,7.6,90,270.0,0.0110530665475617,[8800|0|0],start
2700,1.6880892515182495,1.1421114206314087,0.0,-0.3509555160999298,0.968590259552002,4.865508079528809,4.1484375,0,A1,7.6,90,270.0,0.0112813672766302,[8900|0|0],start
2800,1.688178300857544,1.1416620016098022,0.0,-0.3364569544792175,0.968603491783142,4.859457492828369,4.1484375,0,A1,7.6,90,270.0,0.0117395236274652,[9000|0|0],start
2900,1.687955617904663,1.1417378187179563,0.0,-0.3445118963718414,0.96615731716156,4.872332572937012,4.1484375,0,A1,7.6,90,270.0,0.0119747595332972,[9100|0|0],start
3000,1.688207983970642,1.14202618598938,0.0,-0.348771184682846,0.9633846879005432,4.8695478439331055,4.1484375,0,A1,7.6,90,270.0,0.0123579622400806,[9200|0|0],start
3100,1.6881349086761477,1.1423473358154297,0.0,-0.3539552092552185,0.9746730923652648,4.882106304168701,4.1484375,0,A1,7.6,90,270.0,0.0126873210253545,[9300|0|0],start
3200,1.6882045269012451,1.1418708562850952,0.0,-0.3435421586036682,0.9843482375144958,4.913549900054932,4.1484375,0,A1,7.6,90,270.0,0.0131688596428022,[9400|0|0],start
3300,1.6880369186401367,1.141969084739685,0.0,-0.3474396467208862,0.9866145849227904,4.926493644714356,4.1484375,0,A1,7.6,90,270.0,0.01336313099551,[9500|0|0],start
3400,1.6881062984466553,1.1418490409851074,0.0,-0.3431588113307953,0.9881301522254944,4.965755939483643,4.1484375,0,A1,7.6,90,270.0,0.0135017818540203,[9600|0|0],start
3500,1.6881170272827148,1.141867995262146,0.0,-0.3422805070877075,0.9867349863052368,4.953108787536621,4.1484375,0,A1,7.6,90,270.0,0.0135235619490901,[9700|0|0],start
3600,1.6880786418914795,1.141827940940857,0.0,-0.3379656970500946,0.9873772263526917,4.961003303527832,4.1484375,0,A1,7.6,90,270.0,0.0135790397546903,[9800|0|0],start
3700,1.6879907846450806,1.141843318939209,0.0,-0.339367002248764,0.9915199279785156,4.911068439483643,4.1484375,0,A1,7.6,90,270.0,0.0136682326836596,[9900|0|0],start
3801,1.687948226928711,1.14187753200531,0.0,-0.3417076766490936,0.996454417705536,4.902968883514404,4.1484375,0,A1,7.6,90,270.0,0.0137228375654435,[10000|0|0],start
3901,1.6880780458450315,1.1418439149856567,0.0,-0.3400594592094421,0.990425705909729,4.9250335693359375,4.1484375,0,A1,7.6,90,270.0,0.0138569384791056,[10100|0|0],start
4001,1.6879031658172607,1.142019510269165,0.0,-0.3425149321556091,0.9957931637763976,4.914444446563721,4.1484375,0,A1,7.6,90,270.0,0.0141047624644328,[10200|0|0],start
4101,1.6883866786956787,1.1419581174850464,0.0,-0.342958003282547,0.983752191066742,4.947363376617432,4.1484375,0,A1,7.6,90,270.0,0.01459215735314,[10300|0|0],start
4201,1.6880223751068115,1.1418720483779907,0.0,-0.3437390923500061,0.992825984954834,4.932854652404785,4.1484375,0,A1,7.6,90,270.0,0.01496649008755,[10400|0|0],start
4301,1.6881459951400757,1.1414506435394287,0.0,-0.3425971567630768,0.9936540722846984,4.913480281829834,4.1484375,0,A1,7.6,90,270.0,0.0154056528712507,[10500|0|0],start
4401,1.6880995035171509,1.142148733139038,0.0,-0.3576911687850952,0.9954419732093812,4.922943592071533,4.1484375,0,A1,7.6,90,270.0,0.0161052888909673,[10600|0|0],start
4501,1.6879582405090332,1.141559362411499,0.0,-0.3519463539123535,0.988728404045105,4.903124809265137,4.1484375,0,A1,7.6,90,270.0,0.0167113524948427,[10700|0|0],start
4601,1.6880433559417725,1.1416661739349363,0.0,-0.3493188917636871,0.984738290309906,4.889330863952637,4.1484375,0,A1,7.6,90,270.0,0.0168479297199916,[10800|0|0],start
4701,1.6882826089859009,1.1415966749191284,0.0,-0.3496850430965423,0.9804065823554992,4.90390157699585,4.1484375,0,A1,7.6,90,270.0,0.0170970725150369,[10900|0|0],start
4802,1.6881155967712402,1.14154851436615,0.0,-0.3447245955467224,0.9898808002471924,4.875807762145996,4.1484375,0,A1,7.6,90,270.0,0.0172708900018127,[11000|0|0],start
4902,1.6879980564117432,1.1417157649993896,0.0,-0.3549074828624725,0.9872576594352722,4.862696647644043,4.1484375,0,A1,7.6,90,270.0,0.0174753123842217,[11100|0|0],start
5001,1.6877211332321167,1.1420143842697144,0.0,-0.3718444108963012,0.9892539381980896,4.863523483276367,4.1484375,0,A1,7.6,90,270.0,0.0178825714123889,[11200|0|0],start
5102,1.6882730722427368,1.1419398784637451,0.0,-0.3659316599369049,0.969331443309784,4.885698318481445,4.1484375,0,A1,7.6,90,270.0,0.0184395164604569,[11300|0|0],start
5202,1.6877537965774536,1.1420682668685913,0.0,-0.368412971496582,0.9763936400413512,4.860673427581787,4.1484375,0,A1,7.6,90,270.0,0.018974428414945,[11400|0|0],start
5302,1.6880145072937012,1.1418131589889526,0.0,-0.3573846518993377,0.963426411151886,4.8932414054870605,4.1484375,0,A1,7.6,90,270.0,0.0193391887579376,[11500|0|0],start
5402,1.6879057884216309,1.141887903213501,0.0,-0.3601874411106109,0.965764343738556,4.885249614715576,4.1484375,0,A1,7.6,90,270.0,0.0194711224240261,[11600|0|0],start
5500,1.6882237195968628,1.141946792602539,0.0,-0.3626384139060974,0.9604886770248412,4.9159040451049805,4.1484375,0,A1,7.6,90,270.0,0.0197944615530001,[11700|0|0],start
5600,1.6881284713745115,1.1419342756271362,0.0,-0.3646691143512726,0.9620001912117004,4.920989036560059,4.1484375,0,A1,7.6,90,270.0,0.0198905287093769,[11800|0|0],start
5700,1.6882529258728027,1.1415386199951172,0.0,-0.3548108041286468,0.9556323885917664,4.919097423553467,4.1484375,0,A1,7.6,90,270.0,0.0203052964772824,[11900|0|0],start
5800,1.6878902912139893,1.1418426036834717,0.0,-0.3647819459438324,0.9656807780265808,4.920770645141602,4.1484375,0,A1,7.6,90,270.0,0.0207784877478679,[12000|0|0],start
5900,1.68798828125,1.1419355869293213,0.0,-0.3678690493106842,0.9574229121208192,4.920177936553955,4.1484375,0,A1,7.6,90,270.0,0.0209135726514142,[12100|0|0],start
6000,1.6881543397903442,1.1421960592269895,0.0,-0.3681998550891876,0.9549976587295532,4.913988590240479,4.1484375,0,A1,7.6,90,270.0,0.0212224759642385,[12200|0|0],start
6100,1.6879125833511353,1.1415752172470093,0.0,-0.3480121493339538,0.964291512966156,4.906546115875244,4.1484375,0,A1,7.6,90,270.0,0.0218887273732463,[12300|0|0],start
6200,1.687973141670227,1.1415797472000122,0.0,-0.3475024402141571,0.963115930557251,4.910438537597656,4.1484375,0,A1,7.6,90,270.0,0.0219494548833667,[12400|0|0],start
6300,1.6881033182144165,1.141756534576416,0.0,-0.3510985374450683,0.9607691764831544,4.927381038665772,4.1484375,0,A1,7.6,90,270.0,0.0221689992048894,[12500|0|0],start
6400,1.688069224357605,1.1417890787124634,0.0,-0.3478375375270843,0.9587541222572328,4.904557704925537,4.1484375,0,A1,7.6,90,270.0,0.0222161321218727,[12600|0|0],start
6500,1.68798828125,1.141999363899231,0.0,-0.3626591861248016,0.9557560086250304,4.912709712982178,4.1484375,0,A1,7.6,90,270.0,0.022441457767201,[12700|0|0],start
6600,1.6879184246063232,1.141772747039795,0.0,-0.3546992838382721,0.9616765975952148,4.892849922180176,4.1484375,0,A1,7.6,90,270.0,0.0226785972865698,[12800|0|0],start
6700,1.6882132291793823,1.1420607566833496,0.0,-0.3535737991333008,0.950616419315338,4.906157493591309,4.1484375,0,A1,7.6,90,270.0,0.0230907371791755,[12900|0|0],start
6800,1.6879690885543823,1.1419543027877808,0.0,-0.344321995973587,0.9625175595283508,4.900238990783691,4.1484375,0,A1,7.6,90,270.0,0.023357077331344,[13000|0|0],start
6900,1.6880340576171875,1.141615629196167,0.0,-0.3343770205974579,0.9565988779067992,4.888593673706055,4.1484375,0,A1,7.6,90,270.0,0.0237019262559159,[13100|0|0],start
7000,1.6883480548858645,1.1417222023010254,0.0,-0.3389223217964172,0.9466329216957092,4.882551193237305,4.1484375,0,A1,7.6,90,270.0,0.0240335165323351,[13200|0|0],start
7100,1.688117742538452,1.141654372215271,0.0,-0.3445046842098236,0.9586289525032043,4.881410598754883,4.1484375,0,A1,7.6,90,270.0,0.0242736096349102,[13300|0|0],start
7200,1.6882632970809937,1.1418622732162476,0.0,-0.3565157651901245,0.9569715857505798,4.87708044052124,4.1484375,0,A1,7.6,90,270.0,0.0245273988211683,[13400|0|0],start
7300,1.6880937814712524,1.142207145690918,0.0,-0.3632386326789856,0.9669403433799744,4.859440803527832,4.1484375,0,A1,7.6,90,270.0,0.0249116807043365,[13500|0|0],start
7400,1.6882492303848269,1.1417545080184937,0.0,-0.3546613156795501,0.9580994844436646,4.893152713775635,4.1484375,0,A1,7.6,90,270.0,0.0253902674020509,[13600|0|0],start
7500,1.6880394220352173,1.1418534517288208,0.0,-0.3487195968627929,0.9617584347724916,4.904068946838379,4.1484375,0,A1,7.6,90,270.0,0.0256222359373724,[13700|0|0],start
7600,1.6883666515350342,1.1419401168823242,0.0,-0.3515641391277313,0.9587419629096984,4.899543285369873,4.1484375,0,A1,7.6,90,270.0,0.0259607473764438,[13800|0|0],start
7700,1.688032627105713,1.1421939134597778,0.0,-0.3565381467342376,0.974199652671814,4.88707971572876,4.1484375,0,A1,7.6,90,270.0,0.0263802530642605,[13900|0|0],start
7800,1.6880549192428589,1.141622543334961,0.0,-0.3469673097133636,0.9790624976158142,4.874426364898682,4.1484375,0,A1,7.6,90,270.0,0.0269520578901511,[14000|0|0],start
7900,1.6879886388778689,1.1417582035064695,0.0,-0.3495456278324127,0.9824882745742798,4.872410297393799,4.1484375,0,A1,7.6,90,270.0,0.0271030438792923,[14100|0|0],start
8000,1.6880557537078855,1.142146348953247,0.0,-0.3533342778682709,0.9776479601860046,4.891894340515137,4.1484375,0,A1,7.6,90,270.0,0.027496949056032,[14200|0|0],start
8100,1.6883059740066528,1.1417551040649414,0.0,-0.3454993963241577,0.966502010822296,4.870558261871338,4.1484375,0,A1,7.6,90,270.0,0.0279613656368519,[14300|0|0],start
8200,1.6879445314407349,1.1416651010513306,0.0,-0.3439508378505707,0.9741583466529846,4.877880573272705,4.1484375,0,A1,7.6,90,270.0,0.0283338455301568,[14400|0|0],start
8300,1.6879554986953735,1.141648530960083,0.0,-0.3467141985893249,0.977294385433197,4.868956089019775,4.1484375,0,A1,7.6,90,270.0,0.028353716327782,[14500|0|0],start
8400,1.6878703832626345,1.1420531272888184,0.0,-0.3555783331394195,0.9768401384353638,4.904974937438965,4.1484375,0,A1,7.6,90,270.0,0.0287671686540743,[14600|0|0],start
8500,1.6881093978881836,1.141875982284546,0.0,-0.3597641885280609,0.9681617617607116,4.91160774230957,4.1484375,0,A1,7.6,90,270.0,0.0290646721729863,[14700|0|0],start
8600,1.6880435943603516,1.141842484474182,0.0,-0.3574195802211761,0.9790176749229432,4.932514667510986,4.1484375,0,A1,7.6,90,270.0,0.0291385112383537,[14800|0|0],start
8700,1.688219666481018,1.1418964862823486,0.0,-0.3565124273300171,0.9766160249710084,4.946699619293213,4.1484375,0,A1,7.6,90,270.0,0.0293226785181872,[14900|0|0],start
8800,1.6880735158920288,1.1416985988616943,0.0,-0.3514093458652496,0.9809041023254396,4.931692600250244,4.1484375,0,A1,7.6,90,270.0,0.0295686854813308,[15000|0|0],start
8900,1.6879465579986572,1.1416479349136353,0.0,-0.3580420613288879,0.9772042632102966,4.905221939086914,4.1484375,0,A1,7.6,90,270.0,0.0297053790887975,[15100|0|0],start
9000,1.6883740425109863,1.1415563821792605,0.0,-0.3511169552803039,0.968961238861084,4.875295162200928,4.1484375,0,A1,7.6,90,270.0,0.0301425574407922,[15200|0|0],start
9100,1.6882139444351196,1.1418030261993408,0.0,-0.3552154004573822,0.970604419708252,4.879660129547119,4.1484375,0,A1,7.6,90,270.0,0.0304366061893656,[15300|0|0],start
9200,1.6883162260055542,1.141646146774292,0.0,-0.3478279411792755,0.9695690870285034,4.915889739990234,4.1484375,0,A1,7.6,90,270.0,0.0306238831864961,[15400|0|0],start
9300,1.688236951828003,1.1415398120880127,0.0,-0.3478085398674011,0.974913477897644,4.8986496925354,4.1484375,0,A1,7.6,90,270.0,0.0307565159906305,[15500|0|0],start
9400,1.6878948211669922,1.1417322158813477,0.0,-0.3562358021736145,0.9870975017547609,4.860088348388672,4.1484375,0,A1,7.6,90,270.0,0.0311490368294319,[15600|0|0],start
9500,1.6881697177886963,1.141651272773743,0.0,-0.3568788170814514,0.98236083984375,4.895218849182129,4.1484375,0,A1,7.6,90,270.0,0.0314356025972637,[15700|0|0],start
9600,1.6882823705673218,1.1419146060943604,0.0,-0.3610774874687195,0.98288756608963,4.911258220672607,4.1484375,0,A1,7.6,90,270.0,0.0317220202752786,[15800|0|0],start
9700,1.6882306337356567,1.1417070627212524,0.0,-0.3487190902233124,0.9880298376083374,4.920140266418457,4.1484375,0,A1,7.6,90,270.0,0.0319359149958113,[15900|0|0],start
9800,1.688117265701294,1.1419250965118408,0.0,-0.3608264327049255,0.9867053031921388,4.882895469665527,4.1484375,0,A1,7.6,90,270.0,0.0321816608911048,[16000|0|0],start
9900,1.6884963512420654,1.1417063474655151,0.0,-0.3560484051704407,0.9772934913635254,4.86552619934082,4.1484375,0,A1,7.6,90,270.0,0.0326193331343307,[16100|0|0],start
10000,1.6880799531936646,1.1416504383087158,0.0,-0.3514203429222107,0.9934024810791016,4.875845432281494,4.1484375,0,A1,7.6,90,270.0,0.0330394678371655,[16200|0|0],start
10100,1.6882665157318115,1.1417641639709473,0.0,-0.3534852266311645,0.9909436702728271,4.8779401779174805,4.1484375,0,A1,7.6,90,270.0,0.0332579606445753,[16300|0|0],start
10200,1.6880183219909668,1.141377568244934,0.0,-0.3417049944400787,0.9973914623260498,4.866137027740479,4.1484375,0,A1,7.6,90,270.0,0.0337173693823744,[16400|0|0],start
10300,1.6879256963729858,1.141899347305298,0.0,-0.3629996180534363,0.9904925227165222,4.863694667816162,4.1484375,0,A1,7.6,90,270.0,0.0342473060700463,[16500|0|0],start
10400,1.6880065202713013,1.1416131258010864,0.0,-0.355324387550354,0.9846820831298828,4.830294609069824,4.1484375,0,A1,7.6,90,270.0,0.0345447203467919,[16600|0|0],start
10500,1.68834388256073,1.141923904418945,0.0,-0.3657912015914917,0.9687349796295166,4.86182975769043,4.1484375,0,A1,7.6,90,270.0,0.0350034105076268,[16700|0|0],start
10600,1.688049554824829,1.1412396430969238,0.0,-0.3483480811119079,0.981591820716858,4.876165390014648,4.1484375,0,A1,7.6,90,270.0,0.0357482879290424,[16800|0|0],start
10700,1.6880168914794922,1.1417042016983032,0.0,-0.3615142107009887,0.9798495173454284,4.887374401092529,4.1484375,0,A1,7.6,90,270.0,0.0362139934027532,[16900|0|0],start
10800,1.6878565549850464,1.141731023788452,0.0,-0.3649174273014068,0.9788405299186708,4.866421222686768,4.1484375,0,A1,7.6,90,270.0,0.0363765579006336,[17000|0|0],start
10900,1.6880950927734375,1.1420384645462036,0.0,-0.3702687621116638,0.9674656987190248,4.861231803894043,4.1484375,0,A1,7.6,90,270.0,0.0367656852525603,[17100|0|0],start
11000,1.6880106925964355,1.1417590379714966,0.0,-0.360578328371048,0.9751981496810912,4.876889705657959,4.1484375,0,A1,7.6,90,270.0,0.0370575800975481,[17200|0|0],start
11100,1.6880240440368652,1.1416701078414917,0.0,-0.3577456474304199,0.9752418994903564,4.885890007019043,4.1484375,0,A1,7.6,90,270.0,0.0371475068954686,[17300|0|0],start
11200,1.6882554292678833,1.1415212154388428,0.0,-0.3581324815750122,0.9766957759857178,4.876981258392334,4.1484375,0,A1,7.6,90,270.0,0.0374226578952848,[17400|0|0],start
11300,1.6879538297653198,1.1418137550354004,0.0,-0.3665879666805267,0.9843663573265076,4.889796733856201,4.1484375,0,A1,7.6,90,270.0,0.0378428265227436,[17500|0|0],start
11400,1.688271403312683,1.1417686939239502,0.0,-0.3652378916740417,0.968945324420929,4.910043239593506,4.1484375,0,A1,7.6,90,270.0,0.0381635810421974,[17600|0|0],start
11500,1.6882569789886477,1.1419997215270996,0.0,-0.3688172399997711,0.9703531861305236,4.884651184082031,4.1484375,0,A1,7.6,90,270.0,0.0383950585023114,[17700|0|0],start
11600,1.6878986358642578,1.1417405605316162,0.0,-0.3651062548160553,0.9751254320144652,4.846636772155762,4.1484375,0,A1,7.6,90,270.0,0.0388372962397077,[17800|0|0],start
11700,1.688030242919922,1.1421867609024048,0.0,-0.3751613795757293,0.9752820134162904,4.847836017608643,4.1484375,0,A1,7.6,90,270.0,0.0393025006979758,[17900|0|0],start
11800,1.6893137693405151,1.1420507431030271,0.0,-0.3504521250724792,0.9106994867324828,4.807714462280273,4.1484375,0,A1,7.6,90,270.0,0.0405932140333481,[18000|0|0],start
11900,1.6897310018539429,1.142496109008789,0.0,-0.3351853191852569,0.906753957271576,4.818759441375732,4.1484375,0,A1,7.6,90,270.0,0.0412034875460262,[18100|0|0],start
12000,1.690487265586853,1.143112063407898,0.0,-0.3469725549221039,0.8910918235778809,4.845670223236084,4.1484375,0,A1,7.6,90,270.0,0.0421788514040283,[18200|0|0],start
12100,1.6913777589797974,1.142788052558899,0.0,-0.3288359642028808,0.8835968971252441,4.845388889312744,4.1484375,0,A1,7.6,90,270.0,0.0431264597161207,[18300|0|0],start
12200,1.692302942276001,1.1428813934326172,0.0,-0.3328032195568084,0.8781527876853943,4.841887950897217,4.1484375,0,A1,7.6,90,270.0,0.0440563396278731,[18400|0|0],start
12300,1.692905306816101,1.1423457860946655,0.0,-0.2975127398967743,0.8978656530380249,4.859822750091553,4.1484375,0,A1,7.6,90,270.0,0.0448623906558097,[18500|0|0],start
12400,1.693775296211243,1.142202615737915,0.0,-0.2902726233005523,0.8971152305603027,4.871316909790039,4.1484375,0,A1,7.6,90,270.0,0.045744081814159,[18600|0|0],start
12500,1.694133996963501,1.1423370838165283,0.0,-0.2993732988834381,0.8987889289855957,4.916280269622803,4.1484375,0,A1,7.6,90,270.0,0.0461271586913474,[18700|0|0],start
12600,1.6939319372177124,1.1421165466308594,0.0,-0.290942370891571,0.9026516079902648,4.92039966583252,4.1484375,0,A1,7.6,90,270.0,0.0464262653464572,[18800|0|0],start
12700,1.6928507089614868,1.1423834562301636,0.0,-0.3207278549671173,0.9122791886329652,4.925931930541992,4.1484375,0,A1,7.6,90,270.0,0.0475399507940865,[18900|0|0],start
12800,1.6906919479370115,1.1427937746047974,0.0,-0.3364870846271515,0.9254956245422364,4.930047988891602,4.1484375,0,A1,7.6,90,270.0,0.0497373607079068,[19000|0|0],start
12900,1.686368107795715,1.1434296369552612,0.0,-0.3508707582950592,0.951634168624878,4.934628009796143,4.14453125,0,A1,7.6,90,270.0,0.0541077056023314,[19100|0|0],start
13000,1.6814377307891846,1.1438710689544678,0.0,-0.3500340580940246,0.9708226323127748,4.976675510406494,4.1484375,0,A1,7.6,90,270.0,0.059057804554519,[19200|0|0],start
13100,1.673146367073059,1.145078420639038,0.0,-0.3657308220863342,1.005278468132019,4.9781813621521,4.1484375,0,A1,7.6,90,270.0,0.0674366117705443,[19300|0|0],start
13200,1.665488600730896,1.1460473537445068,0.0,-0.362370878458023,1.0072849988937378,4.9642653465271,4.1484375,0,A1,7.6,90,270.0,0.0751554340067432,[19400|0|0],start
13300,1.652007222175598,1.148357629776001,0.0,-0.402007520198822,1.0360558032989502,4.958615303039551,4.1484375,0,A1,7.6,90,270.0,0.0888333338123766,[19500|0|0],start
13400,1.6358957290649414,1.1502981185913086,0.0021997659932821,-0.380747526884079,1.0791921615600586,4.982281684875488,4.1484375,0,A1,7.6,90,270.0,0.105209678872318,[19600|0|0],start
13500,1.6190214157104492,1.152606725692749,0.0116869434714317,-0.3814378380775451,1.1047797203063965,4.9936842918396,4.1484375,0,A1,7.6,90,270.0,0.1247052849012755,[19700|0|0],start
13600,1.5989933013916016,1.1554161310195925,0.0230581201612949,-0.3905920088291168,1.1278212070465088,5.006626129150391,4.1484375,0,A1,7.6,90,270.0,0.1479070473509563,[19800|0|0],start
13700,1.5798847675323486,1.1582412719726562,0.0346351563930511,-0.393579751253128,1.1302087306976318,5.009435176849365,4.1484375,0,A1,7.6,90,270.0,0.1704269331314457,[19900|0|0],start
13800,1.689871072769165,1.14243483543396,0.0,-0.3154172897338867,0.8463271260261536,4.897204399108887,4.1484375,0,A1,7.6,90,270.0,0.2868160427339729,[20000|0|0],start
13900,1.6884315013885498,1.141434907913208,0.0,-0.3470798432826996,0.9941630363464355,4.897974967956543,4.1484375,0,A1,7.6,90,270.0,0.2885688179068469,[20100|0|0],start
14000,1.688425064086914,1.1414990425109863,0.0,-0.3683210611343384,1.006602764129639,4.903193473815918,4.1484375,0,A1,7.6,90,270.0,0.2886332747566345,[20200|0|0],start
14100,1.6882758140563965,1.1417841911315918,0.0,-0.39664426445961,1.0181832313537598,4.885565757751465,4.1484375,0,A1,7.6,90,270.0,0.2889551214708366,[20300|0|0],start
14200,1.6881303787231443,1.141664981842041,0.0,-0.4059688448905945,1.0242714881896973,4.8978376388549805,4.1484375,0,A1,7.6,90,270.0,0.2891431701104844,[20400|0|0],start
14300,1.6880797147750854,1.1415876150131226,0.0,-0.4183051288127899,1.0236057043075562,4.877602577209473,4.14453125,0,A1,7.6,90,270.0,0.28923564963173,[20500|0|0],start
14400,1.6880772113800049,1.1417416334152222,0.0,-0.426634281873703,1.0198112726211548,4.852544784545898,4.1484375,0,A1,7.6,90,270.0,0.2893896883774151,[20600|0|0],start
14500,1.6882286071777344,1.1417205333709717,0.0,-0.4210214018821716,1.0130048990249634,4.861150741577148,4.1484375,0,A1,7.6,90,270.0,0.2895425474610102,[20700|0|0],start
14600,1.6879539489746094,1.1417738199234009,0.0,-0.4173595011234283,1.0107383728027344,4.868204593658447,4.1484375,0,A1,7.6,90,270.0,0.2898223269906646,[20800|0|0],start
14700,1.6880450248718262,1.141735315322876,0.0,-0.4103111326694488,1.0020405054092407,4.881089210510254,4.1484375,0,A1,7.6,90,270.0,0.2899212078448044,[20900|0|0],start
14800,1.6883519887924194,1.141610622406006,0.0,-0.4057312905788421,0.9919142723083496,4.897355079650879,4.1484375,0,A1,7.6,90,270.0,0.2902525312096061,[21000|0|0],start
14900,1.688013792037964,1.1415823698043823,0.0,-0.4022967517375946,0.9956128001213074,4.893059253692627,4.1484375,0,A1,7.6,90,270.0,0.290591906008645,[21100|0|0],start
15000,1.6880366802215576,1.141782522201538,0.0,-0.403790682554245,0.9863814115524292,4.875880241394043,4.1484375,0,A1,7.6,90,270.0,0.2907933628304093,[21200|0|0],start
15100,1.6882432699203491,1.1418956518173218,0.0,-0.3994181156158447,0.9742710590362548,4.878695011138916,4.1484375,0,A1,7.6,90,270.0,0.2910288996929471,[21300|0|0],start
15200,1.688269019126892,1.142107009887695,0.0,-0.393803060054779,0.9732744693756104,4.869801998138428,4.1484375,0,A1,7.6,90,270.0,0.2912418204658875,[21400|0|0],start
15300,1.688130259513855,1.141465187072754,0.0,-0.3729588091373443,0.981313169002533,4.888473987579346,4.1484375,0,A1,7.6,90,270.0,0.2918984716335475,[21500|0|0],start
15400,1.688319444656372,1.1419742107391355,0.0,-0.3880951106548309,0.9681686162948608,4.893045425415039,4.1484375,0,A1,7.6,90,270.0,0.2924415150121884,[21600|0|0],start
15500,1.688314437866211,1.1416065692901611,0.0,-0.3707163631916046,0.972369372844696,4.912386417388916,4.14453125,0,A1,7.6,90,270.0,0.2928091905525113,[21700|0|0],start
15600,1.6881874799728394,1.1415785551071167,0.0,-0.3688566386699676,0.976791501045227,4.90892219543457,4.14453125,0,A1,7.6,90,270.0,0.2929392024794295,[21800|0|0],start
15700,1.688110113143921,1.1420315504074097,0.0,-0.3723296523094177,0.9719020128250122,4.893107891082764,4.14453125,0,A1,7.6,90,270.0,0.2933987570118894,[21900|0|0],start
15800,1.6882996559143066,1.1418966054916382,0.0,-0.3649139404296875,0.9693453907966614,4.876267433166504,4.1484375,0,A1,7.6,90,270.0,0.2936314297264437,[22000|0|0],start
15900,1.688297152519226,1.141547441482544,0.0,-0.3504556119441986,0.9670795202255248,4.910446643829346,4.1484375,0,A1,7.6,90,270.0,0.2939806027096965,[22100|0|0],start
16000,1.6883326768875122,1.1420077085494995,0.0,-0.3619046211242676,0.9663053154945374,4.8992533683776855,4.1484375,0,A1,7.6,90,270.0,0.2944422386633072,[22200|0|0],start
16100,1.6880942583084106,1.141664743423462,0.0,-0.354269415140152,0.9667236804962158,4.889188766479492,4.1484375,0,A1,7.6,90,270.0,0.2948599329253444,[22300|0|0],start
16200,1.6881005764007568,1.14156174659729,0.0,-0.352643221616745,0.969100832939148,4.859763622283936,4.14453125,0,A1,7.6,90,270.0,0.2949631233536426,[22400|0|0],start
16300,1.6880472898483276,1.141636610031128,0.0,-0.3669100403785705,0.9582138061523438,4.883683681488037,4.1484375,0,A1,7.6,90,270.0,0.2950550145414453,[22500|0|0],start
16400,1.6881812810897827,1.1414154767990112,0.0,-0.3518337905406952,0.9587460160255432,4.906976222991943,4.14453125,0,A1,7.6,90,270.0,0.2953135750936049,[22600|0|0],start
16500,1.6880123615264893,1.1414955854415894,0.0,-0.3555296957492828,0.9674134254455566,4.8855156898498535,4.14453125,0,A1,7.6,90,270.0,0.2955005275300131,[22700|0|0],start
16600,1.6880265474319458,1.1417001485824585,0.0,-0.3626920282840729,0.967134654521942,4.872459888458252,4.1484375,0,A1,7.6,90,270.0,0.2957055819581922,[22800|0|0],start
16700,1.6879757642745972,1.1416378021240234,0.0,-0.3619840741157532,0.9611015915870668,4.840474605560303,4.14453125,0,A1,7.6,90,270.0,0.2957859934620315,[22900|0|0],start
16800,1.6879669427871704,1.1415780782699585,0.0,-0.3660712540149688,0.9665438532829284,4.8404154777526855,4.14453125,0,A1,7.6,90,270.0,0.2958463652881161,[23000|0|0],start
16900,1.688437819480896,1.1419363021850586,0.0,-0.3690097630023956,0.964930534362793,4.84433126449585,4.1484375,0,A1,7.6,90,270.0,0.2964380148753242,[23100|0|0],start
17000,1.6881040334701538,1.141443133354187,0.0,-0.3568959534168243,0.973818838596344,4.872700214385986,4.1484375,0,A1,7.6,90,270.0,0.2970335218834362,[23200|0|0],start
17100,1.6879477500915527,1.1418440341949463,0.0,-0.3671053946018219,0.9720133543014526,4.856618881225586,4.14453125,0,A1,7.6,90,270.0,0.2974638078099414,[23300|0|0],start
17200,1.688417911529541,1.1416404247283936,0.0,-0.3574718534946441,0.9623713493347168,4.884283065795898,4.1484375,0,A1,7.6,90,270.0,0.2979761637337298,[23400|0|0],start
17300,1.6884621381759644,1.1417901515960691,0.0,-0.3571221828460693,0.9647361040115356,4.894196510314941,4.1484375,0,A1,7.6,90,270.0,0.298132285901143,[23500|0|0],start
17400,1.6882541179656982,1.1417723894119265,0.0,-0.3720564842224121,0.9656394124031068,4.904585361480713,4.14453125,0,A1,7.6,90,270.0,0.2983410630624051,[23600|0|0],start
17500,1.688080668449402,1.1417909860610962,0.0,-0.365039199590683,0.9745524525642396,4.901437282562256,4.1484375,0,A1,7.6,90,270.0,0.2985155066637888,[23700|0|0],start
17600,1.6882779598236084,1.142111897468567,0.0,-0.3698691427707672,0.9650499820709229,4.898331165313721,4.1484375,0,A1,7.6,90,270.0,0.298892213469914,[23800|0|0],start
17700,1.688300609588623,1.1415151357650757,0.0,-0.3629398941993713,0.9607964754104614,4.895652770996094,4.14453125,0,A1,7.6,90,270.0,0.2994894048484594,[23900|0|0],start
17800,1.6883379220962524,1.1415870189666748,0.0,-0.3559648394584656,0.9652283191680908,4.894960880279541,4.1484375,0,A1,7.6,90,270.0,0.2995703950818072,[24000|0|0],start
17900,1.688055396080017,1.1418852806091309,0.0,-0.3700176179409027,0.9764094352722168,4.905153274536133,4.1484375,0,A1,7.6,90,270.0,0.2999812246781247,[24100|0|0],start
18000,1.687858819961548,1.14178204536438,0.0,-0.3651815354824066,0.9870004057884216,4.870415687561035,4.1484375,0,A1,7.6,90,270.0,0.300203260004393,[24200|0|0],start
18100,1.688088059425354,1.141460657119751,0.0,-0.3539654910564422,0.9811121225357056,4.861782550811768,4.14453125,0,A1,7.6,90,270.0,0.3005980271959779,[24300|0|0],start
18200,1.6883732080459597,1.1416600942611694,0.0,-0.3595357239246368,0.9722327589988708,4.882725715637207,4.14453125,0,A1,7.6,90,270.0,0.3009459997656016,[24400|0|0],start
18300,1.6883010864257812,1.141562581062317,0.0,-0.3543696701526642,0.9813775420188904,4.874935626983643,4.14453125,0,A1,7.6,90,270.0,0.3010672860057429,[24500|0|0],start
18400,1.6880275011062622,1.14189875125885,0.0,-0.3601069748401642,0.9838922023773192,4.896377086639404,4.14453125,0,A1,7.6,90,270.0,0.3015007134253803,[24600|0|0],start
18500,1.6881097555160522,1.1416513919830322,0.0,-0.3554711043834686,0.9811235070228576,4.924218654632568,4.1484375,0,A1,7.6,90,270.0,0.3017613902353636,[24700|0|0],start
18600,1.6880754232406616,1.1416833400726318,0.0,-0.3569134175777435,0.9769302010536194,4.927631855010986,4.1484375,0,A1,7.6,90,270.0,0.3018082878425793,[24800|0|0],start
18700,1.6881803274154663,1.141695857048035,0.0,-0.3582798838615417,0.9796345829963684,4.903072357177734,4.1484375,0,A1,7.6,90,270.0,0.3019139361296676,[24900|0|0],start
18800,1.6881290674209597,1.1416606903076172,0.0,-0.3675497770309448,0.9832624793052672,4.897735595703125,4.14453125,0,A1,7.6,90,270.0,0.3019760995165479,[25000|0|0],start
18900,1.6883761882781982,1.1418499946594238,0.0,-0.372808963060379,0.9848349094390868,4.90956449508667,4.14453125,0,A1,7.6,90,270.0,0.3022873949641459,[25100|0|0],start
19000,1.6884822845458984,1.141622543334961,0.0,-0.3666960000991821,0.9777345657348632,4.891226291656494,4.14453125,0,A1,7.6,90,270.0,0.3025383740927997,[25200|0|0],start
19100,1.6882054805755615,1.141316533088684,0.0,-0.3557325899600982,0.9839239120483398,4.884810924530029,4.14453125,0,A1,7.6,90,270.0,0.3029510031136171,[25300|0|0],start
19200,1.6880831718444824,1.1415468454360962,0.0,-0.3638194799423218,0.9796610474586488,4.8989081382751465,4.14453125,0,A1,7.6,90,270.0,0.3032117773513567,[25400|0|0],start
19300,1.6882553100585938,1.1418851613998413,0.0,-0.3722717761993408,0.975866198539734,4.883875846862793,4.1484375,0,A1,7.6,90,270.0,0.3035913682575731,[25500|0|0],start
19400,1.6882705688476562,1.141554832458496,0.0,-0.3611030280590057,0.9709126949310304,4.877434730529785,4.14453125,0,A1,7.6,90,270.0,0.3039220494335325,[25600|0|0],start
19500,1.687991738319397,1.1414278745651243,0.0,-0.3521118760108948,0.9749085903167723,4.879440307617188,4.14453125,0,A1,7.6,90,270.0,0.3042284230129723,[25700|0|0],start
19600,1.687997341156006,1.14162015914917,0.0,-0.3509573638439178,0.9687874913215636,4.89102029800415,4.1484375,0,A1,7.6,90,270.0,0.3044207892081306,[25800|0|0],start
19700,1.6880792379379272,1.1414744853973389,0.0,-0.3543863594532013,0.970648467540741,4.884060859680176,4.14453125,0,A1,7.6,90,270.0,0.3045879057089963,[25900|0|0],start
19800,1.688362717628479,1.141474366188049,0.0,-0.3638171851634979,0.9675407409667968,4.876953125,4.14453125,0,A1,7.6,90,270.0,0.304871385424613,[26000|0|0],start
19900,1.6888426542282104,1.1423074007034302,0.0,-0.3762912154197693,0.9542901515960692,4.879948139190674,4.14453125,0,A1,7.6,90,270.0,0.3058327831797477,[26100|0|0],start
20000,1.6887589693069458,1.1422083377838137,0.0,-0.3703527450561523,0.9557149410247804,4.898236274719238,4.14453125,0,A1,7.6,90,270.0,0.3059624621221015,[26200|0|0],start
20100,1.6877213716506958,1.141769289970398,0.0,-0.3441493213176727,0.9916127920150756,4.86660623550415,4.1484375,0,A1,7.6,90,270.0,0.3070891261708404,[26300|0|0],start
20200,1.6880885362625122,1.1416049003601074,0.0,-0.3351310789585113,0.9587085843086244,4.85188102722168,4.14453125,0,A1,7.6,90,270.0,0.3074914118854037,[26400|0|0],start
20300,1.6880582571029663,1.1415698528289795,0.0,-0.3475972712039947,0.969011127948761,4.877265453338623,4.14453125,0,A1,7.6,90,270.0,0.3075377277243896,[26500|0|0],start
20400,1.6886581182479858,1.1425704956054688,0.0,-0.3661779463291168,0.9587485790252686,4.9006123542785645,4.14453125,0,A1,7.6,90,270.0,0.3087043979260508,[26600|0|0],start
20500,1.6887542009353638,1.1422511339187622,0.0,-0.3658965229988098,0.9621537327766418,4.9046244621276855,4.14453125,0,A1,7.6,90,270.0,0.3090379002045285,[26700|0|0],start
20600,1.688783884048462,1.1422216892242432,0.0,-0.3735039532184601,0.9624429941177368,4.895841121673584,4.14453125,0,A1,7.6,90,270.0,0.3090797102181439,[26800|0|0],start
20700,1.688582181930542,1.14218008518219,0.0,-0.3758702278137207,0.9615929126739502,4.890130043029785,4.14453125,0,A1,7.6,90,270.0,0.3092856583686297,[26900|0|0],start
20800,1.6889511346817017,1.1424788236618042,0.0,-0.3821616470813751,0.950265407562256,4.900050640106201,4.14453125,0,A1,7.6,90,270.0,0.3097603907266911,[27000|0|0],start
20900,1.688868522644043,1.1426922082901,0.0,-0.3852657675743103,0.9588268399238586,4.918577671051025,4.14453125,0,A1,7.6,90,270.0,0.3099892088823499,[27100|0|0],start
21000,1.6886484622955322,1.142656326293945,0.0,-0.3814036250114441,0.9712276458740234,4.916630268096924,4.14453125,0,A1,7.6,90,270.0,0.310212175414894,[27200|0|0],start
21100,1.688677191734314,1.1423161029815674,0.0,-0.3733476102352142,0.9730129837989808,4.910983562469482,4.1484375,0,A1,7.6,90,270.0,0.3105536095709739,[27300|0|0],start
21200,1.688501238822937,1.1422622203826904,0.0,-0.3705897033214569,0.9816191792488098,4.916245937347412,4.14453125,0,A1,7.6,90,270.0,0.3107376279436538,[27400|0|0],start
21300,1.688581466674805,1.1427477598190308,0.0,-0.3859969973564148,0.9790452122688292,4.904367446899414,4.14453125,0,A1,7.6,90,270.0,0.3112297509490671,[27500|0|0],start
21400,1.6881563663482666,1.1417042016983032,0.0,-0.3563024997711181,0.9976522922515868,4.905643463134766,4.14453125,0,A1,7.6,90,270.0,0.3123565711827154,[27600|0|0],start
21500,1.6885184049606323,1.142841100692749,0.0,-0.3785306215286255,0.9797952771186828,4.895366668701172,4.14453125,0,A1,7.6,90,270.0,0.3135497230089368,[27700|0|0],start
21600,1.688431739807129,1.1417410373687744,0.0,-0.3550626039505005,0.9895282983779908,4.915719509124756,4.14453125,0,A1,7.6,90,270.0,0.3146531948778967,[27800|0|0],start
21701,1.688241958618164,1.1415053606033323,0.0,-0.3486154675483703,0.996476411819458,4.91571044921875,4.14453125,0,A1,7.6,90,270.0,0.3149557844306809,[27900|0|0],start
21801,1.6882723569869995,1.1415950059890747,0.0,-0.3614884912967682,0.9861867427825928,4.930021286010742,4.14453125,0,A1,7.6,90,270.0,0.3150504435877275,[28000|0|0],start
21901,1.6883670091629028,1.141796350479126,0.0,-0.3661559522151947,0.979206085205078,4.937260627746582,4.14453125,0,A1,7.6,90,270.0,0.3152729264816255,[28100|0|0],start
22001,1.6889266967773438,1.1422830820083618,0.0,-0.3872647285461426,0.9590215682983398,4.926740646362305,4.14453125,0,A1,7.6,90,270.0,0.3160146527163717,[28200|0|0],start
22101,1.6888864040374756,1.1424134969711304,0.0,-0.390811413526535,0.9559912085533142,4.92498254776001,4.14453125,0,A1,7.6,90,270.0,0.3161511502159825,[28300|0|0],start
22201,1.688982009887695,1.1425076723098757,0.0,-0.392976313829422,0.9579781889915466,4.914414882659912,4.14453125,0,A1,7.6,90,270.0,0.3162853495938648,[28400|0|0],start
22301,1.6888880729675293,1.1426327228546145,0.0,-0.391473650932312,0.9569661021232604,4.934903144836426,4.14453125,0,A1,7.6,90,270.0,0.3164417522271857,[28500|0|0],start
22401,1.6886224746704102,1.142359733581543,0.0,-0.3845288753509521,0.9609289169311525,4.937185287475586,4.14453125,0,A1,7.6,90,270.0,0.3168226270079794,[28600|0|0],start
22501,1.6885251998901367,1.1424490213394165,0.0,-0.3853382766246795,0.959687113761902,4.915755271911621,4.14453125,0,A1,7.6,90,270.0,0.3169546674812568,[28700|0|0],start
22601,1.688952088356018,1.1423847675323486,0.0,-0.3795519769191742,0.9469788074493408,4.908061504364014,4.14453125,0,A1,7.6,90,270.0,0.3173863644977224,[28800|0|0],start
22702,1.6888381242752075,1.142421841621399,0.0,-0.3840503692626953,0.953299045562744,4.904862880706787,4.14453125,0,A1,7.6,90,270.0,0.3175062073105811,[28900|0|0],start
22802,1.6886987686157229,1.142439365386963,0.0,-0.3801988363265991,0.9560633897781372,4.901680946350098,4.14453125,0,A1,7.6,90,270.0,0.3176466604422299,[29000|0|0],start
22900,1.6888254880905151,1.1427147388458252,0.0,-0.3765810132026672,0.9437523484230042,4.902141094207764,4.14453125,0,A1,7.6,90,270.0,0.3179497913828107,[29100|0|0],start
23000,1.688749074935913,1.1422936916351318,0.0,-0.3653844892978668,0.9408187866210938,4.897234916687012,4.14453125,0,A1,7.6,90,270.0,0.3183777162872377,[29200|0|0],start
23102,1.6885559558868408,1.1425968408584597,0.0,-0.3748176097869873,0.943853199481964,4.902616024017334,4.14453125,0,A1,7.6,90,270.0,0.3187371525384964,[29300|0|0],start
23202,1.6886491775512695,1.1422110795974731,0.0,-0.3646120727062225,0.9515335559844972,4.901023864746094,4.14453125,0,A1,7.6,90,270.0,0.3191340177916955,[29400|0|0],start
23302,1.6887437105178833,1.142465114593506,0.0,-0.3653544187545776,0.9469549655914308,4.928920269012451,4.14453125,0,A1,7.6,90,270.0,0.3194050717733785,[29500|0|0],start
23402,1.6884411573410034,1.1425753831863403,0.0,-0.3696182668209076,0.9600023627281188,4.923050880432129,4.14453125,0,A1,7.6,90,270.0,0.3197270928711435,[29600|0|0],start
23502,1.6891474723815918,1.1427000761032104,0.0,-0.3678885996341705,0.9373060464859008,4.892002582550049,4.14453125,0,A1,7.6,90,270.0,0.3204443301122841,[29700|0|0],start
23600,1.6886078119277954,1.1425824165344238,0.0,-0.3629752993583679,0.9510692358016968,4.889217376708984,4.14453125,0,A1,7.6,90,270.0,0.3209966680337767,[29800|0|0],start
23700,1.688718318939209,1.1425204277038574,0.0,-0.3796724379062652,0.9359502792358398,4.8933939933776855,4.14453125,0,A1,7.6,90,270.0,0.32112337405055,[29900|0|0],start
23800,1.689024806022644,1.142573595046997,0.0,-0.3739770054817199,0.9293752312660216,4.921749591827393,4.14453125,0,A1,7.6,90,270.0,0.3214344385112154,[30000|0|0],start
23900,1.688582420349121,1.1426864862442017,0.0,-0.3759099841117859,0.9468270540237428,4.896364688873291,4.14453125,0,A1,7.6,90,270.0,0.3218910012194436,[30100|0|0],start
24000,1.6887749433517456,1.1423977613449097,0.0,-0.3630430996417999,0.9447194933891296,4.893303394317627,4.14453125,0,A1,7.6,90,270.0,0.3222380274057909,[30200|0|0],start
24100,1.688466191291809,1.142340064048767,0.0,-0.3566417992115021,0.956847846508026,4.898818492889404,4.14453125,0,A1,7.6,90,270.0,0.3225521242260505,[30300|0|0],start
24200,1.688764572143555,1.1425951719284058,0.0,-0.3663902580738067,0.9520754814147948,4.89229679107666,4.14453125,0,A1,7.6,90,270.0,0.3229446941726107,[30400|0|0],start
24300,1.6885228157043457,1.1423808336257937,0.0,-0.3580372333526611,0.9580054879188538,4.89096736907959,4.14453125,0,A1,7.6,90,270.0,0.3232677840732046,[30500|0|0],start
24400,1.6888365745544434,1.1422784328460691,0.0,-0.354072242975235,0.9509781002998352,4.895477771759033,4.14453125,0,A1,7.6,90,270.0,0.3235978303361781,[30600|0|0],start
24500,1.688607096672058,1.1427634954452517,0.0,-0.3670155704021454,0.9642300009727478,4.8892340660095215,4.14453125,0,A1,7.6,90,270.0,0.3241344361725514,[30700|0|0],start
24600,1.6885899305343628,1.142308235168457,0.0,-0.3634158968925476,0.9599067568778992,4.895991325378418,4.14453125,0,A1,7.6,90,270.0,0.3245900199693556,[30800|0|0],start
24700,1.6886508464813232,1.142445087432861,0.0,-0.3678365051746368,0.9620612263679504,4.874926567077637,4.14453125,0,A1,7.6,90,270.0,0.3247398174822408,[30900|0|0],start
24800,1.688715934753418,1.142628192901611,0.0,-0.3743352591991424,0.9605375528335572,4.858785629272461,4.14453125,0,A1,7.6,90,270.0,0.3249341473457472,[31000|0|0],start
24900,1.6886980533599854,1.1423165798187256,0.0,-0.3688008785247803,0.9656152725219728,4.855623245239258,4.14453125,0,A1,7.6,90,270.0,0.3252462730538466,[31100|0|0],start
25000,1.6886317729949951,1.142382264137268,0.0,-0.3723020851612091,0.9740490913391112,4.861689567565918,4.14453125,0,A1,7.6,90,270.0,0.3253395871282707,[31200|0|0],start
25100,1.6887410879135132,1.1426949501037598,0.0,-0.3734901249408722,0.9755303859710692,4.852438449859619,4.14453125,0,A1,7.6,90,270.0,0.3256708306414924,[31300|0|0],start
25200,1.6889135837554932,1.1424351930618286,0.0,-0.3613385856151581,0.972894847393036,4.85653829574585,4.14453125,0,A1,7.6,90,270.0,0.3259826455486621,[31400|0|0],start
25300,1.6886013746261597,1.1422135829925537,0.0,-0.3585458993911743,0.982176661491394,4.87687873840332,4.14453125,0,A1,7.6,90,270.0,0.3263655104899184,[31500|0|0],start
25400,1.6887366771697998,1.1422737836837769,0.0,-0.3624962270259857,0.9742744565010072,4.882317066192627,4.14453125,0,A1,7.6,90,270.0,0.3265136013456092,[31600|0|0],start
25500,1.68897545337677,1.142156958580017,0.0,-0.3583013713359833,0.9689326882362366,4.902207851409912,4.14453125,0,A1,7.6,90,270.0,0.3267794249372702,[31700|0|0],start
25600,1.688709020614624,1.1424405574798584,0.0,-0.3670962452888489,0.973697066307068,4.90670108795166,4.14453125,0,A1,7.6,90,270.0,0.3271685454234129,[31800|0|0],start
25700,1.688833475112915,1.1426801681518557,0.0,-0.3697535097599029,0.9643777012825012,4.8355631828308105,4.14453125,0,A1,7.6,90,270.0,0.3274385494905671,[31900|0|0],start
25800,1.6888617277145386,1.1421891450881958,0.0,-0.3488107025623321,0.970493495464325,4.83074426651001,4.14453125,0,A1,7.6,90,270.0,0.3279303846850627,[32000|0|0],start
25900,1.6884669065475464,1.1425100564956665,0.0,-0.3649993538856506,0.9782417416572572,4.818289279937744,4.14453125,0,A1,7.6,90,270.0,0.3284391752955793,[32100|0|0],start
26000,1.6889533996582031,1.1424583196640017,0.0,-0.3668311834335327,0.9631314277648926,4.820601463317871,4.14453125,0,A1,7.6,90,270.0,0.3289284116867719,[32200|0|0],start
26100,1.6885288953781128,1.1422079801559448,0.0,-0.3634307086467743,0.9779797196388244,4.825099468231201,4.14453125,0,A1,7.6,90,270.0,0.3294212339195386,[32300|0|0],start
26200,1.6886309385299685,1.1421300172805786,0.0,-0.3618168532848358,0.9705359935760498,4.812062740325928,4.14453125,0,A1,7.6,90,270.0,0.3295496512656256,[32400|0|0],start
26300,1.688889980316162,1.142669439315796,0.0,-0.3837227821350097,0.9640832543373108,4.823100090026856,4.14453125,0,A1,7.6,90,270.0,0.3301480481064197,[32500|0|0],start
26400,1.6887363195419312,1.142605543136597,0.0,-0.3810665905475616,0.9701775312423706,4.840446949005127,4.14453125,0,A1,7.6,90,270.0,0.3303144643173292,[32600|0|0],start
26500,1.6885318756103516,1.1426076889038086,0.0,-0.3781473338603973,0.9736553430557252,4.870107650756836,4.14453125,0,A1,7.6,90,270.0,0.3305189195091846,[32700|0|0],start
26600,1.6884666681289673,1.1424107551574707,0.0,-0.375322163105011,0.9779171943664552,4.881508827209473,4.14453125,0,A1,7.6,90,270.0,0.3307263680957673,[32800|0|0],start
26700,1.6891460418701172,1.142579197883606,0.0,-0.3957417607307434,0.94541734457016,4.9171953201293945,4.14453125,0,A1,7.6,90,270.0,0.3314263121164946,[32900|0|0],start
26800,1.6887128353118896,1.1426769495010376,0.0,-0.3979720175266266,0.962637186050415,4.918280601501465,4.14453125,0,A1,7.6,90,270.0,0.3318704104173266,[33000|0|0],start
26900,1.6883832216262815,1.142292022705078,0.0,-0.3876483142375946,0.9726575016975404,4.914337158203125,4.14453125,0,A1,7.6,90,270.0,0.3323771784313014,[33100|0|0],start
27000,1.688562035560608,1.1424578428268433,0.0,-0.3948738873004913,0.9662626385688782,4.912777900695801,4.14453125,0,A1,7.6,90,270.0,0.3326210446567029,[33200|0|0],start
27100,1.688532471656799,1.1424540281295776,0.0,-0.3855549395084381,0.9667120575904846,4.931506633758545,4.14453125,0,A1,7.6,90,270.0,0.3326508536540635,[33300|0|0],start
27200,1.6885193586349487,1.1422464847564695,0.0,-0.3738080561161041,0.96538645029068,4.944460868835449,4.14453125,0,A1,7.6,90,270.0,0.3328588108685648,[33400|0|0],start
27300,1.6885236501693726,1.1425068378448486,0.0,-0.379667580127716,0.95877206325531,4.963330268859863,4.14453125,0,A1,7.6,90,270.0,0.3331191993243309,[33500|0|0],start
27400,1.6885924339294434,1.1424152851104736,0.0,-0.3763956129550934,0.9597223997116088,4.936108112335205,4.14453125,0,A1,7.6,90,270.0,0.333233711807585,[33600|0|0],start
27500,1.6886059045791626,1.1428251266479492,0.0,-0.3825437724590301,0.9574697613716124,4.924803733825684,4.14453125,0,A1,7.6,90,270.0,0.3336437746616015,[33700|0|0],start
27600,1.689024567604065,1.1425036191940308,0.0,-0.373039573431015,0.9448838233947754,4.933917999267578,4.14453125,0,A1,7.6,90,270.0,0.3341716437470247,[33800|0|0],start
27700,1.6884758472442627,1.1423139572143557,0.0,-0.3708809316158294,0.957650661468506,4.919890880584717,4.14453125,0,A1,7.6,90,270.0,0.3347522173425281,[33900|0|0],start
27800,1.6884931325912476,1.142485737800598,0.0,-0.3745346963405609,0.9525328874588012,4.913926601409912,4.14453125,0,A1,7.6,90,270.0,0.3349248654037107,[34000|0|0],start
27900,1.6890807151794434,1.142509937286377,0.0,-0.3757344186306,0.9352174997329712,4.928125381469727,4.14453125,0,A1,7.6,90,270.0,0.3355129461065593,[34100|0|0],start
28000,1.6885290145874023,1.1423245668411257,0.0,-0.3725073635578155,0.9517260789871216,4.933750629425049,4.14453125,0,A1,7.6,90,270.0,0.3360949561968765,[34200|0|0],start
28100,1.688412308692932,1.1426252126693726,0.0,-0.3841861188411712,0.9572690725326538,4.924201965332031,4.14453125,0,A1,7.6,90,270.0,0.3364174591888725,[34300|0|0],start
28200,1.688700795173645,1.142143964767456,0.0,-0.3693302273750305,0.9478581547737122,4.911137580871582,4.14453125,0,A1,7.6,90,270.0,0.3369785509751724,[34400|0|0],start
28300,1.6887836456298828,1.142288088798523,0.0,-0.3698314428329468,0.9423329830169678,4.931825637817383,4.14453125,0,A1,7.6,90,270.0,0.3371447915671762,[34500|0|0],start
28400,1.6887259483337402,1.1422690153121948,0.0,-0.3694238364696502,0.9427531361579896,4.907467842102051,4.14453125,0,A1,7.6,90,270.0,0.3372055597814241,[34600|0|0],start
28500,1.6889299154281616,1.1421006917953491,0.0,-0.3692395985126495,0.935912787914276,4.930939197540283,4.14453125,0,A1,7.6,90,270.0,0.3374700127676617,[34700|0|0],start
28600,1.6888642311096191,1.142521619796753,0.0,-0.382252037525177,0.9368834495544434,4.921195983886719,4.14453125,0,A1,7.6,90,270.0,0.3378960348469818,[34800|0|0],start
28700,1.6885828971862793,1.1426842212677002,0.0,-0.3876561224460602,0.9486241936683656,4.905227184295654,4.14453125,0,A1,7.6,90,270.0,0.3382209779416553,[34900|0|0],start
28800,1.688832402229309,1.1425670385360718,0.0,-0.3933391869068146,0.929356038570404,4.915651321411133,4.14453125,0,A1,7.6,90,270.0,0.3384966309102394,[35000|0|0],start
28900,1.688694953918457,1.1426537036895752,0.0,-0.387725293636322,0.9353598952293396,4.946793556213379,4.14453125,0,A1,7.6,90,270.0,0.3386591205621802,[35100|0|0],start
29000,1.6884185075759888,1.1423547267913818,0.0,-0.3806951344013214,0.95011705160141,4.947129726409912,4.14453125,0,A1,7.6,90,270.0,0.3390663180154107,[35200|0|0],start
29100,1.6885608434677124,1.142441987991333,0.0,-0.3808761835098266,0.9472544193267822,4.954780101776123,4.14453125,0,A1,7.6,90,270.0,0.3392332731683401,[35300|0|0],start
29200,1.688431739807129,1.142402172088623,0.0,-0.3799985945224762,0.9501233100891112,4.949434757232666,4.14453125,0,A1,7.6,90,270.0,0.339368377059049,[35400|0|0],start
29300,1.6887822151184082,1.142325520515442,0.0,-0.3756062388420105,0.9449710249900818,4.960630416870117,4.14453125,0,A1,7.6,90,270.0,0.3397271365989743,[35500|0|0],start
29400,1.688715934753418,1.1421606540679932,0.0,-0.3713889122009277,0.946974754333496,4.959386348724365,4.14453125,0,A1,7.6,90,270.0,0.3399048274323834,[35600|0|0],start
29500,1.688395857810974,1.142461895942688,0.0,-0.3818841576576233,0.9553424715995787,4.943463325500488,4.14453125,0,A1,7.6,90,270.0,0.3403443680063399,[35700|0|0],start
29600,1.6886948347091677,1.1424942016601562,0.0,-0.3844391107559204,0.9485546350479126,4.918483734130859,4.14453125,0,A1,7.6,90,270.0,0.3406450852240624,[35800|0|0],start
29700,1.6887569427490234,1.1423895359039309,0.0,-0.3865268230438232,0.9529566764831544,4.924322605133057,4.14453125,0,A1,7.6,90,270.0,0.3407667911365767,[35900|0|0],start
29800,1.688594937324524,1.14234721660614,0.0,-0.3823714852333069,0.953903317451477,4.938310623168945,4.14453125,0,A1,7.6,90,270.0,0.3409342327100667,[36000|0|0],start
29900,1.6889570951461792,1.1422090530395508,0.0,-0.3807525634765625,0.9531826376914978,4.944002628326416,4.14453125,0,A1,7.6,90,270.0,0.3413218503811276,[36100|0|0],start
30000,1.6889300346374512,1.142197847366333,0.0,-0.3845325112342834,0.9589923620224,4.942273139953613,4.14453125,0,A1,7.6,90,270.0,0.3413511392569149,[36200|0|0],start
30100,1.6889448165893557,1.1424037218093872,0.0,-0.3889664113521576,0.9567785263061525,4.930178165435791,4.14453125,0,A1,7.6,90,270.0,0.3415575436958328,[36300|0|0],start
30200,1.6886117458343506,1.1422101259231567,0.0,-0.3803198337554931,0.9767708778381348,4.922889232635498,4.14453125,0,A1,7.6,90,270.0,0.3419427910125074,[36400|0|0],start
30300,1.6887038946151731,1.142306208610535,0.0,-0.3807207942008972,0.9757931232452391,4.93225622177124,4.14453125,0,A1,7.6,90,270.0,0.342075919824644,[36500|0|0],start
30400,1.688607931137085,1.1426033973693848,0.0,-0.3861377537250519,0.9758533239364624,4.934781551361084,4.14453125,0,A1,7.6,90,270.0,0.3423882179954896,[36600|0|0],start
30500,1.688763976097107,1.1424963474273682,0.0,-0.377772182226181,0.9732568860054016,4.926248550415039,4.14453125,0,A1,7.6,90,270.0,0.3425774525579617,[36700|0|0],start
30600,1.6886337995529177,1.142742395401001,0.0,-0.3774840235710144,0.9798184633255004,4.939148426055908,4.14453125,0,A1,7.6,90,270.0,0.3428558148003472,[36800|0|0],start
30700,1.6888043880462646,1.1427024602890017,0.0,-0.3723801374435425,0.9735443592071532,4.982398986816406,4.14453125,0,A1,7.6,90,270.0,0.3430310153917639,[36900|0|0],start
30800,1.6889307498931885,1.1427009105682373,0.0,-0.3705114424228668,0.9496076703071594,4.946889877319336,4.14453125,0,A1,7.6,90,270.0,0.3431573867413351,[37000|0|0],start
30900,1.6882541179656982,1.1421945095062256,0.0,-0.3442020416259765,0.9716941118240356,4.952668190002441,4.14453125,0,A1,7.6,90,270.0,0.3440025333563705,[37100|0|0],start
31000,1.6889829635620115,1.1428570747375488,0.0,-0.3571607768535614,0.9240794777870178,4.931212425231934,4.14453125,0,A1,7.6,90,270.0,0.3449875250258905,[37200|0|0],start
31100,1.689287543296814,1.142923355102539,0.0,-0.3424914181232452,0.9243860244750975,4.926207542419434,4.14453125,0,A1,7.6,90,270.0,0.345299233064984,[37300|0|0],start
31200,1.6891952753067017,1.1427037715911863,0.0,-0.3104080557823181,0.9449193477630616,4.965695381164551,4.14453125,0,A1,7.6,90,270.0,0.3455374142994619,[37400|0|0],start
31300,1.6894673109054563,1.1429762840270996,0.0,-0.3057511448860168,0.9334900379180908,4.978019714355469,4.14453125,0,A1,7.6,90,270.0,0.3459224680550821,[37500|0|0],start
31400,1.6889474391937256,1.143061876296997,0.0,-0.2948128283023834,0.9486808776855468,4.962400436401367,4.14453125,0,A1,7.6,90,270.0,0.3464493386590486,[37600|0|0],start
31500,1.6877819299697876,1.1432243585586548,0.0,-0.2971908152103424,0.961481273174286,4.9777140617370605,4.14453125,0,A1,7.6,90,270.0,0.3476261191128453,[37700|0|0],start
31600,1.6858584880828855,1.1431323289871216,0.0,-0.2882449030876159,0.977630615234375,4.968278884887695,4.14453125,0,A1,7.6,90,270.0,0.3495517613782534,[37800|0|0],start
31700,1.6826770305633545,1.1434509754180908,0.0,-0.3084010481834411,0.9907708764076232,4.965381145477295,4.14453125,0,A1,7.6,90,270.0,0.3527491364730069,[37900|0|0],start
31800,1.6788547039031982,1.1441489458084106,0.0,-0.3395977616310119,0.9883947968482972,5.014713287353516,4.14453125,0,A1,7.6,90,270.0,0.3566346665221384,[38000|0|0],start
31900,1.6745589971542358,1.1450976133346558,0.0,-0.3596366941928863,0.9833338260650636,4.999401092529297,4.14453125,0,A1,7.6,90,270.0,0.3610338785593597,[38100|0|0],start
32000,1.666761040687561,1.146015763282776,0.0,-0.3444960415363312,1.0208932161331177,5.001304626464844,4.14453125,0,A1,7.6,90,270.0,0.3688857015568164,[38200|0|0],start
32100,1.6572167873382568,1.147466778755188,0.0,-0.3637056350708008,1.038942813873291,5.022194862365723,4.14453125,0,A1,7.6,90,270.0,0.378539623966743,[38300|0|0],start
32200,1.6454241275787354,1.1489108800888062,0.0,-0.3566811084747314,1.0633478164672852,5.052318096160889,4.14453125,0,A1,7.6,90,270.0,0.390420375326215,[38400|0|0],start
32300,1.630344033241272,1.1509003639221191,0.0051670204848051,-0.3703605532646179,1.094188928604126,5.0765910148620605,4.14453125,0,A1,7.6,90,270.0,0.4064847891605322,[38500|0|0],start
32400,1.6889914274215698,1.1421611309051514,0.0,-0.3285745978355407,0.9207836389541626,5.0257248878479,4.14453125,0,A1,7.6,90,270.0,0.4660044425411971,[38600|0|0],start
32500,1.689350962638855,1.1423077583312988,0.0,-0.3642390668392181,0.9592446088790894,5.020590782165527,4.14453125,0,A1,7.6,90,270.0,0.4663927274553605,[38700|0|0],start
32600,1.688611388206482,1.1421817541122437,0.0,-0.397106260061264,0.9877226948738098,4.992102146148682,4.14453125,0,A1,7.6,90,270.0,0.4671429590224381,[38800|0|0],start
32700,1.6885937452316284,1.142103672027588,0.0,-0.4232103228569031,0.9982739090919496,4.988253116607666,4.14453125,0,A1,7.6,90,270.0,0.4672230095471451,[38900|0|0],start
32800,1.688631892204285,1.14255952835083,0.0,-0.4487993717193603,0.9935604333877563,4.964145183563232,4.14453125,0,A1,7.6,90,270.0,0.4676804591935137,[39000|0|0],start
32900,1.6886382102966309,1.142319679260254,0.0,-0.4497365653514862,0.9916166067123412,4.944466590881348,4.14453125,0,A1,7.6,90,270.0,0.4679203914850901,[39100|0|0],start
33000,1.6887627840042114,1.1421855688095093,0.0,-0.4447018206119537,0.9854084253311156,4.9270758628845215,4.14453125,0,A1,7.6,90,270.0,0.4681034330694891,[39200|0|0],start
33100,1.6886175870895386,1.142581343650818,0.0,-0.4532513320446014,0.9933631420135498,4.932520389556885,4.14453125,0,A1,7.6,90,270.0,0.4685250014139406,[39300|0|0],start
33200,1.6887624263763428,1.142282247543335,0.0,-0.4387555122375488,0.9878273606300354,4.943879127502441,4.14453125,0,A1,7.6,90,270.0,0.4688573218925655,[39400|0|0],start
33300,1.6889455318450928,1.1423282623291016,0.0,-0.4301292300224304,0.9848752021789552,4.957198619842529,4.14453125,0,A1,7.6,90,270.0,0.4690461206563202,[39500|0|0],start
33400,1.6885128021240234,1.1422529220581057,0.0,-0.4220406115055084,0.9957017302513124,4.932729244232178,4.14453125,0,A1,7.6,90,270.0,0.4694853599623146,[39600|0|0],start
33500,1.688443303108215,1.142802596092224,0.0,-0.4262470602989197,0.985293447971344,4.932003974914551,4.14453125,0,A1,7.6,90,270.0,0.4700394101919709,[39700|0|0],start
33600,1.6885559558868408,1.1425998210906982,0.0,-0.4072605967521667,0.9787009358406068,4.9458184242248535,4.14453125,0,A1,7.6,90,270.0,0.4702713764605873,[39800|0|0],start
33700,1.688544988632202,1.1423929929733276,0.0,-0.3980800807476043,0.9783594608306884,4.929909706115723,4.14453125,0,A1,7.6,90,270.0,0.4704784951483231,[39900|0|0],start
33800,1.688761591911316,1.1425129175186155,0.0,-0.3914676010608673,0.9641754031181335,4.912408828735352,4.14453125,0,A1,7.6,90,270.0,0.4707260812486709,[40000|0|0],start
33900,1.688790798187256,1.1423871517181396,0.0,-0.3788427412509918,0.9517552256584167,4.876964569091797,4.14453125,0,A1,7.6,90,270.0,0.4708551937698438,[40100|0|0],start
34000,1.688902735710144,1.1424649953842163,0.0,-0.3756254017353058,0.9469552040100098,4.899967193603516,4.14453125,0,A1,7.6,90,270.0,0.4709915376196447,[40200|0|0],start
34100,1.6885088682174685,1.1423628330230713,0.0,-0.3723936676979065,0.9516305923461914,4.901517868041992,4.14453125,0,A1,7.6,90,270.0,0.4713984390202583,[40300|0|0],start
34200,1.688790798187256,1.1423726081848145,0.0,-0.3654878735542297,0.9470374584197998,4.91265344619751,4.14453125,0,A1,7.6,90,270.0,0.4716805384028374,[40400|0|0],start
34300,1.688932180404663,1.1423900127410889,0.0,-0.3614761233329773,0.9432486295700072,4.932931423187256,4.14453125,0,A1,7.6,90,270.0,0.4718229878674838,[40500|0|0],start
34400,1.6885950565338137,1.1424713134765625,0.0,-0.367514431476593,0.9552571773529052,4.9308671951293945,4.14453125,0,A1,7.6,90,270.0,0.4721697764397941,[40600|0|0],start
34500,1.6887181997299194,1.1426751613616943,0.0,-0.3655374348163605,0.9553920030593872,4.922662734985352,4.14453125,0,A1,7.6,90,270.0,0.4724079322858694,[40700|0|0],start
34600,1.6889503002166748,1.142424702644348,0.0,-0.3784595131874084,0.9406508207321168,4.93173885345459,4.14453125,0,A1,7.6,90,270.0,0.4727494000076923,[40800|0|0],start
34700,1.6886268854141235,1.142282009124756,0.0,-0.3771696090698242,0.9548494219779968,4.92532205581665,4.14453125,0,A1,7.6,90,270.0,0.4731028948096948,[40900|0|0],start
34800,1.6890969276428225,1.1425321102142334,0.0,-0.3866078853607178,0.943517565727234,4.919874668121338,4.14453125,0,A1,7.6,90,270.0,0.4736353328358706,[41000|0|0],start
34900,1.6888155937194824,1.142184138298035,0.0,-0.3751387894153595,0.95619934797287,4.898751258850098,4.14453125,0,A1,7.6,90,270.0,0.4740828071154496,[41100|0|0],start
35000,1.688820719718933,1.1422035694122314,0.0,-0.3669100403785705,0.9585573673248292,4.901329517364502,4.14453125,0,A1,7.6,90,270.0,0.4741029029873961,[41200|0|0],start
35100,1.6889405250549316,1.141993284225464,0.0,-0.3636240363121032,0.9579010009765624,4.924459934234619,4.14453125,0,A1,7.6,90,270.0,0.4743449219500984,[41300|0|0],start
35200,1.6889389753341677,1.142552137374878,0.0,-0.3699375092983246,0.9538467526435852,4.912370681762695,4.14453125,0,A1,7.6,90,270.0,0.4749037772482251,[41400|0|0],start
