time.ms,stateEstimate.x,stateEstimate.y,stateEstimate.z,stabilizer.roll,stabilizer.pitch,stabilizer.yaw,pm.vbat,drone_id,node_name,wind_speed,global_wind_direction,relative_wind_direction,travel_dist,waiting_time,curr_node_role
0,0.7166877388954163,0.7377241849899292,0.0,-1.075247049331665,0.2174552381038665,7.109324932098389,4.12890625,1,F1,7.6,90,270.0,0.0,[6200|0|0],start
100,0.7165475487709045,0.7380460500717163,0.0,-1.079737424850464,0.2243957072496414,7.1158881187438965,4.12890625,1,F1,7.6,90,270.0,0.0003510703660015,[6300|0|0],start
200,0.7163237929344177,0.7377142906188965,0.0,-1.0684115886688232,0.2323384433984756,7.126734256744385,4.12890625,1,fly,7.6,90,270.0,0.0007512340936146,[6300|0|0],fly
300,0.7163712978363037,0.737952709197998,0.0,-1.0651233196258545,0.2586270570755005,7.195072174072266,3.326171875,1,fly,7.6,90,270.0,0.0009943392859985,[6300|0|0],fly
400,0.7159362435340881,0.7403872609138489,0.0,-3.275319814682007,2.6803481578826904,8.209654808044434,3.63671875,1,fly,7.6,90,270.0,0.0034674576218305,[6300|0|0],fly
500,0.7053412199020386,0.7524977326393127,0.0040915999561548,-10.193233489990234,10.46681308746338,11.888973236083984,3.779296875,1,fly,7.6,90,270.0,0.0200704465508804,[6300|0|0],fly
601,0.6748447418212891,0.7771742939949036,0.0445997640490531,-4.100374698638916,10.04851245880127,13.113683700561523,3.736328125,1,fly,7.6,90,270.0,0.0764608642993157,[6300|0|0],fly
701,0.6316056251525879,0.8041441440582275,0.093255303800106,5.6279168128967285,-5.261663913726807,11.452560424804688,3.716796875,1,fly,7.6,90,270.0,0.1469190474379265,[6300|0|0],fly
801,0.6012124419212341,0.8224263787269592,0.1549814492464065,9.287915229797363,-12.449618339538574,8.879256248474121,3.732421875,1,fly,7.6,90,270.0,0.2181096558288868,[6300|0|0],fly
901,0.5956377387046814,0.8268333077430725,0.2287449687719345,8.861446380615234,-12.329242706298828,5.436275959014893,3.7421875,1,fly,7.6,90,270.0,0.2922146836751716,[6300|0|0],fly
1001,0.6150919198989868,0.8188461661338806,0.312154620885849,5.173760414123535,-9.11355972290039,2.634446859359741,3.75390625,1,fly,7.6,90,270.0,0.3782346212640259,[6300|0|0],fly
1101,0.6489786505699158,0.8039565682411194,0.4020561873912811,2.170630693435669,-3.110966444015503,0.9999308586120604,3.7578125,1,fly,7.6,90,270.0,0.4754575727780734,[6300|0|0],fly
1201,0.6867340207099915,0.786910891532898,0.497521162033081,-0.4026346206665039,2.529588222503662,1.7320725917816162,3.7734375,1,fly,7.6,90,270.0,0.5795228621507303,[6300|0|0],fly
1301,0.7164089679718018,0.7746029496192932,0.5958154201507568,-5.384127616882324,6.706803798675537,5.262558460235596,3.7890625,1,fly,7.6,90,270.0,0.6829339307461383,[6300|0|0],fly
1401,0.7347537875175476,0.7710269689559937,0.6886475682258606,-4.5294599533081055,6.62677001953125,6.589466571807861,3.748046875,1,fly,7.6,90,270.0,0.7776288501352389,[6300|0|0],fly
1500,0.7413402199745178,0.7730709910392761,0.7790617346763611,-2.016668796539306,4.633028984069824,5.479197025299072,3.7421875,1,fly,7.6,90,270.0,0.8683056421700588,[6300|0|0],fly
1600,0.7396202683448792,0.7759188413619995,0.8722996115684509,-0.1946908682584762,3.128473281860352,3.6139307022094727,3.748046875,1,fly,7.6,90,270.0,0.9616028563429024,[6300|0|0],fly
1700,0.7317623496055603,0.7780284285545349,0.9696274399757384,1.0388290882110596,1.324238896369934,1.9865143299102783,3.794921875,1,fly,7.6,90,270.0,1.0592701662654913,[6300|0|0],fly
1800,0.7219771146774292,0.7761845588684082,1.064233899116516,1.3896225690841677,-0.6203663349151611,0.8974927663803101,3.826171875,1,fly,7.6,90,270.0,1.1543991985804147,[6300|0|0],fly
1900,0.7140477895736694,0.7703694701194763,1.1480066776275637,0.2608618438243866,-0.8100878000259399,0.0694573074579238,3.84375,1,fly,7.6,90,270.0,1.2387470964393428,[6300|0|0],fly
2000,0.706675112247467,0.7631824612617493,1.2156999111175537,-0.5305477380752563,-1.4919006824493408,-0.6899948120117188,3.84375,1,fly,7.6,90,270.0,1.3072188667363611,[6300|0|0],fly
2100,0.7000073194503784,0.7557342052459717,1.2633839845657349,-2.004141092300415,-1.2948038578033447,-0.6901342272758484,3.806640625,1,fly,7.6,90,270.0,1.3559395691027372,[6300|0|0],fly
2200,0.6933796405792236,0.7519261240959167,1.2922769784927368,-2.8251335620880127,-0.8706108927726746,-0.3890680372714996,3.794921875,1,fly,7.6,90,270.0,1.3858265680710231,[6300|0|0],fly
2300,0.6878068447113037,0.7505452036857605,1.3100942373275757,-2.1741626262664795,-0.911708414554596,-0.5310123562812805,3.794921875,1,fly,7.6,90,270.0,1.4045460153746252,[6300|0|0],fly
2400,0.6825671195983887,0.753040611743927,1.3213088512420654,-1.9276477098464968,-0.9125855565071106,-1.1472957134246826,3.7734375,1,fly,7.6,90,270.0,1.4171733407401466,[6300|0|0],fly
2500,0.6783926486968994,0.7579752206802368,1.3275989294052124,-1.361131191253662,-0.6342094540596008,-1.3007278442382812,3.779296875,1,fly,7.6,90,270.0,1.426192301653699,[6300|0|0],fly
2600,0.6747287511825562,0.764555037021637,1.33159601688385,-0.1031574308872222,-0.6300406455993652,-1.5792475938796997,3.76953125,1,fly,7.6,90,270.0,1.4347184283472243,[6300|0|0],fly
2700,0.6721670031547546,0.7693347334861755,1.3345202207565308,0.8380290865898132,-0.4594860076904297,-2.351001024246216,3.7734375,1,fly,7.6,90,270.0,1.44087951749932,[6300|0|0],fly
2800,0.6704264879226685,0.7722278833389282,1.3359533548355105,0.627980649471283,-0.7760778069496155,-2.87085485458374,3.779296875,1,fly,7.6,90,270.0,1.4445474300707888,[6300|0|0],fly
2900,0.6694555878639221,0.7731274366378784,1.3349642753601074,0.266226202249527,-0.6153365969657898,-3.449628591537476,3.779296875,1,fly,7.6,90,270.0,1.4461997379326563,[6300|0|0],fly
3000,0.6691879034042358,0.7741476893424988,1.3327958583831787,-0.0672732070088386,-0.452258437871933,-3.74849009513855,3.763671875,1,fly,7.6,90,270.0,1.4486110866708266,[6300|0|0],fly
3100,0.6699036359786987,0.77225661277771,1.3287346363067627,-0.358844518661499,-0.4434369504451751,-4.002155303955078,3.763671875,1,fly,7.6,90,270.0,1.4531478221101055,[6300|0|0],fly
3200,0.6712210178375244,0.7701420187950134,1.3233941793441772,-0.822936475276947,-0.4243157804012298,-4.299514293670654,3.763671875,1,fly,7.6,90,270.0,1.459040825015488,[6300|0|0],fly
3300,0.6729277968406677,0.7695425152778625,1.3188484907150269,-0.054444421082735,-1.80159592628479,-4.295645713806152,3.7578125,1,fly,7.6,90,115.0,1.4639332461079364,[6300|0|0],fly
3400,0.6854055523872375,0.7635959386825562,1.3146463632583618,7.798089027404785,-14.081917762756348,-3.0012285709381104,3.7578125,1,fly,7.6,90,115.0,1.4783801846018132,[6300|0|0],fly
3500,0.7176848649978638,0.7418568134307861,1.3088901042938232,8.233611106872559,-16.28409767150879,-1.864435315132141,3.7578125,1,fly,7.6,90,115.0,1.5177207248445896,[6300|0|0],fly
3600,0.7730506062507629,0.7050866484642029,1.299463987350464,6.368465423583984,-15.109323501586914,-1.4664905071258545,3.748046875,1,fly,7.6,90,115.0,1.584849422260692,[6300|0|0],fly
3700,0.8518925309181213,0.6592728495597839,1.289183259010315,1.9534132480621336,-11.232084274291992,-0.1252785921096801,3.748046875,1,fly,7.6,90,115.0,1.6766135036352248,[6300|0|0],fly
3800,0.9320263266563416,0.6349894404411316,1.2681633234024048,-2.706019639968872,-3.776912450790405,0.8034636378288269,3.75390625,1,fly,7.6,90,115.0,1.7629439552198154,[6300|0|0],fly
3900,1.02789568901062,0.6009401679039001,1.2602909803390503,-3.2561213970184326,1.4019906520843506,0.7684488296508789,3.736328125,1,fly,7.6,90,115.0,1.8649844441633605,[6300|0|0],fly
4000,1.119430661201477,0.5755329132080078,1.258318543434143,-3.548179864883423,5.821066856384277,0.3215943574905395,3.75390625,1,fly,7.6,90,115.0,1.9600006019077505,[6300|0|0],fly
4100,1.1992095708847046,0.557103157043457,1.2598180770874023,-2.682650566101074,9.492914199829102,-0.1176405698060989,3.763671875,1,fly,7.6,90,115.0,2.0418943070608733,[6300|0|0],fly
4200,1.261353850364685,0.5431876182556152,1.2609533071517944,-1.3862491846084597,10.792634963989258,-0.3860613703727722,3.75390625,1,fly,7.6,90,115.0,2.1055876539594385,[6300|0|0],fly
4300,1.3053191900253296,0.5318371057510376,1.2598469257354736,-0.8987475037574768,10.353721618652344,-0.4286444187164306,3.75390625,1,fly,7.6,90,115.0,2.1510080161930314,[6300|0|0],fly
4400,1.33251953125,0.522057056427002,1.2566791772842407,-1.0208460092544556,8.417482376098633,-0.5417772531509399,3.75390625,1,fly,7.6,90,115.0,2.18008623068033,[6300|0|0],fly
4500,1.3463175296783447,0.5118029117584229,1.252740502357483,-0.4315308332443237,6.048762798309326,-0.0804644674062728,3.7421875,1,fly,7.6,90,115.0,2.1977227100254666,[6300|0|0],fly
4600,1.3516292572021484,0.5025230646133423,1.2488332986831665,-0.851966142654419,3.0801801681518555,0.4565536677837372,3.748046875,1,fly,7.6,90,115.0,2.2091067450252275,[6300|0|0],fly
4700,1.353351354598999,0.4926865398883819,1.2466726303100586,-0.938149392604828,1.3560259342193604,0.7133752107620239,3.75390625,1,fly,7.6,90,115.0,2.219323952370072,[6300|0|0],fly
4800,1.3532450199127195,0.483920693397522,1.2458440065383911,-1.1530481576919556,0.3226301670074463,0.9672088623046876,3.748046875,1,fly,7.6,90,115.0,2.228129518173687,[6300|0|0],fly
4900,1.3541043996810913,0.4771039187908172,1.245208740234375,-1.5746883153915403,-0.2670188844203949,1.3992305994033811,3.748046875,1,fly,7.6,90,115.0,2.2350295553403927,[6300|0|0],fly
5000,1.3555967807769775,0.4719039499759674,1.2434301376342771,-1.4800277948379517,0.2219702452421188,1.7333717346191406,3.75390625,1,fly,7.6,90,115.0,2.2407243164609176,[6300|0|0],fly
5100,1.3580126762390137,0.4682223200798034,1.2413848638534546,-1.786475419998169,0.903244972229004,2.293926477432251,3.7421875,1,fly,7.6,90,115.0,2.2455796325592097,[6300|0|0],fly
5200,1.358675479888916,0.4677594602108001,1.2389963865280151,-1.653170108795166,1.095136642456055,2.7228078842163086,3.7421875,1,fly,7.6,90,115.0,2.2481012137835203,[6300|0|0],fly
5300,1.3578318357467651,0.4693813323974609,1.2365108728408811,-1.1380752325057983,1.2102431058883667,2.4339168071746826,3.7421875,1,fly,7.6,90,115.0,2.251186660771783,[6300|0|0],fly
5400,1.3552238941192627,0.4720884263515472,1.2338095903396606,-0.5734696984291077,0.8065112233161926,1.7090747356414795,3.736328125,1,fly,7.6,90,115.0,2.255815553118783,[6300|0|0],fly
5500,1.3515279293060305,0.4737349450588226,1.2333364486694336,0.0072513595223426,0.4430250823497772,1.086209774017334,3.7421875,1,fly,7.6,90,115.0,2.2598892544816915,[6300|0|0],fly
5600,1.346734642982483,0.4761863648891449,1.2325336933135986,0.3445824980735779,0.3367493450641632,0.4340180456638336,3.75390625,1,fly,7.6,90,115.0,2.265332550277928,[6300|0|0],fly
5700,1.3416773080825806,0.4772301316261291,1.2323731184005735,0.0244696624577045,-0.1072580590844154,0.1216329783201217,3.7421875,1,fly,7.6,90,115.0,2.2704989677594813,[6300|0|0],fly
5800,1.3353936672210691,0.4795365929603576,1.231772541999817,0.1185843646526336,-0.1194032803177833,-0.3349410891532898,3.7421875,1,fly,7.6,90,115.0,2.2772194289323395,[6300|0|0],fly
5900,1.329167127609253,0.4801658391952514,1.2306368350982666,0.4365869462490082,-0.8419374227523804,0.0729375630617141,3.75390625,1,fly,7.6,90,115.0,2.283579898767805,[6300|0|0],fly
6000,1.3234246969223022,0.4821496605873108,1.2290055751800537,-0.0463288724422454,-0.8670041561126709,-0.2103789001703262,3.736328125,1,fly,7.6,90,115.0,2.2898705319975203,[6300|0|0],fly
6100,1.3184397220611572,0.4819103181362152,1.227217674255371,-0.1444877982139587,-0.6765989661216736,-1.084045171737671,3.736328125,1,fly,7.6,90,115.0,2.295171838335738,[6300|0|0],fly
6200,1.314117431640625,0.4834874868392944,1.2239824533462524,-0.4149026274681091,-0.9632993340492249,-1.9489096403121948,3.7421875,1,fly,7.6,90,115.0,2.3007964547607216,[6300|0|0],fly
6300,1.3104617595672607,0.4857253134250641,1.219823122024536,-0.3300681710243225,-0.4534724652767181,-2.592148542404175,3.94921875,1,fly,7.6,90,270.0,2.306769045754568,[6300|0|0],fly
6400,1.3077552318572998,0.4869906902313232,1.1958649158477783,1.2673150300979614,-2.1463301181793213,-2.858293294906616,3.916015625,1,fly,7.6,90,270.0,2.330912825779962,[6300|0|0],fly
6500,1.3053432703018188,0.4882040619850158,1.1325544118881226,-0.0765151157975196,-1.690871238708496,-2.8591346740722656,3.84375,1,fly,7.6,90,270.0,2.394280875625159,[6300|0|0],fly
6600,1.3044061660766602,0.4891341626644134,1.033778190612793,-0.4515358805656433,-1.4986205101013184,-5.835918426513672,3.75390625,1,fly,7.6,90,270.0,2.493065920753637,[6300|0|0],fly
6700,1.304032325744629,0.4915843904018402,0.9141561985015868,-1.0343682765960691,-0.7515850067138672,-3.504828929901123,3.7265625,1,fly,7.6,90,270.0,2.612713588383276,[6300|0|0],fly
6800,1.3050585985183716,0.494250476360321,0.7882614731788635,-0.0619404353201389,0.078015848994255,-2.826794385910034,3.7265625,1,fly,7.6,90,270.0,2.738640722529289,[6300|0|0],fly
6900,1.307179570198059,0.4966180622577667,0.663648247718811,0.957105815410614,0.7324022054672241,-1.8665030002594,3.736328125,1,fly,7.6,90,270.0,2.8632944827750424,[6300|0|0],fly
7000,1.308463454246521,0.5005694031715393,0.5424769520759583,-2.037127494812012,-1.7080434560775757,-0.7760280966758728,3.732421875,1,fly,7.6,90,270.0,2.984536984980476,[6300|0|0],fly
7100,1.3095461130142212,0.5121872425079346,0.4191343188285827,-1.9369860887527464,3.234834909439087,1.7388266324996948,3.689453125,1,fly,7.6,90,270.0,3.108430291971814,[6300|0|0],fly
7200,1.3107590675354004,0.5338121652603149,0.301106333732605,-2.0191099643707275,-3.0212113857269287,2.8232786655426025,3.65234375,1,fly,7.6,90,270.0,3.228429099501444,[6300|0|0],fly
7300,1.313826322555542,0.5629214644432068,0.196808859705925,0.9054193496704102,2.9645702838897705,5.485019207000732,3.673828125,1,fly,7.6,90,270.0,3.3367560233967697,[6300|0|0],fly
7400,1.3141251802444458,0.5931355357170105,0.109820008277893,0.2257994711399078,5.713758945465088,9.718154907226562,3.689453125,1,fly,7.6,90,270.0,3.42884315437404,[6300|0|0],fly
7500,1.3069846630096436,0.6237730383872986,0.0336636044085025,9.14779567718506,1.3217487335205078,12.852856636047363,3.65234375,1,fly,7.6,90,270.0,3.511241221138801,[6300|0|0],fly
7600,1.305681824684143,0.6314747333526611,0.0,-0.4974761009216308,5.954273700714111,17.7428035736084,3.705078125,1,fly,7.6,90,270.0,3.545799168919508,[6300|0|0],fly
7700,1.3134868144989014,0.6367248892784119,0.0019174673361703,7.710336208343506,-7.3801589012146,11.55775260925293,3.748046875,1,fly,7.6,90,270.0,3.5553991003900163,[6300|0|0],fly
7800,1.333570122718811,0.631176769733429,0.021652203053236,8.161297798156738,-1.5969406366348269,4.605830669403076,3.7421875,1,fly,7.6,90,270.0,3.5840971960300365,[6300|0|0],fly
7900,1.3586517572402954,0.6139946579933167,0.036011591553688,11.13833236694336,0.7102632522583008,-0.1819372773170471,3.7421875,1,fly,7.6,90,270.0,3.617720185073635,[6300|0|0],fly
8000,1.3821797370910645,0.5834372043609619,0.043411087244749,8.312654495239258,3.682897567749024,-2.526329755783081,3.732421875,1,fly,7.6,90,270.0,3.6569894649859753,[6300|0|0],fly
8100,1.3993113040924072,0.5423398017883301,0.0448817014694213,0.7503494620323181,6.22332239151001,-1.738924503326416,3.736328125,1,fly,7.6,90,270.0,3.701538873425777,[6300|0|0],fly
8200,1.404994249343872,0.5000221133232117,0.0457649901509285,-1.5449656248092651,5.757873058319092,-0.0930443480610847,3.720703125,1,fly,7.6,90,270.0,3.74424558042429,[6300|0|0],fly
8300,1.4025120735168457,0.4633469879627228,0.0470955371856689,-4.678117752075195,3.781672239303589,0.731006920337677,3.7265625,1,fly,7.6,90,270.0,3.781028679429886,[6300|0|0],fly
8400,1.3956345319747925,0.4366301298141479,0.0497323237359523,-5.156801700592041,2.410680294036865,-0.4807893633842468,3.732421875,1,fly,7.6,90,270.0,3.808742281330496,[6300|0|0],fly
8500,1.3881179094314575,0.4209900200366974,0.052952840924263,-6.362166881561279,0.3547863960266113,-2.4510767459869385,3.732421875,1,fly,7.6,90,270.0,3.8263912013900887,[6300|0|0],fly
8600,1.3804680109024048,0.4169496595859527,0.0571910589933395,-2.903595209121704,-0.1488047689199447,-2.5934371948242188,3.736328125,1,fly,7.6,90,270.0,3.836024889805114,[6300|0|0],fly
8700,1.375898361206055,0.4194490909576416,0.0608615018427372,-2.767540693283081,-0.885176420211792,-1.7564365863800049,3.736328125,1,fly,7.6,90,270.0,3.8423967816937,[6300|0|0],fly
8800,1.373958706855774,0.4264902174472809,0.0598305091261863,-1.621265530586243,0.3174247741699219,-2.3266398906707764,3.7265625,1,fly,7.6,90,270.0,3.8497725980704303,[6300|0|0],fly
8900,1.3723567724227903,0.4366085231304168,0.0566885843873024,2.0796427726745605,1.540805697441101,-3.005608081817627,3.720703125,1,fly,7.6,90,270.0,3.8604879139729023,[6300|0|0],fly
9000,1.3702738285064695,0.4446456730365753,0.0514855980873107,0.6797775030136108,0.0159447081387043,-3.4159743785858154,3.7109375,1,fly,7.6,90,270.0,3.870286153631663,[6300|0|0],fly
9100,1.367475986480713,0.4490525126457214,0.0484265424311161,1.9827938079833984,0.3727233707904815,-3.3605313301086426,3.720703125,1,fly,7.6,90,270.0,3.876336440967776,[6300|0|0],fly
9200,1.3647340536117554,0.4477118253707886,0.0488059483468532,1.5125221014022827,0.3260508775711059,-3.231668472290039,3.7265625,1,fly,7.6,90,270.0,3.879412085140292,[6300|0|0],fly
9300,1.3610206842422483,0.4431724548339844,0.0524325408041477,-0.4076804220676422,0.605482280254364,-1.789381504058838,3.732421875,1,B2,7.6,90,270.0,3.886307530723871,[6300|100|0],intermediate
9400,1.3561829328536987,0.4376285076141357,0.053554743528366,0.1108997240662574,-0.1749815791845321,0.3331156373023987,3.732421875,1,B2,7.6,90,270.0,3.893750549481615,[6300|200|0],intermediate
9500,1.3523855209350586,0.4314943552017212,0.0560104437172412,-0.8580446839332581,-0.7418244481086731,1.834666013717652,3.7265625,1,B2,7.6,90,270.0,3.901371482922881,[6300|300|0],intermediate
9600,1.3493016958236694,0.4282026588916778,0.058399349451065,-3.499875068664551,-1.453694224357605,0.8202313780784607,3.7265625,1,B2,7.6,90,270.0,3.906475609931516,[6300|400|0],intermediate
9700,1.348219633102417,0.4296924173831939,0.059895109385252,-1.4265398979187012,0.4319205284118652,-1.0188944339752195,3.720703125,1,B2,7.6,90,270.0,3.908847853147649,[6300|500|0],intermediate
9800,1.3475620746612549,0.4358726739883423,0.0572552382946014,-0.8304920792579651,-0.4325409829616546,-2.387469530105591,3.7109375,1,B2,7.6,90,270.0,3.915600398903457,[6300|600|0],intermediate
9900,1.3477553129196167,0.445005714893341,0.0530891567468643,-0.7176456451416016,0.704392671585083,-2.7872018814086914,3.7109375,1,B2,7.6,90,270.0,3.925640618655,[6300|700|0],intermediate
10000,1.347995400428772,0.4552758336067199,0.0515642203390598,-0.7602612972259521,-0.9112969040870668,-3.7126195430755615,3.7109375,1,B2,7.6,90,270.0,3.9360261090838047,[6300|800|0],intermediate
10100,1.3488129377365112,0.4661965370178222,0.0512145981192588,0.8694369196891785,1.0030672550201416,-3.892607927322388,3.716796875,1,B2,7.6,90,270.0,3.946982950140395,[6300|900|0],intermediate
10200,1.3489753007888794,0.4757222235202789,0.0534072518348693,-0.987155556678772,-0.0758308172225952,-2.410783529281616,3.7265625,1,B2,7.6,90,270.0,3.956759084111472,[6300|1000|0],intermediate
10300,1.349367618560791,0.4878073930740356,0.056772943586111,-0.2731689214706421,-0.2142467498779297,-1.7533349990844729,3.7265625,1,B2,7.6,90,270.0,3.969310303866602,[6300|1100|0],intermediate
10400,1.3497618436813354,0.4995465278625488,0.0570544488728046,-0.4296445548534393,1.4349870681762695,-2.270561933517456,3.7109375,1,B2,7.6,90,270.0,3.981059429121488,[6300|1200|0],intermediate
10500,1.3488506078720093,0.5123255252838135,0.0554633252322673,0.4272144138813019,0.5590860843658447,-4.324857234954834,3.705078125,1,B2,7.6,90,270.0,3.9939693013219535,[6300|1300|0],intermediate
10600,1.345771074295044,0.5245090126991272,0.0521419942378997,-1.5924676656723022,0.3276474177837372,-6.479014873504639,3.701171875,1,B2,7.6,90,270.0,4.006967460123296,[6300|1400|0],intermediate
10700,1.3413734436035156,0.538946270942688,0.0483327433466911,1.1982027292251587,0.6216171979904175,-5.703820705413818,3.705078125,1,B2,7.6,90,270.0,4.022532933891946,[6300|1500|0],intermediate
10800,1.3348878622055054,0.5514959692955017,0.0462663955986499,1.454869508743286,0.8155104517936707,-4.823005199432373,3.705078125,1,B2,7.6,90,270.0,4.036809750337942,[6300|1600|0],intermediate
10900,1.3259752988815308,0.5611178874969482,0.0460257045924663,0.5170565247535706,1.4859834909439087,-4.206954956054688,3.705078125,1,B2,7.6,90,270.0,4.049927411220875,[6300|1700|0],intermediate
11000,1.3142962455749512,0.5689225792884827,0.0472557991743087,0.0586866438388824,-0.2258299440145492,-4.338451862335205,3.716796875,1,B2,7.6,90,270.0,4.0640280010234,[6300|1800|0],intermediate
11100,1.3004562854766846,0.5750218629837036,0.0522991865873336,1.1193382740020752,0.006458877120167,-3.2264244556427,3.716796875,1,B2,7.6,90,270.0,4.07997107204859,[6300|1900|0],intermediate
11200,1.2863134145736694,0.5797338485717773,0.0574395433068275,-0.2534929513931274,0.6405555605888367,-3.054362297058105,4.0,1,B2,7.6,90,270.0,4.095739612652121,[6300|2000|0],intermediate
11300,1.2714704275131226,0.5861570835113525,0.0395467877388,0.3859161734580993,1.0114867687225342,-5.22788667678833,4.02734375,1,B2,7.6,90,270.0,4.119858545335507,[6300|2100|0],intermediate
11400,1.25401508808136,0.5968883037567139,0.0,0.348230242729187,-2.375181198120117,-6.634252071380615,4.03125,1,B2,7.6,90,270.0,4.1643983745122135,[6300|2200|0],intermediate
11500,1.243894100189209,0.6068524718284607,0.0,-1.9979445934295648,-0.692774772644043,-2.477119207382202,4.03125,1,B2,7.6,90,270.0,4.178601157383014,[6300|2300|0],intermediate
11600,1.2435705661773682,0.606687605381012,0.0,-1.7568602561950684,-0.5244408845901489,-2.421926021575928,4.0390625,1,B2,7.6,90,270.0,4.178964276099569,[6300|2400|0],intermediate
11700,1.2435201406478882,0.6070533394813538,0.0,-1.5638713836669922,-0.4130957722663879,-2.4384560585021973,4.0390625,1,B2,7.6,90,270.0,4.179333470040711,[6300|2500|0],intermediate
11800,1.2439616918563845,0.6067638993263245,0.0,-1.421250820159912,-0.3991476595401764,-2.522958517074585,4.0390625,1,B2,7.6,90,270.0,4.179861431282724,[6300|2600|0],intermediate
11900,1.2438719272613523,0.6069008111953735,0.0,-1.2960790395736694,-0.4287089109420776,-2.4834275245666504,4.04296875,1,B2,7.6,90,270.0,4.180025146103091,[6300|2700|0],intermediate
12000,1.2433671951293943,0.6071137189865112,0.0,-1.1346055269241333,-0.3772730231285095,-2.498764514923096,4.04296875,1,B2,7.6,90,270.0,4.180572945566908,[6300|2800|0],intermediate
12100,1.243497371673584,0.6068788766860962,0.0,-0.9826004505157472,-0.3583866655826568,-2.5004796981811523,4.04296875,1,B2,7.6,90,270.0,4.180841454111877,[6300|2900|0],intermediate
12200,1.2435377836227417,0.6068402528762817,0.0,-0.8342093825340271,-0.288207471370697,-2.5201961994171143,4.04296875,1,B2,7.6,90,270.0,4.180897355134402,[6300|3000|0],intermediate
12300,1.241031527519226,0.6066305041313171,0.0,-0.6115326285362244,0.5505537986755371,-0.4873548448085785,4.046875,1,B2,7.6,90,270.0,4.183412372866432,[6300|3100|0],intermediate
12400,1.2390923500061035,0.6034692525863647,0.0,-0.5858795642852783,3.1723275184631348,-4.101476192474365,4.046875,1,B2,7.6,90,270.0,4.18712100074718,[6300|3200|0],intermediate
12500,1.2366715669631958,0.6056736707687378,0.0033110384829342,-5.680292129516602,14.931270599365234,-17.578510284423828,4.046875,1,B2,7.6,90,270.0,4.19177746140943,[6300|3300|0],intermediate
12600,1.2675106525421145,0.5806319713592529,0.0426804199814796,-14.840482711791992,4.219063758850098,-7.121854305267334,4.046875,1,B2,7.6,90,270.0,4.247706739146916,[6300|3400|0],intermediate
12700,1.3112401962280271,0.5470041632652283,0.0456968359649181,-12.775307655334473,1.8043309450149536,2.453064441680908,4.046875,1,B2,7.6,90,270.0,4.302953469670738,[6300|3500|0],intermediate
12800,1.3396852016448977,0.534709632396698,0.012344367802143,-5.516107082366943,7.442265033721924,5.414738178253174,4.0546875,1,B2,7.6,90,270.0,4.348479955972582,[6300|3600|0],intermediate
12900,1.3413597345352173,0.5350010395050049,0.0058852611109614,-6.923252582550049,3.854501724243164,1.588531732559204,4.0546875,1,B2,7.6,90,270.0,4.355158955729402,[6300|3700|0],intermediate
13000,1.33288311958313,0.5311151742935181,0.0044692074880003,-8.975939750671387,3.848029851913452,-2.71254563331604,4.0546875,1,B2,7.6,90,270.0,4.364590718944776,[6300|3800|0],intermediate
13100,1.3280560970306396,0.5291115641593933,0.0020588024053722,-9.263004302978516,2.515466690063477,-4.798331260681152,4.0546875,1,B2,7.6,90,270.0,4.3703461210118935,[6300|3900|0],intermediate
13200,1.3239721059799194,0.5231394171714783,0.0006046226480975,-1.2899900674819946,-1.3454742431640625,-7.01971435546875,4.0546875,1,B2,7.6,90,270.0,4.377725833832464,[6300|4000|0],intermediate
13300,1.32585346698761,0.5257757902145386,0.0,-2.4125289916992188,-1.9642722606658936,-4.930761814117432,4.0546875,1,B2,7.6,90,270.0,4.3810206100934606,[6300|4100|0],intermediate
13400,1.3275338411331177,0.5265334844589233,0.0,-2.398567914962769,-1.8789538145065308,-6.804014205932617,4.05859375,1,B2,7.6,90,270.0,4.382863910892805,[6300|4200|0],intermediate
13500,1.3276078701019287,0.5266588926315308,0.0,-2.415432929992676,-1.802653789520264,-6.819887638092041,4.05859375,1,B2,7.6,90,270.0,4.383009538836483,[6300|4300|0],intermediate
13600,1.3274586200714111,0.5268686413764954,0.0,-2.420793533325196,-1.7376245260238647,-6.819215774536133,4.05859375,1,B2,7.6,90,270.0,4.383266968647546,[6300|4400|0],intermediate
13700,1.3274368047714231,0.5266006588935852,1.2774535207427108e-05,-2.41195034980774,-1.6327135562896729,-6.820138454437256,4.05859375,1,B2,7.6,90,270.0,4.383536140910623,[6300|4500|0],intermediate
13800,1.3270584344863892,0.5268043279647827,0.0,-2.397634983062744,-1.4949774742126465,-6.827657222747803,4.05859375,1,B2,7.6,90,270.0,4.383966034329867,[6300|4600|0],intermediate
13900,1.3275116682052612,0.5267384648323059,0.0,-2.3504111766815186,-1.34248948097229,-6.854943752288818,4.05859375,1,B2,7.6,90,270.0,4.384424028605095,[6300|4700|0],intermediate
14000,1.327593207359314,0.5266348719596863,0.0,-2.279278039932251,-1.2209619283676147,-6.869256496429443,4.12109375,1,B2,7.6,90,270.0,4.384555862276444,[6300|4800|0],intermediate
14100,1.3274558782577517,0.5269526243209839,0.0,-2.285951852798462,-1.1672511100769043,-6.8544087409973145,4.12109375,1,B2,7.6,90,270.0,4.384902020975954,[6300|4900|0],intermediate
14200,1.327326774597168,0.5268520712852478,0.0001025984674924,-2.273770332336426,-1.1239047050476074,-6.886310577392578,4.12109375,1,B2,7.6,90,270.0,4.385095166293535,[6300|5000|0],intermediate
14300,1.3272819519042969,0.5266233682632446,0.0,-2.26990008354187,-1.080432415008545,-6.8889265060424805,4.12890625,1,B2,7.6,90,270.0,4.385349804451716,[6300|5100|0],intermediate
14400,1.3272414207458496,0.5267837643623352,0.0,-2.2812790870666504,-1.0489298105239868,-6.918820858001709,4.12890625,1,B2,7.6,90,270.0,4.38551524230533,[6300|5200|0],intermediate
14500,1.327736735343933,0.527024507522583,0.0001094683320843,-2.2882332801818848,-1.0296597480773926,-6.9320478439331055,4.12890625,1,B2,7.6,90,270.0,4.386076737751448,[6300|5300|0],intermediate
14600,1.3274712562561035,0.5267170071601868,0.0,-2.274090051651001,-1.0034971237182615,-6.919723033905029,4.12890625,1,B2,7.6,90,270.0,4.38649747393325,[6300|5400|0],intermediate
14700,1.3273212909698486,0.5270182490348816,0.0,-2.2788615226745605,-0.9768041968345642,-6.917819023132324,4.12890625,1,B2,7.6,90,270.0,4.386833979882902,[6300|5500|0],intermediate
14800,1.3275305032730105,0.5268576145172119,0.0,-2.276003837585449,-0.961211621761322,-6.921281337738037,4.12890625,1,B2,7.6,90,270.0,4.387097747272966,[6300|5600|0],intermediate
14900,1.3273611068725586,0.5266318917274475,0.0,-2.2723135948181152,-0.9357483386993408,-6.936347484588623,4.12890625,1,B2,7.6,90,270.0,4.387379963357385,[6300|5700|0],intermediate
15000,1.3275238275527954,0.5269235372543335,0.0,-2.281855583190918,-0.9231234788894652,-6.947384357452393,4.12890625,1,B2,7.6,90,270.0,4.387713932118094,[6300|5800|0],intermediate
15100,1.3274368047714231,0.526904821395874,0.0,-2.287362098693848,-0.9134868383407592,-6.956681251525879,4.1328125,1,B2,7.6,90,270.0,4.387802944745488,[6300|5900|0],intermediate
15200,1.327411413192749,0.5269099473953247,0.0,-2.290020227432251,-0.911834478378296,-6.941420555114746,4.1328125,1,B2,7.6,90,270.0,4.387828848570262,[6300|6000|0],intermediate
15300,1.3274040222167969,0.5267296433448792,0.0003358396934345,-2.288956880569458,-0.9075828790664672,-6.939976215362549,4.1328125,1,B2,7.6,90,270.0,4.388210099769367,[6300|6100|0],intermediate
15400,1.3274848461151123,0.5268234014511108,0.0,-2.2902374267578125,-0.90572190284729,-6.942044258117676,4.1328125,1,B2,7.6,90,270.0,4.38856802627678,[6300|6200|0],intermediate
15501,1.3278483152389526,0.52690589427948,0.0,-2.286298513412476,-0.911052107810974,-6.947690010070801,4.1328125,1,B2,7.6,90,270.0,4.388940739129681,[6300|6300|0],intermediate
15601,1.3272931575775146,0.5268762111663818,0.0001822108461055,-2.288595676422119,-0.894058346748352,-6.950606822967529,4.1328125,1,B2,7.6,90,270.0,4.389525787767569,[6300|6400|0],intermediate
15701,1.3269803524017334,0.527122437953949,0.0,-2.290902853012085,-0.884497344493866,-6.941652774810791,4.1328125,1,B2,7.6,90,270.0,4.389963595375257,[6300|6500|0],intermediate
15801,1.3271679878234863,0.5268537998199463,0.0,-2.2889976501464844,-0.8935911655426025,-6.937424659729004,4.13671875,1,B2,7.6,90,270.0,4.390291274331763,[6300|6600|0],intermediate
15902,1.3272089958190918,0.5267244577407837,0.0,-2.290681838989258,-0.8913224339485168,-6.958676338195801,4.13671875,1,B2,7.6,90,270.0,4.390426961579306,[6300|6700|0],intermediate
16002,1.3274927139282229,0.5270852446556091,0.0001058054185705,-2.301053047180176,-0.892431914806366,-6.964073181152344,4.13671875,1,B2,7.6,90,270.0,4.390897979572547,[6300|6800|0],intermediate
16102,1.3269628286361694,0.5268466472625732,0.0,-2.3005990982055664,-0.8793783783912659,-6.978151798248291,4.13671875,1,B2,7.6,90,270.0,4.391488658779306,[6300|6900|0],intermediate
16202,1.3275063037872314,0.5267384648323059,0.0,-2.2986598014831543,-0.8917416930198669,-6.987386703491211,4.13671875,1,B2,7.6,90,270.0,4.392042796558238,[6300|7000|0],intermediate
16302,1.3274130821228027,0.5271074771881104,0.0,-2.3088340759277344,-0.8795364499092102,-6.990367412567139,4.13671875,1,B2,7.6,90,270.0,4.392423401862267,[6300|7100|0],intermediate
16402,1.3273155689239502,0.5268210768699646,0.0002783102099783,-2.2930212020874023,-0.8841391205787659,-6.983477592468262,4.13671875,1,B2,7.6,90,270.0,4.392834486451084,[6300|7200|0],intermediate
16502,1.3275166749954224,0.5268003940582275,0.0001350312668364,-2.2978198528289795,-0.8844791650772095,-6.998705387115479,4.13671875,1,B2,7.6,90,270.0,4.393082277262519,[6300|7300|0],intermediate
16602,1.3273558616638184,0.526878297328949,0.0,-2.294862985610962,-0.879740834236145,-6.988786697387695,4.13671875,1,B2,7.6,90,270.0,4.39330624889071,[6300|7400|0],intermediate
16702,1.3268921375274658,0.5268134474754333,0.0,-2.289766788482666,-0.8796438574790955,-6.989675998687744,4.14453125,1,B2,7.6,90,270.0,4.393774485559646,[6300|7500|0],intermediate
16802,1.3272922039031982,0.526636004447937,0.0,-2.2871696949005127,-0.8846539258956909,-6.990286350250244,4.14453125,1,B2,7.6,90,270.0,4.394212137399582,[6300|7600|0],intermediate
16902,1.327439785003662,0.527121901512146,4.2722687794594094e-05,-2.289850950241089,-0.8820183873176575,-6.983432769775391,4.14453125,1,B2,7.6,90,270.0,4.394721746432345,[6300|7700|0],intermediate
17000,1.3270865678787231,0.5267422795295715,0.0,-2.285338878631592,-0.8780037760734558,-6.981306076049805,4.14453125,1,B2,7.6,90,270.0,4.39524203521279,[6300|7800|0],intermediate
17100,1.3269615173339844,0.5270707607269287,0.0,-2.303544521331787,-0.8727562427520752,-6.986143112182617,4.14453125,1,B2,7.6,90,270.0,4.395593514281521,[6300|7900|0],intermediate
17200,1.3273630142211914,0.5266712307929993,5.768437767983414e-05,-2.294739484786988,-0.8846993446350098,-6.994840145111084,4.14453125,1,B2,7.6,90,270.0,4.396162857241406,[6300|8000|0],intermediate
17300,1.3275107145309448,0.5268126726150513,0.0,-2.301948547363281,-0.8903116583824158,-6.990271091461182,4.14453125,1,B2,7.6,90,270.0,4.39637533937702,[6300|8100|0],intermediate
17400,1.3277204036712646,0.5268739461898804,0.000193099171156,-2.301918268203736,-0.8852910399436951,-6.967840194702148,4.14453125,1,B2,7.6,90,270.0,4.396666906310059,[6300|8200|0],intermediate
17500,1.3274229764938354,0.527197539806366,0.000149743471411,-2.3145227432250977,-0.8715442419052124,-6.980448722839356,4.14453125,1,B2,7.6,90,270.0,4.397108557157679,[6300|8300|0],intermediate
17600,1.3271000385284424,0.5273051261901855,0.0,-2.311211109161377,-0.8604630827903748,-6.975565910339356,4.14453125,1,B2,7.6,90,270.0,4.397480426579259,[6300|8400|0],intermediate
17700,1.3275753259658811,0.5270575284957886,0.0003210745635442,-2.3102896213531494,-0.8777205348014832,-6.987489223480225,4.14453125,1,B2,7.6,90,270.0,4.398105159835787,[6300|8500|0],intermediate
17800,1.3272374868392944,0.5264304280281067,3.654656757134944e-05,-2.2908356189727783,-0.867531955242157,-6.983433246612549,4.14453125,1,B2,7.6,90,270.0,4.398872197287619,[6300|8600|0],intermediate
17900,1.3272686004638672,0.5271421670913696,0.0,-2.300464868545532,-0.8759679794311523,-6.991580486297607,4.1484375,1,B2,7.6,90,270.0,4.399585552881562,[6300|8700|0],intermediate
18000,1.3269883394241333,0.5268458127975464,0.0,-2.2910044193267822,-0.8699055910110474,-7.004405498504639,4.14453125,1,B2,7.6,90,270.0,4.399993440265359,[6300|8800|0],intermediate
18100,1.327236890792847,0.5267070531845093,0.0001189966278616,-2.2892746925354004,-0.8739164471626282,-7.0027756690979,4.1484375,1,B2,7.6,90,270.0,4.400301972614622,[6300|8900|0],intermediate
18200,1.3272334337234497,0.5269168019294739,0.0004371894756332,-2.30543851852417,-0.8709928393363953,-7.002191543579102,4.1484375,1,B2,7.6,90,270.0,4.400683093560932,[6300|9000|0],intermediate
18300,1.3272770643234253,0.5267735123634338,0.0,-2.301364183425904,-0.8808953166007996,-6.982661247253418,4.1484375,1,B2,7.6,90,270.0,4.401145230084694,[6300|9100|0],intermediate
18400,1.3276928663253784,0.5270504355430603,0.0,-2.310386180877685,-0.8919835686683655,-6.984340667724609,4.1484375,1,B2,7.6,90,270.0,4.401644807658493,[6300|9200|0],intermediate
18500,1.327498197555542,0.5270681977272034,0.0,-2.3067820072174072,-0.8807164430618286,-7.0197434425354,4.1484375,1,B2,7.6,90,270.0,4.401840285087204,[6300|9300|0],intermediate
18600,1.3274931907653809,0.5269264578819275,0.0,-2.293902635574341,-0.8783541917800903,-7.016215801239014,4.1484375,1,B2,7.6,90,270.0,4.401982113334343,[6300|9400|0],intermediate
18700,1.3274341821670532,0.5271823406219482,0.0,-2.289788722991944,-0.869550883769989,-6.993709087371826,4.1484375,1,B2,7.6,90,270.0,4.402244711870739,[6300|9500|0],intermediate
18800,1.3269987106323242,0.5273036956787109,0.0,-2.292881727218628,-0.8649809956550598,-7.008775234222412,4.1484375,1,B2,7.6,90,270.0,4.402696776586638,[6300|9600|0],intermediate
18900,1.3273875713348389,0.5270799994468689,0.0,-2.2939693927764893,-0.8815624117851257,-7.02471399307251,4.1484375,1,B2,7.6,90,270.0,4.403145388501438,[6300|9700|0],intermediate
19000,1.3275816440582275,0.5269491672515869,3.220048893126659e-05,-2.288367986679077,-0.8852931261062622,-7.015702724456787,4.1484375,1,B2,7.6,90,270.0,4.403381647166408,[6300|9800|0],intermediate
19100,1.3276793956756592,0.5267989039421082,0.000250510754995,-2.290194511413574,-0.8918842673301697,-7.002721309661865,4.1484375,1,B2,7.6,90,270.0,4.403664125153435,[6300|9900|0],intermediate
19200,1.3274054527282717,0.5270568132400513,0.0002508813049644,-2.296860694885254,-0.8815191984176636,-6.993466377258301,4.1484375,1,B2,7.6,90,270.0,4.404040372521129,[6300|10000|0],intermediate
19300,1.3272119760513306,0.5272901058197021,0.0,-2.306865930557251,-0.8809199333190918,-6.986280918121338,4.15234375,1,B2,7.6,90,270.0,4.404433818936059,[6300|10100|0],intermediate
19400,1.3271722793579102,0.5268254280090332,0.0001164513814728,-2.2919251918792725,-0.8824007511138916,-6.995423793792725,4.15234375,1,fly,7.6,90,270.0,4.404914508253023,[6300|10100|0],fly
19500,1.3274908065795898,0.5273183584213257,0.000217018648982,-2.440702676773072,-1.0583293437957764,-6.711384296417236,3.45703125,1,fly,7.6,90,270.0,4.405509952421361,[6300|10100|0],fly
19600,1.327507734298706,0.5289453864097595,0.0034351255744695,-0.9055984020233154,-1.2288362979888916,-6.719664096832275,3.642578125,1,fly,7.6,90,270.0,4.40911601936565,[6300|10100|0],fly
19700,1.328169345855713,0.5283255577087402,0.0272630248218774,-0.0329122878611087,-0.7570761442184448,-6.492566585540772,3.689453125,1,fly,7.6,90,270.0,4.432961159332016,[6300|10100|0],fly
19800,1.332466721534729,0.5347734093666077,0.0764524191617965,2.7698628902435303,1.4204667806625366,-5.419828414916992,3.705078125,1,fly,7.6,90,270.0,4.482757130496926,[6300|10100|0],fly
19900,1.3371789455413818,0.5443083643913269,0.141169473528862,3.4172019958496094,1.1749202013015747,-2.230541706085205,3.720703125,1,fly,7.6,90,270.0,4.548342323554215,[6300|10100|0],fly
20000,1.3411598205566406,0.5530051589012146,0.216426596045494,4.297468185424805,1.6450613737106323,-1.691872239112854,3.732421875,1,fly,7.6,90,270.0,4.624204804993447,[6300|10100|0],fly
20100,1.3429008722305298,0.5593726634979248,0.2976652979850769,5.947442531585693,3.6264476776123047,-3.2035627365112305,3.748046875,1,fly,7.6,90,270.0,4.705711265280645,[6300|10100|0],fly
20200,1.3377741575241089,0.561269998550415,0.3826999366283417,1.9517890214920044,0.7791873216629028,-2.648883581161499,3.732421875,1,fly,7.6,90,270.0,4.790921433999954,[6300|10100|0],fly
20300,1.3306798934936523,0.5646917223930359,0.4715141355991363,3.558265924453736,1.490576148033142,-1.2593039274215698,3.736328125,1,fly,7.6,90,270.0,4.880084199294739,[6300|10100|0],fly
20400,1.3227622509002686,0.569354236125946,0.557930588722229,4.171947479248047,-1.6398910284042358,1.9506984949111936,3.732421875,1,fly,7.6,90,270.0,4.9669877749917255,[6300|10100|0],fly
20500,1.3171993494033811,0.5703338384628296,0.6458465456962585,3.850962400436402,-1.4511021375656128,3.69298243522644,3.720703125,1,fly,7.6,90,270.0,5.055084999604434,[6300|10100|0],fly
20600,1.3153784275054932,0.5636619925498962,0.7349655628204346,5.035476207733154,-1.8425949811935425,3.61136794090271,3.7265625,1,fly,7.6,90,270.0,5.144471958930855,[6300|10100|0],fly
20700,1.3173987865447998,0.5464232563972473,0.8262006640434265,3.59724235534668,-1.371392011642456,3.4904937744140625,3.720703125,1,fly,7.6,90,270.0,5.237343373100975,[6300|10100|0],fly
20800,1.3225117921829224,0.5209298729896545,0.9190713763237,1.425278663635254,-0.5968365669250488,2.9353601932525635,3.7578125,1,fly,7.6,90,270.0,5.33378519299083,[6300|10100|0],fly
20900,1.326646089553833,0.4946653544902801,1.0015217065811155,-0.4553225934505462,-0.2995304763317108,2.5748093128204346,3.794921875,1,fly,7.6,90,270.0,5.420416447779804,[6300|10100|0],fly
21000,1.3336560726165771,0.4601058065891266,1.0902262926101685,-3.304485559463501,0.6963063478469849,2.208197832107544,3.794921875,1,fly,7.6,90,270.0,5.515873274650687,[6300|10100|0],fly
21100,1.3367801904678345,0.4338155388832092,1.1557589769363403,-4.551755428314209,1.0287177562713623,1.5789581537246704,3.779296875,1,fly,7.6,90,270.0,5.586551920671893,[6300|10100|0],fly
21200,1.3364077806472778,0.4136256277561188,1.2046623229980469,-6.613970756530762,1.7510532140731812,1.5520024299621582,3.76953125,1,fly,7.6,90,270.0,5.639460412017095,[6300|10100|0],fly
21300,1.3337643146514893,0.4013696610927582,1.2359435558319092,-6.397520542144775,0.8146677613258362,1.5150389671325684,3.748046875,1,fly,7.6,90,270.0,5.673160740783008,[6300|10100|0],fly
21400,1.3283284902572632,0.3963873088359833,1.254690170288086,-5.404573440551758,0.427940309047699,1.9728353023529053,3.7265625,1,fly,7.6,90,270.0,5.693305406936211,[6300|10100|0],fly
21500,1.321438550949097,0.3982888758182525,1.2668139934539795,-4.002194881439209,0.0252330489456653,2.555957555770874,3.736328125,1,fly,7.6,90,270.0,5.7073792944167945,[6300|10100|0],fly
21600,1.3143271207809448,0.4041208326816559,1.2770779132843018,-2.3482913970947266,-0.7295873165130615,1.8206642866134644,3.7421875,1,fly,7.6,90,270.0,5.721160883954159,[6300|10100|0],fly
21700,1.307615876197815,0.4120430648326874,1.2859028577804563,-1.0637781620025637,-0.8370389938354492,1.6486841440200806,3.736328125,1,fly,7.6,90,270.0,5.734787409977677,[6300|10100|0],fly
21800,1.3030064105987549,0.4244709610939026,1.2958009243011477,-0.2864497303962707,-1.0616438388824463,1.977734923362732,3.748046875,1,fly,7.6,90,270.0,5.75133042963663,[6300|10100|0],fly
21900,1.2968047857284546,0.4290424883365631,1.2967746257781982,0.1194669157266616,-0.9141178727149964,2.642115354537964,3.7421875,1,fly,7.6,90,270.0,5.759096194694158,[6300|10100|0],fly
22000,1.2936457395553589,0.4367579221725464,1.2991745471954346,0.1772185862064361,-1.061620593070984,2.632718086242676,3.732421875,1,fly,7.6,90,270.0,5.767771856905776,[6300|10100|0],fly
22100,1.2908321619033811,0.441069483757019,1.299219250679016,0.3922249674797058,-0.5964086055755615,2.8038456439971924,3.736328125,1,fly,7.6,90,270.0,5.772920427668799,[6300|10100|0],fly
22200,1.2884632349014282,0.4466797709465027,1.2966104745864868,-0.055755715817213,-0.897834300994873,2.643776655197144,3.7265625,1,fly,7.6,90,270.0,5.77954559560554,[6300|10100|0],fly
22300,1.2872934341430664,0.4519076943397522,1.2928409576416016,0.0778834447264671,-0.7209824919700623,2.6697137355804443,3.716796875,1,fly,7.6,90,270.0,5.786096082214772,[6300|10100|0],fly
22400,1.2867590188980105,0.4579727947711944,1.290143370628357,-0.0099985767155885,-0.8345938920974731,3.2909178733825684,3.7265625,1,fly,7.6,90,139.0,5.792755513015647,[6300|10100|0],fly
22500,1.2941348552703855,0.4656298756599426,1.2977638244628906,5.7029242515563965,-6.4641523361206055,4.538436412811279,3.7578125,1,fly,7.6,90,139.0,5.805836230372625,[6300|10100|0],fly
22600,1.308787226676941,0.4569893777370453,1.287142276763916,13.648897171020508,-14.394024848937988,6.039979457855225,3.732421875,1,fly,7.6,90,139.0,5.825890343858712,[6300|10100|0],fly
22700,1.34456205368042,0.4298589527606964,1.2682899236679075,16.730281829833984,-15.611441612243652,6.270483016967773,3.701171875,1,fly,7.6,90,139.0,5.874586436348589,[6300|10100|0],fly
22800,1.4040738344192505,0.382983922958374,1.2447092533111572,15.520339012145996,-11.511348724365234,4.134565353393555,3.689453125,1,fly,7.6,90,139.0,5.95392727375373,[6300|10100|0],fly
22900,1.480835199356079,0.3290826380252838,1.2115620374679563,11.628190994262695,-6.924601078033447,0.4229773283004761,3.68359375,1,fly,7.6,90,139.0,6.053407892884086,[6300|10100|0],fly
23000,1.5719949007034302,0.2413266897201538,1.2016749382019043,5.453294277191162,0.0534396097064018,-0.1859104484319687,3.701171875,1,fly,7.6,90,139.0,6.180328940565579,[6300|10100|0],fly
23100,1.6540031433105469,0.1575954705476761,1.1830048561096191,-1.4428781270980835,5.333979606628418,0.211675152182579,3.705078125,1,fly,7.6,90,139.0,6.29900851288091,[6300|10100|0],fly
23200,1.7322006225585938,0.074840098619461,1.1822043657302856,-4.584961891174316,9.234542846679688,0.3972663581371307,3.7109375,1,fly,7.6,90,139.0,6.412867803799892,[6300|10100|0],fly
23300,1.7932493686676023,0.0017366642132401,1.184071063995361,-7.01524829864502,11.029288291931152,0.2200205326080322,3.720703125,1,fly,7.6,90,139.0,6.50812821575512,[6300|10100|0],fly
23400,1.8329228162765503,-0.0582311749458313,1.1841800212860107,-8.233884811401367,10.047907829284668,0.1028982624411583,3.720703125,1,fly,7.6,90,139.0,6.580031873869846,[6300|10100|0],fly
23500,1.856464385986328,-0.1059294790029525,1.1824891567230225,-8.343863487243652,8.597576141357422,0.2959591150283813,3.705078125,1,fly,7.6,90,139.0,6.633250223499426,[6300|10100|0],fly
23600,1.8642749786376955,-0.1419519335031509,1.1792577505111694,-7.844245433807373,6.463159561157227,0.35359987616539,3.716796875,1,fly,7.6,90,139.0,6.670251096082252,[6300|10100|0],fly
23700,1.862637042999268,-0.167222186923027,1.1747002601623535,-6.410039901733398,3.765821933746338,0.2552552819252014,3.705078125,1,fly,7.6,90,139.0,6.695981219660268,[6300|10100|0],fly
23800,1.854184627532959,-0.178491935133934,1.1749680042266846,-5.331697463989258,1.7683002948760986,0.1362664252519607,3.705078125,1,fly,7.6,90,139.0,6.710071011668538,[6300|10100|0],fly
23900,1.851412773132324,-0.1811036169528961,1.1832383871078491,-3.8522233963012695,-0.5934082269668579,0.4900648593902588,3.716796875,1,fly,7.6,90,139.0,6.719176136145605,[6300|10100|0],fly
24000,1.840957403182984,-0.1847129762172699,1.1835050582885742,-1.9163063764572144,-1.497324824333191,0.6040496826171875,3.716796875,1,fly,7.6,90,139.0,6.730240192752271,[6300|10100|0],fly
24100,1.8320331573486328,-0.1897790729999542,1.181877613067627,-1.2531439065933228,-2.6151444911956787,0.2472394108772277,3.7109375,1,fly,7.6,90,139.0,6.740630384197603,[6300|10100|0],fly
24200,1.826358675956726,-0.1942745596170425,1.1778849363327026,-0.776520848274231,-2.8457283973693848,-0.1327899247407913,3.705078125,1,fly,7.6,90,139.0,6.748897826758705,[6300|10100|0],fly
24300,1.8331869840621948,-0.1968476623296737,1.1780108213424685,-0.4759041965007782,-1.94911539554596,0.298867791891098,3.7109375,1,fly,7.6,90,139.0,6.756195942692879,[6300|10100|0],fly
24400,1.84519624710083,-0.1979306042194366,1.176256775856018,-1.4098527431488037,-1.256389021873474,0.7479773759841919,3.7109375,1,fly,7.6,90,139.0,6.768380844721056,[6300|10100|0],fly
24500,1.855400562286377,-0.1983176171779632,1.1725211143493652,-1.3798397779464722,-0.148712620139122,1.0276939868927002,3.701171875,1,fly,7.6,90,139.0,6.779254344356792,[6300|10100|0],fly
24600,1.866021990776062,-0.1978641152381897,1.1681734323501587,-1.2006865739822388,1.0138270854949951,1.3104755878448486,3.701171875,1,fly,7.6,90,139.0,6.790740107106261,[6300|10100|0],fly
24700,1.875137209892273,-0.196195438504219,1.1629741191864014,-1.3290655612945557,1.5130386352539062,1.851484417915344,3.6953125,1,fly,7.6,90,139.0,6.801365762801504,[6300|10100|0],fly
24800,1.878814697265625,-0.2154325693845749,1.166947364807129,-1.2824311256408691,1.7218750715255735,2.79341459274292,3.701171875,1,fly,7.6,90,139.0,6.821350201714112,[6300|10100|0],fly
24900,1.8820157051086424,-0.2169734090566635,1.1640567779541016,-1.7982189655303955,1.8680487871170044,3.53691840171814,3.705078125,1,fly,7.6,90,139.0,6.825930172288366,[6300|10100|0],fly
25000,1.887040972709656,-0.2118466049432754,1.1647872924804688,-2.5298521518707275,1.1907423734664917,3.5638768672943115,3.701171875,1,fly,7.6,90,139.0,6.833146202107601,[6300|10100|0],fly
25100,1.8936405181884768,-0.2020014226436615,1.167115330696106,-1.9276717901229856,1.2717945575714111,2.148711681365967,3.701171875,1,fly,7.6,90,139.0,6.845225166341885,[6300|10100|0],fly
25200,1.88327157497406,-0.1985902488231659,1.1578675508499146,-0.6714856028556824,1.5496625900268557,1.2615094184875488,3.701171875,1,fly,7.6,90,139.0,6.859531546817081,[6300|10100|0],fly
25300,1.878275871276856,-0.1893929839134216,1.1535608768463137,-0.3919646441936493,0.9731842875480652,0.4964180588722229,3.6953125,1,fly,7.6,90,139.0,6.87084941667954,[6300|10100|0],fly
25400,1.8794803619384768,-0.1735214740037918,1.1556706428527832,0.1219112649559974,0.7385240793228149,0.6020963788032532,3.6953125,1,fly,7.6,90,139.0,6.886905777947507,[6300|10100|0],fly
25500,1.871424555778504,-0.1647318601608276,1.1520191431045532,1.0537265539169312,0.1557971835136413,1.075439691543579,3.916015625,1,fly,7.6,90,270.0,6.899375211567636,[6300|10100|0],fly
25600,1.863519191741944,-0.159306913614273,1.122351050376892,1.8551433086395264,-1.3566123247146606,1.2233459949493408,3.859375,1,fly,7.6,90,270.0,6.9305540593924135,[6300|10100|0],fly
25700,1.855404257774353,-0.156437948346138,1.0523558855056765,1.122304081916809,-1.1152231693267822,0.4109371602535248,3.779296875,1,fly,7.6,90,270.0,7.001076440381407,[6300|10100|0],fly
25800,1.8488930463790887,-0.1539470106363296,0.9497007131576538,0.4124849140644073,-1.7268646955490112,1.1553263664245603,3.7109375,1,fly,7.6,90,270.0,7.103968058379717,[6300|10100|0],fly
25900,1.8378835916519165,-0.1445272564888,0.8168649077415466,-0.1084027960896492,-1.6117775440216064,1.3109543323516846,3.66796875,1,fly,7.6,90,270.0,7.237591750373822,[6300|10100|0],fly
26000,1.8370543718338013,-0.1439104229211807,0.6940832734107971,0.6519324779510498,-1.0752267837524414,1.342286467552185,3.68359375,1,fly,7.6,90,270.0,7.360377734175259,[6300|10100|0],fly
26100,1.8398001194000244,-0.1391252428293228,0.5765822529792786,0.2747293710708618,-1.856787919998169,0.945429801940918,3.701171875,1,fly,7.6,90,270.0,7.478008201659908,[6300|10100|0],fly
26200,1.8457273244857788,-0.1318758726119995,0.4624425172805786,-2.501884937286377,0.7150437831878662,-0.5357018709182739,3.6640625,1,fly,7.6,90,270.0,7.592531406269479,[6300|10100|0],fly
26300,1.8519917726516724,-0.1192871406674385,0.3522136211395263,0.6569897532463074,1.192007064819336,-1.603622555732727,3.62109375,1,fly,7.6,90,270.0,7.703653541900819,[6300|10100|0],fly
26400,1.855465054512024,-0.1058828756213188,0.2547530829906463,2.379363536834717,1.5591399669647217,-3.715730667114258,3.62109375,1,fly,7.6,90,270.0,7.802092835399795,[6300|10100|0],fly
26500,1.8555597066879272,-0.0955030098557472,0.1749265491962433,3.6983892917633057,1.2163013219833374,-5.509366035461426,3.62109375,1,fly,7.6,90,270.0,7.882591444518056,[6300|10100|0],fly
26600,1.853082656860352,-0.0913008004426956,0.1138134598731994,4.211451530456543,-1.3278225660324097,-7.455442905426025,3.626953125,1,fly,7.6,90,270.0,7.943898899418792,[6300|10100|0],fly
26700,1.8528985977172847,-0.0945962220430374,0.0720456689596176,4.363285541534424,-1.1101576089859009,-9.150155067443848,3.65234375,1,fly,7.6,90,270.0,7.985796895064083,[6300|10100|0],fly
26800,1.8532096147537231,-0.1055133789777755,0.045642752200365,1.7549173831939695,-1.9948750734329224,-8.820775032043457,3.65234375,1,fly,7.6,90,270.0,8.014369522883916,[6300|10100|0],fly
26900,1.8563895225524905,-0.12056415528059,0.0350988879799842,-0.4114461541175842,-1.5212537050247192,-7.396844387054443,3.6796875,1,fly,7.6,90,270.0,8.033019207965006,[6300|10100|0],fly
27000,1.863568425178528,-0.1348927319049835,0.0371583886444568,-1.7699816226959229,-1.6223628520965576,-6.090541839599609,3.701171875,1,fly,7.6,90,270.0,8.049177372897393,[6300|10100|0],fly
27100,1.872764229774475,-0.1463013738393783,0.0468171499669551,-1.2245029211044312,0.6309716105461121,-4.87786340713501,3.720703125,1,fly,7.6,90,270.0,8.066727632247018,[6300|10100|0],fly
27200,1.8819894790649407,-0.1551145166158676,0.0557814128696918,-2.1329445838928223,0.6016835570335388,-3.4754679203033447,3.716796875,1,fly,7.6,90,270.0,8.08232041004507,[6300|10100|0],fly
27300,1.8894124031066888,-0.1603415310382843,0.0589278452098369,-1.4475855827331543,1.8954451084136963,-1.4659018516540527,3.705078125,1,fly,7.6,90,270.0,8.091928818736045,[6300|10100|0],fly
27400,1.8939542770385744,-0.1638396978378296,0.0576314143836498,-0.8328671455383301,2.016021251678467,-0.2008093148469925,3.6953125,1,fly,7.6,90,270.0,8.097806447735708,[6300|10100|0],fly
27500,1.895423412322998,-0.1651847064495086,0.054646510630846,-1.1443686485290527,0.7250522971153259,0.1765825897455215,3.689453125,1,fly,7.6,90,270.0,8.101394909392592,[6300|10100|0],fly
27600,1.8947442770004272,-0.1660384684801101,0.0528439953923225,-0.5699944496154785,1.915846586227417,0.4795712530612945,3.701171875,1,fly,7.6,90,270.0,8.103501849253236,[6300|10100|0],fly
27700,1.8907631635665887,-0.1659474223852157,0.0520090200006961,-0.012905266135931,0.2040023654699325,1.211384654045105,3.6953125,1,fly,7.6,90,270.0,8.107570600593526,[6300|10100|0],fly
27800,1.886320948600769,-0.1662986129522323,0.052991472184658,-0.2632707357406616,0.5612717270851135,1.422850251197815,3.701171875,1,fly,7.6,90,270.0,8.112133693942416,[6300|10100|0],fly
27900,1.8822004795074463,-0.1672515273094177,0.0542517751455307,0.5722232460975647,-0.3770205378532409,0.5651244521141052,3.701171875,1,fly,7.6,90,270.0,8.116546705938134,[6300|10100|0],fly
28000,1.877806544303894,-0.1690541207790374,0.0550236292183399,-0.3514836132526397,-1.3054752349853516,0.1520052552223205,3.701171875,1,fly,7.6,90,270.0,8.121358334404615,[6300|10100|0],fly
28100,1.876015901565552,-0.1709201633930206,0.0556211844086647,-0.3806672692298889,-1.1178538799285889,0.5242912173271179,3.701171875,1,fly,7.6,90,270.0,8.12401268718054,[6300|10100|0],fly
28200,1.8741534948349,-0.1751175075769424,0.0543654225766658,-0.1824606508016586,-0.9596189856529236,1.121181607246399,3.6953125,1,fly,7.6,90,270.0,8.128773274834117,[6300|10100|0],fly
28300,1.8753844499588013,-0.1765482872724533,0.0531118437647819,-0.1367354243993759,-0.1139702498912811,1.4971723556518557,3.6953125,1,fly,7.6,90,270.0,8.131039072903617,[6300|10100|0],fly
28400,1.8776506185531616,-0.1783668547868728,0.0529644861817359,-0.6735973358154297,-0.3439130187034607,1.8104262351989744,3.6953125,1,fly,7.6,90,270.0,8.13394844090369,[6300|10100|0],fly
28500,1.8804584741592407,-0.1800621449947357,0.0535702630877494,-0.9342762231826782,1.0440772771835327,1.8934500217437744,3.6953125,1,B1,7.6,90,270.0,8.137283861065129,[6300|10100|100],destination
28600,1.8821909427642824,-0.1798042505979538,0.0530497692525386,-1.0016083717346191,0.4068447947502136,1.8833202123641968,3.6953125,1,B1,7.6,90,270.0,8.139111118797317,[6300|10100|200],destination
28700,1.8835759162902832,-0.1782445311546325,0.0530362240970134,-0.5737460255622864,0.6320719718933105,2.198446989059448,3.6953125,1,B1,7.6,90,270.0,8.141197038230285,[6300|10100|300],destination
28800,1.8850524425506592,-0.1756701320409774,0.0537408739328384,-0.3043346405029297,-0.0780133455991745,2.6670522689819336,3.701171875,1,B1,7.6,90,270.0,8.14424731559228,[6300|10100|400],destination
28900,1.886534214019776,-0.1728710532188415,0.0547950118780136,-0.1413756608963012,-0.231572538614273,3.1785950660705566,3.6953125,1,B1,7.6,90,270.0,8.147585233468243,[6300|10100|500],destination
29000,1.8878971338272093,-0.1705583333969116,0.0556465908885002,-0.1099613830447197,0.551947295665741,2.4820847511291504,3.689453125,1,B1,7.6,90,270.0,8.150401509411283,[6300|10100|600],destination
29100,1.8892478942871087,-0.1674338430166244,0.0548492558300495,-0.2966125011444092,0.1023673415184021,1.1527317762374878,3.689453125,1,B1,7.6,90,270.0,8.153897612549345,[6300|10100|700],destination
29200,1.8902958631515503,-0.1640014797449112,0.0541710704565048,0.0655795559287071,-0.2813262045383453,-0.0048295259475708,3.689453125,1,B1,7.6,90,270.0,8.157549912067557,[6300|10100|800],destination
29300,1.8919976949691768,-0.1605238765478134,0.0534708425402641,0.0648245140910148,0.2181269377470016,-0.4838674366474151,3.689453125,1,B1,7.6,90,270.0,8.161484410087207,[6300|10100|900],destination
29401,1.89269495010376,-0.1578559577465057,0.0527706295251846,1.0369848012924194,-0.2160975039005279,-0.2622096538543701,3.689453125,1,B1,7.6,90,270.0,8.164329450283683,[6300|10100|1000],destination
29501,1.8928651809692385,-0.1568318903446197,0.0546396262943744,0.3954397439956665,0.9254538416862488,-0.1333537995815277,3.6953125,1,B1,7.6,90,270.0,8.166467402929184,[6300|10100|1100],destination
29601,1.893050193786621,-0.1570089906454086,0.0564885325729846,-0.0418361462652683,0.1952212154865265,0.0815740674734115,3.6953125,1,B1,7.6,90,270.0,8.168333963586173,[6300|10100|1200],destination
29701,1.8920106887817385,-0.1573171913623809,0.0573742389678955,0.4286692142486572,0.5329721570014954,0.1953300833702087,3.689453125,1,B1,7.6,90,270.0,8.169733975784371,[6300|10100|1300],destination
29801,1.890114068984985,-0.1581518799066543,0.0558433979749679,0.0067856810055673,0.2552126049995422,0.3624723553657532,3.6796875,1,B1,7.6,90,270.0,8.172310280456767,[6300|10100|1400],destination
29901,1.887521743774414,-0.159835010766983,0.0543394871056079,-0.3328016996383667,0.4295084774494171,0.533900797367096,3.68359375,1,B1,7.6,90,270.0,8.175747550797215,[6300|10100|1500],destination
30001,1.883673071861267,-0.1607957333326339,0.0546465702354908,-0.0254578199237585,0.1356265991926193,-0.0690422356128692,3.68359375,1,B1,7.6,90,270.0,8.179726189181368,[6300|10100|1600],destination
30101,1.878814458847046,-0.1606965661048889,0.0548548102378845,0.1060800030827522,0.374197781085968,-0.3448730707168579,3.689453125,1,B1,7.6,90,270.0,8.184590273726235,[6300|10100|1700],destination
30201,1.8730673789978027,-0.1603987365961074,0.0570378266274929,-0.6940950155258179,0.2522733211517334,-0.416331797838211,3.689453125,1,B1,7.6,90,270.0,8.190745205875915,[6300|10100|1800],destination
30302,1.8675516843795776,-0.1584885120391845,0.0584456734359264,-0.1850636154413223,-0.2327678501605987,-0.0175697933882474,3.689453125,1,B1,7.6,90,270.0,8.196749693998596,[6300|10100|1900],destination
30402,1.8617678880691528,-0.1559075266122818,0.0577526688575744,0.8981152772903442,-0.9917102456092834,1.0739039182662964,3.99609375,1,B1,7.6,90,270.0,8.203121039294528,[6300|10100|2000],destination
30501,1.858602523803711,-0.1522949039936065,0.0243236646056175,6.07150936126709,-7.060580253601074,2.820579290390014,3.99609375,1,B1,7.6,90,270.0,8.236893348934162,[6300|10100|2100],destination
30602,1.8529682159423828,-0.1551858633756637,0.0001574875204823,-0.916394293308258,-0.2457413375377655,3.3821442127227783,4.0,1,B1,7.6,90,270.0,8.261875486275372,[6300|10100|2200],destination
30700,1.8525453805923464,-0.1568397283554077,0.0015520479064434,-0.4371291399002075,0.1539571583271026,3.7075984477996826,4.0,1,B1,7.6,90,270.0,8.264079767966662,[6300|10100|2300],destination
30800,1.852741956710816,-0.1569579094648361,0.0019570451695472,-0.3119915127754211,0.2260884493589401,3.843476057052612,4.0078125,1,B1,7.6,90,270.0,8.264545205103232,[6300|10100|2400],destination
30900,1.8528016805648804,-0.1565894037485122,0.0017066621221601,-0.2611808776855469,0.2610337138175964,4.033624649047852,4.0078125,1,B1,7.6,90,270.0,8.264994710467079,[6300|10100|2500],destination
31000,1.852636456489563,-0.156454861164093,0.0012595667503774,-0.2357919365167617,0.2686116099357605,4.077757358551025,4.0078125,1,B1,7.6,90,270.0,8.265489983092564,[6300|10100|2600],destination
31100,1.8526129722595213,-0.156632199883461,0.0017881458625197,-0.1983411163091659,0.2834222316741943,4.1218109130859375,4.0078125,1,B1,7.6,90,270.0,8.266048012131451,[6300|10100|2700],destination
31200,1.852598071098328,-0.1568100750446319,0.0016859108582139,-0.159443512558937,0.2987134158611297,4.174391269683838,4.01171875,1,B1,7.6,90,270.0,8.266253714862769,[6300|10100|2800],destination
31300,1.8523651361465447,-0.1570677161216735,0.0017202789895236,-0.0935349464416503,0.3453652560710907,4.173335075378418,4.01171875,1,B1,7.6,90,270.0,8.266602740341483,[6300|10100|2900],destination
31400,1.852433681488037,-0.1570101380348205,0.0019051302224397,-0.0565787553787231,0.3781806230545044,4.212377548217773,4.01171875,1,B1,7.6,90,270.0,8.266808126996931,[6300|10100|3000],destination
31500,1.852502942085266,-0.1568497717380523,0.0018501597223803,-0.0317183546721935,0.3910272419452667,4.233427047729492,4.01171875,1,B1,7.6,90,270.0,8.266991255736741,[6300|10100|3100],destination
31600,1.8525850772857664,-0.1572589725255966,0.0020905444398522,0.0199515167623758,0.4274750351905823,4.244060516357422,4.015625,1,B1,7.6,90,270.0,8.26747289490467,[6300|10100|3200],destination
31700,1.852284550666809,-0.1568724960088729,0.0014548161998391,0.0232705455273389,0.4461778700351715,4.247564792633057,4.015625,1,B1,7.6,90,270.0,8.268275285546334,[6300|10100|3300],destination
31800,1.8523154258728027,-0.1571349203586578,0.0020053689368069,0.0424319058656692,0.4732789397239685,4.238372325897217,4.015625,1,B1,7.6,90,270.0,8.268885963967344,[6300|10100|3400],destination
31900,1.852244138717652,-0.1569655835628509,0.0016459252219647,0.0638797134160995,0.5001195073127747,4.26150369644165,4.0234375,1,B1,7.6,90,270.0,8.269289642791465,[6300|10100|3500],destination
32000,1.8522018194198608,-0.1570989787578582,0.0016949761193245,0.0728870257735252,0.5217760801315308,4.292119979858398,4.015625,1,B1,7.6,90,270.0,8.26943793706495,[6300|10100|3600],destination
