time.ms,stateEstimate.x,stateEstimate.y,stateEstimate.z,stabilizer.roll,stabilizer.pitch,stabilizer.yaw,pm.vbat,drone_id,node_name,wind_speed,global_wind_direction,relative_wind_direction,travel_dist,waiting_time,curr_node_role
0,1.679816722869873,1.2214665412902832,0.0,0.2601889073848724,0.4648141860961914,-7.368519306182861,4.0703125,1,A1,0,None,None,0.0,[6200|0|0],start
100,1.6799829006195068,1.2212013006210327,0.0,0.2646284103393554,0.4530105590820312,-7.353438377380371,4.0703125,1,A1,0,None,None,0.0003129978547814,[6300|0|0],start
200,1.6801387071609497,1.2212542295455933,0.0,0.2535260617733001,0.4428267478942871,-7.34482479095459,4.07421875,1,A1,0,None,None,0.0004775492127567,[6400|0|0],start
300,1.6801514625549316,1.221597671508789,0.0,0.248199462890625,0.4479004144668579,-7.344399452209473,4.07421875,1,A1,0,None,None,0.0008212279612406,[6500|0|0],start
400,1.6800284385681152,1.2213923931121826,0.0,0.2524905800819397,0.4446669518947601,-7.324825763702393,4.07421875,1,A1,0,None,None,0.0010605480846016,[6600|0|0],start
500,1.679960012435913,1.2214878797531128,0.0,0.2474700063467025,0.4461834132671356,-7.314012050628662,4.07421875,1,A1,0,None,None,0.0011780207800004,[6700|0|0],start
600,1.6802794933319092,1.221435546875,0.0,0.2477385550737381,0.4424736499786377,-7.303450107574463,4.0703125,1,A1,0,None,None,0.0015017595219484,[6800|0|0],start
700,1.6799263954162598,1.2214125394821167,0.0,0.2432100027799606,0.4474819004535675,-7.308753490447998,4.0703125,1,A1,0,None,None,0.0018556062093191,[6900|0|0],start
800,1.6797930002212524,1.2215582132339478,0.0,0.2413887232542038,0.4471133053302765,-7.314144611358643,4.07421875,1,A1,0,None,None,0.0020531286637985,[7000|0|0],start
900,1.6801193952560425,1.221575379371643,0.0,0.2424667924642563,0.4368816018104553,-7.309261798858643,4.0703125,1,A1,0,None,None,0.0023799747973522,[7100|0|0],start
1000,1.6795156002044678,1.2214285135269165,0.0,0.2517408430576324,0.44903764128685,-7.30116081237793,4.0703125,1,A1,0,None,None,0.0030013748622487,[7200|0|0],start
1100,1.6801278591156006,1.221103549003601,0.0,0.2565307915210724,0.423137217760086,-7.313342571258545,4.0703125,1,A1,0,None,None,0.0036945291853796,[7300|0|0],start
1200,1.6800345182418823,1.2211886644363403,0.0,0.2554154694080353,0.4324564039707184,-7.321735382080078,4.07421875,1,A1,0,None,None,0.0038208508208855,[7400|0|0],start
1300,1.6801936626434326,1.2216215133666992,0.0,0.2520487308502197,0.4372538030147552,-7.338527202606201,4.0703125,1,A1,0,None,None,0.0042820288093646,[7500|0|0],start
1400,1.6797221899032593,1.2213947772979736,0.0,0.2602075338363647,0.449510246515274,-7.352304458618164,4.07421875,1,A1,0,None,None,0.0048051882397371,[7600|0|0],start
1500,1.68016254901886,1.2211542129516602,0.0,0.2664322853088379,0.4355098903179168,-7.362615585327148,4.07421875,1,A1,0,None,None,0.0053069724118769,[7700|0|0],start
1600,1.6801800727844238,1.2213151454925537,0.0,0.2640934586524963,0.4405252635478973,-7.329798221588135,4.0703125,1,A1,0,None,None,0.0054688562130368,[7800|0|0],start
1700,1.6801594495773315,1.2217813730239868,0.0,0.2507923543453216,0.4449394047260284,-7.326592445373535,4.07421875,1,A1,0,None,None,0.0059355396472157,[7900|0|0],start
1800,1.6801732778549194,1.221374273300171,0.0,0.2594134509563446,0.4431888461112976,-7.34254264831543,4.07421875,1,A1,0,None,None,0.006342874161334,[8000|0|0],start
1900,1.6797535419464111,1.2215408086776731,0.0,0.2290077954530716,0.4418496489524841,-7.337796688079834,4.07421875,1,A1,0,None,None,0.0067944406180722,[8100|0|0],start
2000,1.6802977323532104,1.221760392189026,0.0,0.2260923534631729,0.4327107965946197,-7.356791019439697,4.07421875,1,A1,0,None,None,0.0073812626671727,[8200|0|0],start
2100,1.6798526048660278,1.221210241317749,0.0,0.2499942183494568,0.4447069466114044,-7.345203876495361,4.0703125,1,A1,0,None,None,0.0080889380595755,[8300|0|0],start
2200,1.6798579692840576,1.2212122678756714,0.0,0.2543055117130279,0.4466904997825622,-7.3599853515625,4.07421875,1,A1,0,None,None,0.0080946725096635,[8400|0|0],start
2300,1.6802022457122805,1.2214298248291016,0.0,0.2509942650794983,0.4431172609329223,-7.361039638519287,4.0703125,1,A1,0,None,None,0.0085019283101325,[8500|0|0],start
2400,1.6798830032348633,1.2210352420806885,0.0,0.2649935483932495,0.4458199739456177,-7.342972755432129,4.07421875,1,A1,0,None,None,0.0090094825483502,[8600|0|0],start
2500,1.6803957223892212,1.2216339111328125,0.0,0.238343060016632,0.4338504076004028,-7.347930908203125,4.0703125,1,A1,0,None,None,0.0097976992477524,[8700|0|0],start
2600,1.6801292896270752,1.221489191055298,0.0,0.2455600649118423,0.4491265416145324,-7.334515571594238,4.0703125,1,A1,0,None,None,0.0101008993756886,[8800|0|0],start
2700,1.6799712181091309,1.2211085557937622,0.0,0.2551982700824737,0.4537596404552459,-7.323513031005859,4.07421875,1,A1,0,None,None,0.0105130520259406,[8900|0|0],start
2800,1.6799516677856443,1.2211395502090454,0.0,0.2312263250350952,0.4450711905956268,-7.336507320404053,4.0703125,1,A1,0,None,None,0.010549697201983,[9000|0|0],start
2900,1.6800994873046875,1.2213374376296997,0.0,0.2281000316143036,0.4430229365825653,-7.337548732757568,4.07421875,1,A1,0,None,None,0.0107966993101994,[9100|0|0],start
3000,1.6799293756484983,1.2211155891418457,0.0,0.2367439270019531,0.4553132951259613,-7.356208324432373,4.07421875,1,A1,0,None,None,0.0110762609798441,[9200|0|0],start
3100,1.6802538633346558,1.2215567827224731,0.0,0.229719340801239,0.4471063911914825,-7.379423141479492,4.0703125,1,A1,0,None,None,0.0116239324452818,[9300|0|0],start
3200,1.6800572872161863,1.221608281135559,0.0,0.226412147283554,0.4516656100749969,-7.365546703338623,4.07421875,1,A1,0,None,None,0.0118271423291529,[9400|0|0],start
3300,1.6799911260604858,1.2210893630981443,0.0,0.2504796683788299,0.4581246674060821,-7.358663558959961,4.07421875,1,A1,0,None,None,0.0123502610805641,[9500|0|0],start
3400,1.6800174713134766,1.2216507196426392,0.0,0.2367525398731231,0.4684982895851135,-7.340864181518555,4.0703125,1,A1,0,None,None,0.0129122354949304,[9600|0|0],start
3500,1.6797311305999756,1.221113920211792,0.0,0.2577751278877258,0.4774176180362701,-7.331575870513916,4.07421875,1,A1,0,None,None,0.0135206306240743,[9700|0|0],start
3600,1.6802432537078855,1.2215780019760132,0.0,0.2467214465141296,0.4724431335926056,-7.339083194732666,4.0703125,1,A1,0,None,None,0.0142117470842589,[9800|0|0],start
3700,1.680342674255371,1.2214467525482178,0.0,0.2534468472003937,0.470979630947113,-7.321762561798096,4.07421875,1,A1,0,None,None,0.0143764008347748,[9900|0|0],start
3800,1.6802502870559692,1.2212661504745483,0.0,0.2605087757110595,0.46643728017807,-7.333193778991699,4.07421875,1,A1,0,None,None,0.0145792616334201,[10000|0|0],start
3900,1.6797730922698977,1.2211980819702148,0.0,0.2618947923183441,0.4801211357116699,-7.302306175231934,4.07421875,1,A1,0,None,None,0.0150612867210826,[10100|0|0],start
4000,1.6800085306167605,1.2211356163024902,0.0,0.2602024972438812,0.4744536280632019,-7.312946319580078,4.0703125,1,A1,0,None,None,0.0153048707411204,[10200|0|0],start
4100,1.6799776554107666,1.221068024635315,0.0,0.2650113999843597,0.4676917493343353,-7.312322616577148,4.0703125,1,A1,0,None,None,0.0153791803085845,[10300|0|0],start
4200,1.680127501487732,1.221372365951538,0.0,0.2574243545532226,0.4618646204471588,-7.319150924682617,4.07421875,1,A1,0,None,None,0.0157184110317543,[10400|0|0],start
4300,1.6801420450210571,1.2214539051055908,0.0,0.2527884840965271,0.4550042748451233,-7.334752559661865,4.0703125,1,A1,0,None,None,0.0158012370421932,[10500|0|0],start
4400,1.680195689201355,1.221416711807251,0.0,0.2561246156692505,0.452791303396225,-7.339818954467773,4.07421875,1,A1,0,None,None,0.0158665136805964,[10600|0|0],start
4500,1.6799808740615845,1.221268892288208,0.0,0.2612157166004181,0.458932876586914,-7.302130699157715,4.0703125,1,A1,0,None,None,0.0161272744032613,[10700|0|0],start
4600,1.6801711320877075,1.221157431602478,0.0,0.2620892822742462,0.4522607922554016,-7.318141937255859,4.0703125,1,A1,0,None,None,0.0163477774666587,[10800|0|0],start
4700,1.6800349950790403,1.221640706062317,0.0,0.2446819096803665,0.4630947113037109,-7.340022087097168,4.0703125,1,A1,0,None,None,0.0168498606158097,[10900|0|0],start
4800,1.680015206336975,1.2213903665542605,0.0,0.2532185614109039,0.4630708396434784,-7.349761962890625,4.07421875,1,A1,0,None,None,0.0171009810323562,[11000|0|0],start
4900,1.680182933807373,1.2214171886444092,0.0,0.2533493340015411,0.4568751156330108,-7.3173136711120605,4.0703125,1,A1,0,None,None,0.0172708395877664,[11100|0|0],start
5000,1.6801536083221436,1.2214070558547974,0.0,0.2546059787273407,0.4601704180240631,-7.355074405670166,4.0703125,1,A1,0,None,None,0.0173018663102691,[11200|0|0],start
5100,1.680191993713379,1.2211986780166626,0.0,0.255944550037384,0.4618522524833679,-7.363804817199707,4.0703125,1,A1,0,None,None,0.0175137501503467,[11300|0|0],start
5200,1.6800023317337036,1.2214494943618774,0.0,0.2529843747615814,0.4720170199871063,-7.35213565826416,4.0703125,1,A1,0,None,None,0.0178282028583351,[11400|0|0],start
5300,1.67968487739563,1.2213938236236572,0.0,0.2515018582344055,0.4755505621433258,-7.333024024963379,4.0703125,1,A1,0,None,None,0.0181505016139264,[11500|0|0],start
5400,1.6800003051757812,1.2216438055038452,0.0,0.2452085465192794,0.4637109637260437,-7.352382183074951,4.0703125,1,A1,0,None,None,0.0185529759918853,[11600|0|0],start
5500,1.6800298690795898,1.221424579620361,0.0,0.2534434795379638,0.4617101550102234,-7.362886428833008,4.0703125,1,A1,0,None,None,0.0187741863270819,[11700|0|0],start
5600,1.68021821975708,1.2217223644256592,0.0,0.2471710294485092,0.4517927765846252,-7.369697570800781,4.0703125,1,A1,0,None,None,0.0191265380944642,[11800|0|0],start
5700,1.6798315048217771,1.221502661705017,0.0,0.2521622478961944,0.466592937707901,-7.383189678192139,4.0703125,1,A1,0,None,None,0.0195713051420789,[11900|0|0],start
5800,1.6801315546035769,1.2213428020477295,0.0,0.2528547048568725,0.4595816433429718,-7.369530200958252,4.0703125,1,A1,0,None,None,0.0199112830554589,[12000|0|0],start
5900,1.6802270412445068,1.2212973833084106,0.0,0.255219429731369,0.4570088982582092,-7.364822864532471,4.0703125,1,A1,0,None,None,0.020017021224903,[12100|0|0],start
6000,1.6800799369812012,1.2213600873947144,0.0,0.2471451312303543,0.4488584399223327,-7.368384838104248,4.0703125,1,A1,0,None,None,0.0201769320335492,[12200|0|0],start
6100,1.6800665855407717,1.221169114112854,0.0,0.248695820569992,0.4510024487972259,-7.360827922821045,4.0703125,1,A1,0,None,None,0.0203683714635161,[12300|0|0],start
6200,1.6800864934921265,1.221486210823059,0.0,0.2404375076293945,0.4544839560985565,-7.359877586364746,4.0703125,1,A1,0,None,None,0.0206860924891818,[12400|0|0],start
6300,1.6802982091903689,1.221682071685791,0.0,0.2354764193296432,0.4505839943885803,-7.361371040344238,4.07421875,1,A1,0,None,None,0.020974510613495,[12500|0|0],start
6400,1.6800960302352903,1.2214369773864746,0.0,0.2438499629497528,0.4605043530464172,-7.349182605743408,4.0703125,1,A1,0,None,None,0.0212922330480728,[12600|0|0],start
6500,1.6800075769424438,1.221180081367493,0.0,0.2485055923461914,0.4652178585529327,-7.365567207336426,4.0703125,1,A1,0,None,None,0.0215639305813411,[12700|0|0],start
6600,1.6802269220352173,1.2215161323547363,0.0,0.2404046654701233,0.460698515176773,-7.355358600616455,4.0703125,1,A1,0,None,None,0.0219652316351038,[12800|0|0],start
6700,1.680327296257019,1.2216321229934692,0.0,0.2404078096151352,0.4522691071033478,-7.359357833862305,4.0703125,1,A1,0,None,None,0.0221186226800705,[12900|0|0],start
6800,1.6800106763839722,1.2212679386138916,0.0,0.2512065172195434,0.4595495760440826,-7.362387657165527,4.0703125,1,A1,0,None,None,0.0226011974476833,[13000|0|0],start
6900,1.6801807880401611,1.221515655517578,0.0,0.2407430708408355,0.4536552727222442,-7.361798763275146,4.0703125,1,A1,0,None,None,0.022901699760392,[13100|0|0],start
7000,1.6799108982086182,1.2212028503417969,0.0,0.2456260770559311,0.453592300415039,-7.36121129989624,4.0703125,1,A1,0,None,None,0.023314843317967,[13200|0|0],start
7100,1.6797926425933838,1.2216449975967407,0.0,0.2132136225700378,0.441683828830719,-7.370093822479248,4.0703125,1,A1,0,None,None,0.0237725316241196,[13300|0|0],start
7200,1.6800113916397097,1.2217638492584229,0.0,0.2087956368923187,0.446684330701828,-7.371563911437988,4.0703125,1,A1,0,None,None,0.0240214831510341,[13400|0|0],start
7300,1.679850935935974,1.221203327178955,0.0,0.2288977950811386,0.4543438255786896,-7.356664180755615,4.0703125,1,A1,0,None,None,0.024604519200033,[13500|0|0],start
7400,1.6799306869506836,1.2215824127197266,0.0,0.2230740189552307,0.4531227946281433,-7.361829280853271,4.0703125,1,A1,0,None,None,0.024991902823292,[13600|0|0],start
7500,1.6801687479019165,1.221447467803955,0.0,0.2322063893079757,0.4482291042804718,-7.357993125915527,4.0703125,1,A1,0,None,None,0.0252655506750915,[13700|0|0],start
7600,1.6800726652145386,1.2215174436569214,0.0,0.2109590321779251,0.4369280040264129,-7.342313766479492,4.0703125,1,A1,0,None,None,0.0253844140538594,[13800|0|0],start
7700,1.6802164316177368,1.2216088771820068,0.0,0.2172890901565551,0.4363352656364441,-7.369082927703857,4.0703125,1,A1,0,None,None,0.0255547926563837,[13900|0|0],start
7800,1.6803996562957764,1.2213345766067505,0.0,0.2275743335485458,0.4389809966087341,-7.3806586265563965,4.0703125,1,A1,0,None,None,0.0258846594298372,[14000|0|0],start
7900,1.6800559759140017,1.2214263677597046,0.0,0.2341457605361938,0.4613227546215057,-7.389963626861572,4.0703125,1,A1,0,None,None,0.0262403866013851,[14100|0|0],start
8000,1.679957151412964,1.2212697267532349,0.0,0.2427026182413101,0.467661440372467,-7.3944573402404785,4.0703125,1,A1,0,None,None,0.0264255964470013,[14200|0|0],start
8100,1.6799085140228271,1.2214637994766235,0.0,0.2405429780483245,0.4736362993717193,-7.363406181335449,4.0703125,1,A1,0,None,None,0.0266256709773214,[14300|0|0],start
8200,1.6801598072052002,1.22130286693573,0.0,0.2528971433639526,0.468218982219696,-7.36510705947876,4.0703125,1,A1,0,None,None,0.0269240793321402,[14400|0|0],start
8300,1.680084228515625,1.2217583656311035,0.0,0.2397515773773193,0.4703181684017181,-7.390883922576904,4.0703125,1,A1,0,None,None,0.0273858056577974,[14500|0|0],start
8400,1.680150270462036,1.2215259075164795,0.0,0.2496014386415481,0.4693961441516876,-7.334569931030273,4.0703125,1,A1,0,None,None,0.0276274630883479,[14600|0|0],start
8500,1.680306077003479,1.2214529514312744,0.0,0.258019208908081,0.4663105309009552,-7.356480598449707,4.0703125,1,A1,0,None,None,0.0277995045621992,[14700|0|0],start
8600,1.6800788640975952,1.2214168310165403,0.0,0.2647250294685364,0.4776089489459991,-7.386910438537598,4.0703125,1,A1,0,None,None,0.0280295706156723,[14800|0|0],start
8700,1.6798985004425049,1.2210010290145874,0.0,0.2855443060398102,0.4543423354625702,-7.363741874694824,4.0703125,1,A1,0,None,None,0.0284828060433538,[14900|0|0],start
8800,1.6802465915679932,1.221509575843811,0.0,0.316277265548706,0.4153935313224792,-7.374420642852783,4.0703125,1,A1,0,None,None,0.0290990749044502,[15000|0|0],start
8900,1.6803364753723145,1.2216070890426636,0.0,0.3314987421035766,0.3985304236412048,-7.353829383850098,4.0703125,1,A1,0,None,None,0.029231694368443,[15100|0|0],start
9000,1.6801005601882937,1.2211016416549685,0.0,0.3484216928482055,0.4100023210048675,-7.314209461212158,4.07421875,1,A1,0,None,None,0.0297894873728625,[15200|0|0],start
9100,1.680081844329834,1.2216378450393677,0.0,0.3343544900417328,0.4083162844181061,-7.301360607147217,4.0703125,1,A1,0,None,None,0.0303260172907599,[15300|0|0],start
9200,1.6805320978164673,1.2212716341018677,0.0,0.3482697010040283,0.3951579332351684,-7.298825263977051,4.0703125,1,A1,0,None,None,0.0309063953166793,[15400|0|0],start
9300,1.6800183057785034,1.2215187549591064,0.0,0.3564740419387817,0.3972127437591553,-7.263050079345703,4.0703125,1,A1,0,None,None,0.031476527736699,[15500|0|0],start
9400,1.6800122261047363,1.2224379777908323,0.0,0.3925424516201019,0.3842919766902923,-7.193376541137695,4.07421875,1,A1,0,None,None,0.0323957706734677,[15600|0|0],start
9500,1.6802126169204712,1.2222776412963867,0.0,0.4166388213634491,0.3866776525974273,-7.207857131958008,4.0703125,1,A1,0,None,None,0.0326524110258716,[15700|0|0],start
9600,1.680269718170166,1.221404194831848,0.0,0.3586122989654541,0.4444797337055206,-7.263928890228271,4.0703125,1,A1,0,None,None,0.033527721987263,[15800|0|0],start
9700,1.6801141500473022,1.2214299440383911,0.0,0.3060236871242523,0.475747674703598,-7.294037818908691,4.0703125,1,A1,0,None,None,0.0336854066805245,[15900|0|0],start
9800,1.6793134212493896,1.2198830842971802,0.0,0.3484470248222351,0.4746657907962799,-7.233147621154785,4.0703125,1,A1,0,None,None,0.0354272280452992,[16000|0|0],start
9900,1.6795789003372192,1.218975305557251,0.0,0.3637517988681793,0.4543021619319916,-7.161942005157471,4.0703125,1,A1,0,None,None,0.0363730300260237,[16100|0|0],start
10000,1.6804101467132568,1.2213855981826782,0.0,0.2832114696502685,0.4544574916362762,-7.22144079208374,4.0703125,1,A1,0,None,None,0.0389226341282059,[16200|0|0],start
10100,1.6801540851593018,1.2210627794265747,0.0,0.2749035060405731,0.4634431302547455,-7.2644429206848145,4.0703125,1,A1,0,None,None,0.0393346771705038,[16300|0|0],start
10200,1.680276870727539,1.2210347652435305,0.0,0.2567647397518158,0.474778264760971,-7.275349140167236,4.0703125,1,A1,0,None,None,0.0394606179908084,[16400|0|0],start
10300,1.6800968647003174,1.2211976051330566,0.0,0.2380525469779968,0.4993117749691009,-7.290760993957519,4.0703125,1,A1,0,None,None,0.039703350352592,[16500|0|0],start
10400,1.6802613735198977,1.2213714122772217,0.0,0.2234444469213485,0.507565975189209,-7.318464279174805,4.0703125,1,A1,0,None,None,0.0399426662005472,[16600|0|0],start
10500,1.6800254583358765,1.2213070392608645,0.0,0.2181366533041,0.505560576915741,-7.301052570343018,4.0703125,1,A1,0,None,None,0.04018720629805,[16700|0|0],start
10600,1.6799908876419067,1.2213287353515625,0.0,0.2140457779169082,0.504819393157959,-7.288275241851807,4.0703125,1,A1,0,None,None,0.0402280211633949,[16800|0|0],start
10700,1.6801025867462158,1.2214674949645996,0.0,0.2109482884407043,0.5003634095191956,-7.301187515258789,4.0703125,1,A1,0,None,None,0.0404061529127089,[16900|0|0],start
10800,1.6802453994750977,1.2213047742843628,0.0,0.2158684134483337,0.4871039986610412,-7.311803340911865,4.0703125,1,A1,0,None,None,0.0406226557886884,[17000|0|0],start
10900,1.6803920269012451,1.2214430570602417,0.0,0.2124830186367035,0.4864705502986908,-7.305307865142822,4.0703125,1,A1,0,None,None,0.040824204115904,[17100|0|0],start
11000,1.6798028945922852,1.2212973833084106,0.0,0.2222312986850738,0.4994247257709503,-7.299965858459473,4.0703125,1,A1,0,None,None,0.0414310794897931,[17200|0|0],start
11100,1.6801509857177734,1.2215358018875122,0.0,0.2185061126947403,0.4823635816574096,-7.320263385772705,4.0703125,1,A1,0,None,None,0.0418529928108728,[17300|0|0],start
11200,1.6800440549850464,1.2214112281799316,0.0,0.2246087342500686,0.4778017401695251,-7.330098152160644,4.0703125,1,A1,0,None,None,0.042017165860494,[17400|0|0],start
11300,1.6799713373184204,1.2217377424240112,0.0,0.2262546122074127,0.474061369895935,-7.324361324310303,4.0703125,1,A1,0,None,None,0.0423516795532278,[17500|0|0],start
11400,1.679121971130371,1.2202855348587036,0.0,0.2662158012390136,0.4705168306827545,-7.294316291809082,4.0703125,1,A1,0,None,None,0.0440340379377993,[17600|0|0],start
11500,1.6790379285812378,1.2200790643692017,0.0,0.2660015225410461,0.470689982175827,-7.2953410148620605,4.0703125,1,A1,0,None,None,0.0442569576836721,[17700|0|0],start
11600,1.6790509223937988,1.2201038599014282,0.0,0.2689350247383117,0.4661609232425689,-7.3102946281433105,4.0703125,1,A1,0,None,None,0.0442849515684198,[17800|0|0],start
11700,1.678957223892212,1.220383644104004,0.0,0.2710114419460296,0.4685651063919067,-7.309914588928223,4.0703125,1,A1,0,None,None,0.0445800085276846,[17900|0|0],start
11800,1.6793924570083618,1.220133662223816,0.0,0.2781004309654236,0.4531570971012115,-7.289092063903809,4.0703125,1,A1,0,None,None,0.0450819236657467,[18000|0|0],start
11900,1.6793934106826782,1.22025465965271,0.0,0.2781293392181396,0.4494913220405578,-7.272515296936035,4.0703125,1,A1,0,None,None,0.0452029248529048,[18100|0|0],start
12000,1.6789520978927612,1.2204598188400269,0.0,0.2759272456169128,0.4647125005722046,-7.292177677154541,4.0703125,1,A1,0,None,None,0.0456895944232344,[18200|0|0],start
12100,1.6792126893997192,1.220607876777649,0.0,0.2735094130039215,0.4589506983757019,-7.30154275894165,4.0703125,1,A1,0,None,None,0.0459893094318535,[18300|0|0],start
12200,1.6792080402374268,1.2205398082733154,0.0,0.2767557799816131,0.4617893993854522,-7.298461437225342,4.0703125,1,A1,0,None,None,0.0460575365231899,[18400|0|0],start
12301,1.679323434829712,1.2202396392822266,0.0,0.286823958158493,0.4539526104927063,-7.290370941162109,4.0703125,1,A1,0,None,None,0.0463791221807369,[18500|0|0],start
12401,1.6791342496871948,1.220346450805664,0.0,0.2867181599140167,0.4542988538742065,-7.297119140625,4.0703125,1,A1,0,None,None,0.0465963771454403,[18600|0|0],start
12501,1.6791399717330933,1.2202118635177612,0.0,0.2862437665462494,0.4570591449737549,-7.298143863677978,4.0703125,1,A1,0,None,None,0.046731086016248,[18700|0|0],start
12601,1.6789531707763672,1.220292091369629,0.0,0.287162184715271,0.4619494676589966,-7.298485279083252,4.0703125,1,A1,0,None,None,0.0469343865466189,[18800|0|0],start
12701,1.6792691946029663,1.2201935052871704,0.0,0.2842478454113006,0.4606953859329223,-7.291833400726318,4.07421875,1,A1,0,None,None,0.0472654307651651,[18900|0|0],start
12801,1.6794452667236328,1.2204748392105105,0.0,0.2588234543800354,0.4412042200565338,-7.291590213775635,4.0703125,1,A1,0,None,None,0.0475973195539151,[19000|0|0],start
12901,1.6793174743652344,1.2203835248947144,0.0,0.2585436403751373,0.438982754945755,-7.290337562561035,4.0703125,1,A1,0,None,None,0.0477543838437277,[19100|0|0],start
13001,1.6795676946640017,1.2204570770263672,0.0,0.2642852365970611,0.4397487342357635,-7.309003829956055,4.0703125,1,A1,0,None,None,0.0480151905038917,[19200|0|0],start
13101,1.67945659160614,1.2201476097106934,0.0,0.2833342254161834,0.4501278102397918,-7.310239315032959,4.0703125,1,A1,0,None,None,0.0483439972996496,[19300|0|0],start
13201,1.6792203187942505,1.2204105854034424,0.0,0.2660413086414337,0.4556784033775329,-7.283482074737549,4.0703125,1,A1,0,None,None,0.0486975238992358,[19400|0|0],start
13301,1.679198980331421,1.2204782962799072,0.0,0.2684528529644012,0.4625036120414734,-7.297245502471924,4.0703125,1,A1,0,None,None,0.0487685175101283,[19500|0|0],start
13402,1.67935311794281,1.220463752746582,0.0,0.2696039974689483,0.466947466135025,-7.316065311431885,4.0703125,1,A1,0,None,None,0.0489233397230254,[19600|0|0],start
13502,1.6793582439422607,1.2202070951461792,0.0,0.2882248759269714,0.4561107754707336,-7.316107273101807,4.0703125,1,A1,0,None,None,0.0491800485068932,[19700|0|0],start
13602,1.6792466640472412,1.2203305959701538,0.0,0.2871603071689605,0.4697000384330749,-7.313692092895508,4.0703125,1,A1,0,None,None,0.0493464892666096,[19800|0|0],start
13702,1.6792213916778564,1.2205227613449097,0.0,0.2887129485607147,0.4812452793121338,-7.347414016723633,4.0703125,1,A1,0,None,None,0.0495403093478948,[19900|0|0],start
13800,1.6798057556152344,1.220672369003296,0.0,0.2959387004375458,0.4646199643611908,-7.403274059295654,4.0703125,1,A1,0,None,None,0.0501435204740817,[20000|0|0],start
13900,1.679776310920715,1.2211772203445437,0.0,0.3092940151691437,0.4451203942298889,-7.331696033477783,4.0703125,1,A1,0,None,None,0.0506492297451011,[20100|0|0],start
14002,1.6784435510635376,1.2201578617095947,0.0,0.3744270503520965,0.4700740277767181,-7.286287307739258,4.0703125,1,A1,0,None,None,0.052327127496321,[20200|0|0],start
14100,1.680336833000183,1.2210408449172974,0.0,0.3293441832065582,0.4263147711753845,-7.296376705169678,4.0703125,1,A1,0,None,None,0.0544161884903355,[20300|0|0],start
14202,1.680834174156189,1.2214795351028442,0.0,0.2973527908325195,0.4130426943302154,-7.255138397216797,4.0703125,1,A1,0,None,None,0.0550793606432132,[20400|0|0],start
14300,1.6818866729736328,1.221923828125,0.0,0.2900701463222503,0.3849910795688629,-7.214794158935547,4.0703125,1,A1,0,None,None,0.0562217922824184,[20500|0|0],start
14400,1.6792999505996704,1.2197389602661133,0.0,0.3499022126197815,0.4816483855247497,-7.2154011726379395,4.0703125,1,A1,0,None,None,0.0596077604158706,[20600|0|0],start
14500,1.6795709133148191,1.2199718952178955,0.0,0.3994547426700592,0.4233651757240295,-7.221101760864258,4.0703125,1,A1,0,None,None,0.0599650830778479,[20700|0|0],start
14600,1.6791577339172363,1.2202776670455933,0.0,0.377393901348114,0.4145349264144897,-7.214144229888916,4.0703125,1,A1,0,None,None,0.0604791002226986,[20800|0|0],start
14700,1.6795995235443115,1.2198436260223389,0.0,0.3505901396274566,0.3949098885059356,-7.197862148284912,4.0703125,1,A1,0,None,None,0.0610984302514062,[20900|0|0],start
14800,1.6795316934585571,1.2204546928405762,0.0,0.3104384541511535,0.4047715961933136,-7.188984394073486,4.0703125,1,A1,0,None,None,0.0617132502062582,[21000|0|0],start
14900,1.6794042587280271,1.2204222679138184,0.0,0.2950809299945831,0.4080462157726288,-7.198444366455078,4.0703125,1,A1,0,None,None,0.0618447454016856,[21100|0|0],start
15000,1.6795917749404907,1.2204841375350952,0.0,0.274854451417923,0.3947294652462005,-7.153102397918701,4.0703125,1,A1,0,None,None,0.0620422047138834,[21200|0|0],start
15100,1.6794713735580444,1.2204891443252563,0.0,0.2478035241365432,0.3698737323284149,-7.141062259674072,4.0703125,1,A1,0,None,None,0.062162710152942,[21300|0|0],start
15200,1.679150104522705,1.2206876277923584,0.0,0.2235903590917587,0.3770464360713959,-7.163433074951172,4.0703125,1,A1,0,None,None,0.0625403468563763,[21400|0|0],start
15300,1.6788595914840698,1.2205780744552612,0.0,0.2073059678077697,0.4501033723354339,-7.182624816894531,4.0703125,1,A1,0,None,None,0.0628508299626578,[21500|0|0],start
15400,1.6793489456176758,1.2206089496612549,0.0,0.2083393782377243,0.4554854929447174,-7.223779201507568,4.0703125,1,A1,0,None,None,0.0633411571456921,[21600|0|0],start
15500,1.6790823936462402,1.2209417819976809,0.0,0.2138995975255966,0.4711883664131164,-7.241806507110596,4.0703125,1,A1,0,None,None,0.0637675692909776,[21700|0|0],start
15600,1.6790331602096558,1.220718264579773,0.0,0.2283129394054412,0.4729734063148498,-7.25855541229248,4.0703125,1,A1,0,None,None,0.0639964447317443,[21800|0|0],start
15700,1.6792967319488523,1.220451831817627,0.0,0.2368934601545334,0.4597450196743011,-7.271300315856934,4.0703125,1,A1,0,None,None,0.0643712199689837,[21900|0|0],start
15800,1.6789716482162476,1.2204198837280271,0.0,0.2440007328987121,0.4722030758857727,-7.282644271850586,4.0703125,1,A1,0,None,None,0.0646978698023425,[22000|0|0],start
15900,1.679034948348999,1.2207698822021484,0.0,0.2404456436634063,0.4599802494049072,-7.30715274810791,4.0703125,1,A1,0,None,None,0.0650535463951815,[22100|0|0],start
16000,1.679059386253357,1.2203954458236694,0.0,0.2489380985498428,0.4575885534286499,-7.312026023864746,4.0703125,1,A1,0,None,None,0.0654287794063864,[22200|0|0],start
16100,1.679147481918335,1.2208826541900637,0.0,0.2393212765455246,0.464756041765213,-7.335728645324707,4.0703125,1,A1,0,None,None,0.0659238883221539,[22300|0|0],start
16200,1.6792889833450315,1.2208932638168335,0.0,0.2428166270256042,0.4602009952068329,-7.340527057647705,4.0703125,1,A1,0,None,None,0.0660657869406721,[22400|0|0],start
16300,1.679146409034729,1.2204328775405884,0.0,0.2554298639297485,0.4615233838558197,-7.320132732391357,4.0703125,1,A1,0,None,None,0.0665477443633902,[22500|0|0],start
16400,1.6790906190872192,1.2209174633026123,0.0,0.2331268042325973,0.4552451968193054,-7.303468704223633,4.0703125,1,A1,0,None,None,0.0670355310780509,[22600|0|0],start
16500,1.6791915893554688,1.220647931098938,0.0,0.2506125867366791,0.4489947855472564,-7.323827266693115,4.0703125,1,A1,0,None,None,0.067323354989302,[22700|0|0],start
16600,1.6790050268173218,1.2206263542175293,0.0,0.258292406797409,0.4571765959262848,-7.321189880371094,4.0703125,1,A1,0,None,None,0.0675111611192637,[22800|0|0],start
16700,1.679008722305298,1.220488667488098,0.0,0.2710858285427093,0.459127277135849,-7.326591491699219,4.0703125,1,A1,0,None,None,0.0676488974328955,[22900|0|0],start
16800,1.6791064739227295,1.2206348180770874,0.0,0.2647545933723449,0.4614554047584533,-7.334173679351807,4.0703125,1,A1,0,None,None,0.0678247251138005,[23000|0|0],start
16900,1.6792781352996826,1.2208398580551147,0.0,0.2525987029075622,0.4537321031093597,-7.340548038482666,4.0703125,1,A1,0,None,None,0.0680921368205878,[23100|0|0],start
17000,1.6790746450424194,1.2206600904464722,0.0,0.2568136751651764,0.461241751909256,-7.358608722686768,4.0703125,1,A1,0,None,None,0.0683636597071335,[23200|0|0],start
17100,1.6790481805801392,1.220319390296936,0.0,0.2689273357391357,0.4618061482906341,-7.362398624420166,4.0703125,1,A1,0,None,None,0.0687053861469326,[23300|0|0],start
17200,1.678886890411377,1.2206100225448608,0.0,0.2633328139781952,0.4627056419849396,-7.375152587890625,4.0703125,1,A1,0,None,None,0.0690377739055416,[23400|0|0],start
17300,1.6791257858276367,1.220367193222046,0.0,0.2668354511260986,0.4511280059814453,-7.36305046081543,4.0703125,1,A1,0,None,None,0.0693784160930767,[23500|0|0],start
17400,1.6791850328445437,1.220362901687622,0.0,0.2648141384124756,0.4538160860538482,-7.337482929229736,4.0703125,1,A1,0,None,None,0.0694378183344493,[23600|0|0],start
17500,1.6792019605636597,1.2209991216659546,0.0,0.2575400471687317,0.4577693343162536,-7.3241095542907715,4.0703125,1,A1,0,None,None,0.0700742634683799,[23700|0|0],start
17600,1.679046392440796,1.2208143472671509,0.0,0.2699317932128906,0.4593166410923004,-7.330831527709961,4.0703125,1,A1,0,None,None,0.070315806465183,[23800|0|0],start
17700,1.6788207292556765,1.2208932638168335,0.0,0.2747746706008911,0.4664044082164764,-7.336226463317871,4.0703125,1,A1,0,None,None,0.0705548706718975,[23900|0|0],start
17800,1.679091215133667,1.2202529907226562,0.0,0.2888917922973633,0.4612480401992798,-7.347586631774902,4.0703125,1,A1,0,None,None,0.0712499334354805,[24000|0|0],start
17900,1.678926944732666,1.2204407453536987,0.0,0.2873001098632812,0.4694688618183136,-7.345359325408935,4.0703125,1,A1,0,None,None,0.0714994060113739,[24100|0|0],start
18000,1.6791919469833374,1.220443606376648,0.0,0.2749842405319214,0.4532198905944824,-7.347685813903809,4.0703125,1,A1,0,None,None,0.0717644237057138,[24200|0|0],start
18100,1.679072618484497,1.2208362817764282,0.0,0.2532674074172973,0.453717440366745,-7.35033655166626,4.0703125,1,A1,0,None,None,0.0721748299193949,[24300|0|0],start
18200,1.679004788398743,1.220359206199646,0.0,0.2750495076179504,0.4659092128276825,-7.363808631896973,4.0703125,1,A1,0,None,None,0.0726567033742516,[24400|0|0],start
18300,1.6790763139724731,1.2205696105957031,0.0,0.282089352607727,0.4672411680221557,-7.383825302124023,4.0703125,1,A1,0,None,None,0.0728789327997956,[24500|0|0],start
18400,1.6790106296539309,1.2207292318344116,0.0,0.2816672325134277,0.468285858631134,-7.363631725311279,4.0703125,1,A1,0,None,None,0.0730515403591584,[24600|0|0],start
18500,1.679031252861023,1.2200918197631836,0.0,0.3007103502750397,0.4719572961330414,-7.359286785125732,4.0703125,1,A1,0,None,None,0.0736892859708391,[24700|0|0],start
18600,1.6790717840194702,1.2206449508666992,0.0,0.2898840606212616,0.4707556068897247,-7.348737716674805,4.0703125,1,A1,0,None,None,0.0742439000641341,[24800|0|0],start
18700,1.6789348125457764,1.220614671707153,0.0,0.2931644022464752,0.4737351834774017,-7.36417818069458,4.0703125,1,A1,0,None,None,0.0743841784021222,[24900|0|0],start
18800,1.6789780855178833,1.2206637859344482,0.0,0.3000052273273468,0.4797690510749817,-7.364949226379394,4.0703125,1,A1,0,None,None,0.0744496364607381,[25000|0|0],start
18900,1.6788723468780518,1.2208267450332642,0.0,0.3007206320762634,0.4879792630672455,-7.342550277709961,4.0703125,1,A1,0,None,None,0.0746438948655507,[25100|0|0],start
19000,1.6790618896484375,1.2204416990280151,0.0,0.3062805235385895,0.4806179702281952,-7.360517978668213,4.0703125,1,A1,0,None,None,0.0750730648644599,[25200|0|0],start
19100,1.6790058612823486,1.220218539237976,0.0,0.3097008764743805,0.4790876507759094,-7.358775615692139,4.0703125,1,A1,0,None,None,0.0753031506521497,[25300|0|0],start
19200,1.6791751384735107,1.2205888032913208,0.0,0.2938282191753387,0.4744831919670105,-7.357208728790283,4.0703125,1,A1,0,None,None,0.0757102750024986,[25400|0|0],start
19300,1.6790640354156494,1.2207502126693726,0.0,0.2864033281803131,0.4735225737094879,-7.370704174041748,4.0703125,1,A1,0,None,None,0.075906226212725,[25500|0|0],start
19400,1.6790950298309326,1.220357894897461,0.0,0.2933732569217682,0.4778348207473755,-7.361744880676269,4.0703125,1,A1,0,None,None,0.0762997664113534,[25600|0|0],start
19500,1.6792696714401243,1.2206082344055176,0.0,0.284681111574173,0.4759294688701629,-7.339923858642578,4.0703125,1,A1,0,None,None,0.0766050033045283,[25700|0|0],start
19600,1.679073452949524,1.2206157445907593,0.0,0.2825516760349273,0.487176239490509,-7.346480369567871,4.0703125,1,A1,0,None,None,0.0768013654672172,[25800|0|0],start
19700,1.6792922019958496,1.2205946445465088,0.0,0.2811683714389801,0.4702754616737366,-7.350013256072998,4.0703125,1,A1,0,None,None,0.0770211297890162,[25900|0|0],start
19800,1.679051637649536,1.22072434425354,0.0,0.2859973609447479,0.4784384965896606,-7.340874195098877,4.0703125,1,A1,0,None,None,0.0772944303904084,[26000|0|0],start
19900,1.678900957107544,1.2205557823181152,0.0,0.2911331355571747,0.4893359243869781,-7.36059045791626,4.0703125,1,A1,0,None,None,0.0775205227427982,[26100|0|0],start
20000,1.679288625717163,1.2206279039382937,0.0,0.2915259301662445,0.4772463142871856,-7.3268141746521,4.0703125,1,A1,0,None,None,0.0779148430174243,[26200|0|0],start
20100,1.678900957107544,1.2204159498214722,0.0,0.2994736433029175,0.4889700710773468,-7.337206363677978,4.0703125,1,A1,0,None,None,0.0783566704707606,[26300|0|0],start
20200,1.6791627407073977,1.2203000783920288,0.0,0.2911254167556762,0.4801235198974609,-7.335206985473633,4.0703125,1,A1,0,None,None,0.0786429515237725,[26400|0|0],start
20300,1.678939700126648,1.220503330230713,0.0,0.2883205413818359,0.4882960617542267,-7.35076379776001,4.0703125,1,A1,0,None,None,0.0789447103854313,[26500|0|0],start
20400,1.6793416738510132,1.2204984426498413,0.0,0.2854902148246765,0.47665736079216,-7.340175151824951,4.0703125,1,A1,0,None,None,0.0793467138226391,[26600|0|0],start
20500,1.6793153285980225,1.2204350233078003,0.0,0.2866414487361908,0.4719225168228149,-7.351508140563965,4.0703125,1,A1,0,None,None,0.0794153875825482,[26700|0|0],start
20600,1.678849220275879,1.2204358577728271,0.0,0.2896718084812164,0.4849043488502502,-7.372932434082031,4.0703125,1,A1,0,None,None,0.0798814966516548,[26800|0|0],start
20700,1.6788928508758545,1.2206183671951294,0.0,0.2839772999286651,0.4821853339672088,-7.383634567260742,4.0703125,1,A1,0,None,None,0.0800691487725683,[26900|0|0],start
20800,1.6790581941604614,1.220303654670715,0.0,0.2920579612255096,0.4790771305561065,-7.3705010414123535,4.0703125,1,A1,0,None,None,0.0804246517610055,[27000|0|0],start
20900,1.6793361902236938,1.2204809188842771,0.0,0.2844539880752563,0.4644765257835388,-7.358594417572021,4.0703125,1,A1,0,None,None,0.0807543552832531,[27100|0|0],start
21000,1.67909574508667,1.2202951908111572,0.0,0.2840513288974762,0.4711998403072357,-7.383742332458496,4.0703125,1,A1,0,None,None,0.0810581788851396,[27200|0|0],start
21100,1.6792720556259155,1.2208504676818848,0.0,0.2678038775920868,0.4618567228317261,-7.377061367034912,4.0703125,1,A1,0,None,None,0.0816407746364235,[27300|0|0],start
21200,1.6793291568756104,1.2203127145767212,0.0,0.2806352078914642,0.4546375274658203,-7.34355354309082,4.0703125,1,A1,0,None,None,0.0821815508885184,[27400|0|0],start
21300,1.6790026426315308,1.2205595970153809,0.0,0.2741106450557709,0.4681008458137512,-7.33908748626709,4.0703125,1,A1,0,None,None,0.0825908948638074,[27500|0|0],start
21400,1.6792229413986206,1.2206913232803345,0.0,0.2702671587467193,0.4554033279418945,-7.374263763427734,4.0703125,1,A1,0,None,None,0.0828475723962482,[27600|0|0],start
21500,1.679197072982788,1.2208569049835205,0.0,0.267617255449295,0.4593751132488251,-7.36647891998291,4.0703125,1,A1,0,None,None,0.0830151625969393,[27700|0|0],start
21600,1.6789695024490356,1.2205381393432615,0.0,0.2755495607852936,0.4662282168865204,-7.366693496704102,4.0703125,1,A1,0,None,None,0.0834068255658834,[27800|0|0],start
21700,1.679088830947876,1.2204993963241575,0.0,0.2714936733245849,0.462541401386261,-7.353702068328857,4.0703125,1,A1,0,None,None,0.083532285966667,[27900|0|0],start
21800,1.6791874170303345,1.2202105522155762,0.0,0.2799223065376282,0.4555686414241791,-7.347567081451416,4.0703125,1,A1,0,None,None,0.0838374910366063,[28000|0|0],start
21900,1.6789880990982056,1.2205764055252075,0.0,0.2746925354003906,0.4608767628669739,-7.3465399742126465,4.0703125,1,A1,0,None,None,0.0842541159065269,[28100|0|0],start
22000,1.6790255308151243,1.2205651998519895,0.0,0.2752911448478699,0.4550851881504059,-7.341951847076416,4.0703125,1,A1,0,None,None,0.0842931889220716,[28200|0|0],start
22100,1.6791614294052124,1.2206045389175415,0.0,0.2752712368965149,0.4463701844215393,-7.332572937011719,4.0703125,1,A1,0,None,None,0.0844346667961948,[28300|0|0],start
22200,1.6792458295822144,1.2206532955169678,0.0,0.2690761387348175,0.4496273696422577,-7.332783222198486,4.0703125,1,A1,0,None,None,0.0845321377963209,[28400|0|0],start
22300,1.679240107536316,1.2203480005264282,0.0,0.2784054279327392,0.4483104944229126,-7.320788383483887,4.0703125,1,A1,0,None,None,0.0848374864053857,[28500|0|0],start
22400,1.679342269897461,1.2204521894454956,0.0,0.2704399228096008,0.4457411170005798,-7.315674304962158,4.0703125,1,A1,0,None,None,0.0849834058314096,[28600|0|0],start
22500,1.6792412996292114,1.2207406759262085,0.0,0.2521266937255859,0.4517275989055633,-7.292678833007812,4.0703125,1,A1,0,None,None,0.0852890517779303,[28700|0|0],start
22600,1.6792789697647097,1.220678687095642,0.0,0.2518599331378937,0.4431660175323486,-7.3048415184021,4.0703125,1,A1,0,None,None,0.0853615890388618,[28800|0|0],start
22700,1.6789535284042358,1.2207142114639282,0.0,0.258571594953537,0.4556284546852112,-7.310244560241699,4.0703125,1,A1,0,None,None,0.0856889635336674,[28900|0|0],start
22800,1.6791963577270508,1.2202593088150024,0.0,0.2746822237968445,0.4441849589347839,-7.321315288543701,4.0703125,1,A1,0,None,None,0.0862046208811554,[29000|0|0],start
22900,1.6792196035385132,1.2203214168548584,0.0,0.2783928215503692,0.4418324530124664,-7.3363518714904785,4.0703125,1,A1,0,None,None,0.0862709366135671,[29100|0|0],start
23000,1.6793097257614136,1.220551371574402,0.0,0.2745043635368347,0.4526041150093078,-7.354294776916504,4.0703125,1,A1,0,None,None,0.0865179207995,[29200|0|0],start
23100,1.6790423393249512,1.2205612659454346,0.0,0.2718465626239776,0.4576120972633362,-7.332301616668701,4.0703125,1,A1,0,None,None,0.086785490239052,[29300|0|0],start
23200,1.6792081594467163,1.2207642793655396,0.0,0.2598817646503448,0.4420791268348694,-7.334440231323242,4.0703125,1,A1,0,None,None,0.087047617615579,[29400|0|0],start
23300,1.6789731979370115,1.22085440158844,0.0,0.2613905668258667,0.4524448812007904,-7.352010250091553,4.0703125,1,A1,0,None,None,0.0872992700069908,[29500|0|0],start
23400,1.679163694381714,1.2206295728683472,0.0,0.2689833343029022,0.4496750235557556,-7.367332935333252,4.0703125,1,A1,0,None,None,0.0875939509341355,[29600|0|0],start
23500,1.6793321371078491,1.2207789421081543,0.0,0.2588443458080292,0.4383211433887481,-7.357748985290527,4.0703125,1,A1,0,None,None,0.0878190822775517,[29700|0|0],start
23600,1.6792515516281128,1.220835566520691,0.0,0.2627985179424286,0.4468348324298858,-7.381522655487059,4.0703125,1,A1,0,None,None,0.0879175726001192,[29800|0|0],start
23700,1.6788551807403564,1.2204784154891968,0.0,0.2862309515476227,0.4679599404335022,-7.390101909637451,4.0703125,1,A1,0,None,None,0.0884511142947955,[29900|0|0],start
23800,1.6792224645614624,1.2205308675765991,0.0,0.2733116447925567,0.4393134415149688,-7.375453948974609,4.0703125,1,A1,0,None,None,0.0888221245732502,[30000|0|0],start
23900,1.6790637969970703,1.2204707860946655,0.0,0.2822350561618805,0.4463815987110138,-7.376190662384033,4.0703125,1,A1,0,None,None,0.0889917865326326,[30100|0|0],start
24000,1.6788963079452517,1.2206813097000122,0.0,0.2571752667427063,0.4470991492271423,-7.420280456542969,4.0703125,1,A1,0,None,None,0.0892608084107155,[30200|0|0],start
24100,1.6792402267456057,1.2207378149032593,0.0,0.2624720335006714,0.4497303068637848,-7.420048236846924,4.0703125,1,A1,0,None,None,0.0896093381500935,[30300|0|0],start
24200,1.6791549921035769,1.2207683324813845,0.0,0.2683785557746887,0.4552705585956573,-7.419644355773926,4.0703125,1,A1,0,None,None,0.0896998713858493,[30400|0|0],start
24300,1.6789308786392212,1.2206519842147827,0.0,0.2776563167572021,0.4607791006565094,-7.387608051300049,4.0703125,1,A1,0,None,None,0.0899523862647114,[30500|0|0],start
24400,1.679044246673584,1.2205301523208618,0.0,0.2866952121257782,0.4541830718517303,-7.3752241134643555,4.0703125,1,A1,0,None,None,0.0901188053789731,[30600|0|0],start
24500,1.679234743118286,1.220676064491272,0.0,0.2812111973762512,0.4474104940891266,-7.3637614250183105,4.0703125,1,A1,0,None,None,0.0903587621603273,[30700|0|0],start
24600,1.678807497024536,1.2205626964569092,0.0,0.2872935533523559,0.468139499425888,-7.340756416320801,4.0703125,1,A1,0,None,None,0.09080079330837,[30800|0|0],start
24700,1.67891526222229,1.220719337463379,0.0,0.2764484882354736,0.4676662385463714,-7.360780715942383,4.0703125,1,A1,0,None,None,0.0909909241652944,[30900|0|0],start
24800,1.67908775806427,1.2207963466644287,0.0,0.2682590782642364,0.4630714356899261,-7.351042747497559,4.0703125,1,A1,0,None,None,0.0911798295187038,[31000|0|0],start
24900,1.678869128227234,1.2203136682510376,0.0,0.2748281359672546,0.4700553119182586,-7.360301971435547,4.0703125,1,A1,0,None,None,0.091709713898919,[31100|0|0],start
25000,1.67919659614563,1.2205495834350586,0.0,0.2635462880134582,0.4546971917152405,-7.365340709686279,4.0703125,1,A1,0,None,None,0.0921133117329448,[31200|0|0],start
25100,1.679080843925476,1.2204210758209229,0.0,0.2668232321739197,0.4608523547649383,-7.363354206085205,4.0703125,1,A1,0,None,None,0.0922862648576967,[31300|0|0],start
25200,1.678833246231079,1.220728874206543,0.0,0.2506718039512634,0.4763544499874115,-7.348763942718506,4.0703125,1,A1,0,None,None,0.0926812894954866,[31400|0|0],start
25300,1.679068088531494,1.220292329788208,0.0,0.2563897669315338,0.4705643057823181,-7.352318286895752,4.0703125,1,A1,0,None,None,0.0931769929706041,[31500|0|0],start
25400,1.6790653467178345,1.2207714319229126,0.0,0.2462213933467865,0.470388799905777,-7.344220161437988,4.0703125,1,A1,0,None,None,0.0936561029506928,[31600|0|0],start
25500,1.6790812015533447,1.2203797101974487,0.0,0.2564453482627868,0.4690241515636444,-7.335954189300537,4.0703125,1,A1,0,None,None,0.0940481454050386,[31700|0|0],start
25600,1.6788817644119265,1.2207542657852173,0.0,0.2433824986219406,0.4688277244567871,-7.312604904174805,4.0703125,1,A1,0,None,None,0.0944724884993688,[31800|0|0],start
25700,1.6790220737457275,1.220557451248169,0.0,0.251963198184967,0.4620448350906372,-7.3178019523620605,4.0703125,1,A1,0,None,None,0.0947141963212225,[31900|0|0],start
25800,1.6790200471878052,1.2207533121109009,0.0,0.2541919946670532,0.4609224200248718,-7.300901412963867,4.0703125,1,A1,0,None,None,0.0949100676679966,[32000|0|0],start
25900,1.6792396306991575,1.2205473184585571,0.0,0.2577893435955047,0.4610077440738678,-7.309789180755615,4.0703125,1,A1,0,None,None,0.0952111495559668,[32100|0|0],start
26000,1.6794764995574951,1.2202950716018677,0.0,0.2639917731285095,0.4509819447994232,-7.3069000244140625,4.0703125,1,A1,0,None,None,0.0955571774923533,[32200|0|0],start
26100,1.6791490316390991,1.220630764961243,0.0,0.2607858777046203,0.4685422480106354,-7.30242395401001,4.0703125,1,A1,0,None,None,0.09602613939817,[32300|0|0],start
26200,1.6793471574783323,1.2201303243637085,0.0,0.2734353840351105,0.4555085599422455,-7.286580085754394,4.0703125,1,A1,0,None,None,0.096564372284412,[32400|0|0],start
26300,1.6790175437927246,1.2205802202224731,0.0,0.2607276737689972,0.4624286592006683,-7.301393985748291,4.0703125,1,A1,0,None,None,0.0971220921652424,[32500|0|0],start
26400,1.678841471672058,1.22059428691864,0.0,0.2640019357204437,0.4668967127799988,-7.310171604156494,4.0703125,1,A1,0,None,None,0.0972987252980829,[32600|0|0],start
26500,1.679263710975647,1.220355987548828,0.0,0.267276257276535,0.4548370540142059,-7.326957702636719,4.0703125,1,A1,0,None,None,0.0977835681789712,[32700|0|0],start
26600,1.6789969205856323,1.2202104330062866,0.0,0.275419145822525,0.4596191942691803,-7.32394552230835,4.0703125,1,A1,0,None,None,0.0980874813854275,[32800|0|0],start
26700,1.6791839599609375,1.2207242250442505,0.0,0.257940798997879,0.4502095580101013,-7.299446582794189,4.0703125,1,A1,0,None,None,0.0986342592070238,[32900|0|0],start
26800,1.680295705795288,1.22204852104187,0.0,0.2260657250881195,0.4322606921195984,-7.315520763397217,4.0703125,1,A1,0,None,None,0.1003633452920718,[33000|0|0],start
26900,1.6801663637161257,1.221753716468811,0.0,0.2345428168773651,0.4324138760566711,-7.29243278503418,4.0703125,1,A1,0,None,None,0.1006852755791504,[33100|0|0],start
27000,1.67967689037323,1.221626043319702,0.0,0.2396824210882187,0.4511177539825439,-7.305375099182129,4.0703125,1,A1,0,None,None,0.1011911259388507,[33200|0|0],start
27100,1.6799709796905518,1.2217851877212524,0.0,0.2386053055524826,0.4424677193164825,-7.307990550994873,4.0703125,1,A1,0,None,None,0.101525514137069,[33300|0|0],start
27200,1.6800233125686646,1.2219371795654297,0.0,0.2290314584970474,0.4357167482376098,-7.316516876220703,4.0703125,1,A1,0,None,None,0.1016862631676352,[33400|0|0],start
27300,1.6801860332489014,1.2220165729522705,0.0,0.2234094887971878,0.4291323721408844,-7.332890510559082,4.0703125,1,A1,0,None,None,0.1018673193181819,[33500|0|0],start
27400,1.6800616979599,1.2214800119400024,0.0,0.2408383041620254,0.4321851730346679,-7.340765953063965,4.0703125,1,A1,0,None,None,0.1024180978435232,[33600|0|0],start
27500,1.6797174215316772,1.221805214881897,0.0,0.2381018251180648,0.4481604397296905,-7.329331398010254,4.0703125,1,A1,0,None,None,0.1028916833294142,[33700|0|0],start
27600,1.6800516843795776,1.2218570709228516,0.0,0.2328183203935623,0.4347835183143616,-7.337939739227295,4.0703125,1,A1,0,None,None,0.103229944619647,[33800|0|0],start
27700,1.6802297830581665,1.2218682765960691,0.0,0.2338564544916153,0.4299451112747192,-7.335858345031738,4.0703125,1,A1,0,None,None,0.1034083954712207,[33900|0|0],start
27800,1.679335117340088,1.2204231023788452,0.0,0.261722594499588,0.452642947435379,-7.355600833892822,4.0703125,1,A1,0,None,None,0.1051080881685144,[34000|0|0],start
27900,1.679073452949524,1.220539927482605,0.0,0.2624132037162781,0.4576979279518127,-7.339780807495117,4.0703125,1,A1,0,None,None,0.1053946476879126,[34100|0|0],start
28000,1.6790833473205566,1.2204524278640747,0.0,0.2627236545085907,0.4647241234779358,-7.348086833953857,4.0703125,1,A1,0,None,None,0.105482704952355,[34200|0|0],start
28100,1.680071234703064,1.222040057182312,0.0,0.2347687929868698,0.4467248022556305,-7.349208831787109,4.0703125,1,A1,0,None,None,0.1073525948776297,[34300|0|0],start
28201,1.680041790008545,1.22186279296875,0.0,0.2473186552524566,0.4460696578025818,-7.357304573059082,4.0703125,1,A1,0,None,None,0.1075322879254782,[34400|0|0],start
28301,1.6802618503570557,1.221904754638672,0.0,0.2491516023874282,0.4399936199188232,-7.350592613220215,4.0703125,1,A1,0,None,None,0.1077563132337121,[34500|0|0],start
28401,1.6798559427261353,1.221702218055725,0.0,0.2546424865722656,0.4451726377010345,-7.333000183105469,4.0703125,1,A1,0,None,None,0.1082099453228232,[34600|0|0],start
28501,1.679920673370361,1.2217649221420288,0.0,0.2343579679727554,0.4304430186748504,-7.329301357269287,4.0703125,1,A1,0,None,None,0.1083000666784559,[34700|0|0],start
28601,1.6796563863754272,1.221528172492981,0.0,0.2488290816545486,0.4399005770683288,-7.345164775848389,4.0703125,1,A1,0,None,None,0.1086548877770611,[34800|0|0],start
28701,1.6802619695663452,1.2219644784927368,0.0,0.2447944730520248,0.4333217144012451,-7.360767364501953,4.0703125,1,A1,0,None,None,0.1094012750267817,[34900|0|0],start
28801,1.6799051761627195,1.2217998504638672,0.0,0.2413555830717086,0.4532806277275085,-7.370270729064941,4.0703125,1,A1,0,None,None,0.1097942176698739,[35000|0|0],start
28902,1.680152177810669,1.221484899520874,0.0,0.2530515193939209,0.452425092458725,-7.372648239135742,4.0703125,1,A1,0,None,None,0.1101944724769431,[35100|0|0],start
29002,1.680010437965393,1.2215652465820312,0.0,0.2508439719676971,0.4599220156669616,-7.351059913635254,4.0703125,1,A1,0,None,None,0.1103574014000213,[35200|0|0],start
29102,1.679783821105957,1.2216072082519531,0.0,0.254368245601654,0.4649668037891388,-7.343216896057129,4.0703125,1,A1,0,None,None,0.1105878704494039,[35300|0|0],start
29202,1.6799556016921997,1.221578598022461,0.0,0.2536343336105346,0.4542195200920105,-7.366156101226807,4.0703125,1,A1,0,None,None,0.1107620172697638,[35400|0|0],start
29302,1.6800305843353271,1.221599817276001,0.0,0.2533183991909027,0.4520565867424011,-7.357421398162842,4.0703125,1,A1,0,None,None,0.1108399445017894,[35500|0|0],start
29402,1.6797075271606443,1.221585035324097,0.0,0.2281805127859115,0.4414023160934448,-7.357129096984863,4.0703125,1,A1,0,None,None,0.1111633396845243,[35600|0|0],start
29502,1.6799309253692627,1.221427321434021,0.0,0.2317932844161987,0.4407858848571777,-7.367488384246826,4.0703125,1,A1,0,None,None,0.1114367997926512,[35700|0|0],start
29602,1.6802269220352173,1.2215296030044556,0.0,0.2501126825809479,0.4143178761005401,-7.373071193695068,4.0703125,1,A1,0,None,None,0.11174996994753,[35800|0|0],start
29702,1.680083155632019,1.2213364839553833,0.0,0.2970787286758423,0.37603360414505,-7.370833396911621,4.0703125,1,A1,0,None,None,0.1119907265586607,[35900|0|0],start
29802,1.6803234815597534,1.221877098083496,0.0,0.2848150730133056,0.3638778328895569,-7.349021911621094,4.0703125,1,A1,0,None,None,0.1125823515979014,[36000|0|0],start
29902,1.679898381233215,1.2218455076217651,0.0,0.2735803127288818,0.3779713213443756,-7.344292163848877,4.0703125,1,A1,0,None,None,0.113008624098651,[36100|0|0],start
30002,1.6798944473266602,1.2219085693359375,0.0,0.2640619874000549,0.3820014894008636,-7.321701049804687,4.0703125,1,A1,0,None,None,0.1130718083958707,[36200|0|0],start
30100,1.680294394493103,1.222325325012207,0.0,0.2937604784965515,0.3622976541519165,-7.301031112670898,4.0703125,1,A1,0,None,None,0.1136494268076691,[36300|0|0],start
30200,1.6806823015213013,1.2219384908676147,0.0,0.3689919710159302,0.3298919200897217,-7.271591663360596,4.0703125,1,A1,0,None,None,0.1141972520699089,[36400|0|0],start
30300,1.6809275150299072,1.2214897871017456,0.0,0.3710691630840301,0.3626539707183838,-7.298507690429687,4.0703125,1,A1,0,None,None,0.1147085882942349,[36500|0|0],start
30400,1.6802774667739868,1.221402883529663,0.0,0.2842949628829956,0.4401800334453583,-7.282541751861572,4.0703125,1,A1,0,None,None,0.1153644198014575,[36600|0|0],start
30500,1.680821657180786,1.2213752269744873,0.0,0.2940351665019989,0.4353628158569336,-7.213588714599609,4.0703125,1,A1,0,None,None,0.1159093125284197,[36700|0|0],start
30600,1.681618571281433,1.221001148223877,0.0,0.3081342577934265,0.4172236323356628,-7.145112037658691,4.0703125,1,A1,0,None,None,0.1167896573446529,[36800|0|0],start
30700,1.6798864603042605,1.2214069366455078,0.0,0.2961167395114898,0.481794148683548,-7.239687442779541,4.0703125,1,A1,0,None,None,0.1185686662486136,[36900|0|0],start
30800,1.6802314519882202,1.2218953371047974,0.0,0.2659502327442169,0.4745391607284546,-7.293994426727295,4.0703125,1,A1,0,None,None,0.1191666246674318,[37000|0|0],start
30900,1.6803183555603027,1.2214726209640503,0.0,0.2537754774093628,0.4767170250415802,-7.296446323394775,4.0703125,1,A1,0,None,None,0.11959818134562,[37100|0|0],start
31000,1.6803462505340576,1.2216085195541382,0.0,0.2278887182474136,0.4840447604656219,-7.307307243347168,4.0703125,1,A1,0,None,None,0.1197369133042621,[37200|0|0],start
31100,1.6800663471221924,1.2215495109558103,0.0,0.2125482857227325,0.4891625344753265,-7.280818939208984,4.0703125,1,A1,0,None,None,0.1200229691286223,[37300|0|0],start
31200,1.6802717447280884,1.22175395488739,0.0,0.1947565525770187,0.4831660091876983,-7.268367767333984,4.0703125,1,A1,0,None,None,0.1203127716435657,[37400|0|0],start
31300,1.680119514465332,1.2219303846359253,0.0,0.1904319077730178,0.4874289035797119,-7.272778034210205,4.0703125,1,A1,0,None,None,0.1205457984855113,[37500|0|0],start
31400,1.6802972555160522,1.2219469547271729,0.0,0.188327357172966,0.4796754121780395,-7.267519950866699,4.0703125,1,A1,0,None,None,0.1207243102471268,[37600|0|0],start
31500,1.680053472518921,1.2214605808258057,0.0,0.2029673308134079,0.4860159456729889,-7.266592502593994,4.0703125,1,A1,0,None,None,0.1212683596213765,[37700|0|0],start
31600,1.6801211833953855,1.221954107284546,0.0,0.1910125613212585,0.4864083230495453,-7.297728061676025,4.0703125,1,A1,0,None,None,0.121766509326052,[37800|0|0],start
31700,1.6800135374069214,1.2220548391342163,0.0,0.1912809163331985,0.4855940341949463,-7.30648946762085,4.0703125,1,A1,0,None,None,0.1219139357971162,[37900|0|0],start
31800,1.680090308189392,1.221692442893982,0.0,0.1983170211315155,0.4758718013763428,-7.3246378898620605,4.0703125,1,A1,0,None,None,0.1222843744397781,[38000|0|0],start
31900,1.67997145652771,1.2217944860458374,0.0,0.2067139446735382,0.4657615721225738,-7.334283351898193,4.0703125,1,A1,0,None,None,0.122441022204924,[38100|0|0],start
32000,1.6798118352890017,1.2221331596374512,0.0,0.1969399005174636,0.4629228115081787,-7.310190677642822,4.0703125,1,A1,0,None,None,0.1228154267207933,[38200|0|0],start
32100,1.6802042722702026,1.2220838069915771,0.0,0.2008304446935653,0.4441930949687958,-7.2946271896362305,4.0703125,1,A1,0,None,None,0.1232109548081257,[38300|0|0],start
32200,1.680037498474121,1.2219969034194946,0.0,0.2027778625488281,0.4480721652507782,-7.268685340881348,4.0703125,1,A1,0,None,None,0.1233990125915333,[38400|0|0],start
32300,1.680065631866455,1.221886396408081,0.0,0.2042718231678009,0.4467673301696777,-7.245850086212158,4.0703125,1,A1,0,None,None,0.123513044549053,[38500|0|0],start
32400,1.679887771606445,1.2214410305023191,0.0,0.2227845191955566,0.4438686966896057,-7.236704349517822,4.0703125,1,A1,0,None,None,0.1239926121273003,[38600|0|0],start
32500,1.6798397302627563,1.2219243049621582,0.0,0.2130738347768783,0.4429836869239807,-7.256886959075928,4.0703125,1,A1,0,None,None,0.1244782685637203,[38700|0|0],start
32600,1.6799944639205933,1.2218198776245115,0.0,0.2177209556102752,0.4377255439758301,-7.261750221252441,4.0703125,1,A1,0,None,None,0.124664943612175,[38800|0|0],start
32700,1.680081844329834,1.2219575643539429,0.0,0.215970292687416,0.4347675740718841,-7.288516521453857,4.0703125,1,A1,0,None,None,0.1248280171274391,[38900|0|0],start
32800,1.680129051208496,1.2215571403503418,0.0,0.2310081422328949,0.435357928276062,-7.30063009262085,4.0703125,1,A1,0,None,None,0.1252312141909861,[39000|0|0],start
32900,1.6801046133041382,1.221744179725647,0.0,0.2272598594427108,0.4365740716457367,-7.2931227684021,4.0703125,1,A1,0,None,None,0.1254198432955378,[39100|0|0],start
33000,1.6801518201828003,1.2217719554901123,0.0,0.2330249100923538,0.4345039427280426,-7.296014308929443,4.0703125,1,A1,0,None,None,0.1254746153913955,[39200|0|0],start
33100,1.679994821548462,1.2222646474838257,0.0,0.2277934700250625,0.4433461129665375,-7.290528774261475,4.0703125,1,A1,0,None,None,0.1259917169015977,[39300|0|0],start
33200,1.6801692247390747,1.2220754623413086,0.0,0.2404118627309799,0.4365125298500061,-7.299649715423584,4.0703125,1,A1,0,None,None,0.1262490250651781,[39400|0|0],start
33300,1.6802877187728882,1.2217942476272583,0.0,0.2413528114557266,0.4323696494102478,-7.278774261474609,4.0703125,1,A1,0,None,None,0.1265541849436808,[39500|0|0],start
33400,1.68061625957489,1.2220770120620728,0.0,0.2389814704656601,0.4251562356948852,-7.25961971282959,4.0703125,1,A1,0,None,None,0.126987653263372,[39600|0|0],start
33500,1.6799880266189575,1.2218115329742432,0.0,0.2487271428108215,0.4351620674133301,-7.270423412322998,4.0703125,1,A1,0,None,None,0.1276696765716206,[39700|0|0],start
33600,1.680420994758606,1.2218388319015503,0.0,0.2625476419925689,0.4358722269535064,-7.270700931549072,4.0703125,1,A1,0,None,None,0.1281035044653558,[39800|0|0],start
33700,1.6802605390548706,1.2220598459243774,0.0,0.2339873760938644,0.4267427325248718,-7.239721775054932,4.0703125,1,A1,0,None,None,0.1283766220794847,[39900|0|0],start
33800,1.6798441410064695,1.2215193510055542,0.0,0.2557817995548248,0.4439006745815277,-7.274200439453125,4.0703125,1,A1,0,None,None,0.1290589138733574,[40000|0|0],start
33900,1.6801581382751465,1.2218151092529297,0.0,0.2467206716537475,0.4317929148674011,-7.289240837097168,4.0703125,1,A1,0,None,None,0.1294902689772187,[40100|0|0],start
34000,1.6802109479904177,1.222059965133667,0.0,0.2448945790529251,0.4367623329162597,-7.301540851593018,4.0703125,1,A1,0,None,None,0.1297407550414192,[40200|0|0],start
34100,1.6801875829696655,1.2219617366790771,0.0,0.2518773078918457,0.4432116746902466,-7.264965534210205,4.0703125,1,A1,0,None,None,0.1298417241133465,[40300|0|0],start
34200,1.6803033351898191,1.2219847440719604,0.0,0.2696093618869781,0.4200215935707092,-7.217075347900391,4.0703125,1,A1,0,None,None,0.1299597407079329,[40400|0|0],start
34300,1.680794358253479,1.2224336862564087,0.0,0.286805659532547,0.4012966156005859,-7.149070262908936,4.0703125,1,A1,0,None,None,0.1306250622347327,[40500|0|0],start
34400,1.680281639099121,1.2213165760040283,0.0,0.3241969645023346,0.4186902940273285,-7.176900386810303,4.0703125,1,A1,0,None,None,0.1318542148888887,[40600|0|0],start
34500,1.6805530786514282,1.2222001552581787,0.0,0.3016653954982757,0.4051933884620666,-7.136483669281006,4.0703125,1,A1,0,None,None,0.1327785480154841,[40700|0|0],start
34600,1.6814298629760742,1.2220538854599,0.0,0.2993564903736114,0.3797041475772857,-6.941337585449219,4.0703125,1,A1,0,None,None,0.1336674493631226,[40800|0|0],start
34700,1.679938554763794,1.221311330795288,0.0,0.2952702045440674,0.4631212651729584,-7.032078266143799,4.0703125,1,A1,0,None,None,0.1353333988263271,[40900|0|0],start
34800,1.679992914199829,1.2214268445968628,0.0,0.2571943402290344,0.454126238822937,-7.107945442199707,4.0703125,1,A1,0,None,None,0.1354610639611145,[41000|0|0],start
34900,1.6803001165390017,1.221644639968872,0.0,0.266217440366745,0.3739587962627411,-7.137146949768066,4.0703125,1,A1,0,None,None,0.1358376381254723,[41100|0|0],start
35000,1.6806516647338867,1.2219892740249634,0.0,0.2257354408502578,0.2318139672279358,-7.084070682525635,4.0703125,1,A1,0,None,None,0.1363299375932202,[41200|0|0],start
35100,1.680428981781006,1.2219914197921753,0.0,0.2128301709890365,0.242658644914627,-7.04626989364624,4.0703125,1,A1,0,None,None,0.1365526308841398,[41300|0|0],start
35200,1.680916428565979,1.2220500707626345,0.0,0.2107632309198379,0.2373848706483841,-6.995135307312012,4.0703125,1,A1,0,None,None,0.137043593514608,[41400|0|0],start
35300,1.6803228855133057,1.2219953536987305,0.0,0.2223352491855621,0.2435195744037628,-6.976293087005615,4.0703125,1,A1,0,None,None,0.1376396533374941,[41500|0|0],start
35400,1.680640697479248,1.222385048866272,0.0,0.0960083976387977,0.0669647753238678,-6.958373546600342,4.0703125,1,A1,0,None,None,0.1381425119352145,[41600|0|0],start
35500,1.6803051233291626,1.222119688987732,0.0,0.2126648128032684,0.4300536811351776,-7.040989875793457,4.0703125,1,A1,0,None,None,0.1385703271702686,[41700|0|0],start
