time.ms,stateEstimate.x,stateEstimate.y,stateEstimate.z,stabilizer.roll,stabilizer.pitch,stabilizer.yaw,pm.vbat,drone_id,node_name,wind_speed,global_wind_direction,relative_wind_direction,travel_dist,waiting_time
0,1.2932562828063965,-0.3355288803577423,-0.00666316132992506,0.28830528259277344,0.8541462421417236,4.246640205383301,4.1171875,0,"['C1', 'F1', 'J1']",0,None,0,0.059433602529069464,[100|0|0]
100,1.2933194637298584,-0.3359788656234741,-0.0062004742212593555,0.18311019241809845,1.1409739255905151,4.706772327423096,4.11328125,0,"['C1', 'F1', 'J1']",0,None,0,0.060082106907613404,[200|0|0]
200,1.292974591255188,-0.3354664444923401,-0.007833790965378284,-0.18387094140052795,1.1827219724655151,4.899394989013672,4.11328125,0,"['C1', 'F1', 'J1']",0,None,0,0.06182831308846297,[300|0|0]
300,1.2927186489105225,-0.33524569869041443,-0.008594419807195663,-0.3400803804397583,1.1583462953567505,4.960046768188477,4.1171875,0,"['C1', 'F1', 'J1']",0,None,0,0.06266065402093303,[400|0|0]
400,1.2927751541137695,-0.3349307179450989,-0.00886128656566143,-0.4394870698451996,1.0798343420028687,4.990368366241455,4.11328125,0,"['C1', 'F1', 'J1']",0,None,0,0.06307733564362301,[500|0|0]
500,1.2925975322723389,-0.334724485874176,-0.009069268591701984,-0.483280211687088,1.0267363786697388,4.9964423179626465,4.11328125,0,"['C1', 'F1', 'J1']",0,None,0,0.06341988156577985,[600|0|0]
600,1.29213547706604,-0.3347521424293518,-0.009198079816997051,-0.49796047806739807,1.005946397781372,4.971331596374512,4.11328125,0,"['C1', 'F1', 'J1']",0,None,0,0.06390035240826049,[700|0|0]
700,1.2922970056533813,-0.33484530448913574,-0.009632845409214497,-0.4835667908191681,0.9604565501213074,4.943953514099121,4.11328125,0,"['C1', 'F1', 'J1']",0,None,0,0.06437341876099321,[800|0|0]
800,1.2923134565353394,-0.3349855840206146,-0.009401313960552216,-0.4894176125526428,0.9283660650253296,4.920792579650879,4.11328125,0,"['C1', 'F1', 'J1']",0,None,0,0.06464463046831571,[900|0|0]
900,1.2922866344451904,-0.33480900526046753,-0.009440960362553596,-0.49420955777168274,0.8966864943504333,4.887874126434326,4.11328125,0,"['C1', 'F1', 'J1']",0,None,0,0.06482758215660171,[1000|0|0]
1000,1.2922005653381348,-0.33457687497138977,-0.009641711600124836,-0.49482813477516174,0.8776971697807312,4.88320779800415,4.11328125,0,"['C1', 'F1', 'J1']",0,None,0,0.06514631938643699,[1100|0|0]
1100,1.292268991470337,-0.3349493741989136,-0.009127369150519371,-0.4797159731388092,0.8508688807487488,4.861552715301514,4.11328125,0,"['C1', 'F1', 'J1']",0,None,0,0.06578505717734975,[1200|0|0]
1200,1.292421817779541,-0.3350629508495331,-0.009538657031953335,-0.47106510400772095,0.8301066160202026,4.853873252868652,4.11328125,0,"['C1', 'F1', 'J1']",0,None,0,0.06623828257134852,[1300|0|0]
1300,1.2924199104309082,-0.3345547914505005,-0.009684785269200802,-0.4817953407764435,0.8179317712783813,4.830015182495117,4.11328125,0,"['C1', 'F1', 'J1']",0,None,0,0.06676703872925595,[1400|0|0]
1400,1.2926318645477295,-0.33495599031448364,-0.009076525457203388,-0.46517646312713623,0.7982942461967468,4.83693265914917,4.11328125,0,"['C1', 'F1', 'J1']",0,None,0,0.06752589647283506,[1500|0|0]
1500,1.292411208152771,-0.334712952375412,-0.009596512652933598,-0.46794524788856506,0.7970291972160339,4.825148105621338,4.1171875,0,"['C1', 'F1', 'J1']",0,None,0,0.06814083010192656,[1600|0|0]
1600,1.292683720588684,-0.3345926105976105,-0.009226914495229721,-0.4689110219478607,0.7875381112098694,4.821775913238525,4.11328125,0,"['C1', 'F1', 'J1']",0,None,0,0.06861553840119024,[1700|0|0]
1700,1.2926853895187378,-0.334868460893631,-0.009214142337441444,-0.45914843678474426,0.783592700958252,4.817043304443359,4.11328125,0,"['C1', 'F1', 'J1']",0,None,0,0.06889168926422835,[1800|0|0]
1800,1.2922312021255493,-0.33474817872047424,-0.009443746879696846,-0.46168115735054016,0.7900031805038452,4.805638313293457,4.11328125,0,"['C1', 'F1', 'J1']",0,None,0,0.06941463499289909,[1900|0|0]
1900,1.2923575639724731,-0.3350076377391815,-0.009009490720927715,-0.4546292722225189,0.7788747549057007,4.807548522949219,4.1171875,0,"['C1', 'F1', 'J1']",0,None,0,0.06993604146598459,[2000|0|0]
2000,1.2924745082855225,-0.3350691497325897,-0.009260226972401142,-0.4536541998386383,0.781360387802124,4.811919689178467,4.11328125,0,"['C1', 'F1', 'J1']",0,None,0,0.07021946405769275,[2100|0|0]
2100,1.292564868927002,-0.33482638001441956,-0.009395025670528412,-0.4580874741077423,0.7697551846504211,4.805951118469238,4.11328125,0,"['C1', 'F1', 'J1']",0,None,0,0.07051147924669122,[2200|0|0]
2200,1.2925292253494263,-0.3346819579601288,-0.009329072199761868,-0.4641982614994049,0.7648689150810242,4.797090530395508,4.11328125,0,"['C1', 'F1', 'J1']",0,None,0,0.0706742000342204,[2300|0|0]
2300,1.2923552989959717,-0.3349266052246094,-0.009214982390403748,-0.46495571732521057,0.755999743938446,4.7858099937438965,4.11328125,0,"['C1', 'F1', 'J1']",0,None,0,0.07099532173240228,[2400|0|0]
2400,1.2924917936325073,-0.33439889550209045,-0.009783701971173286,-0.46959421038627625,0.7605968117713928,4.791557788848877,4.1171875,0,"['C1', 'F1', 'J1']",0,None,0,0.07178307188225608,[2500|0|0]
2500,1.292619228363037,-0.33492588996887207,-0.00932587031275034,-0.4503438472747803,0.7515102028846741,4.80585241317749,4.11328125,0,"['C1', 'F1', 'J1']",0,None,0,0.0724927003808509,[2600|0|0]
2600,1.2924484014511108,-0.33498692512512207,-0.009249644353985786,-0.44789743423461914,0.7514861822128296,4.794915676116943,4.11328125,0,"['C1', 'F1', 'J1']",0,None,0,0.07268946806347765,[2700|0|0]
2700,1.2924453020095825,-0.3347512483596802,-0.009432440623641014,-0.44284287095069885,0.759372889995575,4.805572509765625,4.11328125,0,"['C1', 'F1', 'J1']",0,None,0,0.07298774246819051,[2800|0|0]
2800,1.292489767074585,-0.33470866084098816,-0.009862006641924381,-0.4453369677066803,0.7547017931938171,4.794407367706299,4.11328125,0,"['C1', 'F1', 'J1']",0,None,0,0.07342169845998903,[2900|0|0]
2900,1.292428731918335,-0.33498266339302063,-0.009113190695643425,-0.43649256229400635,0.7573032379150391,4.805140972137451,4.11328125,0,"['C1', 'F1', 'J1']",0,None,0,0.07422140341197032,[3000|0|0]
3000,1.2924832105636597,-0.33512842655181885,-0.00935249775648117,-0.43466609716415405,0.7539017796516418,4.821441173553467,4.11328125,0,"['C1', 'F1', 'J1']",0,None,0,0.07450685514278667,[3100|0|0]
3100,1.292866587638855,-0.3349762558937073,-0.009013564325869083,-0.44191858172416687,0.731707751750946,4.8120198249816895,4.11328125,0,"['C1', 'F1', 'J1']",0,None,0,0.075040718197663,[3200|0|0]
3200,1.2924542427062988,-0.334753155708313,-0.009471865370869637,-0.4539905786514282,0.7396673560142517,4.816927909851074,4.11328125,0,"['C1', 'F1', 'J1']",0,None,0,0.07569634147667031,[3300|0|0]
3300,1.292705774307251,-0.3350825905799866,-0.009125161916017532,-0.4458909332752228,0.7264731526374817,4.812459468841553,4.11328125,0,"['C1', 'F1', 'J1']",0,None,0,0.07623671057882044,[3400|0|0]
3400,1.2926462888717651,-0.33467331528663635,-0.009527459740638733,-0.4646863341331482,0.7230467200279236,4.794100761413574,4.11328125,0,"['C1', 'F1', 'J1']",0,None,0,0.07681367532859013,[3500|0|0]
3500,1.2923825979232788,-0.33495190739631653,-0.009340150281786919,-0.45533791184425354,0.7348323464393616,4.806737422943115,4.11328125,0,"['C1', 'F1', 'J1']",0,None,0,0.07724056092598716,[3600|0|0]
3600,1.292528510093689,-0.33511433005332947,-0.009329733438789845,-0.44394394755363464,0.7336091995239258,4.811620235443115,4.11328125,0,"['C1', 'F1', 'J1']",0,None,0,0.07745914727414956,[3700|0|0]
3700,1.2924952507019043,-0.334955632686615,-0.009193296544253826,-0.44446781277656555,0.7359575629234314,4.79268741607666,4.11328125,0,"['C1', 'F1', 'J1']",0,None,0,0.07767105779190323,[3800|0|0]
3800,1.292447566986084,-0.3346492350101471,-0.00948051456362009,-0.44891971349716187,0.7317229509353638,4.797914981842041,4.11328125,0,"['C1', 'F1', 'J1']",0,None,0,0.07809372487549034,[3900|0|0]
3900,1.2924972772598267,-0.33502820134162903,-0.009423546493053436,-0.44820255041122437,0.7265201210975647,4.819733619689941,4.11328125,0,"['C1', 'F1', 'J1']",0,None,0,0.07848015980245286,[4000|0|0]
4000,1.2933701276779175,-0.3347356617450714,-0.009356170892715454,-0.46097061038017273,0.7281291484832764,4.804386138916016,4.11328125,0,"['C1', 'F1', 'J1']",0,None,0,0.07940319108005743,[4100|0|0]
4100,1.2933428287506104,-0.334799200296402,-0.009655379690229893,-0.45970889925956726,0.7282766103744507,4.796969890594482,4.11328125,0,"['C1', 'F1', 'J1']",0,None,0,0.07971028761772489,[4200|0|0]
4200,1.293336033821106,-0.334907591342926,-0.009311617352068424,-0.45483866333961487,0.7305821776390076,4.806282043457031,4.11328125,0,"['C1', 'F1', 'J1']",0,None,0,0.0800707974444589,[4300|0|0]
4300,1.2931938171386719,-0.33469924330711365,-0.00951621774584055,-0.4637237787246704,0.74074387550354,4.808563232421875,4.11328125,0,"['C1', 'F1', 'J1']",0,None,0,0.08039559862968017,[4400|0|0]
4400,1.293540120124817,-0.3348202705383301,-0.00926333200186491,-0.46012645959854126,0.7306795716285706,4.797909736633301,4.11328125,0,"['C1', 'F1', 'J1']",0,None,0,0.08084115956649464,[4500|0|0]
4500,1.2933423519134521,-0.3348550498485565,-0.009768066927790642,-0.4567464590072632,0.7373034358024597,4.81684684753418,4.11328125,0,"['C1', 'F1', 'J1']",0,None,0,0.0813843715060684,[4600|0|0]
4600,1.2927452325820923,-0.3348640203475952,-0.009011314250528812,-0.5731717348098755,0.6617870926856995,4.811267375946045,4.11328125,0,"['C1', 'F1', 'J1']",0,None,0,0.08234837699374968,[4700|0|0]
4700,1.2925986051559448,-0.33468154072761536,-0.009351701475679874,-0.5508553385734558,0.6922047138214111,4.804218292236328,4.11328125,0,"['C1', 'F1', 'J1']",0,None,0,0.08276148942015762,[4800|0|0]
4800,1.292486310005188,-0.3348667025566101,-0.009555093944072723,-0.5092248320579529,0.722196638584137,4.807563781738281,4.11328125,0,"['C1', 'F1', 'J1']",0,None,0,0.08305858132512832,[4900|0|0]
4900,1.292792558670044,-0.33463722467422485,-0.009591074660420418,-0.4961417615413666,0.7286611795425415,4.810084819793701,4.11328125,0,"['C1', 'F1', 'J1']",0,None,0,0.08344295478308161,[5000|0|0]
5000,1.2923738956451416,-0.3348802626132965,-0.009499135427176952,-0.4745265245437622,0.7498475909233093,4.815822601318359,4.11328125,0,"['C1', 'F1', 'J1']",0,None,0,0.08393570115887547,[5100|0|0]
5100,1.2923904657363892,-0.3347782492637634,-0.009663303382694721,-0.47200387716293335,0.7568025588989258,4.8096394538879395,4.11328125,0,"['C1', 'F1', 'J1']",0,None,0,0.08412969190356653,[5200|0|0]
5200,1.292546033859253,-0.3349572420120239,-0.009270518086850643,-0.45817914605140686,0.753343939781189,4.8054914474487305,4.11328125,0,"['C1', 'F1', 'J1']",0,None,0,0.08458851663416911,[5300|0|0]
5300,1.2926018238067627,-0.334924578666687,-0.009546360932290554,-0.4567665159702301,0.7513080835342407,4.8114914894104,4.11328125,0,"['C1', 'F1', 'J1']",0,None,0,0.08487183392582659,[5400|0|0]
5400,1.292436122894287,-0.3349243998527527,-0.00930227804929018,-0.4612918496131897,0.7545587420463562,4.804864883422852,4.11328125,0,"['C1', 'F1', 'J1']",0,None,0,0.08516684795624453,[5500|0|0]
5500,1.2927361726760864,-0.33466753363609314,-0.009543140418827534,-0.45675644278526306,0.757806122303009,4.785069942474365,4.11328125,0,"['C1', 'F1', 'J1']",0,None,0,0.08562947610700705,[5600|0|0]
5600,1.2924491167068481,-0.3350580930709839,-0.009342914447188377,-0.4494021534919739,0.769815981388092,4.793100833892822,4.11328125,0,"['C1', 'F1', 'J1']",0,None,0,0.08615390745749665,[5700|0|0]
5700,1.2924789190292358,-0.3350850045681,-0.00942139234393835,-0.46217283606529236,0.7674065232276917,4.817563533782959,4.11328125,0,"['C1', 'F1', 'J1']",0,None,0,0.0862420617958756,[5800|0|0]
5800,1.2925828695297241,-0.3349153697490692,-0.009731664322316647,-0.4717103838920593,0.7646211385726929,4.809272766113281,4.11328125,0,"['C1', 'F1', 'J1']",0,None,0,0.08661064065981945,[5900|0|0]
5900,1.2924909591674805,-0.33479195833206177,-0.009395899251103401,-0.47429919242858887,0.7686099410057068,4.808300971984863,4.11328125,0,"['C1', 'F1', 'J1']",0,None,0,0.08697998612897047,[6000|0|0]
6000,1.2924778461456299,-0.33501380681991577,-0.009066854603588581,-0.46133553981781006,0.7773587703704834,4.803934097290039,4.11328125,0,"['C1', 'F1', 'J1']",0,None,0,0.08737704920074033,[6100|0|0]
6100,1.292455792427063,-0.33480995893478394,-0.00947408378124237,-0.47688809037208557,0.7719497680664062,4.80672025680542,4.11328125,0,"['C1', 'F1', 'J1']",0,None,0,0.08783298332965363,[6200|0|0]
6200,1.2923156023025513,-0.33464181423187256,-0.009647184982895851,-0.4876062273979187,0.7729271650314331,4.8035407066345215,4.11328125,0,"['C1', 'F1', 'J1']",0,None,0,0.08811207101863622,[6300|0|0]
6300,1.292749285697937,-0.33532774448394775,-0.009386349469423294,-0.4728720188140869,0.7550221085548401,4.79569673538208,4.11328125,0,"['C1', 'F1', 'J1']",0,None,0,0.08896448920429026,[6400|0|0]
6400,1.292488932609558,-0.33487462997436523,-0.009319296106696129,-0.4942009747028351,0.74751216173172,4.774693012237549,4.11328125,0,"['C1', 'F1', 'J1']",0,None,0,0.08949135981732126,[6500|0|0]
6500,1.2926609516143799,-0.3348187506198883,-0.00916819553822279,-0.45709699392318726,0.7673828601837158,4.7831549644470215,4.11328125,0,"['C1', 'F1', 'J1']",0,None,0,0.08972703845884314,[6600|0|0]
6600,1.293381929397583,-0.33466315269470215,-0.009612038731575012,-0.5763720273971558,0.6535048484802246,4.777074813842773,4.11328125,0,"['C1', 'F1', 'J1']",0,None,0,0.09058786158729626,[6700|0|0]
6700,1.2933149337768555,-0.3347388207912445,-0.009385284967720509,-0.5256068706512451,0.701652467250824,4.767794132232666,4.11328125,0,"['C1', 'F1', 'J1']",0,None,0,0.09083611819537185,[6800|0|0]
6800,1.2932758331298828,-0.33472317457199097,-0.009487728588283062,-0.48416608572006226,0.727846086025238,4.7669830322265625,4.11328125,0,"['C1', 'F1', 'J1']",0,None,0,0.09094688082519155,[6900|0|0]
6900,1.2931737899780273,-0.3346378207206726,-0.00958601851016283,-0.46125978231430054,0.751443088054657,4.771716117858887,4.11328125,0,"['C1', 'F1', 'J1']",0,None,0,0.09111228636777886,[7000|0|0]
7000,1.2936913967132568,-0.3349218964576721,-0.009397720918059349,-0.4296586513519287,0.7439525723457336,4.7854084968566895,4.11328125,0,"['C1', 'F1', 'J1']",0,None,0,0.09173202158535063,[7100|0|0]
7100,1.292523741722107,-0.33523696660995483,-0.00933435745537281,-0.3753354549407959,0.8208302855491638,4.798417568206787,4.11328125,0,"['C1', 'F1', 'J1']",0,None,0,0.0929430964416747,[7200|0|0]
7200,1.2921662330627441,-0.33489447832107544,-0.00945140328258276,-0.40603259205818176,0.8103947639465332,4.815055847167969,4.11328125,0,"['C1', 'F1', 'J1']",0,None,0,0.0934518305521943,[7300|0|0]
7300,1.2922768592834473,-0.3348844051361084,-0.00945302378386259,-0.41995665431022644,0.7951732277870178,4.810588836669922,4.11328125,0,"['C1', 'F1', 'J1']",0,None,0,0.09356292625772263,[7400|0|0]
7400,1.2926101684570312,-0.33498525619506836,-0.009462609887123108,-0.43780606985092163,0.7736005187034607,4.816496849060059,4.11328125,0,"['C1', 'F1', 'J1']",0,None,0,0.09391129077179418,[7500|0|0]
7500,1.2927440404891968,-0.33501923084259033,-0.009223239496350288,-0.4474231004714966,0.761254608631134,4.810435771942139,4.11328125,0,"['C1', 'F1', 'J1']",0,None,0,0.09418764956331184,[7600|0|0]
7600,1.2924776077270508,-0.33488333225250244,-0.009232679381966591,-0.46310389041900635,0.7530527710914612,4.804882049560547,4.11328125,0,"['C1', 'F1', 'J1']",0,None,0,0.09448688852296294,[7700|0|0]
7700,1.2926976680755615,-0.3350989818572998,-0.009127546101808548,-0.4634695053100586,0.7469397187232971,4.805657386779785,4.11328125,0,"['C1', 'F1', 'J1']",0,None,0,0.09481244084691827,[7800|0|0]
7800,1.292559266090393,-0.335043340921402,-0.009254470467567444,-0.46844539046287537,0.7513852715492249,4.79688024520874,4.11328125,0,"['C1', 'F1', 'J1']",0,None,0,0.0950083000255887,[7900|0|0]
7900,1.292569875717163,-0.33484703302383423,-0.009383613243699074,-0.4709252417087555,0.7476619482040405,4.817741870880127,4.1171875,0,"['C1', 'F1', 'J1']",0,None,0,0.0952435173962369,[8000|0|0]
8000,1.292504906654358,-0.33477818965911865,-0.009396897628903389,-0.47562703490257263,0.7433712482452393,4.820704936981201,4.11328125,0,"['C1', 'F1', 'J1']",0,None,0,0.09533910433508004,[8100|0|0]
8100,1.2925958633422852,-0.3348778784275055,-0.009550760500133038,-0.4733075797557831,0.7370243668556213,4.808555603027344,4.11328125,0,"['C1', 'F1', 'J1']",0,None,0,0.0955437619827852,[8200|0|0]
8200,1.2926077842712402,-0.33517974615097046,-0.009318512864410877,-0.40919262170791626,0.782791256904602,4.820732593536377,4.11328125,0,"['C1', 'F1', 'J1']",0,None,0,0.09592481997747317,[8300|0|0]
8300,1.2933536767959595,-0.33498406410217285,-0.009394858963787556,-0.3963735103607178,0.8081318736076355,4.820742607116699,4.11328125,0,"['C1', 'F1', 'J1']",0,None,0,0.09669972374539774,[8400|0|0]
8400,1.2936546802520752,-0.33472755551338196,-0.009693119674921036,-0.39064955711364746,0.8195675611495972,4.81998872756958,4.11328125,0,"['C1', 'F1', 'J1']",0,None,0,0.0971950611945402,[8500|0|0]
8500,1.2934134006500244,-0.33458414673805237,-0.009701516479253769,-0.3807417154312134,0.8376543521881104,4.813348293304443,4.11328125,0,"['C1', 'F1', 'J1']",0,None,0,0.0974758679421983,[8600|0|0]
8600,1.2934755086898804,-0.3351963460445404,-0.009355703368782997,-0.345013290643692,0.8509075045585632,4.8083672523498535,4.11328125,0,"['C1', 'F1', 'J1']",0,None,0,0.09818172352718198,[8700|0|0]
8700,1.2933868169784546,-0.3350917100906372,-0.009219875559210777,-0.34914472699165344,0.8528872728347778,4.811861991882324,4.11328125,0,"['C1', 'F1', 'J1']",0,None,0,0.09837476263300786,[8800|0|0]
8800,1.293550968170166,-0.33475461602211,-0.009420699439942837,-0.35718122124671936,0.8479482531547546,4.819334506988525,4.11328125,0,"['C1', 'F1', 'J1']",0,None,0,0.09880009574463779,[8900|0|0]
8900,1.2933295965194702,-0.3350270390510559,-0.009144606068730354,-0.35050326585769653,0.8596583604812622,4.798730373382568,4.11328125,0,"['C1', 'F1', 'J1']",0,None,0,0.09924669093500522,[9000|0|0]
9000,1.2932631969451904,-0.3348279595375061,-0.009773141704499722,-0.353733092546463,0.8623726963996887,4.803863048553467,4.11328125,0,"['C1', 'F1', 'J1']",0,None,0,0.09990933609013108,[9100|0|0]
9100,1.293296456336975,-0.33482077717781067,-0.00938483141362667,-0.3540886342525482,0.8613151907920837,4.8150715827941895,4.11328125,0,"['C1', 'F1', 'J1']",0,None,0,0.10029913431412729,[9200|0|0]
9200,1.29326331615448,-0.3350553810596466,-0.009435742162168026,-0.35279741883277893,0.858062744140625,4.806183338165283,4.11328125,0,"['C1', 'F1', 'J1']",0,None,0,0.10054147530815294,[9300|0|0]
9300,1.2934157848358154,-0.3349838852882385,-0.009280663914978504,-0.35930654406547546,0.8578331470489502,4.807313919067383,4.11328125,0,"['C1', 'F1', 'J1']",0,None,0,0.10077040238577545,[9400|0|0]
9400,1.2935889959335327,-0.33519190549850464,-0.009407269768416882,-0.3592795133590698,0.8492723703384399,4.815062999725342,4.11328125,0,"['C1', 'F1', 'J1']",0,None,0,0.10106923935533652,[9500|0|0]
9500,1.2933566570281982,-0.334764301776886,-0.009805681183934212,-0.3738951086997986,0.8509466052055359,4.823135852813721,4.11328125,0,"['C1', 'F1', 'J1']",0,None,0,0.10169817334685603,[9600|0|0]
9600,1.2933094501495361,-0.33460161089897156,-0.009666332975029945,-0.3692772388458252,0.8497510552406311,4.828064441680908,4.11328125,0,"['C1', 'F1', 'J1']",0,None,0,0.10191752405798872,[9700|0|0]
9700,1.2932804822921753,-0.33491137623786926,-0.009324501268565655,-0.3677785396575928,0.84475177526474,4.840063571929932,4.11328125,0,"['C1', 'F1', 'J1']",0,None,0,0.10237973896199634,[9800|0|0]
9800,1.293198585510254,-0.33481550216674805,-0.009425926953554153,-0.36897513270378113,0.8420235514640808,4.831455707550049,4.11328125,0,"['C1', 'F1', 'J1']",0,None,0,0.10254156012865207,[9900|0|0]
9900,1.2934900522232056,-0.33458054065704346,-0.009686745703220367,-0.37841367721557617,0.8264134526252747,4.82464075088501,4.11328125,0,"['C1', 'F1', 'J1']",0,None,0,0.10299783436195804,[10000|0|0]
10000,1.2933603525161743,-0.3348352909088135,-0.009258418343961239,-0.37006476521492004,0.8326399326324463,4.82619571685791,4.11328125,0,"['C1', 'F1', 'J1']",0,None,0,0.10351279458515085,[10100|0|0]
10100,1.2935527563095093,-0.33491072058677673,-0.009420198388397694,-0.36659732460975647,0.8252324461936951,4.824024677276611,4.11328125,0,"['C1', 'F1', 'J1']",0,None,0,0.1037752477024598,[10200|0|0]
10200,1.2933772802352905,-0.3349236845970154,-0.009534132666885853,-0.36417463421821594,0.8325498700141907,4.840513706207275,4.11328125,0,"['C1', 'F1', 'J1']",0,None,0,0.10398486864129776,[10300|0|0]
10300,1.2933048009872437,-0.3346499502658844,-0.00981928501278162,-0.3798547685146332,0.821430504322052,4.816159248352051,4.11328125,0,"['C1', 'F1', 'J1']",0,None,0,0.10438673377515117,[10400|0|0]
10400,1.2934719324111938,-0.3345746695995331,-0.00946204736828804,-0.37521588802337646,0.8205512166023254,4.80985689163208,4.11328125,0,"['C1', 'F1', 'J1']",0,None,0,0.10478825441751125,[10500|0|0]
10500,1.2933262586593628,-0.3349378705024719,-0.00967488531023264,-0.36213046312332153,0.8271759152412415,4.815761566162109,4.11328125,0,"['C1', 'F1', 'J1']",0,None,0,0.10523371566992198,[10600|0|0]
10600,1.293405294418335,-0.3349454402923584,-0.00950194988399744,-0.35529613494873047,0.8270849585533142,4.831682205200195,4.11328125,0,"['C1', 'F1', 'J1']",0,None,0,0.10542400653823253,[10700|0|0]
10700,1.293214201927185,-0.3345235288143158,-0.009649000130593777,-0.3566627502441406,0.8332274556159973,4.834815502166748,4.11328125,0,"['C1', 'F1', 'J1']",0,None,0,0.10590995860428638,[10800|0|0]
10800,1.2933666706085205,-0.3348493278026581,-0.009367791004478931,-0.3493969142436981,0.8314301371574402,4.838621616363525,4.11328125,0,"['C1', 'F1', 'J1']",0,None,0,0.1063665440313461,[10900|0|0]
10900,1.2935011386871338,-0.3347313702106476,-0.009550854563713074,-0.354166179895401,0.8285195231437683,4.830764293670654,4.11328125,0,"['C1', 'F1', 'J1']",0,None,0,0.1066224891903125,[11000|0|0]
11000,1.293494701385498,-0.3348512351512909,-0.009317492134869099,-0.3522840440273285,0.8332390785217285,4.842609882354736,4.11328125,0,"['C1', 'F1', 'J1']",0,None,0,0.10688491454359174,[11100|0|0]
11100,1.2933075428009033,-0.3346588611602783,-0.009701119735836983,-0.35505732893943787,0.8375502228736877,4.837820053100586,4.11328125,0,"['C1', 'F1', 'J1']",0,None,0,0.10735310918733511,[11200|0|0]
11200,1.2932517528533936,-0.33492517471313477,-0.009575427509844303,-0.3502422571182251,0.8368711471557617,4.837370872497559,4.11328125,0,"['C1', 'F1', 'J1']",0,None,0,0.10765283233017389,[11300|0|0]
11300,1.2933597564697266,-0.33485832810401917,-0.009520038031041622,-0.3428780436515808,0.8423736691474915,4.833491802215576,4.11328125,0,"['C1', 'F1', 'J1']",0,None,0,0.10779140088596233,[11400|0|0]
11400,1.2934490442276,-0.3349737823009491,-0.009316462092101574,-0.3490867614746094,0.8381903171539307,4.830751895904541,4.11328125,0,"['C1', 'F1', 'J1']",0,None,0,0.10804189068258115,[11500|0|0]
11500,1.2935446500778198,-0.33529365062713623,-0.009509146213531494,-0.34641966223716736,0.8372294306755066,4.815311908721924,4.11328125,0,"['C1', 'F1', 'J1']",0,None,0,0.10842735585006741,[11600|0|0]
11600,1.2934372425079346,-0.33501583337783813,-0.009294658899307251,-0.3537358343601227,0.8421526551246643,4.816193103790283,4.11328125,0,"['C1', 'F1', 'J1']",0,None,0,0.10879440301057862,[11700|0|0]
11700,1.2931431531906128,-0.33463990688323975,-0.009533479809761047,-0.3700740337371826,0.8470235466957092,4.8121795654296875,4.11328125,0,"['C1', 'F1', 'J1']",0,None,0,0.10932811143582016,[11800|0|0]
11800,1.2934209108352661,-0.3345716893672943,-0.009585200808942318,-0.36659541726112366,0.8422228693962097,4.812858581542969,4.11328125,0,"['C1', 'F1', 'J1']",0,None,0,0.10961876242997197,[11900|0|0]
11900,1.2934528589248657,-0.3351656496524811,-0.009402434341609478,-0.3535732924938202,0.8414101004600525,4.821911334991455,4.11328125,0,"['C1', 'F1', 'J1']",0,None,0,0.11024102690942547,[12000|0|0]
12000,1.3001494407653809,-0.32361865043640137,-0.005857449024915695,-0.6448251008987427,0.5956331491470337,4.878373146057129,4.11328125,0,"['C1', 'F1', 'J1']",0,None,0,0.1240520486000332,[12100|0|0]
12100,1.2932453155517578,-0.33491581678390503,-0.009614730253815651,-0.36178871989250183,0.839270830154419,4.824400901794434,4.11328125,0,"['C1', 'F1', 'J1']",0,None,0,0.13781468187574025,[12200|0|0]
12200,1.2933615446090698,-0.3348321318626404,-0.009401142597198486,-0.3684282898902893,0.8318992257118225,4.800503253936768,4.11328125,0,"['C1', 'F1', 'J1']",0,None,0,0.13807184339477047,[12300|0|0]
12300,1.2935211658477783,-0.3350902199745178,-0.00947332102805376,-0.3651983141899109,0.8319668769836426,4.795044422149658,4.11328125,0,"['C1', 'F1', 'J1']",0,None,0,0.1383837698912725,[12400|0|0]
12400,1.2932157516479492,-0.33491402864456177,-0.009363303892314434,-0.381415992975235,0.837569534778595,4.7919416427612305,4.11328125,0,"['C1', 'F1', 'J1']",0,None,0,0.13875312742587173,[12500|0|0]
12500,1.2998164892196655,-0.32378634810447693,-0.005522248335182667,-0.6610251665115356,0.6013590097427368,4.850060939788818,4.11328125,0,"['C1', 'F1', 'J1']",0,None,0,0.1522493757373775,[12600|0|0]
12600,1.2999458312988281,-0.3227364122867584,-0.00439551193267107,-0.9085677266120911,0.3857101500034332,4.844449520111084,4.11328125,0,"['C1', 'F1', 'J1']",0,None,0,0.1537948949108319,[12700|0|0]
12700,1.2997772693634033,-0.32285982370376587,-0.005081437528133392,-0.8548171520233154,0.4302298426628113,4.849200248718262,4.11328125,0,"['C1', 'F1', 'J1']",0,None,0,0.1545119286802126,[12800|0|0]
12800,1.299544095993042,-0.3230527639389038,-0.005257409065961838,-0.8258359432220459,0.45677757263183594,4.839276313781738,4.11328125,0,"['C1', 'F1', 'J1']",0,None,0,0.15486201686496961,[12900|0|0]
12900,1.2997647523880005,-0.32293665409088135,-0.00478139566257596,-0.8049077987670898,0.46738407015800476,4.845564365386963,4.11328125,0,"['C1', 'F1', 'J1']",0,None,0,0.1553993803375344,[13000|0|0]
13000,1.2996841669082642,-0.32342779636383057,-0.00447816913947463,-0.7813018560409546,0.48029157519340515,4.841809272766113,4.11328125,0,"['C1', 'F1', 'J1']",0,None,0,0.15598218482973927,[13100|0|0]
13100,1.3002338409423828,-0.32334616780281067,-0.0055690547451376915,-0.7873509526252747,0.48597219586372375,4.880316257476807,4.11328125,0,"['C1', 'F1', 'J1']",0,None,0,0.15720645447748904,[13200|0|0]
13200,1.300403356552124,-0.3238617479801178,-0.005241356790065765,-0.7694548964500427,0.48465073108673096,4.886446475982666,4.11328125,0,"['C1', 'F1', 'J1']",0,None,0,0.15784044533778302,[13300|0|0]
13300,1.30010187625885,-0.3233495056629181,-0.005483201239258051,-0.7762957215309143,0.48999252915382385,4.887660026550293,4.11328125,0,"['C1', 'F1', 'J1']",0,None,0,0.15848213942094708,[13400|0|0]
13400,1.3000575304031372,-0.32387974858283997,-0.005057252943515778,-0.7565865516662598,0.49839332699775696,4.872529029846191,4.11328125,0,"['C1', 'F1', 'J1']",0,None,0,0.15916372291523956,[13500|0|0]
13500,1.3000184297561646,-0.32392752170562744,-0.005111913662403822,-0.7572091817855835,0.49282902479171753,4.878050804138184,4.11328125,0,"['C1', 'F1', 'J1']",0,None,0,0.15924617851567946,[13600|0|0]
13600,1.3001619577407837,-0.3238576054573059,-0.005313450004905462,-0.7609516382217407,0.4821597933769226,4.866470813751221,4.11328125,0,"['C1', 'F1', 'J1']",0,None,0,0.15950328833948463,[13700|0|0]
13701,1.3004049062728882,-0.3237191140651703,-0.005271586123853922,-0.7679229378700256,0.472898006439209,4.863149166107178,4.11328125,0,"['C1', 'F1', 'J1']",0,None,0,0.1597860540366335,[13800|0|0]
13801,1.3004062175750732,-0.32383301854133606,-0.005149612203240395,-0.7693055272102356,0.47311046719551086,4.844706058502197,4.11328125,0,"['C1', 'F1', 'J1']",0,None,0,0.15995294797455176,[13900|0|0]
13901,1.3003798723220825,-0.32370254397392273,-0.005104376003146172,-0.7738728523254395,0.4724082946777344,4.867832660675049,4.11328125,0,"['C1', 'F1', 'J1']",0,None,0,0.1600935324647909,[14000|0|0]
14001,1.3002746105194092,-0.3236823081970215,-0.0051629384979605675,-0.7866970300674438,0.4683449864387512,4.8618268966674805,4.11328125,0,"['C1', 'F1', 'J1']",0,None,0,0.16021567623077068,[14100|0|0]
14101,1.3001667261123657,-0.32365188002586365,-0.005444931332021952,-0.7842581868171692,0.4722501337528229,4.862054824829102,4.11328125,0,"['C1', 'F1', 'J1']",0,None,0,0.16051913113243665,[14200|0|0]
14201,1.2925382852554321,-0.3348963260650635,-0.009041854180395603,-0.5639325380325317,0.6714316010475159,4.797289848327637,4.11328125,0,"['C1', 'F1', 'J1']",0,None,0,0.1745750384533236,[14300|0|0]
14301,1.300132155418396,-0.3348293602466583,-0.00910232588648796,-0.5324404239654541,0.6956223845481873,4.78774356842041,4.11328125,0,"['C1', 'F1', 'J1']",0,None,0,0.18216944463814314,[14400|0|0]
14401,1.3001796007156372,-0.3241516649723053,-0.005357819143682718,-0.7110415697097778,0.5186229348182678,4.86277961730957,4.11328125,0,"['C1', 'F1', 'J1']",0,None,0,0.19348477751769577,[14500|0|0]
14501,1.2999181747436523,-0.3239743113517761,-0.005325727164745331,-0.7003278136253357,0.5429506897926331,4.880431175231934,4.11328125,0,"['C1', 'F1', 'J1']",0,None,0,0.19380231135944362,[14600|0|0]
14601,1.300010085105896,-0.3242340683937073,-0.0052198804914951324,-0.6710855960845947,0.559552788734436,4.88862419128418,4.11328125,0,"['C1', 'F1', 'J1']",0,None,0,0.1940974803851877,[14700|0|0]
14701,1.3002647161483765,-0.32396942377090454,-0.005370136816054583,-0.6709954738616943,0.5493571162223816,4.881615161895752,4.11328125,0,"['C1', 'F1', 'J1']",0,None,0,0.19449428097395138,[14800|0|0]
14801,1.300049066543579,-0.3240330219268799,-0.005535055883228779,-0.6677556037902832,0.5605478882789612,4.8760457038879395,4.11328125,0,"['C1', 'F1', 'J1']",0,None,0,0.19477311385617715,[14900|0|0]
14902,1.3001612424850464,-0.32402393221855164,-0.005288976710289717,-0.6688035726547241,0.5599194169044495,4.886321544647217,4.11328125,0,"['C1', 'F1', 'J1']",0,None,0,0.19504370769201962,[15000|0|0]
15002,1.3000415563583374,-0.3237457275390625,-0.005486796610057354,-0.6881323456764221,0.5443277359008789,4.888791084289551,4.11328125,0,"['C1', 'F1', 'J1']",0,None,0,0.19540544699781914,[15100|0|0]
15100,1.29995858669281,-0.3242751955986023,-0.00561330234631896,-0.6718282699584961,0.5570375919342041,4.899394512176514,4.11328125,0,"['C1', 'F1', 'J1']",0,None,0,0.19595610487052928,[15200|0|0]
15200,1.3001527786254883,-0.3241640031337738,-0.005407711025327444,-0.6743379831314087,0.5576446056365967,4.894937038421631,4.11328125,0,"['C1', 'F1', 'J1']",0,None,0,0.19625998323800378,[15300|0|0]
15302,1.3001205921173096,-0.3240213394165039,-0.005607991479337215,-0.6776648163795471,0.553999662399292,4.888831615447998,4.11328125,0,"['C1', 'F1', 'J1']",0,None,0,0.196507977527842,[15400|0|0]
15402,1.300061583518982,-0.3238436281681061,-0.005689170677214861,-0.68280428647995,0.5542717576026917,4.899561882019043,4.11328125,0,"['C1', 'F1', 'J1']",0,None,0,0.19671206908732392,[15500|0|0]
15502,1.2996879816055298,-0.32395508885383606,-0.005878264084458351,-0.6792661547660828,0.5565828084945679,4.869778156280518,4.11328125,0,"['C1', 'F1', 'J1']",0,None,0,0.1971453798197798,[15600|0|0]
15602,1.3000965118408203,-0.32381126284599304,-0.005692615173757076,-0.6826503276824951,0.5414850115776062,4.870617866516113,4.11328125,0,"['C1', 'F1', 'J1']",0,None,0,0.19761659992941347,[15700|0|0]
15702,1.3001128435134888,-0.3237776756286621,-0.005223612301051617,-0.6799460053443909,0.5376420617103577,4.874937534332275,4.11328125,0,"['C1', 'F1', 'J1']",0,None,0,0.1980870874630487,[15800|0|0]
15801,1.3003019094467163,-0.32393455505371094,-0.005487553309649229,-0.6783995032310486,0.5349537134170532,4.867466926574707,4.11328125,0,"['C1', 'F1', 'J1']",0,None,0,0.19844767301063815,[15900|0|0]
15900,1.3000156879425049,-0.32369452714920044,-0.005516787059605122,-0.6843523979187012,0.550065815448761,4.86731481552124,4.11328125,0,"['C1', 'F1', 'J1']",0,None,0,0.19882236055587182,[16000|0|0]
16000,1.3000166416168213,-0.3237483501434326,-0.005407658405601978,-0.6945271492004395,0.53872150182724,4.8721442222595215,4.11328125,0,"['C1', 'F1', 'J1']",0,None,0,0.19894404410992642,[16100|0|0]
16100,1.3003729581832886,-0.32335713505744934,-0.005129856523126364,-0.7297754883766174,0.5025471448898315,4.855679035186768,4.11328125,0,"['C1', 'F1', 'J1']",0,None,0,0.19954169335902402,[16200|0|0]
16200,1.300411343574524,-0.32365310192108154,-0.005349275656044483,-0.6876304149627686,0.5336530208587646,4.864389896392822,4.11328125,0,"['C1', 'F1', 'J1']",0,None,0,0.1999121182212014,[16300|0|0]
16300,1.3002519607543945,-0.3235166668891907,-0.005559440702199936,-0.6677762269973755,0.5609353184700012,4.861311912536621,4.11328125,0,"['C1', 'F1', 'J1']",0,None,0,0.20020908075739913,[16400|0|0]
16400,1.3003149032592773,-0.3238835632801056,-0.005386584438383579,-0.6386494636535645,0.5765889883041382,4.85392951965332,4.11328125,0,"['C1', 'F1', 'J1']",0,None,0,0.20061951224806215,[16500|0|0]
16500,1.3002451658248901,-0.32377398014068604,-0.005491684190928936,-0.6263435482978821,0.5953015685081482,4.855945587158203,4.11328125,0,"['C1', 'F1', 'J1']",0,None,0,0.20078659825042336,[16600|0|0]
16600,1.3000580072402954,-0.3234851658344269,-0.0054666162468492985,-0.6193021535873413,0.611147403717041,4.856078624725342,4.11328125,0,"['C1', 'F1', 'J1']",0,None,0,0.20113166410081693,[16700|0|0]
16700,1.2999659776687622,-0.32403451204299927,-0.00535506010055542,-0.6085193753242493,0.6186468601226807,4.851659774780273,4.11328125,0,"['C1', 'F1', 'J1']",0,None,0,0.20169972701342906,[16800|0|0]
16800,1.3002359867095947,-0.3237069249153137,-0.005649590864777565,-0.6166688203811646,0.6136892437934875,4.854750633239746,4.11328125,0,"['C1', 'F1', 'J1']",0,None,0,0.2022164151006053,[16900|0|0]
16900,1.30005943775177,-0.32379668951034546,-0.005230526905506849,-0.6147314310073853,0.6248787045478821,4.853490829467773,4.11328125,0,"['C1', 'F1', 'J1']",0,None,0,0.20267992542302526,[17000|0|0]
17000,1.2998974323272705,-0.32415133714675903,-0.005420121364295483,-0.610579788684845,0.6295432448387146,4.853402614593506,4.11328125,0,"['C1', 'F1', 'J1']",0,None,0,0.20311347676068248,[17100|0|0]
17100,1.3002276420593262,-0.3237687349319458,-0.005609299521893263,-0.6243945956230164,0.6141359210014343,4.857536315917969,4.11328125,0,"['C1', 'F1', 'J1']",0,None,0,0.20365311673069614,[17200|0|0]
17200,1.3003971576690674,-0.3235020339488983,-0.00502404011785984,-0.8617690205574036,0.41274797916412354,4.873518466949463,4.11328125,0,"['C1', 'F1', 'J1']",0,None,0,0.20431824343014068,[17300|0|0]
17300,1.3004307746887207,-0.3235315680503845,-0.004886182025074959,-0.8218073844909668,0.44876110553741455,4.8634033203125,4.11328125,0,"['C1', 'F1', 'J1']",0,None,0,0.20446318210995823,[17400|0|0]
17400,1.3002822399139404,-0.32355186343193054,-0.00512517848983407,-0.7979817986488342,0.47366851568222046,4.861227035522461,4.11328125,0,"['C1', 'F1', 'J1']",0,None,0,0.20474530582749803,[17500|0|0]
17500,1.3003041744232178,-0.32348260283470154,-0.005060910247266293,-0.780708909034729,0.4818347096443176,4.855461120605469,4.11328125,0,"['C1', 'F1', 'J1']",0,None,0,0.20484230355957722,[17600|0|0]
17600,1.2999293804168701,-0.32350772619247437,-0.005137075204402208,-0.7746478319168091,0.4904271960258484,4.862406253814697,4.11328125,0,"['C1', 'F1', 'J1']",0,None,0,0.20522558261065543,[17700|0|0]
17700,1.300289511680603,-0.3235764801502228,-0.005334208719432354,-0.7343267798423767,0.5132742524147034,4.871239185333252,4.11328125,0,"['C1', 'F1', 'J1']",0,None,0,0.20564185566595936,[17800|0|0]
17800,1.300046682357788,-0.32353246212005615,-0.005766557063907385,-0.7053093910217285,0.5402477383613586,4.878796577453613,4.11328125,0,"['C1', 'F1', 'J1']",0,None,0,0.20613967968905267,[17900|0|0]
17900,1.3002545833587646,-0.32377946376800537,-0.005380351096391678,-0.6818485260009766,0.5501014590263367,4.88931131362915,4.11328125,0,"['C1', 'F1', 'J1']",0,None,0,0.20664305597935786,[18000|0|0]
18000,1.3000900745391846,-0.32391124963760376,-0.00529081467539072,-0.6615994572639465,0.5593554973602295,4.88543176651001,4.11328125,0,"['C1', 'F1', 'J1']",0,None,0,0.20687207003532626,[18100|0|0]
18100,1.3000906705856323,-0.32428687810897827,-0.005192149896174669,-0.6527480483055115,0.5611793994903564,4.892871379852295,4.11328125,0,"['C1', 'F1', 'J1']",0,None,0,0.20726044078916372,[18200|0|0]
18200,1.300341010093689,-0.3237857520580292,-0.005274136550724506,-0.6572047472000122,0.5679819583892822,4.888275146484375,4.11328125,0,"['C1', 'F1', 'J1']",0,None,0,0.20782658476357144,[18300|0|0]
18300,1.3002251386642456,-0.324182391166687,-0.005307231098413467,-0.6485562324523926,0.5757019519805908,4.875265121459961,4.11328125,0,"['C1', 'F1', 'J1']",0,None,0,0.20824112549711263,[18400|0|0]
18400,1.3000417947769165,-0.32411324977874756,-0.005313628353178501,-0.6500181555747986,0.581475019454956,4.869169235229492,4.11328125,0,"['C1', 'F1', 'J1']",0,None,0,0.2084371776264448,[18500|0|0]
18500,1.3001643419265747,-0.32377123832702637,-0.0051465569995343685,-0.6575714945793152,0.5720562934875488,4.871502876281738,4.11328125,0,"['C1', 'F1', 'J1']",0,None,0,0.20883705570062025,[18600|0|0]
18600,1.3001030683517456,-0.32406085729599,-0.005169616546481848,-0.6516262888908386,0.5692673325538635,4.861204624176025,4.11328125,0,"['C1', 'F1', 'J1']",0,None,0,0.20913398219128976,[18700|0|0]
18700,1.3000144958496094,-0.32397592067718506,-0.005616376176476479,-0.6554381251335144,0.5746930837631226,4.866778373718262,4.11328125,0,"['C1', 'F1', 'J1']",0,None,0,0.20959728930794308,[18800|0|0]
18800,1.3000222444534302,-0.3240933418273926,-0.005244545638561249,-0.6654018759727478,0.5602470636367798,4.851161479949951,4.11328125,0,"['C1', 'F1', 'J1']",0,None,0,0.20998729663646853,[18900|0|0]
18900,1.3001123666763306,-0.32398518919944763,-0.00533771887421608,-0.6732661128044128,0.5628360509872437,4.8627214431762695,4.11328125,0,"['C1', 'F1', 'J1']",0,None,0,0.21015611683026744,[19000|0|0]
19000,1.3007664680480957,-0.3239392340183258,-0.005685362033545971,-0.706933319568634,0.5327861309051514,4.849596977233887,4.11328125,0,"['C1', 'F1', 'J1']",0,None,0,0.21089828679021316,[19100|0|0]
19100,1.3009134531021118,-0.3238552510738373,-0.0054708742536604404,-0.6731370687484741,0.5586280226707458,4.861591339111328,4.11328125,0,"['C1', 'F1', 'J1']",0,None,0,0.21117153164156321,[19200|0|0]
19200,1.3006786108016968,-0.3240506052970886,-0.005962082650512457,-0.653782308101654,0.5852710604667664,4.864655017852783,4.11328125,0,"['C1', 'F1', 'J1']",0,None,0,0.2117499777218026,[19300|0|0]
19300,1.299970269203186,-0.32346677780151367,-0.005269738845527172,-0.6502990126609802,0.5965001583099365,4.865609645843506,4.11328125,0,"['C1', 'F1', 'J1']",0,None,0,0.212899735221918,[19400|0|0]
19400,1.3003970384597778,-0.3241731524467468,-0.005747966468334198,-0.6333900094032288,0.6029284000396729,4.860677719116211,4.11328125,0,"['C1', 'F1', 'J1']",0,None,0,0.21385356895848628,[19500|0|0]
19500,1.300516963005066,-0.3241738975048065,-0.005989796947687864,-0.6250574588775635,0.5950648188591003,4.855627059936523,4.11328125,0,"['C1', 'F1', 'J1']",0,None,0,0.21412350308455871,[19600|0|0]
19600,1.3009215593338013,-0.32410702109336853,-0.005482242442667484,-0.6274181008338928,0.5888587236404419,4.835124969482422,4.11328125,0,"['C1', 'F1', 'J1']",0,None,0,0.21477602298402496,[19700|0|0]
19700,1.300761342048645,-0.3239869475364685,-0.005514728836715221,-0.6291142106056213,0.5910093188285828,4.826565265655518,4.11328125,0,"['C1', 'F1', 'J1']",0,None,0,0.214978859379496,[19800|0|0]
19800,1.300575613975525,-0.3241935968399048,-0.005788271781057119,-0.6173873543739319,0.6052848100662231,4.84108304977417,4.11328125,0,"['C1', 'F1', 'J1']",0,None,0,0.21536876269335067,[19900|0|0]
19900,1.3005945682525635,-0.32371044158935547,-0.006055723875761032,-0.6324734687805176,0.6076579093933105,4.842467308044434,4.11328125,0,"['C1', 'F1', 'J1']",0,None,0,0.21592132842130793,[20000|0|0]
20000,1.3003746271133423,-0.3240988850593567,-0.005910778883844614,-0.6205929517745972,0.6112649440765381,4.834996223449707,4.11328125,0,"['C1', 'F1', 'J1']",0,None,0,0.2163906593118214,[20100|0|0]
20100,1.3006184101104736,-0.32429978251457214,-0.0054110074415802956,-0.6222496032714844,0.5989262461662292,4.849412441253662,4.11328125,0,"['C1', 'F1', 'J1']",0,None,0,0.2169818965160849,[20200|0|0]
20200,1.3007999658584595,-0.32394954562187195,-0.005856144707649946,-0.6370568871498108,0.5889489650726318,4.847966194152832,4.11328125,0,"['C1', 'F1', 'J1']",0,None,0,0.21757668686257595,[20300|0|0]
20300,1.3009204864501953,-0.32402119040489197,-0.005692744627594948,-0.6294048428535461,0.5960179567337036,4.872837543487549,4.11328125,0,"['C1', 'F1', 'J1']",0,None,0,0.2177919954182079,[20400|0|0]
20400,1.3008701801300049,-0.3242442309856415,-0.005326986778527498,-0.6252138018608093,0.5971404314041138,4.874161720275879,4.11328125,0,"['C1', 'F1', 'J1']",0,None,0,0.21822333824087525,[20500|0|0]
20500,1.3009612560272217,-0.3241919279098511,-0.005494351033121347,-0.6341565251350403,0.5873217582702637,4.879770278930664,4.11328125,0,"['C1', 'F1', 'J1']",0,None,0,0.2184209267640914,[20600|0|0]
20600,1.3005986213684082,-0.3239862024784088,-0.005777381826192141,-0.6475239396095276,0.6002727150917053,4.861647605895996,4.11328125,0,"['C1', 'F1', 'J1']",0,None,0,0.2189248446926682,[20700|0|0]
20700,1.3009437322616577,-0.32403841614723206,-0.0056677614338696,-0.6433677077293396,0.5908917784690857,4.856866359710693,4.11328125,0,"['C1', 'F1', 'J1']",0,None,0,0.2192906922377801,[20800|0|0]
20800,1.300742506980896,-0.32419106364250183,-0.005626739468425512,-0.6429173946380615,0.5926672220230103,4.857799530029297,4.11328125,0,"['C1', 'F1', 'J1']",0,None,0,0.2195465743846342,[20900|0|0]
20900,1.300979495048523,-0.3241511881351471,-0.005470551550388336,-0.6431887149810791,0.5893574357032776,4.87500524520874,4.11328125,0,"['C1', 'F1', 'J1']",0,None,0,0.21983318922379147,[21000|0|0]
21000,1.3005759716033936,-0.32406410574913025,-0.0057069165632128716,-0.648933470249176,0.5992777943611145,4.8726887702941895,4.11328125,0,"['C1', 'F1', 'J1']",0,None,0,0.2203088812796543,[21100|0|0]
21100,1.3006974458694458,-0.32396554946899414,-0.005541197955608368,-0.6503482460975647,0.5938692092895508,4.8773908615112305,4.11328125,0,"['C1', 'F1', 'J1']",0,None,0,0.22053676720412876,[21200|0|0]
21200,1.3007619380950928,-0.324347585439682,-0.0058168526738882065,-0.6445375680923462,0.58858722448349,4.862968921661377,4.11328125,0,"['C1', 'F1', 'J1']",0,None,0,0.2210122630019843,[21300|0|0]
21300,1.300682783126831,-0.3241649270057678,-0.005540058482438326,-0.6528794169425964,0.5928154587745667,4.877379894256592,4.11328125,0,"['C1', 'F1', 'J1']",0,None,0,0.2213532096794881,[21400|0|0]
21400,1.3002294301986694,-0.32341673970222473,-0.004790441133081913,-0.8784429430961609,0.39911705255508423,4.885058403015137,4.11328125,0,"['C1', 'F1', 'J1']",0,None,0,0.2225052683972243,[21500|0|0]
21500,1.3001469373703003,-0.3235859274864197,-0.005110271740704775,-0.8404805660247803,0.42977553606033325,4.8819122314453125,4.11328125,0,"['C1', 'F1', 'J1']",0,None,0,0.22287637645510708,[21600|0|0]
21600,1.3004807233810425,-0.32387006282806396,-0.005494360812008381,-0.8089960813522339,0.4409014880657196,4.875942230224609,4.11328125,0,"['C1', 'F1', 'J1']",0,None,0,0.22345918895328584,[21700|0|0]
21700,1.3000885248184204,-0.32339251041412354,-0.0054351408034563065,-0.8012858033180237,0.46829214692115784,4.879235744476318,4.11328125,0,"['C1', 'F1', 'J1']",0,None,0,0.22407998121322154,[21800|0|0]
21800,1.3001723289489746,-0.32361215353012085,-0.005155729595571756,-0.7855263352394104,0.46526408195495605,4.872860431671143,4.11328125,0,"['C1', 'F1', 'J1']",0,None,0,0.22444513440544975,[21900|0|0]
21900,1.3002310991287231,-0.32329505681991577,-0.005420336965471506,-0.7755144238471985,0.4767405688762665,4.895756244659424,4.11328125,0,"['C1', 'F1', 'J1']",0,None,0,0.22486229302978325,[22000|0|0]
22000,1.3001890182495117,-0.3235588073730469,-0.005393382161855698,-0.7685631513595581,0.4792393445968628,4.8818440437316895,4.11328125,0,"['C1', 'F1', 'J1']",0,None,0,0.22513073616363125,[22100|0|0]
22100,1.3003039360046387,-0.32347121834754944,-0.005043548531830311,-0.7719156742095947,0.4786670506000519,4.871315956115723,4.11328125,0,"['C1', 'F1', 'J1']",0,None,0,0.2255092351682901,[22200|0|0]
22200,1.3002374172210693,-0.3235488533973694,-0.005533414892852306,-0.7740650177001953,0.47872552275657654,4.874379634857178,4.11328125,0,"['C1', 'F1', 'J1']",0,None,0,0.2260096559923862,[22300|0|0]
22300,1.3000226020812988,-0.32400989532470703,-0.0049234782345592976,-0.7628331184387207,0.4901190996170044,4.873793601989746,4.11328125,0,"['C1', 'F1', 'J1']",0,None,0,0.22680383980622748,[22400|0|0]
22400,1.2999181747436523,-0.3240396976470947,-0.005268007982522249,-0.7663785219192505,0.4985062777996063,4.880527973175049,4.11328125,0,"['C1', 'F1', 'J1']",0,None,0,0.2271650793313338,[22500|0|0]
22500,1.3003231287002563,-0.323546826839447,-0.005257552955299616,-0.785513162612915,0.4759732782840729,4.878465175628662,4.11328125,0,"['C1', 'F1', 'J1']",0,None,0,0.22780305946236828,[22600|0|0]
22600,1.300021767616272,-0.3237864673137665,-0.005178512539714575,-0.7817069888114929,0.4838953912258148,4.85686731338501,4.11328125,0,"['C1', 'F1', 'J1']",0,None,0,0.2281961160068605,[22700|0|0]
22700,1.3000341653823853,-0.3232969641685486,-0.005625830963253975,-0.7975733280181885,0.48479634523391724,4.8489508628845215,4.11328125,0,"['C1', 'F1', 'J1']",0,None,0,0.22885933603507178,[22800|0|0]
22800,1.3000978231430054,-0.323776513338089,-0.0054216827265918255,-0.7860920429229736,0.48681333661079407,4.84578800201416,4.11328125,0,"['C1', 'F1', 'J1']",0,None,0,0.22938440385833495,[22900|0|0]
22900,1.3001375198364258,-0.3237035274505615,-0.005032490938901901,-0.7895985245704651,0.48666882514953613,4.869439125061035,4.11328125,0,"['C1', 'F1', 'J1']",0,None,0,0.22978236493036583,[23000|0|0]
23000,1.3000890016555786,-0.32365256547927856,-0.005236178636550903,-0.7896397113800049,0.48132121562957764,4.85929536819458,4.11328125,0,"['C1', 'F1', 'J1']",0,None,0,0.22999786392006952,[23100|0|0]
23100,1.3003207445144653,-0.3236979842185974,-0.005092982668429613,-0.7931631207466125,0.4777458906173706,4.869853973388672,4.11328125,0,"['C1', 'F1', 'J1']",0,None,0,0.23027403904532973,[23200|0|0]
23200,1.3001950979232788,-0.32370227575302124,-0.0050919074565172195,-0.7930591702461243,0.4829418361186981,4.851080894470215,4.11328125,0,"['C1', 'F1', 'J1']",0,None,0,0.23039976350287542,[23300|0|0]
23300,1.300257682800293,-0.323782742023468,-0.0049529774114489555,-0.7918527126312256,0.4843637943267822,4.841256141662598,4.11328125,0,"['C1', 'F1', 'J1']",0,None,0,0.23057208078272037,[23400|0|0]
23400,1.300087571144104,-0.32364341616630554,-0.005142275709658861,-0.7999024391174316,0.48805391788482666,4.826744079589844,4.11328125,0,"['C1', 'F1', 'J1']",0,None,0,0.23086222473966345,[23500|0|0]
23500,1.3001611232757568,-0.32376497983932495,-0.005515143275260925,-0.7957665920257568,0.4866831302642822,4.844494342803955,4.11328125,0,"['C1', 'F1', 'J1']",0,None,0,0.2312612458721197,[23600|0|0]
23600,1.3002545833587646,-0.3238913416862488,-0.005323057062923908,-0.7937464714050293,0.4799094498157501,4.844996452331543,4.11328125,0,"['C1', 'F1', 'J1']",0,None,0,0.23150943776651556,[23700|0|0]
23700,1.3000746965408325,-0.3235318660736084,-0.005487372633069754,-0.8016478419303894,0.48583149909973145,4.85198974609375,4.11328125,0,"['C1', 'F1', 'J1']",0,None,0,0.23194369758498978,[23800|0|0]
23800,1.3002021312713623,-0.3238425552845001,-0.005272148177027702,-0.7930683493614197,0.48045283555984497,4.833896636962891,4.11328125,0,"['C1', 'F1', 'J1']",0,None,0,0.23234255716277163,[23900|0|0]
23900,1.3000975847244263,-0.3236040771007538,-0.005238750018179417,-0.8014000654220581,0.47996050119400024,4.838042259216309,4.11328125,0,"['C1', 'F1', 'J1']",0,None,0,0.23260507813643594,[24000|0|0]
24000,1.3003066778182983,-0.32387903332710266,-0.005150817334651947,-0.7826575636863708,0.4835680425167084,4.8592729568481445,4.11328125,0,"['C1', 'F1', 'J1']",0,None,0,0.23296152309031432,[24100|0|0]
24100,1.3003631830215454,-0.3236258625984192,-0.005049463361501694,-0.7931368350982666,0.47694024443626404,4.845931529998779,4.11328125,0,"['C1', 'F1', 'J1']",0,None,0,0.2332400206373941,[24200|0|0]
24200,1.3001538515090942,-0.3235309422016144,-0.0051940628327429295,-0.7986341118812561,0.47798022627830505,4.86166524887085,4.11328125,0,"['C1', 'F1', 'J1']",0,None,0,0.23351156910621307,[24300|0|0]
24300,1.30031156539917,-0.32368361949920654,-0.0049806516617536545,-0.7931406497955322,0.4744732677936554,4.868529796600342,4.11328125,0,"['C1', 'F1', 'J1']",0,None,0,0.2338177199778856,[24400|0|0]
24400,1.3004893064498901,-0.32366400957107544,-0.004991162568330765,-0.7914584875106812,0.473641961812973,4.866060733795166,4.11328125,0,"['C1', 'F1', 'J1']",0,None,0,0.23399684817094718,[24500|0|0]
24500,1.3003047704696655,-0.3235248327255249,-0.005292161367833614,-0.7941349744796753,0.47305840253829956,4.879305362701416,4.11328125,0,"['C1', 'F1', 'J1']",0,None,0,0.23437635311114824,[24600|0|0]
24600,1.3005815744400024,-0.32413992285728455,-0.006037421990185976,-0.7519032955169678,0.4997204542160034,4.902480125427246,4.11328125,0,"['C1', 'F1', 'J1']",0,None,0,0.2353815245907533,[24700|0|0]
24700,1.3006263971328735,-0.3243582546710968,-0.005548140965402126,-0.7200717329978943,0.5178703665733337,4.891714572906494,4.11328125,0,"['C1', 'F1', 'J1']",0,None,0,0.23591918040624524,[24800|0|0]
24800,1.3006969690322876,-0.32395148277282715,-0.005916279274970293,-0.714181661605835,0.5318116545677185,4.8754048347473145,4.11328125,0,"['C1', 'F1', 'J1']",0,None,0,0.23647232558174666,[24900|0|0]
24900,1.3007539510726929,-0.324347585439682,-0.00583607004955411,-0.6918542385101318,0.54044508934021,4.866940021514893,4.11328125,0,"['C1', 'F1', 'J1']",0,None,0,0.23688046501314253,[25000|0|0]
25000,1.3006037473678589,-0.32438924908638,-0.005534243769943714,-0.680080771446228,0.5470411777496338,4.877986431121826,4.11328125,0,"['C1', 'F1', 'J1']",0,None,0,0.23722016505062485,[25100|0|0]
25100,1.3007594347000122,-0.3245551884174347,-0.0055593508295714855,-0.664984941482544,0.5454415082931519,4.889362812042236,4.11328125,0,"['C1', 'F1', 'J1']",0,None,0,0.23744908593527073,[25200|0|0]
25200,1.300618052482605,-0.32441574335098267,-0.0054126400500535965,-0.6660321354866028,0.5486071705818176,4.879391670227051,4.11328125,0,"['C1', 'F1', 'J1']",0,None,0,0.23769598249414414,[25300|0|0]
25300,1.3008346557617188,-0.324351966381073,-0.0058076148852705956,-0.6708300709724426,0.5454109311103821,4.870978832244873,4.11328125,0,"['C1', 'F1', 'J1']",0,None,0,0.23815094359453448,[25400|0|0]
25400,1.3006839752197266,-0.32444921135902405,-0.005724278744310141,-0.6707320809364319,0.5498113632202148,4.871279716491699,4.11328125,0,"['C1', 'F1', 'J1']",0,None,0,0.23834869627811156,[25500|0|0]
25500,1.3009182214736938,-0.3244454860687256,-0.0057301451452076435,-0.6806753277778625,0.5294309854507446,4.8867974281311035,4.11328125,0,"['C1', 'F1', 'J1']",0,None,0,0.23858304558991983,[25600|0|0]
25600,1.300765037536621,-0.32428818941116333,-0.0060785869136452675,-0.6816990971565247,0.5461212992668152,4.88609504699707,4.11328125,0,"['C1', 'F1', 'J1']",0,None,0,0.23899489413374306,[25700|0|0]
25700,1.3008182048797607,-0.3241485059261322,-0.005853345151990652,-0.685438334941864,0.548606276512146,4.87330961227417,4.10546875,0,"['C1', 'F1', 'J1']",0,None,0,0.23926521263766065,[25800|0|0]
25800,1.3006871938705444,-0.3242843747138977,-0.0060199652798473835,-0.6815786957740784,0.5529573559761047,4.872489929199219,4.11328125,0,"['C1', 'F1', 'J1']",0,None,0,0.23951697935315683,[25900|0|0]
25900,1.3004863262176514,-0.32410928606987,-0.005905184894800186,-0.6853479146957397,0.5567947626113892,4.870658874511719,4.11328125,0,"['C1', 'F1', 'J1']",0,None,0,0.23980711446657438,[26000|0|0]
26000,1.3005640506744385,-0.3243951201438904,-0.00553116574883461,-0.6722193360328674,0.5524078607559204,4.876549243927002,4.11328125,0,"['C1', 'F1', 'J1']",0,None,0,0.24028422297687654,[26100|0|0]
26100,1.3006541728973389,-0.3244745135307312,-0.005930114537477493,-0.6695893406867981,0.5494567155838013,4.884866714477539,4.11328125,0,"['C1', 'F1', 'J1']",0,None,0,0.2407008588621459,[26200|0|0]
26200,1.3006031513214111,-0.32407015562057495,-0.0058593773283064365,-0.6937636733055115,0.5460293889045715,4.885012626647949,4.11328125,0,"['C1', 'F1', 'J1']",0,None,0,0.24111451605533538,[26300|0|0]
26300,1.3005787134170532,-0.32426440715789795,-0.006229034159332514,-0.6900251507759094,0.5508927702903748,4.88706636428833,4.10546875,0,"['C1', 'F1', 'J1']",0,None,0,0.24153281862961146,[26400|0|0]
26400,1.3005383014678955,-0.32450640201568604,-0.005633799359202385,-0.6837650537490845,0.5538649559020996,4.864865303039551,4.11328125,0,"['C1', 'F1', 'J1']",0,None,0,0.24217663467796421,[26500|0|0]
26500,1.3006421327590942,-0.323969304561615,-0.0054474095813930035,-0.7267217636108398,0.5247824788093567,4.854131698608398,4.11328125,0,"['C1', 'F1', 'J1']",0,None,0,0.24275455834201806,[26600|0|0]
26600,1.3007233142852783,-0.32403960824012756,-0.00532388174906373,-0.6942374110221863,0.5609456896781921,4.8712687492370605,4.11328125,0,"['C1', 'F1', 'J1']",0,None,0,0.24291824148948885,[26700|0|0]
26700,1.300668716430664,-0.3241458833217621,-0.00560954213142395,-0.6799423694610596,0.5753529667854309,4.880661964416504,4.11328125,0,"['C1', 'F1', 'J1']",0,None,0,0.2432278818821302,[26800|0|0]
26800,1.300495982170105,-0.32396140694618225,-0.005702486261725426,-0.6684284806251526,0.5934366583824158,4.873073577880859,4.11328125,0,"['C1', 'F1', 'J1']",0,None,0,0.24349715362085425,[26900|0|0]
26900,1.300502061843872,-0.32387304306030273,-0.0058630043640732765,-0.6558699607849121,0.5971824526786804,4.858414173126221,4.11328125,0,"['C1', 'F1', 'J1']",0,None,0,0.24368048719645402,[27000|0|0]
27000,1.30070960521698,-0.32434800267219543,-0.005767126567661762,-0.6377792954444885,0.5960590243339539,4.87090539932251,4.11328125,0,"['C1', 'F1', 'J1']",0,None,0,0.24420760524442336,[27100|0|0]
27100,1.3005566596984863,-0.3239416182041168,-0.0053531876765191555,-0.902155339717865,0.3754849135875702,4.865151882171631,3.521484375,0,"['A1', 'F1', 'E2']",0,None,0,0.24480751029784698,[27100|0|0]
27200,1.300319790840149,-0.32393139600753784,-0.005508643575012684,-0.8720601201057434,0.39169278740882874,4.670311450958252,3.3046875,0,"['A1', 'F1', 'E2']",0,None,0,0.24509102023723076,[27100|0|0]
27300,1.2984482049942017,-0.3244985342025757,0.007856183685362339,-0.8791422247886658,4.959347724914551,5.134994029998779,3.630859375,0,"['A1', 'F1', 'E2']",0,None,0,0.25859816971484756,[27100|0|0]
27400,1.2866941690444946,-0.32386553287506104,0.05114134028553963,-3.612973928451538,5.649109363555908,8.531984329223633,3.701171875,0,"['A1', 'F1', 'E2']",0,None,0,0.30345530776097696,[27100|0|0]
27500,1.266243577003479,-0.321197509765625,0.11020703613758087,-0.9772588014602661,-0.9719811081886292,10.26654052734375,3.689453125,0,"['A1', 'F1', 'E2']",0,None,0,0.36601808813898107,[27100|0|0]
27600,1.247369408607483,-0.31951797008514404,0.17772559821605682,1.7513395547866821,-5.103949546813965,10.062387466430664,3.6953125,0,"['A1', 'F1', 'E2']",0,None,0,0.4361451963876729,[27100|0|0]
27700,1.2417261600494385,-0.31714457273483276,0.2540605962276459,2.5750930309295654,-5.868008136749268,9.004958152770996,3.701171875,0,"['A1', 'F1', 'E2']",0,None,0,0.512725292957863,[27100|0|0]
27800,1.2443114519119263,-0.32026830315589905,0.33409592509269714,1.8316653966903687,-4.415610313415527,8.014182090759277,3.705078125,0,"['A1', 'F1', 'E2']",0,None,0,0.5928632695500795,[27100|0|0]
27900,1.2558974027633667,-0.32325130701065063,0.41939032077789307,0.9408067464828491,-2.034243106842041,7.1954169273376465,3.705078125,0,"['A1', 'F1', 'E2']",0,None,0,0.6789926286817497,[27100|0|0]
28000,1.2695503234863281,-0.3294081389904022,0.5072407126426697,-0.28681284189224243,0.1884521096944809,6.7202043533325195,3.705078125,0,"['A1', 'F1', 'E2']",0,None,0,0.7681105291007405,[27100|0|0]
28100,1.2831859588623047,-0.3331754803657532,0.5967410802841187,-0.9097464680671692,1.8993241786956787,6.252679347991943,3.705078125,0,"['A1', 'F1', 'E2']",0,None,0,0.8587220031043099,[27100|0|0]
28200,1.2913172245025635,-0.33609941601753235,0.6883498430252075,-1.3282545804977417,2.9365620613098145,5.821129322052002,3.705078125,0,"['A1', 'F1', 'E2']",0,None,0,0.9507373947057225,[27100|0|0]
28300,1.2942262887954712,-0.3376077711582184,0.7794387340545654,-1.2266305685043335,2.8862128257751465,5.364848613739014,3.6953125,0,"['A1', 'F1', 'E2']",0,None,0,1.0418852079501935,[27100|0|0]
28400,1.291561484336853,-0.33750876784324646,0.8723825812339783,-1.0678819417953491,2.2084193229675293,5.172940731048584,3.7265625,0,"['A1', 'F1', 'E2']",0,None,0,1.1348673014573258,[27100|0|0]
28500,1.28713059425354,-0.337548166513443,0.9688133597373962,-0.4698973000049591,0.8743573427200317,4.672910690307617,3.763671875,0,"['A1', 'F1', 'E2']",0,None,0,1.231399831632189,[27100|0|0]
28600,1.278463363647461,-0.3358475863933563,1.0495338439941406,-0.3167581558227539,0.058957722038030624,4.008736610412598,3.7734375,0,"['A1', 'F1', 'E2']",0,None,0,1.3126021064634221,[27100|0|0]
28700,1.2693461179733276,-0.33172404766082764,1.1166845560073853,-0.07449910044670105,-0.5483055114746094,5.475955963134766,3.76953125,0,"['A1', 'F1', 'E2']",0,None,0,1.380494269960006,[27100|0|0]
28800,1.260013222694397,-0.32814544439315796,1.1688793897628784,0.11935405433177948,-0.8002304434776306,8.057024955749512,3.763671875,0,"['A1', 'F1', 'E2']",0,None,0,1.4336375668693853,[27100|0|0]
28900,1.2524272203445435,-0.32483595609664917,1.2040926218032837,0.05137266963720322,-0.8699430823326111,11.526782989501953,3.748046875,0,"['A1', 'F1', 'E2']",0,None,0,1.469810372333824,[27100|0|0]
29000,1.2453786134719849,-0.3209443688392639,1.2332793474197388,0.15833361446857452,-0.5246129035949707,10.966374397277832,3.7421875,0,"['A1', 'F1', 'E2']",0,None,0,1.5000872985720664,[27100|0|0]
29100,1.2384669780731201,-0.31735801696777344,1.2519114017486572,0.3256123661994934,-0.2689373195171356,10.169464111328125,3.732421875,0,"['A1', 'F1', 'E2']",0,None,0,1.5202810122510495,[27100|0|0]
29200,1.2311294078826904,-0.3164711892604828,1.2626644372940063,0.42457762360572815,-0.1912519633769989,10.962396621704102,3.716796875,0,"['A1', 'F1', 'E2']",0,None,0,1.5333291605151307,[27100|0|0]
29300,1.2242519855499268,-0.3127017021179199,1.2702703475952148,0.4105738401412964,-0.08567557483911514,10.931951522827148,3.716796875,0,"['A1', 'F1', 'E2']",0,None,0,1.5442542620144841,[27100|0|0]
29400,1.2195274829864502,-0.30772387981414795,1.2751097679138184,0.5656113028526306,-0.03859197348356247,8.441476821899414,3.716796875,0,"['A1', 'F1', 'E2']",0,None,0,1.5526518585980513,[27100|0|0]
29500,1.2116657495498657,-0.30802732706069946,1.276005506515503,0.6214739084243774,-0.10731572657823563,2.707584857940674,3.705078125,0,"['A1', 'F1', 'E2']",0,None,0,1.5605702726123536,[27100|0|0]
29600,1.2011072635650635,-0.3073902428150177,1.27316153049469,0.5484179258346558,-0.11322043836116791,-1.8945101499557495,3.705078125,0,"['A1', 'F1', 'E2']",0,None,0,1.5715236146701148,[27100|0|0]
29700,1.1886664628982544,-0.3075149655342102,1.2689969539642334,0.3915497064590454,-0.4333852231502533,-3.4890007972717285,3.701171875,0,"['A1', 'F1', 'E2']",0,None,0,1.5846435527288858,[27100|0|0]
29800,1.17129647731781,-0.30981072783470154,1.2612879276275635,0.23143894970417023,-1.0438060760498047,-4.20200777053833,3.6953125,0,"['A1', 'F1', 'E2']",0,None,0,1.6037855487236787,[27100|0|0]
29900,1.1579912900924683,-0.3120988607406616,1.25661039352417,0.10102339833974838,-1.8849780559539795,-4.045958995819092,3.6953125,0,"['A1', 'F1', 'E2']",0,None,0,1.6180734066661817,[27100|0|0]
