time.ms,stateEstimate.x,stateEstimate.y,stateEstimate.z,stabilizer.roll,stabilizer.pitch,stabilizer.yaw,pm.vbat,drone_id,node_name,wind_speed,global_wind_direction,relative_wind_direction,travel_dist,waiting_time
0,0.5016153454780579,0.22359925508499146,-0.6494551301002502,0.05527033284306526,0.28118377923965454,-0.02166280895471573,4.1171875,1,"['C1', 'F1', 'J1']",0,None,0,1.1788434847610916,[100|0|0]
100,0.501587450504303,0.22368267178535461,-0.6492472887039185,0.05708205699920654,0.27937954664230347,-0.022740166634321213,4.1171875,1,"['C1', 'F1', 'J1']",0,None,0,1.1790691715384831,[200|0|0]
201,0.5015991926193237,0.22364698350429535,-0.6493930816650391,0.07060809433460236,0.27112865447998047,-0.026165252551436424,4.1171875,1,"['C1', 'F1', 'J1']",0,None,0,1.1792197275685266,[300|0|0]
301,0.5024204850196838,0.22253602743148804,-0.6481475830078125,0.08251228928565979,0.2631986737251282,-0.0152635108679533,4.1171875,1,"['C1', 'F1', 'J1']",0,None,0,1.1810798381856003,[400|0|0]
401,0.5032802820205688,0.22152100503444672,-0.6465011835098267,0.07749384641647339,0.2539716064929962,-0.004432871006429195,4.1171875,1,"['C1', 'F1', 'J1']",0,None,0,1.183196475295781,[500|0|0]
501,0.5029001832008362,0.22201263904571533,-0.6472204327583313,0.07496543973684311,0.26239311695098877,-0.009864472784101963,4.1171875,1,"['C1', 'F1', 'J1']",0,None,0,1.1841470007269363,[600|0|0]
601,0.5025472640991211,0.22217462956905365,-0.64743572473526,0.07412327080965042,0.2775505483150482,-0.01858738251030445,4.1171875,1,"['C1', 'F1', 'J1']",0,None,0,1.1845910091247587,[700|0|0]
701,0.501508355140686,0.22341957688331604,-0.649431586265564,0.07076206058263779,0.2719705104827881,-0.019503267481923103,4.1171875,1,"['C1', 'F1', 'J1']",0,None,0,1.187162524026009,[800|0|0]
801,0.5006027221679688,0.22471004724502563,-0.6513113975524902,0.058975692838430405,0.2641496956348419,-0.010589705780148506,4.1171875,1,"['C1', 'F1', 'J1']",0,None,0,1.1896159247902909,[900|0|0]
901,0.5010424852371216,0.22413082420825958,-0.6503211259841919,0.05992110073566437,0.2671680450439453,7.212299533421174e-05,4.1171875,1,"['C1', 'F1', 'J1']",0,None,0,1.190844553563473,[1000|0|0]
1001,0.5014908313751221,0.2236415594816208,-0.6494843363761902,0.05462506413459778,0.26025471091270447,-0.0028734682127833366,4.1171875,1,"['C1', 'F1', 'J1']",0,None,0,1.191912547514885,[1100|0|0]
1101,0.5021827220916748,0.22262506186962128,-0.6480414271354675,0.057428114116191864,0.25883543491363525,0.002590940333902836,4.1171875,1,"['C1', 'F1', 'J1']",0,None,0,1.193808323671454,[1200|0|0]
1200,0.5023013949394226,0.22274090349674225,-0.6484736800193787,0.06483042240142822,0.2538299560546875,-0.009002524428069592,4.1171875,1,"['C1', 'F1', 'J1']",0,None,0,1.1942712978424572,[1300|0|0]
1300,0.5019634366035461,0.22329041361808777,-0.6492330431938171,0.04979616031050682,0.2543088495731354,-0.013785135000944138,4.1171875,1,"['C1', 'F1', 'J1']",0,None,0,1.1952676961769313,[1400|0|0]
1400,0.5019127726554871,0.22344288229942322,-0.6489746570587158,0.04599948227405548,0.25833967328071594,-0.004751266445964575,4.1171875,1,"['C1', 'F1', 'J1']",0,None,0,1.1955719607480428,[1500|0|0]
1500,0.5017861127853394,0.22318242490291595,-0.6489818096160889,0.06251833587884903,0.26536324620246887,-0.0029045669361948967,4.1171875,1,"['C1', 'F1', 'J1']",0,None,0,1.1958616708396486,[1600|0|0]
1600,0.50230473279953,0.2227923423051834,-0.6480990052223206,0.049203671514987946,0.25036048889160156,0.02168169431388378,4.1171875,1,"['C1', 'F1', 'J1']",0,None,0,1.19695733262589,[1700|0|0]
1700,0.50221186876297,0.22297415137290955,-0.6485635042190552,0.06126796826720238,0.2442707121372223,0.010631299577653408,4.1171875,1,"['C1', 'F1', 'J1']",0,None,0,1.197464715700461,[1800|0|0]
1800,0.5014064908027649,0.2235625684261322,-0.6495804786682129,0.0608677938580513,0.27502501010894775,0.018711883574724197,4.1171875,1,"['C1', 'F1', 'J1']",0,None,0,1.1988891823787469,[1900|0|0]
1900,0.5031571984291077,0.22107641398906708,-0.6458234190940857,0.07157424837350845,0.2693515121936798,0.01786089688539505,4.1171875,1,"['C1', 'F1', 'J1']",0,None,0,1.2037225494992347,[2000|0|0]
2000,0.6178771257400513,0.09244005382061005,-0.44152942299842834,9.589044930180535e-05,0.0011776613537222147,-0.2890111804008484,4.1171875,1,"['C1', 'F1', 'J1']",0,None,0,1.4710126759916842,[2100|0|0]
2100,0.8401610255241394,-0.206491619348526,-0.010024718940258026,1.121628761291504,1.0868033170700073,0.01873263716697693,4.1171875,1,"['C1', 'F1', 'J1']",0,None,0,2.0410710826056477,[2200|0|0]
2200,0.8403171896934509,-0.20595833659172058,-0.010207870975136757,0.5173855423927307,0.7112084627151489,0.1970571130514145,4.1171875,1,"['C1', 'F1', 'J1']",0,None,0,2.041656165859863,[2300|0|0]
2300,0.8400055766105652,-0.2053310126066208,-0.011262582615017891,-0.03381742909550667,0.4161370098590851,0.23184643685817719,4.1171875,1,"['C1', 'F1', 'J1']",0,None,0,2.0429222838397556,[2400|0|0]
2400,0.8400307893753052,-0.2041160613298416,-0.012438871897757053,-0.32404598593711853,0.26118016242980957,0.21898381412029266,4.1171875,1,"['C1', 'F1', 'J1']",0,None,0,2.04461355518556,[2500|0|0]
2500,0.8402478098869324,-0.20454856753349304,-0.012361845932900906,-0.30084341764450073,0.21405461430549622,0.1744256466627121,4.1171875,1,"['C1', 'F1', 'J1']",0,None,0,2.045103547550731,[2600|0|0]
2600,0.8400189280509949,-0.20437675714492798,-0.012343746609985828,-0.275631308555603,0.22820231318473816,0.13613420724868774,4.1171875,1,"['C1', 'F1', 'J1']",0,None,0,2.045390311024575,[2700|0|0]
2700,0.8399977087974548,-0.20409460365772247,-0.01261390931904316,-0.20640705525875092,0.25787240266799927,0.11861911416053772,4.1171875,1,"['C1', 'F1', 'J1']",0,None,0,2.0457815254624836,[2800|0|0]
2800,0.8400354981422424,-0.20396065711975098,-0.013019055128097534,-0.19550450146198273,0.23067781329154968,0.10660216212272644,4.1171875,1,"['C1', 'F1', 'J1']",0,None,0,2.046209909444687,[2900|0|0]
2900,0.8392693996429443,-0.20459707081317902,-0.012329189106822014,-0.08567146211862564,0.29180842638015747,0.09708965569734573,4.1171875,1,"['C1', 'F1', 'J1']",0,None,0,2.0474214557405914,[3000|0|0]
3000,0.8401564955711365,-0.2045353502035141,-0.012540354393422604,-0.11738522350788116,0.2416342794895172,0.06928505748510361,4.1171875,1,"['C1', 'F1', 'J1']",0,None,0,2.0483354247760284,[3100|0|0]
3100,0.8400120139122009,-0.20419329404830933,-0.012236259877681732,-0.11451134085655212,0.2157769352197647,0.06418659538030624,4.1171875,1,"['C1', 'F1', 'J1']",0,None,0,2.0488153735624484,[3200|0|0]
3200,0.840190589427948,-0.204121932387352,-0.012523744255304337,-0.026778826490044594,0.2729451656341553,0.0470920093357563,4.1171875,1,"['C1', 'F1', 'J1']",0,None,0,2.0491612477720333,[3300|0|0]
3300,0.8402937650680542,-0.2043171226978302,-0.01240594033151865,0.03323553130030632,0.29829850792884827,0.05039670318365097,4.1171875,1,"['C1', 'F1', 'J1']",0,None,0,2.0494114921215703,[3400|0|0]
3400,0.84019535779953,-0.20403921604156494,-0.012697454541921616,0.07373493164777756,0.3200278878211975,0.045500174164772034,4.1171875,1,"['C1', 'F1', 'J1']",0,None,0,2.049826096312289,[3500|0|0]
3500,0.8399503827095032,-0.20433224737644196,-0.012500200420618057,0.12147825956344604,0.34281155467033386,0.057027667760849,4.1171875,1,"['C1', 'F1', 'J1']",0,None,0,2.050255967625969,[3600|0|0]
3600,0.8400606513023376,-0.20450842380523682,-0.012503781355917454,0.1535923331975937,0.3483654856681824,0.07142152637243271,4.1171875,1,"['C1', 'F1', 'J1']",0,None,0,2.0504638380657294,[3700|0|0]
3700,0.8401142954826355,-0.20431411266326904,-0.012397096492350101,0.16116473078727722,0.35839131474494934,0.0638553649187088,4.1171875,1,"['C1', 'F1', 'J1']",0,None,0,2.050691908620793,[3800|0|0]
3800,0.8399267792701721,-0.2040509134531021,-0.01264287531375885,0.1720554679632187,0.3718762993812561,0.039403609931468964,4.1171875,1,"['C1', 'F1', 'J1']",0,None,0,2.0510979177133293,[3900|0|0]
3900,0.8400287628173828,-0.20449118316173553,-0.012554222717881203,0.20327606797218323,0.37765035033226013,0.025133205577731133,4.1171875,1,"['C1', 'F1', 'J1']",0,None,0,2.051558457986267,[4000|0|0]
4000,0.840036928653717,-0.2042437642812729,-0.012417428195476532,0.20862257480621338,0.3792160153388977,0.028008459135890007,4.1171875,1,"['C1', 'F1', 'J1']",0,None,0,2.0518412927872594,[4100|0|0]
4100,0.8399701118469238,-0.2043163925409317,-0.012744260020554066,0.2169179618358612,0.3840354084968567,0.041069965809583664,4.1171875,1,"['C1', 'F1', 'J1']",0,None,0,2.0521826992776115,[4200|0|0]
4200,0.8399955034255981,-0.20447185635566711,-0.01241786777973175,0.22844521701335907,0.3746132552623749,0.052885763347148895,4.1171875,1,"['C1', 'F1', 'J1']",0,None,0,2.0525451156470385,[4300|0|0]
4300,0.8397542834281921,-0.2043103128671646,-0.012547982856631279,0.22544148564338684,0.39104533195495605,0.03208081051707268,4.1171875,1,"['C1', 'F1', 'J1']",0,None,0,2.052863256054819,[4400|0|0]
4400,0.8401918411254883,-0.20439571142196655,-0.01234518364071846,0.2342441827058792,0.382794052362442,0.049888648092746735,4.1171875,1,"['C1', 'F1', 'J1']",0,None,0,2.0533530286281634,[4500|0|0]
4500,0.8400457501411438,-0.2045547515153885,-0.012812009081244469,0.2402953803539276,0.3885435461997986,0.051371123641729355,4.1171875,1,"['C1', 'F1', 'J1']",0,None,0,2.0538673848461144,[4600|0|0]
4600,0.8402693271636963,-0.2045045644044876,-0.012268629856407642,0.2385643869638443,0.3821295499801636,0.061240725219249725,4.1171875,1,"['C1', 'F1', 'J1']",0,None,0,2.0544571020775892,[4700|0|0]
4700,0.8400173187255859,-0.20430031418800354,-0.012475816532969475,0.237786665558815,0.39165544509887695,0.06202442944049835,4.1171875,1,"['C1', 'F1', 'J1']",0,None,0,2.0548420081995946,[4800|0|0]
4800,0.8400083780288696,-0.20448972284793854,-0.012591008096933365,0.24829508364200592,0.40267622470855713,0.050070520490407944,4.1171875,1,"['C1', 'F1', 'J1']",0,None,0,2.055063874539819,[4900|0|0]
4900,0.8403041958808899,-0.20412757992744446,-0.012694993056356907,0.23429247736930847,0.39161401987075806,0.05401158332824707,4.1171875,1,"['C1', 'F1', 'J1']",0,None,0,2.0555429033158066,[5000|0|0]
5000,0.8399420380592346,-0.2044527530670166,-0.012585358694195747,0.24464724957942963,0.40938904881477356,0.035951778292655945,4.1171875,1,"['C1', 'F1', 'J1']",0,None,0,2.056041817689073,[5100|0|0]
5100,0.839805006980896,-0.20426048338413239,-0.0127898333594203,0.24455054104328156,0.4128568470478058,0.050208743661642075,4.1171875,1,"['C1', 'F1', 'J1']",0,None,0,2.05635415570486,[5200|0|0]
5200,0.8400908708572388,-0.20446118712425232,-0.012392931617796421,0.24546846747398376,0.3996049463748932,0.07590038329362869,4.1171875,1,"['C1', 'F1', 'J1']",0,None,0,2.056882862750018,[5300|0|0]
5300,0.840114176273346,-0.2044927030801773,-0.012654638849198818,0.24451883137226105,0.4012911021709442,0.04812158644199371,4.1171875,1,"['C1', 'F1', 'J1']",0,None,0,2.057147489039086,[5400|0|0]
5400,0.839914858341217,-0.20443186163902283,-0.012367701157927513,0.2378479540348053,0.40400612354278564,0.052125558257102966,4.1171875,1,"['C1', 'F1', 'J1']",0,None,0,2.057502119209407,[5500|0|0]
5500,0.8402719497680664,-0.20415298640727997,-0.012575606815516949,0.22358503937721252,0.3934500515460968,0.036740899085998535,4.1171875,1,"['C1', 'F1', 'J1']",0,None,0,2.0580006274284632,[5600|0|0]
5600,0.8399560451507568,-0.20451544225215912,-0.012436781078577042,0.2222662717103958,0.39999133348464966,0.028108427301049232,4.1171875,1,"['C1', 'F1', 'J1']",0,None,0,2.0585010697847457,[5700|0|0]
5700,0.839919924736023,-0.20454677939414978,-0.012582151219248772,0.23015494644641876,0.4014686048030853,0.0493285097181797,4.1171875,1,"['C1', 'F1', 'J1']",0,None,0,2.0586541030446197,[5800|0|0]
5800,0.8401338458061218,-0.20428790152072906,-0.013009329326450825,0.22666886448860168,0.4041586220264435,0.057459957897663116,4.1171875,1,"['C1', 'F1', 'J1']",0,None,0,2.0591974823898767,[5900|0|0]
5900,0.8399363160133362,-0.20426638424396515,-0.012547052465379238,0.2291775941848755,0.40786948800086975,0.05122402310371399,4.1171875,1,"['C1', 'F1', 'J1']",0,None,0,2.0597006532440796,[6000|0|0]
6000,0.8400729298591614,-0.20447659492492676,-0.012198015116155148,0.23288871347904205,0.40223389863967896,0.04803913086652756,4.1171875,1,"['C1', 'F1', 'J1']",0,None,0,2.0601303961258295,[6100|0|0]
6100,0.8399081826210022,-0.20420609414577484,-0.012615957297384739,0.225114107131958,0.4086081087589264,0.01941930502653122,4.1171875,1,"['C1', 'F1', 'J1']",0,None,0,2.060654789099518,[6200|0|0]
6200,0.839812159538269,-0.20408178865909576,-0.012733503244817257,0.22806666791439056,0.40874969959259033,0.014167167246341705,4.1171875,1,"['C1', 'F1', 'J1']",0,None,0,2.0608509760924454,[6300|0|0]
6300,0.8402790427207947,-0.20474231243133545,-0.012583884410560131,0.24857847392559052,0.3969496786594391,0.031147638335824013,4.1171875,1,"['C1', 'F1', 'J1']",0,None,0,2.0616735679446925,[6400|0|0]
6400,0.8399413824081421,-0.20431207120418549,-0.012429564259946346,0.2413574457168579,0.40627938508987427,0.03233514726161957,4.1171875,1,"['C1', 'F1', 'J1']",0,None,0,2.0622418431501743,[6500|0|0]
6500,0.8401774764060974,-0.2043452113866806,-0.012284092605113983,0.23906196653842926,0.3980845808982849,0.025849705561995506,4.1171875,1,"['C1', 'F1', 'J1']",0,None,0,2.0625211291146015,[6600|0|0]
6600,0.8398933410644531,-0.20449331402778625,-0.012739378027617931,0.2507406771183014,0.4060400426387787,0.04578223079442978,4.1171875,1,"['C1', 'F1', 'J1']",0,None,0,2.0630778625343082,[6700|0|0]
6700,0.8399628400802612,-0.20449040830135345,-0.01245532464236021,0.24305973947048187,0.40000200271606445,0.06589397042989731,4.1171875,1,"['C1', 'F1', 'J1']",0,None,0,2.0633703089090862,[6800|0|0]
6800,0.8398826122283936,-0.20444419980049133,-0.012516050599515438,0.23910145461559296,0.39531558752059937,0.05276115983724594,4.1171875,1,"['C1', 'F1', 'J1']",0,None,0,2.0634810309739136,[6900|0|0]
6900,0.8397660255432129,-0.20433661341667175,-0.012628769502043724,0.23515859246253967,0.39108800888061523,0.03402502089738846,4.1171875,1,"['C1', 'F1', 'J1']",0,None,0,2.063675640419039,[7000|0|0]
7000,0.8403456807136536,-0.2046494036912918,-0.012584886513650417,0.2425687164068222,0.37443944811820984,0.038865115493535995,4.1171875,1,"['C1', 'F1', 'J1']",0,None,0,2.064335764338607,[7100|0|0]
7100,0.8402076959609985,-0.20462048053741455,-0.012423297390341759,0.2394472360610962,0.3793933093547821,0.029549185186624527,4.1171875,1,"['C1', 'F1', 'J1']",0,None,0,2.0645502110349376,[7200|0|0]
7200,0.8397732973098755,-0.20429864525794983,-0.01248899381607771,0.23170670866966248,0.3910447061061859,0.029122574254870415,4.1171875,1,"['C1', 'F1', 'J1']",0,None,0,2.0650948174575587,[7300|0|0]
7300,0.8398287892341614,-0.20431528985500336,-0.012471441179513931,0.226013645529747,0.37792322039604187,0.03832104429602623,4.1171875,1,"['C1', 'F1', 'J1']",0,None,0,2.0651553524996613,[7400|0|0]
7400,0.84003084897995,-0.20443886518478394,-0.012567613273859024,0.2314518839120865,0.36915943026542664,0.04264216125011444,4.1171875,1,"['C1', 'F1', 'J1']",0,None,0,2.0654109851946147,[7500|0|0]
7500,0.840322732925415,-0.20431967079639435,-0.012397883459925652,0.2284608781337738,0.36538776755332947,0.050111956894397736,4.1171875,1,"['C1', 'F1', 'J1']",0,None,0,2.0657690518777643,[7600|0|0]
7600,0.8399397730827332,-0.20437687635421753,-0.012427343986928463,0.23139531910419464,0.376264363527298,0.03245684504508972,4.1171875,1,"['C1', 'F1', 'J1']",0,None,0,2.0661573798829402,[7700|0|0]
7700,0.8401997089385986,-0.2045932114124298,-0.012256198562681675,0.23332276940345764,0.3681100010871887,0.03284312039613724,4.1171875,1,"['C1', 'F1', 'J1']",0,None,0,2.066536402656421,[7800|0|0]
7800,0.8400875926017761,-0.2045300155878067,-0.012449175119400024,0.2367118000984192,0.3784888684749603,0.026648974046111107,4.1171875,1,"['C1', 'F1', 'J1']",0,None,0,2.066768358981351,[7900|0|0]
7900,0.8401826620101929,-0.2042395919561386,-0.012516089715063572,0.23250284790992737,0.376247763633728,0.02194247581064701,4.1171875,1,"['C1', 'F1', 'J1']",0,None,0,2.0670811874349173,[8000|0|0]
8000,0.8399331569671631,-0.20419922471046448,-0.01254388876259327,0.23330140113830566,0.3837422728538513,0.031996432691812515,4.1171875,1,"['C1', 'F1', 'J1']",0,None,0,2.0673354610435837,[8100|0|0]
8100,0.8400393128395081,-0.20432238280773163,-0.012665756046772003,0.23668088018894196,0.38373565673828125,0.013736498542129993,4.1171875,1,"['C1', 'F1', 'J1']",0,None,0,2.067538657060053,[8200|0|0]
8200,0.8402690887451172,-0.2047027349472046,-0.012513511814177036,0.24423997104167938,0.3792360723018646,0.014206470921635628,4.1171875,1,"['C1', 'F1', 'J1']",0,None,0,2.068008383600881,[8300|0|0]
8300,0.8399374485015869,-0.20450222492218018,-0.012408256530761719,0.22774001955986023,0.37627896666526794,0.03754153475165367,4.1171875,1,"['C1', 'F1', 'J1']",0,None,0,2.0684099657169557,[8400|0|0]
8400,0.8403868675231934,-0.20430020987987518,-0.012681577354669571,0.22372838854789734,0.3701052665710449,0.032652176916599274,4.1171875,1,"['C1', 'F1', 'J1']",0,None,0,2.068973429830348,[8500|0|0]
8500,0.8400834798812866,-0.20419155061244965,-0.01259439904242754,0.22544625401496887,0.3798914849758148,0.04857001453638077,4.1171875,1,"['C1', 'F1', 'J1']",0,None,0,2.0693072725414927,[8600|0|0]
8600,0.8402597308158875,-0.20483927428722382,-0.012412186712026596,0.2481343299150467,0.3863145411014557,0.030095208436250687,4.1171875,1,"['C1', 'F1', 'J1']",0,None,0,2.0700028382710687,[8700|0|0]
8700,0.8400080800056458,-0.2045726478099823,-0.012284714728593826,0.24083955585956573,0.38980597257614136,0.036145709455013275,4.1171875,1,"['C1', 'F1', 'J1']",0,None,0,2.0703909966346545,[8800|0|0]
8800,0.8401839733123779,-0.20425017178058624,-0.012385017238557339,0.23589439690113068,0.39382851123809814,0.05138960853219032,4.1171875,1,"['C1', 'F1', 'J1']",0,None,0,2.0707717719468706,[8900|0|0]
8900,0.8400115966796875,-0.20457729697227478,-0.012106415815651417,0.24280650913715363,0.4003504812717438,0.04941381514072418,4.1171875,1,"['C1', 'F1', 'J1']",0,None,0,2.0712347442434287,[9000|0|0]
9000,0.8398650884628296,-0.20442281663417816,-0.012702320702373981,0.23636820912361145,0.3990793526172638,0.047995079308748245,4.1171875,1,"['C1', 'F1', 'J1']",0,None,0,2.0718675407877343,[9100|0|0]
9100,0.8399150967597961,-0.2044631391763687,-0.012381504289805889,0.2388296127319336,0.400953471660614,0.04021658003330231,4.1171875,1,"['C1', 'F1', 'J1']",0,None,0,2.0721947256097346,[9200|0|0]
9200,0.8398800492286682,-0.20468707382678986,-0.012402507476508617,0.2418857216835022,0.4000372886657715,0.05641826614737511,4.1171875,1,"['C1', 'F1', 'J1']",0,None,0,2.0724223573099634,[9300|0|0]
9300,0.8399927616119385,-0.20449921488761902,-0.012320437468588352,0.2345942258834839,0.3887191414833069,0.06723726540803909,4.1171875,1,"['C1', 'F1', 'J1']",0,None,0,2.0726563029202425,[9400|0|0]
9400,0.8403043746948242,-0.20481297373771667,-0.01245835330337286,0.2399541586637497,0.3796248137950897,0.055325672030448914,4.1171875,1,"['C1', 'F1', 'J1']",0,None,0,2.0731195178886153,[9500|0|0]
9500,0.8400072455406189,-0.2043830156326294,-0.012791010551154613,0.2290465086698532,0.39227065443992615,0.05040764436125755,4.1171875,1,"['C1', 'F1', 'J1']",0,None,0,2.0737390423440734,[9600|0|0]
9600,0.8398970365524292,-0.20414134860038757,-0.012620576657354832,0.22546130418777466,0.39223915338516235,0.054358627647161484,4.1171875,1,"['C1', 'F1', 'J1']",0,None,0,2.0740546317730884,[9700|0|0]
9700,0.8399637341499329,-0.20448830723762512,-0.012223310768604279,0.23328576982021332,0.3921198844909668,0.06229901313781738,4.1171875,1,"['C1', 'F1', 'J1']",0,None,0,2.074586279261403,[9800|0|0]
9800,0.839881181716919,-0.2043447196483612,-0.012458725832402706,0.22942152619361877,0.39467018842697144,0.03833194822072983,4.1171875,1,"['C1', 'F1', 'J1']",0,None,0,2.0748741204541643,[9900|0|0]
9900,0.8400793671607971,-0.20405174791812897,-0.012775944545865059,0.22333642840385437,0.38179707527160645,0.06820791959762573,4.1171875,1,"['C1', 'F1', 'J1']",0,None,0,2.07534923898364,[10000|0|0]
10000,0.8407265543937683,-0.20416420698165894,-0.012262078002095222,0.249070942401886,0.3943100869655609,0.06504160910844803,4.1171875,1,"['C1', 'F1', 'J1']",0,None,0,2.076183239691252,[10100|0|0]
10100,0.8409008979797363,-0.20424632728099823,-0.012428770773112774,0.24307279288768768,0.38045498728752136,0.09233522415161133,4.1171875,1,"['C1', 'F1', 'J1']",0,None,0,2.0764380453219617,[10200|0|0]
10200,0.8406798839569092,-0.20434615015983582,-0.01246786117553711,0.25877341628074646,0.39966079592704773,0.09182831645011902,4.1171875,1,"['C1', 'F1', 'J1']",0,None,0,2.076683687063096,[10300|0|0]
10300,0.8405494689941406,-0.204088032245636,-0.01271897554397583,0.2563868463039398,0.39639708399772644,0.06663352251052856,4.1171875,1,"['C1', 'F1', 'J1']",0,None,0,2.0770666901259833,[10400|0|0]
10400,0.8407320976257324,-0.2039395272731781,-0.012446669861674309,0.25513792037963867,0.3918408751487732,0.06282982975244522,4.1171875,1,"['C1', 'F1', 'J1']",0,None,0,2.0774266308551814,[10500|0|0]
10500,0.8406216502189636,-0.2043583244085312,-0.012582425959408283,0.27021002769470215,0.3942532241344452,0.06739508360624313,4.1171875,1,"['C1', 'F1', 'J1']",0,None,0,2.077880524442175,[10600|0|0]
10600,0.8406972289085388,-0.20436981320381165,-0.012508310377597809,0.2673310339450836,0.39796921610832214,0.050921790301799774,4.1171875,1,"['C1', 'F1', 'J1']",0,None,0,2.0779870009663575,[10700|0|0]
10700,0.8405196666717529,-0.2039252519607544,-0.01256487239152193,0.2603358030319214,0.4073386788368225,0.04331650957465172,4.1171875,1,"['C1', 'F1', 'J1']",0,None,0,2.0784690407034954,[10800|0|0]
10800,0.8407081961631775,-0.20420126616954803,-0.012245318852365017,0.268889844417572,0.4090735614299774,0.053769808262586594,4.1171875,1,"['C1', 'F1', 'J1']",0,None,0,2.0789314708895565,[10900|0|0]
10900,0.840791642665863,-0.20405474305152893,-0.012572160921990871,0.26648133993148804,0.41088348627090454,0.039046064019203186,4.1171875,1,"['C1', 'F1', 'J1']",0,None,0,2.0792992453875874,[11000|0|0]
11000,0.8408804535865784,-0.20419277250766754,-0.01229711715131998,0.281902551651001,0.4185512065887451,0.05852052569389343,4.1171875,1,"['C1', 'F1', 'J1']",0,None,0,2.0796195399179576,[11100|0|0]
11100,0.8405130505561829,-0.204075887799263,-0.01271537784487009,0.27886277437210083,0.42305636405944824,0.058186084032058716,4.1171875,1,"['C1', 'F1', 'J1']",0,None,0,2.080188388781516,[11200|0|0]
11200,0.8405565619468689,-0.20432870090007782,-0.012528844177722931,0.28265249729156494,0.4129222333431244,0.06565675139427185,4.1171875,1,"['C1', 'F1', 'J1']",0,None,0,2.0805055677752127,[11300|0|0]
11300,0.8406698703765869,-0.20413969457149506,-0.012323323637247086,0.10949141532182693,0.2826119065284729,0.07603780925273895,4.1171875,1,"['C1', 'F1', 'J1']",0,None,0,2.080806899627241,[11400|0|0]
11400,0.8407976031303406,-0.20414718985557556,-0.01232229545712471,0.14499971270561218,0.3066357970237732,0.0577552430331707,4.1171875,1,"['C1', 'F1', 'J1']",0,None,0,2.0809348562324606,[11500|0|0]
11500,0.8402954339981079,-0.20489174127578735,-0.01252593845129013,0.23653221130371094,0.37450242042541504,0.049735501408576965,4.1171875,1,"['C1', 'F1', 'J1']",0,None,0,2.081855725997291,[11600|0|0]
11600,0.8401975035667419,-0.20444591343402863,-0.012228104285895824,0.19293996691703796,0.3597417175769806,0.06897897273302078,4.1171875,1,"['C1', 'F1', 'J1']",0,None,0,2.082400756293652,[11700|0|0]
11700,0.8398874998092651,-0.20420050621032715,-0.01241665706038475,0.1703236848115921,0.34933561086654663,0.07250560820102692,4.1171875,1,"['C1', 'F1', 'J1']",0,None,0,2.082838796456037,[11800|0|0]
11800,0.8401946425437927,-0.20407113432884216,-0.012425994500517845,0.1509803831577301,0.32727503776550293,0.05324568226933479,4.1171875,1,"['C1', 'F1', 'J1']",0,None,0,2.083172204510649,[11900|0|0]
11900,0.840164065361023,-0.20460879802703857,-0.012319372035562992,0.15832720696926117,0.3243865668773651,0.07200871407985687,4.1171875,1,"['C1', 'F1', 'J1']",0,None,0,2.083721190454456,[12000|0|0]
12000,0.840249240398407,-0.2039557695388794,-0.012787836603820324,0.1328590363264084,0.31564146280288696,0.08548580855131149,4.1171875,1,"['C1', 'F1', 'J1']",0,None,0,2.084529373629889,[12100|0|0]
12100,0.8399549722671509,-0.2043827921152115,-0.012448176741600037,0.14424853026866913,0.31537848711013794,0.07902602106332779,4.1171875,1,"['C1', 'F1', 'J1']",0,None,0,2.0851493017190847,[12200|0|0]
12200,0.8400861024856567,-0.20435625314712524,-0.012280705384910107,0.13652758300304413,0.30718690156936646,0.07633107155561447,4.1171875,1,"['C1', 'F1', 'J1']",0,None,0,2.085363652147925,[12300|0|0]
12300,0.8403826951980591,-0.20453254878520966,-0.012380081228911877,0.13563285768032074,0.29160189628601074,0.07696762681007385,4.1171875,1,"['C1', 'F1', 'J1']",0,None,0,2.0857227105657747,[12400|0|0]
12400,0.8400685787200928,-0.20433758199214935,-0.012240538373589516,0.12657791376113892,0.30544424057006836,0.06956873834133148,4.1171875,1,"['C1', 'F1', 'J1']",0,None,0,2.086117873090058,[12500|0|0]
12500,0.8401843905448914,-0.20398883521556854,-0.012435760349035263,0.11747737973928452,0.2949804961681366,0.03843468055129051,4.1171875,1,"['C1', 'F1', 'J1']",0,None,0,2.0865339840279526,[12600|0|0]
12600,0.840390682220459,-0.20434296131134033,-0.01212041825056076,0.12985745072364807,0.29061833024024963,0.045922134071588516,4.1171875,1,"['C1', 'F1', 'J1']",0,None,0,2.0870510934807625,[12700|0|0]
12700,0.8401447534561157,-0.20401859283447266,-0.012459104880690575,0.12325986474752426,0.29637792706489563,0.03630652651190758,4.1171875,1,"['C1', 'F1', 'J1']",0,None,0,2.087580625820989,[12800|0|0]
12800,0.8400596976280212,-0.20426738262176514,-0.012749590910971165,0.13327768445014954,0.29733386635780334,0.04838169738650322,4.1171875,1,"['C1', 'F1', 'J1']",0,None,0,2.087972433153669,[12900|0|0]
12900,0.8403847217559814,-0.20430095493793488,-0.012390773743391037,0.12871260941028595,0.28321123123168945,0.056892719119787216,4.1171875,1,"['C1', 'F1', 'J1']",0,None,0,2.088457734651626,[13000|0|0]
13000,0.8469186425209045,-0.19464503228664398,-0.009023363701999187,-0.05833921208977699,0.14008618891239166,0.09378587454557419,4.1171875,1,"['C1', 'F1', 'J1']",0,None,0,2.1005931544299803,[13100|0|0]
13100,0.8470572829246521,-0.19418422877788544,-0.009610384702682495,-0.07267268747091293,0.1333957463502884,0.10055650770664215,4.1171875,1,"['C1', 'F1', 'J1']",0,None,0,2.10135220297288,[13200|0|0]
13200,0.8472601175308228,-0.19454818964004517,-0.009289371781051159,-0.06363772600889206,0.12865184247493744,0.09549108147621155,4.1171875,1,"['C1', 'F1', 'J1']",0,None,0,2.1018781865111196,[13300|0|0]
13300,0.8468636870384216,-0.19403773546218872,-0.009517926722764969,-0.06882737576961517,0.14647123217582703,0.09548130631446838,4.1171875,1,"['C1', 'F1', 'J1']",0,None,0,2.1025637213128463,[13400|0|0]
13400,0.846880316734314,-0.19462639093399048,-0.009146519936621189,-0.049653224647045135,0.14602738618850708,0.09405634552240372,4.1171875,1,"['C1', 'F1', 'J1']",0,None,0,2.1032599503068283,[13500|0|0]
13500,0.8468825221061707,-0.19463881850242615,-0.009185565635561943,-0.04710507020354271,0.14532727003097534,0.09570958465337753,4.1171875,1,"['C1', 'F1', 'J1']",0,None,0,2.1033009853495117,[13600|0|0]
13600,0.8469614386558533,-0.1944936066865921,-0.00934657547622919,-0.049040134996175766,0.14307008683681488,0.09281937032938004,4.1171875,1,"['C1', 'F1', 'J1']",0,None,0,2.103531719963437,[13700|0|0]
13700,0.8472676277160645,-0.19440649449825287,-0.009295990690588951,-0.053089965134859085,0.13727940618991852,0.11015653610229492,4.1171875,1,"['C1', 'F1', 'J1']",0,None,0,2.1038540537880484,[13800|0|0]
13800,0.8471927046775818,-0.19454938173294067,-0.009153318591415882,-0.04814901575446129,0.1520811766386032,0.10046561807394028,4.1171875,1,"['C1', 'F1', 'J1']",0,None,0,2.1040694268397857,[13900|0|0]
13900,0.847095251083374,-0.19442926347255707,-0.009148833341896534,-0.048371173441410065,0.16094902157783508,0.09690311551094055,4.1171875,1,"['C1', 'F1', 'J1']",0,None,0,2.104224170876714,[14000|0|0]
14000,0.8469942808151245,-0.1944088488817215,-0.009275361895561218,-0.037766244262456894,0.1709868460893631,0.1018068864941597,4.1171875,1,"['C1', 'F1', 'J1']",0,None,0,2.104387330998931,[14100|0|0]
14100,0.8468965888023376,-0.194457545876503,-0.009509154595434666,-0.038692817091941833,0.17238077521324158,0.10164310038089752,4.1171875,1,"['C1', 'F1', 'J1']",0,None,0,2.104645350674881,[14200|0|0]
14200,0.8471149206161499,-0.19442149996757507,-0.009132232517004013,-0.038901954889297485,0.15627196431159973,0.09977471828460693,4.1171875,1,"['C1', 'F1', 'J1']",0,None,0,2.1050824300059885,[14300|0|0]
14300,0.8470048308372498,-0.1945033073425293,-0.009101815521717072,-0.03704388812184334,0.16117489337921143,0.09525049477815628,4.1171875,1,"['C1', 'F1', 'J1']",0,None,0,2.1052229198619123,[14400|0|0]
14400,0.8469168543815613,-0.19469060003757477,-0.009321128949522972,-0.03310997039079666,0.1627410650253296,0.0964505672454834,4.1171875,1,"['C1', 'F1', 'J1']",0,None,0,2.105524443973699,[14500|0|0]
14500,0.8468828797340393,-0.19450348615646362,-0.009286614134907722,-0.04137583449482918,0.1636393964290619,0.10301472991704941,4.1171875,1,"['C1', 'F1', 'J1']",0,None,0,2.105717723961299,[14600|0|0]
14600,0.8469144701957703,-0.19464285671710968,-0.00903252512216568,-0.036136794835329056,0.16600139439105988,0.11561888456344604,4.1171875,1,"['C1', 'F1', 'J1']",0,None,0,2.1060092429775628,[14700|0|0]
14701,0.8471614122390747,-0.1943945288658142,-0.009167540818452835,-0.04408254474401474,0.15023943781852722,0.11724182963371277,4.1171875,1,"['C1', 'F1', 'J1']",0,None,0,2.1063845779382637,[14800|0|0]
14801,0.847001314163208,-0.19448314607143402,-0.009313755668699741,-0.0442139208316803,0.1592780500650406,0.09589261561632156,4.1171875,1,"['C1', 'F1', 'J1']",0,None,0,2.106618806855054,[14900|0|0]
14901,0.8471264839172363,-0.19440364837646484,-0.009138872846961021,-0.038758620619773865,0.1629016399383545,0.10930425673723221,4.1171875,1,"['C1', 'F1', 'J1']",0,None,0,2.1068480912901304,[15000|0|0]
15001,0.8470809459686279,-0.1941864937543869,-0.009304082952439785,-0.04562777653336525,0.1696387529373169,0.11529746651649475,4.1171875,1,"['C1', 'F1', 'J1']",0,None,0,2.107124721392624,[15100|0|0]
15101,0.8469119071960449,-0.19462747871875763,-0.009379399940371513,-0.042178262025117874,0.17268352210521698,0.11079091578722,4.1171875,1,"['C1', 'F1', 'J1']",0,None,0,2.107602962434473,[15200|0|0]
15201,0.847188413143158,-0.19455932080745697,-0.009310383349657059,-0.04462765157222748,0.167892724275589,0.10342629998922348,4.1171875,1,"['C1', 'F1', 'J1']",0,None,0,2.107895988592786,[15300|0|0]
15301,0.8470613956451416,-0.19446919858455658,-0.00946317333728075,-0.04615769907832146,0.16626432538032532,0.07858002185821533,4.1171875,1,"['C1', 'F1', 'J1']",0,None,0,2.1081141633855114,[15400|0|0]
15401,0.8470166921615601,-0.1942087560892105,-0.009584610350430012,-0.051367148756980896,0.16680927574634552,0.1007722020149231,4.1171875,1,"['C1', 'F1', 'J1']",0,None,0,2.108404982303378,[15500|0|0]
15501,0.846535325050354,-0.1943490356206894,-0.009716685861349106,-0.04863975942134857,0.17639309167861938,0.09614382684230804,4.1171875,1,"['C1', 'F1', 'J1']",0,None,0,2.108923476838824,[15600|0|0]
15602,0.8470842242240906,-0.19423967599868774,-0.009616540744900703,-0.05423307791352272,0.15962712466716766,0.11002279818058014,4.1171875,1,"['C1', 'F1', 'J1']",0,None,0,2.1094920530203525,[15700|0|0]
15702,0.8469957709312439,-0.19416655600070953,-0.009174736216664314,-0.05867091566324234,0.15825115144252777,0.09214242547750473,4.1171875,1,"['C1', 'F1', 'J1']",0,None,0,2.109948519624049,[15800|0|0]
15802,0.8472496867179871,-0.19445788860321045,-0.009430153295397758,-0.06171346455812454,0.14354123175144196,0.07440595328807831,4.1171875,1,"['C1', 'F1', 'J1']",0,None,0,2.1104117536859937,[15900|0|0]
15901,0.8469107151031494,-0.19411078095436096,-0.009315082803368568,-0.06933479756116867,0.15061654150485992,0.08924004435539246,4.1171875,1,"['C1', 'F1', 'J1']",0,None,0,2.110910378488517,[16000|0|0]
16000,0.8469601273536682,-0.1942049115896225,-0.00916815735399723,-0.06266622245311737,0.15280699729919434,0.07207781076431274,4.1171875,1,"['C1', 'F1', 'J1']",0,None,0,2.111091732381966,[16100|0|0]
16100,0.8470211029052734,-0.1942499428987503,-0.00918529275804758,-0.059947267174720764,0.153367817401886,0.08134317398071289,4.1171875,1,"['C1', 'F1', 'J1']",0,None,0,2.1111694463367443,[16200|0|0]
16200,0.8471627235412598,-0.19444121420383453,-0.009276951663196087,-0.05380687490105629,0.14990998804569244,0.08589889854192734,4.1171875,1,"['C1', 'F1', 'J1']",0,None,0,2.111424480592441,[16300|0|0]
16300,0.8470577597618103,-0.19423124194145203,-0.00944686122238636,-0.057949963957071304,0.14156384766101837,0.08372766524553299,4.1171875,1,"['C1', 'F1', 'J1']",0,None,0,2.1117142650024263,[16400|0|0]
16400,0.8471357226371765,-0.19444522261619568,-0.009266743436455727,-0.0576849989593029,0.13490012288093567,0.07163765281438828,4.1171875,1,"['C1', 'F1', 'J1']",0,None,0,2.1120046240145265,[16500|0|0]
16500,0.847174882888794,-0.19445185363292694,-0.00939990021288395,-0.05450703948736191,0.13533306121826172,0.09022202342748642,4.1171875,1,"['C1', 'F1', 'J1']",0,None,0,2.1121435780457682,[16600|0|0]
16600,0.8470019698143005,-0.19404365122318268,-0.009364619851112366,-0.06672582775354385,0.13574647903442383,0.0900743380188942,4.1171875,1,"['C1', 'F1', 'J1']",0,None,0,2.1125882946325723,[16700|0|0]
16700,0.8470511436462402,-0.19451920688152313,-0.009220589883625507,-0.05231676250696182,0.13641302287578583,0.0799974650144577,4.1171875,1,"['C1', 'F1', 'J1']",0,None,0,2.113087610045374,[16800|0|0]
16800,0.8472314476966858,-0.19430458545684814,-0.00954483263194561,-0.06109517812728882,0.12760186195373535,0.07181015610694885,4.1171875,1,"['C1', 'F1', 'J1']",0,None,0,2.113516218568825,[16900|0|0]
16900,0.8470796346664429,-0.19434264302253723,-0.009163576178252697,-0.06098102778196335,0.13406327366828918,0.08171147853136063,4.1171875,1,"['C1', 'F1', 'J1']",0,None,0,2.113928349686238,[17000|0|0]
17000,0.8468931317329407,-0.1947048455476761,-0.00922150444239378,-0.05051497742533684,0.12916293740272522,0.06896831840276718,4.1171875,1,"['C1', 'F1', 'J1']",0,None,0,2.114339846584414,[17100|0|0]
17100,0.8472342491149902,-0.19429002702236176,-0.009414509870111942,-0.061820417642593384,0.12074104696512222,0.08081385493278503,4.1171875,1,"['C1', 'F1', 'J1']",0,None,0,2.1149105361431135,[17200|0|0]
17200,0.8471331000328064,-0.19458796083927155,-0.009311383590102196,-0.050961174070835114,0.11784759908914566,0.07162880152463913,4.1171875,1,"['C1', 'F1', 'J1']",0,None,0,2.115241641452213,[17300|0|0]
17300,0.8471533060073853,-0.19448012113571167,-0.00906747579574585,-0.05527995526790619,0.11518701165914536,0.09923464059829712,4.1171875,1,"['C1', 'F1', 'J1']",0,None,0,2.1155090899429925,[17400|0|0]
17400,0.8469709157943726,-0.19446441531181335,-0.00920579768717289,-0.05553017556667328,0.122653529047966,0.09892554581165314,4.1171875,1,"['C1', 'F1', 'J1']",0,None,0,2.1157385366870423,[17500|0|0]
17500,0.8470249176025391,-0.1942804455757141,-0.009161999449133873,-0.06393641978502274,0.11697081476449966,0.11374559998512268,4.1171875,1,"['C1', 'F1', 'J1']",0,None,0,2.1159352073374733,[17600|0|0]
17600,0.8468483090400696,-0.19440431892871857,-0.009280463680624962,-0.05931547284126282,0.12612265348434448,0.09867921471595764,4.1171875,1,"['C1', 'F1', 'J1']",0,None,0,2.116181314968531,[17700|0|0]
17700,0.8470444083213806,-0.19425232708454132,-0.009273437783122063,-0.08006409555673599,0.10131936520338058,0.08389660716056824,4.1171875,1,"['C1', 'F1', 'J1']",0,None,0,2.1164295201499086,[17800|0|0]
17800,0.846892237663269,-0.19414149224758148,-0.009647056460380554,-0.07559746503829956,0.11299430578947067,0.0840008556842804,4.1171875,1,"['C1', 'F1', 'J1']",0,None,0,2.1168478874362378,[17900|0|0]
17900,0.8471225500106812,-0.19418330490589142,-0.009210032410919666,-0.07371977716684341,0.11325009167194366,0.09605676680803299,4.1171875,1,"['C1', 'F1', 'J1']",0,None,0,2.117343651589412,[18000|0|0]
18000,0.8470216989517212,-0.1942880004644394,-0.009116332978010178,-0.0625370666384697,0.11983135342597961,0.09663208574056625,4.1171875,1,"['C1', 'F1', 'J1']",0,None,0,2.117516601523788,[18100|0|0]
18100,0.8471983671188354,-0.19468142092227936,-0.009180952794849873,-0.04958449676632881,0.12179416418075562,0.09711595624685287,4.1171875,1,"['C1', 'F1', 'J1']",0,None,0,2.117952682959585,[18200|0|0]
18200,0.8472433090209961,-0.19424599409103394,-0.009155969135463238,-0.058474425226449966,0.12696193158626556,0.10602032393217087,4.1171875,1,"['C1', 'F1', 'J1']",0,None,0,2.1183911353323404,[18300|0|0]
18300,0.8470996022224426,-0.19467219710350037,-0.00928416009992361,-0.04827120900154114,0.13743406534194946,0.11086249351501465,4.1171875,1,"['C1', 'F1', 'J1']",0,None,0,2.11885882494646,[18400|0|0]
18400,0.8470171689987183,-0.1943982094526291,-0.009144512005150318,-0.05683606117963791,0.14415958523750305,0.11968281120061874,4.1171875,1,"['C1', 'F1', 'J1']",0,None,0,2.1191772053157942,[18500|0|0]
18500,0.8471478223800659,-0.19430063664913177,-0.009037615731358528,-0.05406218394637108,0.15044890344142914,0.10503401607275009,4.1171875,1,"['C1', 'F1', 'J1']",0,None,0,2.1193721862671473,[18600|0|0]
18600,0.8470653891563416,-0.19452820718288422,-0.009059744887053967,-0.05821036919951439,0.14549413323402405,0.08288727700710297,4.1171875,1,"['C1', 'F1', 'J1']",0,None,0,2.1196152362285496,[18700|0|0]
18700,0.8470035195350647,-0.19444240629673004,-0.009435408748686314,-0.06437570601701736,0.14936350286006927,0.09459082782268524,4.1171875,1,"['C1', 'F1', 'J1']",0,None,0,2.1200055091830805,[18800|0|0]
18800,0.8470272421836853,-0.1944885551929474,-0.009161422029137611,-0.06752961874008179,0.1476748287677765,0.0806223526597023,4.1171875,1,"['C1', 'F1', 'J1']",0,None,0,2.1202843661485105,[18900|0|0]
18900,0.8470161557197571,-0.19441469013690948,-0.009306012652814388,-0.0765654519200325,0.1520460993051529,0.09194255620241165,4.1171875,1,"['C1', 'F1', 'J1']",0,None,0,2.120447109519009,[19000|0|0]
19000,0.8469602465629578,-0.1945132464170456,-0.009467202238738537,-0.07704799622297287,0.14471861720085144,0.08743222802877426,4.1171875,1,"['C1', 'F1', 'J1']",0,None,0,2.1206441406251284,[19100|0|0]
19100,0.8470697402954102,-0.19428949058055878,-0.009176267310976982,-0.08162809163331985,0.13895970582962036,0.0711638554930687,4.1171875,1,"['C1', 'F1', 'J1']",0,None,0,2.1210271532672174,[19200|0|0]
19200,0.8467713594436646,-0.1944410800933838,-0.009652801789343357,-0.07749336957931519,0.14474068582057953,0.08974181115627289,4.1171875,1,"['C1', 'F1', 'J1']",0,None,0,2.121609472442721,[19300|0|0]
19300,0.8468523621559143,-0.1941266506910324,-0.009192220866680145,-0.0895700752735138,0.13633568584918976,0.09965111315250397,4.1171875,1,"['C1', 'F1', 'J1']",0,None,0,2.1221729989059646,[19400|0|0]
19400,0.8466634750366211,-0.1945989727973938,-0.009417345747351646,-0.06854524463415146,0.15327949821949005,0.09907733649015427,4.1171875,1,"['C1', 'F1', 'J1']",0,None,0,2.1227292791661663,[19500|0|0]
19500,0.8466920256614685,-0.19455748796463013,-0.009674840606749058,-0.07064509391784668,0.1439312994480133,0.09001512825489044,4.1171875,1,"['C1', 'F1', 'J1']",0,None,0,2.1229916524348975,[19600|0|0]
19600,0.8471971750259399,-0.19440624117851257,-0.009110192768275738,-0.0795527994632721,0.12888430058956146,0.09890250861644745,4.1171875,1,"['C1', 'F1', 'J1']",0,None,0,2.123764231655579,[19700|0|0]
19700,0.8471104502677917,-0.19432497024536133,-0.009185881353914738,-0.08139991015195847,0.13013531267642975,0.09550655633211136,4.1171875,1,"['C1', 'F1', 'J1']",0,None,0,2.123905139108353,[19800|0|0]
19800,0.8468208909034729,-0.19436775147914886,-0.009370574727654457,-0.07740473747253418,0.14762935042381287,0.09102623909711838,4.1171875,1,"['C1', 'F1', 'J1']",0,None,0,2.1242512409744743,[19900|0|0]
19900,0.8468713760375977,-0.1939983367919922,-0.009648165665566921,-0.08534187078475952,0.14064496755599976,0.09758341312408447,4.1171875,1,"['C1', 'F1', 'J1']",0,None,0,2.1247160771699947,[20000|0|0]
20000,0.8466349840164185,-0.19430674612522125,-0.009592202492058277,-0.07218094915151596,0.15108267962932587,0.12222898006439209,4.1171875,1,"['C1', 'F1', 'J1']",0,None,0,2.125108670319819,[20100|0|0]
20100,0.8469557166099548,-0.19454406201839447,-0.009118066169321537,-0.07300794124603271,0.1420995593070984,0.09882334619760513,4.1171875,1,"['C1', 'F1', 'J1']",0,None,0,2.1257283423962012,[20200|0|0]
20200,0.8470880389213562,-0.1941709965467453,-0.009490907192230225,-0.08029182255268097,0.13539323210716248,0.10750902444124222,4.1171875,1,"['C1', 'F1', 'J1']",0,None,0,2.1262721231135817,[20300|0|0]
20300,0.8472862839698792,-0.19426289200782776,-0.009332229383289814,-0.07155729830265045,0.13124428689479828,0.11034843325614929,4.1171875,1,"['C1', 'F1', 'J1']",0,None,0,2.1265421685210257,[20400|0|0]
20400,0.8471969366073608,-0.19438882172107697,-0.00908111222088337,-0.0657159835100174,0.14255867898464203,0.1061217412352562,4.1171875,1,"['C1', 'F1', 'J1']",0,None,0,2.12683695840064,[20500|0|0]
20500,0.8473373651504517,-0.19450078904628754,-0.009264501743018627,-0.06083010882139206,0.14341284334659576,0.10088293254375458,4.1171875,1,"['C1', 'F1', 'J1']",0,None,0,2.12709364609894,[20600|0|0]
20600,0.8468612432479858,-0.19422926008701324,-0.009387661702930927,-0.05964400991797447,0.15934491157531738,0.08872237801551819,4.1171875,1,"['C1', 'F1', 'J1']",0,None,0,2.1276554186663175,[20700|0|0]
20700,0.8472321629524231,-0.19436763226985931,-0.00935661792755127,-0.049892209470272064,0.15223374962806702,0.09766820818185806,4.1171875,1,"['C1', 'F1', 'J1']",0,None,0,2.1280525231917453,[20800|0|0]
20800,0.8470355868339539,-0.19444359838962555,-0.00928424671292305,-0.04075520858168602,0.1590515375137329,0.12321281433105469,4.1171875,1,"['C1', 'F1', 'J1']",0,None,0,2.1282753473699927,[20900|0|0]
20900,0.8473180532455444,-0.19435568153858185,-0.00913193915039301,-0.04428306594491005,0.1526109129190445,0.13526980578899384,4.1171875,1,"['C1', 'F1', 'J1']",0,None,0,2.12860808486409,[21000|0|0]
21000,0.8468313813209534,-0.1943356990814209,-0.009329977445304394,-0.040871284902095795,0.16671757400035858,0.12025368958711624,4.1171875,1,"['C1', 'F1', 'J1']",0,None,0,2.1291338871339884,[21100|0|0]
21100,0.8470607399940491,-0.1942613273859024,-0.009116063825786114,-0.040394313633441925,0.16004182398319244,0.1147456094622612,4.1171875,1,"['C1', 'F1', 'J1']",0,None,0,2.129456215517216,[21200|0|0]
21200,0.8471879959106445,-0.19457721710205078,-0.009503002278506756,-0.02545206807553768,0.15991486608982086,0.10487541556358337,4.1171875,1,"['C1', 'F1', 'J1']",0,None,0,2.12997167817083,[21300|0|0]
21300,0.8469123840332031,-0.1944039762020111,-0.009179314598441124,-0.02703144960105419,0.16931280493736267,0.084236741065979,4.1171875,1,"['C1', 'F1', 'J1']",0,None,0,2.130430751183171,[21400|0|0]
21400,0.8469936847686768,-0.1945062279701233,-0.009066746570169926,-0.024578498676419258,0.16336607933044434,0.09027343988418579,4.1171875,1,"['C1', 'F1', 'J1']",0,None,0,2.1306031947816586,[21500|0|0]
21500,0.8467869162559509,-0.19456139206886292,-0.009207265451550484,-0.02629711478948593,0.16859538853168488,0.10082976520061493,4.1171875,1,"['C1', 'F1', 'J1']",0,None,0,2.130859206210445,[21600|0|0]
21600,0.8471229672431946,-0.1947050392627716,-0.009535105898976326,-0.024564063176512718,0.1662418395280838,0.10894324630498886,4.1171875,1,"['C1', 'F1', 'J1']",0,None,0,2.131350168674706,[21700|0|0]
21700,0.8467766046524048,-0.19420655071735382,-0.009466721676290035,-0.042904116213321686,0.16860246658325195,0.10985016077756882,4.1171875,1,"['C1', 'F1', 'J1']",0,None,0,2.1319610158537317,[21800|0|0]
21800,0.8469196557998657,-0.19435039162635803,-0.00917788501828909,-0.04225572571158409,0.16420358419418335,0.09929370135068893,4.1171875,1,"['C1', 'F1', 'J1']",0,None,0,2.132313975416427,[21900|0|0]
21900,0.8470273017883301,-0.19410254061222076,-0.009479591622948647,-0.050840962678194046,0.16267909109592438,0.09952498972415924,4.1171875,1,"['C1', 'F1', 'J1']",0,None,0,2.1327189996864857,[22000|0|0]
22000,0.8470554351806641,-0.19431953132152557,-0.009451128542423248,-0.04752185568213463,0.15610958635807037,0.1083197295665741,4.1171875,1,"['C1', 'F1', 'J1']",0,None,0,2.1329396500946927,[22100|0|0]
22100,0.8470830917358398,-0.19425728917121887,-0.009090103209018707,-0.05229558050632477,0.1477140188217163,0.10975924134254456,4.1171875,1,"['C1', 'F1', 'J1']",0,None,0,2.133307043972811,[22200|0|0]
22200,0.8473288416862488,-0.19455988705158234,-0.009781992062926292,-0.06330607086420059,0.14695540070533752,0.11837593466043472,4.1171875,1,"['C1', 'F1', 'J1']",0,None,0,2.1341011904967524,[22300|0|0]
22300,0.8471335768699646,-0.1950148195028305,-0.009257699362933636,-0.047421280294656754,0.1543799489736557,0.11489559710025787,4.1171875,1,"['C1', 'F1', 'J1']",0,None,0,2.134822283222373,[22400|0|0]
22400,0.8470692038536072,-0.19504830241203308,-0.009466288611292839,-0.04791264981031418,0.15512613952159882,0.13368581235408783,4.1171875,1,"['C1', 'F1', 'J1']",0,None,0,2.13504313263934,[22500|0|0]
22500,0.8474478721618652,-0.1946268230676651,-0.00945341307669878,-0.0624217763543129,0.14725571870803833,0.12208418548107147,4.1171875,1,"['C1', 'F1', 'J1']",0,None,0,2.135609878000855,[22600|0|0]
22600,0.8471220135688782,-0.19475595653057098,-0.00947538111358881,-0.06240261346101761,0.15202286839485168,0.13339293003082275,4.1171875,1,"['C1', 'F1', 'J1']",0,None,0,2.135961078610921,[22700|0|0]
22700,0.847146213054657,-0.1943371295928955,-0.009794128127396107,-0.0706729143857956,0.15289486944675446,0.1421191394329071,4.1171875,1,"['C1', 'F1', 'J1']",0,None,0,2.1364879574182813,[22800|0|0]
22800,0.8473577499389648,-0.19480983912944794,-0.009567545726895332,-0.05610426515340805,0.1463373303413391,0.13373826444149017,4.1171875,1,"['C1', 'F1', 'J1']",0,None,0,2.137053237652844,[22900|0|0]
22900,0.8473089933395386,-0.1947309970855713,-0.009266936220228672,-0.057933006435632706,0.1500130593776703,0.12646590173244476,4.1171875,1,"['C1', 'F1', 'J1']",0,None,0,2.137367815702569,[23000|0|0]
23000,0.8472791314125061,-0.1947815716266632,-0.00939614325761795,-0.0586727149784565,0.15391488373279572,0.10922805219888687,4.1171875,1,"['C1', 'F1', 'J1']",0,None,0,2.1375097451829586,[23100|0|0]
23100,0.8474563360214233,-0.19472718238830566,-0.009340868331491947,-0.05624540522694588,0.15445056557655334,0.10228283703327179,4.1171875,1,"['C1', 'F1', 'J1']",0,None,0,2.1377031747053405,[23200|0|0]
23200,0.8473230004310608,-0.1946965754032135,-0.009315069764852524,-0.06765340268611908,0.1488904505968094,0.10510241240262985,4.1171875,1,"['C1', 'F1', 'J1']",0,None,0,2.137842389407274,[23300|0|0]
23300,0.8473710417747498,-0.19477616250514984,-0.009163979440927505,-0.06381143629550934,0.14426521956920624,0.10825268179178238,4.11328125,1,"['C1', 'F1', 'J1']",0,None,0,2.138019788289688,[23400|0|0]
23400,0.8472249507904053,-0.19458642601966858,-0.009401138871908188,-0.06624285876750946,0.15275737643241882,0.11485818773508072,4.1171875,1,"['C1', 'F1', 'J1']",0,None,0,2.1383568151511287,[23500|0|0]
23500,0.8472375273704529,-0.1947617381811142,-0.009662951342761517,-0.06405352801084518,0.15207883715629578,0.1000310406088829,4.1171875,1,"['C1', 'F1', 'J1']",0,None,0,2.13867215353162,[23600|0|0]
23600,0.8473281264305115,-0.19487403333187103,-0.009546048939228058,-0.05897677317261696,0.15079253911972046,0.11024844646453857,4.1171875,1,"['C1', 'F1', 'J1']",0,None,0,2.1388578537268783,[23700|0|0]
23700,0.847226083278656,-0.19451859593391418,-0.009585323743522167,-0.066666379570961,0.15402014553546906,0.08742938935756683,4.1171875,1,"['C1', 'F1', 'J1']",0,None,0,2.1392297287851427,[23800|0|0]
23800,0.8473280072212219,-0.19478891789913177,-0.009438437409698963,-0.062041521072387695,0.15077465772628784,0.08983864635229111,4.1171875,1,"['C1', 'F1', 'J1']",0,None,0,2.1395538245271872,[23900|0|0]
23900,0.8472428321838379,-0.19463862478733063,-0.009513846598565578,-0.06095261126756668,0.15091341733932495,0.0925721600651741,4.1171875,1,"['C1', 'F1', 'J1']",0,None,0,2.1397423168405947,[24000|0|0]
24000,0.8474081158638,-0.194810152053833,-0.00942294578999281,-0.047847818583250046,0.15301965177059174,0.11217217892408371,4.1171875,1,"['C1', 'F1', 'J1']",0,None,0,2.1399972741998035,[24100|0|0]
24100,0.8474862575531006,-0.19459746778011322,-0.009356427006423473,-0.052369147539138794,0.15365546941757202,0.09830497950315475,4.1171875,1,"['C1', 'F1', 'J1']",0,None,0,2.1402334213413527,[24200|0|0]
24200,0.8473435044288635,-0.1946333795785904,-0.009395058266818523,-0.05434668809175491,0.15602287650108337,0.10125574469566345,4.1171875,1,"['C1', 'F1', 'J1']",0,None,0,2.140385607037228,[24300|0|0]
24300,0.8474461436271667,-0.19467531144618988,-0.009239669889211655,-0.053455498069524765,0.16397297382354736,0.10965780168771744,4.1171875,1,"['C1', 'F1', 'J1']",0,None,0,2.140576496100414,[24400|0|0]
24400,0.8476520776748657,-0.19465111196041107,-0.009340772405266762,-0.05476752296090126,0.15982851386070251,0.13742373883724213,4.1171875,1,"['C1', 'F1', 'J1']",0,None,0,2.1408071823936052,[24500|0|0]
24500,0.847609281539917,-0.19467073678970337,-0.009607475250959396,-0.05666748806834221,0.16523189842700958,0.12548640370368958,4.1171875,1,"['C1', 'F1', 'J1']",0,None,0,2.141078009000481,[24600|0|0]
24600,0.8471683859825134,-0.1946951299905777,-0.009924068115651608,-0.05621917173266411,0.17800135910511017,0.13911327719688416,4.1171875,1,"['C1', 'F1', 'J1']",0,None,0,2.1416213458782662,[24700|0|0]
24700,0.8471580743789673,-0.19484205543994904,-0.009306349791586399,-0.04740201681852341,0.18326735496520996,0.11377563327550888,4.1171875,1,"['C1', 'F1', 'J1']",0,None,0,2.142256380794414,[24800|0|0]
24800,0.8472625017166138,-0.1944417506456375,-0.009675617329776287,-0.05829044431447983,0.18444985151290894,0.12181910127401352,4.1171875,1,"['C1', 'F1', 'J1']",0,None,0,2.142810914392997,[24900|0|0]
24900,0.8474606871604919,-0.19487076997756958,-0.009573939256370068,-0.04755084589123726,0.1759224832057953,0.10249391198158264,4.1171875,1,"['C1', 'F1', 'J1']",0,None,0,2.143294312249786,[25000|0|0]
25000,0.8472109436988831,-0.19483423233032227,-0.00931583996862173,-0.05372106656432152,0.17823214828968048,0.10297180712223053,4.1171875,1,"['C1', 'F1', 'J1']",0,None,0,2.1436553136883134,[25100|0|0]
25100,0.8474925756454468,-0.19493775069713593,-0.00939383078366518,-0.04038752615451813,0.17332345247268677,0.11102808266878128,4.1171875,1,"['C1', 'F1', 'J1']",0,None,0,2.1439653381596444,[25200|0|0]
25200,0.8471944332122803,-0.1948234587907791,-0.009141840040683746,-0.03905357047915459,0.17805291712284088,0.10513550043106079,4.1171875,1,"['C1', 'F1', 'J1']",0,None,0,2.1443720947021383,[25300|0|0]
25300,0.847510039806366,-0.19476884603500366,-0.009644933976233006,-0.039348699152469635,0.16905415058135986,0.09342240542173386,4.1171875,1,"['C1', 'F1', 'J1']",0,None,0,2.1449684952246986,[25400|0|0]
25400,0.8472287058830261,-0.19483496248722076,-0.009537889622151852,-0.0353335440158844,0.17144255340099335,0.09583384543657303,4.1171875,1,"['C1', 'F1', 'J1']",0,None,0,2.145276681297415,[25500|0|0]
25500,0.8476678729057312,-0.19488438963890076,-0.009532139636576176,-0.03373069688677788,0.15172995626926422,0.11878497153520584,4.1171875,1,"['C1', 'F1', 'J1']",0,None,0,2.1457186584229415,[25600|0|0]
25600,0.8474194407463074,-0.19473405182361603,-0.00986936129629612,-0.04339796304702759,0.16246052086353302,0.10226552933454514,4.1171875,1,"['C1', 'F1', 'J1']",0,None,0,2.146163673528668,[25700|0|0]
25700,0.8473594784736633,-0.1945980042219162,-0.00965495128184557,-0.048565156757831573,0.16533063352108002,0.10871375352144241,4.1171875,1,"['C1', 'F1', 'J1']",0,None,0,2.1464245874577053,[25800|0|0]
25800,0.8473506569862366,-0.19477814435958862,-0.00985813420265913,-0.04716993123292923,0.16209395229816437,0.09122000634670258,4.11328125,1,"['C1', 'F1', 'J1']",0,None,0,2.146696270337459,[25900|0|0]
25900,0.8471741676330566,-0.19443751871585846,-0.009690521284937859,-0.06260189414024353,0.15565818548202515,0.07265980541706085,4.1171875,1,"['C1', 'F1', 'J1']",0,None,0,2.1471149210404796,[26000|0|0]
26000,0.8471683263778687,-0.19484198093414307,-0.009287763386964798,-0.0508902445435524,0.15117618441581726,0.0758616253733635,4.1171875,1,"['C1', 'F1', 'J1']",0,None,0,2.147685743018562,[26100|0|0]
26100,0.8472709059715271,-0.19497476518154144,-0.009711576625704765,-0.045966774225234985,0.1487070471048355,0.08476600795984268,4.1171875,1,"['C1', 'F1', 'J1']",0,None,0,2.1481415630386613,[26200|0|0]
26200,0.8472115993499756,-0.19446541368961334,-0.009525514207780361,-0.06490067392587662,0.14868630468845367,0.09652651101350784,4.1171875,1,"['C1', 'F1', 'J1']",0,None,0,2.1486870677967094,[26300|0|0]
26300,0.8472040891647339,-0.19467663764953613,-0.010017856024205685,-0.06365843862295151,0.14358805119991302,0.06971730291843414,4.11328125,1,"['C1', 'F1', 'J1']",0,None,0,2.149222859200456,[26400|0|0]
26400,0.8471314311027527,-0.19488480687141418,-0.00936497189104557,-0.055790435522794724,0.15138857066631317,0.06764719635248184,4.1171875,1,"['C1', 'F1', 'J1']",0,None,0,2.1499119682703722,[26500|0|0]
26500,0.8471819162368774,-0.1947871744632721,-0.009363114833831787,-0.05971987545490265,0.16089734435081482,0.07731562107801437,4.1171875,1,"['C1', 'F1', 'J1']",0,None,0,2.150021896813293,[26600|0|0]
26600,0.847108781337738,-0.19479183852672577,-0.00930757261812687,0.08274176716804504,0.267463356256485,0.06672019511461258,4.1171875,1,"['C1', 'F1', 'J1']",0,None,0,2.1501138500877612,[26700|0|0]
26700,0.8471754789352417,-0.19487641751766205,-0.009578578174114227,0.045072272419929504,0.2321639060974121,0.08323559165000916,4.1171875,1,"['C1', 'F1', 'J1']",0,None,0,2.150405476881106,[26800|0|0]
26800,0.8469901084899902,-0.19445882737636566,-0.009521802887320518,0.0035705366171896458,0.2144419252872467,0.06351416558027267,4.1171875,1,"['C1', 'F1', 'J1']",0,None,0,2.1508658757964727,[26900|0|0]
26900,0.8470345139503479,-0.1943279355764389,-0.009682036936283112,-0.022555915638804436,0.18217024207115173,0.09074940532445908,4.1171875,1,"['C1', 'F1', 'J1']",0,None,0,2.151077487371403,[27000|0|0]
27000,0.8473910689353943,-0.19484694302082062,-0.00959003996104002,-0.0177722480148077,0.16750767827033997,0.10241986066102982,4.1171875,1,"['C1', 'F1', 'J1']",0,None,0,2.1517138548973964,[27100|0|0]
27100,0.8473165035247803,-0.19466352462768555,-0.009491187520325184,-0.03352048993110657,0.16770921647548676,0.10133019089698792,4.1171875,1,"['C1', 'F1', 'J1']",0,None,0,2.1519351558518354,[27200|0|0]
27200,0.8472878932952881,-0.19477435946464539,-0.009750877507030964,-0.025046709924936295,0.17881305515766144,0.0913153737783432,4.1171875,1,"['C1', 'F1', 'J1']",0,None,0,2.1522189547163695,[27300|0|0]
27300,0.8478506207466125,-0.1951466053724289,-0.009625795297324657,-0.01840129867196083,0.15117058157920837,0.1042143851518631,4.11328125,1,"['C1', 'F1', 'J1']",0,None,0,2.1529051578637834,[27400|0|0]
27400,0.8479611873626709,-0.1949203610420227,-0.009673433378338814,-0.03461804240942001,0.1510462462902069,0.0912126898765564,4.1171875,1,"['C1', 'F1', 'J1']",0,None,0,2.153161440638059,[27500|0|0]
27500,0.8473238945007324,-0.19450150430202484,-0.00940011627972126,-0.2872787117958069,-0.01991819217801094,0.1044858917593956,4.1171875,1,"['C1', 'F1', 'J1']",0,None,0,2.1539715550725163,[27600|0|0]
27600,0.8471367359161377,-0.1944848895072937,-0.009593972936272621,-0.24049967527389526,0.024255795404314995,0.10239428281784058,4.11328125,1,"['C1', 'F1', 'J1']",0,None,0,2.1542415269052704,[27700|0|0]
27700,0.8477320075035095,-0.1945112645626068,-0.009203462861478329,-0.22510592639446259,0.019499341025948524,0.12728816270828247,4.1171875,1,"['C1', 'F1', 'J1']",0,None,0,2.1549539467427192,[27800|0|0]
27800,0.8474854230880737,-0.1945929229259491,-0.009539591148495674,-0.15363138914108276,0.07201798260211945,0.13976414501667023,4.1171875,1,"['C1', 'F1', 'J1']",0,None,0,2.1553787457393905,[27900|0|0]
27900,0.8474001884460449,-0.19456687569618225,-0.009468615055084229,-0.10846642404794693,0.10596802830696106,0.13054652512073517,4.1171875,1,"['C1', 'F1', 'J1']",0,None,0,2.1554926799669794,[28000|0|0]
28000,0.8474509119987488,-0.19455276429653168,-0.009257280267775059,-0.08323799818754196,0.12557636201381683,0.12924502789974213,4.1171875,1,"['C1', 'F1', 'J1']",0,None,0,2.155710474371696,[28100|0|0]
28100,0.8476380109786987,-0.19496555626392365,-0.009575850330293179,-0.05208161473274231,0.1306082010269165,0.12243442982435226,4.1171875,1,"['C1', 'F1', 'J1']",0,None,0,2.1562644510150437,[28200|0|0]
28200,0.8474017977714539,-0.1947784274816513,-0.009277577511966228,-0.05191216990351677,0.1395723670721054,0.14494441449642181,4.11328125,1,"['C1', 'F1', 'J1']",0,None,0,2.156688456362397,[28300|0|0]
28300,0.8473970293998718,-0.19467534124851227,-0.009732103906571865,-0.05015603452920914,0.14685460925102234,0.12908563017845154,4.11328125,1,"['C1', 'F1', 'J1']",0,None,0,2.1571545505076335,[28400|0|0]
28400,0.847451388835907,-0.1948482245206833,-0.009337524883449078,-0.03925170376896858,0.15426144003868103,0.10518331080675125,4.1171875,1,"['C1', 'F1', 'J1']",0,None,0,2.157588758038166,[28500|0|0]
28500,0.8472827672958374,-0.19440484046936035,-0.009583636187016964,-0.04717221111059189,0.1669013649225235,0.09846906363964081,4.1171875,1,"['C1', 'F1', 'J1']",0,None,0,2.1581231674453503,[28600|0|0]
28600,0.8471694588661194,-0.19482050836086273,-0.009314983151853085,-0.028474770486354828,0.1796063780784607,0.08527852594852448,4.1171875,1,"['C1', 'F1', 'J1']",0,None,0,2.1586309006918234,[28700|0|0]
28700,0.8472916483879089,-0.19477052986621857,-0.009337682276964188,-0.026436910033226013,0.17381048202514648,0.09839529544115067,4.1171875,1,"['C1', 'F1', 'J1']",0,None,0,2.1587648535919146,[28800|0|0]
28800,0.8472496867179871,-0.19462892413139343,-0.009156707674264908,-0.026379158720374107,0.1755763441324234,0.1025124117732048,4.11328125,1,"['C1', 'F1', 'J1']",0,None,0,2.1589984446292,[28900|0|0]
28900,0.8395251035690308,-0.2043582648038864,-0.01264098659157753,0.2842998206615448,0.407389372587204,0.057923395186662674,4.1171875,1,"['C1', 'F1', 'J1']",0,None,0,2.1719007488544224,[29000|0|0]
29000,0.8395481705665588,-0.20485682785511017,-0.012206400744616985,0.28659939765930176,0.39998573064804077,0.07071884721517563,4.1171875,1,"['C1', 'F1', 'J1']",0,None,0,2.1725625358751466,[29100|0|0]
29100,0.8391196131706238,-0.2044948935508728,-0.012519135139882565,0.2760496735572815,0.41134703159332275,0.06041011959314346,4.1171875,1,"['C1', 'F1', 'J1']",0,None,0,2.1732047668960233,[29200|0|0]
29200,0.8392758965492249,-0.20460115373134613,-0.012255363166332245,0.2742287218570709,0.3984512686729431,0.06954628974199295,4.1171875,1,"['C1', 'F1', 'J1']",0,None,0,2.1735292532199444,[29300|0|0]
29300,0.8390873670578003,-0.20447523891925812,-0.012633618898689747,0.26308172941207886,0.3965756297111511,0.0837828740477562,4.11328125,1,"['C1', 'F1', 'J1']",0,None,0,2.173970246766497,[29400|0|0]
29400,0.8390933871269226,-0.2044803947210312,-0.012633228674530983,0.2654553949832916,0.3880349397659302,0.08392689377069473,4.11328125,1,"['C1', 'F1', 'J1']",0,None,0,2.173978182495768,[29500|0|0]
29500,0.8392539620399475,-0.2044447660446167,-0.012865724973380566,0.2689257264137268,0.3871533274650574,0.08701886981725693,4.1171875,1,"['C1', 'F1', 'J1']",0,None,0,2.1742629775699083,[29600|0|0]
29600,0.8395869731903076,-0.2046642005443573,-0.012541567906737328,0.2745078504085541,0.3743897080421448,0.08709082752466202,4.11328125,1,"['C1', 'F1', 'J1']",0,None,0,2.174776909209132,[29700|0|0]
29700,0.8393215537071228,-0.20473383367061615,-0.012740569189190865,0.27388203144073486,0.3781294524669647,0.08932047337293625,4.1171875,1,"['C1', 'F1', 'J1']",0,None,0,2.1751158749666133,[29800|0|0]
