time.ms,stateEstimate.x,stateEstimate.y,stateEstimate.z,stabilizer.roll,stabilizer.pitch,stabilizer.yaw,pm.vbat,drone_id,node_name,wind_speed,global_wind_direction,relative_wind_direction,travel_dist,waiting_time,curr_node_role
0,0.6376873254776001,0.3918321132659912,0.0,-0.5777159333229065,0.7279821038246155,-2.3695788383483887,4.1171875,0,F2,6.1,90,270.0,0.0,[6200|0|0],start
100,0.6374872326850891,0.3917391002178192,0.0,-0.5751779675483704,0.7390817999839783,-2.3764688968658447,4.1171875,0,F2,6.1,90,270.0,0.0002206548271511,[6300|0|0],start
200,0.6376842856407166,0.3915897011756897,0.0,-0.5633291006088257,0.737750232219696,-2.376091718673706,4.1171875,0,F2,6.1,90,270.0,0.0004679399684571,[6400|0|0],start
300,0.6380621194839478,0.3915917575359344,0.0,-0.5647830367088318,0.730842649936676,-2.374437093734741,4.11328125,0,F2,6.1,90,270.0,0.0008457794075159,[6500|0|0],start
400,0.6375673413276672,0.3917956352233886,0.0,-0.5687394142150879,0.7528781294822693,-2.3746278285980225,4.1171875,0,F2,6.1,90,270.0,0.0013809163389401,[6600|0|0],start
500,0.6377595067024231,0.3917813599109649,0.0,-0.5726054310798645,0.7470443844795227,-2.382655620574951,4.1171875,0,F2,6.1,90,270.0,0.0015736112164014,[6700|0|0],start
600,0.6376942992210388,0.3916688561439514,0.0,-0.5679509043693542,0.7518535256385803,-2.371143817901612,4.1171875,0,F2,6.1,90,270.0,0.0017036462625263,[6800|0|0],start
700,0.6378257274627686,0.391673743724823,0.0,-0.5661733746528625,0.7501004338264465,-2.364245653152466,4.1171875,0,F2,6.1,90,270.0,0.0018351653530453,[6900|0|0],start
800,0.6375555396080017,0.3917032778263092,0.0,-0.5674136281013489,0.7496078014373779,-2.3655056953430176,4.1171875,0,F2,6.1,90,270.0,0.0021069625936754,[7000|0|0],start
900,0.6379717588424683,0.391562819480896,0.0,-0.6420493125915527,0.6959526538848877,-2.367960453033448,4.1171875,0,F2,6.1,90,270.0,0.0025462426842055,[7100|0|0],start
1000,0.6378346681594849,0.3919796645641327,0.0,-0.6375014185905457,0.7053679823875427,-2.3657593727111816,4.1171875,0,F2,6.1,90,270.0,0.0029850520719577,[7200|0|0],start
1100,0.6375665068626404,0.3917356729507446,0.0,-0.6224924325942993,0.715595543384552,-2.3568103313446045,4.1171875,0,F2,6.1,90,270.0,0.003347601914778,[7300|0|0],start
1200,0.6375715136528015,0.3921055495738983,0.0,-0.6262729167938232,0.7153486013412476,-2.3488659858703613,4.1171875,0,F2,6.1,90,270.0,0.0037175124232843,[7400|0|0],start
1300,0.6379575133323669,0.3917474150657654,0.0,-0.6175771951675415,0.7042131423950195,-2.3649137020111084,4.11328125,0,F2,6.1,90,270.0,0.0042440635400244,[7500|0|0],start
1400,0.6380334496498108,0.3915677368640899,0.0,-0.613437294960022,0.7056923508644104,-2.352113485336304,4.1171875,0,F2,6.1,90,270.0,0.0044391291199309,[7600|0|0],start
1500,0.638014018535614,0.3916016519069671,0.0,-0.6139091849327087,0.7094631791114807,-2.357513427734375,4.1171875,0,F2,6.1,90,270.0,0.0044782161808627,[7700|0|0],start
1600,0.637833297252655,0.3916776180267334,0.0,-0.618539035320282,0.7243919968605042,-2.3459935188293457,4.1171875,0,F2,6.1,90,270.0,0.0046742545277918,[7800|0|0],start
1700,0.6377782821655273,0.3919041156768799,0.0,-0.6302286386489868,0.7190201878547668,-2.364206075668335,4.1171875,0,F2,6.1,90,270.0,0.0049073378719705,[7900|0|0],start
1800,0.6377158164978027,0.3919371664524078,0.0,-0.6286605000495911,0.7158268690109253,-2.37017822265625,4.11328125,0,F2,6.1,90,270.0,0.004978008328367,[8000|0|0],start
1900,0.6378505229949951,0.3919516503810882,0.0,-0.6289163827896118,0.7075068354606628,-2.371338367462158,4.1171875,0,F2,6.1,90,270.0,0.0051134912593061,[8100|0|0],start
2000,0.6379348039627075,0.3917291164398193,0.0,-0.6194345951080322,0.7070750594139099,-2.37947154045105,4.1171875,0,F2,6.1,90,270.0,0.0053514505762811,[8200|0|0],start
2100,0.6375780701637268,0.3917108178138733,0.0,-0.6164153814315796,0.7200886011123657,-2.375088691711426,4.11328125,0,F2,6.1,90,270.0,0.0057086533800869,[8300|0|0],start
2200,0.6380043029785156,0.3917916417121887,0.0,-0.6664344072341919,0.6870678067207336,-2.364171266555786,4.1171875,0,F2,6.1,90,270.0,0.0061424815891071,[8400|0|0],start
2300,0.6380367875099182,0.3914477825164795,0.0,-0.6459464430809021,0.7005639672279358,-2.3783016204833984,4.11328125,0,F2,6.1,90,270.0,0.0064878717905522,[8500|0|0],start
2400,0.6380029916763306,0.3919868767261505,0.0,-0.6490044593811035,0.7163993120193481,-2.375652551651001,4.1171875,0,F2,6.1,90,270.0,0.007028024292415,[8600|0|0],start
2500,0.63779616355896,0.3914285004138946,0.0,-0.6273016929626465,0.7233047485351562,-2.378625869750977,4.1171875,0,F2,6.1,90,270.0,0.0076234753619611,[8700|0|0],start
2600,0.6376909017562866,0.3919484317302704,0.0,-0.6355191469192505,0.7274585962295532,-2.3796255588531494,4.1171875,0,F2,6.1,90,270.0,0.008153954975943,[8800|0|0],start
2700,0.6378120183944702,0.3917489945888519,0.0,-0.6267600655555725,0.7269259095191956,-2.354777812957764,4.1171875,0,F2,6.1,90,270.0,0.0083872882427998,[8900|0|0],start
2800,0.6374911069869995,0.3920160830020904,0.0,-0.6324526071548462,0.7359171509742737,-2.3569674491882324,4.11328125,0,F2,6.1,90,270.0,0.0088048051309985,[9000|0|0],start
2900,0.6377618312835693,0.3916966617107391,0.0,-0.6212567090988159,0.7321070432662964,-2.3526687622070312,4.1171875,0,F2,6.1,90,270.0,0.0092235193606609,[9100|0|0],start
3000,0.6376514434814453,0.3917510509490967,0.0,-0.6220762133598328,0.7345160841941833,-2.353907823562622,4.1171875,0,F2,6.1,90,270.0,0.0093465789239093,[9200|0|0],start
3100,0.6375404596328735,0.391957014799118,0.0,-0.6330757141113281,0.7363100647926331,-2.3510963916778564,4.1171875,0,F2,6.1,90,270.0,0.0095805415751154,[9300|0|0],start
3200,0.6381032466888428,0.3916502296924591,0.0,-0.6270888447761536,0.7241554856300354,-2.3638172149658203,4.11328125,0,F2,6.1,90,270.0,0.0102215145636525,[9400|0|0],start
3300,0.637495756149292,0.3920966684818268,0.0,-0.5325352549552917,0.8028532862663269,-2.3614819049835205,4.11328125,0,F2,6.1,90,270.0,0.0109754060334914,[9500|0|0],start
3400,0.6379421353340149,0.3915081620216369,0.0,-0.5323396325111389,0.7741838693618774,-2.3648178577423096,4.1171875,0,F2,6.1,90,270.0,0.01171404954036,[9600|0|0],start
3500,0.6378353834152222,0.3916797637939453,0.0,-0.5532819032669067,0.7653741240501404,-2.363854169845581,4.1171875,0,F2,6.1,90,270.0,0.0119161463993789,[9700|0|0],start
3600,0.6378046274185181,0.3916905224323272,0.0,-0.5624291896820068,0.7634614706039429,-2.358529806137085,4.1171875,0,F2,6.1,90,270.0,0.011948729825121,[9800|0|0],start
3700,0.6379348635673523,0.3914925456047058,0.0,-0.5615964531898499,0.75693279504776,-2.3590333461761475,4.11328125,0,F2,6.1,90,270.0,0.0121857029854962,[9900|0|0],start
3800,0.6378394961357117,0.3918870389461517,0.0,-0.5722822546958923,0.7564946413040161,-2.3620247840881348,4.11328125,0,F2,6.1,90,270.0,0.0125915600335598,[10000|0|0],start
3900,0.6375581622123718,0.3915495574474334,0.0,-0.5748977065086365,0.7556737065315247,-2.353159189224243,4.1171875,0,F2,6.1,90,270.0,0.013030926097792,[10100|0|0],start
4000,0.6378893852233887,0.391480416059494,0.0,-0.578316330909729,0.7455431222915649,-2.3442955017089844,4.11328125,0,F2,6.1,90,270.0,0.0133692886467735,[10200|0|0],start
4100,0.6377255916595459,0.3916935324668884,0.0,-0.5884595513343811,0.7493234276771545,-2.3729403018951416,4.11328125,0,F2,6.1,90,270.0,0.0136380765457887,[10300|0|0],start
4200,0.6376458406448364,0.3915622532367706,0.0,-0.5859113931655884,0.744227409362793,-2.386338710784912,4.11328125,0,F2,6.1,90,270.0,0.0137916814305012,[10400|0|0],start
4300,0.6378836035728455,0.3917513787746429,0.0,-0.5948948264122009,0.7386757731437683,-2.381556749343872,4.11328125,0,F2,6.1,90,270.0,0.0140954900528458,[10500|0|0],start
4400,0.6379729509353638,0.3916344344615936,0.0,-0.5896187424659729,0.7367032170295715,-2.373052835464477,4.1171875,0,F2,6.1,90,270.0,0.0142426597628528,[10600|0|0],start
4500,0.6377676129341125,0.3917896747589111,0.0,-0.5912774801254272,0.7490467429161072,-2.382072687149048,4.1171875,0,F2,6.1,90,270.0,0.0145000762438113,[10700|0|0],start
4600,0.6374678611755371,0.3917731046676636,0.0,-0.594430148601532,0.7560383677482605,-2.3814074993133545,4.1171875,0,F2,6.1,90,270.0,0.0148002856452181,[10800|0|0],start
4700,0.6381887197494507,0.3913536667823791,0.0,-0.5843403935432434,0.7340154051780701,-2.3793282508850098,4.1171875,0,F2,6.1,90,270.0,0.0156342911746942,[10900|0|0],start
4800,0.6376465559005737,0.3917053937911987,0.0,-0.5920172929763794,0.7552770972251892,-2.36049222946167,4.11328125,0,F2,6.1,90,270.0,0.0162805523662895,[11000|0|0],start
4900,0.6377460360527039,0.3916336596012115,0.0,-0.5902073383331299,0.7547888159751892,-2.355987787246704,4.1171875,0,F2,6.1,90,270.0,0.0164031985838462,[11100|0|0],start
5000,0.637740433216095,0.3917874991893768,0.0,-0.5917380452156067,0.756783127784729,-2.362046957015991,4.11328125,0,F2,6.1,90,270.0,0.016557140165834,[11200|0|0],start
5100,0.6377806663513184,0.3919584453105926,0.0,-0.5980405211448669,0.7585546970367432,-2.36977219581604,4.11328125,0,F2,6.1,90,270.0,0.0167327570258693,[11300|0|0],start
5200,0.6376100182533264,0.3915443122386932,0.0,-0.5842313766479492,0.7613503932952881,-2.376256227493286,4.1171875,0,F2,6.1,90,270.0,0.0171806710517594,[11400|0|0],start
5300,0.6377636194229126,0.3914126455783844,0.0,-0.5779030323028564,0.754509449005127,-2.3949978351593018,4.11328125,0,F2,6.1,90,270.0,0.0173829812807028,[11500|0|0],start
5400,0.6376015543937683,0.3921346366405487,0.0,-0.5914285182952881,0.7613001465797424,-2.392896890640259,4.11328125,0,F2,6.1,90,270.0,0.0181229381493895,[11600|0|0],start
5500,0.6378470659255981,0.3917310833930969,0.0,-0.5820907950401306,0.7461509108543396,-2.3906960487365723,4.11328125,0,F2,6.1,90,270.0,0.0185953057348463,[11700|0|0],start
5600,0.6377729177474976,0.391562283039093,0.0,-0.5722299218177795,0.7516399025917053,-2.37185287475586,4.1171875,0,F2,6.1,90,270.0,0.0187796736057661,[11800|0|0],start
5700,0.6374728679656982,0.3918737769126892,0.0,-0.574171245098114,0.7561712861061096,-2.378726005554199,4.1171875,0,F2,6.1,90,270.0,0.0192121759813038,[11900|0|0],start
5800,0.6377338767051697,0.3913258910179138,0.0,-0.5578710436820984,0.7493326663970947,-2.370856523513794,4.11328125,0,F2,6.1,90,270.0,0.0198190569546209,[12000|0|0],start
5900,0.6378540992736816,0.3915261924266815,0.0,-0.5627028346061707,0.7428596019744873,-2.3710198402404785,4.1171875,0,F2,6.1,90,270.0,0.0200526679995951,[12100|0|0],start
6000,0.6377187371253967,0.3916327655315399,0.0,-0.5669986605644226,0.7450888752937317,-2.368239164352417,4.11328125,0,F2,6.1,90,270.0,0.0202249489848125,[12200|0|0],start
6100,0.6374809145927429,0.391575425863266,0.0,-0.56590336561203,0.7500941753387451,-2.353387355804444,4.1171875,0,F2,6.1,90,270.0,0.0204695862562893,[12300|0|0],start
6200,0.6379431486129761,0.3916268050670624,0.0,-0.6440659165382385,0.6982402801513672,-2.370312213897705,4.11328125,0,F2,6.1,90,270.0,0.0209346670149148,[12400|0|0],start
6300,0.6378559470176697,0.3917192816734314,0.0,-0.6393142342567444,0.7159551978111267,-2.3541042804718018,4.11328125,0,F2,6.1,90,270.0,0.0210617734307619,[12500|0|0],start
6400,0.6377137899398804,0.3918515741825104,0.0,-0.6310699582099915,0.7216541171073914,-2.3703653812408447,4.11328125,0,F2,6.1,90,270.0,0.0212559639112805,[12600|0|0],start
6500,0.637963056564331,0.3915822505950928,0.0,-0.6098230481147766,0.725339412689209,-2.3798036575317383,4.1171875,0,F2,6.1,90,270.0,0.0216229367233586,[12700|0|0],start
6600,0.6382356882095337,0.3916637301445007,0.0,-0.6021915078163147,0.725476086139679,-2.3792073726654053,4.11328125,0,F2,6.1,90,270.0,0.0219074836104222,[12800|0|0],start
6700,0.6379556059837341,0.3915719985961914,0.0,-0.6014720797538757,0.7356602549552917,-2.3838815689086914,4.1171875,0,F2,6.1,90,270.0,0.0222022050554581,[12900|0|0],start
6800,0.6381636261940002,0.391271024942398,0.0,-0.5958775281906128,0.734916090965271,-2.3736705780029297,4.11328125,0,F2,6.1,90,270.0,0.0225680705336833,[13000|0|0],start
6900,0.6379976272583008,0.3920294344425201,0.0,-0.6244415640830994,0.7308366298675537,-2.3696157932281494,4.11328125,0,F2,6.1,90,270.0,0.023344434247756,[13100|0|0],start
7000,0.6379201412200928,0.3917140066623688,0.0,-0.6149052381515503,0.7317056655883789,-2.3659822940826416,4.1171875,0,F2,6.1,90,270.0,0.0236692399906368,[13200|0|0],start
7100,0.6381214261054993,0.3917629420757293,0.0,-0.617422342300415,0.7197922468185425,-2.3607962131500244,4.1171875,0,F2,6.1,90,270.0,0.0238763879565304,[13300|0|0],start
7200,0.6380723714828491,0.3919887244701385,0.0,-0.6220078468322754,0.7201948761940002,-2.3551254272460938,4.11328125,0,F2,6.1,90,270.0,0.0241074378334585,[13400|0|0],start
7300,0.6377075910568237,0.3918529450893402,0.0,-0.615471601486206,0.7267549633979797,-2.352144479751587,4.11328125,0,F2,6.1,90,270.0,0.0244966688695556,[13500|0|0],start
7400,0.6380332112312317,0.391483873128891,0.0,-0.6067436933517456,0.7165797352790833,-2.3738930225372314,4.1171875,0,F2,6.1,90,270.0,0.0249888503502833,[13600|0|0],start
7500,0.638076663017273,0.391599178314209,0.0,-0.6024141311645508,0.7195332050323486,-2.379804372787476,4.11328125,0,F2,6.1,90,270.0,0.025112071060683,[13700|0|0],start
7600,0.6379320025444031,0.3915940523147583,0.0,-0.6010608077049255,0.7215874195098877,-2.375081777572632,4.1171875,0,F2,6.1,90,270.0,0.0252568223241707,[13800|0|0],start
7700,0.6378712058067322,0.3918330371379852,0.0,-0.6138526797294617,0.7223165035247803,-2.3548526763916016,4.11328125,0,F2,6.1,90,270.0,0.0255034191389194,[13900|0|0],start
7800,0.6380176544189453,0.3918921053409576,0.0,-0.6127644777297974,0.7211043834686279,-2.363006353378296,4.11328125,0,F2,6.1,90,270.0,0.0256613312936813,[14000|0|0],start
7900,0.6381558179855347,0.391898363828659,0.0,-0.6082264184951782,0.7177075147628784,-2.365318536758423,4.11328125,0,F2,6.1,90,270.0,0.0257996365350896,[14100|0|0],start
8000,0.6380419731140137,0.3915812373161316,0.0,-0.6040067672729492,0.7226948738098145,-2.361661195755005,4.1171875,0,F2,6.1,90,270.0,0.0261365784881311,[14200|0|0],start
8100,0.637966513633728,0.3919189572334289,0.0,-0.6192004680633545,0.7245312333106995,-2.349493980407715,4.1171875,0,F2,6.1,90,270.0,0.0264826259931131,[14300|0|0],start
8200,0.6382399201393127,0.3916234970092773,0.0,-0.6193469762802124,0.7136750817298889,-2.362790584564209,4.11328125,0,F2,6.1,90,270.0,0.0268851776809145,[14400|0|0],start
8300,0.6380318999290466,0.3917124271392822,0.0,-0.6138842701911926,0.7184820175170898,-2.359743595123291,4.11328125,0,F2,6.1,90,270.0,0.0271114098092735,[14500|0|0],start
8400,0.6381487250328064,0.3917677998542785,0.0,-0.6194578409194946,0.7224598526954651,-2.371453285217285,4.1171875,0,F2,6.1,90,270.0,0.0272406933829963,[14600|0|0],start
8500,0.6379299759864807,0.3919320404529571,0.0,-0.6229586005210876,0.7291306853294373,-2.363086938858032,4.11328125,0,F2,6.1,90,270.0,0.0275142370166687,[14700|0|0],start
8600,0.6378811001777649,0.3917685747146606,0.0,-0.620710551738739,0.7280172109603882,-2.382521867752075,4.11328125,0,F2,6.1,90,270.0,0.0276848532300673,[14800|0|0],start
8700,0.637787938117981,0.391834944486618,0.0,-0.6161149144172668,0.7213193774223328,-2.381245374679565,4.11328125,0,F2,6.1,90,270.0,0.0277992390509231,[14900|0|0],start
8800,0.638171374797821,0.391855239868164,0.0,-0.6220993399620056,0.7085914015769958,-2.3912839889526367,4.11328125,0,F2,6.1,90,270.0,0.028183212474429,[15000|0|0],start
8900,0.6379861235618591,0.3917551040649414,0.0,-0.6223183870315552,0.7119045257568359,-2.3736705780029297,4.1171875,0,F2,6.1,90,270.0,0.028393795473535,[15100|0|0],start
9000,0.6380084753036499,0.391607254743576,0.0,-0.6218630075454712,0.7143391966819763,-2.376802921295166,4.1171875,0,F2,6.1,90,270.0,0.0285433248090825,[15200|0|0],start
9100,0.6380687952041626,0.3919456601142883,0.0,-0.6365144848823547,0.7129130959510803,-2.3655107021331787,4.11328125,0,F2,6.1,90,270.0,0.0288870640784784,[15300|0|0],start
9200,0.6379342079162598,0.3917457163333893,0.0,-0.6348151564598083,0.7170988321304321,-2.387603044509888,4.11328125,0,F2,6.1,90,270.0,0.029128085350538,[15400|0|0],start
9300,0.637933611869812,0.3918386697769165,0.0,-0.6325576901435852,0.7146205306053162,-2.360215902328491,4.11328125,0,F2,6.1,90,270.0,0.0292210407050633,[15500|0|0],start
9400,0.6378812789916992,0.3917376399040222,0.0,-0.625856876373291,0.7131384611129761,-2.351870536804199,4.11328125,0,F2,6.1,90,270.0,0.0293348201643194,[15600|0|0],start
9500,0.6378499865531921,0.3913031220436096,0.0,-0.5945262312889099,0.7240630984306335,-2.3681256771087646,4.11328125,0,F2,6.1,90,270.0,0.029770463352864,[15700|0|0],start
9600,0.6375002861022949,0.3916930854320526,0.0,-0.6131064891815186,0.7283243536949158,-2.3641064167022705,4.11328125,0,F2,6.1,90,270.0,0.0302942589711004,[15800|0|0],start
9700,0.637843132019043,0.3914925158023834,0.0,-0.6227754950523376,0.7097840309143066,-2.3620247840881348,4.11328125,0,F2,6.1,90,270.0,0.0306914635770359,[15900|0|0],start
9800,0.6375904679298401,0.3917831480503082,0.0,-0.640160083770752,0.7116939425468445,-2.353802442550659,4.11328125,0,F2,6.1,90,270.0,0.0310765690762262,[16000|0|0],start
9900,0.637814998626709,0.391363263130188,0.0,-0.6365617513656616,0.7003035545349121,-2.365626096725464,4.11328125,0,F2,6.1,90,270.0,0.0315527175614498,[16100|0|0],start
10000,0.6379184126853943,0.3914370536804199,0.0,-0.6369795203208923,0.6968510746955872,-2.377396821975708,4.11328125,0,F2,6.1,90,270.0,0.0316797589438309,[16200|0|0],start
10100,0.6379273533821106,0.3913123905658722,0.0,-0.639225423336029,0.6918474435806274,-2.3766884803771973,4.1171875,0,F2,6.1,90,270.0,0.031804742255463,[16300|0|0],start
10200,0.6379586458206177,0.3919307291507721,0.0,-0.6564099788665771,0.6974362134933472,-2.388811588287353,4.11328125,0,F2,6.1,90,270.0,0.0324238721467489,[16400|0|0],start
10300,0.6379848122596741,0.3913957178592682,0.0,-0.6468613743782043,0.7010207176208496,-2.386803388595581,4.11328125,0,F2,6.1,90,270.0,0.0329595229327743,[16500|0|0],start
10400,0.6380749940872192,0.3915914595127105,0.0,-0.6464026570320129,0.7005526423454285,-2.3978912830352783,4.11328125,0,F2,6.1,90,270.0,0.0331750398854989,[16600|0|0],start
10500,0.6379217505455017,0.3912513852119446,0.0,-0.6393523812294006,0.6972241401672363,-2.3848354816436768,4.1171875,0,F2,6.1,90,270.0,0.0335480467394836,[16700|0|0],start
10600,0.6381612420082092,0.3915863335132599,0.0,-0.64621502161026,0.6889718770980835,-2.3763961791992188,4.11328125,0,F2,6.1,90,270.0,0.0339598070159356,[16800|0|0],start
10700,0.6378628015518188,0.3916053175926208,0.0,-0.6482990980148315,0.6994121074676514,-2.382563352584839,4.1171875,0,F2,6.1,90,270.0,0.0342588506603751,[16900|0|0],start
10800,0.6380459070205688,0.3917613923549652,0.0,-0.6465365290641785,0.6870450973510742,-2.35627818107605,4.11328125,0,F2,6.1,90,270.0,0.0344994477179777,[17000|0|0],start
10900,0.6382076144218445,0.3916336596012115,0.0,-0.6430665254592896,0.6877483129501343,-2.3589389324188232,4.11328125,0,F2,6.1,90,270.0,0.0347055179487459,[17100|0|0],start
11000,0.637938916683197,0.3914833962917328,0.0,-0.6399247646331787,0.6970561742782593,-2.351877927780152,4.11328125,0,F2,6.1,90,270.0,0.0350133775546212,[17200|0|0],start
11100,0.6380137205123901,0.3913832604885101,0.0,-0.6415300369262695,0.6941437125205994,-2.354190826416016,4.1171875,0,F2,6.1,90,270.0,0.0351383687221052,[17300|0|0],start
11200,0.6378965377807617,0.3916207253932953,0.0,-0.6466846466064453,0.6943114399909973,-2.3473446369171143,4.11328125,0,F2,6.1,90,270.0,0.0354031731284065,[17400|0|0],start
11300,0.6378201246261597,0.3916462957859039,0.0,-0.6452846527099609,0.6958295702934265,-2.358236789703369,4.11328125,0,F2,6.1,90,270.0,0.0354837511351725,[17500|0|0],start
11400,0.6378041505813599,0.3915965557098388,0.0,-0.6453388333320618,0.7029018402099609,-2.3656156063079834,4.1171875,0,F2,6.1,90,270.0,0.0355359933142449,[17600|0|0],start
11500,0.6379110813140869,0.3914796411991119,0.0,-0.6432713270187378,0.6979814171791077,-2.345799207687378,4.11328125,0,F2,6.1,90,270.0,0.0356944331590443,[17700|0|0],start
11600,0.6380459666252136,0.3916394114494324,0.0,-0.6433389782905579,0.6911863684654236,-2.354756593704224,4.1171875,0,F2,6.1,90,270.0,0.0359035278267076,[17800|0|0],start
11700,0.6376405954360962,0.3916546404361725,0.0,-0.6447204947471619,0.7028511762619019,-2.3652467727661133,4.11328125,0,F2,6.1,90,270.0,0.0363091849762854,[17900|0|0],start
11800,0.6380162835121155,0.3916337490081787,0.0,-0.6464117169380188,0.6962944865226746,-2.3946118354797363,4.11328125,0,F2,6.1,90,270.0,0.0366854534738064,[18000|0|0],start
11900,0.6407911777496338,0.3960248529911041,0.0,-0.7207227349281311,0.6232869625091553,-2.3717575073242188,4.11328125,0,F2,6.1,90,270.0,0.0418798574067207,[18100|0|0],start
12000,0.6408602595329285,0.3959440290927887,0.0,-0.7154726982116699,0.6257431507110596,-2.341248750686645,4.11328125,0,F2,6.1,90,270.0,0.0419861814177534,[18200|0|0],start
12100,0.6411374807357788,0.3961475193500519,0.0,-0.7211043238639832,0.6150990724563599,-2.3460071086883545,4.11328125,0,F2,6.1,90,270.0,0.0423300707605816,[18300|0|0],start
12200,0.6412397623062134,0.3961053192615509,0.0,-0.7192764282226562,0.6098675727844238,-2.359135866165161,4.11328125,0,F2,6.1,90,270.0,0.0424407159914777,[18400|0|0],start
12300,0.6378706097602844,0.3914007246494293,0.0,-0.6323493719100952,0.6984553337097168,-2.3757309913635254,4.11328125,0,F2,6.1,90,270.0,0.0482272865943601,[18500|0|0],start
12400,0.6410696506500244,0.3962931334972381,0.0,-0.7259137034416199,0.6182956099510193,-2.345477819442749,4.11328125,0,F2,6.1,90,270.0,0.0540727572296765,[18600|0|0],start
12500,0.6408472657203674,0.3961626291275024,0.0,-0.7418615221977234,0.6109864115715027,-2.3429436683654785,4.11328125,0,F2,6.1,90,270.0,0.0543306068902515,[18700|0|0],start
12600,0.6409983038902283,0.3962834477424621,0.0,-0.7282630801200867,0.6193957924842834,-2.3400113582611084,4.11328125,0,F2,6.1,90,270.0,0.0545240226767729,[18800|0|0],start
12700,0.6410081386566162,0.3964147269725799,0.0,-0.7176417708396912,0.626022219657898,-2.332475423812866,4.1171875,0,F2,6.1,90,270.0,0.0546556697765899,[18900|0|0],start
12800,0.6410797834396362,0.3962708115577698,0.0,-0.701133131980896,0.6355217695236206,-2.3326377868652344,4.11328125,0,F2,6.1,90,270.0,0.0548164324014564,[19000|0|0],start
12900,0.6409083604812622,0.3965166509151459,0.0,-0.6999745965003967,0.651188313961029,-2.321897029876709,4.11328125,0,F2,6.1,90,270.0,0.0551161369564648,[19100|0|0],start
13000,0.6410639882087708,0.3960728645324707,0.0,-0.6849517822265625,0.6463870406150818,-2.339860439300537,4.11328125,0,F2,6.1,90,270.0,0.0555864202147437,[19200|0|0],start
13101,0.6414118409156799,0.3963678777217865,0.0,-0.6932280659675598,0.6429016590118408,-2.354852199554444,4.11328125,0,F2,6.1,90,270.0,0.0560425279734744,[19300|0|0],start
13200,0.6409441232681274,0.3966135084629059,0.0,-0.8026002049446106,0.590931236743927,-2.3486099243164062,4.1171875,0,F2,6.1,90,270.0,0.0565708216974716,[19400|0|0],start
13300,0.6410136818885803,0.3961341977119446,0.0,-0.7696025967597961,0.6102355122566223,-2.363380193710327,4.11328125,0,F2,6.1,90,270.0,0.0570551533995792,[19500|0|0],start
13400,0.6410627961158752,0.3961837887763977,0.0,-0.7466045022010803,0.6298754811286926,-2.361673355102539,4.11328125,0,F2,6.1,90,270.0,0.0571249493951403,[19600|0|0],start
13500,0.6410501599311829,0.3960790038108825,0.0,-0.7192173600196838,0.6456435918807983,-2.3576109409332275,4.1171875,0,F2,6.1,90,270.0,0.0572304935193804,[19700|0|0],start
13601,0.6407184600830078,0.3962222337722778,0.0,-0.7129823565483093,0.6637037396430969,-2.367647647857666,4.11328125,0,F2,6.1,90,270.0,0.0575917961779931,[19800|0|0],start
13701,0.6407241821289062,0.396136611700058,0.0,-0.6471974849700928,0.706143319606781,-2.357513904571533,4.11328125,0,F2,6.1,90,270.0,0.0576776092367923,[19900|0|0],start
13801,0.6406483054161072,0.3960728049278259,0.0,-0.660478949546814,0.7049571871757507,-2.35793685913086,4.11328125,0,F2,6.1,90,270.0,0.0577767484304942,[20000|0|0],start
13901,0.640956699848175,0.3963838517665863,0.0,-0.6785123348236084,0.6963366270065308,-2.3615312576293945,4.11328125,0,F2,6.1,90,270.0,0.0582147635690834,[20100|0|0],start
14001,0.6410561800003052,0.3963170349597931,0.0,-0.6899185180664062,0.6881123781204224,-2.365917921066284,4.1171875,0,F2,6.1,90,270.0,0.0583346000674379,[20200|0|0],start
14102,0.6407505869865417,0.396376371383667,0.0,-0.6953587532043457,0.6885057091712952,-2.380861282348633,4.11328125,0,F2,6.1,90,270.0,0.0586459004067554,[20300|0|0],start
14201,0.6406803131103516,0.3963129818439483,0.0,-0.6955791711807251,0.6819292306900024,-2.3655812740325928,4.11328125,0,F2,6.1,90,270.0,0.0587405399937185,[20400|0|0],start
14301,0.6407356262207031,0.3961289227008819,0.0,-0.6959613561630249,0.6767951250076294,-2.357484102249145,4.11328125,0,F2,6.1,90,270.0,0.0589327308059939,[20500|0|0],start
14402,0.6408735513687134,0.3963430225849151,0.0,-0.7045422792434692,0.6704099774360657,-2.355006694793701,4.11328125,0,F2,6.1,90,270.0,0.059187411207275,[20600|0|0],start
14501,0.6408990621566772,0.3960670530796051,0.0,-0.7034052014350891,0.6626060605049133,-2.354798078536988,4.11328125,0,F2,6.1,90,270.0,0.0594645573206585,[20700|0|0],start
14602,0.6410341262817383,0.3960846662521362,0.0,-0.7013012170791626,0.6579684615135193,-2.353645086288452,4.11328125,0,F2,6.1,90,270.0,0.0596007650360241,[20800|0|0],start
14702,0.6409235596656799,0.3963283896446228,0.0,-0.707834005355835,0.6606120467185974,-2.362743139266968,4.1171875,0,F2,6.1,90,270.0,0.0598683955063218,[20900|0|0],start
14800,0.6408739686012268,0.3961986601352691,0.0,-0.7030762434005737,0.6685994267463684,-2.3654465675354004,4.11328125,0,F2,6.1,90,270.0,0.060007280420084,[21000|0|0],start
14900,0.6406689882278442,0.3960436880588531,0.0,-0.7012979388237,0.6741365194320679,-2.3611092567443848,4.1171875,0,F2,6.1,90,270.0,0.0602642498695148,[21100|0|0],start
15000,0.6407790184020996,0.3965748846530914,0.0,-0.711035430431366,0.6738102436065674,-2.3660635948181152,4.11328125,0,F2,6.1,90,270.0,0.0608067224134993,[21200|0|0],start
15102,0.6409809589385986,0.3962441682815552,0.0,-0.8078142404556274,0.608855128288269,-2.3530795574188232,4.11328125,0,F2,6.1,90,270.0,0.0611942186053304,[21300|0|0],start
15202,0.6409258246421814,0.3963619470596313,0.0,-0.7868563532829285,0.6223427057266235,-2.3445608615875244,4.11328125,0,F2,6.1,90,270.0,0.0613242633330456,[21400|0|0],start
15300,0.641228437423706,0.3960043489933014,0.0,-0.7649446725845337,0.6192900538444519,-2.342556953430176,4.11328125,0,F2,6.1,90,270.0,0.0617927191715032,[21500|0|0],start
15400,0.6412647366523743,0.3961248695850372,0.0,-0.7627665400505066,0.6248551607131958,-2.338995695114136,4.1171875,0,F2,6.1,90,270.0,0.0619185875433614,[21600|0|0],start
15500,0.641265869140625,0.3962363302707672,0.0,-0.7673047184944153,0.6250585913658142,-2.3429646492004395,4.11328125,0,F2,6.1,90,270.0,0.0620300539822255,[21700|0|0],start
15600,0.6407617926597595,0.3963147699832916,0.0,-0.7722911834716797,0.6380853652954102,-2.342636823654175,4.11328125,0,F2,6.1,90,270.0,0.0625401969887077,[21800|0|0],start
15700,0.640756368637085,0.3963135480880737,0.0,-0.7660987973213196,0.6292504668235779,-2.343666315078736,4.11328125,0,F2,6.1,90,270.0,0.0625457569392378,[21900|0|0],start
15800,0.6410448551177979,0.3959985375404358,0.0,-0.7598186731338501,0.6189943552017212,-2.339906454086304,4.11328125,0,F2,6.1,90,270.0,0.0629729057361192,[22000|0|0],start
15900,0.6406443119049072,0.3961106538772583,0.0,-0.7635229825973511,0.6284310221672058,-2.340301275253296,4.1171875,0,F2,6.1,90,270.0,0.0633888443594463,[22100|0|0],start
16000,0.6409796476364136,0.3959848880767822,0.0,-0.7575299739837646,0.6165649890899658,-2.35075306892395,4.11328125,0,F2,6.1,90,270.0,0.0637469883101062,[22200|0|0],start
16100,0.6412795782089233,0.3962263166904449,0.0,-0.766686737537384,0.6103506088256836,-2.331355333328247,4.11328125,0,F2,6.1,90,270.0,0.0641320157426628,[22300|0|0],start
16200,0.6407595872879028,0.3963037431240082,0.0,-0.7734564542770386,0.6217902302742004,-2.3441853523254395,4.11328125,0,F2,6.1,90,270.0,0.0646577394443903,[22400|0|0],start
16300,0.6411263346672058,0.3959742188453674,0.0,-0.7639263868331909,0.605587363243103,-2.366206407546997,4.11328125,0,F2,6.1,90,270.0,0.0651507809136801,[22500|0|0],start
16400,0.6411272287368774,0.3961335122585296,0.0,-0.7730220556259155,0.6105000972747803,-2.3712215423583984,4.1171875,0,F2,6.1,90,270.0,0.0653100768359049,[22600|0|0],start
16500,0.64095538854599,0.3962748646736145,0.0,-0.7742987871170044,0.6124456524848938,-2.352883815765381,4.1171875,0,F2,6.1,90,270.0,0.0655325842660158,[22700|0|0],start
16600,0.6411287188529968,0.3962059020996094,0.0,-0.7779991030693054,0.6136394739151001,-2.344590902328491,4.11328125,0,F2,6.1,90,270.0,0.0657191297884507,[22800|0|0],start
16700,0.640880823135376,0.3964775502681732,0.0,-0.786402702331543,0.6209913492202759,-2.3632266521453857,4.11328125,0,F2,6.1,90,270.0,0.0660868865209503,[22900|0|0],start
16800,0.6409458518028259,0.3959480226039886,0.0,-0.7663930058479309,0.614009439945221,-2.352654457092285,4.11328125,0,F2,6.1,90,270.0,0.0666203921673376,[23000|0|0],start
16900,0.6410877704620361,0.3960034847259521,0.0,-0.7637465596199036,0.6136754155158997,-2.347611665725708,4.11328125,0,F2,6.1,90,270.0,0.0667727632696002,[23100|0|0],start
17000,0.6408290863037109,0.3961067795753479,0.0,-0.7694702744483948,0.6223713159561157,-2.351029634475708,4.1171875,0,F2,6.1,90,270.0,0.0670513082743663,[23200|0|0],start
17100,0.6409040689468384,0.3962292969226837,0.0,-0.772685706615448,0.6222580671310425,-2.341626167297364,4.11328125,0,F2,6.1,90,270.0,0.0671949498323103,[23300|0|0],start
17200,0.640731155872345,0.3961592614650726,0.0,-0.7754250168800354,0.6289241313934326,-2.336132287979126,4.11328125,0,F2,6.1,90,270.0,0.0673815078572075,[23400|0|0],start
17300,0.6412447094917297,0.3960759341716766,0.0,-0.7798937559127808,0.6112879514694214,-2.3368115425109863,4.11328125,0,F2,6.1,90,270.0,0.0679017777465995,[23500|0|0],start
17400,0.6410559415817261,0.3962905704975128,0.0,-0.7834556102752686,0.6188545227050781,-2.3255653381347656,4.1171875,0,F2,6.1,90,270.0,0.068187613497015,[23600|0|0],start
17500,0.6407774686813354,0.396298348903656,0.0,-0.7818865776062012,0.6263056993484497,-2.32975697517395,4.11328125,0,F2,6.1,90,270.0,0.0684661950108563,[23700|0|0],start
17600,0.6410536766052246,0.3964736759662628,0.0,-0.788105845451355,0.626275360584259,-2.324170589447021,4.1171875,0,F2,6.1,90,270.0,0.0687933500140299,[23800|0|0],start
17700,0.6410050988197327,0.3961556255817413,0.0,-0.7846212983131409,0.6280781030654907,-2.319941520690918,4.1171875,0,F2,6.1,90,270.0,0.069115088803015,[23900|0|0],start
17800,0.6407999396324158,0.3962695002555847,0.0,-0.783754825592041,0.6374959349632263,-2.321574449539185,4.11328125,0,F2,6.1,90,270.0,0.069349732646922,[24000|0|0],start
17900,0.6408218145370483,0.3963039815425873,0.0,-0.7794189453125,0.6346508264541626,-2.3359360694885254,4.11328125,0,F2,6.1,90,270.0,0.0693905673209876,[24100|0|0],start
18000,0.6405960321426392,0.3960973620414734,0.0,-0.7712878584861755,0.6397055983543396,-2.334721803665161,4.11328125,0,F2,6.1,90,270.0,0.0696966217407656,[24200|0|0],start
18100,0.6407591700553894,0.3960981369018554,0.0,-0.7702773809432983,0.6398463249206543,-2.332857847213745,4.11328125,0,F2,6.1,90,270.0,0.0698597614936927,[24300|0|0],start
18200,0.6409244537353516,0.3962840735912323,0.0,-0.769394040107727,0.6430180668830872,-2.343707799911499,4.11328125,0,F2,6.1,90,270.0,0.070108540808183,[24400|0|0],start
18300,0.6409628987312317,0.3962530791759491,0.0,-0.7695795297622681,0.6432346701622009,-2.3484444618225098,4.11328125,0,F2,6.1,90,270.0,0.0701579237150129,[24500|0|0],start
18400,0.6408025026321411,0.3962597250938415,0.0,-0.7640960812568665,0.6512873768806458,-2.330963611602783,4.11328125,0,F2,6.1,90,270.0,0.0703184574399062,[24600|0|0],start
18500,0.640775203704834,0.396154373884201,0.0,-0.7578078508377075,0.6520949602127075,-2.328359365463257,4.11328125,0,F2,6.1,90,270.0,0.0704272880826721,[24700|0|0],start
18600,0.6408894062042236,0.3960983157157898,0.0,-0.7632541060447693,0.642771303653717,-2.3279929161071777,4.11328125,0,F2,6.1,90,270.0,0.0705545072994299,[24800|0|0],start
18700,0.6411467790603638,0.3961894810199737,0.0,-0.7496272325515747,0.6421427130699158,-2.3410840034484863,4.11328125,0,F2,6.1,90,270.0,0.0708275492371696,[24900|0|0],start
18800,0.6413438320159912,0.396048754453659,0.0,-0.7353235483169556,0.6463322043418884,-2.351343870162964,4.11328125,0,F2,6.1,90,270.0,0.0710696934788691,[25000|0|0],start
18900,0.6406286358833313,0.3961341083049774,0.0,-0.7325285077095032,0.6726808547973633,-2.33652138710022,4.11328125,0,F2,6.1,90,270.0,0.0717899648083739,[25100|0|0],start
19000,0.6410393118858337,0.3961709439754486,0.0,-0.7264074683189392,0.6613577604293823,-2.3436739444732666,4.1171875,0,F2,6.1,90,270.0,0.0722022894931194,[25200|0|0],start
19100,0.6410908699035645,0.396109402179718,0.0,-0.7231552004814148,0.6603736281394958,-2.346780776977539,4.1171875,0,F2,6.1,90,270.0,0.0722825741231183,[25300|0|0],start
19200,0.640944242477417,0.3959857523441314,0.0,-0.7175973057746887,0.6664455533027649,-2.343513011932373,4.11328125,0,F2,6.1,90,270.0,0.0724743784086263,[25400|0|0],start
19300,0.6409352421760559,0.3961451649665832,0.0,-0.7184563875198364,0.6676798462867737,-2.348295927047729,4.11328125,0,F2,6.1,90,270.0,0.0726340449036136,[25500|0|0],start
19400,0.6405899524688721,0.3962039351463318,0.0,-0.7236588001251221,0.6798704266548157,-2.347520589828491,4.11328125,0,F2,6.1,90,270.0,0.0729843004045194,[25600|0|0],start
19500,0.6409295797348022,0.3960256278514862,0.0,-0.7454659938812256,0.6556106805801392,-2.375277280807495,4.11328125,0,F2,6.1,90,270.0,0.0733678889486111,[25700|0|0],start
19600,0.6410447955131531,0.3962219655513763,0.0,-0.8305158019065857,0.6017293930053711,-2.387659311294556,4.1171875,0,F2,6.1,90,270.0,0.0735955359735842,[25800|0|0],start
19700,0.6408896446228027,0.396363765001297,0.0,-0.8088145852088928,0.6216461658477783,-2.3818371295928955,4.11328125,0,F2,6.1,90,270.0,0.0738057237058007,[25900|0|0],start
19800,0.6408460140228271,0.3962048590183258,0.0,-0.778540313243866,0.6333145499229431,-2.375800609588623,4.11328125,0,F2,6.1,90,270.0,0.0739705106612258,[26000|0|0],start
19900,0.6408208608627319,0.3965250551700592,0.0,-0.7686200141906738,0.6440953612327576,-2.3553171157836914,4.1171875,0,F2,6.1,90,270.0,0.0742916932526713,[26100|0|0],start
20000,0.6407691836357117,0.3959804773330688,0.0,-0.6639930605888367,0.6930014491081238,-2.346922874450684,4.11328125,0,F2,6.1,90,270.0,0.0748387175266608,[26200|0|0],start
20100,0.6408562660217285,0.3963543772697449,0.0,-0.6890621781349182,0.6775327920913696,-2.343463659286499,4.11328125,0,F2,6.1,90,270.0,0.075222624422406,[26300|0|0],start
20200,0.6407719850540161,0.3959810137748718,0.0,-0.6892567276954651,0.671022891998291,-2.339069128036499,4.1171875,0,F2,6.1,90,270.0,0.0756053822842748,[26400|0|0],start
20300,0.6408854722976685,0.3959359526634216,0.0,-0.6908763647079468,0.6568868160247803,-2.332748413085937,4.11328125,0,F2,6.1,90,270.0,0.075727488214667,[26500|0|0],start
20400,0.6406872272491455,0.3962258994579315,0.0,-0.7136662602424622,0.6602439880371094,-2.3315188884735107,4.11328125,0,F2,6.1,90,270.0,0.0760787292186948,[26600|0|0],start
20500,0.6410439610481262,0.3961099684238434,0.0,-0.7156422138214111,0.6511868834495544,-2.3360188007354736,4.11328125,0,F2,6.1,90,270.0,0.0764538278830485,[26700|0|0],start
20600,0.6406398415565491,0.3958780169486999,0.0,-0.7137331962585449,0.6674150824546814,-2.350433826446533,4.11328125,0,F2,6.1,90,270.0,0.0769197828704602,[26800|0|0],start
20700,0.6409682035446167,0.3956977427005768,0.0,-0.7056662440299988,0.6485242247581482,-2.355396509170532,4.11328125,0,F2,6.1,90,270.0,0.077294376516621,[26900|0|0],start
20800,0.640929102897644,0.3957015573978424,0.0,-0.7123802900314331,0.643646776676178,-2.3662102222442627,4.11328125,0,F2,6.1,90,270.0,0.0773336628056912,[27000|0|0],start
20900,0.6409591436386108,0.3956753611564636,0.0,-0.7067661881446838,0.647159218788147,-2.379101276397705,4.11328125,0,F2,6.1,90,270.0,0.0773735211696844,[27100|0|0],start
21000,0.640895664691925,0.3960733413696289,0.0,-0.7280046939849854,0.640245795249939,-2.3670542240142822,4.11328125,0,F2,6.1,90,270.0,0.0777765321208301,[27200|0|0],start
21100,0.6411467790603638,0.3962879776954651,0.0,-0.721884548664093,0.6440011262893677,-2.3580775260925293,4.11328125,0,F2,6.1,90,270.0,0.0781068761512058,[27300|0|0],start
21200,0.6409574151039124,0.3960987329483032,0.0,-0.7109301686286926,0.653938889503479,-2.3510284423828125,4.11328125,0,F2,6.1,90,270.0,0.0783745929462174,[27400|0|0],start
21300,0.6408478617668152,0.3961811363697052,0.0,-0.7100203037261963,0.6660034656524658,-2.3480935096740723,4.11328125,0,F2,6.1,90,270.0,0.0785116778014271,[27500|0|0],start
21400,0.6408438682556152,0.3960287570953369,0.0,-0.6996425986289978,0.6691350936889648,-2.346498727798462,4.11328125,0,F2,6.1,90,270.0,0.0786641093971962,[27600|0|0],start
21500,0.6412414908409119,0.3960931897163391,0.0,-0.7040128111839294,0.6523798108100891,-2.3292744159698486,4.11328125,0,F2,6.1,90,270.0,0.0790669186361508,[27700|0|0],start
21600,0.6410472989082336,0.3958216905593872,0.0,-0.7006101012229919,0.658213198184967,-2.3532660007476807,4.11328125,0,F2,6.1,90,270.0,0.0794007184248609,[27800|0|0],start
21700,0.6410263180732727,0.3960407674312591,0.0,-0.7058731913566589,0.655048668384552,-2.349869728088379,4.11328125,0,F2,6.1,90,270.0,0.0796207976633748,[27900|0|0],start
21800,0.640928328037262,0.3957685232162475,0.0,-0.6944385170936584,0.6495407223701477,-2.340698003768921,4.11328125,0,F2,6.1,90,270.0,0.079910139951616,[28000|0|0],start
21900,0.6408719420433044,0.3961930572986603,0.0,-0.7092562913894653,0.6435679197311401,-2.315568447113037,4.11328125,0,F2,6.1,90,270.0,0.0803384022164078,[28100|0|0],start
22000,0.6408204436302185,0.3960268497467041,0.0,-0.7114028334617615,0.647599995136261,-2.326298952102661,4.11328125,0,F2,6.1,90,270.0,0.0805124051959158,[28200|0|0],start
22100,0.6412241458892822,0.3960455060005188,0.0,-0.7090982794761658,0.6437053084373474,-2.3311550617218018,4.11328125,0,F2,6.1,90,270.0,0.0809165383049028,[28300|0|0],start
22200,0.64081871509552,0.395897775888443,0.0,-0.7104523777961731,0.6551005840301514,-2.33139705657959,4.11328125,0,F2,6.1,90,270.0,0.0813480453321279,[28400|0|0],start
22300,0.6406759023666382,0.396267294883728,0.0,-0.8175997138023376,0.599181056022644,-2.3400309085845947,4.11328125,0,F2,6.1,90,270.0,0.0817442015682357,[28500|0|0],start
22400,0.6410650014877319,0.3965587913990021,0.0,-0.8102372288703918,0.5950691103935242,-2.338172435760498,4.11328125,0,F2,6.1,90,270.0,0.0822303788450112,[28600|0|0],start
22500,0.640895426273346,0.3962283432483673,0.0,-0.7872507572174072,0.6041418313980103,-2.348609685897827,4.11328125,0,F2,6.1,90,270.0,0.0826017973873485,[28700|0|0],start
22600,0.6412336230278015,0.3959197402000427,0.0,-0.7775307893753052,0.6030703186988831,-2.3396880626678467,4.11328125,0,F2,6.1,90,270.0,0.0830596323861849,[28800|0|0],start
22700,0.6407099962234497,0.3960021436214447,0.0,-0.7612020373344421,0.6348491907119751,-2.3369357585906982,4.11328125,0,F2,6.1,90,270.0,0.0835897034701863,[28900|0|0],start
22800,0.6411495804786682,0.3956160843372345,0.0,-0.7364325523376465,0.6355412006378174,-2.3233678340911865,4.11328125,0,F2,6.1,90,270.0,0.0841747471338226,[29000|0|0],start
22900,0.6410307884216309,0.3960084021091461,0.0,-0.6866101622581482,0.6787052154541016,-2.33126187324524,4.11328125,0,F2,6.1,90,270.0,0.0845846554003565,[29100|0|0],start
23000,0.6407723426818848,0.3960594832897186,0.0,-0.6878805160522461,0.682570219039917,-2.325190305709839,4.11328125,0,F2,6.1,90,270.0,0.0848481008167174,[29200|0|0],start
23100,0.6410650014877319,0.3964180052280426,0.0,-0.7009089589118958,0.6661705374717712,-2.3381240367889404,4.11328125,0,F2,6.1,90,270.0,0.0853109044002164,[29300|0|0],start
23200,0.6411067247390747,0.396236777305603,0.0,-0.701164960861206,0.6595405340194702,-2.325394630432129,4.11328125,0,F2,6.1,90,270.0,0.0854968731867758,[29400|0|0],start
23300,0.6411322355270386,0.3958497941493988,0.0,-0.6920287013053894,0.6553864479064941,-2.3216609954833984,4.11328125,0,F2,6.1,90,270.0,0.0858846962952781,[29500|0|0],start
23400,0.6410812139511108,0.3959711492061615,0.0,-0.704128623008728,0.6562275290489197,-2.3525311946868896,4.11328125,0,F2,6.1,90,270.0,0.086016340706523,[29600|0|0],start
23500,0.6408175826072693,0.3960143327713012,0.0,-0.7072715163230896,0.6597510576248169,-2.3481221199035645,4.11328125,0,F2,6.1,90,270.0,0.0862834854346272,[29700|0|0],start
23600,0.6408911943435669,0.3964056372642517,0.0,-0.7246382832527161,0.6567903161048889,-2.334066390991211,4.11328125,0,F2,6.1,90,270.0,0.0866816536075441,[29800|0|0],start
23700,0.6406599283218384,0.3961071670055389,0.0,-0.7145462036132812,0.6576458811759949,-2.333693742752075,4.11328125,0,F2,6.1,90,270.0,0.0870592360066867,[29900|0|0],start
23800,0.6410559415817261,0.3957376778125763,0.0,-0.7039481401443481,0.650252103805542,-2.3404619693756104,4.11328125,0,F2,6.1,90,270.0,0.0876008528137773,[30000|0|0],start
23900,0.6410991549491882,0.3963402211666107,0.0,-0.7166404724121094,0.6464217901229858,-2.337003231048584,4.11328125,0,F2,6.1,90,270.0,0.0882049437743275,[30100|0|0],start
24000,0.6408479809761047,0.3962684869766235,0.0,-0.7113135457038879,0.6546676158905029,-2.3375818729400635,4.11328125,0,F2,6.1,90,270.0,0.0884661604636252,[30200|0|0],start
24100,0.64089035987854,0.3959898352622986,0.0,-0.7056492567062378,0.6512759923934937,-2.339707851409912,4.11328125,0,F2,6.1,90,270.0,0.0887480163652271,[30300|0|0],start
24200,0.6408257484436035,0.3958468437194824,0.0,-0.7044233083724976,0.6484972834587097,-2.327665567398072,4.11328125,0,F2,6.1,90,270.0,0.0889049278652566,[30400|0|0],start
24300,0.6410470008850098,0.3961736261844635,0.0,-0.7113933563232422,0.6436485052108765,-2.3120853900909424,4.11328125,0,F2,6.1,90,270.0,0.0892995662088667,[30500|0|0],start
24400,0.6411811709403992,0.3960129916667938,0.0,-0.7085425853729248,0.6418556571006775,-2.3293237686157227,4.11328125,0,F2,6.1,90,270.0,0.0895088627736502,[30600|0|0],start
24500,0.6407560110092163,0.3962083160877228,0.0,-0.7112395763397217,0.6537457704544067,-2.328591823577881,4.11328125,0,F2,6.1,90,270.0,0.0899767437376727,[30700|0|0],start
24600,0.6408103108406067,0.3961846232414245,0.0,-0.7094081044197083,0.6547783017158508,-2.331190586090088,4.11328125,0,F2,6.1,90,270.0,0.0900359874939238,[30800|0|0],start
24700,0.6408776640892029,0.3960011601448059,0.0,-0.7057028412818909,0.6593778729438782,-2.3444361686706543,4.11328125,0,F2,6.1,90,270.0,0.090231423334847,[30900|0|0],start
24800,0.6409407258033752,0.3962068557739258,0.0,-0.7149275541305542,0.6574405431747437,-2.33838438987732,4.11328125,0,F2,6.1,90,270.0,0.0904465685686621,[31000|0|0],start
24900,0.6409718990325928,0.3964906334877014,0.0,-0.8059384226799011,0.5977784395217896,-2.3483591079711914,4.11328125,0,F2,6.1,90,270.0,0.090732053351191,[31100|0|0],start
25000,0.640938937664032,0.3958187103271484,0.0,-0.7812901735305786,0.6174255609512329,-2.351302146911621,4.11328125,0,F2,6.1,90,270.0,0.0914047844902838,[31200|0|0],start
25100,0.6410413980484009,0.3959705531597137,0.0,-0.7745135426521301,0.624363899230957,-2.3481006622314453,4.11328125,0,F2,6.1,90,270.0,0.0915879630265987,[31300|0|0],start
25200,0.641008198261261,0.3956373333930969,0.0,-0.7563183307647705,0.6283261179924011,-2.346853017807007,4.11328125,0,F2,6.1,90,270.0,0.0919228326112586,[31400|0|0],start
25300,0.6408297419548035,0.3963119685649872,0.0,-0.7574090361595154,0.6290045380592346,-2.340892791748047,4.11328125,0,F2,6.1,90,270.0,0.0926206716102159,[31500|0|0],start
25400,0.6407787799835205,0.3961799144744873,0.0,-0.7589436769485474,0.6292188167572021,-2.349629163742065,4.11328125,0,F2,6.1,90,270.0,0.0927622180878648,[31600|0|0],start
25500,0.641015887260437,0.3961442410945892,0.0,-0.7548302412033081,0.6231788992881775,-2.335288524627685,4.11328125,0,F2,6.1,90,270.0,0.0930019939223438,[31700|0|0],start
25600,0.6407199501991272,0.3963290750980377,0.0,-0.7596762180328369,0.6259222626686096,-2.3346617221832275,4.11328125,0,F2,6.1,90,270.0,0.0933509098908628,[31800|0|0],start
25700,0.6407760977745056,0.3960119783878326,0.0,-0.7588223218917847,0.6215429306030273,-2.339206457138061,4.11328125,0,F2,6.1,90,270.0,0.09367293919674,[31900|0|0],start
25800,0.6405837535858154,0.3961822986602783,0.0,-0.6983928084373474,0.6729024648666382,-2.3469607830047607,4.11328125,0,F2,6.1,90,270.0,0.093929854128437,[32000|0|0],start
25900,0.64089035987854,0.3962942957878113,0.0,-0.7039974331855774,0.6564213633537292,-2.343626022338867,4.11328125,0,F2,6.1,90,270.0,0.0942562752909158,[32100|0|0],start
26000,0.640841543674469,0.3960646986961365,0.0,-0.7025750875473022,0.6523690819740295,-2.347461700439453,4.11328125,0,F2,6.1,90,270.0,0.0944910045951908,[32200|0|0],start
26100,0.6410577893257141,0.3959870040416717,0.0,-0.7005571722984314,0.6470782160758972,-2.351269721984864,4.11328125,0,F2,6.1,90,270.0,0.0947207841439214,[32300|0|0],start
26200,0.6407132744789124,0.3959584832191467,0.0,-0.7077880501747131,0.6519313454627991,-2.336448431015014,4.11328125,0,F2,6.1,90,270.0,0.0950664775297192,[32400|0|0],start
26300,0.6411879062652588,0.3957293033599853,0.0,-0.8030762672424316,0.5843716263771057,-2.3374552726745605,4.11328125,0,F2,6.1,90,270.0,0.0955935436929811,[32500|0|0],start
26400,0.6410968899726868,0.3958044052124023,0.0,-0.794366180896759,0.5969857573509216,-2.3371949195861816,4.11328125,0,F2,6.1,90,270.0,0.0957115447681881,[32600|0|0],start
26500,0.6407787799835205,0.3960961997509002,0.0,-0.7908868193626404,0.6128208637237549,-2.365431308746338,4.11328125,0,F2,6.1,90,270.0,0.0961432136434902,[32700|0|0],start
26600,0.6407872438430786,0.3962029814720154,0.0,-0.7934527397155762,0.6103970408439636,-2.347005605697632,4.11328125,0,F2,6.1,90,270.0,0.0962503302756392,[32800|0|0],start
26700,0.64090496301651,0.3961603343486786,0.0,-0.7837927937507629,0.6160699725151062,-2.3381597995758057,4.11328125,0,F2,6.1,90,270.0,0.0963755364293309,[32900|0|0],start
26800,0.6406229138374329,0.3961199223995209,0.0,-0.7722193598747253,0.6263527274131775,-2.344972610473633,4.11328125,0,F2,6.1,90,270.0,0.0966604660084427,[33000|0|0],start
26900,0.6411653161048889,0.3961377441883087,0.0,-0.7765073180198669,0.6122473478317261,-2.304208755493164,4.11328125,0,F2,6.1,90,270.0,0.0972031609834489,[33100|0|0],start
27000,0.6409676671028137,0.3958846926689148,0.0,-0.7663220763206482,0.6211697459220886,-2.3066093921661377,4.11328125,0,F2,6.1,90,270.0,0.0975242531812503,[33200|0|0],start
27100,0.6410237550735474,0.3955509066581726,0.0,-0.7574382424354553,0.6139551997184753,-2.30906343460083,4.11328125,0,F2,6.1,90,270.0,0.0978627187798393,[33300|0|0],start
27200,0.6409887671470642,0.396097183227539,0.0,-0.7811449766159058,0.6115726232528687,-2.311218500137329,4.11328125,0,F2,6.1,90,270.0,0.0984101146560005,[33400|0|0],start
27300,0.6411305665969849,0.3959222137928009,0.0,-0.7688062787055969,0.616561770439148,-2.338291645050049,4.11328125,0,F2,6.1,90,270.0,0.0986353287476786,[33500|0|0],start
27400,0.6409672498703003,0.3956972956657409,0.0,-0.7638667821884155,0.6250175833702087,-2.336874008178711,4.11328125,0,F2,6.1,90,270.0,0.0989132865090293,[33600|0|0],start
27500,0.6409472823143005,0.3958295881748199,0.0,-0.7677870988845825,0.6289587020874023,-2.337796688079834,4.11328125,0,F2,6.1,90,270.0,0.0990470774326789,[33700|0|0],start
27600,0.6410661935806274,0.3956250846385956,0.0,-0.7629017233848572,0.6213237643241882,-2.3353917598724365,4.11328125,0,F2,6.1,90,270.0,0.0992836394448189,[33800|0|0],start
27700,0.6410688161849976,0.3959861993789673,0.0,-0.7764895558357239,0.6209301352500916,-2.3308050632476807,4.11328125,0,F2,6.1,90,270.0,0.0996447637084283,[33900|0|0],start
27800,0.6411003470420837,0.3958735167980194,0.0,-0.7710089683532715,0.621339738368988,-2.346202850341797,4.11328125,0,F2,6.1,90,270.0,0.0997617746438047,[34000|0|0],start
27900,0.6410830616950989,0.3958513736724853,0.0,-0.7760967016220093,0.6194050908088684,-2.356312990188598,4.11328125,0,F2,6.1,90,270.0,0.0997898655894778,[34100|0|0],start
28000,0.6411519050598145,0.3956949114799499,0.0,-0.7717994451522827,0.6145267486572266,-2.347440958023072,4.11328125,0,F2,6.1,90,270.0,0.0999608036676182,[34200|0|0],start
28100,0.6409986019134521,0.395710676908493,0.0,-0.7730261087417603,0.6158586740493774,-2.3423516750335693,4.11328125,0,F2,6.1,90,270.0,0.1001149153265598,[34300|0|0],start
28200,0.6410893201828003,0.3959077894687652,0.0,-0.7615946531295776,0.6143323183059692,-2.3409945964813232,4.11328125,0,F2,6.1,90,270.0,0.1003319018833106,[34400|0|0],start
28300,0.6373505592346191,0.3918288946151733,0.0,-0.6122597455978394,0.7237926721572876,-2.3548264503479004,4.11328125,0,F2,6.1,90,270.0,0.1058650489674123,[34500|0|0],start
28400,0.6372122764587402,0.3918807506561279,0.0,-0.6009284853935242,0.7279981970787048,-2.3380513191223145,4.11328125,0,F2,6.1,90,270.0,0.1060127350367901,[34600|0|0],start
28500,0.6375157237052917,0.3917498886585235,0.0,-0.5812904834747314,0.7277348637580872,-2.3376729488372803,4.11328125,0,F2,6.1,90,270.0,0.1063431969768932,[34700|0|0],start
28600,0.6409108638763428,0.3960350751876831,0.0,-0.7251680493354797,0.6325804591178894,-2.326586961746216,4.11328125,0,F2,6.1,90,270.0,0.1118103534929238,[34800|0|0],start
28700,0.6410644054412842,0.3959415853023529,0.0,-0.7185012102127075,0.6362115144729614,-2.313467264175415,4.11328125,0,F2,6.1,90,270.0,0.1119901182581691,[34900|0|0],start
28800,0.6377623677253723,0.3918648064136505,0.0,-0.5767185091972351,0.7437422275543213,-2.329624891281128,4.11328125,0,F2,6.1,90,270.0,0.1172364102043606,[35000|0|0],start
28900,0.6373693346977234,0.392034500837326,0.0,-0.5828366279602051,0.7575587034225464,-2.32269549369812,4.11328125,0,F2,6.1,90,270.0,0.1176645120126369,[35100|0|0],start
29000,0.6376011371612549,0.3914455771446228,0.0,-0.5690167546272278,0.7487930655479431,-2.3356356620788574,4.11328125,0,F2,6.1,90,270.0,0.1182974128721137,[35200|0|0],start
29100,0.6375438570976257,0.3915979564189911,0.0,-0.5748124718666077,0.7551325559616089,-2.346477746963501,4.11328125,0,F2,6.1,90,270.0,0.1184602024569967,[35300|0|0],start
29200,0.637364387512207,0.3921520709991455,0.0,-0.5833777189254761,0.7593973278999329,-2.3428165912628174,4.11328125,0,F2,6.1,90,270.0,0.1190426561461687,[35400|0|0],start
29300,0.6374521255493164,0.3916978240013122,0.0,-0.5673508048057556,0.7569454908370972,-2.352646350860596,4.11328125,0,F2,6.1,90,270.0,0.1195052988789511,[35500|0|0],start
29400,0.6374194025993347,0.3915505707263946,0.0,-0.563237726688385,0.7536736726760864,-2.340382575988769,4.11328125,0,F2,6.1,90,270.0,0.1196561442250161,[35600|0|0],start
29500,0.6376729011535645,0.3920300006866455,0.0,-0.5810636281967163,0.7575655579566956,-2.365752696990967,4.11328125,0,F2,6.1,90,270.0,0.1201984675637935,[35700|0|0],start
29600,0.6375179290771484,0.3916097283363342,0.0,-0.5631589293479919,0.7688232660293579,-2.380739450454712,4.11328125,0,F2,6.1,90,270.0,0.1206464019260665,[35800|0|0],start
29700,0.6377867460250854,0.3913658857345581,0.0,-0.5592629909515381,0.7648133039474487,-2.366829872131348,4.11328125,0,F2,6.1,90,270.0,0.1210093368595451,[35900|0|0],start
29800,0.6377441883087158,0.3914554119110107,0.0,-0.5652650594711304,0.7675721049308777,-2.3658876419067383,4.11328125,0,F2,6.1,90,270.0,0.1211084635234293,[36000|0|0],start
29901,0.6373081207275391,0.3917925953865051,0.0,-0.5767019987106323,0.7740767002105713,-2.358621835708618,4.11328125,0,F2,6.1,90,270.0,0.1216596872815347,[36100|0|0],start
30001,0.6376881003379822,0.3918521404266357,0.0,-0.5761145949363708,0.7568254470825195,-2.377685308456421,4.11328125,0,F2,6.1,90,270.0,0.1220443041248433,[36200|0|0],start
30101,0.6374921202659607,0.3914510309696197,0.0,-0.5635288953781128,0.7506107687950134,-2.368534803390503,4.11328125,0,F2,6.1,90,270.0,0.1224907310339082,[36300|0|0],start
30201,0.6376771926879883,0.3917580544948578,0.0,-0.5709397792816162,0.7467108368873596,-2.3844361305236816,4.11328125,0,F2,6.1,90,270.0,0.1228492212659157,[36400|0|0],start
30301,0.6378195881843567,0.391635924577713,0.0,-0.5662094950675964,0.7422378063201904,-2.3662567138671875,4.11328125,0,F2,6.1,90,270.0,0.1230368170922226,[36500|0|0],start
30401,0.6373926401138306,0.3919527232646942,0.0,-0.5726450681686401,0.761096715927124,-2.365386486053467,4.11328125,0,F2,6.1,90,270.0,0.1235684617696144,[36600|0|0],start
30501,0.6378315091133118,0.3914933204650879,0.0,-0.5605471134185791,0.7465960383415222,-2.36692762374878,4.11328125,0,F2,6.1,90,270.0,0.1242038017817274,[36700|0|0],start
30601,0.6376656889915466,0.3915708661079407,0.0,-0.5708969831466675,0.7444266676902771,-2.3609323501586914,4.11328125,0,F2,6.1,90,270.0,0.1243868581651388,[36800|0|0],start
30701,0.6376980543136597,0.3918035328388214,0.0,-0.5783821940422058,0.7453314661979675,-2.3477203845977783,4.11328125,0,F2,6.1,90,270.0,0.1246217652142757,[36900|0|0],start
30801,0.6377821564674377,0.3913693130016327,0.0,-0.5648218393325806,0.7443442344665527,-2.3450942039489746,4.11328125,0,F2,6.1,90,270.0,0.1250640547566326,[37000|0|0],start
30902,0.6377663612365723,0.3918960094451904,0.0,-0.5813475847244263,0.7432733774185181,-2.3568544387817383,4.11328125,0,F2,6.1,90,270.0,0.1255909879905195,[37100|0|0],start
31002,0.6377657651901245,0.3917132616043091,0.0,-0.5802574753761292,0.7446898818016052,-2.371358633041382,4.11328125,0,F2,6.1,90,270.0,0.1257737368034243,[37200|0|0],start
31102,0.6379755735397339,0.3913855850696563,0.0,-0.5809570550918579,0.7303249835968018,-2.35721206665039,4.11328125,0,F2,6.1,90,270.0,0.126162827351919,[37300|0|0],start
31200,0.6376673579216003,0.3917915523052215,0.0,-0.6666438579559326,0.6909986138343811,-2.3460848331451416,4.11328125,0,F2,6.1,90,270.0,0.1266725392937193,[37400|0|0],start
31300,0.6376481652259827,0.3920358717441559,0.0,-0.6515156030654907,0.7042883634567261,-2.3389387130737305,4.11328125,0,F2,6.1,90,270.0,0.1269176114214823,[37500|0|0],start
31402,0.6377837061882019,0.3916571140289306,0.0,-0.6291064620018005,0.699828028678894,-2.34342098236084,4.11328125,0,F2,6.1,90,270.0,0.1273198908756954,[37600|0|0],start
31502,0.6379024982452393,0.3919488191604614,0.0,-0.6300556659698486,0.7042332291603088,-2.341810703277588,4.11328125,0,F2,6.1,90,270.0,0.1276348566461794,[37700|0|0],start
31602,0.6377915143966675,0.391546219587326,0.0,-0.6117150187492371,0.7104302048683167,-2.344228744506836,4.11328125,0,F2,6.1,90,270.0,0.1280524734932206,[37800|0|0],start
31702,0.6381452679634094,0.39177405834198,0.0,-0.6136413216590881,0.7018306851387024,-2.352660655975342,4.11328125,0,F2,6.1,90,270.0,0.1284732490677314,[37900|0|0],start
31800,0.6376901865005493,0.3916191160678863,0.0,-0.6113595366477966,0.7162032127380371,-2.337174892425537,4.11328125,0,F2,6.1,90,270.0,0.1289539841778911,[38000|0|0],start
31900,0.6378471851348877,0.3917062878608703,0.0,-0.61613529920578,0.712823748588562,-2.332951784133911,4.11328125,0,F2,6.1,90,270.0,0.1291335600467493,[38100|0|0],start
32000,0.6378081440925598,0.3916051387786865,0.0,-0.6141171455383301,0.7141188383102417,-2.3441202640533447,4.11328125,0,F2,6.1,90,270.0,0.1292419820916141,[38200|0|0],start
32100,0.6377280354499817,0.3918802142143249,0.0,-0.6215904355049133,0.7147382497787476,-2.351242780685425,4.11328125,0,F2,6.1,90,270.0,0.1295284849535673,[38300|0|0],start
32200,0.6377764344215393,0.3917423784732818,0.0,-0.6162768602371216,0.7109305262565613,-2.34958815574646,4.11328125,0,F2,6.1,90,270.0,0.1296745710650109,[38400|0|0],start
32300,0.6376340985298157,0.3917342722415924,0.0,-0.6205196380615234,0.7156480550765991,-2.334340333938598,4.11328125,0,F2,6.1,90,270.0,0.1298171376005828,[38500|0|0],start
32400,0.6376456618309021,0.3921203911304474,0.0,-0.6314054131507874,0.710119903087616,-2.3479421138763428,4.11328125,0,F2,6.1,90,270.0,0.130203429596698,[38600|0|0],start
32500,0.6376479864120483,0.3915526866912842,0.0,-0.6166396737098694,0.7100399136543274,-2.3492655754089355,4.11328125,0,F2,6.1,90,270.0,0.1307711387950761,[38700|0|0],start
32600,0.6382153034210205,0.3917955160140991,0.0,-0.6249435544013977,0.700289785861969,-2.3631372451782227,4.11328125,0,F2,6.1,90,270.0,0.1313882406251559,[38800|0|0],start
32700,0.6378071308135986,0.392143189907074,0.0,-0.6332423686981201,0.7156785130500793,-2.3580923080444336,4.11328125,0,F2,6.1,90,270.0,0.131924414116953,[38900|0|0],start
32800,0.6377941370010376,0.3918656408786773,0.0,-0.6185881495475769,0.7180543541908264,-2.357851982116699,4.11328125,0,F2,6.1,90,270.0,0.1322022671398424,[39000|0|0],start
32900,0.63756263256073,0.3918399512767792,0.0,-0.6150689721107483,0.7238066792488098,-2.3666491508483887,4.11328125,0,F2,6.1,90,270.0,0.1324351925818359,[39100|0|0],start
33000,0.6377575397491455,0.3914981782436371,0.0,-0.6040818095207214,0.7262904047966003,-2.3688714504241943,4.11328125,0,F2,6.1,90,270.0,0.1328286358665405,[39200|0|0],start
33100,0.6382817029953003,0.3916903734207153,0.0,-0.6073981523513794,0.7200788259506226,-2.370683431625366,4.11328125,0,F2,6.1,90,270.0,0.1333869244072716,[39300|0|0],start
33200,0.6377471685409546,0.3915281593799591,0.0,-0.6028807759284973,0.7356683015823364,-2.3547074794769287,4.11328125,0,F2,6.1,90,270.0,0.1339455302413811,[39400|0|0],start
33300,0.6379116773605347,0.3913128674030304,0.0,-0.5986334085464478,0.7314662933349609,-2.3493568897247314,4.11328125,0,F2,6.1,90,270.0,0.1342164800283334,[39500|0|0],start
33400,0.6378852128982544,0.3915052413940429,0.0,-0.5984441637992859,0.7353042960166931,-2.360468864440918,4.11328125,0,F2,6.1,90,270.0,0.1344106658161291,[39600|0|0],start
33500,0.6374379396438599,0.3918344974517822,0.0,-0.6120387315750122,0.7438629269599915,-2.3538646697998047,4.11328125,0,F2,6.1,90,270.0,0.1349660601946159,[39700|0|0],start
33600,0.6380114555358887,0.391455739736557,0.0,-0.6057265996932983,0.7222680449485779,-2.36411190032959,4.11328125,0,F2,6.1,90,270.0,0.1356533577177107,[39800|0|0],start
33700,0.6374997496604919,0.3918764293193817,0.0,-0.6191733479499817,0.7373483180999756,-2.3635215759277344,4.11328125,0,F2,6.1,90,270.0,0.1363157946037706,[39900|0|0],start
33800,0.6379192471504211,0.3917495310306549,0.0,-0.615203857421875,0.7297838926315308,-2.3571617603302,4.11328125,0,F2,6.1,90,270.0,0.1367540654329832,[40000|0|0],start
33900,0.637731671333313,0.3915158808231354,0.0,-0.6085149049758911,0.7412586212158203,-2.3457906246185303,4.11328125,0,F2,6.1,90,270.0,0.1370536937137541,[40100|0|0],start
34000,0.6378685235977173,0.3918787539005279,0.0,-0.6193840503692627,0.7365821003913879,-2.3613343238830566,4.11328125,0,F2,6.1,90,270.0,0.1374415150805828,[40200|0|0],start
34100,0.6376718282699585,0.3916148841381073,0.0,-0.6156976819038391,0.7408666014671326,-2.3500475883483887,4.11328125,0,F2,6.1,90,270.0,0.137770629503667,[40300|0|0],start
34200,0.637568473815918,0.3916682600975036,0.0,-0.6208109259605408,0.7424495816230774,-2.3765785694122314,4.11328125,0,F2,6.1,90,270.0,0.1378869529158053,[40400|0|0],start
34300,0.6374763250350952,0.3916804790496826,0.0,-0.6172638535499573,0.7403857707977295,-2.377371311187744,4.11328125,0,F2,6.1,90,270.0,0.137979908284663,[40500|0|0],start
34400,0.6379095315933228,0.3916835784912109,0.0,-0.6172106862068176,0.72694331407547,-2.3895962238311768,4.11328125,0,F2,6.1,90,270.0,0.1384131259304591,[40600|0|0],start
34500,0.6378620862960815,0.3919951617717743,0.0,-0.6704080700874329,0.6935181617736816,-2.399094343185425,4.11328125,0,F2,6.1,90,270.0,0.1387283007977264,[40700|0|0],start
34600,0.6378375887870789,0.3920795917510986,0.0,-0.6636497974395752,0.7022674083709717,-2.3834245204925537,4.11328125,0,F2,6.1,90,270.0,0.1388162129661449,[40800|0|0],start
34700,0.6377412676811218,0.3915948867797851,0.0,-0.6482162475585938,0.716235876083374,-2.3849124908447266,4.11328125,0,F2,6.1,90,270.0,0.1393103957912904,[40900|0|0],start
34800,0.6377584934234619,0.391358882188797,0.0,-0.6389120221138,0.7152966856956482,-2.3766930103302,4.11328125,0,F2,6.1,90,270.0,0.1395470281922134,[41000|0|0],start
