time.ms,stateEstimate.x,stateEstimate.y,stateEstimate.z,stabilizer.roll,stabilizer.pitch,stabilizer.yaw,pm.vbat,drone_id,node_name,wind_speed,global_wind_direction,relative_wind_direction,travel_dist,waiting_time
0,1.3093864917755127,-0.30977746844291687,-0.0020069857127964497,0.2869913876056671,0.42230963706970215,-18.0535945892334,4.1484375,2,C1,6.1,270,0,0.0538717619074743,[100|0|0|0]
100,1.3093266487121582,-0.3095075488090515,-0.0019835298880934715,0.2824586033821106,0.42434051632881165,-18.08649253845215,4.1484375,2,C1,6.1,270,0,0.054149228980638224,[200|0|0|0]
200,1.3097240924835205,-0.30962857604026794,-0.0015545866917818785,0.28719380497932434,0.4180000424385071,-18.06913948059082,4.1484375,2,C1,6.1,270,0,0.054746390104416905,[300|0|0|0]
300,1.3097466230392456,-0.3096621334552765,-0.0016363614704459906,0.2905275523662567,0.4178446829319,-18.06528091430664,4.1484375,2,C1,6.1,270,0,0.05483760874543343,[400|0|0|0]
400,1.309709072113037,-0.30972692370414734,-0.0017497848020866513,0.2905817925930023,0.42148178815841675,-18.050567626953125,4.1484375,2,C1,6.1,270,0,0.054973523058764774,[500|0|0|0]
500,1.3095626831054688,-0.3097248375415802,-0.0018844655714929104,0.29144778847694397,0.4316340684890747,-18.02991485595703,4.1484375,2,C1,6.1,270,0,0.05517245270275724,[600|0|0|0]
600,1.309391736984253,-0.3098692297935486,-0.0017425994155928493,0.28836551308631897,0.437536358833313,-18.03447151184082,4.1484375,2,C1,6.1,270,0,0.0554374011977088,[700|0|0|0]
700,1.309593915939331,-0.30981141328811646,-0.0020194347016513348,0.2885169982910156,0.4332883059978485,-18.036596298217773,4.1484375,2,C1,6.1,270,0,0.05578504592121823,[800|0|0|0]
800,1.3100814819335938,-0.3101668953895569,-0.0019623686093837023,0.3119749426841736,0.4359946548938751,-18.061986923217773,4.1484375,2,C1,6.1,270,0,0.056391135569779045,[900|0|0|0]
900,1.3096262216567993,-0.31021636724472046,-0.0023970138281583786,0.34294867515563965,0.45116010308265686,-18.076086044311523,4.1484375,2,C1,6.1,270,0,0.057022503806455516,[1000|0|0|0]
1000,1.3099664449691772,-0.3100000321865082,-0.002110471483319998,0.3549126386642456,0.4588177800178528,-18.067798614501953,4.1484375,2,C1,6.1,270,0,0.05751713424939509,[1100|0|0|0]
1100,1.309721827507019,-0.3103809952735901,-0.0019606277346611023,0.3857465088367462,0.4581846594810486,-18.070528030395508,4.1484375,2,C1,6.1,270,0,0.05799402388602379,[1200|0|0|0]
1200,1.3101696968078613,-0.31024760007858276,-0.0019749458879232407,0.3847503364086151,0.4603392481803894,-18.05891227722168,4.1484375,2,C1,6.1,270,0,0.058461555915087934,[1300|0|0|0]
1300,1.309788703918457,-0.31036168336868286,-0.0019984471146017313,0.39547479152679443,0.4746353030204773,-18.063554763793945,4.1484375,2,C1,6.1,270,0,0.05885995632486696,[1400|0|0|0]
1400,1.3099819421768188,-0.31026527285575867,-0.002187163569033146,0.3936502933502197,0.47208428382873535,-18.070068359375,4.1484375,2,C1,6.1,270,0,0.05914674877886493,[1500|0|0|0]
1500,1.3095312118530273,-0.3101240396499634,-0.0025492592249065638,0.407103031873703,0.48523539304733276,-18.068904876708984,4.1484375,2,C1,6.1,270,0,0.05974191086368453,[1600|0|0|0]
1600,1.3100031614303589,-0.3101460635662079,-0.0021553614642471075,0.407126784324646,0.4762994945049286,-18.06593894958496,4.1484375,2,C1,6.1,270,0,0.060357034349078076,[1700|0|0|0]
1700,1.3100430965423584,-0.309826523065567,-0.002072687726467848,0.3594803512096405,0.4639979302883148,-18.069379806518555,4.1484375,2,C1,6.1,270,0,0.06068950373359133,[1800|0|0|0]
1800,1.3101370334625244,-0.3098144233226776,-0.0019930321723222733,0.39490097761154175,0.47643065452575684,-18.09101676940918,4.1484375,2,C1,6.1,270,0,0.06081325976800786,[1900|0|0|0]
1900,1.3100230693817139,-0.3097103238105774,-0.0024956411216408014,0.4203978478908539,0.48894205689430237,-18.089305877685547,4.1484375,2,C1,6.1,270,0,0.061339035648083746,[2000|0|0|0]
2000,1.3099064826965332,-0.310072124004364,-0.0023769040126353502,0.4440673291683197,0.49560219049453735,-18.093210220336914,4.1484375,2,C1,6.1,270,0,0.0617372696702873,[2100|0|0|0]
2100,1.3097554445266724,-0.30993539094924927,-0.0022434729617089033,0.4445914626121521,0.49898162484169006,-18.088159561157227,4.1484375,2,C1,6.1,270,0,0.06198081084230399,[2200|0|0|0]
2200,1.309907078742981,-0.3097361922264099,-0.0024161296896636486,0.45185771584510803,0.5003330707550049,-18.08775520324707,4.1484375,2,C1,6.1,270,0,0.06228492169782281,[2300|0|0|0]
2300,1.310036301612854,-0.3099287748336792,-0.0020653684623539448,0.4689468741416931,0.496853232383728,-18.064836502075195,4.1484375,2,C1,6.1,270,0,0.06270542145918383,[2400|0|0|0]
2400,1.3096272945404053,-0.3100496232509613,-0.002197661204263568,0.4699786305427551,0.5014349222183228,-18.066268920898438,4.1484375,2,C1,6.1,270,0,0.06315195532669517,[2500|0|0|0]
2500,1.310180425643921,-0.30984917283058167,-0.002514819148927927,0.46423208713531494,0.49158164858818054,-18.05083465576172,4.1484375,2,C1,6.1,270,0,0.06382032913720131,[2600|0|0|0]
2600,1.309831976890564,-0.310355007648468,-0.0021417951211333275,0.4806886911392212,0.502228856086731,-18.045209884643555,4.1484375,2,C1,6.1,270,0,0.0645389613950455,[2700|0|0|0]
2700,1.3099511861801147,-0.31015899777412415,-0.0020558813121169806,0.4731415808200836,0.49852609634399414,-18.06053924560547,4.1484375,2,C1,6.1,270,0,0.06478393467549706,[2800|0|0|0]
2800,1.3101623058319092,-0.30995622277259827,-0.001943559036590159,0.46219924092292786,0.49955329298973083,-18.068893432617188,4.1484375,2,C1,6.1,270,0,0.06509747175814781,[2900|0|0|0]
2900,1.3098394870758057,-0.3097366690635681,-0.0022131730802357197,0.4601675271987915,0.5010294318199158,-18.07034683227539,4.1484375,2,C1,6.1,270,0,0.0655719267222614,[3000|0|0|0]
3000,1.3100255727767944,-0.3099140226840973,-0.00192706985399127,0.46409183740615845,0.49170011281967163,-18.073631286621094,4.1484375,2,C1,6.1,270,0,0.06595655284058252,[3100|0|0|0]
3100,1.3099911212921143,-0.3102286458015442,-0.0019262556452304125,0.4692003130912781,0.48420941829681396,-18.069669723510742,4.1484375,2,C1,6.1,270,0,0.06627305761742575,[3200|0|0|0]
3200,1.3102110624313354,-0.31025615334510803,-0.0019198691006749868,0.463637113571167,0.4846736192703247,-18.068269729614258,4.1484375,2,C1,6.1,270,0,0.06649480422422321,[3300|0|0|0]
3300,1.3099333047866821,-0.3101571202278137,-0.002121815225109458,0.44803333282470703,0.48983222246170044,-18.08255958557129,4.1484375,2,C1,6.1,270,0,0.06685221030231715,[3400|0|0|0]
3400,1.3096673488616943,-0.3100425899028778,-0.0023268400691449642,0.4494151771068573,0.49593648314476013,-18.062551498413086,4.1484375,2,C1,6.1,270,0,0.06720701297428824,[3500|0|0|0]
3500,1.309960126876831,-0.3101659119129181,-0.0020034790504723787,0.44991233944892883,0.493177205324173,-18.067399978637695,4.1484375,2,C1,6.1,270,0,0.0676603226175838,[3600|0|0|0]
3600,1.3097485303878784,-0.3099340498447418,-0.0024137741420418024,0.44363176822662354,0.49773815274238586,-18.061813354492188,4.1484375,2,C1,6.1,270,0,0.06817692222556083,[3700|0|0|0]
3700,1.3099570274353027,-0.3101951479911804,-0.0022485018707811832,0.44684240221977234,0.487875372171402,-18.06360626220703,4.1484375,2,C1,6.1,270,0,0.06854969318004357,[3800|0|0|0]
3800,1.3099613189697266,-0.31028953194618225,-0.002367626875638962,0.44572222232818604,0.48644280433654785,-18.066781997680664,4.14453125,2,C1,6.1,270,0,0.06870173763081987,[3900|0|0|0]
3900,1.3100637197494507,-0.3106568455696106,-0.0022447709925472736,0.44654348492622375,0.48679593205451965,-18.097145080566406,4.1484375,2,C1,6.1,270,0,0.06910236062773144,[4000|0|0|0]
4000,1.3099350929260254,-0.31030917167663574,-0.0020445832051336765,0.4383994936943054,0.49403971433639526,-18.08698844909668,4.1484375,2,C1,6.1,270,0,0.06952366472905294,[4100|0|0|0]
4100,1.3098214864730835,-0.3100426495075226,-0.002072414383292198,0.4181375205516815,0.48983991146087646,-18.079896926879883,4.1484375,2,C1,6.1,270,0,0.06981472325797197,[4200|0|0|0]
4200,1.310043454170227,-0.30975812673568726,-0.002038337755948305,0.41363081336021423,0.48683393001556396,-18.066877365112305,4.1484375,2,C1,6.1,270,0,0.07017719268123303,[4300|0|0|0]
4300,1.3098790645599365,-0.30974113941192627,-0.0018812696216627955,0.14348046481609344,0.4087914526462555,-18.074254989624023,4.1484375,2,C1,6.1,270,0,0.07040519029514151,[4400|0|0|0]
4400,1.3100327253341675,-0.30979546904563904,-0.0017868389841169119,0.19660823047161102,0.4200887978076935,-18.064830780029297,4.1484375,2,C1,6.1,270,0,0.07059355294521828,[4500|0|0|0]
4500,1.3101141452789307,-0.30991992354393005,-0.002059483202174306,0.22931455075740814,0.42396965622901917,-18.050180435180664,4.1484375,2,C1,6.1,270,0,0.07090412177686473,[4600|0|0|0]
4600,1.3099583387374878,-0.31017303466796875,-0.0022952803410589695,0.2598906457424164,0.4284389913082123,-18.04325294494629,4.1484375,2,C1,6.1,270,0,0.07128351762578075,[4700|0|0|0]
4700,1.3455265760421753,-0.31913626194000244,-0.046185676008462906,0.07334350049495697,-0.0795406624674797,-12.49668025970459,4.1484375,2,C1,6.1,270,0,0.1284832184985472,[4800|0|0|0]
4800,1.3088500499725342,-0.30954235792160034,0.00018013031512964517,-1.038907527923584,0.4014587700366974,-16.551538467407227,4.1484375,2,C1,6.1,270,0,0.1883747751229018,[4900|0|0|0]
4900,1.3091449737548828,-0.30940940976142883,-0.00015179842012003064,-1.3870227336883545,0.24389289319515228,-17.331016540527344,4.1484375,2,C1,6.1,270,0,0.18883827478414467,[5000|0|0|0]
5000,1.3096669912338257,-0.3097362816333771,-0.0012045360635966063,-1.0337961912155151,0.18843090534210205,-17.607105255126953,4.1484375,2,C1,6.1,270,0,0.19005794851715094,[5100|0|0|0]
5100,1.309782862663269,-0.30971759557724,-0.00160524295642972,-0.707537829875946,0.22552600502967834,-17.76689338684082,4.1484375,2,C1,6.1,270,0,0.19047549057589375,[5200|0|0|0]
5200,1.3099783658981323,-0.30989429354667664,-0.001908701378852129,-0.43001019954681396,0.27533233165740967,-17.853544235229492,4.1484375,2,C1,6.1,270,0,0.19087739939812104,[5300|0|0|0]
5300,1.309957504272461,-0.31004655361175537,-0.0017798501066863537,-0.22721925377845764,0.32278284430503845,-17.916879653930664,4.14453125,2,C1,6.1,270,0,0.19107795110013867,[5400|0|0|0]
5400,1.3101012706756592,-0.3101750910282135,-0.001958620734512806,-0.08277088403701782,0.34325936436653137,-17.95879554748535,4.1484375,2,C1,6.1,270,0,0.191340914184034,[5500|0|0|0]
5500,1.310011625289917,-0.309746652841568,-0.001789890113286674,0.0005751790013164282,0.3827066123485565,-18.00420379638672,4.1484375,2,C1,6.1,270,0,0.19181002568197486,[5600|0|0|0]
5600,1.3100932836532593,-0.309672474861145,-0.002005593851208687,0.0752813071012497,0.4029468297958374,-18.033830642700195,4.1484375,2,C1,6.1,270,0,0.19205230354649594,[5700|0|0|0]
5700,1.3100910186767578,-0.3098956048488617,-0.0020335735753178596,0.13757283985614777,0.4191874563694,-18.050254821777344,4.1484375,2,C1,6.1,270,0,0.19227719237791766,[5800|0|0|0]
5800,1.3100742101669312,-0.30991387367248535,-0.0018492942908778787,0.16193266212940216,0.4280979037284851,-18.063169479370117,4.1484375,2,C1,6.1,270,0,0.19246313626889797,[5900|0|0|0]
5900,1.3099287748336792,-0.3100360929965973,-0.0021529928781092167,0.1963193267583847,0.43639761209487915,-18.090177536010742,4.1484375,2,C1,6.1,270,0,0.19282135663575445,[6000|0|0|0]
6000,1.3099614381790161,-0.30995315313339233,-0.0024597819428890944,0.21308140456676483,0.4433029592037201,-18.090648651123047,4.1484375,2,C1,6.1,270,0,0.19314083346637848,[6100|0|0|0]
6100,1.3100112676620483,-0.3100370168685913,-0.0020054737105965614,0.23820368945598602,0.45323196053504944,-18.08991813659668,4.1484375,2,C1,6.1,270,0,0.1936054968643232,[6200|0|0|0]
6200,1.3017840385437012,-0.31942933797836304,-0.005430204328149557,0.5984253883361816,0.5727630853652954,-18.071367263793945,4.1484375,2,C1,6.1,270,0,0.2065527658658404,[6300|0|0|0]
6300,1.3099207878112793,-0.31018713116645813,-0.00198146584443748,0.2581211030483246,0.45823612809181213,-18.083877563476562,4.1484375,2,C1,6.1,270,0,0.2193402156712743,[6400|0|0|0]
6400,1.3095752000808716,-0.31049367785453796,-0.00226674135774374,0.46678054332733154,0.5233080387115479,-18.076976776123047,4.1484375,2,C1,6.1,270,0,0.21988315569546962,[6500|0|0|0]
6500,1.302546739578247,-0.3203284442424774,-0.00577864795923233,0.8005838394165039,0.6132413744926453,-18.078540802001953,4.1484375,2,C1,6.1,270,0,0.2324710615943821,[6600|0|0|0]
6600,1.3021262884140015,-0.3199206292629242,-0.005892390385270119,0.7622696757316589,0.6109352111816406,-18.084745407104492,4.1484375,2,C1,6.1,270,0,0.2330677437363509,[6700|0|0|0]
6700,1.3098543882369995,-0.31014013290405273,-0.0023205748293548822,0.3653128743171692,0.4883381724357605,-18.088205337524414,4.1484375,2,C1,6.1,270,0,0.24603460543321487,[6800|0|0|0]
6800,1.3020670413970947,-0.31962233781814575,-0.005964790470898151,0.7251734137535095,0.6044784188270569,-18.074981689453125,4.14453125,2,C1,6.1,270,0,0.25883442138813756,[6900|0|0|0]
6900,1.3022165298461914,-0.31981247663497925,-0.00566471042111516,0.7226723432540894,0.5956015586853027,-18.07736587524414,4.1484375,2,C1,6.1,270,0,0.25921984012452426,[7000|0|0|0]
7000,1.301303744316101,-0.319805383682251,-0.006030167452991009,0.7179760932922363,0.5957134962081909,-18.06037139892578,4.1484375,2,C1,6.1,270,0,0.2602030931825252,[7100|0|0|0]
7100,1.3022855520248413,-0.3199525773525238,-0.005583517719060183,0.7227216362953186,0.5897873640060425,-18.092517852783203,4.1484375,2,C1,6.1,270,0,0.26129171999568507,[7200|0|0|0]
7200,1.3016011714935303,-0.3200387954711914,-0.005571211222559214,0.7186995148658752,0.5877653360366821,-18.06931495666504,4.1484375,2,C1,6.1,270,0,0.2619816197894814,[7300|0|0|0]
7300,1.3100632429122925,-0.3103954493999481,-0.001996176317334175,0.35500583052635193,0.46892911195755005,-18.07646369934082,4.1484375,2,C1,6.1,270,0,0.2753000900739988,[7400|0|0|0]
7400,1.3023762702941895,-0.3197328746318817,-0.005585228092968464,0.7113848924636841,0.5889661908149719,-18.068233489990234,4.1484375,2,C1,6.1,270,0,0.28791588773572435,[7500|0|0|0]
7500,1.3024526834487915,-0.31981146335601807,-0.0056408909149467945,0.7198672890663147,0.5841336846351624,-18.085573196411133,4.1484375,2,C1,6.1,270,0,0.2880388247419845,[7600|0|0|0]
7600,1.302229404449463,-0.31962260603904724,-0.0057730404660105705,0.71371990442276,0.5896605253219604,-18.100765228271484,4.1484375,2,C1,6.1,270,0,0.2883597361028943,[7700|0|0|0]
7701,1.3022955656051636,-0.3197031319141388,-0.0055071208626031876,0.7201572060585022,0.5914598703384399,-18.095075607299805,4.1484375,2,C1,6.1,270,0,0.28864534939137937,[7800|0|0|0]
7801,1.3022346496582031,-0.31956151127815247,-0.005923772230744362,0.7287235856056213,0.5949042439460754,-18.106962203979492,4.1484375,2,C1,6.1,270,0,0.28908960778432785,[7900|0|0|0]
7900,1.3021926879882812,-0.3198670744895935,-0.005701172631233931,0.7367038726806641,0.592724084854126,-18.121498107910156,4.1484375,2,C1,6.1,270,0,0.28946997634195454,[8000|0|0|0]
8001,1.3025400638580322,-0.3200104832649231,-0.0054094246588647366,0.7155059576034546,0.5714808702468872,-18.12082290649414,4.1484375,2,C1,6.1,270,0,0.2899457419892099,[8100|0|0|0]
8101,1.3023937940597534,-0.31969305872917175,-0.005810067523270845,0.6942015290260315,0.5705455541610718,-18.103618621826172,4.1484375,2,C1,6.1,270,0,0.29047740719832654,[8200|0|0|0]
8201,1.302564263343811,-0.31976979970932007,-0.005452594719827175,0.6656337380409241,0.5574133992195129,-18.090742111206055,4.1484375,2,C1,6.1,270,0,0.2908808124040975,[8300|0|0|0]
8301,1.3025671243667603,-0.3196941912174225,-0.005515680648386478,0.6459125876426697,0.5534615516662598,-18.097658157348633,4.14453125,2,C1,6.1,270,0,0.29097932465654125,[8400|0|0|0]
8401,1.302354097366333,-0.31986021995544434,-0.005582346580922604,0.6431041955947876,0.5524324178695679,-18.0777645111084,4.1484375,2,C1,6.1,270,0,0.29125751594202853,[8500|0|0|0]
8501,1.310642123222351,-0.3104340434074402,-0.002171432599425316,0.4229796826839447,0.49125513434410095,-18.08573341369629,4.1484375,2,C1,6.1,270,0,0.3042643799412153,[8600|0|0|0]
8601,1.302546739578247,-0.3197314739227295,-0.002307904651388526,0.41339337825775146,0.4882933497428894,-18.087106704711914,4.1484375,2,C1,6.1,270,0,0.3165930487725542,[8700|0|0|0]
8702,1.310474157333374,-0.3103378713130951,-0.00212835893034935,0.410041481256485,0.4903031289577484,-18.093114852905273,4.1484375,2,C1,6.1,270,0,0.3288859718959604,[8800|0|0|0]
8801,1.3022773265838623,-0.31934916973114014,-0.0060054766945540905,0.6102864146232605,0.5494261980056763,-18.064743041992188,4.14453125,2,C1,6.1,270,0,0.34166969497152466,[8900|0|0|0]
8901,1.3024190664291382,-0.31962087750434875,-0.005654013250023127,0.6150974631309509,0.5370110869407654,-18.068580627441406,4.1484375,2,C1,6.1,270,0,0.3421360015773136,[9000|0|0|0]
9002,1.3024667501449585,-0.31952300667762756,-0.005694854073226452,0.6037663221359253,0.5306506156921387,-18.071632385253906,4.1484375,2,C1,6.1,270,0,0.34225227886794873,[9100|0|0|0]
9100,1.302472472190857,-0.3196566700935364,-0.005518968682736158,0.6133862137794495,0.5343742370605469,-18.076589584350586,4.1484375,2,C1,6.1,270,0,0.34247326375691084,[9200|0|0|0]
9202,1.3023595809936523,-0.3192577660083771,-0.005641973577439785,0.6134499311447144,0.5479274988174438,-18.077905654907227,4.1484375,2,C1,6.1,270,0,0.3429056976775093,[9300|0|0|0]
9302,1.3019243478775024,-0.3194870948791504,-0.005276811309158802,0.5207833647727966,0.5295067429542542,-18.074735641479492,4.1484375,2,C1,6.1,270,0,0.3435183664938692,[9400|0|0|0]
9400,1.301825761795044,-0.31953758001327515,-0.005724520422518253,0.5569268465042114,0.5433765649795532,-18.101730346679688,4.1484375,2,C1,6.1,270,0,0.34397957297106485,[9500|0|0|0]
9500,1.301607370376587,-0.3192499577999115,-0.005892374087125063,0.5775353312492371,0.5579474568367004,-18.097713470458984,4.1484375,2,C1,6.1,270,0,0.34437781435766074,[9600|0|0|0]
9602,1.3017027378082275,-0.31945040822029114,-0.005530294496566057,0.6007482409477234,0.5649386048316956,-18.092926025390625,4.1484375,2,C1,6.1,270,0,0.3448025224314567,[9700|0|0|0]
9702,1.301940679550171,-0.31949570775032043,-0.005543473642319441,0.5970172882080078,0.5518251061439514,-18.091726303100586,4.1484375,2,C1,6.1,270,0,0.3450450961519268,[9800|0|0|0]
9800,1.3019300699234009,-0.31966260075569153,-0.00523867504671216,0.6106193661689758,0.5516999363899231,-18.08266830444336,4.14453125,2,C1,6.1,270,0,0.3453927569396297,[9900|0|0|0]
9900,1.3016679286956787,-0.31969666481018066,-0.005829500965774059,0.6288959383964539,0.5560799837112427,-18.075376510620117,4.1484375,2,C1,6.1,270,0,0.3460400232292781,[10000|0|0|0]
10000,1.3023074865341187,-0.3194785714149475,-0.005555512383580208,0.6656787395477295,0.5708231329917908,-18.079402923583984,4.1484375,2,C1,6.1,270,0,0.34676917938602847,[10100|0|0|0]
10100,1.3022547960281372,-0.31951627135276794,-0.005979384761303663,0.6972518563270569,0.5834842324256897,-18.06060791015625,4.1484375,2,C1,6.1,270,0,0.3471979746370856,[10200|0|0|0]
10200,1.3015750646591187,-0.31957894563674927,-0.00569935655221343,0.7198938131332397,0.5869085192680359,-18.046415328979492,4.1484375,2,C1,6.1,270,0,0.34793579480337733,[10300|0|0|0]
10300,1.302609920501709,-0.319583535194397,-0.005537735298275948,0.7298681735992432,0.5855991244316101,-18.060075759887695,4.14453125,2,C1,6.1,270,0,0.3489832054719821,[10400|0|0|0]
10400,1.3026989698410034,-0.31970712542533875,-0.005604161880910397,0.7526654005050659,0.5913102626800537,-18.067581176757812,4.1484375,2,C1,6.1,270,0,0.34914938856646976,[10500|0|0|0]
10500,1.3023210763931274,-0.32000023126602173,-0.005526192951947451,0.7840971946716309,0.5986312627792358,-18.06028175354004,4.1484375,2,C1,6.1,270,0,0.349633943667231,[10600|0|0|0]
10600,1.302209734916687,-0.3196658194065094,-0.005548376124352217,0.7411069869995117,0.5858167409896851,-18.064821243286133,4.1484375,2,C1,6.1,270,0,0.34998710129393096,[10700|0|0|0]
10700,1.3023477792739868,-0.31969428062438965,-0.0058193751610815525,0.7048298716545105,0.5645448565483093,-18.07770538330078,4.1484375,2,C1,6.1,270,0,0.35029256285192767,[10800|0|0|0]
10800,1.3023991584777832,-0.3197234570980072,-0.005557558499276638,0.6911844611167908,0.5583897233009338,-18.0743350982666,4.14453125,2,C1,6.1,270,0,0.35056096377143836,[10900|0|0|0]
10900,1.3025537729263306,-0.3197632431983948,-0.005441909655928612,0.6730658411979675,0.5454819798469543,-18.08621597290039,4.1484375,2,C1,6.1,270,0,0.3507581013286196,[11000|0|0|0]
11000,1.3021655082702637,-0.31961020827293396,-0.005978955887258053,0.6686410903930664,0.5502034425735474,-18.081708908081055,4.1484375,2,C1,6.1,270,0,0.35143823939265273,[11100|0|0|0]
11100,1.302485466003418,-0.31979647278785706,-0.005518159829080105,0.6519646644592285,0.5348356366157532,-18.065336227416992,4.1484375,2,C1,6.1,270,0,0.3520293404227289,[11200|0|0|0]
11200,1.302437424659729,-0.3196556568145752,-0.00559248449280858,0.6366605162620544,0.5335208773612976,-18.070438385009766,4.1484375,2,C1,6.1,270,0,0.3521956571827776,[11300|0|0|0]
11300,1.3023016452789307,-0.31958091259002686,-0.0055159335024654865,0.6336091756820679,0.5447902083396912,-18.046297073364258,4.14453125,2,C1,6.1,270,0,0.3523685235863262,[11400|0|0|0]
11400,1.3018139600753784,-0.3195052146911621,-0.005244334693998098,0.5173376202583313,0.5267894268035889,-18.038820266723633,4.1484375,2,C1,6.1,270,0,0.35293184671066713,[11500|0|0|0]
11500,1.3018395900726318,-0.3194706439971924,-0.005212485324591398,0.5410127639770508,0.5402265787124634,-18.037948608398438,4.1484375,2,C1,6.1,270,0,0.3529853855934755,[11600|0|0|0]
11600,1.3017936944961548,-0.31968575716018677,-0.005451906472444534,0.5672623515129089,0.5469407439231873,-18.07258415222168,4.1484375,2,C1,6.1,270,0,0.35331050489907406,[11700|0|0|0]
11700,1.3017488718032837,-0.3192979097366333,-0.005584510043263435,0.5752930045127869,0.5631949305534363,-18.067014694213867,4.1484375,2,C1,6.1,270,0,0.35372283778006613,[11800|0|0|0]
11800,1.3017957210540771,-0.3195660412311554,-0.005576129071414471,0.5976547598838806,0.5601236820220947,-18.072980880737305,4.1484375,2,C1,6.1,270,0,0.3539951603669804,[11900|0|0|0]
11900,1.3017722368240356,-0.31945013999938965,-0.00544757628813386,0.6041120290756226,0.5602477788925171,-18.090116500854492,4.1484375,2,C1,6.1,270,0,0.35416983269642804,[12000|0|0|0]
12000,1.3025072813034058,-0.3197953999042511,-0.005525112152099609,0.629010796546936,0.5607337951660156,-18.09369659423828,4.1484375,2,C1,6.1,270,0,0.35498561857443667,[12100|0|0|0]
12100,1.302212119102478,-0.3194458484649658,-0.005972020793706179,0.6219719052314758,0.573104977607727,-18.093324661254883,4.1484375,2,C1,6.1,270,0,0.3556251764432066,[12200|0|0|0]
12200,1.302329659461975,-0.31988662481307983,-0.00532994931563735,0.6333135962486267,0.5644533634185791,-18.077960968017578,4.1484375,2,C1,6.1,270,0,0.35641280281917237,[12300|0|0|0]
12300,1.3023099899291992,-0.3197345435619354,-0.005517904181033373,0.6267580986022949,0.5694054961204529,-18.087080001831055,4.1484375,2,C1,6.1,270,0,0.3566553778156071,[12400|0|0|0]
12400,1.3022207021713257,-0.3193857669830322,-0.005849988665431738,0.6206283569335938,0.5733761191368103,-18.09430503845215,4.1484375,2,C1,6.1,270,0,0.3571451711500611,[12500|0|0|0]
12500,1.3025238513946533,-0.3198913335800171,-0.0053578889928758144,0.6273730993270874,0.5615359544754028,-18.076229095458984,4.1484375,2,C1,6.1,270,0,0.3579130638009705,[12600|0|0|0]
12600,1.3024765253067017,-0.319714218378067,-0.005534707568585873,0.6141063570976257,0.5604714751243591,-18.092323303222656,4.1484375,2,C1,6.1,270,0,0.35816776826123525,[12700|0|0|0]
12700,1.3024142980575562,-0.31936678290367126,-0.006004600320011377,0.6090781688690186,0.5597972869873047,-18.085834503173828,4.1484375,2,C1,6.1,270,0,0.3587554610698071,[12800|0|0|0]
12800,1.302592396736145,-0.3198550343513489,-0.0055368696339428425,0.6522776484489441,0.5571216940879822,-18.07901382446289,4.14453125,2,C1,6.1,270,0,0.3594546610484717,[12900|0|0|0]
12900,1.3022923469543457,-0.319705069065094,-0.005668273661285639,0.6818355321884155,0.5796641707420349,-18.104745864868164,4.1484375,2,C1,6.1,270,0,0.35981491995126413,[13000|0|0|0]
13000,1.3022148609161377,-0.3196723759174347,-0.00581720657646656,0.7090244293212891,0.5879835486412048,-18.10900115966797,4.1484375,2,C1,6.1,270,0,0.35998595778697695,[13100|0|0|0]
13100,1.302199363708496,-0.31959760189056396,-0.005831761285662651,0.7185978293418884,0.5919046401977539,-18.12652015686035,4.1484375,2,C1,6.1,270,0,0.36006369553906004,[13200|0|0|0]
13200,1.3025031089782715,-0.31981632113456726,-0.005487689282745123,0.7361022233963013,0.5916025638580322,-18.10977554321289,4.1484375,2,C1,6.1,270,0,0.36057210958272917,[13300|0|0|0]
13300,1.3023736476898193,-0.3198557198047638,-0.005639762617647648,0.744321346282959,0.5947654247283936,-18.103296279907227,4.14453125,2,C1,6.1,270,0,0.36077567475560834,[13400|0|0|0]
13400,1.3023545742034912,-0.31981953978538513,-0.0055448757484555244,0.7602137923240662,0.6008747816085815,-18.093486785888672,4.1484375,2,C1,6.1,270,0,0.36087900098474707,[13500|0|0|0]
13500,1.3023393154144287,-0.3197261393070221,-0.00538587337359786,0.7652462720870972,0.6054257750511169,-18.103620529174805,4.1484375,2,C1,6.1,270,0,0.361064036752134,[13600|0|0|0]
13600,1.3023453950881958,-0.31973034143447876,-0.005903175100684166,0.7638698816299438,0.5958726406097412,-18.0948486328125,4.1484375,2,C1,6.1,270,0,0.36158139126999844,[13700|0|0|0]
13700,1.3023314476013184,-0.3196590840816498,-0.006180509924888611,0.7631883025169373,0.5911432504653931,-18.09291648864746,4.1484375,2,C1,6.1,270,0,0.361868073580996,[13800|0|0|0]
13800,1.3023139238357544,-0.31962040066719055,-0.005946523975580931,0.7598797678947449,0.5968591570854187,-18.08502769470215,4.14453125,2,C1,6.1,270,0,0.3621058821455751,[13900|0|0|0]
13900,1.3022264242172241,-0.3199196457862854,-0.005494896788150072,0.7663769125938416,0.5902017951011658,-18.086986541748047,4.1484375,2,C1,6.1,270,0,0.3626546725800505,[14000|0|0|0]
14000,1.3021819591522217,-0.3198118805885315,-0.0059477477334439754,0.7651771306991577,0.5914379954338074,-18.085861206054688,4.1484375,2,C1,6.1,270,0,0.36312228829675197,[14100|0|0|0]
14100,1.3023158311843872,-0.31966841220855713,-0.005750742275267839,0.7545251846313477,0.5854564905166626,-18.079660415649414,4.1484375,2,C1,6.1,270,0,0.36340034593034576,[14200|0|0|0]
14200,1.3022702932357788,-0.3195897936820984,-0.005846419837325811,0.7185970544815063,0.5694625973701477,-18.06635284423828,4.1484375,2,C1,6.1,270,0,0.36353228824102496,[14300|0|0|0]
14300,1.3023173809051514,-0.31959614157676697,-0.0060187517665326595,0.6913458108901978,0.5531702637672424,-18.059917449951172,4.14453125,2,C1,6.1,270,0,0.3637110502006188,[14400|0|0|0]
14400,1.3025052547454834,-0.31978681683540344,-0.005204490385949612,0.6731436848640442,0.5416480302810669,-18.075485229492188,4.1484375,2,C1,6.1,270,0,0.3645681821799815,[14500|0|0|0]
14500,1.3022993803024292,-0.3198208212852478,-0.005771271418780088,0.6549159288406372,0.5387697219848633,-18.088912963867188,4.1484375,2,C1,6.1,270,0,0.365172153477386,[14600|0|0|0]
14600,1.3024165630340576,-0.31971022486686707,-0.005965170916169882,0.647563636302948,0.536919355392456,-18.070470809936523,4.1484375,2,C1,6.1,270,0,0.365424265308601,[14700|0|0|0]
14700,1.302369236946106,-0.3196997046470642,-0.005784070584923029,0.6359779238700867,0.5254196524620056,-18.057409286499023,4.1484375,2,C1,6.1,270,0,0.36561174267684377,[14800|0|0|0]
14800,1.3022856712341309,-0.31970179080963135,-0.005789470858871937,0.6253774762153625,0.526901125907898,-18.06310272216797,4.14453125,2,C1,6.1,270,0,0.3656955086797977,[14900|0|0|0]
14900,1.3024420738220215,-0.319572776556015,-0.005754493176937103,0.6142849326133728,0.5247066617012024,-18.079256057739258,4.1484375,2,C1,6.1,270,0,0.3659012509587989,[15000|0|0|0]
15000,1.302533745765686,-0.3196715712547302,-0.005588612984865904,0.614753246307373,0.5212770700454712,-18.05925941467285,4.1484375,2,C1,6.1,270,0,0.36611498063823306,[15100|0|0|0]
15100,1.303224802017212,-0.31960657238960266,-0.005659694783389568,0.6248973608016968,0.5268791317939758,-18.08538246154785,4.1484375,2,C1,6.1,270,0,0.3668127171338546,[15200|0|0|0]
15200,1.302965760231018,-0.3195934593677521,-0.005657627247273922,0.6287497878074646,0.5377022624015808,-18.077781677246094,4.1484375,2,C1,6.1,270,0,0.36707209884686104,[15300|0|0|0]
15300,1.3031749725341797,-0.3196631669998169,-0.005571379326283932,0.6303160786628723,0.5307900309562683,-18.08106803894043,4.14453125,2,C1,6.1,270,0,0.36730888492254404,[15400|0|0|0]
15400,1.303066372871399,-0.31929972767829895,-0.005817655939608812,0.6176649928092957,0.5388768315315247,-18.079111099243164,4.1484375,2,C1,6.1,270,0,0.3677611394940547,[15500|0|0|0]
15500,1.3024274110794067,-0.3193083107471466,-0.005823574494570494,0.5118024945259094,0.5159831047058105,-18.070980072021484,4.1484375,2,C1,6.1,270,0,0.3684001863389648,[15600|0|0|0]
15600,1.3025624752044678,-0.3196847140789032,-0.005383157171308994,0.5454012751579285,0.5174626708030701,-18.08067512512207,4.1484375,2,C1,6.1,270,0,0.36899507221429284,[15700|0|0|0]
15700,1.3025062084197998,-0.3194998502731323,-0.005618431605398655,0.5504308342933655,0.517705500125885,-18.085233688354492,4.1484375,2,C1,6.1,270,0,0.36929953015404343,[15800|0|0|0]
15800,1.302540898323059,-0.31971895694732666,-0.005412595812231302,0.6338183879852295,0.5370772480964661,-18.08039665222168,4.14453125,2,C1,6.1,270,0,0.36960215120059087,[15900|0|0|0]
15900,1.302638053894043,-0.3194437325000763,-0.005770693067461252,0.672231912612915,0.5569859743118286,-18.07884979248047,4.1484375,2,C1,6.1,270,0,0.3700641266821272,[16000|0|0|0]
16000,1.302525520324707,-0.31980234384536743,-0.005474630743265152,0.7348440289497375,0.5763606429100037,-18.062896728515625,4.1484375,2,C1,6.1,270,0,0.3705425812787269,[16100|0|0|0]
16100,1.3023860454559326,-0.31975823640823364,-0.005790605675429106,0.7482470870018005,0.5859495401382446,-18.055707931518555,4.1484375,2,C1,6.1,270,0,0.3708907749931822,[16200|0|0|0]
16200,1.3022363185882568,-0.3194902837276459,-0.005830744747072458,0.7573126554489136,0.6015247702598572,-18.047895431518555,4.14453125,2,C1,6.1,270,0,0.37120033584182194,[16300|0|0|0]
16300,1.3030742406845093,-0.3198859691619873,-0.005699757486581802,0.7531817555427551,0.5895041227340698,-18.07935905456543,4.14453125,2,C1,6.1,270,0,0.37213619804575415,[16400|0|0|0]
16400,1.3030991554260254,-0.3195689916610718,-0.005631564185023308,0.7032634615898132,0.5739209651947021,-18.0849609375,4.1484375,2,C1,6.1,270,0,0.372461383849271,[16500|0|0|0]
16500,1.3030998706817627,-0.3196150064468384,-0.005525061395019293,0.6810234785079956,0.5662135481834412,-18.097137451171875,4.14453125,2,C1,6.1,270,0,0.37257740417670787,[16600|0|0|0]
16600,1.3031915426254272,-0.3197450637817383,-0.005597078241407871,0.6759827136993408,0.5596156716346741,-18.069101333618164,4.1484375,2,C1,6.1,270,0,0.3727520612171622,[16700|0|0|0]
16700,1.3032503128051758,-0.31961357593536377,-0.00558865861967206,0.6539834141731262,0.5572652220726013,-18.085693359375,4.1484375,2,C1,6.1,270,0,0.3728963313727803,[16800|0|0|0]
16800,1.302337884902954,-0.3195004165172577,-0.005486624781042337,0.5175150036811829,0.5428526401519775,-18.06124496459961,4.14453125,2,C1,6.1,270,0,0.37382139387601143,[16900|0|0|0]
16900,1.3024626970291138,-0.3196028470993042,-0.0056162308901548386,0.5480104088783264,0.544359028339386,-18.080121994018555,4.1484375,2,C1,6.1,270,0,0.3740284393649605,[17000|0|0|0]
17000,1.302483081817627,-0.31972867250442505,-0.005611071828752756,0.5683882236480713,0.5530967116355896,-18.082996368408203,4.1484375,2,C1,6.1,270,0,0.3741560096910207,[17100|0|0|0]
17100,1.3024252653121948,-0.31950393319129944,-0.005824395455420017,0.5836241841316223,0.5570188164710999,-18.063520431518555,4.1484375,2,C1,6.1,270,0,0.37447121990160886,[17200|0|0|0]
17200,1.3024933338165283,-0.3197977542877197,-0.005861583631485701,0.6073496341705322,0.555721640586853,-18.060476303100586,4.1484375,2,C1,6.1,270,0,0.37477510658842306,[17300|0|0|0]
17300,1.302554726600647,-0.3196769058704376,-0.005596868693828583,0.6185691952705383,0.5650384426116943,-18.05474090576172,4.14453125,2,C1,6.1,270,0,0.37507250768478995,[17400|0|0|0]
17400,1.3023408651351929,-0.319707453250885,-0.005475329700857401,0.6279758214950562,0.5755063891410828,-18.054061889648438,4.14453125,2,C1,6.1,270,0,0.37532038183767974,[17500|0|0|0]
17500,1.3026574850082397,-0.31945961713790894,-0.005572271998971701,0.6195648908615112,0.5633445978164673,-18.07954216003418,4.1484375,2,C1,6.1,270,0,0.3757339863493415,[17600|0|0|0]
17600,1.3025128841400146,-0.319530189037323,-0.005806358531117439,0.619290292263031,0.5710579752922058,-18.06473731994629,4.1484375,2,C1,6.1,270,0,0.3760180397045591,[17700|0|0|0]
17700,1.302545428276062,-0.31982696056365967,-0.00565294036641717,0.6263960003852844,0.5640636682510376,-18.05298614501953,4.1484375,2,C1,6.1,270,0,0.3763537026201385,[17800|0|0|0]
17800,1.3022900819778442,-0.3197503089904785,-0.005404271185398102,0.631577730178833,0.5703907608985901,-18.061031341552734,4.14453125,2,C1,6.1,270,0,0.3767182757366369,[17900|0|0|0]
17900,1.3024238348007202,-0.3196609914302826,-0.005709439981728792,0.6306602358818054,0.5636885166168213,-18.076969146728516,4.1484375,2,C1,6.1,270,0,0.3770632328911367,[18000|0|0|0]
18000,1.3025203943252563,-0.31977182626724243,-0.005480081308633089,0.635379433631897,0.5601932406425476,-18.07878875732422,4.14453125,2,C1,6.1,270,0,0.37733565444642697,[18100|0|0|0]
18100,1.3021230697631836,-0.3200584650039673,-0.0057259793393313885,0.8778568506240845,0.642240047454834,-18.077316284179688,4.1484375,2,C1,6.1,270,0,0.37788382815477023,[18200|0|0|0]
18200,1.302477240562439,-0.3202686011791229,-0.005639983806759119,0.8227812051773071,0.6090996265411377,-18.082061767578125,4.1484375,2,C1,6.1,270,0,0.37830452923484564,[18300|0|0|0]
18300,1.3024154901504517,-0.31999173760414124,-0.005361624993383884,0.7824351191520691,0.6153727173805237,-18.07779884338379,4.14453125,2,C1,6.1,270,0,0.37870195870219286,[18400|0|0|0]
18400,1.3031599521636963,-0.3194745182991028,-0.005780327133834362,0.5476587414741516,0.5393268465995789,-18.081571578979492,4.1484375,2,C1,6.1,270,0,0.3797004831040412,[18500|0|0|0]
18500,1.3033332824707031,-0.31981825828552246,-0.005366773810237646,0.583968460559845,0.5392250418663025,-18.07779312133789,4.1484375,2,C1,6.1,270,0,0.3802654848076216,[18600|0|0|0]
18600,1.303053379058838,-0.31981536746025085,-0.005706959404051304,0.607235848903656,0.5503506660461426,-18.089954376220703,4.14453125,2,C1,6.1,270,0,0.38070603050909074,[18700|0|0|0]
18700,1.3031988143920898,-0.31973546743392944,-0.0056169708259403706,0.6253188848495483,0.5516499280929565,-18.078519821166992,4.1484375,2,C1,6.1,270,0,0.3808947986063813,[18800|0|0|0]
18800,1.3030809164047241,-0.3196682929992676,-0.005614458583295345,0.6282140612602234,0.5523260235786438,-18.086406707763672,4.14453125,2,C1,6.1,270,0,0.3810305139388244,[18900|0|0|0]
18900,1.3033559322357178,-0.31959837675094604,-0.0055150981061160564,0.638316810131073,0.5447067618370056,-18.078800201416016,4.1484375,2,C1,6.1,270,0,0.3813311707090821,[19000|0|0|0]
19000,1.3031232357025146,-0.31962671875953674,-0.005590064916759729,0.6403148770332336,0.5530347228050232,-18.064697265625,4.1484375,2,C1,6.1,270,0,0.3815772824087508,[19100|0|0|0]
19100,1.3032337427139282,-0.31968557834625244,-0.005526149645447731,0.6425178647041321,0.5489466190338135,-18.052244186401367,4.1484375,2,C1,6.1,270,0,0.38171785769970473,[19200|0|0|0]
19200,1.3031408786773682,-0.3195006847381592,-0.005647699348628521,0.6415248513221741,0.5466815829277039,-18.044063568115234,4.14453125,2,C1,6.1,270,0,0.3819578237513523,[19300|0|0|0]
19300,1.3031643629074097,-0.3196251094341278,-0.0056726085022091866,0.642649233341217,0.5395615696907043,-18.051206588745117,4.14453125,2,C1,6.1,270,0,0.3820868721142231,[19400|0|0|0]
19400,1.3030451536178589,-0.31945791840553284,-0.0055597033351659775,0.6402981281280518,0.5492955446243286,-18.068815231323242,4.1484375,2,C1,6.1,270,0,0.3823212036560669,[19500|0|0|0]
19500,1.302919864654541,-0.31949496269226074,-0.0060795689933001995,0.644163191318512,0.5487738251686096,-18.06671142578125,4.14453125,2,C1,6.1,270,0,0.3828572352838798,[19600|0|0|0]
19600,1.302973747253418,-0.31950369477272034,-0.005776516627520323,0.6364745497703552,0.5485299229621887,-18.09870147705078,4.1484375,2,C1,6.1,270,0,0.3831651643667799,[19700|0|0|0]
19700,1.302544355392456,-0.3196350634098053,-0.005266596097499132,0.5215128064155579,0.5213162899017334,-18.08444595336914,4.1484375,2,C1,6.1,270,0,0.383844615642448,[19800|0|0|0]
19800,1.3026034832000732,-0.3198317289352417,-0.005312947556376457,0.5465497374534607,0.5271291136741638,-18.08774757385254,4.14453125,2,C1,6.1,270,0,0.38405514327547713,[19900|0|0|0]
19900,1.3025695085525513,-0.31974056363105774,-0.005310778506100178,0.569843053817749,0.5370667576789856,-18.089956283569336,4.1484375,2,C1,6.1,270,0,0.38415245768417544,[20000|0|0|0]
20000,1.3026340007781982,-0.3198262155056,-0.005274384282529354,0.5989166498184204,0.540012538433075,-18.09937858581543,4.1484375,2,C1,6.1,270,0,0.38426568325677646,[20100|0|0|0]
20100,1.3023698329925537,-0.31956690549850464,-0.005734950304031372,0.6081202030181885,0.5548276901245117,-18.11739158630371,4.14453125,2,C1,6.1,270,0,0.3848565701824351,[20200|0|0|0]
20200,1.3024697303771973,-0.3196948766708374,-0.005629677325487137,0.619765043258667,0.5529223084449768,-18.104177474975586,4.1484375,2,C1,6.1,270,0,0.3850500605140241,[20300|0|0|0]
20300,1.3025155067443848,-0.31974008679389954,-0.005273115821182728,0.6252099275588989,0.5514956712722778,-18.095218658447266,4.14453125,2,C1,6.1,270,0,0.38541238017588636,[20400|0|0|0]
20400,1.3023477792739868,-0.31937292218208313,-0.006099074613302946,0.629349946975708,0.5555035471916199,-18.096345901489258,4.14453125,2,C1,6.1,270,0,0.38633170073084916,[20500|0|0|0]
20500,1.3025460243225098,-0.31975919008255005,-0.005395658779889345,0.6380366683006287,0.5559719204902649,-18.08605194091797,4.14453125,2,C1,6.1,270,0,0.387158319037501,[20600|0|0|0]
20600,1.3024423122406006,-0.3196873068809509,-0.005506062414497137,0.6313919425010681,0.5610831379890442,-18.084510803222656,4.1484375,2,C1,6.1,270,0,0.38732598642592425,[20700|0|0|0]
20700,1.3024665117263794,-0.3194985091686249,-0.00585169717669487,0.627196192741394,0.558559775352478,-18.078758239746094,4.14453125,2,C1,6.1,270,0,0.387720566684086,[20800|0|0|0]
20800,1.3024049997329712,-0.3196523189544678,-0.005827754270285368,0.6219912767410278,0.5563260316848755,-18.0881404876709,4.14453125,2,C1,6.1,270,0,0.38788794182656966,[20900|0|0|0]
20900,1.302476167678833,-0.31974276900291443,-0.005689871031790972,0.6201329827308655,0.5608346462249756,-18.094966888427734,4.14453125,2,C1,6.1,270,0,0.3880675466016729,[21000|0|0|0]
21000,1.3023715019226074,-0.31978046894073486,-0.005626628175377846,0.6125735640525818,0.5557317137718201,-18.082944869995117,4.14453125,2,C1,6.1,270,0,0.3881955148193101,[21100|0|0|0]
21100,1.302559733390808,-0.3196370601654053,-0.005602673627436161,0.6031374335289001,0.5531869530677795,-18.082536697387695,4.1484375,2,C1,6.1,270,0,0.388433361372427,[21200|0|0|0]
21200,1.3025424480438232,-0.31937506794929504,-0.0055941385217010975,0.5963940620422363,0.5536379814147949,-18.068662643432617,4.1484375,2,C1,6.1,270,0,0.38869606187214606,[21300|0|0|0]
21300,1.3022961616516113,-0.31969591975212097,-0.005599496886134148,0.5975183248519897,0.5485737919807434,-18.094467163085938,4.14453125,2,C1,6.1,270,0,0.3891005758749133,[21400|0|0|0]
21400,1.3032619953155518,-0.3199380338191986,-0.005521553568542004,0.605911374092102,0.5464642643928528,-18.11552619934082,4.1484375,2,C1,6.1,270,0,0.39009933963508625,[21500|0|0|0]
21500,1.3032231330871582,-0.31980761885643005,-0.005584053695201874,0.6043219566345215,0.5527387857437134,-18.105405807495117,4.1484375,2,C1,6.1,270,0,0.3902490880946514,[21600|0|0|0]
21600,1.3023977279663086,-0.31983646750450134,-0.005404118448495865,0.6002122163772583,0.5550785660743713,-18.075258255004883,4.14453125,2,C1,6.1,270,0,0.3910943706219921,[21700|0|0|0]
21700,1.3033075332641602,-0.31977760791778564,-0.005774625577032566,0.6007512807846069,0.5521880984306335,-18.09674644470215,4.1484375,2,C1,6.1,270,0,0.39207848731387557,[21800|0|0|0]
21800,1.3033928871154785,-0.32000216841697693,-0.005460546351969242,0.6085806488990784,0.5483013391494751,-18.097639083862305,4.14453125,2,C1,6.1,270,0,0.3924739091864981,[21900|0|0|0]
21900,1.3023796081542969,-0.3194686472415924,-0.005740356165915728,0.5958850979804993,0.5650495290756226,-18.085023880004883,4.14453125,2,C1,6.1,270,0,0.39365275295466157,[22000|0|0|0]
22000,1.3030107021331787,-0.3197573125362396,-0.005657666828483343,0.605015218257904,0.5576210618019104,-18.117382049560547,4.14453125,2,C1,6.1,270,0,0.39435164120684474,[22100|0|0|0]
22100,1.3025152683258057,-0.31973960995674133,-0.005586302373558283,0.6003972887992859,0.552563488483429,-18.087207794189453,4.1484375,2,C1,6.1,270,0,0.39485250139116346,[22200|0|0|0]
22200,1.303085207939148,-0.3195171058177948,-0.005798335652798414,0.5944947004318237,0.5576024651527405,-18.139305114746094,4.14453125,2,C1,6.1,270,0,0.3955000331403545,[22300|0|0|0]
22300,1.3031668663024902,-0.3198794722557068,-0.00548492930829525,0.6027809977531433,0.5445786118507385,-18.116214752197266,4.14453125,2,C1,6.1,270,0,0.39598603834650314,[22400|0|0|0]
22400,1.3031911849975586,-0.3198063373565674,-0.00566750206053257,0.5907330513000488,0.5406544208526611,-18.088422775268555,4.1484375,2,C1,6.1,270,0,0.39618421231619005,[22500|0|0|0]
22500,1.3096891641616821,-0.3094806671142578,-0.0019696266390383244,0.30539169907569885,0.44333696365356445,-18.051647186279297,4.14453125,2,C1,6.1,270,0,0.4089324467744667,[22600|0|0|0]
22600,1.3031363487243652,-0.3195844888687134,-0.005626770202070475,0.6671437621116638,0.5629366040229797,-18.093259811401367,4.1484375,2,C1,6.1,270,0,0.42151820472708823,[22700|0|0|0]
22700,1.3031102418899536,-0.3196568191051483,-0.005646701902151108,0.7089574933052063,0.576465904712677,-18.10196876525879,4.1484375,2,C1,6.1,270,0,0.42159764339886613,[22800|0|0|0]
22800,1.3092103004455566,-0.3097574710845947,-0.0021930700168013573,0.4116648733615875,0.4901868402957916,-18.075239181518555,4.14453125,2,C1,6.1,270,0,0.4337275806952139,[22900|0|0|0]
22900,1.3094089031219482,-0.3098646104335785,-0.0018054322572425008,0.42625290155410767,0.49506670236587524,-18.06207275390625,4.1484375,2,C1,6.1,270,0,0.43417611708817033,[23000|0|0|0]
23000,1.309485673904419,-0.30962586402893066,-0.0019807456992566586,0.4299977421760559,0.49619171023368835,-18.05828857421875,4.1484375,2,C1,6.1,270,0,0.43448210467243525,[23100|0|0|0]
23100,1.309261679649353,-0.31009724736213684,-0.0017467972356826067,0.439744770526886,0.49393293261528015,-18.058298110961914,4.1484375,2,C1,6.1,270,0,0.43505403784749663,[23200|0|0|0]
23200,1.3095248937606812,-0.30963239073753357,-0.0016219838289543986,0.43629583716392517,0.495621919631958,-18.046035766601562,4.1484375,2,C1,6.1,270,0,0.4356026285294617,[23300|0|0|0]
23300,1.3094490766525269,-0.30970636010169983,-0.0020099251996725798,0.4470590054988861,0.5039626359939575,-18.047998428344727,4.14453125,2,C1,6.1,270,0,0.4360047705539241,[23400|0|0|0]
23400,1.3096867799758911,-0.3099842071533203,-0.0015942644095048308,0.45464447140693665,0.4944629371166229,-18.035852432250977,4.14453125,2,C1,6.1,270,0,0.4365583730706412,[23500|0|0|0]
23500,1.3093297481536865,-0.30969977378845215,-0.0022470189724117517,0.448346883058548,0.5032853484153748,-18.03600311279297,4.14453125,2,C1,6.1,270,0,0.4373549046648123,[23600|0|0|0]
23600,1.3094000816345215,-0.31010785698890686,-0.001918251859024167,0.450157105922699,0.4990672171115875,-18.01120376586914,4.1484375,2,C1,6.1,270,0,0.43788364516058026,[23700|0|0|0]
23700,1.3095102310180664,-0.30970144271850586,-0.0019267708994448185,0.42828091979026794,0.49835655093193054,-17.999540328979492,4.1484375,2,C1,6.1,270,0,0.4383048078606507,[23800|0|0|0]
23800,1.309531807899475,-0.30865487456321716,-0.00126620230730623,0.14681726694107056,0.4116683602333069,-17.99854278564453,4.14453125,2,C1,6.1,270,0,0.43954259674830304,[23900|0|0|0]
23900,1.3099029064178467,-0.3094722330570221,-0.0015402839053422213,0.20509302616119385,0.42487287521362305,-18.028932571411133,4.1484375,2,C1,6.1,270,0,0.4404811646681227,[24000|0|0|0]
24000,1.3095303773880005,-0.30977505445480347,-0.0014750963309779763,0.2525908052921295,0.4449872672557831,-18.02828025817871,4.14453125,2,C1,6.1,270,0,0.4409656521260449,[24100|0|0|0]
24100,1.309458613395691,-0.30923378467559814,-0.0020415731705725193,0.25729960203170776,0.4484825134277344,-18.033374786376953,4.1484375,2,C1,6.1,270,0,0.44175242976570567,[24200|0|0|0]
24201,1.3096309900283813,-0.30971759557724,-0.0016559818759560585,0.27668923139572144,0.4507583677768707,-18.038122177124023,4.14453125,2,C1,6.1,270,0,0.44239466596721505,[24300|0|0|0]
24300,1.3096973896026611,-0.3096628785133362,-0.0018555293790996075,0.2794272005558014,0.45689070224761963,-18.045682907104492,4.14453125,2,C1,6.1,270,0,0.44261197235588695,[24400|0|0|0]
24401,1.3097602128982544,-0.309702605009079,-0.0015996291767805815,0.28418290615081787,0.4618006944656372,-18.04169273376465,4.1484375,2,C1,6.1,270,0,0.442878449136264,[24500|0|0|0]
24501,1.3091039657592773,-0.3092198073863983,-0.0012805697042495012,0.2900959551334381,0.460665225982666,-18.024566650390625,4.1484375,2,C1,6.1,270,0,0.4437534078775161,[24600|0|0|0]
24601,1.3090859651565552,-0.30896350741386414,-0.00172048166859895,0.280893474817276,0.4602316617965698,-18.04907989501953,4.1484375,2,C1,6.1,270,0,0.4442628548659233,[24700|0|0|0]
24701,1.3096445798873901,-0.30979427695274353,-0.001698478008620441,0.2915354073047638,0.4544564187526703,-18.063539505004883,4.1484375,2,C1,6.1,270,0,0.4452642102500343,[24800|0|0|0]
24801,1.309655785560608,-0.3095450699329376,-0.00173201784491539,0.27664369344711304,0.454480916261673,-18.06132698059082,4.14453125,2,C1,6.1,270,0,0.4455159136994574,[24900|0|0|0]
24901,1.309370517730713,-0.3099868893623352,-0.0017875544726848602,0.2919481098651886,0.4627613127231598,-18.077686309814453,4.1484375,2,C1,6.1,270,0,0.4460447487020719,[25000|0|0|0]
25002,1.3090864419937134,-0.3094458281993866,-0.002114036586135626,0.28036805987358093,0.47465211153030396,-18.060104370117188,4.14453125,2,C1,6.1,270,0,0.44673759556596493,[25100|0|0|0]
25102,1.3097267150878906,-0.30947014689445496,-0.0017032671021297574,0.27572789788246155,0.456510990858078,-18.040624618530273,4.14453125,2,C1,6.1,270,0,0.4474986951672311,[25200|0|0|0]
25202,1.3093022108078003,-0.31008920073509216,-0.002130659529939294,0.47556033730506897,0.5207850933074951,-18.021148681640625,4.1484375,2,C1,6.1,270,0,0.4483624635556152,[25300|0|0|0]
25302,1.3093657493591309,-0.3098883032798767,-0.0019351309165358543,0.436081200838089,0.506549596786499,-18.0140323638916,4.14453125,2,C1,6.1,270,0,0.4486499150709647,[25400|0|0|0]
25401,1.309360384941101,-0.3100295066833496,-0.002129887230694294,0.41616320610046387,0.49342623353004456,-18.049484252929688,4.1484375,2,C1,6.1,270,0,0.4488905334410816,[25500|0|0|0]
25502,1.3032501935958862,-0.3198711574077606,-0.005505617242306471,0.6321675777435303,0.5651266574859619,-18.09511375427246,4.1484375,2,C1,6.1,270,0,0.4609565220192188,[25600|0|0|0]
25602,1.3092710971832275,-0.30987536907196045,-0.002006928436458111,0.37202468514442444,0.4826994836330414,-18.046964645385742,4.1484375,2,C1,6.1,270,0,0.473138799631486,[25700|0|0|0]
25700,1.309364676475525,-0.3101770877838135,-0.0021284068934619427,0.3699645400047302,0.47315993905067444,-18.038877487182617,4.1484375,2,C1,6.1,270,0,0.4734772494513192,[25800|0|0|0]
25800,1.3092418909072876,-0.31016412377357483,-0.001717901905067265,0.3640959560871124,0.468756765127182,-18.033390045166016,4.14453125,2,C1,6.1,270,0,0.4739059203120337,[25900|0|0|0]
25900,1.3091429471969604,-0.3099299371242523,-0.0019817843567579985,0.35418736934661865,0.47211429476737976,-18.111793518066406,3.09375,2,A/E1,6.1,270,0,0.4742723451922541,[25900|0|0|0]
26002,1.3092305660247803,-0.30983904004096985,-0.0018534844275563955,0.4679346978664398,0.38276925683021545,-17.32305145263672,3.298828125,2,A/E1,6.1,270,0,0.4744523457771723,[25900|0|0|0]
26100,1.3094096183776855,-0.3097176253795624,0.014539709314703941,1.3048399686813354,0.8388137221336365,-13.632227897644043,3.611328125,2,A/E1,6.1,270,0,0.4908469669175454,[25900|0|0|0]
26200,1.3096654415130615,-0.30793580412864685,0.06130224093794823,0.35479190945625305,-1.2525265216827393,-9.397124290466309,3.68359375,2,A/E1,6.1,270,0,0.537644132390058,[25900|0|0|0]
26300,1.3124171495437622,-0.3053036630153656,0.12704333662986755,0.6341004967689514,-0.5407092571258545,-5.722476005554199,3.720703125,2,A/E1,6.1,270,0,0.6034954173183003,[25900|0|0|0]
26400,1.3168854713439941,-0.3025098741054535,0.2012874037027359,1.421040415763855,-0.2774677872657776,-2.928536891937256,3.732421875,2,A/E1,6.1,270,0,0.677926275513703,[25900|0|0|0]
26500,1.3223501443862915,-0.2995056211948395,0.28006085753440857,1.8481194972991943,0.10752106457948685,-0.8728558421134949,3.732421875,2,A/E1,6.1,270,0,0.7569461794340496,[25900|0|0|0]
26600,1.3279263973236084,-0.2986694276332855,0.3619491755962372,2.103708505630493,0.7985178232192993,0.35324627161026,3.732421875,2,A/E1,6.1,270,0,0.839028397066668,[25900|0|0|0]
26700,1.334829568862915,-0.3021217882633209,0.44976112246513367,2.111968755722046,0.9786961674690247,0.8184067606925964,3.7265625,2,A/E1,6.1,270,0,0.9271788966916095,[25900|0|0|0]
26800,1.3370635509490967,-0.30560898780822754,0.5352665781974792,1.434827446937561,1.2416034936904907,1.1173704862594604,3.716796875,2,A/E1,6.1,270,0,1.0127845869033207,[25900|0|0|0]
26900,1.3367582559585571,-0.30998486280441284,0.620425283908844,1.0019782781600952,1.0054289102554321,1.3416352272033691,3.7109375,2,A/E1,6.1,270,0,1.098056192056785,[25900|0|0|0]
27000,1.334434986114502,-0.31508854031562805,0.7092465758323669,1.037912130355835,1.1100372076034546,1.34183669090271,3.705078125,2,A/E1,6.1,270,0,1.1870543212835867,[25900|0|0|0]
27100,1.3252533674240112,-0.3146323561668396,0.792948305606842,0.2693401873111725,0.5951438546180725,1.314450979232788,3.705078125,2,A/E1,6.1,270,0,1.271259367409068,[25900|0|0|0]
27200,1.3214420080184937,-0.3204733431339264,0.8845073580741882,0.31610891222953796,0.4233277142047882,1.3121719360351562,3.705078125,2,A/E1,6.1,270,0,1.3630836761621752,[25900|0|0|0]
27300,1.3157103061676025,-0.32408273220062256,0.976535439491272,0.18576638400554657,0.066360242664814,1.51019287109375,3.701171875,2,A/E1,6.1,270,0,1.4553606931536867,[25900|0|0|0]
27400,1.3097022771835327,-0.32729268074035645,1.0708134174346924,0.4700000584125519,-0.008469036780297756,3.95013689994812,3.701171875,2,A/E1,6.1,270,0,1.5498844325369825,[25900|0|0|0]
27500,1.3041086196899414,-0.33070051670074463,1.166782259941101,0.18001922965049744,-0.036875706166028976,9.391715049743652,3.701171875,2,A/E1,6.1,270,0,1.646076537629388,[25900|0|0|0]
27600,1.2982639074325562,-0.33303093910217285,1.2645477056503296,0.4202183187007904,0.07611990720033646,11.726813316345215,3.689453125,2,A/E1,6.1,270,0,1.744044256316029,[25900|0|0|0]
27700,1.2925455570220947,-0.33668380975723267,1.3626532554626465,0.42771968245506287,0.22969673573970795,12.814215660095215,3.7109375,2,A/E1,6.1,270,0,1.8423841866567425,[25900|0|0|0]
27800,1.2874536514282227,-0.3384843170642853,1.4574862718582153,-0.04411385953426361,-0.0408165417611599,11.608189582824707,3.76953125,2,A/E1,6.1,270,0,1.9373708716595464,[25900|0|0|0]
27900,1.2817442417144775,-0.347302109003067,1.5458173751831055,0.03553082048892975,0.627083420753479,10.147184371948242,3.779296875,2,A/E1,6.1,270,0,2.0263244248687773,[25900|0|0|0]
28000,1.2774481773376465,-0.3486374020576477,1.6226094961166382,-0.06805003434419632,0.18571072816848755,8.52962875366211,3.7890625,2,A/E1,6.1,270,0,2.1032482119189595,[25900|0|0|0]
28100,1.2697010040283203,-0.35980644822120667,1.6803205013275146,-0.1401733011007309,0.9923970699310303,0.8164620995521545,3.78515625,2,A/E1,6.1,270,0,2.162538400052733,[25900|0|0|0]
28200,1.2667913436889648,-0.3680057227611542,1.7210793495178223,-0.78736412525177,1.1383013725280762,-4.751385688781738,3.76953125,2,A/E1,6.1,270,0,2.204215467272877,[25900|0|0|0]
28300,1.2603975534439087,-0.36583253741264343,1.7463232278823853,-0.9758093357086182,1.4668548107147217,0.03995443508028984,3.75390625,2,A/E1,6.1,270,0,2.230346993886177,[25900|0|0|0]
28400,1.2474807500839233,-0.3636317253112793,1.7582504749298096,-0.8908878564834595,1.0634220838546753,-3.820352554321289,3.7265625,2,A/E1,6.1,270,0,2.2480655323438583,[25900|0|0|0]
28500,1.2349148988723755,-0.35649001598358154,1.7656471729278564,-0.4641789495944977,0.019388047978281975,-4.165652751922607,3.716796875,2,A/E1,6.1,270,0,2.2643017809889856,[25900|0|0|0]
28600,1.2229191064834595,-0.3495144546031952,1.7679213285446167,0.3904254734516144,-0.764257550239563,-3.838378667831421,3.716796875,2,A/E1,6.1,270,0,2.2783634051974033,[25900|0|0|0]
28700,1.2116425037384033,-0.34871533513069153,1.7631380558013916,0.9394276738166809,-1.839542269706726,-4.152500152587891,3.705078125,2,A/E1,6.1,270,0,2.290638585828955,[25900|0|0|0]
28800,1.2064058780670166,-0.3461982309818268,1.7639093399047852,0.8206419944763184,-2.5501811504364014,-4.6190385818481445,3.705078125,2,A/E1,6.1,270,0,2.2964997240193243,[25900|0|0|0]
28900,1.2031770944595337,-0.348172128200531,1.7656532526016235,0.5616859197616577,-2.7299182415008545,-4.442035675048828,3.958984375,2,A/E1,6.1,270,183.4893249057964,2.300666562786082,[25900|0|0|0]
29000,1.195054292678833,-0.3454135060310364,1.739048957824707,-12.894713401794434,-3.0604918003082275,-8.805765151977539,3.94921875,2,A/E1,6.1,270,183.4893249057964,2.328619709400008,[25900|0|0|0]
29100,1.204398512840271,-0.33695730566978455,1.685254454612732,-14.283759117126465,-5.303658962249756,-3.2380294799804688,3.822265625,2,A/E1,6.1,270,183.4893249057964,2.3838706854167104,[25900|0|0|0]
29200,1.2128651142120361,-0.31668809056282043,1.5821985006332397,-18.684612274169922,-4.76003360748291,-0.3727934658527374,3.58984375,2,A/E1,6.1,270,183.4893249057964,2.4892417159254037,[25900|0|0|0]
29300,1.2273180484771729,-0.26844653487205505,1.4680777788162231,-16.727840423583984,-2.7941646575927734,-1.4615869522094727,3.509765625,2,A/E1,6.1,270,183.4893249057964,2.613980138844625,[25900|0|0|0]
29400,1.2513706684112549,-0.1942737102508545,1.3592594861984253,-13.3726224899292,-0.07125214487314224,0.6383100152015686,3.521484375,2,A/E1,6.1,270,183.4893249057964,2.7478515594176263,[25900|0|0|0]
29500,1.2705808877944946,-0.09357015788555145,1.2681833505630493,-8.531073570251465,2.910238742828369,2.077418565750122,3.58984375,2,A/E1,6.1,270,183.4893249057964,2.884983249664691,[25900|0|0|0]
29600,1.2875890731811523,0.011783280409872532,1.2011271715164185,-3.1324963569641113,3.522228956222534,3.102766990661621,3.611328125,2,A/E1,6.1,270,183.4893249057964,3.0110195796618333,[25900|0|0|0]
29700,1.3012564182281494,0.11897312104701996,1.155724048614502,3.7797141075134277,2.2857158184051514,3.0314080715179443,3.63671875,2,A/E1,6.1,270,183.4893249057964,3.1282283755164846,[25900|0|0|0]
29800,1.3131862878799438,0.21713776886463165,1.1268316507339478,8.006943702697754,0.5661953687667847,-0.7320737242698669,3.6640625,2,A/E1,6.1,270,183.4893249057964,3.2312496865465468,[25900|0|0|0]
29900,1.3232918977737427,0.29993680119514465,1.110770344734192,9.69161319732666,1.2618635892868042,3.596609115600586,3.673828125,2,A/E1,6.1,270,183.4893249057964,3.3161953671701827,[25900|0|0|0]
30000,1.3350640535354614,0.36391720175743103,1.1019060611724854,9.685139656066895,0.13835221529006958,1.7329394817352295,3.673828125,2,A/E1,6.1,270,183.4893249057964,3.381850914007073,[25900|0|0|0]
30100,1.349097490310669,0.4125415086746216,1.0980098247528076,8.833773612976074,0.10697847604751587,-2.261582136154175,3.689453125,2,A/E1,6.1,270,183.4893249057964,3.4326095706987045,[25900|0|0|0]
30200,1.3636162281036377,0.44773197174072266,1.0962584018707275,7.374216556549072,0.5720232129096985,-6.855903625488281,3.68359375,2,A/E1,6.1,270,183.4893249057964,3.470717705263643,[25900|0|0|0]
30300,1.3768402338027954,0.4736708104610443,1.0955650806427002,5.842203617095947,1.7132384777069092,-5.415897369384766,3.673828125,2,A/E1,6.1,270,183.4893249057964,3.4998412073747467,[25900|0|0|0]
30400,1.3870021104812622,0.4908645451068878,1.0952355861663818,4.306079387664795,2.4847662448883057,-1.1888813972473145,3.6796875,2,A/E1,6.1,270,183.4893249057964,3.5198161120130664,[25900|0|0|0]
30500,1.3942933082580566,0.5012707114219666,1.0962649583816528,3.017082452774048,2.6299874782562256,1.3021928071975708,3.701171875,2,A/E1,6.1,270,183.4893249057964,3.532564032218142,[25900|0|0|0]
30600,1.3963326215744019,0.5080866813659668,1.095535159111023,2.0778555870056152,2.5533392429351807,2.267061471939087,3.689453125,2,A/E1,6.1,270,183.4893249057964,3.5397158747817863,[25900|0|0|0]
30700,1.3944897651672363,0.5125301480293274,1.0940121412277222,1.6236841678619385,1.9252924919128418,2.398660182952881,3.689453125,2,A/E1,6.1,270,183.4893249057964,3.5447616749362396,[25900|0|0|0]
30800,1.3891656398773193,0.5152048468589783,1.0911458730697632,1.3380686044692993,1.468802809715271,2.1044342517852783,3.68359375,2,A/E1,6.1,270,183.4893249057964,3.551373468723511,[25900|0|0|0]
30900,1.3813422918319702,0.5168089270591736,1.0878061056137085,1.179219126701355,0.6131314039230347,1.6745109558105469,3.6796875,2,A/E1,6.1,270,183.4893249057964,3.560029789800496,[25900|0|0|0]
31000,1.3722604513168335,0.5174331068992615,1.0843809843063354,1.29437255859375,0.02289942279458046,1.1110825538635254,3.68359375,2,A/E1,6.1,270,183.4893249057964,3.569756088355721,[25900|0|0|0]
31100,1.3632493019104004,0.5172373652458191,1.0808827877044678,1.0595184564590454,-0.6361749172210693,0.6034404039382935,3.6796875,2,A/E1,6.1,270,183.4893249057964,3.579424413333982,[25900|0|0|0]
31200,1.3549741506576538,0.5157254934310913,1.0779680013656616,1.1949987411499023,-0.7705379724502563,0.13095800578594208,3.6796875,2,A/E1,6.1,270,183.4893249057964,3.5883272142438583,[25900|0|0|0]
31300,1.3475648164749146,0.5136758685112,1.0745155811309814,1.0759323835372925,-0.8867373466491699,-0.173104390501976,3.6796875,2,A/E1,6.1,270,183.4893249057964,3.5967544558341165,[25900|0|0|0]
31400,1.3417648077011108,0.5099042057991028,1.069974422454834,0.8847552537918091,-0.875891923904419,-0.2757432162761688,3.6796875,2,A/E1,6.1,270,183.4893249057964,3.605030183204685,[25900|0|0|0]
31500,1.337562084197998,0.5050188899040222,1.0648657083511353,0.6785849928855896,-0.8125230669975281,-0.25674521923065186,3.65234375,2,A/E1,6.1,270,183.4893249057964,3.6132538171965205,[25900|0|0|0]
31600,1.3349621295928955,0.5004964470863342,1.059931993484497,0.2724854350090027,-0.7885484099388123,-0.2394033968448639,3.63671875,2,A/E1,6.1,270,183.4893249057964,3.620433914366694,[25900|0|0|0]
31700,1.3323410749435425,0.4957740306854248,1.0555247068405151,0.08440613746643066,-0.5960224866867065,-0.0234924778342247,3.630859375,2,A/E1,6.1,270,183.4893249057964,3.627404948701762,[25900|0|0|0]
31800,1.3311426639556885,0.49138179421424866,1.0521535873413086,0.1574883759021759,-0.21265281736850739,0.1428791731595993,3.62109375,2,A/E1,6.1,270,183.4893249057964,3.63306996209914,[25900|0|0|0]
31900,1.3299331665039062,0.4868313670158386,1.0488446950912476,-0.15708127617835999,-0.37654146552085876,0.14603182673454285,3.62109375,2,A/E1,6.1,270,0,3.6388247896114474,[25900|0|0|0]
32000,1.3287497758865356,0.4831502139568329,1.040706753730774,-0.025340812280774117,-0.43149319291114807,-0.01578417234122753,3.9375,2,A/E1,6.1,270,0,3.6478346392652217,[25900|0|0|0]
32100,1.3275028467178345,0.47983819246292114,0.999384880065918,0.12275531142950058,-0.8340466022491455,-0.34044668078422546,3.84375,2,A/E1,6.1,270,0,3.6893077819228766,[25900|0|0|0]
