time.ms,stateEstimate.x,stateEstimate.y,stateEstimate.z,stabilizer.roll,stabilizer.pitch,stabilizer.yaw,pm.vbat,drone_id,node_name,wind_speed,global_wind_direction,relative_wind_direction,travel_dist,waiting_time
0,1.7965115308761597,-0.07840342819690704,-0.09250915050506592,0.20039920508861542,0.4395190477371216,-4.6739349365234375,4.1328125,6.1,B1,6.1,270,0,0.14358446486772827,[100|0|0|0]
100,1.7965713739395142,-0.07830217480659485,-0.09234080463647842,0.1849493533372879,0.44854798913002014,-4.723012447357178,4.13671875,6.1,B1,6.1,270,0,0.1437898274075252,[200|0|0|0]
200,1.7967134714126587,-0.07809380441904068,-0.09224202483892441,0.18356451392173767,0.4443874657154083,-4.718437194824219,4.13671875,6.1,B1,6.1,270,0,0.14406069150386935,[300|0|0|0]
300,1.7966301441192627,-0.07821415364742279,-0.092417873442173,0.20383746922016144,0.4464051425457001,-4.72269868850708,4.1328125,6.1,B1,6.1,270,0,0.14428949295898133,[400|0|0|0]
400,1.7967207431793213,-0.07807178050279617,-0.09274421632289886,0.1956443190574646,0.4468154013156891,-4.707153797149658,4.13671875,6.1,B1,6.1,270,0,0.14465688645075114,[500|0|0|0]
500,1.7966325283050537,-0.07805786281824112,-0.09282714128494263,0.19711972773075104,0.4500983953475952,-4.689248561859131,4.13671875,6.1,B1,6.1,270,0,0.14477875570575574,[600|0|0|0]
600,1.7963712215423584,-0.0782654732465744,-0.09249334037303925,0.1999376267194748,0.4611712396144867,-4.6741228103637695,4.13671875,6.1,B1,6.1,270,0,0.14525077939474873,[700|0|0|0]
700,1.796772837638855,-0.0783580020070076,-0.09232977777719498,0.20085662603378296,0.44481682777404785,-4.676166534423828,4.13671875,6.1,B1,6.1,270,0,0.14569418641232038,[800|0|0|0]
800,1.796666145324707,-0.07812433689832687,-0.0927916094660759,0.1878335326910019,0.44846439361572266,-4.684570789337158,4.13671875,6.1,B1,6.1,270,0,0.14622264751946792,[900|0|0|0]
900,1.7964532375335693,-0.0785762295126915,-0.09206729382276535,0.1976463794708252,0.4499645531177521,-4.676997184753418,4.13671875,6.1,B1,6.1,270,0,0.14710251672201385,[1000|0|0|0]
1000,1.7967016696929932,-0.07843223214149475,-0.09202105551958084,0.1849767118692398,0.4469832479953766,-4.673430919647217,4.13671875,6.1,B1,6.1,270,0,0.14739336335071865,[1100|0|0|0]
1100,1.7964770793914795,-0.07843300700187683,-0.09177044779062271,0.18612737953662872,0.44869884848594666,-4.658258438110352,4.13671875,6.1,B1,6.1,270,0,0.14772988324278472,[1200|0|0|0]
1200,1.7968693971633911,-0.07852008938789368,-0.0921127125620842,0.1937800943851471,0.4451903998851776,-4.634217739105225,4.13671875,6.1,B1,6.1,270,0,0.14825774851905857,[1300|0|0|0]
1300,1.796655535697937,-0.07855401188135147,-0.09172745794057846,0.1922765076160431,0.459253191947937,-4.662370204925537,4.1328125,6.1,B1,6.1,270,0,0.14869968582836848,[1400|0|0|0]
1400,1.796915054321289,-0.0786738395690918,-0.09182158857584,0.19348372519016266,0.4400576651096344,-4.6702070236206055,4.13671875,6.1,B1,6.1,270,0,0.14900063294516888,[1500|0|0|0]
1500,1.7965378761291504,-0.0785343125462532,-0.09202416241168976,0.18516024947166443,0.44066381454467773,-4.6623101234436035,4.13671875,6.1,B1,6.1,270,0,0.14945092988908265,[1600|0|0|0]
1600,1.7966985702514648,-0.07802513986825943,-0.092717245221138,0.1711191087961197,0.4426685869693756,-4.646873474121094,4.13671875,6.1,B1,6.1,270,0,0.15032582599589445,[1700|0|0|0]
1700,1.7964833974838257,-0.07795245945453644,-0.09288839250802994,0.18337850272655487,0.4488799571990967,-4.656637191772461,4.13671875,6.1,B1,6.1,270,0,0.15061020805630423,[1800|0|0|0]
1800,1.7966084480285645,-0.07770175486803055,-0.0933930054306984,0.18867729604244232,0.446593701839447,-4.655714988708496,4.1328125,6.1,B1,6.1,270,0,0.1511873775549427,[1900|0|0|0]
1900,1.7966222763061523,-0.0778513252735138,-0.09329494088888168,0.19264745712280273,0.4507058560848236,-4.66920804977417,4.13671875,6.1,B1,6.1,270,0,0.1513667631224201,[2000|0|0|0]
2000,1.7964900732040405,-0.07797921448945999,-0.09307615458965302,0.2039012908935547,0.4581860899925232,-4.678997993469238,4.13671875,6.1,B1,6.1,270,0,0.15165259656429403,[2100|0|0|0]
2100,1.7968018054962158,-0.07874934375286102,-0.0913144126534462,0.21637079119682312,0.44815072417259216,-4.693487167358398,4.13671875,6.1,B1,6.1,270,0,0.1536004186183126,[2200|0|0|0]
2200,1.7969200611114502,-0.0786776915192604,-0.09175921976566315,0.2121170461177826,0.4421999156475067,-4.686969757080078,4.13671875,6.1,B1,6.1,270,0,0.1540662209371059,[2300|0|0|0]
2300,1.7967606782913208,-0.0782347321510315,-0.09245720505714417,0.1850513219833374,0.45330899953842163,-4.651982307434082,4.13671875,6.1,B1,6.1,270,0,0.15490812315968167,[2400|0|0|0]
2400,1.7963520288467407,-0.07831081002950668,-0.09245452284812927,0.19417978823184967,0.46031540632247925,-4.672519683837891,4.13671875,6.1,B1,6.1,270,0,0.15532380261117534,[2500|0|0|0]
2500,1.7968807220458984,-0.0781143307685852,-0.09284228831529617,0.18054033815860748,0.44674521684646606,-4.66577672958374,4.13671875,6.1,B1,6.1,270,0,0.156008260540003,[2600|0|0|0]
2601,1.7686902284622192,0.39013373851776123,-0.683038592338562,-0.0014554255176335573,-0.0013911224668845534,-2.377495765686035,4.13671875,6.1,B1,6.1,270,0,0.909919817422908,[2700|0|0|0]
2701,1.8075324296951294,-0.13185878098011017,-0.006677864585071802,0.8613725900650024,1.0801926851272583,-4.126415252685547,4.13671875,6.1,B1,6.1,270,0,1.7651675833104221,[2800|0|0|0]
2801,1.808829665184021,-0.13617819547653198,-0.0006980667822062969,0.5698123574256897,1.127416729927063,-4.244848251342773,4.1328125,6.1,B1,6.1,270,0,1.7726574526863654,[2900|0|0|0]
2901,1.8081233501434326,-0.13367652893066406,-0.005823427811264992,-0.13855630159378052,1.2363560199737549,-4.358051300048828,4.13671875,6.1,B1,6.1,270,0,1.7784043250637085,[3000|0|0|0]
3001,1.8077577352523804,-0.1326332986354828,-0.008370965719223022,-0.3307039737701416,1.1728018522262573,-4.427431583404541,4.13671875,6.1,B1,6.1,270,0,1.7811813654108815,[3100|0|0|0]
3101,1.8074856996536255,-0.13181693851947784,-0.010219674557447433,-0.3627783954143524,1.0724632740020752,-4.476260662078857,4.13671875,6.1,B1,6.1,270,0,1.7832205249373831,[3200|0|0|0]
3201,1.8076521158218384,-0.13146933913230896,-0.01107183750718832,-0.3115529716014862,0.9672707319259644,-4.54769229888916,4.13671875,6.1,B1,6.1,270,0,1.7841557796448901,[3300|0|0|0]
3301,1.807570457458496,-0.13130350410938263,-0.011283865198493004,-0.23618808388710022,0.8822866678237915,-4.562339782714844,4.1328125,6.1,B1,6.1,270,0,1.784437071459582,[3400|0|0|0]
3401,1.8074017763137817,-0.13101589679718018,-0.01158315222710371,-0.17595219612121582,0.8181748986244202,-4.579668045043945,4.13671875,6.1,B1,6.1,270,0,1.784885116122656,[3500|0|0|0]
3501,1.8075618743896484,-0.13177049160003662,-0.011029875837266445,-0.06973119080066681,0.7576455473899841,-4.5816426277160645,4.13671875,6.1,B1,6.1,270,0,1.7858344103204395,[3600|0|0|0]
3602,1.8076225519180298,-0.1316673457622528,-0.011203686706721783,-0.03230064734816551,0.7140954732894897,-4.601337909698486,4.13671875,6.1,B1,6.1,270,0,1.7860454341215697,[3700|0|0|0]
3702,1.807587742805481,-0.13132710754871368,-0.011735371313989162,0.01070299930870533,0.6692310571670532,-4.594161033630371,4.1328125,6.1,B1,6.1,270,0,1.7866776225728038,[3800|0|0|0]
3802,1.807629108428955,-0.13145345449447632,-0.01191035658121109,0.05215391516685486,0.6369006633758545,-4.581108570098877,4.13671875,6.1,B1,6.1,270,0,1.7868973826903267,[3900|0|0|0]
3902,1.8077422380447388,-0.13183461129665375,-0.011684996075928211,0.09561605006456375,0.6063174605369568,-4.598611354827881,4.13671875,6.1,B1,6.1,270,0,1.7873544014811382,[4000|0|0|0]
4000,1.8076649904251099,-0.13147799670696259,-0.011653504334390163,0.10963162034749985,0.5920754671096802,-4.609687328338623,4.13671875,6.1,B1,6.1,270,0,1.7877206430545622,[4100|0|0|0]
4100,1.8075600862503052,-0.13125227391719818,-0.011659794487059116,0.13393811881542206,0.5767503976821899,-4.584949493408203,4.13671875,6.1,B1,6.1,270,0,1.7879696314674072,[4200|0|0|0]
4200,1.8077094554901123,-0.13154786825180054,-0.011287644505500793,0.16492792963981628,0.5565743446350098,-4.587143898010254,4.13671875,6.1,B1,6.1,270,0,1.788467810942319,[4300|0|0|0]
4300,1.8076962232589722,-0.13151268661022186,-0.011166231706738472,0.18370044231414795,0.5438175797462463,-4.611654758453369,4.13671875,6.1,B1,6.1,270,0,1.7885949089657043,[4400|0|0|0]
4400,1.8075941801071167,-0.13176870346069336,-0.011142648756504059,0.1988184005022049,0.5244964957237244,-4.618990421295166,4.1328125,6.1,B1,6.1,270,0,1.788871519862286,[4500|0|0|0]
4500,1.8077746629714966,-0.13194328546524048,-0.011276423931121826,0.2216789275407791,0.5144220590591431,-4.592890739440918,4.13671875,6.1,B1,6.1,270,0,1.7891560347792772,[4600|0|0|0]
4600,1.8077683448791504,-0.13202939927577972,-0.01138399913907051,0.2397765815258026,0.5048863887786865,-4.577092170715332,4.13671875,6.1,B1,6.1,270,0,1.7892939765496794,[4700|0|0|0]
4700,1.8080124855041504,-0.13171444833278656,-0.011131692677736282,0.2366674840450287,0.49966108798980713,-4.592038154602051,4.1328125,6.1,B1,6.1,270,0,1.7897656303334006,[4800|0|0|0]
4800,1.8090593814849854,-0.1318528652191162,-0.01139351911842823,0.28230875730514526,0.5100772976875305,-4.619785785675049,4.13671875,6.1,B1,6.1,270,0,1.7908536117276141,[4900|0|0|0]
4900,1.8087321519851685,-0.13175520300865173,-0.011501510627567768,0.31384721398353577,0.5408936738967896,-4.644646167755127,4.13671875,6.1,B1,6.1,270,0,1.7912117726117842,[5000|0|0|0]
5000,1.8089451789855957,-0.1320044845342636,-0.01149641815572977,0.34862202405929565,0.5478366017341614,-4.636466026306152,4.13671875,6.1,B1,6.1,270,0,1.7915397172949121,[5100|0|0|0]
5100,1.8085825443267822,-0.1318061202764511,-0.01178819965571165,0.3634571433067322,0.5625070929527283,-4.618307590484619,4.13671875,6.1,B1,6.1,270,0,1.7920456705716896,[5200|0|0|0]
5200,1.8086832761764526,-0.13189618289470673,-0.011791706085205078,0.3808218240737915,0.5670744776725769,-4.634191513061523,4.1328125,6.1,B1,6.1,270,0,1.7921808388956153,[5300|0|0|0]
5300,1.8086020946502686,-0.1321837306022644,-0.01144796796143055,0.3931474983692169,0.5753251314163208,-4.634742259979248,4.1328125,6.1,B1,6.1,270,0,1.792636283757318,[5400|0|0|0]
5400,1.808685541152954,-0.1319594532251358,-0.011762131936848164,0.3881458342075348,0.5771924257278442,-4.651687145233154,4.13671875,6.1,B1,6.1,270,0,1.7930312048432988,[5500|0|0|0]
5500,1.808449149131775,-0.13193243741989136,-0.011432111263275146,0.38714399933815,0.5768129825592041,-4.632678031921387,4.1328125,6.1,B1,6.1,270,0,1.79343805209522,[5600|0|0|0]
5600,1.8088657855987549,-0.13193103671073914,-0.011022296734154224,0.38425400853157043,0.5706354379653931,-4.6178460121154785,4.1328125,6.1,B1,6.1,270,0,1.7940224627863288,[5700|0|0|0]
5700,1.8084560632705688,-0.1319023072719574,-0.01194794848561287,0.37868931889533997,0.5783935189247131,-4.615448951721191,4.13671875,6.1,B1,6.1,270,0,1.795035146810023,[5800|0|0|0]
5800,1.8085811138153076,-0.1322467178106308,-0.01133484486490488,0.39125123620033264,0.5709008574485779,-4.635649681091309,4.13671875,6.1,B1,6.1,270,0,1.7957493962815763,[5900|0|0|0]
5900,1.8085780143737793,-0.13215015828609467,-0.011743507348001003,0.3806608319282532,0.56882643699646,-4.625280857086182,4.1328125,6.1,B1,6.1,270,0,1.7961693229101754,[6000|0|0|0]
6000,1.8088421821594238,-0.13207663595676422,-0.011702273041009903,0.37240394949913025,0.5703834891319275,-4.6382365226745605,4.1328125,6.1,B1,6.1,270,0,1.7964466141288526,[6100|0|0|0]
6100,1.8088157176971436,-0.13185912370681763,-0.011515681631863117,0.3634437918663025,0.5691932439804077,-4.632386207580566,4.13671875,6.1,B1,6.1,270,0,1.796734413191756,[6200|0|0|0]
6200,1.808753490447998,-0.13177390396595,-0.011345556005835533,0.36416879296302795,0.5657765865325928,-4.628671646118164,4.1328125,6.1,B1,6.1,270,0,1.7969346065068317,[6300|0|0|0]
6300,1.8086841106414795,-0.1322258859872818,-0.01141415536403656,0.3752257227897644,0.5690445303916931,-4.627591609954834,4.13671875,6.1,B1,6.1,270,0,1.797396999388595,[6400|0|0|0]
6400,1.808524250984192,-0.13178817927837372,-0.011803587898612022,0.3597877323627472,0.5743638873100281,-4.629029273986816,4.13671875,6.1,B1,6.1,270,0,1.7980042884235998,[6500|0|0|0]
6500,1.8089683055877686,-0.13245874643325806,-0.011567683890461922,0.37323421239852905,0.570024847984314,-4.6212239265441895,4.1328125,6.1,B1,6.1,270,0,1.7988424384705655,[6600|0|0|0]
6600,1.8085092306137085,-0.1320061981678009,-0.011857634410262108,0.37003350257873535,0.5771417021751404,-4.631954669952393,4.1328125,6.1,B1,6.1,270,0,1.799549277255798,[6700|0|0|0]
6700,1.808630108833313,-0.13219933211803436,-0.011490277014672756,0.36785921454429626,0.5706477761268616,-4.627660274505615,4.1328125,6.1,B1,6.1,270,0,1.7999815546237017,[6800|0|0|0]
6800,1.8084666728973389,-0.13189446926116943,-0.011868473142385483,0.3659683167934418,0.5756961703300476,-4.627433776855469,4.1328125,6.1,J1,6.1,270,0,1.8004940826499407,[6800|0|0|0]
6900,1.8084291219711304,-0.1320274919271469,-0.011600167490541935,0.2579042911529541,0.504063606262207,-5.05956506729126,3.39453125,6.1,J1,6.1,270,0,1.8007958988598003,[6800|0|0|0]
7000,1.8086403608322144,-0.13324354588985443,-0.0014373250305652618,2.870788335800171,-1.9296993017196655,-3.843486785888672,3.615234375,6.1,J1,6.1,270,0,1.8110334169165831,[6800|0|0|0]
7100,1.814099907875061,-0.13926483690738678,0.040231168270111084,0.5409529805183411,-5.152597904205322,-1.5777519941329956,3.689453125,6.1,J1,6.1,270,0,1.8534872263260977,[6800|0|0|0]
7200,1.8292065858840942,-0.14577239751815796,0.10424187779426575,0.6620134711265564,-2.8076508045196533,0.22495874762535095,3.736328125,6.1,J1,6.1,270,0,1.9195775508778592,[6800|0|0|0]
7300,1.8495131731033325,-0.15007248520851135,0.17981694638729095,-0.5517140030860901,-0.7291970252990723,1.213936686515808,3.748046875,6.1,J1,6.1,270,0,1.9979512660601684,[6800|0|0|0]
7400,1.8699347972869873,-0.1530853807926178,0.2605699896812439,-0.8015368580818176,0.928097665309906,1.6960279941558838,3.75390625,6.1,J1,6.1,270,0,2.0813009767695294,[6800|0|0|0]
7500,1.8878158330917358,-0.15464723110198975,0.34408989548683167,-0.4195888638496399,2.094937801361084,1.817010521888733,3.75390625,6.1,J1,6.1,270,0,2.1667278196446693,[6800|0|0|0]
7600,1.9013514518737793,-0.15477649867534637,0.42976027727127075,-0.44517096877098083,2.4798645973205566,1.553086757659912,3.75390625,6.1,J1,6.1,270,0,2.2534609966936503,[6800|0|0|0]
7700,1.9107862710952759,-0.1543852984905243,0.5176621079444885,-0.3463693857192993,2.5232903957366943,1.5205602645874023,3.779296875,6.1,J1,6.1,270,0,2.3418685794398715,[6800|0|0|0]
7800,1.916104793548584,-0.1529908925294876,0.602724015712738,0.08950522541999817,1.9666838645935059,1.3845586776733398,3.81640625,6.1,J1,6.1,270,0,2.4271080022572784,[6800|0|0|0]
7900,1.9178882837295532,-0.15197764337062836,0.6793555617332458,1.202387809753418,1.3023042678833008,1.275889277458191,3.81640625,6.1,J1,6.1,270,0,2.503766996227828,[6800|0|0|0]
8000,1.9178489446640015,-0.15239036083221436,0.7427865862846375,1.0485516786575317,0.47074487805366516,0.7417063117027283,3.806640625,6.1,J1,6.1,270,0,2.567199375647998,[6800|0|0|0]
8100,1.916148066520691,-0.1537894457578659,0.7909253835678101,0.6836498975753784,0.739777684211731,1.9357848167419434,3.794921875,6.1,J1,6.1,270,0,2.615388526179606,[6800|0|0|0]
8200,1.9138214588165283,-0.15708939731121063,0.8283084034919739,0.6405597925186157,0.32296693325042725,3.9269180297851562,3.78515625,6.1,J1,6.1,270,0,2.6529889645056937,[6800|0|0|0]
8300,1.9111952781677246,-0.16160278022289276,0.8559719920158386,-0.5708954334259033,0.013770300894975662,1.7104281187057495,3.7734375,6.1,J1,6.1,270,0,2.6811410795261557,[6800|0|0|0]
8400,1.9078718423843384,-0.1653147041797638,0.8756752610206604,-0.35664233565330505,0.599018931388855,0.5684852004051208,3.76953125,6.1,J1,6.1,270,0,2.701464524468986,[6800|0|0|0]
8500,1.904246211051941,-0.16763511300086975,0.8897703886032104,-0.7365888357162476,-0.04661531001329422,0.15680082142353058,3.76953125,6.1,J1,6.1,270,0,2.716202303176237,[6800|0|0|0]
8600,1.9004348516464233,-0.16915729641914368,0.901769757270813,-0.8235486745834351,0.19212716817855835,-0.04840226098895073,3.76953125,6.1,J1,6.1,270,0,2.7288841150064895,[6800|0|0|0]
8700,1.8958475589752197,-0.16958343982696533,0.911497950553894,-0.4385520815849304,0.1806524097919464,-0.08049091696739197,3.7578125,6.1,J1,6.1,270,0,2.739648063947668,[6800|0|0|0]
8800,1.8913376331329346,-0.1685863584280014,0.9188393354415894,-0.21840262413024902,0.2788650393486023,-0.03417052701115608,3.7578125,6.1,J1,6.1,270,0,2.748321560041421,[6800|0|0|0]
8900,1.886240005493164,-0.16814716160297394,0.9255824089050293,-0.3036862909793854,-0.07430055737495422,0.042320072650909424,3.7578125,6.1,J1,6.1,270,0,2.7567860589124833,[6800|0|0|0]
9000,1.8808670043945312,-0.16671331226825714,0.9312279224395752,0.02113325335085392,-0.36866748332977295,0.033394016325473785,3.7578125,6.1,J1,6.1,270,0,2.7647105076497343,[6800|0|0|0]
9100,1.876529574394226,-0.16581641137599945,0.9359802603721619,-0.11887499690055847,-0.4414253532886505,-0.0036474387161433697,3.75390625,6.1,J1,6.1,270,0,2.771206848623204,[6800|0|0|0]
9200,1.872335433959961,-0.16378958523273468,0.9402127861976624,0.15423265099525452,-0.6030280590057373,-0.010678229853510857,3.7578125,6.1,J1,6.1,270,0,2.777500743527068,[6800|0|0|0]
9300,1.8691205978393555,-0.1629307121038437,0.944399893283844,0.16170144081115723,-1.083234429359436,-0.027493219822645187,3.7578125,6.1,J1,6.1,270,0,2.7828490797248997,[6800|0|0|0]
9400,1.867424488067627,-0.16182024776935577,0.945824921131134,0.2995145320892334,-0.6153160333633423,0.16025610268115997,3.75390625,6.1,J1,6.1,270,0,2.785327107925198,[6800|0|0|0]
9500,1.866767406463623,-0.16105884313583374,0.9459747672080994,0.3609209656715393,-0.3243652582168579,0.21709857881069183,3.748046875,6.1,J1,6.1,270,0,2.7863439398174257,[6800|0|0|0]
9600,1.8666905164718628,-0.16048231720924377,0.9453136920928955,-0.007485170848667622,-0.42437636852264404,0.18565033376216888,3.7421875,6.1,J1,6.1,270,0,2.7872244592793374,[6800|0|0|0]
9700,1.867315411567688,-0.1599390208721161,0.9448937177658081,-0.01551133207976818,-0.3763461112976074,0.024092217907309532,3.7421875,6.1,J1,6.1,270,0,2.7881529221090378,[6800|0|0|0]
9800,1.8680369853973389,-0.15943539142608643,0.94480299949646,0.21904785931110382,0.25169607996940613,-0.2702265679836273,3.748046875,6.1,J1,6.1,270,139.4748965062461,2.7890375357054396,[6800|0|0|0]
9900,1.8661441802978516,-0.15697458386421204,0.9447885155677795,-8.612058639526367,8.341837882995605,0.23198933899402618,3.716796875,6.1,J1,6.1,270,139.4748965062461,2.792142128236741,[6800|0|0|0]
10000,1.849426031112671,-0.13809247314929962,0.9437249302864075,-15.113247871398926,14.75623893737793,1.8001233339309692,3.7109375,6.1,J1,6.1,270,139.4748965062461,2.817384192947832,[6800|0|0|0]
10100,1.8074809312820435,-0.0952044278383255,0.9409823417663574,-17.726837158203125,15.590718269348145,1.452439546585083,3.701171875,6.1,J1,6.1,270,139.4748965062461,2.877436650201368,[6800|0|0|0]
10200,1.7406882047653198,-0.026866460219025612,0.9384339451789856,-13.289258003234863,10.568718910217285,-0.36966463923454285,3.6953125,6.1,J1,6.1,270,139.4748965062461,2.973028702481047,[6800|0|0|0]
10300,1.6568430662155151,0.06016501411795616,0.941402792930603,-6.256476402282715,4.0493292808532715,-1.3250442743301392,3.705078125,6.1,J1,6.1,270,139.4748965062461,3.0939141806853248,[6800|0|0|0]
10400,1.568982481956482,0.15288269519805908,0.9515831470489502,0.8268126845359802,-3.1469130516052246,-1.170710802078247,3.7265625,6.1,J1,6.1,270,139.4748965062461,3.2220535199265794,[6800|0|0|0]
10500,1.4887226819992065,0.24449294805526733,0.962909996509552,6.718212604522705,-7.7412848472595215,-0.24701660871505737,3.732421875,6.1,J1,6.1,270,139.4748965062461,3.3443742926368865,[6800|0|0|0]
10600,1.4202179908752441,0.3154586851596832,0.9805940985679626,9.5516357421875,-10.570272445678711,-3.15322208404541,3.748046875,6.1,J1,6.1,270,139.4748965062461,3.4445828552170115,[6800|0|0|0]
10700,1.3724910020828247,0.3669207692146301,0.9960049986839294,9.117362976074219,-11.503803253173828,-7.140016078948975,3.748046875,6.1,J1,6.1,270,139.4748965062461,3.516441796183703,[6800|0|0|0]
10800,1.3391492366790771,0.4035417437553406,1.0060431957244873,7.897558689117432,-9.1774320602417,-5.151159763336182,3.736328125,6.1,J1,6.1,270,139.4748965062461,3.5669743054858833,[6800|0|0|0]
10900,1.3183127641677856,0.427633672952652,1.0115607976913452,5.843134880065918,-6.575922012329102,-2.321829080581665,3.736328125,6.1,J1,6.1,270,139.4748965062461,3.5993011298060473,[6800|0|0|0]
11000,1.3043516874313354,0.44506001472473145,1.0147309303283691,3.8566861152648926,-4.3924946784973145,3.8219423294067383,3.748046875,6.1,J1,6.1,270,139.4748965062461,3.6218541516021325,[6800|0|0|0]
11100,1.296838641166687,0.45567405223846436,1.0166189670562744,2.5650649070739746,-3.305058240890503,5.8484039306640625,3.732421875,6.1,J1,6.1,270,139.4748965062461,3.6349944841399187,[6800|0|0|0]
11200,1.2909742593765259,0.46359044313430786,1.0174055099487305,1.2286176681518555,-2.1052136421203613,3.5170788764953613,3.732421875,6.1,J1,6.1,270,139.4748965062461,3.644877746168128,[6800|0|0|0]
11300,1.2858922481536865,0.46994996070861816,1.0180786848068237,0.7125943899154663,-1.5167367458343506,2.111255168914795,3.732421875,6.1,J1,6.1,270,139.4748965062461,3.6530461894859574,[6800|0|0|0]
11400,1.2808111906051636,0.4753648042678833,1.0175210237503052,0.6343313455581665,-1.6621606349945068,1.1681745052337646,3.732421875,6.1,J1,6.1,270,139.4748965062461,3.660492575350031,[6800|0|0|0]
11500,1.2755488157272339,0.48051878809928894,1.016133427619934,0.7000623345375061,-1.6641530990600586,0.7746312618255615,3.7265625,6.1,J1,6.1,270,139.4748965062461,3.667988011408812,[6800|0|0|0]
11600,1.2711824178695679,0.48441973328590393,1.0133442878723145,0.9198626279830933,-1.640139102935791,0.4055643081665039,3.7265625,6.1,J1,6.1,270,139.4748965062461,3.6744735417751087,[6800|0|0|0]
11700,1.2674765586853027,0.4875504970550537,1.0106847286224365,0.8617305159568787,-1.7247883081436157,0.19887813925743103,3.7265625,6.1,J1,6.1,270,139.4748965062461,3.6800060212803065,[6800|0|0|0]
11800,1.265062689781189,0.48946744203567505,1.0077924728393555,0.8744885325431824,-1.9411317110061646,0.022946009412407875,3.7265625,6.1,J1,6.1,270,139.4748965062461,3.6842329095754645,[6800|0|0|0]
11900,1.2647216320037842,0.49060434103012085,1.0050016641616821,0.4824441969394684,-2.4546315670013428,-0.21355177462100983,3.7265625,6.1,J1,6.1,270,139.4748965062461,3.6872656431289568,[6800|0|0|0]
12000,1.2665401697158813,0.490695059299469,1.0005769729614258,0.8595905900001526,-1.4914474487304688,-0.5100863575935364,3.720703125,6.1,J1,6.1,270,139.4748965062461,3.6920503271762413,[6800|0|0|0]
12100,1.2692155838012695,0.49067333340644836,0.9973490834236145,0.4737757742404938,-1.7318897247314453,-0.663162112236023,3.720703125,6.1,J1,6.1,270,139.4748965062461,3.6962428900453026,[6800|0|0|0]
12200,1.2747489213943481,0.48901087045669556,0.9950715899467468,0.4090063273906708,-1.1523488759994507,-0.7418396472930908,3.720703125,6.1,J1,6.1,270,139.4748965062461,3.702453251106904,[6800|0|0|0]
12300,1.2811713218688965,0.4875952899456024,0.9923845529556274,0.615590512752533,-0.4154199957847595,-1.1864635944366455,3.720703125,6.1,J1,6.1,270,139.4748965062461,3.7095575641511407,[6800|0|0|0]
12400,1.2880216836929321,0.48566725850105286,0.9894603490829468,0.46319442987442017,-0.3082656264305115,-1.4769209623336792,3.720703125,6.1,J1,6.1,270,139.4748965062461,3.717251440330309,[6800|0|0|0]
12500,1.295325756072998,0.4819681942462921,0.9869449138641357,0.16009095311164856,-0.14572620391845703,-1.7947533130645752,3.720703125,6.1,J1,6.1,270,139.4748965062461,3.7258164834728813,[6800|0|0|0]
12600,1.3021355867385864,0.47938284277915955,0.9837753176689148,-0.07315686345100403,-0.01146076899021864,-1.9582269191741943,3.720703125,6.1,J1,6.1,270,139.4748965062461,3.733760297163002,[6800|0|0|0]
12700,1.3092466592788696,0.4770421087741852,0.9809197187423706,-0.3233603537082672,-0.03762359917163849,-2.010361909866333,3.720703125,6.1,J1,6.1,270,139.4748965062461,3.7417728394302534,[6800|0|0|0]
12800,1.3159669637680054,0.4746257960796356,0.9787957668304443,-0.23230363428592682,0.4681228995323181,-2.3183438777923584,3.716796875,6.1,J1,6.1,270,0,3.749223492501543,[6800|0|0|0]
12900,1.3222755193710327,0.4732328951358795,0.973591148853302,-0.17184126377105713,-0.05738756060600281,-2.645594596862793,3.94921875,6.1,J1,6.1,270,0,3.7575196419170003,[6800|0|0|0]
13000,1.3282501697540283,0.4720294177532196,0.9403438568115234,0.6188151836395264,0.19224368035793304,-2.557525157928467,3.900390625,6.1,J1,6.1,270,0,3.7913209323231505,[6800|0|0|0]
13100,1.3330503702163696,0.4707214832305908,0.8655809164047241,0.1255049705505371,0.6640301942825317,-1.9330655336380005,3.794921875,6.1,J1,6.1,270,0,3.8662492305519556,[6800|0|0|0]
13200,1.3366116285324097,0.468124657869339,0.7576748728752136,-0.25116434693336487,0.9332348704338074,-1.2770198583602905,3.720703125,6.1,J1,6.1,270,0,3.9742452503533494,[6800|0|0|0]
13300,1.338657021522522,0.46478357911109924,0.6335379481315613,0.10653131455183029,0.33060353994369507,-0.7959311604499817,3.701171875,6.1,J1,6.1,270,0,4.098443972265308,[6800|0|0|0]
13400,1.339840054512024,0.46210163831710815,0.5067449808120728,-0.9888906478881836,0.8216708302497864,-0.5221663117408752,3.6640625,6.1,J1,6.1,270,0,4.225270818536741,[6800|0|0|0]
13500,1.3404642343521118,0.46086814999580383,0.3877846598625183,-1.833446979522705,0.4861505329608917,-0.22064940631389618,3.630859375,6.1,J1,6.1,270,0,4.344239171699809,[6800|0|0|0]
13600,1.340847373008728,0.4628920257091522,0.28348976373672485,-1.6590064764022827,0.7044273614883423,0.6619436740875244,3.62109375,6.1,J1,6.1,270,0,4.448554406570001,[6800|0|0|0]
13700,1.340667963027954,0.4687860906124115,0.19841161370277405,-0.2704901397228241,0.37657999992370605,2.308401107788086,3.626953125,6.1,J1,6.1,270,0,4.533836666168493,[6800|0|0|0]
13800,1.3404957056045532,0.4748426675796509,0.13545644283294678,0.6120446920394897,1.0013693571090698,4.27650260925293,3.63671875,6.1,J1,6.1,270,0,4.597082735899577,[6800|0|0|0]
13900,1.3391071557998657,0.48022112250328064,0.0919070690870285,1.0857114791870117,0.8992047905921936,5.932940483093262,3.65234375,6.1,J1,6.1,270,0,4.6409849431514605,[6800|0|0|0]
14000,1.337499976158142,0.48396116495132446,0.06449400633573532,2.1199893951416016,-0.8981792330741882,6.780365467071533,3.673828125,6.1,J1,6.1,270,0,4.668698603200618,[6800|0|0|0]
14100,1.3378634452819824,0.48492351174354553,0.05080800503492355,2.705895185470581,-0.821877658367157,5.982681751251221,3.6796875,6.1,J1,6.1,270,0,4.682423210763616,[6800|0|0|0]
14200,1.3402585983276367,0.48176875710487366,0.04560263454914093,2.2796778678894043,-0.942512571811676,4.069131374359131,3.6953125,6.1,J1,6.1,270,0,4.688964244079277,[6800|0|0|0]
14300,1.343550205230713,0.4750008285045624,0.04544239118695259,1.973846197128296,-0.6506119966506958,2.115302324295044,3.7109375,6.1,J1,6.1,270,0,4.696491873950519,[6800|0|0|0]
14400,1.3474757671356201,0.46519583463668823,0.04931314289569855,1.0387245416641235,0.0744762048125267,0.3871452212333679,3.7109375,6.1,J1,6.1,270,0,4.707740458741908,[6800|0|0|0]
14500,1.3513413667678833,0.45337793231010437,0.05377209559082985,-0.17635414004325867,0.218092679977417,-0.5697900652885437,3.716796875,6.1,J1,6.1,270,0,4.720949846882736,[6800|0|0|0]
14600,1.3546472787857056,0.44176143407821655,0.05824750289320946,-1.234613299369812,0.6106573939323425,-1.2851629257202148,3.716796875,6.1,J1,6.1,270,0,4.733830116909534,[6800|0|0|0]
14700,1.356431484222412,0.4319169223308563,0.06101367250084877,-1.401632308959961,1.0554121732711792,-1.578720211982727,3.7109375,6.1,J1,6.1,270,0,4.744210362324866,[6800|0|0|0]
14800,1.357284665107727,0.4246779978275299,0.0618603453040123,-1.8562666177749634,0.4850687086582184,-1.7666069269180298,3.7109375,6.1,J1,6.1,270,0,4.75154840023861,[6800|0|0|0]
14900,1.3571479320526123,0.4196360111236572,0.061229411512613297,-2.05635929107666,0.4406636655330658,-1.6023958921432495,3.701171875,6.1,J1,6.1,270,0,4.756631549193688,[6800|0|0|0]
15000,1.3563576936721802,0.4177306592464447,0.06060636043548584,-2.386646270751953,0.08530346304178238,-0.9858527779579163,3.701171875,6.1,J1,6.1,270,0,4.758786319510594,[6800|0|0|0]
15100,1.3565765619277954,0.4195798635482788,0.0603288896381855,-1.5648924112319946,-0.18289075791835785,-0.763960063457489,3.705078125,6.1,J1,6.1,270,0,4.760668990460758,[6800|0|0|0]
15200,1.357201099395752,0.42367321252822876,0.06009088084101677,-0.5920531749725342,0.39940541982650757,-0.6464232206344604,3.701171875,6.1,J1,6.1,270,0,4.764816544090076,[6800|0|0|0]
15300,1.359169363975525,0.42805635929107666,0.059905003756284714,-0.4495672881603241,-0.6187018752098083,-0.7828625440597534,3.701171875,6.1,J1,6.1,270,0,4.769624931687939,[6800|0|0|0]
15400,1.3614706993103027,0.4330916404724121,0.05993464216589928,0.5198076963424683,0.091868557035923,-0.6819164156913757,3.6953125,6.1,J1,6.1,270,0,4.775161273380205,[6800|0|0|0]
15500,1.3656874895095825,0.4397174119949341,0.06425201892852783,0.2519010901451111,0.49160343408584595,-0.47208669781684875,3.705078125,6.1,J1,6.1,270,0,4.78412352253786,[6800|0|0|0]
15600,1.3680915832519531,0.4425298571586609,0.06587530672550201,0.39204078912734985,0.7098203897476196,-0.3784038722515106,3.701171875,6.1,J1,6.1,270,0,4.788163891059775,[6800|0|0|0]
15700,1.3689507246017456,0.44396892189979553,0.06579390168190002,0.8848535418510437,0.8525712490081787,-0.3639886975288391,3.701171875,6.1,J1,6.1,270,0,4.789841883303269,[6800|0|0|0]
15800,1.3691850900650024,0.4440283477306366,0.06560070812702179,0.18484462797641754,0.3839429020881653,-0.4235370457172394,3.701171875,6.1,J1,6.1,270,0,4.790151370539492,[6800|0|0|0]
15900,1.367763876914978,0.4432038366794586,0.06536009907722473,0.2678771913051605,0.6526497602462769,-0.4196452796459198,3.6953125,6.1,B2,6.1,270,0,4.791811960195657,[6800|100|0|0]
16000,1.3667525053024292,0.4416535198688507,0.06564013659954071,-0.36801236867904663,0.20262807607650757,-0.5049533247947693,3.701171875,6.1,B2,6.1,270,0,4.793684064831042,[6800|200|0|0]
16100,1.364840030670166,0.44058001041412354,0.06543435901403427,-0.2927899658679962,0.1071745753288269,-0.623870849609375,3.6953125,6.1,B2,6.1,270,0,4.79588686445496,[6800|300|0|0]
16200,1.3639227151870728,0.4395133852958679,0.06477798521518707,-0.31571727991104126,-0.03713304549455643,-0.4376004636287689,3.689453125,6.1,B2,6.1,270,0,4.797439276578795,[6800|400|0|0]
16300,1.3624587059020996,0.4390886425971985,0.06408371031284332,-1.7584692239761353,0.6861560940742493,0.03289756551384926,3.689453125,6.1,B2,6.1,270,0,4.799114313052006,[6800|500|0|0]
16400,1.3613170385360718,0.4411097764968872,0.06231245771050453,-0.13868670165538788,-0.3809964060783386,-0.15315039455890656,3.689453125,6.1,B2,6.1,270,0,4.8020341970216895,[6800|600|0|0]
16500,1.3602830171585083,0.44406506419181824,0.06264805048704147,0.2956300675868988,0.1377403736114502,-0.05017632618546486,3.6953125,6.1,B2,6.1,270,0,4.805183093349092,[6800|700|0|0]
16600,1.3590526580810547,0.4464031159877777,0.06378555297851562,-0.3918282389640808,0.011248722672462463,0.7078888416290283,3.701171875,6.1,B2,6.1,270,0,4.808059581064723,[6800|800|0|0]
16700,1.3578358888626099,0.4497118294239044,0.06532827019691467,0.009570538066327572,-0.19798071682453156,1.0480133295059204,3.6953125,6.1,B2,6.1,270,0,4.811907708966613,[6800|900|0|0]
16800,1.3572994470596313,0.45274025201797485,0.06577329337596893,-0.6215672492980957,-0.3368872106075287,0.8917655944824219,3.6953125,6.1,B2,6.1,270,0,4.815015305923452,[6800|1000|0|0]
16901,1.357143759727478,0.45728975534439087,0.06549156457185745,-0.30005770921707153,-0.05821342393755913,0.5402100086212158,3.689453125,6.1,B2,6.1,270,0,4.819576181955699,[6800|1100|0|0]
17001,1.3573386669158936,0.46250271797180176,0.06503710150718689,0.1881505697965622,-0.4606829881668091,0.22036759555339813,3.689453125,6.1,B2,6.1,270,0,4.82481254566003,[6800|1200|0|0]
17101,1.358197808265686,0.46731770038604736,0.0651724711060524,0.6903918981552124,0.049861058592796326,0.28957676887512207,3.68359375,6.1,B2,6.1,270,0,4.8297054491371805,[6800|1300|0|0]
17201,1.3595170974731445,0.4715431332588196,0.06601729989051819,0.4188295006752014,-0.2196006178855896,1.2098256349563599,3.689453125,6.1,B2,6.1,270,0,4.834211949181592,[6800|1400|0|0]
17301,1.3610249757766724,0.47445112466812134,0.06705572456121445,0.8493039608001709,-0.00711638480424881,2.788001537322998,3.68359375,6.1,B2,6.1,270,0,4.837648289795025,[6800|1500|0|0]
17401,1.3609563112258911,0.4763566851615906,0.0682867243885994,0.20436516404151917,-0.006331181153655052,3.747654914855957,3.6796875,6.1,B2,6.1,270,0,4.839917923287426,[6800|1600|0|0]
17501,1.3598535060882568,0.47777700424194336,0.06796709448099136,-0.6403751969337463,-0.14955998957157135,5.182046413421631,3.68359375,6.1,B2,6.1,270,0,4.841744299135778,[6800|1700|0|0]
17601,1.3585847616195679,0.4805094301700592,0.06825913488864899,-0.8248298764228821,0.2638855576515198,7.954876899719238,3.689453125,6.1,B2,6.1,270,0,4.844771038566117,[6800|1800|0|0]
17701,1.3554855585098267,0.48424169421195984,0.06920773535966873,-0.7109015583992004,0.300243079662323,11.234883308410645,3.6953125,6.1,B2,6.1,270,0,4.849714185099199,[6800|1900|0|0]
17801,1.3526219129562378,0.4881500005722046,0.06710820645093918,-0.14518257975578308,-0.8519939184188843,14.672411918640137,4.0390625,6.1,B2,6.1,270,0,4.854994653459175,[6800|2000|0|0]
17901,1.3506420850753784,0.4924965798854828,0.02851034514605999,0.13952010869979858,-1.6638989448547363,23.315290451049805,4.04296875,6.1,B2,6.1,270,0,4.89388690676848,[6800|2100|0|0]
18001,1.3559921979904175,0.4944218099117279,-0.006768784485757351,12.676454544067383,-11.312104225158691,29.627904891967773,4.04296875,6.1,B2,6.1,270,0,4.929621304852626,[6800|2200|0|0]
18102,1.3620944023132324,0.49605458974838257,-0.010709211230278015,8.962671279907227,-0.31317633390426636,28.390119552612305,4.046875,6.1,B2,6.1,270,0,4.937066426108945,[6800|2300|0|0]
18200,1.3619340658187866,0.49757617712020874,-0.009347707033157349,3.195279121398926,-5.897626876831055,28.036426544189453,4.046875,6.1,B2,6.1,270,0,4.939114505599671,[6800|2400|0|0]
18302,1.3612720966339111,0.49722135066986084,-0.007508219685405493,6.868388652801514,-2.101706027984619,28.253206253051758,4.046875,6.1,B2,6.1,270,0,4.941101417453309,[6800|2500|0|0]
18400,1.3609520196914673,0.49792706966400146,-0.008087240159511566,4.099960803985596,-4.764967441558838,27.984600067138672,4.0546875,6.1,B2,6.1,270,0,4.942068760855214,[6800|2600|0|0]
18500,1.3608955144882202,0.497486412525177,-0.006796532776206732,6.10886812210083,-2.6988935470581055,28.1312313079834,4.0546875,6.1,B2,6.1,270,0,4.943433787265694,[6800|2700|0|0]
18600,1.3604620695114136,0.4975452125072479,-0.007300018332898617,4.707672119140625,-4.000462055206299,28.064929962158203,4.0546875,6.1,B2,6.1,270,0,4.944100742805148,[6800|2800|0|0]
18702,1.3605408668518066,0.49753376841545105,-0.006886540446430445,5.678913116455078,-3.0166726112365723,28.11593246459961,4.05859375,6.1,B2,6.1,270,0,4.944521817561799,[6800|2900|0|0]
18802,1.3584845066070557,0.49361857771873474,-0.010172681882977486,4.760095119476318,-3.8325366973876953,28.03523826599121,4.05859375,6.1,B2,6.1,270,0,4.950031451051318,[6800|3000|0|0]
18900,1.3607803583145142,0.4977903962135315,-0.006693788804113865,5.640905857086182,-2.9922544956207275,28.138141632080078,4.05859375,6.1,B2,6.1,270,0,4.955928713269529,[6800|3100|0|0]
19000,1.3607083559036255,0.4981163442134857,-0.006850946228951216,4.195788860321045,-4.392971038818359,28.01658058166504,4.06640625,6.1,B2,6.1,270,0,4.956297664353047,[6800|3200|0|0]
19100,1.3605616092681885,0.49753496050834656,-0.006759814918041229,5.5901947021484375,-2.982668161392212,28.082651138305664,4.06640625,6.1,B2,6.1,270,0,4.956904167859585,[6800|3300|0|0]
19200,1.3607674837112427,0.49795645475387573,-0.007105966564267874,4.590794563293457,-3.9424588680267334,27.997764587402344,4.06640625,6.1,B2,6.1,270,0,4.957487145258376,[6800|3400|0|0]
19300,1.360508918762207,0.4979076087474823,-0.007033002097159624,4.610079288482666,-3.8987460136413574,28.025447845458984,4.06640625,6.1,B2,6.1,270,0,4.957760212244061,[6800|3500|0|0]
19400,1.360467553138733,0.49788329005241394,-0.006776804104447365,5.097834587097168,-3.399401903152466,28.062116622924805,4.06640625,6.1,B2,6.1,270,0,4.958020865126656,[6800|3600|0|0]
19500,1.3605082035064697,0.49791276454925537,-0.007239087019115686,4.954728126525879,-3.521692991256714,28.052793502807617,4.06640625,6.1,B2,6.1,270,0,4.958485866945529,[6800|3700|0|0]
19600,1.3603094816207886,0.4982798993587494,-0.006858457811176777,4.760206699371338,-3.682908773422241,28.066524505615234,4.0703125,6.1,B2,6.1,270,0,4.959050806721193,[6800|3800|0|0]
19700,1.360672950744629,0.4979245662689209,-0.006710998248308897,4.727296829223633,-3.7281765937805176,28.0848388671875,4.0703125,6.1,B2,6.1,270,0,4.959580066327996,[6800|3900|0|0]
19800,1.3606666326522827,0.49778977036476135,-0.006703956983983517,4.7396650314331055,-3.6966018676757812,28.08965492248535,4.0703125,6.1,B2,6.1,270,0,4.959715193799195,[6800|4000|0|0]
19900,1.3572213649749756,0.49437087774276733,-0.009663195349276066,4.812234878540039,-3.5425362586975098,28.041114807128906,4.0703125,6.1,B2,6.1,270,0,4.96539989148963,[6800|4100|0|0]
20000,1.351218819618225,0.4958784580230713,-0.009167835116386414,4.769559383392334,-3.51548171043396,27.763456344604492,4.0703125,6.1,B2,6.1,270,0,4.971608653912347,[6800|4200|0|0]
20100,1.3406413793563843,0.5012901425361633,-0.008838317357003689,2.170346736907959,-5.815063953399658,26.281368255615234,4.0703125,6.1,B2,6.1,270,0,4.983494660546865,[6800|4300|0|0]
20200,1.337777018547058,0.5089789032936096,0.007951953448355198,-1.8794180154800415,-2.6458349227905273,1.7424687147140503,4.0703125,6.1,B2,6.1,270,0,5.002182485421594,[6800|4400|0|0]
20300,1.3465383052825928,0.5070104002952576,-0.004031120799481869,-0.733768105506897,-3.169279098510742,-1.7555001974105835,4.07421875,6.1,B2,6.1,270,0,5.017156770638123,[6800|4500|0|0]
20400,1.3419064283370972,0.5078173279762268,-0.005330180749297142,-0.9212325215339661,1.110772967338562,1.2069274187088013,4.07421875,6.1,B2,6.1,270,0,5.02203457476229,[6800|4600|0|0]
20500,1.3387410640716553,0.5100645422935486,-0.003304111771285534,-0.659950315952301,0.8102045655250549,1.0550280809402466,4.07421875,6.1,B2,6.1,270,0,5.0264134397550215,[6800|4700|0|0]
20600,1.3365299701690674,0.5145816802978516,-0.001528934808447957,-2.2362308502197266,-0.254146546125412,-1.248748540878296,4.07421875,6.1,B2,6.1,270,0,5.031746799413376,[6800|4800|0|0]
20700,1.3343284130096436,0.5201280117034912,0.0009918201249092817,-2.2928717136383057,-0.6061616539955139,-0.14725978672504425,4.07421875,6.1,B2,6.1,270,0,5.038224673402691,[6800|4900|0|0]
20800,1.326119065284729,0.5206729769706726,0.0036532592494040728,-1.6267077922821045,-0.0763683170080185,1.71193528175354,4.07421875,6.1,B2,6.1,270,0,5.04687184839944,[6800|5000|0|0]
20900,1.3185821771621704,0.5212363004684448,0.006206889171153307,-1.2267961502075195,0.7245863676071167,2.671236038208008,4.1484375,6.1,B2,6.1,270,0,5.054849507311198,[6800|5100|0|0]
21000,1.3115968704223633,0.5247470140457153,0.009750891476869583,-1.1375916004180908,0.21450646221637726,2.7976443767547607,4.1484375,6.1,B2,6.1,270,0,5.063433187897855,[6800|5200|0|0]
21100,1.3482153415679932,0.5026274919509888,-0.009449592791497707,-1.0085211992263794,-0.23463290929794312,2.8278512954711914,4.1484375,6.1,B2,6.1,270,0,5.110325023891792,[6800|5300|0|0]
21200,1.3486868143081665,0.5034271478652954,-0.008321312256157398,-1.0811647176742554,-0.15881681442260742,2.9620063304901123,4.15234375,6.1,B2,6.1,270,0,5.111786103318941,[6800|5400|0|0]
21300,1.3485205173492432,0.5034403800964355,-0.008443869650363922,-1.119297742843628,-0.09084263443946838,3.0005404949188232,4.15234375,6.1,B2,6.1,270,0,5.111993105940574,[6800|5500|0|0]
21400,1.3484007120132446,0.503319501876831,-0.008228741586208344,-1.1412262916564941,-0.04448482766747475,3.0017406940460205,4.15234375,6.1,B2,6.1,270,0,5.112267414063851,[6800|5600|0|0]
21500,1.3481698036193848,0.5034685730934143,-0.008186317048966885,-1.1547802686691284,-0.012286403216421604,3.02919864654541,4.15234375,6.1,B2,6.1,270,0,5.112545516123046,[6800|5700|0|0]
21600,1.348168969154358,0.5035277009010315,-0.008210147731006145,-1.163063406944275,-0.006335623562335968,3.0543408393859863,4.15234375,6.1,B2,6.1,270,0,5.112609271086555,[6800|5800|0|0]
21700,1.348065972328186,0.5039014220237732,-0.008191879838705063,-1.1709405183792114,-0.004156697541475296,3.0482277870178223,4.15234375,6.1,B2,6.1,270,0,5.1129973555357076,[6800|5900|0|0]
21800,1.348362922668457,0.5035877227783203,-0.008147048763930798,-1.1571943759918213,-0.005062286276370287,3.0223448276519775,4.16015625,6.1,B2,6.1,270,0,5.113431632574532,[6800|6000|0|0]
21900,1.3479527235031128,0.5041764974594116,-0.008150620386004448,-1.1625570058822632,0.005668899044394493,3.0065982341766357,4.16015625,6.1,B2,6.1,270,0,5.11414922001647,[6800|6100|0|0]
22000,1.3478728532791138,0.5036368370056152,-0.008292406797409058,-1.1358752250671387,0.010615273378789425,2.9736154079437256,4.16015625,6.1,B2,6.1,270,0,5.11471288307587,[6800|6200|0|0]
22100,1.3481473922729492,0.5040592551231384,-0.008155625313520432,-1.1369132995605469,-0.011968209408223629,2.960799217224121,4.16015625,6.1,B2,6.1,270,0,5.11523491554563,[6800|6300|0|0]
22200,1.3479371070861816,0.5040076375007629,-0.008382057771086693,-1.130695104598999,-0.01835019513964653,2.9491376876831055,4.16015625,6.1,B2,6.1,270,0,5.115548213960169,[6800|6400|0|0]
22300,1.3481364250183105,0.5039440393447876,-0.008021947927772999,-1.1168537139892578,-0.031394779682159424,2.9447412490844727,4.1640625,6.1,B2,6.1,270,0,5.115964689004755,[6800|6500|0|0]
22400,1.3480050563812256,0.5040327906608582,-0.00801647175103426,-1.107669711112976,-0.044742077589035034,2.964432954788208,4.1640625,6.1,B2,6.1,270,0,5.11612332224032,[6800|6600|0|0]
22500,1.3481335639953613,0.5039011836051941,-0.00833469070494175,-1.097658634185791,-0.048493530601263046,2.9634969234466553,4.1640625,6.1,B2,6.1,270,0,5.116490878938826,[6800|6700|0|0]
22600,1.347882628440857,0.5036889910697937,-0.008137095719575882,-1.0877865552902222,-0.04823077470064163,2.974459409713745,4.1640625,6.1,B2,6.1,270,0,5.11687433441582,[6800|6800|0|0]
22700,1.347948670387268,0.5037580728530884,-0.00813358835875988,-1.083961009979248,-0.05914900824427605,2.9683306217193604,4.1640625,6.1,B2,6.1,270,0,5.116969969833154,[6800|6900|0|0]
22800,1.3477193117141724,0.503746747970581,-0.008336441591382027,-1.0770328044891357,-0.06359849870204926,2.9763479232788086,4.1640625,6.1,B2,6.1,270,0,5.117276373305513,[6800|7000|0|0]
22900,1.3479804992675781,0.503765881061554,-0.007970277220010757,-1.0657941102981567,-0.07444620877504349,2.991316080093384,4.1640625,6.1,B2,6.1,270,0,5.117726552558795,[6800|7100|0|0]
23000,1.3480958938598633,0.5040388703346252,-0.008162640035152435,-1.0759577751159668,-0.07495946437120438,2.9808740615844727,4.1640625,6.1,B2,6.1,270,0,5.1180798831515695,[6800|7200|0|0]
23100,1.3480212688446045,0.5033499002456665,-0.008184608072042465,-1.0627014636993408,-0.07314573228359222,3.006542205810547,4.1640625,6.1,B2,6.1,270,0,5.118773231023151,[6800|7300|0|0]
23200,1.3484086990356445,0.5038703083992004,-0.007835381664335728,-1.080367922782898,-0.08863160014152527,2.9850587844848633,4.1640625,6.1,B2,6.1,270,0,5.11951003892419,[6800|7400|0|0]
23300,1.3483961820602417,0.5038893818855286,-0.008361167274415493,-1.0788487195968628,-0.07338161021471024,2.980715751647949,4.1640625,6.1,B2,6.1,270,0,5.120036319249037,[6800|7500|0|0]
23400,1.348713994026184,0.5037778615951538,-0.008065527305006981,-1.074534296989441,-0.08061275631189346,2.979722261428833,4.171875,6.1,B2,6.1,270,0,5.120484475708739,[6800|7600|0|0]
23500,1.3482496738433838,0.5039307475090027,-0.008489489555358887,-1.0753629207611084,-0.06673134118318558,3.0008926391601562,4.171875,6.1,B2,6.1,270,0,5.121131554780053,[6800|7700|0|0]
23600,1.3483130931854248,0.503532350063324,-0.00827160757035017,-1.0605536699295044,-0.0699923038482666,2.9942994117736816,4.171875,6.1,B2,6.1,270,0,5.121590046979615,[6800|7800|0|0]
23700,1.3483470678329468,0.5038841366767883,-0.00829401146620512,-1.0641493797302246,-0.077980175614357,2.985164165496826,4.171875,6.1,B2,6.1,270,0,5.121944179769168,[6800|7900|0|0]
23800,1.3486522436141968,0.5038120150566101,-0.008317884057760239,-1.0602978467941284,-0.08031295239925385,2.9833950996398926,4.171875,6.1,B2,6.1,270,0,5.122258669333679,[6800|8000|0|0]
23900,1.3485209941864014,0.5037431120872498,-0.008135151118040085,-1.0581203699111938,-0.07575654238462448,2.9786741733551025,4.171875,6.1,B2,6.1,270,0,5.122493967779789,[6800|8100|0|0]
24000,1.3482218980789185,0.5035936236381531,-0.007956214249134064,-1.0550732612609863,-0.06172575801610947,2.9836037158966064,4.171875,6.1,B2,6.1,270,0,5.122873208707141,[6800|8200|0|0]
24100,1.3480654954910278,0.5040017366409302,-0.008358404040336609,-1.0625380277633667,-0.06327994167804718,3.0036139488220215,4.171875,6.1,B2,6.1,270,0,5.123467157038801,[6800|8300|0|0]
24200,1.3484169244766235,0.5036952495574951,-0.007984534837305546,-1.0525141954421997,-0.07026058435440063,2.9934680461883545,4.17578125,6.1,B2,6.1,270,0,5.124064831569967,[6800|8400|0|0]
24300,1.3483859300613403,0.5038018226623535,-0.00835887249559164,-1.0570415258407593,-0.06177644431591034,2.9963905811309814,4.171875,6.1,B2,6.1,270,0,5.124455276396888,[6800|8500|0|0]
24400,1.3485244512557983,0.5037086009979248,-0.008142996579408646,-1.0475810766220093,-0.06952210515737534,2.965128183364868,4.17578125,6.1,B2,6.1,270,0,5.124728188124779,[6800|8600|0|0]
24500,1.3482441902160645,0.503871500492096,-0.007888836786150932,-1.0521966218948364,-0.06889336556196213,2.981802225112915,4.17578125,6.1,B2,6.1,270,0,5.125140110078677,[6800|8700|0|0]
24600,1.348494052886963,0.5039568543434143,-0.008531779050827026,-1.0474523305892944,-0.07744555920362473,2.978724479675293,4.17578125,6.1,B2,6.1,270,0,5.12583515783959,[6800|8800|0|0]
24700,1.3484705686569214,0.5036720037460327,-0.008120494894683361,-1.0424456596374512,-0.07608368992805481,3.006964683532715,4.17578125,6.1,B2,6.1,270,0,5.126336003154018,[6800|8900|0|0]
24800,1.348375678062439,0.5038119554519653,-0.008165689185261726,-1.0444049835205078,-0.06966667622327805,2.9941372871398926,4.17578125,6.1,B2,6.1,270,0,5.12651102666334,[6800|9000|0|0]
24900,1.3482272624969482,0.5034077167510986,-0.008240067400038242,-1.039834976196289,-0.06678349524736404,2.974931240081787,4.17578125,6.1,B2,6.1,270,0,5.126948025777975,[6800|9100|0|0]
25000,1.3479766845703125,0.5039635896682739,-0.008465207181870937,-1.0571461915969849,-0.060196783393621445,2.970639228820801,4.17578125,6.1,B2,6.1,270,0,5.1275980041766385,[6800|9200|0|0]
25100,1.3486353158950806,0.5039424300193787,-0.0083054443821311,-1.0548893213272095,-0.07370409369468689,2.9779067039489746,4.17578125,6.1,B2,6.1,270,0,5.12827606546066,[6800|9300|0|0]
25200,1.3484759330749512,0.5038840174674988,-0.008426355198025703,-1.0554007291793823,-0.06960012763738632,2.971768379211426,4.17578125,6.1,B2,6.1,270,0,5.128484474517492,[6800|9400|0|0]
25300,1.348441243171692,0.5038793087005615,-0.008163325488567352,-1.0531566143035889,-0.07222650945186615,2.9644267559051514,4.17578125,6.1,B2,6.1,270,0,5.128749823702401,[6800|9500|0|0]
25400,1.3484092950820923,0.5038597583770752,-0.008461019024252892,-1.0536013841629028,-0.06358722597360611,2.952455520629883,4.17578125,6.1,B2,6.1,270,0,5.129049864260937,[6800|9600|0|0]
25500,1.3479034900665283,0.5040623545646667,-0.007671200670301914,-1.1337194442749023,-0.11532348394393921,2.9481863975524902,4.17578125,6.1,B2,6.1,270,0,5.1300093938129745,[6800|9700|0|0]
25600,1.348020076751709,0.504172682762146,-0.007944939658045769,-1.1209465265274048,-0.10469508171081543,2.9429073333740234,4.17578125,6.1,B2,6.1,270,0,5.1303267229791905,[6800|9800|0|0]
25700,1.3482145071029663,0.5037401914596558,-0.008243035525083542,-1.109089970588684,-0.09923490136861801,2.935126304626465,4.1796875,6.1,B2,6.1,270,0,5.1308868238934595,[6800|9900|0|0]
25800,1.3480182886123657,0.5038032531738281,-0.007700525224208832,-1.099959373474121,-0.092717744410038,2.936952829360962,4.1796875,6.1,B2,6.1,270,0,5.131467165088278,[6800|10000|0|0]
25900,1.3482556343078613,0.5036588907241821,-0.008076316677033901,-1.0995784997940063,-0.10435357689857483,2.975963592529297,3.419921875,6.1,J1,6.1,270,0,5.1319344901486526,[6800|10000|0|0]
26000,1.3486390113830566,0.5043456554412842,-0.008314240723848343,-1.8766876459121704,-0.2601090967655182,2.9526076316833496,3.537109375,6.1,J1,6.1,270,0,5.132756214926479,[6800|10000|0|0]
26100,1.3463249206542969,0.5082112550735474,0.006158552598208189,-2.749577760696411,5.640822887420654,4.946699142456055,3.642578125,6.1,J1,6.1,270,0,5.147914038746568,[6800|10000|0|0]
26200,1.3354181051254272,0.5160905122756958,0.04664789140224457,0.6538499593734741,3.5447022914886475,6.631768226623535,3.6640625,6.1,J1,6.1,270,0,5.1905805112493,[6800|10000|0|0]
26300,1.3192063570022583,0.5215087532997131,0.10776149481534958,5.1734137535095215,-2.671473264694214,6.041503429412842,3.68359375,6.1,J1,6.1,270,0,5.254039558162548,[6800|10000|0|0]
26400,1.3076847791671753,0.5195284485816956,0.17989546060562134,5.519528865814209,-4.92983865737915,4.3020243644714355,3.701171875,6.1,J1,6.1,270,0,5.327114707038333,[6800|10000|0|0]
26500,1.3064844608306885,0.5091128945350647,0.25924623012542725,3.7585930824279785,-5.465124130249023,2.7004170417785645,3.701171875,6.1,J1,6.1,270,0,5.407155129036174,[6800|10000|0|0]
26600,1.3148399591445923,0.4930244982242584,0.3419429063796997,2.1649739742279053,-3.858997344970703,1.6612358093261719,3.705078125,6.1,J1,6.1,270,0,5.491815575003764,[6800|10000|0|0]
26700,1.3286978006362915,0.4748086929321289,0.42757871747016907,0.05641929432749748,-1.9036935567855835,0.8704092502593994,3.705078125,6.1,J1,6.1,270,0,5.580457255235878,[6800|10000|0|0]
26800,1.3453032970428467,0.4576607644557953,0.5170607566833496,-2.0631320476531982,0.5344765782356262,0.5635204315185547,3.7109375,6.1,J1,6.1,270,0,5.673068427907898,[6800|10000|0|0]
26900,1.3606793880462646,0.44443798065185547,0.6083033680915833,-2.4100053310394287,2.506614923477173,0.32350438833236694,3.7421875,6.1,J1,6.1,270,0,5.766537568926017,[6800|10000|0|0]
27000,1.3717904090881348,0.4362477958202362,0.697752058506012,-2.7753169536590576,3.4141926765441895,-0.218495175242424,3.7734375,6.1,J1,6.1,270,0,5.857045038965928,[6800|10000|0|0]
27100,1.3774794340133667,0.4336357116699219,0.7774262428283691,-2.054814338684082,2.716005325317383,-0.4873834252357483,3.779296875,6.1,J1,6.1,270,0,5.936964771420692,[6800|10000|0|0]
27200,1.3792693614959717,0.4340363144874573,0.8439249396324158,-1.4281561374664307,2.4221513271331787,-0.47181957960128784,3.7734375,6.1,J1,6.1,270,0,6.003488759572688,[6800|10000|0|0]
27300,1.3773317337036133,0.4378013014793396,0.8944135308265686,-0.7932546138763428,1.7691658735275269,-0.4893620014190674,3.7578125,6.1,J1,6.1,270,0,6.054154599832977,[6800|10000|0|0]
27400,1.3722013235092163,0.4423788785934448,0.9313791394233704,-0.5414511561393738,1.0449347496032715,-0.5855972766876221,3.7421875,6.1,J1,6.1,270,0,6.091754221372698,[6800|10000|0|0]
27500,1.3659980297088623,0.44789546728134155,0.9577391743659973,0.5292799472808838,0.594629168510437,-0.5503156781196594,3.736328125,6.1,J1,6.1,270,0,6.119390520815667,[6800|10000|0|0]
27600,1.3577874898910522,0.452854722738266,0.9767388701438904,0.4818153977394104,0.00555423554033041,-0.43325909972190857,3.7265625,6.1,J1,6.1,270,0,6.1406742145373725,[6800|10000|0|0]
27700,1.3504064083099365,0.4578345715999603,0.990578830242157,0.6077724099159241,-0.5730486512184143,-0.6039089560508728,3.720703125,6.1,J1,6.1,270,0,6.157130938254869,[6800|10000|0|0]
27800,1.3431124687194824,0.46167701482772827,0.9999402761459351,0.6834897398948669,-0.7354971170425415,-0.5245499014854431,3.720703125,6.1,J1,6.1,270,0,6.169605015139239,[6800|10000|0|0]
27900,1.3375964164733887,0.46393218636512756,1.007691502571106,0.7011659145355225,-1.1924073696136475,-0.587778627872467,3.720703125,6.1,J1,6.1,270,0,6.179382240826468,[6800|10000|0|0]
28000,1.3336701393127441,0.46582528948783875,1.0134342908859253,0.5805407166481018,-0.8914729952812195,-0.6495499610900879,3.716796875,6.1,J1,6.1,270,0,6.186591894729689,[6800|10000|0|0]
28100,1.3310370445251465,0.4669908285140991,1.0175386667251587,0.3753562271595001,-0.9807628989219666,-0.6192142963409424,3.716796875,6.1,J1,6.1,270,0,6.191605632897154,[6800|10000|0|0]
28200,1.3307162523269653,0.4673811197280884,1.020286202430725,0.25694313645362854,-0.6773716807365417,-0.5058045983314514,3.7109375,6.1,J1,6.1,270,0,6.194399230455768,[6800|10000|0|0]
28300,1.330623745918274,0.46824145317077637,1.021566390991211,-0.03385370224714279,-0.07296242564916611,-0.35878676176071167,3.7109375,6.1,J1,6.1,270,0,6.195944421000217,[6800|10000|0|0]
28400,1.331061840057373,0.46930497884750366,1.0217688083648682,-0.2061893790960312,0.19864670932292938,-0.3504861891269684,3.7109375,6.1,J1,6.1,270,0,6.197112319169121,[6800|10000|0|0]
28500,1.3304179906845093,0.4709571301937103,1.0211753845214844,-0.056308258324861526,0.14926032721996307,-0.25726571679115295,3.701171875,6.1,J1,6.1,270,0,6.198982158184546,[6800|10000|0|0]
28600,1.329769492149353,0.472329705953598,1.0201849937438965,0.39366912841796875,0.6885972619056702,-0.1523507833480835,3.6953125,6.1,J1,6.1,270,0,6.200794722241087,[6800|10000|0|0]
28700,1.3275172710418701,0.4731844365596771,1.018715739250183,0.5658700466156006,0.1142767146229744,-0.14094552397727966,3.701171875,6.1,J1,6.1,270,0,6.203616383647645,[6800|10000|0|0]
28800,1.324586272239685,0.47373953461647034,1.017573356628418,0.12858353555202484,-0.5676098465919495,-0.3093082308769226,3.701171875,6.1,J1,6.1,270,0,6.2068107420942775,[6800|10000|0|0]
28900,1.322719931602478,0.47377175092697144,1.0168583393096924,-0.01381047535687685,-0.6849058866500854,-0.32642748951911926,3.65234375,6.1,J1,6.1,270,94.25884612217035,6.2088096205375125,[6800|10000|0|0]
29000,1.3195600509643555,0.47521552443504333,1.0202209949493408,-3.9076473712921143,7.752213954925537,-0.007664082106202841,3.568359375,6.1,J1,6.1,270,94.25884612217035,6.21364457457459,[6800|10000|0|0]
29100,1.298598289489746,0.4843716323375702,1.0402542352676392,-7.74412202835083,18.631031036376953,3.444434881210327,3.578125,6.1,J1,6.1,270,94.25884612217035,6.244051160599526,[6800|10000|0|0]
29200,1.2430367469787598,0.5051371455192566,1.0765184164047241,-5.14526891708374,19.9057559967041,5.296558380126953,3.59375,6.1,J1,6.1,270,94.25884612217035,6.313573692036768,[6800|10000|0|0]
29300,1.152279019355774,0.5292363166809082,1.1277354955673218,1.891141414642334,12.236845970153809,4.35587739944458,3.626953125,6.1,J1,6.1,270,94.25884612217035,6.420535948800144,[6800|10000|0|0]
29400,1.041933536529541,0.5466450452804565,1.1948636770248413,5.794118881225586,3.9689536094665527,3.1481502056121826,3.673828125,6.1,J1,6.1,270,94.25884612217035,6.550863927981135,[6800|10000|0|0]
29500,0.9254467487335205,0.5489473938941956,1.2739216089248657,6.7123703956604,-0.8836432695388794,2.015507936477661,3.720703125,6.1,J1,6.1,270,94.25884612217035,6.6916638894033005,[6800|10000|0|0]
29600,0.8158861398696899,0.5424548387527466,1.3469679355621338,4.343527317047119,-2.9204466342926025,2.5649824142456055,3.748046875,6.1,J1,6.1,270,94.25884612217035,6.823502601935229,[6800|10000|0|0]
29700,0.7158523797988892,0.5409007668495178,1.4171767234802246,1.4709774255752563,-6.547006130218506,4.833689212799072,3.7421875,6.1,J1,6.1,270,94.25884612217035,6.945725522021072,[6800|10000|0|0]
29800,0.6286879181861877,0.5272610187530518,1.4713835716247559,-0.8842682838439941,-8.906889915466309,1.6046953201293945,3.76953125,6.1,J1,6.1,270,94.25884612217035,7.049272943438177,[6800|10000|0|0]
29900,0.5524071455001831,0.5154715180397034,1.5056216716766357,-2.063722848892212,-9.544000625610352,-0.445895791053772,3.75390625,6.1,J1,6.1,270,94.25884612217035,7.133712247697547,[6800|10000|0|0]
30000,0.48917627334594727,0.5074947476387024,1.5226950645446777,-2.9502413272857666,-9.789440155029297,-1.6536494493484497,3.720703125,6.1,J1,6.1,270,94.25884612217035,7.199691583882766,[6800|10000|0|0]
30100,0.44606927037239075,0.5018314123153687,1.5269683599472046,-2.5979413986206055,-9.583065032958984,-1.2847676277160645,3.701171875,6.1,J1,6.1,270,94.25884612217035,7.243378517008633,[6800|10000|0|0]
30200,0.39215415716171265,0.5086511969566345,1.5052317380905151,-2.0061144828796387,-7.668269157409668,1.7292240858078003,3.6640625,6.1,J1,6.1,270,94.25884612217035,7.3019091040961905,[6800|10000|0|0]
30300,0.36625924706459045,0.5109241008758545,1.4999765157699585,-1.1491929292678833,-8.061579704284668,4.519874572753906,3.6640625,6.1,J1,6.1,270,94.25884612217035,7.328429470285263,[6800|10000|0|0]
30400,0.358758807182312,0.5183443427085876,1.506668210029602,-0.7171311974525452,-5.955575942993164,-0.3111632466316223,3.6640625,6.1,J1,6.1,270,94.25884612217035,7.340923283127965,[6800|10000|0|0]
30500,0.3561228811740875,0.5237617492675781,1.5074149370193481,-0.3132750689983368,-3.867626905441284,-3.4318594932556152,3.673828125,6.1,J1,6.1,270,94.25884612217035,7.34699403274753,[6800|10000|0|0]
30600,0.3571231961250305,0.5291716456413269,1.5110360383987427,0.30939018726348877,-1.467734932899475,-4.42638635635376,3.68359375,6.1,J1,6.1,270,94.25884612217035,7.353580381051076,[6800|10000|0|0]
30700,0.3569781184196472,0.5348658561706543,1.5139257907867432,0.6463397741317749,-0.037162426859140396,-4.287628173828125,3.68359375,6.1,J1,6.1,270,94.25884612217035,7.359967536126448,[6800|10000|0|0]
30800,0.35603025555610657,0.5420570373535156,1.5191868543624878,0.37751996517181396,0.23088239133358002,-3.5020105838775635,3.68359375,6.1,J1,6.1,270,94.25884612217035,7.368928022762834,[6800|10000|0|0]
30900,0.3520249128341675,0.5479758381843567,1.519309401512146,0.23838217556476593,-0.07867398858070374,-2.8441009521484375,3.705078125,6.1,J1,6.1,270,94.25884612217035,7.376075749072594,[6800|10000|0|0]
31000,0.34763845801353455,0.5570449829101562,1.5198079347610474,0.3822595775127411,-0.5827780365943909,-2.3703811168670654,3.6796875,6.1,J1,6.1,270,94.25884612217035,7.386162319716337,[6800|10000|0|0]
31100,0.3426002264022827,0.5645402073860168,1.5166645050048828,0.4537050127983093,-1.2626992464065552,-2.1782469749450684,3.6796875,6.1,J1,6.1,270,94.25884612217035,7.39572491969459,[6800|10000|0|0]
31200,0.33753377199172974,0.5718585252761841,1.5109457969665527,0.7960309982299805,-1.832387089729309,-1.9694879055023193,3.6953125,6.1,J1,6.1,270,94.25884612217035,7.406304634183337,[6800|10000|0|0]
31301,0.33649778366088867,0.5802920460700989,1.5079691410064697,0.8467381596565247,-2.170459508895874,-1.8179640769958496,3.6796875,6.1,J1,6.1,270,94.25884612217035,7.415307857245537,[6800|10000|0|0]
31401,0.3373269736766815,0.5864158868789673,1.5021629333496094,1.149588704109192,-1.6895155906677246,-1.7050293684005737,3.68359375,6.1,J1,6.1,270,94.25884612217035,7.423787304732799,[6800|10000|0|0]
31501,0.3408230245113373,0.5908903479576111,1.49661386013031,1.43502676486969,-1.4724926948547363,-1.2988642454147339,3.689453125,6.1,J1,6.1,270,94.25884612217035,7.431726787523003,[6800|10000|0|0]
31601,0.3454993963241577,0.594436526298523,1.4905058145523071,1.1508699655532837,-1.0803172588348389,-0.9155359864234924,3.673828125,6.1,J1,6.1,270,94.25884612217035,7.440197445994471,[6800|10000|0|0]
31702,0.35074979066848755,0.5967760682106018,1.484850287437439,1.1428166627883911,-0.27992579340934753,-0.5905280113220215,3.6796875,6.1,J1,6.1,270,94.25884612217035,7.44826125924109,[6800|10000|0|0]
