time.ms,stateEstimate.x,stateEstimate.y,stateEstimate.z,stabilizer.roll,stabilizer.pitch,stabilizer.yaw,pm.vbat,drone_id,node_name,wind_speed,global_wind_direction,relative_wind_direction,travel_dist,waiting_time
0,1.2330000400543213,-0.19540387392044067,-0.20224593579769135,0.5505162477493286,0.6081374287605286,0.6146346926689148,4.171875,2,C1,7.6,90,0,0.26691627657542927,[100|0|0|0]
100,1.2332026958465576,-0.195203959941864,-0.20269790291786194,0.5301610231399536,0.5941192507743835,0.6257292628288269,4.1640625,2,C1,7.6,90,0,0.26745042004555,[200|0|0|0]
200,1.2326358556747437,-0.19445468485355377,-0.20365145802497864,0.5063149929046631,0.6245101690292358,0.6166154742240906,4.1640625,2,C1,7.6,90,0,0.26878907171071637,[300|0|0|0]
300,1.232511043548584,-0.19444780051708221,-0.2034481316804886,0.5008144378662109,0.6280389428138733,0.6358169317245483,4.1640625,2,C1,7.6,90,0,0.2690277494501242,[400|0|0|0]
400,1.2318979501724243,-0.19328710436820984,-0.204908087849617,0.48450028896331787,0.6388415694236755,0.6433814764022827,4.171875,2,C1,7.6,90,0,0.2709910556039561,[500|0|0|0]
500,1.2319207191467285,-0.19325396418571472,-0.20531301200389862,0.500877857208252,0.6320630311965942,0.6303504109382629,4.1640625,2,C1,7.6,90,0,0.2713979711585953,[600|0|0|0]
600,1.2320363521575928,-0.19338902831077576,-0.20523503422737122,0.5095556378364563,0.6300704479217529,0.6264364123344421,4.171875,2,C1,7.6,90,0,0.27159212018566525,[700|0|0|0]
700,1.2320185899734497,-0.1937740594148636,-0.20493803918361664,0.520648181438446,0.6303004026412964,0.6007811427116394,4.1640625,2,C1,7.6,90,0,0.27207871087846097,[800|0|0|0]
800,1.2325160503387451,-0.19440758228302002,-0.20417006313800812,0.5233225226402283,0.6141100525856018,0.5776950716972351,4.1640625,2,C1,7.6,90,0,0.27319163731185425,[900|0|0|0]
900,1.232159972190857,-0.19373272359371185,-0.20470543205738068,0.5018637180328369,0.6296485066413879,0.5635972023010254,4.1640625,2,C1,7.6,90,0,0.2741237562837502,[1000|0|0|0]
1000,1.2322605848312378,-0.1937669813632965,-0.20467069745063782,0.5001187324523926,0.6279194355010986,0.5743358135223389,4.1640625,2,C1,7.6,90,0,0.2742355730583724,[1100|0|0|0]
1100,1.2320235967636108,-0.19333042204380035,-0.20502237975597382,0.49457770586013794,0.6380364894866943,0.5773555636405945,4.1640625,2,C1,7.6,90,0,0.27484420088185973,[1200|0|0|0]
1200,1.232456922531128,-0.19424377381801605,-0.20391131937503815,0.531001091003418,0.6316571831703186,0.5947967171669006,4.171875,2,C1,7.6,90,0,0.2763463453004634,[1300|0|0|0]
1300,1.2320141792297363,-0.1930905133485794,-0.20570997893810272,0.5010292530059814,0.6247231364250183,0.5918887257575989,4.1640625,2,C1,7.6,90,0,0.27852836444911816,[1400|0|0|0]
1400,1.2322841882705688,-0.1939663589000702,-0.20448698103427887,0.521073579788208,0.6333385705947876,0.5923564434051514,4.1640625,2,C1,7.6,90,0,0.2800566753418867,[1500|0|0|0]
1500,1.2324081659317017,-0.1944107711315155,-0.2041129171848297,0.5274925827980042,0.624552845954895,0.5961588025093079,4.171875,2,C1,7.6,90,0,0.2806506420542393,[1600|0|0|0]
1600,1.23261559009552,-0.19441644847393036,-0.20370851457118988,0.5150246024131775,0.6116631627082825,0.5925775766372681,4.1640625,2,C1,7.6,90,0,0.28110517312014277,[1700|0|0|0]
1700,1.232297420501709,-0.19360998272895813,-0.2047354280948639,0.49476879835128784,0.6220837831497192,0.587735116481781,4.171875,2,C1,7.6,90,0,0.28244911146446666,[1800|0|0|0]
1800,1.2323873043060303,-0.19413261115550995,-0.20427998900413513,0.5183879733085632,0.6256511211395264,0.5953202843666077,4.171875,2,C1,7.6,90,0,0.28314814246226516,[1900|0|0|0]
1900,1.232731819152832,-0.19461840391159058,-0.20312969386577606,0.5103994607925415,0.6151465773582458,0.5906375050544739,4.1640625,2,C1,7.6,90,0,0.28444346635491125,[2000|0|0|0]
2000,1.232216238975525,-0.19391731917858124,-0.2046387791633606,0.5016030073165894,0.6144407987594604,0.571395218372345,4.171875,2,C1,7.6,90,0,0.2861854999818762,[2100|0|0|0]
2100,1.232237458229065,-0.19344818592071533,-0.20470383763313293,0.4814148247241974,0.5993828177452087,0.5806747674942017,4.171875,2,C1,7.6,90,0,0.2866595979410005,[2200|0|0|0]
2200,1.2318779230117798,-0.1928822100162506,-0.20626245439052582,0.48953789472579956,0.6030417680740356,0.620713472366333,4.1640625,2,C1,7.6,90,0,0.28835632434597236,[2300|0|0|0]
2300,1.2317817211151123,-0.19302208721637726,-0.20631934702396393,0.5093827247619629,0.6057606339454651,0.6139779686927795,4.171875,2,C1,7.6,90,0,0.28853536961336923,[2400|0|0|0]
2400,1.2320700883865356,-0.1938212513923645,-0.20466677844524384,0.5210320353507996,0.6101290583610535,0.6057978868484497,4.1640625,2,C1,7.6,90,0,0.2903935412875647,[2500|0|0|0]
2500,1.2318711280822754,-0.1931382566690445,-0.20550981163978577,0.49787604808807373,0.6087389588356018,0.6133810877799988,4.1640625,2,C1,7.6,90,0,0.2914966151571917,[2600|0|0|0]
2600,1.2318766117095947,-0.19295641779899597,-0.2057916224002838,0.5019850730895996,0.6031634211540222,0.6322706341743469,4.1640625,2,C1,7.6,90,0,0.2918320443592025,[2700|0|0|0]
2700,1.2319912910461426,-0.19354724884033203,-0.2051454335451126,0.5275719165802002,0.6126738786697388,0.6320341229438782,4.1640625,2,C1,7.6,90,0,0.2927151030810239,[2800|0|0|0]
2800,1.2318733930587769,-0.19332191348075867,-0.20535950362682343,0.5138550996780396,0.610410213470459,0.6655279994010925,4.1640625,2,C1,7.6,90,0,0.29304752143127344,[2900|0|0|0]
2900,1.23235023021698,-0.194209024310112,-0.2040521651506424,0.5336514115333557,0.6037104725837708,0.6614737510681152,4.1640625,2,C1,7.6,90,0,0.294697816311076,[3000|0|0|0]
3000,1.232334017753601,-0.19404073059558868,-0.20397013425827026,0.5183654427528381,0.5989375710487366,0.6572955846786499,4.1640625,2,C1,7.6,90,0,0.2948857383311275,[3100|0|0|0]
3100,1.2324289083480835,-0.19441406428813934,-0.20386427640914917,0.5356006026268005,0.6000902056694031,0.6564359664916992,4.171875,2,C1,7.6,90,0,0.29528522319333794,[3200|0|0|0]
3200,1.2324869632720947,-0.1942933201789856,-0.20393769443035126,0.5196667909622192,0.5951461791992188,0.6462160348892212,4.1640625,2,C1,7.6,90,0,0.29543799662013237,[3300|0|0|0]
3300,1.2321048974990845,-0.19357550144195557,-0.20509342849254608,0.5013368129730225,0.6021142601966858,0.6259187459945679,4.171875,2,C1,7.6,90,0,0.29685113469429736,[3400|0|0|0]
3400,1.232292652130127,-0.19365380704402924,-0.2049337476491928,0.5007665753364563,0.6002541780471802,0.6205242276191711,4.1640625,2,C1,7.6,90,0,0.2971097493507421,[3500|0|0|0]
3500,1.232122778892517,-0.19353145360946655,-0.2049669474363327,0.5034271478652954,0.6192725896835327,0.6279188990592957,4.1640625,2,C1,7.6,90,0,0.2973217151632484,[3600|0|0|0]
3600,1.232077956199646,-0.1937945932149887,-0.20460493862628937,0.510601818561554,0.6213983297348022,0.6405342817306519,4.1640625,2,C1,7.6,90,0,0.2977714950031029,[3700|0|0|0]
3700,1.2320233583450317,-0.1934683918952942,-0.2051180750131607,0.49505677819252014,0.6089872121810913,0.621684730052948,4.1640625,2,C1,7.6,90,0,0.29838198429721896,[3800|0|0|0]
3800,1.2316473722457886,-0.19258525967597961,-0.2064407765865326,0.47932225465774536,0.6051587462425232,0.6137821674346924,4.1640625,2,C1,7.6,90,0,0.3000162509571665,[3900|0|0|0]
3900,1.2317516803741455,-0.1928151547908783,-0.2062564641237259,0.4924107789993286,0.6127915978431702,0.6171560287475586,4.1640625,2,C1,7.6,90,0,0.3003288258017101,[4000|0|0|0]
4000,1.2319878339767456,-0.19350013136863708,-0.20542728900909424,0.5147929787635803,0.6141160726547241,0.6308764815330505,4.1640625,2,C1,7.6,90,0,0.30142995831272934,[4100|0|0|0]
4100,1.2317636013031006,-0.19300231337547302,-0.20555777847766876,0.4967869520187378,0.6165096163749695,0.6400649547576904,4.1640625,2,C1,7.6,90,0,0.30199132320979427,[4200|0|0|0]
4200,1.2319746017456055,-0.19378690421581268,-0.20493711531162262,0.5342974662780762,0.6228046417236328,0.6290615797042847,4.1640625,2,C1,7.6,90,0,0.30301373542566834,[4300|0|0|0]
4300,1.232174038887024,-0.19366669654846191,-0.20475243031978607,0.5157998204231262,0.6039601564407349,0.6054834723472595,4.1640625,2,C1,7.6,90,0,0.3033109451207941,[4400|0|0|0]
4400,1.3202342987060547,-0.3021117150783539,-0.003745339810848236,-1.9639968872070312,-2.709312915802002,-0.1516251564025879,4.1640625,2,C1,7.6,90,0,0.5480940773791507,[4500|0|0|0]
4500,1.3170685768127441,-0.30301064252853394,-6.540468893945217e-05,0.5660557746887207,1.5294077396392822,0.5597777962684631,4.1640625,2,C1,7.6,90,0,0.55303085650809,[4600|0|0|0]
4600,1.3119326829910278,-0.30551666021347046,-0.0007918808842077851,2.3847458362579346,5.018911838531494,1.031115174293518,4.1640625,2,C1,7.6,90,0,0.5587915246679002,[4700|0|0|0]
4700,1.3085269927978516,-0.306743323802948,-0.0014041964896023273,2.887824296951294,6.00636625289917,1.3005582094192505,4.1640625,2,C1,7.6,90,0,0.562462813222925,[4800|0|0|0]
4800,1.3066388368606567,-0.30723172426223755,-0.0015604624059051275,2.8094093799591064,5.7650346755981445,1.4897037744522095,4.1640625,2,C1,7.6,90,0,0.5644193629637689,[4900|0|0|0]
4900,1.3077222108840942,-0.3073422312736511,-0.001959084067493677,2.5408427715301514,5.1086931228637695,1.598204255104065,4.1640625,2,C1,7.6,90,0,0.5655790225273126,[5000|0|0|0]
5000,1.307621955871582,-0.3078242540359497,-0.0016294305678457022,2.3013203144073486,4.444549083709717,1.6248537302017212,4.1640625,2,C1,7.6,90,0,0.5661715328147658,[5100|0|0|0]
5100,1.308119773864746,-0.3080088794231415,-0.001917145331390202,2.0744640827178955,3.8164892196655273,1.5498688220977783,4.1640625,2,C1,7.6,90,0,0.5667754277336674,[5200|0|0|0]
5200,1.307837724685669,-0.308109313249588,-0.001919358503073454,1.8642306327819824,3.3160433769226074,1.5048221349716187,4.1640625,2,C1,7.6,90,0,0.5670748331294799,[5300|0|0|0]
5300,1.3078030347824097,-0.3076101541519165,-0.0021036702673882246,1.640791654586792,2.8779332637786865,1.4592152833938599,4.1640625,2,C1,7.6,90,0,0.5676080629304487,[5400|0|0|0]
5400,1.308104157447815,-0.30806607007980347,-0.0017861603992059827,1.4713659286499023,2.4795734882354736,1.3950902223587036,4.1640625,2,C1,7.6,90,0,0.5682400017797965,[5500|0|0|0]
5500,1.3081729412078857,-0.3078099489212036,-0.001977287232875824,1.295973777770996,2.140423536300659,1.3312987089157104,4.1640625,2,C1,7.6,90,0,0.5685668943004828,[5600|0|0|0]
5600,1.3081111907958984,-0.30773356556892395,-0.0017135473899543285,1.1373623609542847,1.841458797454834,1.2375314235687256,4.1640625,2,C1,7.6,90,0,0.5688483303227513,[5700|0|0|0]
5700,1.3083560466766357,-0.30796942114830017,-0.00222734734416008,1.0540778636932373,1.6294567584991455,1.1861661672592163,4.1640625,2,C1,7.6,90,0,0.5694644249985896,[5800|0|0|0]
5800,1.3085851669311523,-0.3077965974807739,-0.0017679173033684492,0.9597534537315369,1.4350351095199585,1.1124449968338013,4.1640625,2,C1,7.6,90,0,0.570006126090954,[5900|0|0|0]
5900,1.3085176944732666,-0.30773574113845825,-0.0022705341689288616,0.8748233318328857,1.2756340503692627,1.0535118579864502,4.1640625,2,C1,7.6,90,0,0.5705168899703729,[6000|0|0|0]
6000,1.3085767030715942,-0.30806592106819153,-0.0021389585454016924,0.8185603618621826,1.1339539289474487,1.0019416809082031,4.1640625,2,C1,7.6,90,0,0.5708771856064577,[6100|0|0|0]
6100,1.3088033199310303,-0.30797457695007324,-0.0017622539307922125,0.7491322159767151,1.0115805864334106,0.9486511945724487,4.1640625,2,C1,7.6,90,0,0.571326190412182,[6200|0|0|0]
6200,1.308993935585022,-0.3078593313694,-0.0017845621332526207,0.6889503598213196,0.9044431447982788,0.8989525437355042,4.1640625,2,C1,7.6,90,0,0.571550050920777,[6300|0|0|0]
6300,1.3092851638793945,-0.30769169330596924,-0.0017269895179197192,0.5629190802574158,0.7775751352310181,0.8603256344795227,4.1640625,2,C1,7.6,90,0,0.5718909776662668,[6400|0|0|0]
6400,1.3091771602630615,-0.30785074830055237,-0.00160053966101259,0.5036003589630127,0.695702850818634,0.8202320337295532,4.1640625,2,C1,7.6,90,0,0.5721210925044556,[6500|0|0|0]
6500,1.309238076210022,-0.3077374994754791,-0.001516597461886704,0.4469307065010071,0.6280087828636169,0.7844059467315674,4.1640625,2,C1,7.6,90,0,0.5722746579360105,[6600|0|0|0]
6600,1.3091920614242554,-0.30775514245033264,-0.0018041325965896249,0.4097447395324707,0.5737197995185852,0.7670800685882568,4.1640625,2,C1,7.6,90,0,0.5725663857008177,[6700|0|0|0]
6700,1.3094664812088013,-0.3078002631664276,-0.0019173588370904326,0.3811222016811371,0.534418523311615,0.7337608337402344,4.1640625,2,C1,7.6,90,0,0.5728666560435243,[6800|0|0|0]
6800,1.3094598054885864,-0.3073807954788208,-0.002082417719066143,0.3401184678077698,0.49904918670654297,0.7424602508544922,4.1640625,2,C1,7.6,90,0,0.5733174798901713,[6900|0|0|0]
6900,1.309509515762329,-0.3076229989528656,-0.0016760798171162605,0.32932236790657043,0.48050329089164734,0.7250407934188843,4.1640625,2,C1,7.6,90,0,0.5737931311539308,[7000|0|0|0]
7000,1.309321403503418,-0.307838499546051,-0.0017222819151356816,0.3251050114631653,0.47452566027641296,0.722011387348175,4.1640625,2,C1,7.6,90,0,0.5740828920234031,[7100|0|0|0]
7100,1.3096202611923218,-0.30767232179641724,-0.001627331250347197,0.30555078387260437,0.44678497314453125,0.7141854763031006,4.1640625,2,C1,7.6,90,0,0.5744377815716206,[7200|0|0|0]
7200,1.309312105178833,-0.3076203167438507,-0.002122304867953062,0.30701425671577454,0.45010074973106384,0.7506309747695923,4.1640625,2,C1,7.6,90,0,0.575023156268945,[7300|0|0|0]
7300,1.3095563650131226,-0.3076651990413666,-0.0018467536428943276,0.2957482635974884,0.42968183755874634,0.7297558188438416,4.1640625,2,C1,7.6,90,0,0.5753941087792598,[7400|0|0|0]
7400,1.309519648551941,-0.30780455470085144,-0.0016451122937723994,0.29539087414741516,0.42116445302963257,0.7263686656951904,4.1640625,2,C1,7.6,90,0,0.5756419541585346,[7500|0|0|0]
7500,1.3093918561935425,-0.3078436851501465,-0.0015769134042784572,0.29179590940475464,0.4188087582588196,0.72545325756073,4.1640625,2,C1,7.6,90,0,0.5757919980436325,[7600|0|0|0]
7600,1.3098371028900146,-0.3078497648239136,-0.001845850609242916,0.28860828280448914,0.403725266456604,0.7264614105224609,4.1640625,2,C1,7.6,90,0,0.5763121987773561,[7700|0|0|0]
7700,1.3095462322235107,-0.3074890673160553,-0.0017838978674262762,0.26870375871658325,0.4052357077598572,0.7221993207931519,4.1640625,2,C1,7.6,90,0,0.5767796884339541,[7800|0|0|0]
7800,1.3096139430999756,-0.3078778088092804,-0.0018257851479575038,0.3151825964450836,0.4178242087364197,0.7102187871932983,4.1640625,2,C1,7.6,90,0,0.5771764997941957,[7900|0|0|0]
7900,1.309714436531067,-0.30752235651016235,-0.001773861120454967,0.32490187883377075,0.4424024820327759,0.7058747410774231,4.1640625,2,C1,7.6,90,0,0.5775495163773028,[8000|0|0|0]
8000,1.3094121217727661,-0.30731141567230225,-0.0021250294521450996,0.33952176570892334,0.47310635447502136,0.7153109908103943,4.1640625,2,C1,7.6,90,0,0.5780586425378422,[8100|0|0|0]
8100,1.3093369007110596,-0.3077107071876526,-0.002276942366734147,0.3659496307373047,0.48878687620162964,0.7113268375396729,4.1640625,2,C1,7.6,90,0,0.5784924275721323,[8200|0|0|0]
8200,1.3093469142913818,-0.30801668763160706,-0.0017854360630735755,0.3851170539855957,0.49566754698753357,0.7224510312080383,4.1640625,2,C1,7.6,90,0,0.57907148089473,[8300|0|0|0]
8300,1.309220314025879,-0.30757513642311096,-0.00202386686578393,0.5191008448600769,0.6063144207000732,0.7366468906402588,4.1640625,2,C1,7.6,90,0,0.5795890176998278,[8400|0|0|0]
8400,1.3101897239685059,-0.30785611271858215,-0.002069774316623807,0.5108047723770142,0.5914041996002197,0.7533623576164246,4.1640625,2,C1,7.6,90,0,0.580599369524453,[8500|0|0|0]
8500,1.3101228475570679,-0.3077828884124756,-0.0020019258372485638,0.4756157696247101,0.57362961769104,0.7304256558418274,4.1640625,2,C1,7.6,90,0,0.5807195263784612,[8600|0|0|0]
8600,1.3101215362548828,-0.3078293800354004,-0.0021404384169727564,0.4434952437877655,0.5458813309669495,0.7111979722976685,4.1640625,2,C1,7.6,90,0,0.5808656390926837,[8700|0|0|0]
8700,1.3098008632659912,-0.30800190567970276,-0.002121622208505869,0.37429139018058777,0.5026965141296387,0.7216281294822693,4.1640625,2,C1,7.6,90,0,0.5812302626155779,[8800|0|0|0]
8800,1.3097143173217773,-0.30776897072792053,-0.001702184439636767,0.3297215700149536,0.48080745339393616,0.7241811752319336,4.1640625,2,C1,7.6,90,0,0.5817177838296553,[8900|0|0|0]
8900,1.309281587600708,-0.3077932894229889,-0.001714599784463644,0.2938762903213501,0.44971874356269836,0.7004410624504089,4.1640625,2,C1,7.6,90,0,0.5821513741330683,[9000|0|0|0]
9000,1.3095057010650635,-0.30774688720703125,-0.001694072736427188,0.28144946694374084,0.4313378632068634,0.6829125285148621,4.1640625,2,C1,7.6,90,0,0.5823811596205393,[9100|0|0|0]
9100,1.3092886209487915,-0.30766260623931885,-0.0022327490150928497,0.27451950311660767,0.4283444583415985,0.7071035504341125,4.1640625,2,C1,7.6,90,0,0.5829680149618256,[9200|0|0|0]
9200,1.3094724416732788,-0.3076021075248718,-0.0016580021474510431,0.26045936346054077,0.413486123085022,0.703048050403595,4.1640625,2,C1,7.6,90,0,0.5835744670333571,[9300|0|0|0]
9300,1.3093924522399902,-0.30771514773368835,-0.0017868103459477425,0.26210030913352966,0.4139503538608551,0.7159342169761658,4.1640625,2,C1,7.6,90,0,0.5837635911995737,[9400|0|0|0]
9400,1.3095072507858276,-0.30757686495780945,-0.0017737620510160923,0.26039671897888184,0.41876405477523804,0.7124020457267761,4.1640625,2,C1,7.6,90,0,0.5839437885642375,[9500|0|0|0]
9500,1.3094209432601929,-0.30791914463043213,-0.001826384337618947,0.2676800787448883,0.4253389537334442,0.6986227631568909,4.1640625,2,C1,7.6,90,0,0.5843006827618916,[9600|0|0|0]
9600,1.3011865615844727,-0.3172588348388672,-0.005252097733318806,0.5521549582481384,0.6432117223739624,0.684873640537262,4.1640625,2,C1,7.6,90,0,0.5972146429229132,[9700|0|0|0]
9700,1.309391736984253,-0.30768686532974243,-0.001805732725188136,0.2662383019924164,0.43283966183662415,0.7037312388420105,4.1640625,2,C1,7.6,90,0,0.6102846442769315,[9800|0|0|0]
9800,1.3095709085464478,-0.3076891601085663,-0.0018856881652027369,0.2719428539276123,0.441297709941864,0.7100780010223389,4.1640625,2,C1,7.6,90,0,0.6104808599416913,[9900|0|0|0]
9900,1.3012332916259766,-0.31719449162483215,-0.005344930570572615,0.554317057132721,0.660127580165863,0.690308690071106,4.1640625,2,C1,7.6,90,0,0.6235893892705578,[10000|0|0|0]
10000,1.3010987043380737,-0.31752708554267883,-0.005301279481500387,0.6102084517478943,0.6983464360237122,0.687298059463501,4.1640625,2,C1,7.6,90,0,0.6239508278819856,[10100|0|0|0]
10100,1.301719307899475,-0.3173842132091522,-0.005788047797977924,0.6305038928985596,0.719781756401062,0.7070432305335999,4.1640625,2,C1,7.6,90,0,0.6247523917771541,[10200|0|0|0]
10200,1.3020769357681274,-0.3175077438354492,-0.005192403215914965,0.6443533897399902,0.7240155935287476,0.7064965963363647,4.1640625,2,C1,7.6,90,0,0.6254580474837215,[10300|0|0|0]
10300,1.302077293395996,-0.31730517745018005,-0.005147575866430998,0.6477794647216797,0.7299447655677795,0.6932371258735657,4.1640625,2,C1,7.6,90,0,0.625665514974188,[10400|0|0|0]
10400,1.3016338348388672,-0.3173558712005615,-0.0057133701629936695,0.6693229675292969,0.7544103860855103,0.6911311149597168,4.1640625,2,C1,7.6,90,0,0.6263861733774841,[10500|0|0|0]
10500,1.3019700050354004,-0.317548543214798,-0.005339255556464195,0.6766971349716187,0.7500936388969421,0.6979341506958008,4.1640625,2,C1,7.6,90,0,0.6269247777266365,[10600|0|0|0]
10600,1.3016514778137207,-0.3174007833003998,-0.005512532778084278,0.653274655342102,0.7383950352668762,0.6976993083953857,4.1640625,2,C1,7.6,90,0,0.6273163356135272,[10700|0|0|0]
10700,1.301822543144226,-0.3172054588794708,-0.0056663863360881805,0.6230936050415039,0.7126036286354065,0.7016863822937012,4.1640625,2,C1,7.6,90,0,0.6276181400104842,[10800|0|0|0]
10801,1.3019965887069702,-0.3174883723258972,-0.005247127264738083,0.6100558042526245,0.6917639374732971,0.6947005391120911,4.1640625,2,C1,7.6,90,0,0.6281530325651054,[10900|0|0|0]
10900,1.3018075227737427,-0.31751811504364014,-0.0050913263112306595,0.5978441834449768,0.6875409483909607,0.6975317001342773,4.1640625,2,C1,7.6,90,0,0.6283998209227719,[11000|0|0|0]
11001,1.3017204999923706,-0.3172391653060913,-0.005478236824274063,0.583161473274231,0.6822139024734497,0.7219385504722595,4.1640625,2,C1,7.6,90,0,0.6288846772578442,[11100|0|0|0]
11101,1.301811933517456,-0.31728383898735046,-0.005440815351903439,0.5812454223632812,0.6692783236503601,0.7197718620300293,4.1640625,2,C1,7.6,90,0,0.6289931032413592,[11200|0|0|0]
11201,1.3018463850021362,-0.31735071539878845,-0.005379296839237213,0.5915716290473938,0.6634092926979065,0.7042897939682007,4.1640625,2,C1,7.6,90,0,0.6290902829028329,[11300|0|0|0]
11301,1.301826000213623,-0.3172627389431,-0.005584101192653179,0.584499716758728,0.6545910835266113,0.7088198065757751,4.1640625,2,C1,7.6,90,0,0.6293141136860964,[11400|0|0|0]
11401,1.3018240928649902,-0.3174173831939697,-0.005285011604428291,0.5797896385192871,0.6538498401641846,0.7079933285713196,4.1640625,2,C1,7.6,90,0,0.6296508228545049,[11500|0|0|0]
11501,1.3018102645874023,-0.31738364696502686,-0.005187567789107561,0.5856475830078125,0.6617914438247681,0.6931709051132202,4.1640625,2,C1,7.6,90,0,0.6297548644401743,[11600|0|0|0]
11601,1.3019026517868042,-0.3174523711204529,-0.005291459616273642,0.5800225138664246,0.6621103882789612,0.7052465081214905,4.1640625,2,C1,7.6,90,0,0.6299099512413672,[11700|0|0|0]
11702,1.3017714023590088,-0.31730589270591736,-0.005425869952887297,0.5734243988990784,0.6657587289810181,0.6841063499450684,4.1640625,2,C1,7.6,90,0,0.6301481706293482,[11800|0|0|0]
11801,1.3019381761550903,-0.31736496090888977,-0.005332984495908022,0.5804198980331421,0.664363443851471,0.7013875842094421,4.1640625,2,C1,7.6,90,0,0.6303479962027368,[11900|0|0|0]
11901,1.3012254238128662,-0.31724193692207336,-0.005281592719256878,0.46573707461357117,0.6112301349639893,0.6897449493408203,4.1640625,2,C1,7.6,90,0,0.6310731113090375,[12000|0|0|0]
12002,1.3011418581008911,-0.3168773949146271,-0.00565720209851861,0.4849582314491272,0.6258525252342224,0.6992037296295166,4.1640625,2,C1,7.6,90,0,0.6316031646169229,[12100|0|0|0]
12102,1.301399827003479,-0.3172195255756378,-0.005466487258672714,0.5193996429443359,0.6364247798919678,0.6842145323753357,4.1640625,2,C1,7.6,90,0,0.6320721779366095,[12200|0|0|0]
12201,1.3013110160827637,-0.31741538643836975,-0.005327838473021984,0.540192723274231,0.6498507261276245,0.6766780018806458,4.1640625,2,C1,7.6,90,0,0.6323280535762293,[12300|0|0|0]
12301,1.3011683225631714,-0.3173879086971283,-0.005310550797730684,0.5579333305358887,0.6573391556739807,0.7063143849372864,4.1640625,2,C1,7.6,90,0,0.6324743933538509,[12400|0|0|0]
12402,1.3012694120407104,-0.3175036907196045,-0.00522974319756031,0.5605445504188538,0.6518325805664062,0.6983514428138733,4.1640625,2,C1,7.6,90,0,0.6326480436560191,[12500|0|0|0]
12500,1.3012218475341797,-0.31738990545272827,-0.0051398565992712975,0.5978477597236633,0.6746404767036438,0.6915988326072693,4.1640625,2,C1,7.6,90,0,0.6328006512239559,[12600|0|0|0]
12602,1.3011393547058105,-0.3174199163913727,-0.005534028168767691,0.6379778385162354,0.7077938914299011,0.7014817595481873,4.1640625,2,C1,7.6,90,0,0.6332044790949231,[12700|0|0|0]
12702,1.3018639087677002,-0.31741398572921753,-0.005567007232457399,0.6608326435089111,0.7220986485481262,0.6830094456672668,4.1640625,2,C1,7.6,90,0,0.6339298075584457,[12800|0|0|0]
12800,1.3018327951431274,-0.3176286220550537,-0.005318790674209595,0.6784601211547852,0.7353543639183044,0.6587551832199097,4.1640625,2,C1,7.6,90,0,0.634259425928369,[12900|0|0|0]
12902,1.3016839027404785,-0.31744781136512756,-0.005862220656126738,0.6774728298187256,0.7433027625083923,0.6763526797294617,4.1640625,2,C1,7.6,90,0,0.6348511839856903,[13000|0|0|0]
13000,1.3016127347946167,-0.317345529794693,-0.005605869460850954,0.6780799627304077,0.7502315640449524,0.7048413753509521,4.1640625,2,C1,7.6,90,0,0.6351362143901879,[13100|0|0|0]
13100,1.3019118309020996,-0.31755200028419495,-0.0051385266706347466,0.6800881624221802,0.7393409609794617,0.7214701175689697,4.1640625,2,C1,7.6,90,0,0.6357282429605404,[13200|0|0|0]
13200,1.3020623922348022,-0.31786394119262695,-0.005491626914590597,0.6717284321784973,0.7201356291770935,0.7152716517448425,4.1640625,2,C1,7.6,90,0,0.6362228697163274,[13300|0|0|0]
13300,1.3018484115600586,-0.31762436032295227,-0.005678096786141396,0.6615033745765686,0.7273775339126587,0.6998496651649475,4.1640625,2,C1,7.6,90,0,0.6365942963379823,[13400|0|0|0]
13400,1.3016105890274048,-0.3173604905605316,-0.00574509147554636,0.6527623534202576,0.7379809021949768,0.6957926750183105,4.1640625,2,C1,7.6,90,0,0.636955786444301,[13500|0|0|0]
13500,1.3018927574157715,-0.31768798828125,-0.005181893240660429,0.6476691961288452,0.706863522529602,0.7059822678565979,4.1640625,2,C1,7.6,90,0,0.6376657625060438,[13600|0|0|0]
13600,1.301840901374817,-0.3173539340496063,-0.005538381636142731,0.6080659627914429,0.686094343662262,0.7254953384399414,4.1640625,2,C1,7.6,90,0,0.6381570518859169,[13700|0|0|0]
13700,1.3016108274459839,-0.3171655535697937,-0.0057990835048258305,0.5802774429321289,0.677559494972229,0.7361011505126953,4.1640625,2,C1,7.6,90,0,0.6385525094465198,[13800|0|0|0]
13800,1.3018684387207031,-0.3174688220024109,-0.005296579096466303,0.5689736008644104,0.6567949652671814,0.7100986242294312,4.1640625,2,C1,7.6,90,0,0.6391934821382199,[13900|0|0|0]
13900,1.3018850088119507,-0.3174172341823578,-0.005239092744886875,0.5569660663604736,0.6481019854545593,0.693112850189209,4.1640625,2,C1,7.6,90,0,0.6392724793009519,[14000|0|0|0]
14000,1.3019115924835205,-0.31726789474487305,-0.0054534608498215675,0.5488446950912476,0.6545491218566895,0.6946849822998047,4.1640625,2,C1,7.6,90,0,0.639535086695356,[14100|0|0|0]
14100,1.3014273643493652,-0.3169998228549957,-0.004945532418787479,0.4293648302555084,0.5849998593330383,0.6972782611846924,4.1640625,2,C1,7.6,90,0,0.6402863061806615,[14200|0|0|0]
14200,1.3014558553695679,-0.3171544075012207,-0.005136766005307436,0.4504515528678894,0.5970888733863831,0.6639820337295532,4.1640625,2,C1,7.6,90,0,0.6405338509961879,[14300|0|0|0]
14300,1.3013554811477661,-0.31700870394706726,-0.005393293220549822,0.47753676772117615,0.6232647895812988,0.6691790223121643,4.1640625,2,C1,7.6,90,0,0.640845476929408,[14400|0|0|0]
14400,1.3013536930084229,-0.31709548830986023,-0.005144985392689705,0.5008265972137451,0.6404789686203003,0.6445194482803345,4.1640625,2,C1,7.6,90,0,0.6411085197024399,[14500|0|0|0]
14500,1.3017377853393555,-0.3176130950450897,-0.0051366910338401794,0.5233870148658752,0.6439022421836853,0.6430846452713013,4.1640625,2,C1,7.6,90,0,0.6417531222524077,[14600|0|0|0]
14600,1.301392674446106,-0.31747686862945557,-0.005109734833240509,0.5301051735877991,0.6698414087295532,0.6566355228424072,4.1640625,2,C1,7.6,90,0,0.6421251246740487,[14700|0|0|0]
14700,1.3010791540145874,-0.3170747458934784,-0.005666040349751711,0.5273777842521667,0.6825326085090637,0.68000727891922,4.1640625,2,C1,7.6,90,0,0.6428797594091823,[14800|0|0|0]
14800,1.301371693611145,-0.31688573956489563,-0.005613784771412611,0.5280793309211731,0.6802201271057129,0.683994710445404,4.1640625,2,C1,7.6,90,0,0.643231943243658,[14900|0|0|0]
14900,1.3010896444320679,-0.31724023818969727,-0.005481950007379055,0.5479001998901367,0.6968144774436951,0.7056947350502014,4.1640625,2,C1,7.6,90,0,0.6437037497923749,[15000|0|0|0]
15000,1.3020210266113281,-0.31733742356300354,-0.005517208948731422,0.574306845664978,0.7013584971427917,0.7119495272636414,4.1640625,2,C1,7.6,90,0,0.6446408522166454,[15100|0|0|0]
15100,1.3018697500228882,-0.3173377513885498,-0.005328970029950142,0.6129482388496399,0.7312674522399902,0.7184725403785706,4.1640625,2,C1,7.6,90,0,0.644882344668336,[15200|0|0|0]
15200,1.301692247390747,-0.3174333870410919,-0.00550993625074625,0.634060263633728,0.7402843832969666,0.7370720505714417,4.1640625,2,C1,7.6,90,0,0.6451532729531706,[15300|0|0|0]
15300,1.3018816709518433,-0.3174807131290436,-0.0053313118405640125,0.666300892829895,0.7513870596885681,0.713137686252594,4.1640625,2,C1,7.6,90,0,0.6454179004725485,[15400|0|0|0]
15400,1.3016703128814697,-0.3174578547477722,-0.0056238966062664986,0.6733807325363159,0.7604010701179504,0.707075297832489,4.1640625,2,C1,7.6,90,0,0.6457795641071976,[15500|0|0|0]
15500,1.3019520044326782,-0.31737419962882996,-0.005378986708819866,0.6763591170310974,0.7595549821853638,0.7084442377090454,4.1640625,2,C1,7.6,90,0,0.6461620940626454,[15600|0|0|0]
15600,1.301976203918457,-0.3171643018722534,-0.005073601845651865,0.5283231139183044,0.6424339413642883,0.6994959115982056,4.1640625,2,C1,7.6,90,0,0.6465334464532125,[15700|0|0|0]
15700,1.301905632019043,-0.3172193169593811,-0.0054686241783201694,0.5607996582984924,0.6699202656745911,0.6844876408576965,4.1640625,2,C1,7.6,90,0,0.6469384769410839,[15800|0|0|0]
15800,1.3019078969955444,-0.3173598051071167,-0.005376916378736496,0.5799850821495056,0.6791625022888184,0.6897464394569397,4.1640625,2,C1,7.6,90,0,0.6471062636219533,[15900|0|0|0]
15900,1.3019334077835083,-0.3170563578605652,-0.00573659036308527,0.5964697599411011,0.6932949423789978,0.6980792880058289,4.1640625,2,C1,7.6,90,0,0.6475775346764003,[16000|0|0|0]
16000,1.301993727684021,-0.31731218099594116,-0.0052321916446089745,0.6043434143066406,0.6926801800727844,0.683114767074585,4.1640625,2,C1,7.6,90,0,0.6481463070686558,[16100|0|0|0]
16100,1.3017656803131104,-0.3175635039806366,-0.005364172160625458,0.664943277835846,0.7669950127601624,0.7035314440727234,4.1640625,2,C1,7.6,90,0,0.6485104330120098,[16200|0|0|0]
16200,1.3019198179244995,-0.31755343079566956,-0.005355648696422577,0.6291714906692505,0.7397624254226685,0.6968193650245667,4.1640625,2,C1,7.6,90,0,0.648665134407421,[16300|0|0|0]
16300,1.3021471500396729,-0.31759512424468994,-0.005230411887168884,0.6077568531036377,0.7156137228012085,0.7028449177742004,4.1640625,2,C1,7.6,90,0,0.6489280079372266,[16400|0|0|0]
16400,1.3016047477722168,-0.3172895908355713,-0.005607286002486944,0.5812357664108276,0.7092993855476379,0.6886078715324402,4.1640625,2,C1,7.6,90,0,0.6496557338352307,[16500|0|0|0]
16500,1.3019756078720093,-0.31725990772247314,-0.0054733846336603165,0.5520436763763428,0.6755182147026062,0.6982420682907104,4.1640625,2,C1,7.6,90,0,0.6500511423295691,[16600|0|0|0]
16600,1.3021657466888428,-0.31750810146331787,-0.005106482654809952,0.5569638609886169,0.6573252081871033,0.7061728239059448,4.1640625,2,C1,7.6,90,0,0.6505331900084823,[16700|0|0|0]
16700,1.3018450736999512,-0.31731200218200684,-0.0056371260434389114,0.6032595038414001,0.6980672478675842,0.7224588394165039,4.1640625,2,C1,7.6,90,0,0.6511834734081098,[16800|0|0|0]
16800,1.3018370866775513,-0.31737020611763,-0.005294870585203171,0.6290830969810486,0.709000825881958,0.6977383494377136,4.1640625,2,C1,7.6,90,0,0.6515307345336925,[16900|0|0|0]
16900,1.3019967079162598,-0.3176017105579376,-0.005367453210055828,0.6508417725563049,0.7132136225700378,0.6919456124305725,4.1640625,2,C1,7.6,90,0,0.6518211505855207,[17000|0|0|0]
17000,1.3019108772277832,-0.3174039125442505,-0.005286750849336386,0.6511423587799072,0.7099616527557373,0.6785013675689697,4.1640625,2,C1,7.6,90,0,0.6520513761973206,[17100|0|0|0]
17100,1.3019040822982788,-0.3176342844963074,-0.005258461460471153,0.670646607875824,0.7201436758041382,0.6880548596382141,4.1640625,2,C1,7.6,90,0,0.652283578042455,[17200|0|0|0]
17200,1.3019176721572876,-0.3177701234817505,-0.005335752386599779,0.6832011342048645,0.7314631938934326,0.6882767081260681,4.1640625,2,C1,7.6,90,0,0.6524404563440008,[17300|0|0|0]
17300,1.301985740661621,-0.31757721304893494,-0.005488935858011246,0.6716334819793701,0.7196896076202393,0.6929159760475159,4.1640625,2,C1,7.6,90,0,0.6526960202935026,[17400|0|0|0]
17400,1.3017252683639526,-0.31746533513069153,-0.005827087443321943,0.6766154170036316,0.7370577454566956,0.7099356651306152,4.1640625,2,C1,7.6,90,0,0.6531372786997582,[17500|0|0|0]
17500,1.3018138408660889,-0.3174191117286682,-0.005579816643148661,0.6808671355247498,0.7390289902687073,0.7098990082740784,4.1640625,2,C1,7.6,90,0,0.6534039705437423,[17600|0|0|0]
17600,1.3021160364151,-0.31723466515541077,-0.005168816074728966,0.5315672755241394,0.6116214990615845,0.6886712908744812,4.1640625,2,C1,7.6,90,0,0.653946431745553,[17700|0|0|0]
17700,1.3020960092544556,-0.31729817390441895,-0.005342339165508747,0.5542076826095581,0.6268852353096008,0.6527597308158875,4.1640625,2,C1,7.6,90,0,0.6541322938218296,[17800|0|0|0]
17800,1.3018320798873901,-0.31721723079681396,-0.0056320670992136,0.5687314867973328,0.649726152420044,0.6665065288543701,4.1640625,2,C1,7.6,90,0,0.6545324847425626,[17900|0|0|0]
17900,1.3020176887512207,-0.3173791468143463,-0.0050878399051725864,0.5763031840324402,0.6488035321235657,0.6754486560821533,4.1640625,2,C1,7.6,90,0,0.6551298545491312,[18000|0|0|0]
18000,1.3020081520080566,-0.3174455761909485,-0.005147471092641354,0.5895277261734009,0.665028989315033,0.68340665102005,4.1640625,2,C1,7.6,90,0,0.6552196303257353,[18100|0|0|0]
18100,1.3020232915878296,-0.31736207008361816,-0.0050315577536821365,0.5964985489845276,0.6734324097633362,0.6765117049217224,4.1640625,2,C1,7.6,90,0,0.6553632909639973,[18200|0|0|0]
18200,1.3019471168518066,-0.31715601682662964,-0.0052766818553209305,0.5923542976379395,0.6791244149208069,0.6796358823776245,4.1640625,2,C1,7.6,90,0,0.65569245104713,[18300|0|0|0]
18300,1.3019672632217407,-0.31710952520370483,-0.005520234350115061,0.5914799571037292,0.6831258535385132,0.6749825477600098,4.1640625,2,C1,7.6,90,0,0.6559412183378741,[18400|0|0|0]
18400,1.301888346672058,-0.3173719346523285,-0.005317704752087593,0.5970096588134766,0.6835651993751526,0.6813417077064514,4.1640625,2,C1,7.6,90,0,0.6562819598507809,[18500|0|0|0]
18500,1.301841378211975,-0.3172743618488312,-0.0052647157572209835,0.5911406874656677,0.6839775443077087,0.6678615212440491,4.1640625,2,C1,7.6,90,0,0.6564025182258606,[18600|0|0|0]
18600,1.3025940656661987,-0.31705954670906067,-0.005375199485570192,0.5893908143043518,0.6846318244934082,0.6780426502227783,4.1640625,2,C1,7.6,90,0,0.6571930184486627,[18700|0|0|0]
18700,1.3019145727157593,-0.31725752353668213,-0.004991990979760885,0.49503132700920105,0.6250073313713074,0.6887388825416565,4.1640625,2,C1,7.6,90,0,0.6579978502651912,[18800|0|0|0]
18800,1.30208420753479,-0.31717848777770996,-0.005225279834121466,0.5146085023880005,0.628883421421051,0.6686838269233704,4.1640625,2,C1,7.6,90,0,0.6582969260291588,[18900|0|0|0]
18900,1.3018627166748047,-0.3171798288822174,-0.005592056084424257,0.5359392762184143,0.6561093330383301,0.6655552983283997,4.1640625,2,C1,7.6,90,0,0.6587253940179334,[19000|0|0|0]
19000,1.3019243478775024,-0.3172872066497803,-0.005331144202500582,0.5510812997817993,0.6684138178825378,0.6912617087364197,4.1640625,2,C1,7.6,90,0,0.6590141904864744,[19100|0|0|0]
19100,1.3018908500671387,-0.31740865111351013,-0.0053090727888047695,0.5608074069023132,0.6723101139068604,0.6859421133995056,4.1640625,2,C1,7.6,90,0,0.65914208891638,[19200|0|0|0]
19200,1.3019016981124878,-0.3173624575138092,-0.005718858912587166,0.5634503960609436,0.6736508011817932,0.6797952651977539,4.1640625,2,C1,7.6,90,0,0.6595546130926241,[19300|0|0|0]
19300,1.3018008470535278,-0.3173691928386688,-0.005559530574828386,0.5625631213188171,0.669417142868042,0.6827676296234131,4.1640625,2,C1,7.6,90,0,0.6597432975379482,[19400|0|0|0]
19400,1.3020163774490356,-0.31726354360580444,-0.005344911944121122,0.5590327978134155,0.6593299508094788,0.6894717216491699,4.16015625,2,C1,7.6,90,0,0.6600652855321953,[19500|0|0|0]
19500,1.3019158840179443,-0.3171294331550598,-0.005740879103541374,0.5567924380302429,0.6641990542411804,0.6870262622833252,4.1640625,2,C1,7.6,90,0,0.6604952559195836,[19600|0|0|0]
19600,1.3019678592681885,-0.31743133068084717,-0.005202701780945063,0.5543234944343567,0.6539396047592163,0.6663573384284973,4.1640625,2,C1,7.6,90,0,0.6611145122261897,[19700|0|0|0]
19700,1.3020009994506836,-0.31726008653640747,-0.0052215033210814,0.5559096336364746,0.6492513418197632,0.6503375768661499,4.1640625,2,C1,7.6,90,0,0.6612899440551495,[19800|0|0|0]
19800,1.3018662929534912,-0.3174556493759155,-0.005311331711709499,0.5632264018058777,0.6550718545913696,0.6627023220062256,4.1640625,2,C1,7.6,90,0,0.6615438334096824,[19900|0|0|0]
19900,1.3019232749938965,-0.31719323992729187,-0.0056195445358753204,0.5596340298652649,0.658347487449646,0.687131941318512,4.1640625,2,C1,7.6,90,0,0.6619526130772736,[20000|0|0|0]
20000,1.3018782138824463,-0.31746190786361694,-0.005279488395899534,0.5634730458259583,0.6531110405921936,0.6801496148109436,4.1640625,2,C1,7.6,90,0,0.6623883321864592,[20100|0|0|0]
20100,1.3019605875015259,-0.3171764612197876,-0.005608642473816872,0.5523759722709656,0.6469501852989197,0.6797411441802979,4.1640625,2,C1,7.6,90,0,0.6628317367495878,[20200|0|0|0]
20200,1.3016010522842407,-0.31782495975494385,-0.005485971458256245,0.7609326839447021,0.7999719977378845,0.6627599596977234,4.1640625,2,C1,7.6,90,0,0.6635833111641516,[20300|0|0|0]
20300,1.3014909029006958,-0.31733521819114685,-0.005723052658140659,0.7109860777854919,0.7702800631523132,0.6909119486808777,4.1640625,2,C1,7.6,90,0,0.6641384572542435,[20400|0|0|0]
20400,1.3018536567687988,-0.3177204728126526,-0.005313033238053322,0.6972433924674988,0.7455480694770813,0.698180079460144,4.1640625,2,C1,7.6,90,0,0.664807880451529,[20500|0|0|0]
20500,1.3018790483474731,-0.31777966022491455,-0.005400977097451687,0.6830354928970337,0.7358531355857849,0.6780484914779663,4.1640625,2,C1,7.6,90,0,0.6649168850589717,[20600|0|0|0]
20600,1.3018052577972412,-0.31760257482528687,-0.0053670066408813,0.6694520115852356,0.7361246347427368,0.6680024266242981,4.1640625,2,C1,7.6,90,0,0.6651117138966329,[20700|0|0|0]
20700,1.3018171787261963,-0.3172384202480316,-0.005646741949021816,0.6531050801277161,0.7346889972686768,0.6908767223358154,4.1640625,2,C1,7.6,90,0,0.6655710639889412,[20800|0|0|0]
20800,1.301719069480896,-0.31746160984039307,-0.00549126323312521,0.6680283546447754,0.7332616448402405,0.696010172367096,4.1640625,2,C1,7.6,90,0,0.6658602225081806,[20900|0|0|0]
20900,1.3018712997436523,-0.31757333874702454,-0.005698489490896463,0.6661244034767151,0.7319430708885193,0.6973373293876648,4.1640625,2,C1,7.6,90,0,0.6661405796436093,[21000|0|0|0]
21000,1.301883578300476,-0.3173602819442749,-0.005515251774340868,0.6529384255409241,0.7269869446754456,0.6887025833129883,4.1640625,2,C1,7.6,90,0,0.6664218624637815,[21100|0|0|0]
21100,1.3019328117370605,-0.3174870014190674,-0.005291671492159367,0.654932975769043,0.7338297963142395,0.704095184803009,4.1640625,2,C1,7.6,90,0,0.6666835299993108,[21200|0|0|0]
21200,1.301823377609253,-0.31746673583984375,-0.005590552464127541,0.6513124704360962,0.7394864559173584,0.6985809206962585,4.1640625,2,C1,7.6,90,0,0.6670024600189624,[21300|0|0|0]
21300,1.3018338680267334,-0.31742820143699646,-0.00543499831110239,0.6520710587501526,0.7399114966392517,0.6847476363182068,4.1640625,2,C1,7.6,90,0,0.6671630590338569,[21400|0|0|0]
21400,1.3018873929977417,-0.317491352558136,-0.0053094010800123215,0.6467016935348511,0.7385902404785156,0.6924493908882141,4.1640625,2,C1,7.6,90,0,0.6673134839356522,[21500|0|0|0]
21500,1.3026015758514404,-0.31727319955825806,-0.00549131166189909,0.6421210169792175,0.7426438927650452,0.6900969743728638,4.1640625,2,C1,7.6,90,0,0.6680820796288975,[21600|0|0|0]
21600,1.3026494979858398,-0.3173324465751648,-0.005704900249838829,0.6442250609397888,0.7402969598770142,0.6895260810852051,4.1640625,2,C1,7.6,90,0,0.6683088544618836,[21700|0|0|0]
21700,1.3027925491333008,-0.3172227144241333,-0.005079661030322313,0.47337669134140015,0.5922877192497253,0.6710208654403687,4.1640625,2,C1,7.6,90,0,0.6689595685752864,[21800|0|0|0]
21800,1.3024705648422241,-0.3169958293437958,-0.005766773596405983,0.5030258297920227,0.6295067071914673,0.6838149428367615,4.1640625,2,C1,7.6,90,0,0.6697515751420836,[21900|0|0|0]
21900,1.3025885820388794,-0.31695783138275146,-0.005707308650016785,0.5306295156478882,0.6442685127258301,0.708426296710968,4.1640625,2,C1,7.6,90,0,0.6698890814459354,[22000|0|0|0]
22000,1.302778720855713,-0.31721216440200806,-0.005273411516100168,0.5566565990447998,0.6515855193138123,0.7281947135925293,4.1640625,2,C1,7.6,90,0,0.6704267660906594,[22100|0|0|0]
22100,1.3026448488235474,-0.3175288140773773,-0.005150302313268185,0.5833856463432312,0.6746270060539246,0.7054857015609741,4.1640625,2,C1,7.6,90,0,0.6707919299083215,[22200|0|0|0]
22200,1.302645206451416,-0.3174439072608948,-0.005151272751390934,0.5907576084136963,0.6852951645851135,0.7329628467559814,4.1640625,2,C1,7.6,90,0,0.6708768430235219,[22300|0|0|0]
22300,1.3027161359786987,-0.31729811429977417,-0.005469383206218481,0.5958412289619446,0.6825317144393921,0.7101645469665527,4.1640625,2,C1,7.6,90,0,0.67123388762413,[22400|0|0|0]
22400,1.3026936054229736,-0.31742072105407715,-0.005506688728928566,0.6009426712989807,0.6827854514122009,0.6975446939468384,4.16015625,2,C1,7.6,90,0,0.6713640096597991,[22500|0|0|0]
22500,1.3028876781463623,-0.3172697424888611,-0.00543550867587328,0.596517026424408,0.67429119348526,0.6859976649284363,4.1640625,2,C1,7.6,90,0,0.6716199888563584,[22600|0|0|0]
22600,1.3027141094207764,-0.31740546226501465,-0.005465789698064327,0.6048422455787659,0.6821141242980957,0.6817572116851807,4.1640625,2,C1,7.6,90,0,0.6718423914202951,[22700|0|0|0]
22700,1.3026460409164429,-0.31744831800460815,-0.005375365260988474,0.6175859570503235,0.6858465075492859,0.6750627160072327,4.1640625,2,C1,7.6,90,0,0.6719634142054175,[22800|0|0|0]
22800,1.302040457725525,-0.3180006742477417,-0.005361020099371672,0.6741783618927002,0.7488250136375427,0.6974555850028992,4.1640625,2,C1,7.6,90,0,0.6727831911288015,[22900|0|0|0]
22900,1.301915168762207,-0.31769105792045593,-0.005157278385013342,0.6252946257591248,0.7212340235710144,0.6931819915771484,4.1640625,2,C1,7.6,90,0,0.6731744331007585,[23000|0|0|0]
23000,1.301775336265564,-0.31750360131263733,-0.005292907822877169,0.5987324714660645,0.7015989422798157,0.6904430985450745,4.1640625,2,C1,7.6,90,0,0.6734447818594899,[23100|0|0|0]
23100,1.301844835281372,-0.31753918528556824,-0.005386426113545895,0.5768529772758484,0.6833708882331848,0.6906622052192688,4.1640625,2,C1,7.6,90,0,0.6735666096191238,[23200|0|0|0]
23200,1.3019981384277344,-0.3173665404319763,-0.005487359128892422,0.5536209940910339,0.6629208922386169,0.6986368894577026,4.1640625,2,C1,7.6,90,0,0.673818592899806,[23300|0|0|0]
23300,1.30173659324646,-0.3172544538974762,-0.00550751993432641,0.5449936389923096,0.6650897264480591,0.7160236835479736,4.1640625,2,C1,7.6,90,0,0.6741038572178337,[23400|0|0|0]
23400,1.3026522397994995,-0.31746283173561096,-0.005273185670375824,0.5952673554420471,0.6867644190788269,0.7185102105140686,4.16015625,2,C1,7.6,90,0,0.67507171179409,[23500|0|0|0]
23500,1.3026690483093262,-0.3172622323036194,-0.005500168539583683,0.6177371740341187,0.7098822593688965,0.6787477731704712,4.1640625,2,C1,7.6,90,0,0.6753750991389674,[23600|0|0|0]
23600,1.3026129007339478,-0.31740304827690125,-0.00568025978282094,0.6409532427787781,0.7205889821052551,0.6800844669342041,4.1640625,2,C1,7.6,90,0,0.675610502079567,[23700|0|0|0]
23700,1.3027093410491943,-0.3175201714038849,-0.005405636504292488,0.6579185128211975,0.7324928045272827,0.7213445901870728,4.1640625,2,C1,7.6,90,0,0.6759242480060569,[23800|0|0|0]
23800,1.3026633262634277,-0.3171694278717041,-0.0056703342124819756,0.652845561504364,0.724951446056366,0.7217943668365479,4.1640625,2,C1,7.6,90,0,0.6763660661389991,[23900|0|0|0]
23900,1.3027836084365845,-0.31731829047203064,-0.005212482530623674,0.5097174048423767,0.5838199853897095,0.7016876935958862,4.16015625,2,C1,7.6,90,0,0.6768623080533269,[24000|0|0|0]
24000,1.302497386932373,-0.3171537220478058,-0.005548396147787571,0.5548083186149597,0.6205242276191711,0.6871408224105835,4.1640625,2,C1,7.6,90,0,0.6773333106795627,[24100|0|0|0]
24100,1.3027921915054321,-0.3173663020133972,-0.005348296370357275,0.5847072005271912,0.6416715383529663,0.6791259050369263,4.1640625,2,C1,7.6,90,0,0.6777482081355625,[24200|0|0|0]
24200,1.3026949167251587,-0.31730493903160095,-0.005376895889639854,0.5974379777908325,0.6597062945365906,0.6716927289962769,4.1640625,2,C1,7.6,90,0,0.677866722822059,[24300|0|0|0]
24300,1.3026478290557861,-0.31704115867614746,-0.005695717874914408,0.6026707887649536,0.6671633720397949,0.683617353439331,4.1640625,2,C1,7.6,90,0,0.6782831898469535,[24400|0|0|0]
24400,1.3027132749557495,-0.31742021441459656,-0.005196959245949984,0.6173973083496094,0.661421000957489,0.6964374780654907,4.16015625,2,C1,7.6,90,0,0.6789130522038535,[24500|0|0|0]
24500,1.3019092082977295,-0.31754595041275024,-0.005393790081143379,0.6622896790504456,0.7214550375938416,0.6732270121574402,4.1640625,2,C1,7.6,90,0,0.6797503544846661,[24600|0|0|0]
24600,1.302603840827942,-0.31744441390037537,-0.005283968057483435,0.6347862482070923,0.6940712928771973,0.6858999133110046,4.1640625,2,C1,7.6,90,0,0.6804609070107015,[24700|0|0|0]
24700,1.3024827241897583,-0.31730034947395325,-0.005561265628784895,0.6473256349563599,0.7034587264060974,0.6920055150985718,4.1640625,2,C1,7.6,90,0,0.6807960454030932,[24800|0|0|0]
24800,1.3026819229125977,-0.3172047734260559,-0.005493044387549162,0.6556878685951233,0.7104108333587646,0.6696627140045166,4.1640625,2,C1,7.6,90,0,0.6810272791589946,[24900|0|0|0]
24900,1.302814245223999,-0.3173429071903229,-0.00523516908288002,0.6649847030639648,0.7178933620452881,0.6893872618675232,4.16015625,2,C1,7.6,90,0,0.6813483551681939,[25000|0|0|0]
25000,1.302746295928955,-0.31744274497032166,-0.005381807219237089,0.678006112575531,0.7277164459228516,0.7013077139854431,4.1640625,2,C1,7.6,90,0,0.6815383220917526,[25100|0|0|0]
25100,1.3025789260864258,-0.31710734963417053,-0.005712163168936968,0.6742947697639465,0.7450082898139954,0.6932232975959778,4.1640625,2,C1,7.6,90,0,0.6820379597096341,[25200|0|0|0]
25200,1.3027942180633545,-0.31743645668029785,-0.005278429947793484,0.6818474531173706,0.737023651599884,0.6815289855003357,4.1640625,2,C1,7.6,90,0,0.682623439504558,[25300|0|0|0]
25300,1.302797555923462,-0.31740716099739075,-0.005355380941182375,0.6825937032699585,0.7469027042388916,0.6638524532318115,4.1640625,2,C1,7.6,90,0,0.6827058460196561,[25400|0|0|0]
25400,1.3026123046875,-0.31728416681289673,-0.005690540187060833,0.682131826877594,0.7575026154518127,0.6948657631874084,4.16015625,2,C1,7.6,90,0,0.6831080615215237,[25500|0|0|0]
25500,1.3028570413589478,-0.3171446919441223,-0.005422208458185196,0.6781893372535706,0.757957935333252,0.7072165012359619,4.16015625,2,A/E1,7.6,90,0,0.6834971003294752,[25500|0|0|0]
25600,1.3088035583496094,-0.30747857689857483,-0.0016883048228919506,0.3525010943412781,0.5582482814788818,0.955217719078064,3.220703125,2,A/E1,7.6,90,0,0.6954443544387525,[25500|0|0|0]
25700,1.304951786994934,-0.3178437352180481,0.005625997204333544,3.579719066619873,-1.0123275518417358,2.026832103729248,3.6640625,2,A/E1,7.6,90,0,0.7087022450591309,[25500|0|0|0]
25800,1.3132809400558472,-0.3226696848869324,0.0506112240254879,2.042971611022949,-1.5206785202026367,3.0538718700408936,3.7109375,2,A/E1,7.6,90,0,0.7547058885351582,[25500|0|0|0]
25900,1.330287218093872,-0.3169252276420593,0.11418213695287704,-0.9046517610549927,0.05823543667793274,3.3091742992401123,3.736328125,2,A/E1,7.6,90,0,0.8207624798199533,[25500|0|0|0]
26000,1.346620798110962,-0.318795770406723,0.18752160668373108,-1.9995195865631104,1.8985570669174194,2.4157116413116455,3.748046875,2,A/E1,7.6,90,0,0.8959220606251439,[25500|0|0|0]
26100,1.3620102405548096,-0.31451836228370667,0.26470106840133667,-0.9688284397125244,2.9546115398406982,1.683826208114624,3.7421875,2,A/E1,7.6,90,0,0.9747370368035498,[25500|0|0|0]
26200,1.37308931350708,-0.30613967776298523,0.3445739448070526,0.7524600028991699,4.243385314941406,0.950422465801239,3.736328125,2,A/E1,7.6,90,0,1.0558087618197494,[25500|0|0|0]
26300,1.3767740726470947,-0.2974894940853119,0.42612263560295105,1.8824156522750854,4.290098190307617,0.21044081449508667,3.732421875,2,A/E1,7.6,90,0,1.1378976898070392,[25500|0|0|0]
26400,1.3719632625579834,-0.2905898690223694,0.5093737244606018,2.4088306427001953,3.4704556465148926,-0.3915714621543884,3.720703125,2,A/E1,7.6,90,0,1.2215726114724172,[25500|0|0|0]
26500,1.3620524406433105,-0.28766870498657227,0.595750629901886,3.1582789421081543,1.7615171670913696,-0.7544856667518616,3.7265625,2,A/E1,7.6,90,0,1.3085652972796789,[25500|0|0|0]
26600,1.3475896120071411,-0.2870899438858032,0.6836119294166565,2.888298273086548,0.33202141523361206,-1.11882483959198,3.7265625,2,A/E1,7.6,90,0,1.3976108829591227,[25500|0|0|0]
26700,1.3319281339645386,-0.2904195189476013,0.7730911374092102,2.4536006450653076,-0.838224470615387,-1.5317542552947998,3.720703125,2,A/E1,7.6,90,0,1.4885113594570254,[25500|0|0|0]
26800,1.3160085678100586,-0.29689934849739075,0.8631041646003723,1.9084450006484985,-1.4909546375274658,-1.8961212635040283,3.720703125,2,A/E1,7.6,90,0,1.5801506842126023,[25500|0|0|0]
26901,1.3018838167190552,-0.30674535036087036,0.955686628818512,0.8814501166343689,-2.2651472091674805,-2.390348434448242,3.720703125,2,A/E1,7.6,90,0,1.674320557456552,[25500|0|0|0]
27000,1.2901649475097656,-0.31700435280799866,1.0487096309661865,0.4187690019607544,-1.893807291984558,-0.49819573760032654,3.716796875,2,A/E1,7.6,90,0,1.7686384134294317,[25500|0|0|0]
27100,1.280907392501831,-0.3261357843875885,1.1440186500549316,-0.2982872724533081,-1.9228085279464722,4.737448215484619,3.720703125,2,A/E1,7.6,90,0,1.8648303802825763,[25500|0|0|0]
27201,1.2729068994522095,-0.33413267135620117,1.240813970565796,-0.45037513971328735,-1.3825342655181885,7.381461143493652,3.7265625,2,A/E1,7.6,90,0,1.9622844318300967,[25500|0|0|0]
27301,1.2669146060943604,-0.3417590260505676,1.3387612104415894,-0.3781239688396454,-1.17368745803833,8.209904670715332,3.7265625,2,A/E1,7.6,90,0,2.060710702027118,[25500|0|0|0]
27401,1.2610994577407837,-0.35027387738227844,1.4348649978637695,-0.9341181516647339,-0.3544430732727051,5.063349723815918,3.763671875,2,A/E1,7.6,90,0,2.1573660515969313,[25500|0|0|0]
27501,1.259755253791809,-0.3525056838989258,1.5275113582611084,-0.14153379201889038,0.03964710980653763,3.093705654144287,3.7890625,2,A/E1,7.6,90,0,2.2500490378428317,[25500|0|0|0]
27601,1.2548893690109253,-0.3650799095630646,1.6127469539642334,0.5002670884132385,0.18036909401416779,-0.6674848794937134,3.80078125,2,A/E1,7.6,90,0,2.3363444303074363,[25500|0|0|0]
27701,1.2467025518417358,-0.3658362030982971,1.6737855672836304,-0.697684109210968,0.8357483148574829,-4.718990802764893,3.7890625,2,A/E1,7.6,90,0,2.3979342693332693,[25500|0|0|0]
27802,1.2363498210906982,-0.36976638436317444,1.7182894945144653,0.214131161570549,0.09981702268123627,0.5070558190345764,3.7734375,2,A/E1,7.6,90,0,2.4437951993036235,[25500|0|0|0]
27900,1.2191733121871948,-0.37748146057128906,1.7453174591064453,-0.6235570907592773,-0.912356436252594,3.36387038230896,3.763671875,2,A/E1,7.6,90,0,2.4767355352004303,[25500|0|0|0]
28001,1.2089024782180786,-0.37328872084617615,1.7695459127426147,-1.0656771659851074,-1.9416422843933105,5.0056939125061035,3.748046875,2,A/E1,7.6,90,0,2.503382994036569,[25500|0|0|0]
28102,1.1941065788269043,-0.37887099385261536,1.7731032371520996,-0.9125214219093323,-2.254187822341919,5.5540771484375,3.748046875,2,A/E1,7.6,90,0,2.519592095420251,[25500|0|0|0]
28202,1.1894361972808838,-0.3842386305332184,1.778149127960205,-1.3822702169418335,-2.980572462081909,3.8584372997283936,3.732421875,2,A/E1,7.6,90,0,2.528314767107738,[25500|0|0|0]
28300,1.180879831314087,-0.39088961482048035,1.7667582035064697,-1.9043155908584595,-2.5408835411071777,-2.9970524311065674,3.720703125,2,A/E1,7.6,90,0,2.54403736709813,[25500|0|0|0]
28400,1.180568814277649,-0.3931037485599518,1.7583154439926147,-2.374926805496216,-2.359912872314453,-8.142420768737793,3.736328125,2,A/E1,7.6,90,0,2.5527711697076474,[25500|0|0|0]
28500,1.1880804300308228,-0.39203736186027527,1.7523319721221924,-2.211414098739624,-1.3115109205245972,-10.062687873840332,3.720703125,2,A/E1,7.6,90,3.489324905796394,2.562433648035732,[25500|0|0|0]
28600,1.1985782384872437,-0.39272570610046387,1.7402244806289673,-7.172964572906494,0.1705545336008072,-11.885720252990723,3.98046875,2,A/E1,7.6,90,3.489324905796394,2.5784732599524594,[25500|0|0|0]
28702,1.2103204727172852,-0.38280534744262695,1.6983689069747925,-17.192087173461914,-1.0787897109985352,-5.768556118011475,3.86328125,2,A/E1,7.6,90,3.489324905796394,2.623062301504542,[25500|0|0|0]
28802,1.2241474390029907,-0.3573688566684723,1.6149346828460693,-17.520605087280273,0.363018274307251,-2.4200851917266846,3.736328125,2,A/E1,7.6,90,3.489324905796394,2.711376908538326,[25500|0|0|0]
28900,1.2397164106369019,-0.31164249777793884,1.5052417516708374,-18.239734649658203,-0.9582750797271729,0.5496280193328857,3.6640625,2,A/E1,7.6,90,3.489324905796394,2.831234457007071,[25500|0|0|0]
29000,1.2569650411605835,-0.2387581318616867,1.3908555507659912,-13.363471031188965,0.4360915422439575,3.3751447200775146,3.62109375,2,A/E1,7.6,90,3.489324905796394,2.9679599082127646,[25500|0|0|0]
29100,1.2736834287643433,-0.14641548693180084,1.2875949144363403,-6.818793296813965,1.5379809141159058,1.27214777469635,3.626953125,2,A/E1,7.6,90,3.489324905796394,3.1074927988583787,[25500|0|0|0]
29200,1.2874171733856201,-0.0429450161755085,1.2061904668807983,-3.4222540855407715,1.1692508459091187,0.351894736289978,3.63671875,2,A/E1,7.6,90,3.489324905796394,3.2398613681702595,[25500|0|0|0]
29300,1.3016178607940674,0.06349387764930725,1.1493406295776367,0.38912007212638855,-0.6718583703041077,-2.3807272911071777,3.66796875,2,A/E1,7.6,90,3.489324905796394,3.3613636382845202,[25500|0|0|0]
29400,1.3192996978759766,0.16814914345741272,1.1133953332901,4.971428394317627,-1.6173840761184692,-5.734008312225342,3.673828125,2,A/E1,7.6,90,3.489324905796394,3.4734236059320045,[25500|0|0|0]
29500,1.341665267944336,0.2618826925754547,1.0903373956680298,6.37300443649292,0.5495497584342957,-5.157911777496338,3.6796875,2,A/E1,7.6,90,3.489324905796394,3.5725087483204088,[25500|0|0|0]
29600,1.3625590801239014,0.34356552362442017,1.0793428421020508,10.821816444396973,3.3689703941345215,-4.023853302001953,3.6953125,2,A/E1,7.6,90,3.489324905796394,3.657535311720819,[25500|0|0|0]
29700,1.378332495689392,0.4056060016155243,1.0749772787094116,10.441662788391113,5.205445289611816,-2.9346389770507812,3.701171875,2,A/E1,7.6,90,3.489324905796394,3.7216982269577494,[25500|0|0|0]
29800,1.3864964246749878,0.4537077248096466,1.0733891725540161,9.883903503417969,3.7067489624023438,-1.1002016067504883,3.701171875,2,A/E1,7.6,90,3.489324905796394,3.7705136711520475,[25500|0|0|0]
29900,1.386979341506958,0.47889843583106995,1.0741944313049316,10.13670539855957,4.3068742752075195,-0.8536669611930847,3.705078125,2,A/E1,7.6,90,3.489324905796394,3.7957218756118536,[25500|0|0|0]
30000,1.3817987442016602,0.48856306076049805,1.0793787240982056,5.972222805023193,2.6049394607543945,-1.0588560104370117,3.720703125,2,A/E1,7.6,90,3.489324905796394,3.807851197737701,[25500|0|0|0]
30100,1.3732266426086426,0.4899994134902954,1.086341142654419,3.191347122192383,0.6725483536720276,-1.3557056188583374,3.732421875,2,A/E1,7.6,90,3.489324905796394,3.818987593341186,[25500|0|0|0]
30200,1.363118052482605,0.48823991417884827,1.0922917127609253,0.9708279967308044,0.2557186186313629,-2.528780937194824,3.732421875,2,A/E1,7.6,90,3.489324905796394,3.8308488207968776,[25500|0|0|0]
30300,1.3541253805160522,0.48740658164024353,1.096045970916748,-0.32712477445602417,-0.7848394513130188,-3.1972405910491943,3.7265625,2,A/E1,7.6,90,3.489324905796394,3.840629262837935,[25500|0|0|0]
30400,1.3445112705230713,0.48815175890922546,1.0967209339141846,-0.6557000875473022,-1.2296603918075562,-3.730701208114624,3.716796875,2,A/E1,7.6,90,3.489324905796394,3.8502958017825235,[25500|0|0|0]
30500,1.3377230167388916,0.4913266897201538,1.0949255228042603,-0.6672154664993286,-1.4061341285705566,-4.170370101928711,3.716796875,2,A/E1,7.6,90,3.489324905796394,3.8580019082018673,[25500|0|0|0]
30600,1.3326307535171509,0.49697133898735046,1.0905300378799438,-0.5912455916404724,-2.195075750350952,-4.541290283203125,3.716796875,2,A/E1,7.6,90,3.489324905796394,3.866783337344612,[25500|0|0|0]
30700,1.3308018445968628,0.5052027702331543,1.0846984386444092,-0.11299776285886765,-2.284362554550171,-5.069571495056152,3.705078125,2,A/E1,7.6,90,3.489324905796394,3.8770356013793017,[25500|0|0|0]
30800,1.3323935270309448,0.5154542922973633,1.0771926641464233,0.9866712689399719,-0.9534425735473633,-4.990523338317871,3.705078125,2,A/E1,7.6,90,3.489324905796394,3.889840436732345,[25500|0|0|0]
30900,1.3350750207901,0.525234043598175,1.070167064666748,2.170719623565674,-0.2113782912492752,-4.502251625061035,3.701171875,2,A/E1,7.6,90,3.489324905796394,3.90217708912815,[25500|0|0|0]
31000,1.3386026620864868,0.5326898694038391,1.0622780323028564,2.759491205215454,0.1441860944032669,-4.013914108276367,3.6953125,2,A/E1,7.6,90,3.489324905796394,3.913590696060181,[25500|0|0|0]
31100,1.342584252357483,0.5365013480186462,1.0568090677261353,3.6060783863067627,0.6437337398529053,-2.126126527786255,3.701171875,2,A/E1,7.6,90,3.489324905796394,3.921355359855778,[25500|0|0|0]
31200,1.3446474075317383,0.5349025130271912,1.051967978477478,4.033783912658691,1.999170184135437,0.909031331539154,3.6953125,2,A/E1,7.6,90,3.489324905796394,3.926855271465652,[25500|0|0|0]
31300,1.3447633981704712,0.5268629193305969,1.0490299463272095,3.2381584644317627,0.791913628578186,4.1586127281188965,3.705078125,2,A/E1,7.6,90,3.489324905796394,3.9354156776213554,[25500|0|0|0]
31400,1.3433560132980347,0.5154280066490173,1.04625403881073,2.3599531650543213,0.7274180054664612,5.723526477813721,3.6953125,2,A/E1,7.6,90,3.489324905796394,3.9472665688433084,[25500|0|0|0]
31500,1.3405613899230957,0.4984878599643707,1.0434448719024658,0.8683380484580994,0.5528561472892761,6.498145580291748,3.701171875,2,A/E1,7.6,90,0,3.9646639798065406,[25500|0|0|0]
31600,1.3361831903457642,0.4806968569755554,1.0402462482452393,-0.6455889940261841,0.7322643399238586,6.050769329071045,3.958984375,2,A/E1,7.6,90,0,3.9832628940809696,[25500|0|0|0]
31700,1.3302570581436157,0.46388742327690125,1.01157808303833,-1.9376282691955566,-0.9233910441398621,5.270212650299072,3.87890625,2,A/E1,7.6,90,0,4.017019964458558,[25500|0|0|0]
31800,1.3241783380508423,0.4496840238571167,0.9434811472892761,-3.627140522003174,-0.9009568691253662,3.670757293701172,3.7734375,2,A/E1,7.6,90,0,4.086847466572374,[25500|0|0|0]
31900,1.3183205127716064,0.4394994080066681,0.842206597328186,-4.555266380310059,-2.1757395267486572,0.741231381893158,3.658203125,2,A/E1,7.6,90,0,4.188801255059338,[25500|0|0|0]
32000,1.3146036863327026,0.4343213737010956,0.7229210734367371,-4.732628345489502,-1.4436954259872437,-1.847497582435608,3.6640625,2,A/E1,7.6,90,0,4.30825694997634,[25500|0|0|0]
32100,1.3161784410476685,0.4365425407886505,0.5988253355026245,-3.6024692058563232,-3.423021078109741,-2.800856828689575,3.59375,2,A/E1,7.6,90,0,4.432382554140248,[25500|0|0|0]
32200,1.3245322704315186,0.4436178505420685,0.47600874304771423,-0.3387449085712433,-2.6147620677948,-1.651562213897705,3.53125,2,A/E1,7.6,90,0,4.555686089595306,[25500|0|0|0]
32300,1.3394073247909546,0.4512265920639038,0.3662184476852417,-1.2138419151306152,0.294841468334198,-1.0407004356384277,3.599609375,2,A/E1,7.6,90,0,4.666740441808631,[25500|0|0|0]
32400,1.362488865852356,0.4552539587020874,0.2726942002773285,2.038710117340088,1.0704606771469116,-0.175144761800766,3.611328125,2,A/E1,7.6,90,0,4.7631549742870085,[25500|0|0|0]
32500,1.3813601732254028,0.45938482880592346,0.20064270496368408,2.2499616146087646,2.2775402069091797,0.2647457718849182,3.611328125,2,A/E1,7.6,90,0,4.83775127651919,[25500|0|0|0]
32600,1.3979554176330566,0.45650961995124817,0.15036123991012573,2.1121737957000732,4.684631824493408,0.7027176022529602,3.626953125,2,A/E1,7.6,90,0,4.890778577891596,[25500|0|0|0]
