time.ms,stateEstimate.x,stateEstimate.y,stateEstimate.z,stabilizer.roll,stabilizer.pitch,stabilizer.yaw,pm.vbat,drone_id,node_name,wind_speed,global_wind_direction,relative_wind_direction,travel_dist,waiting_time
0,0.597941517829895,0.45240315794944763,0.04383223131299019,-0.557776689529419,0.43760940432548523,1.055079698562622,4.09765625,0,F2,7.6,180,0,0.14590863207824747,[100|0|0|0]
99,0.5982264280319214,0.45221734046936035,0.04436865821480751,-0.5547516345977783,0.4318152666091919,1.0449345111846924,4.09765625,0,F2,7.6,180,0,0.14654381376888254,[200|0|0|0]
199,0.5978306531906128,0.45247483253479004,0.045298270881175995,-0.5585671067237854,0.4609801769256592,1.0617828369140625,4.09765625,0,F2,7.6,180,0,0.14758646404497938,[300|0|0|0]
299,0.6552295684814453,0.39496418833732605,-0.02898981235921383,0.45703497529029846,0.46433353424072266,0.8555596470832825,4.09765625,0,F2,7.6,180,0,0.25768110053605714,[400|0|0|0]
400,0.6548986434936523,0.3951539695262909,-0.027752310037612915,0.18379035592079163,1.8522409200668335,1.3319904804229736,4.09765625,0,F2,7.6,180,0,0.2589760678110098,[500|0|0|0]
500,0.653599739074707,0.3968515992164612,-0.029066618531942368,-0.49208515882492065,2.422081232070923,1.5082582235336304,4.09765625,0,F2,7.6,180,0,0.2614853517871213,[600|0|0|0]
600,0.6529719233512878,0.3971768915653229,-0.029360255226492882,-0.7313275933265686,2.3110642433166504,1.5185179710388184,4.09765625,0,F2,7.6,180,0,0.262250982378978,[700|0|0|0]
700,0.6529462933540344,0.39722585678100586,-0.02984967641532421,-0.7812413573265076,2.0097029209136963,1.4707762002944946,4.09765625,0,F2,7.6,180,0,0.26274351419437997,[800|0|0|0]
800,0.6527267694473267,0.39717960357666016,-0.02943483367562294,-0.7660234570503235,1.778213381767273,1.3921232223510742,4.09765625,0,F2,7.6,180,0,0.263215133323775,[900|0|0|0]
900,0.6526262164115906,0.3973270058631897,-0.02967401035130024,-0.7155620455741882,1.5795470476150513,1.339708924293518,4.09765625,0,F2,7.6,180,0,0.26351353545054007,[1000|0|0|0]
1000,0.6527400612831116,0.39730098843574524,-0.029344500973820686,-0.6930019855499268,1.3946573734283447,1.2738118171691895,4.09765625,0,F2,7.6,180,0,0.26386312662770195,[1100|0|0|0]
1100,0.6526148915290833,0.39734944701194763,-0.029776249080896378,-0.6590481400489807,1.2654650211334229,1.2404924631118774,4.09765625,0,F2,7.6,180,0,0.26431525728237437,[1200|0|0|0]
1200,0.652785062789917,0.3975658416748047,-0.029632823541760445,-0.6302852034568787,1.149942398071289,1.2032508850097656,4.09765625,0,F2,7.6,180,0,0.26462566957820555,[1300|0|0|0]
1301,0.6526285409927368,0.3977462351322174,-0.029793336987495422,-0.5933601260185242,1.066062331199646,1.1773087978363037,4.09765625,0,F2,7.6,180,0,0.26491342891989844,[1400|0|0|0]
1401,0.6526755690574646,0.39764857292175293,-0.029634196311235428,-0.5535280108451843,0.9822815656661987,1.1694550514221191,4.1015625,0,F2,7.6,180,0,0.2651059783968267,[1500|0|0|0]
1501,0.653041422367096,0.3971001207828522,-0.028937838971614838,-0.5052295923233032,0.9154525399208069,1.1626607179641724,4.09765625,0,F2,7.6,180,0,0.2660649163183193,[1600|0|0|0]
1601,0.653162956237793,0.3968256711959839,-0.028524987399578094,-0.47225770354270935,0.8629010319709778,1.151247262954712,4.09765625,0,F2,7.6,180,0,0.2665753469972484,[1700|0|0|0]
1700,0.6531778573989868,0.39673665165901184,-0.02873651310801506,-0.4336378574371338,0.826311469078064,1.1675654649734497,4.09765625,0,F2,7.6,180,0,0.2668053244915764,[1800|0|0|0]
1799,0.6533536911010742,0.3970840573310852,-0.02945522405207157,-0.4286889433860779,0.77767413854599,1.1854581832885742,4.09765625,0,F2,7.6,180,0,0.26762273113021173,[1900|0|0|0]
1899,0.6528217792510986,0.39769381284713745,-0.029798544943332672,-0.42526906728744507,0.7580438852310181,1.156833291053772,4.09765625,0,F2,7.6,180,0,0.26850170851324096,[2000|0|0|0]
1999,0.6530250906944275,0.39716488122940063,-0.029826398938894272,-0.38984015583992004,0.730571985244751,1.1653145551681519,4.09765625,0,F2,7.6,180,0,0.2690690532446864,[2100|0|0|0]
2099,0.6530554890632629,0.3970349431037903,-0.029208729043602943,-0.3747178912162781,0.7111681699752808,1.1676884889602661,4.09765625,0,F2,7.6,180,0,0.26970097418662786,[2200|0|0|0]
2199,0.6535216569900513,0.3968204855918884,-0.02893330529332161,-0.35492458939552307,0.6885002851486206,1.1515511274337769,4.09765625,0,F2,7.6,180,0,0.27028335104279255,[2300|0|0|0]
2299,0.6538887023925781,0.39655157923698425,-0.02844635583460331,-0.3463342785835266,0.6710629463195801,1.1626791954040527,4.09765625,0,F2,7.6,180,0,0.2709497988881413,[2400|0|0|0]
2399,0.6533739566802979,0.3968283236026764,-0.02911626547574997,-0.34987905621528625,0.675489068031311,1.1783994436264038,4.09765625,0,F2,7.6,180,0,0.27183880367977886,[2500|0|0|0]
2499,0.6531563401222229,0.39687594771385193,-0.029154593124985695,-0.34392136335372925,0.6750437021255493,1.1795655488967896,4.09765625,0,F2,7.6,180,0,0.27206484356787297,[2600|0|0|0]
2599,0.6531603932380676,0.39708319306373596,-0.029432719573378563,-0.33448123931884766,0.6721019744873047,1.186157464981079,4.09765625,0,F2,7.6,180,0,0.27241171729719277,[2700|0|0|0]
2699,0.6531126499176025,0.3969956040382385,-0.029123805463314056,-0.328223317861557,0.6607367992401123,1.1698803901672363,4.09765625,0,F2,7.6,180,0,0.27273633890681476,[2800|0|0|0]
2799,0.6536494493484497,0.396795392036438,-0.028771573677659035,-0.3187774121761322,0.6437734365463257,1.1696360111236572,4.09765625,0,F2,7.6,180,0,0.2734088756756598,[2900|0|0|0]
2899,0.6535945534706116,0.39664891362190247,-0.028669459745287895,-0.30904170870780945,0.6484528183937073,1.1811455488204956,4.09765625,0,F2,7.6,180,0,0.2735956823632081,[3000|0|0|0]
2999,0.6536505818367004,0.396468847990036,-0.028452008962631226,-0.310592919588089,0.6490519642829895,1.2067649364471436,4.09765625,0,F2,7.6,180,0,0.27388351504457703,[3100|0|0|0]
3099,0.6536803245544434,0.3963156044483185,-0.02893207035958767,-0.3154125511646271,0.6401941180229187,1.2002531290054321,4.09765625,0,F2,7.6,180,0,0.27438831912259604,[3200|0|0|0]
3199,0.6534874439239502,0.39643073081970215,-0.029459552839398384,-0.32166755199432373,0.6377668976783752,1.1998920440673828,4.09765625,0,F2,7.6,180,0,0.2749616382183138,[3300|0|0|0]
3299,0.6532846093177795,0.3968184292316437,-0.02924319915473461,-0.3346613943576813,0.639734148979187,1.187913179397583,4.09765625,0,F2,7.6,180,0,0.2754497579300137,[3400|0|0|0]
3399,0.6531280875205994,0.39677026867866516,-0.029052022844552994,-0.33859288692474365,0.6315521597862244,1.1799235343933105,4.09765625,0,F2,7.6,180,0,0.27570148574617703,[3500|0|0|0]
3499,0.6535722613334656,0.39666685461997986,-0.02884688600897789,-0.3411071002483368,0.6182888746261597,1.179662823677063,4.09765625,0,F2,7.6,180,0,0.2762015517067059,[3600|0|0|0]
3599,0.6536550521850586,0.3966330587863922,-0.02883605845272541,-0.325224369764328,0.6195533275604248,1.185510516166687,4.09765625,0,F2,7.6,180,0,0.27629162789362444,[3700|0|0|0]
3699,0.6537654995918274,0.3964083194732666,-0.02902834117412567,-0.32075467705726624,0.6180403232574463,1.1845660209655762,4.09765625,0,F2,7.6,180,0,0.2766073477591306,[3800|0|0|0]
3799,0.6537127494812012,0.39665085077285767,-0.028944769874215126,-0.33044910430908203,0.6146541237831116,1.178737759590149,4.09765625,0,F2,7.6,180,0,0.2768692411871145,[3900|0|0|0]
3899,0.6532937288284302,0.3968943953514099,-0.02891453169286251,-0.33376094698905945,0.6275635361671448,1.1789542436599731,4.09765625,0,F2,7.6,180,0,0.2773548404218774,[4000|0|0|0]
3999,0.6532441973686218,0.39727410674095154,-0.029697326943278313,-0.34060046076774597,0.6297826170921326,1.1798635721206665,4.09765625,0,F2,7.6,180,0,0.2782262774585771,[4100|0|0|0]
4099,0.653130054473877,0.39693719148635864,-0.029058845713734627,-0.3339453339576721,0.6275322437286377,1.1646578311920166,4.09765625,0,F2,7.6,180,0,0.27895716648550095,[4200|0|0|0]
4199,0.653537929058075,0.39640915393829346,-0.02911473624408245,-0.3241429030895233,0.6191874742507935,1.1908529996871948,4.09765625,0,F2,7.6,180,0,0.2796267253551935,[4300|0|0|0]
4299,0.6536231637001038,0.3964398503303528,-0.02889872156083584,-0.3306215703487396,0.6265313029289246,1.191326379776001,4.09765625,0,F2,7.6,180,0,0.27986096787068837,[4400|0|0|0]
4399,0.653586745262146,0.3964083790779114,-0.028976984322071075,-0.33438295125961304,0.629706084728241,1.2161571979522705,4.09765625,0,F2,7.6,180,0,0.27995284715099505,[4500|0|0|0]
4499,0.6533459424972534,0.39697039127349854,-0.028870781883597374,-0.35665297508239746,0.6342818737030029,1.2258388996124268,4.09765625,0,F2,7.6,180,0,0.2805734296495449,[4600|0|0|0]
4599,0.6532770395278931,0.3971969783306122,-0.029326654970645905,-0.36059796810150146,0.6243542432785034,1.2189387083053589,4.09765625,0,F2,7.6,180,0,0.28108715096030906,[4700|0|0|0]
4699,0.6534310579299927,0.3969558775424957,-0.02914271503686905,-0.35306471586227417,0.621552586555481,1.2091346979141235,4.09765625,0,F2,7.6,180,0,0.2814272761688037,[4800|0|0|0]
4799,0.6535891890525818,0.39683249592781067,-0.028702009469270706,-0.35385507345199585,0.6095085740089417,1.2074601650238037,4.09765625,0,F2,7.6,180,0,0.28191147640846265,[4900|0|0|0]
4899,0.6537838578224182,0.396752268075943,-0.028627820312976837,-0.341526597738266,0.6082281470298767,1.207903265953064,4.09765625,0,F2,7.6,180,0,0.2821347172404727,[5000|0|0|0]
4999,0.6533842086791992,0.3966646194458008,-0.02903636172413826,-0.34793564677238464,0.6223670244216919,1.197155237197876,4.09765625,0,F2,7.6,180,0,0.2827129108107199,[5100|0|0|0]
5099,0.653342604637146,0.39698269963264465,-0.02882753126323223,-0.3546838164329529,0.626350462436676,1.1860325336456299,4.09765625,0,F2,7.6,180,0,0.283095684977795,[5200|0|0|0]
5199,0.6535118222236633,0.39695459604263306,-0.028917690739035606,-0.3582502603530884,0.6225500702857971,1.2074803113937378,4.09765625,0,F2,7.6,180,0,0.2832894712890645,[5300|0|0|0]
5299,0.6534355282783508,0.3969636559486389,-0.02891118824481964,-0.3537639379501343,0.6241400241851807,1.2017371654510498,4.09765625,0,F2,7.6,180,0,0.28336657596090226,[5400|0|0|0]
5399,0.6534379720687866,0.3965975344181061,-0.02859688177704811,-0.338834285736084,0.6292251944541931,1.187567114830017,4.09765625,0,F2,7.6,180,0,0.2838491104186505,[5500|0|0|0]
5499,0.6535372734069824,0.3965926766395569,-0.02889622375369072,-0.3406537175178528,0.6207768321037292,1.1740442514419556,4.09765625,0,F2,7.6,180,0,0.2841645307299182,[5600|0|0|0]
5599,0.6533745527267456,0.3967720866203308,-0.02879256010055542,-0.35030511021614075,0.6186623573303223,1.2009031772613525,4.09765625,0,F2,7.6,180,0,0.28442799251834183,[5700|0|0|0]
5699,0.6532753705978394,0.3965759873390198,-0.028875261545181274,-0.3325142562389374,0.6247420907020569,1.1793105602264404,4.09765625,0,F2,7.6,180,0,0.28466279360813546,[5800|0|0|0]
5799,0.6533322334289551,0.3968764543533325,-0.02877790480852127,-0.3412405550479889,0.6155024766921997,1.193130373954773,4.09765625,0,F2,7.6,180,0,0.28498371749697143,[5900|0|0|0]
5899,0.6535627841949463,0.3968281149864197,-0.028857998549938202,-0.3389034569263458,0.6048069000244141,1.1888395547866821,4.09765625,0,F2,7.6,180,0,0.28523252536965,[6000|0|0|0]
5999,0.6535550951957703,0.39679980278015137,-0.029059870168566704,-0.3426516652107239,0.6062068343162537,1.183201551437378,4.09765625,0,F2,7.6,180,0,0.28543651765416045,[6100|0|0|0]
6099,0.6533000469207764,0.3965362310409546,-0.028958942741155624,-0.3387800455093384,0.6094351410865784,1.1791106462478638,4.09765625,0,F2,7.6,180,0,0.28581692011193954,[6200|0|0|0]
6199,0.6536259651184082,0.3968251049518585,-0.029097294434905052,-0.349883496761322,0.6119141578674316,1.1817219257354736,4.09765625,0,F2,7.6,180,0,0.28627387962777423,[6300|0|0|0]
6299,0.6535449624061584,0.3967550992965698,-0.028591668233275414,-0.3492445647716522,0.6094555854797363,1.1935616731643677,4.09765625,0,F2,7.6,180,0,0.2867907162430973,[6400|0|0|0]
6399,0.6534923315048218,0.39694371819496155,-0.02923809178173542,-0.3533608019351959,0.6140421032905579,1.213274598121643,4.09765625,0,F2,7.6,180,0,0.2874661498109703,[6500|0|0|0]
6499,0.6535022258758545,0.3969866931438446,-0.029071660712361336,-0.349195659160614,0.6178390979766846,1.192908763885498,4.09765625,0,F2,7.6,180,0,0.2876383242738347,[6600|0|0|0]
6599,0.6529826521873474,0.397000789642334,-0.029411939904093742,-0.34517014026641846,0.6305531859397888,1.1995999813079834,2.9296875,0,A/E1,7.6,180,0,0.28825956936024144,[6600|0|0|0]
6699,0.6534497737884521,0.3973490297794342,-0.027599560096859932,0.6729156970977783,-0.4448229670524597,1.3159723281860352,3.140625,0,A/E1,7.6,180,0,0.29016330105062615,[6600|0|0|0]
6799,0.6599277853965759,0.3921404480934143,-0.005022259894758463,15.1719388961792,-12.692211151123047,5.785838603973389,3.541015625,0,A/E1,7.6,180,0,0.3142221547637759,[6600|0|0|0]
6899,0.6835449934005737,0.36037495732307434,0.019599415361881256,19.40656852722168,-21.61372947692871,11.614645957946777,3.5,0,A/E1,7.6,180,0,0.3608380942075764,[6600|0|0|0]
6999,0.7562217116355896,0.321505606174469,0.05149099975824356,-0.13982145488262177,-13.386208534240723,11.205533981323242,3.373046875,0,A/E1,7.6,180,0,0.4492111952476314,[6600|0|0|0]
7099,0.8356977105140686,0.2877119183540344,0.09621331840753555,-16.36092758178711,16.053508758544922,12.768632888793945,3.3515625,0,A/E1,7.6,180,0,0.5464661875082131,[6600|0|0|0]
7199,0.8756499290466309,0.2837666869163513,0.14206533133983612,-18.42648696899414,25.237279891967773,11.07198715209961,3.3515625,0,A/E1,7.6,180,0,0.6074100281052279,[6600|0|0|0]
7299,0.8668007254600525,0.3044321537017822,0.1902373731136322,-4.136984825134277,21.939918518066406,3.9262161254882812,3.341796875,0,A/E1,7.6,180,0,0.6605693690551759,[6600|0|0|0]
7399,0.8177707195281982,0.33231601119041443,0.24786609411239624,0.6298894286155701,11.027776718139648,-1.1065759658813477,3.345703125,0,A/E1,7.6,180,0,0.7412075763397963,[6600|0|0|0]
7499,0.75114905834198,0.358083039522171,0.32018235325813293,2.33217191696167,-2.4260473251342773,-4.698256492614746,3.419921875,0,A/E1,7.6,180,0,0.842854154369232,[6600|0|0|0]
7599,0.6910493969917297,0.38093245029449463,0.4030846357345581,3.441542148590088,-9.08161449432373,-6.025055885314941,3.37890625,0,A/E1,7.6,180,0,0.9477677059574712,[6600|0|0|0]
7699,0.649077296257019,0.3960089087486267,0.4925982654094696,5.307192802429199,-11.27603530883789,-5.472818374633789,3.37890625,0,A/E1,7.6,180,0,1.0477759393044366,[6600|0|0|0]
7799,0.630142867565155,0.39957112073898315,0.5874572992324829,4.619894027709961,-10.702068328857422,-7.124706745147705,3.3828125,0,A/E1,7.6,180,0,1.1445717979037955,[6600|0|0|0]
7899,0.6295560598373413,0.39651697874069214,0.6877204775810242,0.11342843621969223,-7.537166118621826,-9.94959545135498,3.416015625,0,A/E1,7.6,180,0,1.244883198348643,[6600|0|0|0]
7999,0.640692949295044,0.39322489500045776,0.7924264073371887,2.084209680557251,-2.4890365600585938,-9.924238204956055,3.388671875,0,A/E1,7.6,180,0,1.3502311923886279,[6600|0|0|0]
8099,0.6538559794425964,0.38939332962036133,0.897463858127594,2.39694881439209,-0.03195808827877045,-8.159116744995117,3.416015625,0,A/E1,7.6,180,0,1.456159528184458,[6600|0|0|0]
8199,0.6648794412612915,0.38356873393058777,1.0025547742843628,2.6212193965911865,1.500115990638733,-6.23626184463501,3.462890625,0,A/E1,7.6,180,0,1.5619874228251742,[6600|0|0|0]
8299,0.672924280166626,0.37371546030044556,1.1079869270324707,2.158860683441162,1.7029792070388794,-4.1709113121032715,3.431640625,0,A/E1,7.6,180,0,1.6681841519054224,[6600|0|0|0]
8399,0.6778966784477234,0.35842591524124146,1.2149778604507446,1.5064398050308228,1.719306468963623,-2.6107311248779297,3.39453125,0,A/E1,7.6,180,0,1.776376364039646,[6600|0|0|0]
8499,0.6817298531532288,0.3400464355945587,1.3225244283676147,0.25249966979026794,0.7645509839057922,-1.7247687578201294,3.37890625,0,A/E1,7.6,180,0,1.885549450334317,[6600|0|0|0]
8599,0.6830317974090576,0.32271260023117065,1.4184433221817017,-1.1324516534805298,0.703474760055542,1.2491518259048462,3.388671875,0,A/E1,7.6,180,0,1.9830306849272807,[6600|0|0|0]
8699,0.6824422478675842,0.30671319365501404,1.5246801376342773,-1.9996455907821655,-0.22724854946136475,4.713089466094971,3.3984375,0,A/E1,7.6,180,0,2.090467129102224,[6600|0|0|0]
8799,0.6746060848236084,0.2997233271598816,1.6255857944488525,-2.8415892124176025,-0.8979377150535583,2.051568031311035,3.5,0,A/E1,7.6,180,0,2.1919176848525614,[6600|0|0|0]
8899,0.6699052453041077,0.29974332451820374,1.7211456298828125,-2.6130669116973877,-0.6731166243553162,-0.25232595205307007,3.568359375,0,A/E1,7.6,180,0,2.287593075838164,[6600|0|0|0]
8999,0.6654874086380005,0.3030847907066345,1.8006362915039062,-2.098019599914551,-0.96933513879776,-1.5320731401443481,3.578125,0,A/E1,7.6,180,0,2.3672764992213,[6600|0|0|0]
9099,0.6620764136314392,0.3075607717037201,1.8613461256027222,-1.3205631971359253,-0.6771458387374878,-1.9867031574249268,3.515625,0,A/E1,7.6,180,0,2.4282466004933725,[6600|0|0|0]
9199,0.6598594784736633,0.3118397891521454,1.9057422876358032,-0.6127702593803406,-1.1517900228500366,-2.501455545425415,3.484375,0,A/E1,7.6,180,0,2.4729035595824698,[6600|0|0|0]
9299,0.6591407060623169,0.3148893117904663,1.9340637922286987,0.043522704392671585,-1.3408169746398926,-2.599182367324829,3.435546875,0,A/E1,7.6,180,0,2.5013978369817362,[6600|0|0|0]
9399,0.6620312929153442,0.31462007761001587,1.9510425329208374,0.21847330033779144,-1.2594974040985107,-2.6395061016082764,3.3828125,0,A/E1,7.6,180,0,2.518622981825531,[6600|0|0|0]
9499,0.6694909334182739,0.30891719460487366,1.9610991477966309,-0.19746148586273193,-0.39914000034332275,-2.9785330295562744,3.388671875,0,A/E1,7.6,180,0,2.5323817831455337,[6600|0|0|0]
9599,0.6808577179908752,0.2977663576602936,1.9665429592132568,-2.224323272705078,-0.49476325511932373,-3.6027538776397705,3.7109375,0,A/E1,7.6,180,92.72631099390625,2.549209737234618,[6600|0|0|0]
9699,0.7119162678718567,0.2646504342556,1.9652302265167236,-14.677440643310547,0.1852477341890335,0.24086929857730865,3.63671875,0,A/E1,7.6,180,92.72631099390625,2.594630230085175,[6600|0|0|0]
9799,0.762699544429779,0.24407434463500977,1.9624934196472168,-15.953606605529785,0.22696338593959808,6.37551212310791,3.55859375,0,A/E1,7.6,180,92.72631099390625,2.6494919357993973,[6600|0|0|0]
9899,0.7721561193466187,0.27283015847206116,1.8991719484329224,-17.172277450561523,5.621328830718994,2.6781928539276123,3.341796875,0,A/E1,7.6,180,92.72631099390625,2.719676922479824,[6600|0|0|0]
9999,0.7717539668083191,0.3202205002307892,1.821710228919983,-13.948657989501953,5.155849933624268,-0.6880863308906555,3.2734375,0,A/E1,7.6,180,92.72631099390625,2.8104861962825276,[6600|0|0|0]
10099,0.7290138006210327,0.3999153673648834,1.7400157451629639,-7.687227249145508,5.218731880187988,-2.231133222579956,3.2890625,0,A/E1,7.6,180,92.72631099390625,2.932354905677366,[6600|0|0|0]
10199,0.709653377532959,0.465506911277771,1.669251799583435,-0.3612009286880493,-0.668766975402832,-5.809996128082275,3.283203125,0,A/E1,7.6,180,92.72631099390625,3.030765335048485,[6600|0|0|0]
10299,0.6831907629966736,0.5493612289428711,1.6236084699630737,3.7697625160217285,-3.216395139694214,-4.469228267669678,3.298828125,0,A/E1,7.6,180,92.72631099390625,3.1298366734769556,[6600|0|0|0]
10399,0.6637085676193237,0.6253155469894409,1.5991477966308594,6.7900590896606445,-5.255871295928955,-3.160792350769043,3.357421875,0,A/E1,7.6,180,92.72631099390625,3.2119764257684373,[6600|0|0|0]
10499,0.6514661312103271,0.6869620680809021,1.588571548461914,8.315549850463867,-4.036448955535889,-2.1702897548675537,3.37890625,0,A/E1,7.6,180,92.72631099390625,3.275710465631288,[6600|0|0|0]
10599,0.6457641124725342,0.7324493527412415,1.5856008529663086,8.432538032531738,-3.667710304260254,-1.2474364042282104,3.3984375,0,A/E1,7.6,180,92.72631099390625,3.321649894395526,[6600|0|0|0]
10699,0.644750714302063,0.7622528672218323,1.5853945016860962,7.304325103759766,-2.7586348056793213,-0.7878856062889099,3.3828125,0,A/E1,7.6,180,92.72631099390625,3.351471346943944,[6600|0|0|0]
10799,0.6476743221282959,0.7787530422210693,1.5838265419006348,5.696948051452637,-1.8650033473968506,-0.8366538286209106,3.36328125,0,A/E1,7.6,180,92.72631099390625,3.368301728865216,[6600|0|0|0]
10899,0.6517894268035889,0.787112295627594,1.5802216529846191,3.951651096343994,-1.2940268516540527,-0.9157916307449341,3.345703125,0,A/E1,7.6,180,92.72631099390625,3.3782920455819134,[6600|0|0|0]
10999,0.660948634147644,0.7906611561775208,1.5785422325134277,2.125943183898926,-0.7439858913421631,-2.0017073154449463,3.416015625,0,A/E1,7.6,180,92.72631099390625,3.3882572823324013,[6600|0|0|0]
11099,0.6618544459342957,0.7959102988243103,1.5672744512557983,2.279397964477539,-0.04925636574625969,-1.6762924194335938,3.3671875,0,A/E1,7.6,180,92.72631099390625,3.400720704333961,[6600|0|0|0]
11199,0.6622018814086914,0.7988216876983643,1.551627278327942,2.3215415477752686,0.07491476833820343,-0.8588007688522339,3.2890625,0,A/E1,7.6,180,92.72631099390625,3.4166402180582893,[6600|0|0|0]
11299,0.6581964492797852,0.7961199283599854,1.530758023262024,2.432344913482666,-0.9561594128608704,-0.20148694515228271,3.2734375,0,A/E1,7.6,180,92.72631099390625,3.4380614411108636,[6600|0|0|0]
11399,0.6595709919929504,0.7900587916374207,1.51682448387146,1.4775344133377075,-1.62901771068573,0.6984071135520935,3.2890625,0,A/E1,7.6,180,92.72631099390625,3.4533182515897396,[6600|0|0|0]
11499,0.6661620736122131,0.780038595199585,1.5114259719848633,0.5901675820350647,-1.4028698205947876,1.2161387205123901,3.3984375,0,A/E1,7.6,180,92.72631099390625,3.4664708416067027,[6600|0|0|0]
11599,0.6725860238075256,0.7744134068489075,1.5072685480117798,-0.49406206607818604,-0.0106833316385746,1.2460688352584839,3.3671875,0,A/E1,7.6,180,92.72631099390625,3.4759678966336267,[6600|0|0|0]
11699,0.6756966710090637,0.766768753528595,1.4974666833877563,0.04103699326515198,0.6612799763679504,2.300096273422241,3.37890625,0,A/E1,7.6,180,92.72631099390625,3.488781693904845,[6600|0|0|0]
11799,0.6783801317214966,0.7569078803062439,1.483872890472412,0.1990450769662857,0.19205661118030548,2.973348617553711,3.357421875,0,A/E1,7.6,180,92.72631099390625,3.5057884275103235,[6600|0|0|0]
11899,0.6796843409538269,0.7472295761108398,1.4690451622009277,-0.5627766251564026,-0.43765467405319214,2.733823299407959,3.314453125,0,A/E1,7.6,180,92.72631099390625,3.5235432031921916,[6600|0|0|0]
11999,0.6835381984710693,0.7358136177062988,1.4575722217559814,-1.4925366640090942,-0.7920553088188171,2.898122787475586,3.3671875,0,A/E1,7.6,180,92.72631099390625,3.5401806515094876,[6600|0|0|0]
12099,0.6875417232513428,0.7275216579437256,1.4482817649841309,-1.751699447631836,-1.0654051303863525,2.720149278640747,3.373046875,0,A/E1,7.6,180,92.72631099390625,3.553261071777966,[6600|0|0|0]
12199,0.6926509141921997,0.7217568159103394,1.4411424398422241,-2.022681713104248,-0.9701023697853088,2.7178940773010254,3.3984375,0,A/E1,7.6,180,92.72631099390625,3.5637637951972456,[6600|0|0|0]
12299,0.6996966004371643,0.7185020446777344,1.4341940879821777,-0.7264735698699951,-0.867948591709137,2.8935482501983643,3.373046875,0,A/E1,7.6,180,92.72631099390625,3.574180840076197,[6600|0|0|0]
12399,0.706685483455658,0.7169668674468994,1.426092267036438,-0.7071303129196167,0.39381563663482666,1.7971112728118896,3.29296875,0,A/E1,7.6,180,92.72631099390625,3.5849901304142855,[6600|0|0|0]
12499,0.7137541770935059,0.7146992087364197,1.4186642169952393,-0.10748417675495148,0.5867331027984619,1.2163652181625366,3.330078125,0,A/E1,7.6,180,92.72631099390625,3.5954917794841945,[6600|0|0|0]
12599,0.7195813059806824,0.7134702801704407,1.4127802848815918,-0.2172705978155136,0.5804403424263,1.7456456422805786,3.806640625,0,A/E1,7.6,180,0,3.603863538773977,[6600|0|0|0]
12699,0.7252892255783081,0.7098037600517273,1.3933887481689453,-0.902864933013916,1.249184489250183,1.2317626476287842,3.83203125,0,A/E1,7.6,180,0,3.6244075260206583,[6600|0|0|0]
12799,0.7293009161949158,0.7076988220214844,1.3356459140777588,-1.0763661861419678,1.4655787944793701,1.3554834127426147,3.705078125,0,A/E1,7.6,180,0,3.6823278101584007,[6600|0|0|0]
12899,0.7318383455276489,0.7043558955192566,1.23647940158844,-1.2006208896636963,1.5843791961669922,1.695286750793457,3.3828125,0,A/E1,7.6,180,0,3.781583091652698,[6600|0|0|0]
12999,0.7314726710319519,0.7019662261009216,1.1122664213180542,-1.4107416868209839,0.629934549331665,0.9823248982429504,3.283203125,0,A/E1,7.6,180,0,3.9058195947643717,[6600|0|0|0]
13099,0.7311522364616394,0.7002855539321899,0.980080783367157,-0.7683475017547607,-0.15933838486671448,0.24266807734966278,3.2890625,0,A/E1,7.6,180,0,4.038016305077973,[6600|0|0|0]
13199,0.7311965823173523,0.6996076703071594,0.8484066128730774,0.18838976323604584,-0.3095419108867645,0.06269897520542145,3.3671875,0,A/E1,7.6,180,0,4.1696922279646875,[6600|0|0|0]
13299,0.7310494780540466,0.7007160782814026,0.7200136184692383,-1.4763034582138062,-0.872909426689148,0.1872963309288025,3.330078125,0,A/E1,7.6,180,0,4.29809009095269,[6600|0|0|0]
13399,0.7340533137321472,0.7027988433837891,0.5934779644012451,0.31894877552986145,0.18942135572433472,1.5972460508346558,3.310546875,0,A/E1,7.6,180,0,4.424678529167511,[6600|0|0|0]
13499,0.7376224994659424,0.7057149410247803,0.47002509236335754,-0.026432981714606285,-0.21638786792755127,1.2482566833496094,3.224609375,0,A/E1,7.6,180,0,4.548217406961738,[6600|0|0|0]
13599,0.7408007979393005,0.7112932801246643,0.35631048679351807,0.4417542815208435,1.3107270002365112,-0.7998411655426025,3.251953125,0,A/E1,7.6,180,0,4.66211310911157,[6600|0|0|0]
13699,0.7431115508079529,0.7157102823257446,0.26498523354530334,1.0534205436706543,0.2698669731616974,-4.81929874420166,3.2578125,0,A/E1,7.6,180,0,4.753574310547561,[6600|0|0|0]
13799,0.743740439414978,0.7202117443084717,0.19561828672885895,2.214822292327881,1.48009192943573,-9.219902992248535,3.3203125,0,A/E1,7.6,180,0,4.823090006411858,[6600|0|0|0]
13899,0.7412370443344116,0.7217535972595215,0.14571495354175568,1.8216257095336914,2.091531991958618,-11.154533386230469,3.283203125,0,A/E1,7.6,180,0,4.8730798749917525,[6600|0|0|0]
13999,0.7354065179824829,0.7221276760101318,0.11057952791452408,0.8401219248771667,-0.4266369044780731,-11.0193510055542,3.26171875,0,A/E1,7.6,180,0,4.908697751212253,[6600|0|0|0]
14099,0.7292851209640503,0.7209029197692871,0.08849521726369858,0.9839510321617126,-0.5400547385215759,-9.904337882995605,3.3046875,0,A/E1,7.6,180,0,4.931647441977685,[6600|0|0|0]
14199,0.725512683391571,0.7185776829719543,0.07914694398641586,-0.40633267164230347,-1.8137749433517456,-8.560815811157227,3.326171875,0,A/E1,7.6,180,0,4.941992886611372,[6600|0|0|0]
14299,0.7252208590507507,0.7167152762413025,0.08006227016448975,-0.4612753689289093,-1.7480794191360474,-7.00833797454834,3.345703125,0,A/E1,7.6,180,0,4.944088487310107,[6600|0|0|0]
14399,0.7291863560676575,0.716414213180542,0.08690878748893738,-2.1827285289764404,-2.3900394439697266,-4.885763168334961,3.39453125,0,A/E1,7.6,180,0,4.9520062272042695,[6600|0|0|0]
14499,0.7369508743286133,0.720844566822052,0.0922689214348793,-1.0173017978668213,-0.7688935995101929,-2.6367876529693604,3.345703125,0,A/E1,7.6,180,0,4.962429605405793,[6600|0|0|0]
14599,0.7477448582649231,0.7268737554550171,0.09570924192667007,1.3121429681777954,1.2663346529006958,-2.260941982269287,3.326171875,0,A/E1,7.6,180,0,4.975263038690594,[6600|0|0|0]
14699,0.7563972473144531,0.7322245836257935,0.09906384348869324,2.0239250659942627,3.0772833824157715,-3.2469756603240967,3.357421875,0,A/E1,7.6,180,0,4.985975113653809,[6600|0|0|0]
14799,0.7600353956222534,0.7333190441131592,0.10345131158828735,3.1417181491851807,2.283453941345215,-4.978063583374023,3.36328125,0,A/E1,7.6,180,0,4.991778892008718,[6600|0|0|0]
14899,0.7579236030578613,0.7297437787055969,0.10883600264787674,1.982694149017334,1.2772927284240723,-7.339247226715088,3.345703125,0,A/E1,7.6,180,0,4.998578677915403,[6600|0|0|0]
14999,0.753641664981842,0.7225160002708435,0.11130842566490173,-0.09426925331354141,-0.32090631127357483,-9.402135848999023,3.345703125,0,A/E1,7.6,180,0,5.007335883540708,[6600|0|0|0]
15099,0.7478956580162048,0.7150307893753052,0.11188096553087234,0.6212009191513062,1.7714054584503174,-10.230953216552734,3.341796875,0,A/E1,7.6,180,0,5.0167896013330875,[6600|0|0|0]
15199,0.7391679883003235,0.7077019810676575,0.10996236652135849,-1.2497541904449463,0.2915630042552948,-9.835634231567383,3.283203125,0,A/E1,7.6,180,0,5.02834661963536,[6600|0|0|0]
15299,0.7296332120895386,0.7035108208656311,0.10833065956830978,-1.463070034980774,-1.0710831880569458,-8.487680435180664,3.310546875,0,A/E1,7.6,180,0,5.038888927201041,[6600|0|0|0]
15399,0.7210963368415833,0.7034351825714111,0.10939287394285202,-1.4790903329849243,-1.0624018907546997,-7.145455360412598,3.298828125,0,A/E1,7.6,180,0,5.047491965009176,[6600|0|0|0]
15499,0.7155092358589172,0.7064108848571777,0.11141321808099747,-0.6706233024597168,-1.5012431144714355,-5.286538600921631,3.298828125,0,A/E1,7.6,180,0,5.054136684109376,[6600|0|0|0]
15599,0.7124817371368408,0.7123571038246155,0.11191821843385696,0.812741756439209,-1.8993979692459106,-3.961902141571045,3.326171875,0,F1,7.6,180,0,5.060828342639014,[6600|0|100|0]
15699,0.7136783599853516,0.7180566191673279,0.11277847737073898,1.711753010749817,-1.9971998929977417,-2.7759647369384766,3.29296875,0,F1,7.6,180,0,5.066715313576761,[6600|0|200|0]
15799,0.7190874218940735,0.7213766574859619,0.11719953268766403,1.832894206047058,-0.4504668414592743,-0.30789124965667725,3.3359375,0,F1,7.6,180,0,5.074450062136663,[6600|0|300|0]
15899,0.7250620722770691,0.7221993803977966,0.12349444627761841,1.5873336791992188,0.3914749324321747,2.467179775238037,3.357421875,0,F1,7.6,180,0,5.083167817426511,[6600|0|400|0]
15999,0.7312685251235962,0.7207024693489075,0.1278952658176422,1.1532135009765625,-0.12230394780635834,3.8445301055908203,3.3671875,0,F1,7.6,180,0,5.09092204287128,[6600|0|500|0]
16099,0.7379363775253296,0.7182505130767822,0.12966491281986237,0.49978768825531006,-0.2061975747346878,3.8748860359191895,3.326171875,0,F1,7.6,180,0,5.09824351784045,[6600|0|600|0]
16199,0.7445038557052612,0.7155891060829163,0.13004159927368164,0.4861365556716919,0.8128724694252014,3.20172119140625,3.3203125,0,F1,7.6,180,0,5.1053397668154625,[6600|0|700|0]
16299,0.7493681311607361,0.7129383087158203,0.12930479645729065,-0.5102444887161255,1.2140846252441406,1.6870450973510742,3.3359375,0,F1,7.6,180,0,5.110928217475384,[6600|0|800|0]
16399,0.751643180847168,0.7102410793304443,0.12812310457229614,-0.6521527767181396,-0.18300572037696838,-0.08321273326873779,3.388671875,0,F1,7.6,180,0,5.114649412598477,[6600|0|900|0]
16499,0.7610521912574768,0.7244514226913452,0.13843826949596405,-1.0094759464263916,0.5069169402122498,-2.700643539428711,3.37890625,0,F1,7.6,180,0,5.134570907591034,[6600|0|1000|0]
16599,0.757438063621521,0.7215487360954285,0.13638484477996826,-0.6732950806617737,0.7285080552101135,-4.237450122833252,3.345703125,0,F1,7.6,180,0,5.139640824859329,[6600|0|1100|0]
16699,0.7488996386528015,0.7174558043479919,0.1339803785085678,2.4719467163085938,1.1411768198013306,-3.38653302192688,3.3671875,0,F1,7.6,180,0,5.149410075049898,[6600|0|1200|0]
16799,0.7365292906761169,0.7089062929153442,0.13021531701087952,0.9270647168159485,0.13105463981628418,-2.3376827239990234,3.330078125,0,F1,7.6,180,0,5.1649115376545245,[6600|0|1300|0]
16899,0.7237074971199036,0.6968546509742737,0.12943120300769806,-0.15370693802833557,-1.7862062454223633,-0.8485358357429504,3.3515625,0,F1,7.6,180,0,5.1825256030070745,[6600|0|1400|0]
16999,0.7118181586265564,0.6837595701217651,0.1300063580274582,0.5118434429168701,0.35144534707069397,1.3443207740783691,3.37890625,0,F1,7.6,180,0,5.200222165261927,[6600|0|1500|0]
17099,0.7009490728378296,0.670482337474823,0.13262948393821716,-0.5130792260169983,-0.7232723236083984,1.7861814498901367,3.3984375,0,F1,7.6,180,0,5.217580238950774,[6600|0|1600|0]
17199,0.6895979642868042,0.6571410298347473,0.13495707511901855,0.03297048434615135,0.35223159193992615,1.6935620307922363,3.388671875,0,F1,7.6,180,0,5.235251001118526,[6600|0|1700|0]
17299,0.6769199967384338,0.6432176828384399,0.1363440454006195,0.4936816692352295,0.01866515912115574,1.919735074043274,3.36328125,0,F1,7.6,180,0,5.254132583131142,[6600|0|1800|0]
17399,0.6633884310722351,0.627776563167572,0.1352798193693161,-0.49734586477279663,-0.6454448103904724,2.169133424758911,3.330078125,0,F1,7.6,180,0,5.274691377432229,[6600|0|1900|0]
17499,0.6498307585716248,0.6114155650138855,0.13387390971183777,0.24574322998523712,-0.9977425336837769,1.4018081426620483,3.3671875,0,F1,7.6,180,0,5.295986196665642,[6600|0|2000|0]
17600,0.63941890001297,0.5958819389343262,0.11210309714078903,-6.881847381591797,-3.498950481414795,-3.369325876235962,3.96875,0,F1,7.6,180,0,5.32468582415153,[6600|0|2100|0]
17700,0.6333349943161011,0.5841406583786011,0.03186760097742081,-22.469575881958008,-8.843439102172852,-14.363275527954102,3.974609375,0,F1,7.6,180,0,5.4060037583493346,[6600|0|2200|0]
17800,0.6220178604125977,0.572569727897644,-0.02353144809603691,-6.543323040008545,6.952203273773193,-14.317940711975098,3.974609375,0,F1,7.6,180,0,5.463718735523621,[6600|0|2300|0]
17900,0.6179371476173401,0.5728503465652466,-0.028892353177070618,-2.5981485843658447,0.9570344090461731,-9.586254119873047,3.98046875,0,F1,7.6,180,0,5.470461899991572,[6600|0|2400|0]
18000,0.618762731552124,0.5736501812934875,-0.026769598945975304,-2.517483949661255,0.7598594427108765,-9.264202117919922,3.98046875,0,F1,7.6,180,0,5.4728759028812775,[6600|0|2500|0]
18100,0.6187654137611389,0.5740644931793213,-0.026127392426133156,-2.409026861190796,0.6233931183815002,-9.020330429077148,3.984375,0,F1,7.6,180,0,5.473640161179967,[6600|0|2600|0]
18200,0.6191246509552002,0.5738177299499512,-0.025733670219779015,-2.2688088417053223,0.49102580547332764,-8.826419830322266,3.984375,0,F1,7.6,180,0,5.474227494670194,[6600|0|2700|0]
18300,0.619048535823822,0.5740809440612793,-0.025690710172057152,-2.1399881839752197,0.4022613763809204,-8.682108879089355,3.984375,0,F1,7.6,180,0,5.474504840568536,[6600|0|2800|0]
18400,0.6191127300262451,0.5742485523223877,-0.025537289679050446,-2.0098876953125,0.3201744854450226,-8.549782752990723,3.984375,0,F1,7.6,180,0,5.474740957642233,[6600|0|2900|0]
18500,0.6193088889122009,0.5737574100494385,-0.025341510772705078,-1.8606685400009155,0.2553720772266388,-8.448343276977539,3.990234375,0,F1,7.6,180,0,5.475304897728578,[6600|0|3000|0]
18599,0.6205955743789673,0.5753801465034485,-0.02374803088605404,-1.3477791547775269,-0.10926688462495804,-9.081123352050781,3.990234375,0,F1,7.6,180,0,5.477917944080773,[6600|0|3100|0]
18699,0.6197237372398376,0.6035022735595703,-0.01804477907717228,-0.7163097858428955,-0.7703287601470947,-10.868967056274414,3.990234375,0,F1,7.6,180,0,5.506625803829514,[6600|0|3200|0]
18799,0.6358799934387207,0.6501550078392029,-0.0026521659456193447,-3.1073155403137207,3.835624933242798,-23.014362335205078,3.99609375,0,F1,7.6,180,0,5.558340741411876,[6600|0|3300|0]
18899,0.6947106122970581,0.7315665483474731,0.03485022857785225,2.515519857406616,9.117569923400879,-28.858991622924805,3.99609375,0,F1,7.6,180,0,5.665556926002537,[6600|0|3400|0]
18999,0.7314440011978149,0.834842324256897,0.03327165171504021,4.644379615783691,10.767861366271973,-12.546629905700684,3.99609375,0,F1,7.6,180,0,5.775182286456857,[6600|0|3500|0]
19099,0.5978901982307434,0.9483185410499573,0.013302959501743317,-5.130321979522705,8.102910041809082,8.539755821228027,4.0,0,F1,7.6,180,0,5.951568846980448,[6600|0|3600|0]
19200,0.5459061861038208,1.02252197265625,0.010395538993179798,-7.119965553283691,0.8827371597290039,18.770023345947266,4.0,0,F1,7.6,180,0,6.042216184905924,[6600|0|3700|0]
19300,0.6121054291725159,0.9726360440254211,-0.26346907019615173,-4.7028117179870605,-0.4912327826023102,24.85451316833496,4.0,0,F1,7.6,180,0,6.328350366409381,[6600|0|3800|0]
19399,0.578458845615387,1.0330729484558105,-0.3210192918777466,-3.707650661468506,-1.8727062940597534,28.221908569335938,4.0,0,F1,7.6,180,0,6.418332253574497,[6600|0|3900|0]
19499,0.5488126277923584,1.0874649286270142,-0.36393868923187256,-3.9580225944519043,-1.786596655845642,25.1794490814209,4.0,0,F1,7.6,180,0,6.493694448389911,[6600|0|4000|0]
19599,0.525057315826416,1.1327338218688965,-0.4045698940753937,-4.035886287689209,-0.8188730478286743,17.20075225830078,4.0,0,F1,7.6,180,0,6.558997452524332,[6600|0|4100|0]
19699,0.7453963160514832,0.761078417301178,-0.024049825966358185,-1.6956321001052856,-0.8381578922271729,8.858317375183105,4.0,0,F1,7.6,180,0,7.134733969516508,[6600|0|4200|0]
19799,0.7460934519767761,0.764666736125946,-0.02230183407664299,-2.182422637939453,-0.8459281921386719,3.357414960861206,4.0078125,0,F1,7.6,180,0,7.138785821701994,[6600|0|4300|0]
19899,0.7462284564971924,0.7655735611915588,-0.022126957774162292,-2.2052478790283203,-0.9707112312316895,-0.017356477677822113,4.04296875,0,F1,7.6,180,0,7.139719170319245,[6600|0|4400|0]
19999,0.7466626763343811,0.7663130760192871,-0.022238226607441902,-2.0284805297851562,-1.0555380582809448,-2.2974424362182617,4.09765625,0,F1,7.6,180,0,7.140583930286344,[6600|0|4500|0]
20099,0.7468878626823425,0.7664963006973267,-0.022831277921795845,-1.7553726434707642,-1.1131727695465088,-3.8341550827026367,4.09765625,0,F1,7.6,180,0,7.1412442257016,[6600|0|4600|0]
20199,0.7473965287208557,0.7667469382286072,-0.022647826001048088,-1.4947474002838135,-1.1348997354507446,-4.947197914123535,4.1015625,0,F1,7.6,180,0,7.141840224793922,[6600|0|4700|0]
20299,0.7477628588676453,0.7669482827186584,-0.022134320810437202,-1.2346460819244385,-1.1564635038375854,-5.734626293182373,4.1015625,0,F1,7.6,180,0,7.142502361457237,[6600|0|4800|0]
20399,0.7482187747955322,0.7684940695762634,-0.022420626133680344,-1.0862189531326294,-1.1609355211257935,-6.272369384765625,4.09765625,0,F1,7.6,180,0,7.1441392142547,[6600|0|4900|0]
20499,0.7485108971595764,0.7681167125701904,-0.022933004423975945,-0.8107132315635681,-1.120040774345398,-6.628803253173828,4.1015625,0,F1,7.6,180,0,7.14483940372761,[6600|0|5000|0]
20599,0.7482241988182068,0.7677174806594849,-0.022723542526364326,-0.572526752948761,-1.07624089717865,-6.896632194519043,4.1015625,0,F1,7.6,180,0,7.145373684874592,[6600|0|5100|0]
20699,0.7480998635292053,0.7671961784362793,-0.022551923990249634,-0.3726251721382141,-1.0494898557662964,-7.077258586883545,4.1015625,0,F1,7.6,180,0,7.145936417665487,[6600|0|5200|0]
20799,0.7480266094207764,0.767192006111145,-0.023180847987532616,-0.21769899129867554,-1.013989806175232,-7.198602199554443,4.10546875,0,F1,7.6,180,0,7.146569607184555,[6600|0|5300|0]
20899,0.7480201721191406,0.7671142816543579,-0.02345415949821472,-0.07805401086807251,-0.9959184527397156,-7.314250469207764,4.10546875,0,F1,7.6,180,0,7.146853828422161,[6600|0|5400|0]
20999,0.7478691935539246,0.7668434977531433,-0.021973349153995514,-0.3561476767063141,-1.156599998474121,-7.415457248687744,4.10546875,0,F1,7.6,180,0,7.14836674538084,[6600|0|5500|0]
21099,0.7481406331062317,0.7665849924087524,-0.02250577136874199,-0.18477755784988403,-1.1088390350341797,-7.4501214027404785,4.11328125,0,F1,7.6,180,0,7.149017881202609,[6600|0|5600|0]
21199,0.7483912110328674,0.7658922672271729,-0.022402353584766388,-0.06357354670763016,-1.0818004608154297,-7.53001070022583,4.11328125,0,F1,7.6,180,0,7.149761758015364,[6600|0|5700|0]
21299,0.748319685459137,0.7654212713241577,-0.022250240668654442,0.022602397948503494,-1.0485637187957764,-7.518161296844482,4.11328125,0,F1,7.6,180,0,7.150261849394616,[6600|0|5800|0]
21399,0.7484460473060608,0.7667088508605957,-0.022959144786000252,0.20481137931346893,-0.9087095260620117,-7.547016143798828,4.11328125,0,F1,7.6,180,0,7.1517371030767345,[6600|0|5900|0]
21499,0.7476659417152405,0.7666487693786621,-0.023362934589385986,0.24889293313026428,-0.8644101619720459,-7.558572769165039,4.11328125,0,F1,7.6,180,0,7.152617569272916,[6600|0|6000|0]
21599,0.748099148273468,0.7655708193778992,-0.023991141468286514,0.26801636815071106,-0.8609834313392639,-7.562035083770752,4.11328125,0,F1,7.6,180,0,7.153938284234191,[6600|0|6100|0]
21699,0.7479721903800964,0.7654423713684082,-0.023614101111888885,0.3047953248023987,-0.8674505949020386,-7.537642478942871,4.11328125,0,F1,7.6,180,0,7.154356347181825,[6600|0|6200|0]
21799,0.748497486114502,0.7649956345558167,-0.02322637103497982,0.30869558453559875,-0.8895614147186279,-7.531996726989746,4.11328125,0,F1,7.6,180,0,7.155147450209785,[6600|0|6300|0]
21899,0.7485052943229675,0.7650325894355774,-0.02314106747508049,0.2538003921508789,-0.8801645040512085,-7.535589218139648,4.11328125,0,F1,7.6,180,0,7.1552407418417205,[6600|0|6400|0]
21999,0.7482803463935852,0.7650145292282104,-0.02315508760511875,0.3188261389732361,-0.8804788589477539,-7.539952278137207,4.1171875,0,F1,7.6,180,0,7.1554668486883,[6600|0|6500|0]
22099,0.7480400800704956,0.7649390697479248,-0.023752566426992416,0.3841307759284973,-0.9429834485054016,-7.554690837860107,4.1171875,0,F1,7.6,180,0,7.156115233590779,[6600|0|6600|0]
22199,0.7476915121078491,0.766535758972168,-0.022110555320978165,-0.015702350065112114,-1.1291812658309937,-7.545280456542969,4.1171875,0,F1,7.6,180,0,7.158431937407773,[6600|0|6700|0]
22299,0.7483088970184326,0.7659628987312317,-0.022783981636166573,0.07906252145767212,-1.1072207689285278,-7.56665563583374,4.1171875,0,F1,7.6,180,0,7.159510286138681,[6600|0|6800|0]
22399,0.7483037710189819,0.7657046318054199,-0.022256432101130486,0.12218115478754044,-1.0815035104751587,-7.558337211608887,4.1171875,0,F1,7.6,180,0,7.1600976842939,[6600|0|6900|0]
22499,0.7478243708610535,0.7655110955238342,-0.02226976491510868,0.15581846237182617,-1.047905683517456,-7.539605617523193,4.12109375,0,F1,7.6,180,0,7.160614848259815,[6600|0|7000|0]
22599,0.7479543089866638,0.7653970122337341,-0.022571701556444168,0.17730693519115448,-1.0446280241012573,-7.536946773529053,4.12109375,0,F1,7.6,180,0,7.160962791716354,[6600|0|7100|0]
22699,0.7479710578918457,0.7653281092643738,-0.022887475788593292,0.1919085681438446,-1.0366666316986084,-7.577452659606934,4.12109375,0,F1,7.6,180,0,7.161286429647847,[6600|0|7200|0]
22799,0.7479619383811951,0.7655750513076782,-0.022362317889928818,0.18921400606632233,-1.028892159461975,-7.592881202697754,4.12109375,0,F1,7.6,180,0,7.161866821202537,[6600|0|7300|0]
22899,0.7479909062385559,0.7655735611915588,-0.022473594173789024,0.18345025181770325,-1.0222440958023071,-7.593275547027588,4.12109375,0,F1,7.6,180,0,7.161981815848307,[6600|0|7400|0]
22999,0.7481753826141357,0.7654916644096375,-0.022313274443149567,0.18169011175632477,-1.033610224723816,-7.596034049987793,4.12109375,0,F1,7.6,180,0,7.162239577428199,[6600|0|7500|0]
23099,0.7479687929153442,0.7656167149543762,-0.02233787812292576,0.1779785454273224,-1.0326952934265137,-7.599208354949951,4.12109375,0,F1,7.6,180,0,7.162482316554515,[6600|0|7600|0]
23199,0.7479343414306641,0.7653605341911316,-0.02263312228024006,0.184846431016922,-1.0332549810409546,-7.591161251068115,4.12890625,0,F1,7.6,180,0,7.162874725270883,[6600|0|7700|0]
23299,0.7477936148643494,0.7657067179679871,-0.023063359782099724,0.18640364706516266,-1.025996208190918,-7.569735050201416,4.12890625,0,F1,7.6,180,0,7.1634445949768955,[6600|0|7800|0]
23399,0.7478492259979248,0.7651764750480652,-0.02262488193809986,0.18941852450370789,-1.0408761501312256,-7.594284534454346,4.12109375,0,F1,7.6,180,0,7.16413489416709,[6600|0|7900|0]
23499,0.7478927373886108,0.7654288411140442,-0.022294804453849792,0.17432735860347748,-1.0453376770019531,-7.573582172393799,4.12890625,0,F1,7.6,180,0,7.164552665657245,[6600|0|8000|0]
23599,0.748288094997406,0.7655622959136963,-0.022506752982735634,0.15896068513393402,-1.0515985488891602,-7.5684990882873535,4.12890625,0,F1,7.6,180,0,7.165020682752317,[6600|0|8100|0]
23699,0.7478058338165283,0.7657696008682251,-0.022984694689512253,0.15168063342571259,-1.0394046306610107,-7.580225467681885,4.12890625,0,F1,7.6,180,0,7.165730597864024,[6600|0|8200|0]
23799,0.7477087378501892,0.7658568024635315,-0.02253456972539425,0.12660740315914154,-1.0587228536605835,-7.579439163208008,4.12890625,0,F1,7.6,180,0,7.1661992600325695,[6600|0|8300|0]
23899,0.7483119368553162,0.7654900550842285,-0.02278965525329113,0.2010800987482071,-1.058704137802124,-7.558768272399902,4.12890625,0,F1,7.6,180,0,7.166949873985646,[6600|0|8400|0]
23999,0.7479288578033447,0.7655424475669861,-0.02260146103799343,0.24263311922550201,-1.019820213317871,-7.534622669219971,4.12890625,0,F1,7.6,180,0,7.167379887467971,[6600|0|8500|0]
24099,0.7480804920196533,0.7654508948326111,-0.022665109485387802,0.26943618059158325,-1.0053249597549438,-7.539766788482666,4.1328125,0,F1,7.6,180,0,7.167568105329989,[6600|0|8600|0]
24199,0.7475754022598267,0.765718936920166,-0.023019040003418922,0.2848582863807678,-0.9794020056724548,-7.53311014175415,4.1328125,0,F1,7.6,180,0,7.168240585097548,[6600|0|8700|0]
24299,0.7477636337280273,0.7653489112854004,-0.022885506972670555,0.3176259398460388,-0.9835020303726196,-7.554025650024414,4.1328125,0,F1,7.6,180,0,7.168676682708532,[6600|0|8800|0]
24399,0.7484078407287598,0.7639080286026001,-0.023300901055336,0.31617602705955505,-0.9909113049507141,-7.574737548828125,4.1328125,0,F1,7.6,180,0,7.1703087665940295,[6600|0|8900|0]
24499,0.7486302256584167,0.7651113271713257,-0.02273217961192131,0.22834524512290955,-1.0115443468093872,-7.5734663009643555,4.1328125,0,F1,7.6,180,0,7.171658146667483,[6600|0|9000|0]
24599,0.7485686540603638,0.7651671171188354,-0.023327425122261047,0.29481106996536255,-0.9685313105583191,-7.5922441482543945,4.1328125,0,F1,7.6,180,0,7.172259163137731,[6600|0|9100|0]
24699,0.7481926083564758,0.765023946762085,-0.02348417043685913,0.33837807178497314,-0.9358174204826355,-7.578750133514404,4.1328125,0,F1,7.6,180,0,7.1726909932155545,[6600|0|9200|0]
24799,0.7483655214309692,0.765062153339386,-0.02346097119152546,0.3405582308769226,-0.9548112154006958,-7.582647800445557,4.1328125,0,F1,7.6,180,0,7.1728695901888315,[6600|0|9300|0]
24899,0.747923731803894,0.7652629613876343,-0.02274860069155693,0.31459835171699524,-0.967846155166626,-7.585003852844238,4.1328125,0,F1,7.6,180,0,7.173731549396717,[6600|0|9400|0]
24999,0.7479174137115479,0.7638105750083923,-0.02303081564605236,0.33302196860313416,-0.9673399925231934,-7.582762241363525,4.13671875,0,F1,7.6,180,0,7.175211113992616,[6600|0|9500|0]
25099,0.748450756072998,0.763931930065155,-0.023065784946084023,0.3310043513774872,-0.9821221232414246,-7.558863162994385,4.13671875,0,F1,7.6,180,0,7.175759205204244,[6600|0|9600|0]
25199,0.7485312223434448,0.7641288638114929,-0.023425692692399025,0.3221836984157562,-0.9855928421020508,-7.548728942871094,4.13671875,0,F1,7.6,180,0,7.176177285707238,[6600|0|9700|0]
25299,0.7478882074356079,0.7638899683952332,-0.023400094360113144,0.3360898792743683,-0.97707599401474,-7.53476095199585,4.13671875,0,F1,7.6,180,0,7.176863721768519,[6600|0|9800|0]
25399,0.7477757930755615,0.7642806172370911,-0.02377050556242466,0.3262721300125122,-0.9804608225822449,-7.530689716339111,4.13671875,0,F1,7.6,180,0,7.177413674461746,[6600|0|9900|0]
25499,0.7479367852210999,0.7640417814254761,-0.023663202300667763,0.31565409898757935,-1.007419466972351,-7.522881984710693,4.13671875,0,F1,7.6,180,0,7.177721042328996,[6600|0|10000|0]
25599,0.7491034865379333,0.7653754949569702,-0.02283846028149128,0.2276141494512558,-1.048235535621643,-7.53154182434082,4.13671875,0,F1,7.6,180,0,7.179675571209567,[6600|0|10100|0]
25699,0.748932421207428,0.7651296257972717,-0.022805500775575638,0.2767374813556671,-1.00948965549469,-7.5670576095581055,4.13671875,0,F1,7.6,180,0,7.179976903783349,[6600|0|10200|0]
25799,0.7486518025398254,0.7653074264526367,-0.023270506411790848,0.3053760826587677,-0.9780610799789429,-7.562540531158447,4.13671875,0,F1,7.6,180,0,7.180548384449136,[6600|0|10300|0]
25899,0.7483171224594116,0.765418529510498,-0.023579441010951996,0.33030423521995544,-0.9608155488967896,-7.577206611633301,4.13671875,0,F1,7.6,180,0,7.181017207691148,[6600|0|10400|0]
25999,0.7481058239936829,0.7653306126594543,-0.02348797395825386,0.35321882367134094,-0.9445955753326416,-7.565524578094482,4.14453125,0,F1,7.6,180,0,7.18126366790304,[6600|0|10500|0]
26099,0.7482815980911255,0.7652180194854736,-0.023105964064598083,0.3649468421936035,-0.9511072039604187,-7.544408798217773,4.14453125,0,F1,7.6,180,0,7.181698989984963,[6600|0|10600|0]
26199,0.7485236525535583,0.7658185362815857,-0.021722134202718735,0.0005970762576907873,-1.139136791229248,-7.582338809967041,4.14453125,0,F1,7.6,180,0,7.183226797522523,[6600|0|10700|0]
26299,0.7480246424674988,0.7658252716064453,-0.022397467866539955,0.0917365625500679,-1.084957242012024,-7.589981555938721,4.14453125,0,F1,7.6,180,0,7.18406651889779,[6600|0|10800|0]
26399,0.7477128505706787,0.7661130428314209,-0.02257472276687622,0.12347119301557541,-1.060867428779602,-7.582201957702637,4.14453125,0,F1,7.6,180,0,7.18452635121999,[6600|0|10900|0]
26499,0.7478833794593811,0.7658395171165466,-0.022911693900823593,0.15995705127716064,-1.065488576889038,-7.579941272735596,4.14453125,0,F1,7.6,180,0,7.184992662236044,[6600|0|11000|0]
26599,0.7480671405792236,0.765839159488678,-0.022088676691055298,0.1715613603591919,-1.0596940517425537,-7.598408222198486,4.14453125,0,F1,7.6,180,0,7.185835944872316,[6600|0|11100|0]
26699,0.7484090924263,0.7655199766159058,-0.022218918427824974,0.18716533482074738,-1.0610322952270508,-7.581861972808838,4.14453125,0,F1,7.6,180,0,7.186321508134917,[6600|0|11200|0]
26799,0.7482066750526428,0.7654028534889221,-0.022434571757912636,0.20010092854499817,-1.0510823726654053,-7.5672454833984375,4.14453125,0,F1,7.6,180,0,7.186639622860779,[6600|0|11300|0]
26899,0.7480618953704834,0.7656214237213135,-0.022723820060491562,0.1827370822429657,-1.0553834438323975,-7.575447082519531,4.14453125,0,F1,7.6,180,0,7.187030005600406,[6600|0|11400|0]
26999,0.7480738759040833,0.7642067670822144,-0.023526977747678757,0.2488452047109604,-1.0335649251937866,-7.56682825088501,4.14453125,0,F1,7.6,180,0,7.188656799751557,[6600|0|11500|0]
27099,0.7483080625534058,0.7642530202865601,-0.023798245936632156,0.2868475019931793,-1.0167113542556763,-7.567600727081299,4.14453125,0,F1,7.6,180,0,7.189018143322098,[6600|0|11600|0]
27199,0.7482191324234009,0.7640945911407471,-0.02316400408744812,0.3216128349304199,-0.9945828318595886,-7.561535358428955,4.1484375,0,F1,7.6,180,0,7.189677894097408,[6600|0|11700|0]
27299,0.7482559084892273,0.7638838291168213,-0.02317037805914879,0.3447592854499817,-0.9837599992752075,-7.563068866729736,4.14453125,0,F1,7.6,180,0,7.189891935535598,[6600|0|11800|0]
27399,0.7481293082237244,0.7640895247459412,-0.02299601584672928,0.3344510495662689,-0.9872673749923706,-7.5796003341674805,4.1484375,0,F1,7.6,180,0,7.19018982897323,[6600|0|11900|0]
27499,0.7485294342041016,0.7655326128005981,-0.02338610589504242,0.23130933940410614,-1.0279574394226074,-7.590469837188721,4.1484375,0,F1,7.6,180,0,7.191737334766259,[6600|0|12000|0]
27599,0.7483847141265869,0.765120267868042,-0.02320273593068123,0.3184126317501068,-0.9944092035293579,-7.58237886428833,4.1484375,0,F1,7.6,180,0,7.192211251202005,[6600|0|12100|0]
27699,0.7480514645576477,0.7654246687889099,-0.022359298542141914,0.2762739658355713,-1.0093364715576172,-7.573242664337158,4.1484375,0,F1,7.6,180,0,7.193167860748377,[6600|0|12200|0]
27799,0.7480056881904602,0.7640455961227417,-0.023093843832612038,0.2552892863750458,-1.0093876123428345,-7.584540367126465,4.1484375,0,F1,7.6,180,0,7.194731028582654,[6600|0|12300|0]
27899,0.7481978535652161,0.7642626166343689,-0.022930223494768143,0.28386202454566956,-1.0124622583389282,-7.5508599281311035,4.1484375,0,F1,7.6,180,0,7.1950638904889725,[6600|0|12400|0]
27999,0.7483009099960327,0.7642232179641724,-0.02328009158372879,0.3265218734741211,-0.9949686527252197,-7.576287746429443,4.1484375,0,F1,7.6,180,0,7.195430742724646,[6600|0|12500|0]
28099,0.7483124136924744,0.76405268907547,-0.023094570264220238,0.3415921628475189,-0.9910083413124084,-7.585195541381836,4.1484375,0,F1,7.6,180,0,7.195682993783922,[6600|0|12600|0]
28199,0.7478386163711548,0.7638283967971802,-0.02305237017571926,0.3556482195854187,-0.9716099500656128,-7.577616214752197,4.1484375,0,F1,7.6,180,0,7.196208894701643,[6600|0|12700|0]
28299,0.7485677003860474,0.7639430165290833,-0.022979270666837692,0.32673636078834534,-0.9991992115974426,-7.594117164611816,4.1484375,0,F1,7.6,180,0,7.196950544701247,[6600|0|12800|0]
28399,0.7488906383514404,0.7657030820846558,-0.023103144019842148,0.21264450252056122,-1.0270752906799316,-7.577310085296631,4.1484375,0,F1,7.6,180,0,7.198744273860566,[6600|0|12900|0]
28499,0.7481765747070312,0.765526533126831,-0.023152031004428864,0.2838772237300873,-0.9707326889038086,-7.572166919708252,4.1484375,0,F1,7.6,180,0,7.199481462004826,[6600|0|13000|0]
28599,0.7481343746185303,0.7653856873512268,-0.023365022614598274,0.3273252844810486,-0.9472033381462097,-7.564899444580078,4.1484375,0,F1,7.6,180,0,7.199740274303563,[6600|0|13100|0]
28699,0.7482681274414062,0.7652312517166138,-0.022933410480618477,0.3584674000740051,-0.9415163397789001,-7.557872772216797,4.15234375,0,F1,7.6,180,0,7.20021779835224,[6600|0|13200|0]
28799,0.7485575675964355,0.764965295791626,-0.022977694869041443,0.3790352940559387,-0.9493387341499329,-7.567386627197266,4.1484375,0,A/E1,7.6,180,0,7.200613360312541,[6600|0|13200|0]
28899,0.748711884021759,0.7648227214813232,-0.022902837023139,0.3703674376010895,-1.27181077003479,-7.581996440887451,2.9921875,0,A/E1,7.6,180,0,7.200836395489533,[6600|0|13200|0]
28999,0.7502881288528442,0.7628792524337769,-0.01864873804152012,3.8780577182769775,-4.6068339347839355,-6.07223653793335,3.3984375,0,A/E1,7.6,180,0,7.2057718770113,[6600|0|13200|0]
29099,0.7601345181465149,0.7511863112449646,0.00692883413285017,11.41995906829834,-7.16005802154541,0.6061897873878479,3.42578125,0,A/E1,7.6,180,0,7.235569334186413,[6600|0|13200|0]
29199,0.780829906463623,0.7260990142822266,0.04815566539764404,1.2600362300872803,-2.050032377243042,3.9437193870544434,3.326171875,0,A/E1,7.6,180,0,7.288079553978642,[6600|0|13200|0]
29299,0.7977394461631775,0.7010923027992249,0.09852058440446854,-4.980733871459961,6.758069038391113,3.8168320655822754,3.341796875,0,A/E1,7.6,180,0,7.346798317748061,[6600|0|13200|0]
29399,0.8027689456939697,0.6842374205589294,0.1703832745552063,-8.398350715637207,8.242674827575684,2.2265312671661377,3.36328125,0,A/E1,7.6,180,0,7.420782296801404,[6600|0|13200|0]
29499,0.7921568155288696,0.6833149790763855,0.25094538927078247,-7.705714702606201,6.903800964355469,0.5367863774299622,3.3203125,0,A/E1,7.6,180,0,7.50204558822118,[6600|0|13200|0]
29599,0.7693560123443604,0.6954948902130127,0.3368264436721802,-4.70181131362915,3.6354897022247314,-0.42565444111824036,3.3828125,0,A/E1,7.6,180,0,7.591732724234383,[6600|0|13200|0]
29699,0.7401354312896729,0.7152390480041504,0.42647260427474976,-1.5636049509048462,-0.4663933515548706,-0.8404962420463562,3.3671875,0,A/E1,7.6,180,0,7.688066042638955,[6600|0|13200|0]
29799,0.7133294939994812,0.737129807472229,0.5181013345718384,1.7962934970855713,-3.2367308139801025,-0.527057409286499,3.310546875,0,A/E1,7.6,180,0,7.786012904967217,[6600|0|13200|0]
29899,0.6940650939941406,0.7557100057601929,0.6114976406097412,3.52824330329895,-5.22894811630249,-0.5051361918449402,3.3046875,0,A/E1,7.6,180,0,7.883168506234007,[6600|0|13200|0]
29999,0.683641791343689,0.7690859436988831,0.7057621479034424,3.7957499027252197,-5.336532115936279,-0.8655889630317688,3.404296875,0,A/E1,7.6,180,0,7.978946156493381,[6600|0|13200|0]
30099,0.6839598417282104,0.7756869196891785,0.8033340573310852,3.534274101257324,-4.129122257232666,-1.4415462017059326,3.419921875,0,A/E1,7.6,180,0,8.076741614207059,[6600|0|13200|0]
30199,0.6918938755989075,0.777249276638031,0.903132975101471,2.7422609329223633,-2.096330404281616,-2.011282444000244,3.3828125,0,A/E1,7.6,180,0,8.17686760404405,[6600|0|13200|0]
30299,0.7018421292304993,0.7757508158683777,1.0043326616287231,1.769692063331604,-0.3480822443962097,-2.1257364749908447,3.326171875,0,A/E1,7.6,180,0,8.27856612757419,[6600|0|13200|0]
30399,0.7147552371025085,0.7697503566741943,1.1139060258865356,1.6778759956359863,0.4565276801586151,-1.9050241708755493,3.357421875,0,A/E1,7.6,180,0,8.389060815320844,[6600|0|13200|0]
30499,0.7224717140197754,0.7630594372749329,1.2115691900253296,0.6326141357421875,1.8142913579940796,-1.910557508468628,3.419921875,0,A/E1,7.6,180,0,8.48725656903771,[6600|0|13200|0]
30599,0.7266684770584106,0.7543255686759949,1.3023124933242798,0.43472039699554443,1.0727983713150024,-2.1095705032348633,3.47265625,0,A/E1,7.6,180,0,8.57851576240644,[6600|0|13200|0]
30699,0.7289451956748962,0.7452447414398193,1.3755043745040894,-0.22526240348815918,1.1656962633132935,-1.9598546028137207,3.525390625,0,A/E1,7.6,180,0,8.65230394805693,[6600|0|13200|0]
30799,0.7301986813545227,0.7360998392105103,1.4326308965682983,-0.5036514401435852,0.8383753299713135,-1.7293866872787476,3.521484375,0,A/E1,7.6,180,0,8.710171382649154,[6600|0|13200|0]
30899,0.729171872138977,0.7278731465339661,1.468996286392212,-1.0218602418899536,0.7124341726303101,-1.693162202835083,3.53125,0,A/E1,7.6,180,0,8.747469832839538,[6600|0|13200|0]
30999,0.7275514006614685,0.7207853198051453,1.494391918182373,-1.0741188526153564,0.01874617673456669,-1.7610632181167603,3.447265625,0,A/E1,7.6,180,0,8.77388576230584,[6600|0|13200|0]
31099,0.7252907752990723,0.7143392562866211,1.506731629371643,-0.8635168075561523,-0.5710784196853638,-1.7583746910095215,3.357421875,0,A/E1,7.6,180,0,8.7879900394638,[6600|0|13200|0]
31199,0.7222452759742737,0.7085979580879211,1.5133957862854004,-1.2008652687072754,-0.6813815236091614,-0.7357162237167358,3.373046875,0,A/E1,7.6,180,0,8.797298560211745,[6600|0|13200|0]
31299,0.7212530970573425,0.7044493556022644,1.5190424919128418,-1.2289944887161255,-0.6012911796569824,-1.286006212234497,3.453125,0,A/E1,7.6,180,0,8.80437532543536,[6600|0|13200|0]
31399,0.7205299139022827,0.6981182098388672,1.5228819847106934,-1.052625298500061,-0.6639480590820312,-0.6490671038627625,3.419921875,0,A/E1,7.6,180,0,8.811814956172023,[6600|0|13200|0]
31499,0.720498263835907,0.6957223415374756,1.5259857177734375,-1.1516151428222656,-0.8083528280258179,1.8750174045562744,3.435546875,0,A/E1,7.6,180,0,8.815735969506493,[6600|0|13200|0]
31599,0.7199015617370605,0.6966859698295593,1.5273209810256958,-0.7162544131278992,-0.8751874566078186,-0.298953115940094,3.431640625,0,A/E1,7.6,180,0,8.81748741486188,[6600|0|13200|0]
31699,0.7208026647567749,0.6943519711494446,1.5237418413162231,-0.359975665807724,-0.168434739112854,-1.7412030696868896,3.388671875,0,A/E1,7.6,180,0,8.821854310504191,[6600|0|13200|0]
31799,0.7203027606010437,0.6910914182662964,1.5185341835021973,-0.3566766083240509,-0.0695352554321289,-2.3987958431243896,3.3671875,0,A/E1,7.6,180,0,8.828018790139708,[6600|0|13200|0]
31899,0.7202016711235046,0.6866085529327393,1.5084388256072998,-4.97944450378418,-4.91986608505249,-3.079477310180664,3.83203125,0,A/E1,7.6,180,143.69550287742476,8.839065171977548,[6600|0|13200|0]
31999,0.7153028249740601,0.6876428127288818,1.4515149593353271,-15.828797340393066,-15.908766746520996,-4.323625564575195,3.7578125,0,A/E1,7.6,180,143.69550287742476,8.896208806253567,[6600|0|13200|0]
32099,0.7320502400398254,0.7071110010147095,1.3723454475402832,-15.705589294433594,-15.145489692687988,-0.8174067735671997,3.431640625,0,A/E1,7.6,180,143.69550287742476,8.979439196522884,[6600|0|13200|0]
32199,0.7619943022727966,0.7476581931114197,1.2537001371383667,-14.223429679870605,-14.234209060668945,-0.8947156071662903,3.341796875,0,A/E1,7.6,180,143.69550287742476,9.108347812721751,[6600|0|13200|0]
32299,0.8095575571060181,0.811964750289917,1.1226747035980225,-9.063136100769043,-11.362115859985352,-1.346205234527588,3.26171875,0,A/E1,7.6,180,143.69550287742476,9.26185761938216,[6600|0|13200|0]
