time.ms,stateEstimate.x,stateEstimate.y,stateEstimate.z,stabilizer.roll,stabilizer.pitch,stabilizer.yaw,pm.vbat,drone_id,node_name,wind_speed,global_wind_direction,relative_wind_direction,travel_dist,waiting_time
0,0.8516508936882019,-0.7483497262001038,0.023328211158514023,0.31886231899261475,-0.17056532204151154,-0.31183549761772156,4.12890625,2,G1,7.6,180,0,0.15366169633289634,[100|0|0|0]
100,0.8518913388252258,-0.7480965852737427,0.023570111021399498,0.3065519630908966,-0.17936575412750244,-0.30645814538002014,4.12109375,2,G1,7.6,180,0,0.15408644300584554,[200|0|0|0]
200,0.8521251678466797,-0.747959315776825,0.023958779871463776,0.292951762676239,-0.18137051165103912,-0.29425162076950073,4.12890625,2,G1,7.6,180,0,0.15456034426251025,[300|0|0|0]
300,0.8519062399864197,-0.7487474083900452,0.023641716688871384,0.3101525604724884,-0.16618739068508148,-0.2830308675765991,4.12109375,2,G1,7.6,180,0,0.15543758336148264,[400|0|0|0]
400,0.8520097732543945,-0.7482982873916626,0.02359318919479847,0.2925833761692047,-0.1736277937889099,-0.2757246196269989,4.12109375,2,G1,7.6,180,0,0.1559010310138089,[500|0|0|0]
500,0.8518195748329163,-0.7479614019393921,0.023269763216376305,0.28313714265823364,-0.1673128455877304,-0.29089561104774475,4.12109375,2,G1,7.6,180,0,0.15640528453239122,[600|0|0|0]
600,0.8517571687698364,-0.7480828762054443,0.023301128298044205,0.2883019745349884,-0.16680534183979034,-0.28098857402801514,4.12890625,2,G1,7.6,180,0,0.15654540691593535,[700|0|0|0]
700,0.851934552192688,-0.7485545873641968,0.02327892556786537,0.29877719283103943,-0.16777931153774261,-0.2761509418487549,4.12890625,2,G1,7.6,180,0,0.15704985637546673,[800|0|0|0]
800,0.8518057465553284,-0.7483437657356262,0.023321492597460747,0.2909136712551117,-0.15656906366348267,-0.28578469157218933,4.12109375,2,G1,7.6,180,0,0.1573005526125692,[900|0|0|0]
900,0.8517560362815857,-0.7485314607620239,0.023488789796829224,0.30737027525901794,-0.15673482418060303,-0.2868017554283142,4.12890625,2,G1,7.6,180,0,0.15755685104636571,[1000|0|0|0]
1000,0.8519295454025269,-0.7482861280441284,0.023631777614355087,0.29604852199554443,-0.16712166368961334,-0.28249800205230713,4.12890625,2,G1,7.6,180,0,0.15788962585532904,[1100|0|0|0]
1100,0.8519958257675171,-0.748188853263855,0.023435689508914948,0.29425758123397827,-0.1696503609418869,-0.26873669028282166,4.12109375,2,G1,7.6,180,0,0.15811833093781646,[1200|0|0|0]
1200,0.8516950011253357,-0.7483862042427063,0.023267708718776703,0.30521196126937866,-0.16234540939331055,-0.2575472891330719,4.12890625,2,G1,7.6,180,0,0.1585153956933068,[1300|0|0|0]
1300,0.8515208959579468,-0.7479960918426514,0.023027025163173676,0.2998121678829193,-0.16048270463943481,-0.28412702679634094,4.12109375,2,G1,7.6,180,0,0.15900573115798977,[1400|0|0|0]
1400,0.8513469099998474,-0.7483062148094177,0.02328965999186039,0.32011035084724426,-0.16269126534461975,-0.2751862406730652,4.12109375,2,G1,7.6,180,0,0.15944779950267307,[1500|0|0|0]
1500,0.8517674207687378,-0.7485593557357788,0.02393508329987526,0.32887354493141174,-0.1817558854818344,-0.2846008241176605,4.12109375,2,G1,7.6,180,0,0.16025865145086127,[1600|0|0|0]
1600,0.8525215983390808,-0.7482413053512573,0.024528466165065765,0.3122884929180145,-0.20004169642925262,-0.2733689546585083,4.12109375,2,G1,7.6,180,0,0.16126961291372938,[1700|0|0|0]
1700,0.8521389365196228,-0.7483235597610474,0.02407114766538143,0.3092227876186371,-0.18362611532211304,-0.26240888237953186,4.12109375,2,G1,7.6,180,0,0.1618715564876251,[1800|0|0|0]
1800,0.8517993688583374,-0.7482340335845947,0.02327469177544117,0.30842486023902893,-0.16835203766822815,-0.2626104950904846,4.12109375,2,G1,7.6,180,0,0.16274199495040212,[1900|0|0|0]
1900,0.8514728546142578,-0.747745156288147,0.02261238917708397,0.30148956179618835,-0.16185151040554047,-0.29270291328430176,4.12109375,2,G1,7.6,180,0,0.16362757797551022,[2000|0|0|0]
2000,0.8515135645866394,-0.7481507062911987,0.022921929135918617,0.3169479966163635,-0.16916349530220032,-0.2907087504863739,4.12890625,2,G1,7.6,180,0,0.16413938173960535,[2100|0|0|0]
2100,0.8517782092094421,-0.7480406165122986,0.02339484542608261,0.3175140917301178,-0.17641617357730865,-0.28937333822250366,4.12109375,2,G1,7.6,180,0,0.16469237934656145,[2200|0|0|0]
2200,0.8524081110954285,-0.7485460042953491,0.024202799424529076,0.33155378699302673,-0.18783283233642578,-0.28022781014442444,4.12890625,2,G1,7.6,180,0,0.16583473781080615,[2300|0|0|0]
2300,0.8525824546813965,-0.7485865354537964,0.02439573034644127,0.3273985981941223,-0.17980650067329407,-0.2691560387611389,4.12109375,2,G1,7.6,180,0,0.1660979122803186,[2400|0|0|0]
2400,0.8518913984298706,-0.748537540435791,0.023527787998318672,0.3255196511745453,-0.15134917199611664,-0.27276360988616943,4.12109375,2,G1,7.6,180,0,0.16720844511379399,[2500|0|0|0]
2500,0.8516862392425537,-0.7479876279830933,0.022977478802204132,0.3070027828216553,-0.1446605771780014,-0.27536702156066895,4.12109375,2,G1,7.6,180,0,0.1680130159367181,[2600|0|0|0]
2600,0.8516280055046082,-0.7481818795204163,0.023251932114362717,0.32085105776786804,-0.14818993210792542,-0.26730188727378845,4.12109375,2,G1,7.6,180,0,0.1683542628393301,[2700|0|0|0]
2700,0.8514801859855652,-0.7482970952987671,0.023433838039636612,0.3275832533836365,-0.14669856429100037,-0.2756485641002655,4.12109375,2,G1,7.6,180,0,0.16861544295235717,[2800|0|0|0]
2800,0.8521232604980469,-0.7485368251800537,0.02409382164478302,0.33487996459007263,-0.16167764365673065,-0.27530011534690857,4.12109375,2,G1,7.6,180,0,0.16956759504296418,[2900|0|0|0]
2900,0.8522427082061768,-0.7486616373062134,0.02435997687280178,0.3334447741508484,-0.15245665609836578,-0.2604677975177765,4.12109375,2,G1,7.6,180,0,0.1698849031380637,[3000|0|0|0]
3000,0.8522635102272034,-0.7487266063690186,0.024306979030370712,0.32958129048347473,-0.14402654767036438,-0.23862700164318085,4.12109375,2,G1,7.6,180,0,0.16997128875320258,[3100|0|0|0]
3100,0.8520941138267517,-0.7487630248069763,0.023671304807066917,0.33158454298973083,-0.14025695621967316,-0.2424839287996292,4.12109375,2,G1,7.6,180,0,0.17063015380864424,[3200|0|0|0]
3200,0.8523563146591187,-0.748403012752533,0.023454327136278152,0.32338768243789673,-0.15646637976169586,-0.24197688698768616,4.12109375,2,G1,7.6,180,0,0.171125570063383,[3300|0|0|0]
3300,0.8517383933067322,-0.7483022212982178,0.023244736716151237,0.32111769914627075,-0.13713179528713226,-0.2633608281612396,4.12109375,2,G1,7.6,180,0,0.171785807792695,[3400|0|0|0]
3400,0.851471483707428,-0.7482836842536926,0.023252807557582855,0.3236570656299591,-0.13830305635929108,-0.27135586738586426,4.12109375,2,G1,7.6,180,0,0.17205348202511545,[3500|0|0|0]
3500,0.8521177768707275,-0.748354971408844,0.02376341074705124,0.3268105685710907,-0.1665627509355545,-0.2779373526573181,4.12109375,2,G1,7.6,180,0,0.17288021797359757,[3600|0|0|0]
3600,0.8524134159088135,-0.7484212517738342,0.024297934025526047,0.3297426104545593,-0.170224130153656,-0.28719404339790344,4.12109375,2,G1,7.6,180,0,0.17349463693721692,[3700|0|0|0]
3700,0.8522867560386658,-0.7486032843589783,0.02362739108502865,0.3267245888710022,-0.16047027707099915,-0.29452165961265564,4.12109375,2,G1,7.6,180,0,0.17420089922547174,[3800|0|0|0]
3800,0.8522171974182129,-0.7482237219810486,0.023686692118644714,0.3102610409259796,-0.1621069461107254,-0.29204168915748596,4.12109375,2,G1,7.6,180,0,0.17459131261280225,[3900|0|0|0]
3900,0.8515469431877136,-0.748197078704834,0.023324359208345413,0.3106421232223511,-0.14611130952835083,-0.2906453311443329,4.12109375,2,G1,7.6,180,0,0.1753537007918525,[4000|0|0|0]
4000,0.8512923121452332,-0.7481279969215393,0.022653866559267044,0.30687621235847473,-0.14610795676708221,-0.2949732840061188,4.12890625,2,G1,7.6,180,0,0.17607423507489947,[4100|0|0|0]
4100,0.8518033623695374,-0.7481295466423035,0.023574089631438255,0.310238778591156,-0.1768673211336136,-0.29629355669021606,4.12109375,2,G1,7.6,180,0,0.1771268438512034,[4200|0|0|0]
4200,0.8523033261299133,-0.748655378818512,0.023842573165893555,0.32249847054481506,-0.18932941555976868,-0.29587844014167786,4.12109375,2,G1,7.6,180,0,0.17790050181665004,[4300|0|0|0]
4300,0.8524988889694214,-0.7485164403915405,0.023976845666766167,0.3175245523452759,-0.18493840098381042,-0.30540430545806885,4.12109375,2,G1,7.6,180,0,0.17817541601267553,[4400|0|0|0]
4400,0.8523522615432739,-0.7484062910079956,0.023794829845428467,0.3168456554412842,-0.1708333045244217,-0.2772311866283417,4.12109375,2,G1,7.6,180,0,0.17843379992860528,[4500|0|0|0]
4500,0.7916969656944275,-0.7971811890602112,0.009081082418560982,0.21805620193481445,0.8985304236412048,0.06370068341493607,4.12109375,2,G1,7.6,180,0,0.25764585682562546,[4600|0|0|0]
4600,0.7906243801116943,-0.7970412373542786,0.009020213969051838,0.7258481383323669,0.5643913745880127,-0.0008872172911651433,4.12109375,2,G1,7.6,180,0,0.2587292456202999,[4700|0|0|0]
4700,0.7907882928848267,-0.7974701523780823,0.009364350698888302,1.04104483127594,0.14768511056900024,-0.07024330645799637,4.12109375,2,G1,7.6,180,0,0.25930306230153444,[4800|0|0|0]
4800,0.7913540601730347,-0.7983278036117554,0.009355914779007435,1.1785162687301636,-0.1352960616350174,-0.10424108058214188,4.12109375,2,G1,7.6,180,0,0.2603305492492722,[4900|0|0|0]
4900,0.7920548915863037,-0.7985900640487671,0.00956940557807684,1.0911692380905151,-0.26326456665992737,-0.15835027396678925,4.12109375,2,G1,7.6,180,0,0.2611087031723064,[5000|0|0|0]
5000,0.7915816307067871,-0.7987955808639526,0.008791516534984112,0.9908983707427979,-0.246796116232872,-0.1745472252368927,4.12109375,2,G1,7.6,180,0,0.26204215075239246,[5100|0|0|0]
5100,0.7913645505905151,-0.7983561754226685,0.008523333817720413,0.8627458810806274,-0.25169235467910767,-0.19193951785564423,4.12109375,2,G1,7.6,180,0,0.26260083034621146,[5200|0|0|0]
5200,0.7912752628326416,-0.7981060743331909,0.007935469038784504,0.7590218782424927,-0.2511150538921356,-0.2079286128282547,4.12109375,2,G1,7.6,180,0,0.26324589457322867,[5300|0|0|0]
5300,0.7916531562805176,-0.7985612750053406,0.00871860608458519,0.7037221193313599,-0.2632421851158142,-0.2411743402481079,4.12109375,2,G1,7.6,180,0,0.26422738056007644,[5400|0|0|0]
5400,0.7915133237838745,-0.7985890507698059,0.00870499387383461,0.6309112310409546,-0.24483062326908112,-0.252150297164917,4.12109375,2,G1,7.6,180,0,0.26437059338244434,[5500|0|0|0]
5500,0.7917600870132446,-0.7985547184944153,0.00882432796061039,0.5818606615066528,-0.24213731288909912,-0.270776629447937,4.12109375,2,G1,7.6,180,0,0.26464683860098986,[5600|0|0|0]
5600,0.7916854619979858,-0.7985050082206726,0.008840244263410568,0.5379961729049683,-0.2305811494588852,-0.28152450919151306,4.12109375,2,G1,7.6,180,0,0.26473790633903566,[5700|0|0|0]
5700,0.7916249632835388,-0.7985513806343079,0.008715517818927765,0.5002391934394836,-0.22392719984054565,-0.28789401054382324,4.12109375,2,G1,7.6,180,0,0.26488408151185727,[5800|0|0|0]
5800,0.7914993166923523,-0.7982240915298462,0.00857924111187458,0.45473599433898926,-0.20867298543453217,-0.28919294476509094,4.12109375,2,G1,7.6,180,0,0.2652602152176872,[5900|0|0|0]
5900,0.7914762496948242,-0.7983219623565674,0.008662747219204903,0.4329392910003662,-0.20368577539920807,-0.2972930073738098,4.12109375,2,G1,7.6,180,0,0.26539092120477087,[6000|0|0|0]
6000,0.7916582226753235,-0.7984603643417358,0.008565290831029415,0.4163389205932617,-0.204965278506279,-0.36051642894744873,4.12109375,2,G1,7.6,180,0,0.2656394509267893,[6100|0|0|0]
6100,0.7916229963302612,-0.798550546169281,0.008709288202226162,0.39734315872192383,-0.19291239976882935,-0.36269012093544006,4.12109375,2,G1,7.6,180,0,0.26581297009091076,[6200|0|0|0]
6200,0.7916099429130554,-0.7982674837112427,0.008402492851018906,0.37363919615745544,-0.1893376111984253,-0.3021831810474396,4.12109375,2,G1,7.6,180,0,0.26623060406267773,[6300|0|0|0]
6300,0.791647732257843,-0.7983449697494507,0.008979269303381443,0.3634986877441406,-0.18606282770633698,-0.3573235273361206,4.12109375,2,G1,7.6,180,0,0.2668137877358859,[6400|0|0|0]
6400,0.7915140986442566,-0.7982532382011414,0.00831978302448988,0.3515995442867279,-0.1737111657857895,-0.3716718554496765,4.12109375,2,G1,7.6,180,0,0.26749290096037914,[6500|0|0|0]
6500,0.7914431691169739,-0.7981512546539307,0.008276186883449554,0.34043821692466736,-0.166142538189888,-0.36614736914634705,4.12109375,2,G1,7.6,180,0,0.26762455302172206,[6600|0|0|0]
6600,0.791084885597229,-0.7979989647865295,0.008001916110515594,0.32718878984451294,-0.16179899871349335,-0.35677218437194824,4.12109375,2,G1,7.6,180,0,0.26810077118718784,[6700|0|0|0]
6700,0.7916800379753113,-0.7984617352485657,0.00849554780870676,0.3327944576740265,-0.175553098320961,-0.361247718334198,4.12109375,2,G1,7.6,180,0,0.269001901092989,[6800|0|0|0]
6800,0.7917620539665222,-0.7983518838882446,0.008977087214589119,0.32114288210868835,-0.17477092146873474,-0.3595314919948578,4.12109375,2,G1,7.6,180,0,0.2695025747827274,[6900|0|0|0]
6900,0.7919926643371582,-0.7986160516738892,0.009332566522061825,0.322010338306427,-0.17634786665439606,-0.35703369975090027,4.12109375,2,G1,7.6,180,0,0.2700019056350272,[7000|0|0|0]
7000,0.7915794253349304,-0.7983392477035522,0.008796360343694687,0.3130217492580414,-0.15878523886203766,-0.3492676615715027,4.12109375,2,G1,7.6,180,0,0.2707332769338047,[7100|0|0|0]
7100,0.7913329005241394,-0.7980445623397827,0.008420797064900398,0.3022744655609131,-0.14917093515396118,-0.3476172089576721,4.12109375,2,G1,7.6,180,0,0.2712705494180567,[7200|0|0|0]
7200,0.7912284135818481,-0.7981448173522949,0.008162794634699821,0.3092151880264282,-0.14603552222251892,-0.33012574911117554,4.12109375,2,G1,7.6,180,0,0.2715664106061713,[7300|0|0|0]
7301,0.7915635704994202,-0.7982966303825378,0.008824039250612259,0.3075982332229614,-0.1531769186258316,-0.3348926603794098,4.12109375,2,G1,7.6,180,0,0.27232312838554557,[7400|0|0|0]
7400,0.7918189764022827,-0.7985067367553711,0.009404106065630913,0.3165230453014374,-0.1530255377292633,-0.32742586731910706,4.12109375,2,G1,7.6,180,0,0.27299085166131787,[7500|0|0|0]
7500,0.7922177314758301,-0.7989354729652405,0.009759517386555672,0.32061800360679626,-0.16169345378875732,-0.3348694145679474,4.12109375,2,G1,7.6,180,0,0.27367578782869,[7600|0|0|0]
7601,0.7917750477790833,-0.7984116673469543,0.008580964989960194,0.3057611584663391,-0.1455647200345993,-0.3365683853626251,4.12109375,2,G1,7.6,180,0,0.27503935921759287,[7700|0|0|0]
7700,0.7905042171478271,-0.7974473237991333,0.006823434494435787,0.2874661087989807,-0.12486095726490021,-0.33505937457084656,4.12109375,2,G1,7.6,180,0,0.2774129393014032,[7800|0|0|0]
7800,0.7902801632881165,-0.7974331378936768,0.006194788031280041,0.2978843152523041,-0.12510772049427032,-0.3262813687324524,4.12109375,2,G1,7.6,180,0,0.27808047038502637,[7900|0|0|0]
7901,0.791274905204773,-0.7981584072113037,0.008132604882121086,0.3140034079551697,-0.162983700633049,-0.331013560295105,4.12109375,2,G1,7.6,180,0,0.280376262451231,[8000|0|0|0]
8001,0.7926355004310608,-0.7990795373916626,0.01044684462249279,0.3322069048881531,-0.195518359541893,-0.3291383385658264,4.12109375,2,G1,7.6,180,0,0.28321446712230053,[8100|0|0|0]
8100,0.7925801873207092,-0.7990352511405945,0.010802754200994968,0.3208960294723511,-0.18079549074172974,-0.3086511194705963,4.12109375,2,G1,7.6,180,0,0.2835773616528187,[8200|0|0|0]
8200,0.7915396094322205,-0.7981906533241272,0.009008601307868958,0.2956065237522125,-0.14569005370140076,-0.30674099922180176,4.12109375,2,G1,7.6,180,0,0.2858168107854193,[8300|0|0|0]
8301,0.7904852628707886,-0.7973105907440186,0.006451219320297241,0.280307412147522,-0.12154711782932281,-0.3187437653541565,4.12109375,2,G1,7.6,180,0,0.28871963000935785,[8400|0|0|0]
8400,0.7905064225196838,-0.7975130081176758,0.006621569395065308,0.2934965491294861,-0.13261623680591583,-0.34602636098861694,4.12109375,2,G1,7.6,180,0,0.28898503474155596,[8500|0|0|0]
8500,0.7912856936454773,-0.7981026768684387,0.008115479722619057,0.31398066878318787,-0.16245748102664948,-0.34540554881095886,4.12109375,2,G1,7.6,180,0,0.2907701792146711,[8600|0|0|0]
8600,0.7921516299247742,-0.7986443042755127,0.009630484506487846,0.3204108774662018,-0.17951011657714844,-0.34490129351615906,4.12109375,2,G1,7.6,180,0,0.2925973205291406,[8700|0|0|0]
8700,0.7921940088272095,-0.7989470958709717,0.010116363875567913,0.32304152846336365,-0.1749998778104782,-0.32505327463150024,4.12109375,2,G1,7.6,180,0,0.2931713915029321,[8800|0|0|0]
8800,0.7918376326560974,-0.7983846664428711,0.009377557784318924,0.30683228373527527,-0.16738583147525787,-0.3179413378238678,4.12109375,2,G1,7.6,180,0,0.2941659593876924,[8900|0|0|0]
8900,0.7910597324371338,-0.7977316379547119,0.007873719558119774,0.28917407989501953,-0.1440667361021042,-0.3313753008842468,4.12109375,2,G1,7.6,180,0,0.29598065064727047,[9000|0|0|0]
9000,0.7906535267829895,-0.7974517941474915,0.006895404774695635,0.2873722016811371,-0.14460742473602295,-0.34089410305023193,4.12109375,2,G1,7.6,180,0,0.29707628535161523,[9100|0|0|0]
9100,0.7910194993019104,-0.797856867313385,0.007747084833681583,0.3017284870147705,-0.17116476595401764,-0.3446997106075287,4.12109375,2,G1,7.6,180,0,0.2980879073547402,[9200|0|0|0]
9200,0.791325032711029,-0.798305332660675,0.008659617975354195,0.31191080808639526,-0.18423083424568176,-0.34807342290878296,4.12109375,2,G1,7.6,180,0,0.29914959872536473,[9300|0|0|0]
9300,0.7916767001152039,-0.79854416847229,0.00863970909267664,0.31395384669303894,-0.18750134110450745,-0.32533252239227295,4.12109375,2,G1,7.6,180,0,0.299575167605428,[9400|0|0|0]
9400,0.7915766835212708,-0.7983400821685791,0.009055760689079762,0.3086870610713959,-0.1773802787065506,-0.3367886245250702,4.12109375,2,G1,7.6,180,0,0.3000492493170495,[9500|0|0|0]
9500,0.791765570640564,-0.7984293699264526,0.009305722080171108,0.31768956780433655,-0.17421747744083405,-0.34420764446258545,4.12109375,2,G1,7.6,180,0,0.3003750273773564,[9600|0|0|0]
9600,0.791425347328186,-0.7980366945266724,0.008534349501132965,0.3091829717159271,-0.16025112569332123,-0.34426185488700867,4.12109375,2,G1,7.6,180,0,0.3013050604561068,[9700|0|0|0]
9700,0.7913963794708252,-0.7980760335922241,0.008216943591833115,0.30851271748542786,-0.16069495677947998,-0.35802310705184937,4.12109375,2,G1,7.6,180,0,0.3016262040534227,[9800|0|0|0]
9800,0.7912426590919495,-0.7979158759117126,0.007901891134679317,0.30747196078300476,-0.1608029156923294,-0.33739757537841797,4.12109375,2,G1,7.6,180,0,0.30201161096600626,[9900|0|0|0]
9900,0.7910081744194031,-0.7976468205451965,0.007453339174389839,0.3061523735523224,-0.157178595662117,-0.33394157886505127,4.12109375,2,G1,7.6,180,0,0.3025848235905967,[10000|0|0|0]
10000,0.7913594245910645,-0.7981193661689758,0.008332937955856323,0.3132096827030182,-0.1681177169084549,-0.36365512013435364,4.12109375,2,G1,7.6,180,0,0.3036432989403344,[10100|0|0|0]
10100,0.7918238043785095,-0.7986726760864258,0.009357109665870667,0.32281216979026794,-0.1801186352968216,-0.352905809879303,4.12109375,2,G1,7.6,180,0,0.30489658587608764,[10200|0|0|0]
10200,0.7925450801849365,-0.7989532351493835,0.010073099285364151,0.3250824809074402,-0.19405609369277954,-0.34098783135414124,4.12109375,2,G1,7.6,180,0,0.3059509071326158,[10300|0|0|0]
10300,0.7917802333831787,-0.7986387610435486,0.008702300488948822,0.30711808800697327,-0.17049036920070648,-0.33607223629951477,4.12109375,2,G1,7.6,180,0,0.30755183621713317,[10400|0|0|0]
10400,0.7909700274467468,-0.7976556420326233,0.007228055503219366,0.280683696269989,-0.15214598178863525,-0.3576163649559021,4.12109375,2,G1,7.6,180,0,0.3095002599202893,[10500|0|0|0]
10500,0.790492057800293,-0.7975009679794312,0.006702982820570469,0.28028643131256104,-0.1451098769903183,-0.3616962730884552,4.12109375,2,G1,7.6,180,0,0.31022695130439,[10600|0|0|0]
10600,0.7910120487213135,-0.7978540658950806,0.007499100640416145,0.29320287704467773,-0.16204792261123657,-0.35667872428894043,4.12109375,2,G1,7.6,180,0,0.31124128472050894,[10700|0|0|0]
10700,0.7919676899909973,-0.7985653877258301,0.00916687399148941,0.3087043762207031,-0.18467923998832703,-0.3518109917640686,4.12109375,2,G1,7.6,180,0,0.3132908449010779,[10800|0|0|0]
10800,0.7922102808952332,-0.7989881634712219,0.00982748530805111,0.3186567723751068,-0.18466949462890625,-0.35073456168174744,4.12109375,2,G1,7.6,180,0,0.3141118180975216,[10900|0|0|0]
10900,0.7917546033859253,-0.7985695600509644,0.009123455733060837,0.309406578540802,-0.16348661482334137,-0.33868759870529175,4.12109375,2,G1,7.6,180,0,0.3150491165870122,[11000|0|0|0]
11000,0.7915090918540955,-0.7981473207473755,0.007995476946234703,0.30003270506858826,-0.15694089233875275,-0.3397950828075409,4.12109375,2,G1,7.6,180,0,0.3162783025311583,[11100|0|0|0]
11100,0.7908214926719666,-0.7978774905204773,0.007286635227501392,0.2964710295200348,-0.1356552541255951,-0.34088370203971863,4.12109375,2,G1,7.6,180,0,0.31730204935964135,[11200|0|0|0]
11200,0.7911320924758911,-0.7979170083999634,0.0074330540373921394,0.29879844188690186,-0.14945711195468903,-0.35138389468193054,4.12109375,2,G1,7.6,180,0,0.317647697112255,[11300|0|0|0]
11300,0.7917616367340088,-0.798445999622345,0.008843937888741493,0.31183120608329773,-0.16231495141983032,-0.34500330686569214,4.12109375,2,G1,7.6,180,0,0.3192807160736526,[11400|0|0|0]
11400,0.7920100688934326,-0.798551619052887,0.009373923763632774,0.3120701014995575,-0.16682802140712738,-0.3558402955532074,4.12109375,2,G1,7.6,180,0,0.3198754925270603,[11500|0|0|0]
11500,0.7918532490730286,-0.7985597848892212,0.009004220366477966,0.304031103849411,-0.1621515154838562,-0.3493967056274414,4.12109375,2,G1,7.6,180,0,0.3202771637095248,[11600|0|0|0]
11600,0.7916910648345947,-0.7983571290969849,0.008768923580646515,0.2961747348308563,-0.15672188997268677,-0.340179443359375,4.12109375,2,G1,7.6,180,0,0.3206275030803439,[11700|0|0|0]
11700,0.7912036180496216,-0.7980847954750061,0.008141554892063141,0.28697705268859863,-0.14242222905158997,-0.3335144817829132,4.12109375,2,G1,7.6,180,0,0.32146736106908697,[11800|0|0|0]
11800,0.7913063764572144,-0.7982192635536194,0.007944638840854168,0.29705923795700073,-0.14708706736564636,-0.3309720456600189,4.12109375,2,G1,7.6,180,0,0.32172700868744825,[11900|0|0|0]
11900,0.791327714920044,-0.7980126738548279,0.007858805358409882,0.291976660490036,-0.1460859775543213,-0.3569469451904297,4.12109375,2,G1,7.6,180,0,0.32195173523316817,[12000|0|0|0]
12000,0.7915332317352295,-0.7983367443084717,0.008593403734266758,0.30490484833717346,-0.15031924843788147,-0.3794962465763092,4.12109375,2,G1,7.6,180,0,0.32278052567354526,[12100|0|0|0]
12100,0.7916699051856995,-0.7984803915023804,0.00876530259847641,0.3092372715473175,-0.15177014470100403,-0.3657630383968353,4.12109375,2,G1,7.6,180,0,0.3230429439806387,[12200|0|0|0]
12200,0.7916606664657593,-0.798417866230011,0.008691832423210144,0.3086642026901245,-0.15138572454452515,-0.3907325863838196,4.12109375,2,G1,7.6,180,0,0.3231398595639298,[12300|0|0|0]
12300,0.7916843891143799,-0.7985184192657471,0.008722614496946335,0.3154537081718445,-0.1489761620759964,-0.3574679493904114,4.12109375,2,G1,7.6,180,0,0.32324766129451343,[12400|0|0|0]
12400,0.7914817333221436,-0.7982356548309326,0.007724481634795666,0.31167951226234436,-0.1486799120903015,-0.36669737100601196,4.12109375,2,G1,7.6,180,0,0.32430468272581364,[12500|0|0|0]
12500,0.791299045085907,-0.7980844378471375,0.007972300983965397,0.3103523552417755,-0.14988352358341217,-0.3561875522136688,4.12109375,2,G1,7.6,180,0,0.32464769292634743,[12600|0|0|0]
12600,0.7912435531616211,-0.7980125546455383,0.007909047417342663,0.311678409576416,-0.14259251952171326,-0.3536830246448517,4.12109375,2,G1,7.6,180,0,0.3247583616302505,[12700|0|0|0]
12700,0.7917386889457703,-0.7984248995780945,0.008719614706933498,0.3222121596336365,-0.1601891815662384,-0.34602490067481995,4.12109375,2,G1,7.6,180,0,0.32579383597522693,[12800|0|0|0]
12800,0.7916983366012573,-0.7983416318893433,0.008954464457929134,0.3164968192577362,-0.15553544461727142,-0.3475967049598694,4.12109375,2,G1,7.6,180,0,0.3260462567058343,[12900|0|0|0]
12900,0.7917504906654358,-0.7983237504959106,0.00901187863200903,0.3163272440433502,-0.16372689604759216,-0.34119465947151184,4.12109375,2,G1,7.6,180,0,0.32612585681906725,[13000|0|0|0]
13000,0.7911742925643921,-0.7981258630752563,0.008260812610387802,0.31727758049964905,-0.1515331268310547,-0.3546893894672394,4.12109375,2,G1,7.6,180,0,0.32709294722421745,[13100|0|0|0]
13100,0.7911278605461121,-0.7979445457458496,0.007728488650172949,0.31437283754348755,-0.1551676243543625,-0.3458583354949951,4.12109375,2,G1,7.6,180,0,0.3276572172880021,[13200|0|0|0]
13200,0.7914800643920898,-0.798277735710144,0.008101783692836761,0.3227568566799164,-0.16817612946033478,-0.35098448395729065,4.12109375,2,G1,7.6,180,0,0.3282691096725808,[13300|0|0|0]
13300,0.7913572788238525,-0.7983987927436829,0.00848518218845129,0.32368069887161255,-0.15872177481651306,-0.340278685092926,4.12109375,2,G1,7.6,180,0,0.32868949700299893,[13400|0|0|0]
13400,0.792004406452179,-0.7987748384475708,0.009217791259288788,0.3228316605091095,-0.17310766875743866,-0.3455769419670105,4.12109375,2,G1,7.6,180,0,0.32973682722285763,[13500|0|0|0]
13500,0.7918097972869873,-0.7985898852348328,0.009271450340747833,0.31882861256599426,-0.16299395263195038,-0.33766546845436096,4.12109375,2,G1,7.6,180,0,0.33001061494190603,[13600|0|0|0]
13600,0.7914640307426453,-0.7980719804763794,0.008220596238970757,0.30842888355255127,-0.15370938181877136,-0.3540884256362915,4.12109375,2,G1,7.6,180,0,0.33123211982737993,[13700|0|0|0]
13700,0.7915080189704895,-0.7982271909713745,0.00837620347738266,0.3138255774974823,-0.15238992869853973,-0.35614776611328125,4.12109375,2,G1,7.6,180,0,0.33145626012851226,[13800|0|0|0]
13800,0.7913994193077087,-0.7981173396110535,0.00825758557766676,0.3098354935646057,-0.14287684857845306,-0.3502563238143921,4.12109375,2,G1,7.6,180,0,0.33165102001723035,[13900|0|0|0]
13900,0.791529655456543,-0.7983099222183228,0.008534948341548443,0.3175324499607086,-0.15266592800617218,-0.3520644009113312,4.12109375,2,G1,7.6,180,0,0.3320129310807168,[14000|0|0|0]
14000,0.791527509689331,-0.7982379198074341,0.008720285259187222,0.3138154447078705,-0.14743836224079132,-0.351705938577652,4.12109375,2,G1,7.6,180,0,0.33221177454812406,[14100|0|0|0]
14100,0.7915753722190857,-0.7984988689422607,0.008670160546898842,0.31891846656799316,-0.1436799168586731,-0.36388078331947327,4.12109375,2,G1,7.6,180,0,0.3324817703990242,[14200|0|0|0]
14200,0.7917477488517761,-0.7984336018562317,0.008613033220171928,0.3167128562927246,-0.1481257975101471,-0.37787893414497375,4.12109375,2,G1,7.6,180,0,0.33267473937962827,[14300|0|0|0]
14300,0.7915357947349548,-0.7983822226524353,0.008645751513540745,0.32308387756347656,-0.1468491107225418,-0.36351099610328674,4.12109375,2,G1,7.6,180,0,0.3328952724994566,[14400|0|0|0]
14400,0.7919046878814697,-0.7985581159591675,0.008576123975217342,0.3254583477973938,-0.1633884608745575,-0.37675440311431885,4.12109375,2,G1,7.6,180,0,0.33330984288309706,[14500|0|0|0]
14500,0.7912602424621582,-0.7980064153671265,0.00840989500284195,0.30761516094207764,-0.14888231456279755,-0.3797174394130707,4.12109375,2,G1,7.6,180,0,0.3341743170082084,[14600|0|0|0]
14600,0.7912890315055847,-0.798012912273407,0.008292718790471554,0.30936577916145325,-0.15875455737113953,-0.371196985244751,4.12109375,2,G1,7.6,180,0,0.33429515277922883,[14700|0|0|0]
14700,0.7911354899406433,-0.7980366349220276,0.008143259212374687,0.3168105185031891,-0.15290483832359314,-0.3685274124145508,4.12109375,2,G1,7.6,180,0,0.3345107355747092,[14800|0|0|0]
14800,0.7916772961616516,-0.7986342906951904,0.00840049609541893,0.3320300877094269,-0.17266951501369476,-0.35924631357192993,4.12109375,2,G1,7.6,180,0,0.33535744521698124,[14900|0|0|0]
14900,0.7915371060371399,-0.7984172701835632,0.008527363650500774,0.3226321339607239,-0.17079222202301025,-0.36992084980010986,4.12109375,2,G1,7.6,180,0,0.3356452759832485,[15000|0|0|0]
15000,0.7914653420448303,-0.7983659505844116,0.008442331105470657,0.3214839994907379,-0.17024265229701996,-0.3545309901237488,4.12109375,2,G1,7.6,180,0,0.33576780885868845,[15100|0|0|0]
15100,0.791335940361023,-0.7979888319969177,0.008156191557645798,0.3145025670528412,-0.16429956257343292,-0.33619487285614014,4.12109375,2,G1,7.6,180,0,0.33625856242784,[15200|0|0|0]
15200,0.7912137508392334,-0.7982063293457031,0.008068968541920185,0.32077518105506897,-0.16704322397708893,-0.3282797038555145,4.12109375,2,G1,7.6,180,0,0.33652284112625536,[15300|0|0|0]
15300,0.7914735078811646,-0.7982102632522583,0.008338171988725662,0.3233209550380707,-0.17860203981399536,-0.33387458324432373,4.12109375,2,G1,7.6,180,0,0.3368969529975259,[15400|0|0|0]
15400,0.7915345430374146,-0.7982943058013916,0.008685125969350338,0.3230859041213989,-0.17773206532001495,-0.33535870909690857,4.12109375,2,G1,7.6,180,0,0.3372591207832753,[15500|0|0|0]
15500,0.7918398976325989,-0.7984427809715271,0.009043054655194283,0.32604730129241943,-0.17789410054683685,-0.3327274024486542,4.12109375,2,G1,7.6,180,0,0.3377524758776008,[15600|0|0|0]
15600,0.7915167212486267,-0.7982695698738098,0.008581871166825294,0.3215068578720093,-0.16544422507286072,-0.3365152180194855,4.12109375,2,G1,7.6,180,0,0.33834165774211633,[15700|0|0|0]
15700,0.7911531925201416,-0.7981957197189331,0.008016147650778294,0.3246784210205078,-0.15851441025733948,-0.35006922483444214,4.12109375,2,G1,7.6,180,0,0.3390181561371018,[15800|0|0|0]
15800,0.7915531396865845,-0.7984787225723267,0.008297712542116642,0.33565396070480347,-0.17023612558841705,-0.35164058208465576,4.12109375,2,G1,7.6,180,0,0.3395832465183763,[15900|0|0|0]
15900,0.791546642780304,-0.7984768152236938,0.008430825546383858,0.33316928148269653,-0.17373180389404297,-0.35738319158554077,4.12109375,2,G1,7.6,180,0,0.3397165316251027,[16000|0|0|0]
16000,0.7916043996810913,-0.7984142303466797,0.008818351663649082,0.3325310945510864,-0.17332550883293152,-0.3531709313392639,4.12109375,2,G1,7.6,180,0,0.34011330513478055,[16100|0|0|0]
16100,0.7916485667228699,-0.798337459564209,0.00861644372344017,0.32673048973083496,-0.17637701332569122,-0.3658556640148163,4.12109375,2,G1,7.6,180,0,0.3403337848321226,[16200|0|0|0]
16200,0.7915165424346924,-0.7982233762741089,0.008753474801778793,0.3205641508102417,-0.1682191789150238,-0.36189544200897217,4.12109375,2,G1,7.6,180,0,0.3405556472358315,[16300|0|0|0]
16300,0.7914588451385498,-0.7982320189476013,0.008471322245895863,0.3200685679912567,-0.16041044890880585,-0.3651542067527771,4.12109375,2,G1,7.6,180,0,0.3408437682843138,[16400|0|0|0]
16400,0.7914896607398987,-0.7982232570648193,0.008303632028400898,0.31601929664611816,-0.16659337282180786,-0.38333508372306824,4.12109375,2,G1,7.6,180,0,0.3410144913961642,[16500|0|0|0]
16500,0.7917390465736389,-0.7985109686851501,0.008413776755332947,0.31933465600013733,-0.1709596961736679,-0.3795884847640991,4.12109375,2,G1,7.6,180,0,0.3414108537700276,[16600|0|0|0]
16600,0.7918400168418884,-0.7987558245658875,0.008824779652059078,0.32092520594596863,-0.16862492263317108,-0.38450735807418823,4.12109375,2,G1,7.6,180,0,0.34189980446132406,[16700|0|0|0]
16700,0.7917991280555725,-0.7986733317375183,0.008527337573468685,0.313608855009079,-0.17116296291351318,-0.37442746758461,4.12109375,2,G1,7.6,180,0,0.342211170403095,[16800|0|0|0]
16800,0.791225016117096,-0.7980958223342896,0.007895734161138535,0.2965061664581299,-0.15879251062870026,-0.37411293387413025,4.12109375,2,G1,7.6,180,0,0.3432417258354644,[16900|0|0|0]
16900,0.7913815975189209,-0.7983077764511108,0.00850012805312872,0.30437028408050537,-0.1647171527147293,-0.3645511865615845,4.12109375,2,G1,7.6,180,0,0.3439010696454073,[17000|0|0|0]
17000,0.7916502952575684,-0.79847252368927,0.008466728031635284,0.3099706172943115,-0.16824987530708313,-0.34531012177467346,4.12109375,2,G1,7.6,180,0,0.34421801709952404,[17100|0|0|0]
17100,0.7919149994850159,-0.7983298301696777,0.008478786796331406,0.30207547545433044,-0.18271826207637787,-0.3345174491405487,4.12109375,2,G1,7.6,180,0,0.34451897421003685,[17200|0|0|0]
17200,0.7914730906486511,-0.7984336018562317,0.008317524567246437,0.30596861243247986,-0.1673564612865448,-0.34119775891304016,4.12109375,2,G1,7.6,180,0,0.3450006976671333,[17300|0|0|0]
17300,0.7913758158683777,-0.7981017231941223,0.008350579999387264,0.29502663016319275,-0.1638982743024826,-0.33948221802711487,4.12109375,2,G1,7.6,180,0,0.34534811455048064,[17400|0|0|0]
17400,0.7914154529571533,-0.7982537746429443,0.008445145562291145,0.2995167672634125,-0.16528549790382385,-0.34048205614089966,4.12109375,2,G1,7.6,180,0,0.34553150862776455,[17500|0|0|0]
17500,0.7913110256195068,-0.7982537150382996,0.008120564743876457,0.30238863825798035,-0.16311542689800262,-0.3445938229560852,4.12109375,2,G1,7.6,180,0,0.3458724745792662,[17600|0|0|0]
17600,0.7915837168693542,-0.7983242869377136,0.008435560390353203,0.30332353711128235,-0.16515904664993286,-0.35259586572647095,4.12109375,2,G1,7.6,180,0,0.3462950419325124,[17700|0|0|0]
17700,0.7916721701622009,-0.7983841300010681,0.008807738311588764,0.30414026975631714,-0.16248084604740143,-0.34140804409980774,4.12109375,2,G1,7.6,180,0,0.346682239017086,[17800|0|0|0]
17800,0.7914126515388489,-0.7981480360031128,0.008254396729171276,0.3004690110683441,-0.15038160979747772,-0.36213141679763794,4.12109375,2,G1,7.6,180,0,0.3473374315067937,[17900|0|0|0]
17900,0.791289210319519,-0.7981553673744202,0.008155150339007378,0.30455976724624634,-0.14581601321697235,-0.37766438722610474,4.12109375,2,G1,7.6,180,0,0.34749599168336853,[18000|0|0|0]
18000,0.7914592623710632,-0.7983663082122803,0.00871618278324604,0.30849263072013855,-0.15151900053024292,-0.370196133852005,4.12109375,2,G1,7.6,180,0,0.34811902550331725,[18100|0|0|0]
18100,0.791349470615387,-0.7982953190803528,0.008519954979419708,0.3104165494441986,-0.14751553535461426,-0.3556448519229889,4.12109375,2,G1,7.6,180,0,0.34835481998472173,[18200|0|0|0]
18200,0.7915136814117432,-0.7983169555664062,0.008698650635778904,0.3133167624473572,-0.1549828201532364,-0.36414721608161926,4.12109375,2,G1,7.6,180,0,0.3485984702684694,[18300|0|0|0]
18300,0.791283130645752,-0.7982361912727356,0.008598324842751026,0.31488698720932007,-0.15001468360424042,-0.3579830527305603,4.12109375,2,G1,7.6,180,0,0.3488625569807022,[18400|0|0|0]
18400,0.7913990616798401,-0.7982989549636841,0.008476887829601765,0.3145603537559509,-0.15307378768920898,-0.34810513257980347,4.12109375,2,G1,7.6,180,0,0.34904179490562,[18500|0|0|0]
18500,0.7915432453155518,-0.7982866168022156,0.008711694739758968,0.3138760030269623,-0.15843601524829865,-0.34590083360671997,4.12109375,2,G1,7.6,180,0,0.3493176126644627,[18600|0|0|0]
18600,0.7917193174362183,-0.7986428141593933,0.00897402223199606,0.3234778940677643,-0.16077649593353271,-0.3496132791042328,4.12109375,2,G1,7.6,180,0,0.3497937362430847,[18700|0|0|0]
18700,0.7915951609611511,-0.7983666658401489,0.008693943731486797,0.31597718596458435,-0.15828511118888855,-0.3595029413700104,4.12109375,2,G1,7.6,180,0,0.35020618828995814,[18800|0|0|0]
18800,0.7913476824760437,-0.7983162999153137,0.008589610457420349,0.31815510988235474,-0.14514657855033875,-0.33761245012283325,4.12109375,2,G1,7.6,180,0,0.3504794423092387,[18900|0|0|0]
18900,0.791393518447876,-0.7982673645019531,0.007576614152640104,0.3193051218986511,-0.1526818871498108,-0.33766672015190125,4.12109375,2,G1,7.6,180,0,0.35149465515612993,[19000|0|0|0]
19000,0.7912021279335022,-0.7982964515686035,0.007805073168128729,0.3202913701534271,-0.14847148954868317,-0.34744852781295776,4.12109375,2,G1,7.6,180,0,0.3517941044977499,[19100|0|0|0]
19100,0.7916297316551208,-0.7986477017402649,0.008444725535809994,0.3320963680744171,-0.161640003323555,-0.3219098150730133,4.12109375,2,G1,7.6,180,0,0.3526399039877678,[19200|0|0|0]
19200,0.7921465039253235,-0.7987773418426514,0.009056918323040009,0.32947781682014465,-0.1687302142381668,-0.3157716691493988,4.12109375,2,G1,7.6,180,0,0.3534514704632543,[19300|0|0|0]
19300,0.792043924331665,-0.7988595366477966,0.009044674225151539,0.3267976641654968,-0.15643805265426636,-0.31127676367759705,4.12109375,2,G1,7.6,180,0,0.3535834874203511,[19400|0|0|0]
19400,0.7916831374168396,-0.7984692454338074,0.008459527976810932,0.31906259059906006,-0.1449672132730484,-0.30505043268203735,4.12109375,2,G1,7.6,180,0,0.35437398761742483,[19500|0|0|0]
19500,0.7912836074829102,-0.7983588576316833,0.0078969057649374,0.3172285854816437,-0.138925701379776,-0.3130298852920532,4.12109375,2,G1,7.6,180,0,0.355072810476422,[19600|0|0|0]
19600,0.7913180589675903,-0.7982434630393982,0.007949731312692165,0.3107684850692749,-0.1506684422492981,-0.3223162591457367,4.12109375,2,G1,7.6,180,0,0.3552043146787157,[19700|0|0|0]
19700,0.7916933298110962,-0.798511266708374,0.008653522469103336,0.3186216354370117,-0.16320006549358368,-0.31844598054885864,4.12109375,2,G1,7.6,180,0,0.356045664191668,[19800|0|0|0]
19800,0.7915381789207458,-0.7985246181488037,0.008597481995821,0.31858739256858826,-0.16645245254039764,-0.3259851038455963,4.12109375,2,G1,7.6,180,0,0.35621116523209906,[19900|0|0|0]
19900,0.7917990684509277,-0.7987121343612671,0.008821760304272175,0.32173430919647217,-0.17171107232570648,-0.33780351281166077,4.12109375,2,G1,7.6,180,0,0.3566029897292108,[20000|0|0|0]
20000,0.791472315788269,-0.7985547184944153,0.008567756973206997,0.3159879446029663,-0.16091857850551605,-0.35769352316856384,4.12109375,2,G1,7.6,180,0,0.35704578172313506,[20100|0|0|0]
20100,0.7913070917129517,-0.7983194589614868,0.008177070878446102,0.3088536858558655,-0.15544483065605164,-0.34213969111442566,4.12109375,2,G1,7.6,180,0,0.357530840139759,[20200|0|0|0]
20200,0.7914227843284607,-0.7982505559921265,0.008178911171853542,0.3085389733314514,-0.1674167513847351,-0.3213542699813843,4.12109375,2,G1,7.6,180,0,0.357665509316447,[20300|0|0|0]
20300,0.792004406452179,-0.7983279824256897,0.008734199218451977,0.30926546454429626,-0.1873125582933426,-0.3313257098197937,4.12109375,2,G1,7.6,180,0,0.3584733607644917,[20400|0|0|0]
20400,0.7916871905326843,-0.7984139323234558,0.008595268242061138,0.31785985827445984,-0.17494194209575653,-0.3214198350906372,4.12109375,2,G1,7.6,180,0,0.3588301732372386,[20500|0|0|0]
20500,0.7916734218597412,-0.7985848784446716,0.008478563278913498,0.3229639530181885,-0.17280186712741852,-0.32576537132263184,4.12109375,2,G1,7.6,180,0,0.3590376152800762,[20600|0|0|0]
20600,0.7915924191474915,-0.7986080050468445,0.008748459629714489,0.31812793016433716,-0.16340219974517822,-0.3442440330982208,4.12109375,2,G1,7.6,180,0,0.3593203524712902,[20700|0|0|0]
20700,0.791968584060669,-0.7985875010490417,0.008840268477797508,0.3141773045063019,-0.17383651435375214,-0.361374169588089,4.12109375,2,G1,7.6,180,0,0.35970810151438126,[20800|0|0|0]
20800,0.7915276885032654,-0.7983943819999695,0.00828113779425621,0.30521148443222046,-0.1595650613307953,-0.35610929131507874,4.1171875,2,G1,7.6,180,0,0.3604458758572058,[20900|0|0|0]
20900,0.7913627624511719,-0.798264741897583,0.008051039651036263,0.2996727228164673,-0.15238171815872192,-0.34900107979774475,4.12109375,2,G1,7.6,180,0,0.3607572475230959,[21000|0|0|0]
21000,0.7913018465042114,-0.7980620265007019,0.008050183765590191,0.298755407333374,-0.15239888429641724,-0.3549293279647827,4.12109375,2,G1,7.6,180,0,0.3609689194798277,[21100|0|0|0]
21100,0.7912588119506836,-0.798294723033905,0.007997266948223114,0.30599719285964966,-0.1567406952381134,-0.3412090837955475,4.12109375,2,G1,7.6,180,0,0.3612114062607506,[21200|0|0|0]
21200,0.791702926158905,-0.7985103726387024,0.00859566405415535,0.3075062334537506,-0.17684414982795715,-0.3399411141872406,4.12109375,2,G1,7.6,180,0,0.36198717766933786,[21300|0|0|0]
21300,0.7917043566703796,-0.7982180714607239,0.009111262857913971,0.3039194941520691,-0.17535530030727386,-0.2934621572494507,4.12109375,2,G1,7.6,180,0,0.3625798699600318,[21400|0|0|0]
21400,0.7916603088378906,-0.798149585723877,0.009061780758202076,0.301203191280365,-0.167389914393425,-0.2915937602519989,4.12109375,2,G1,7.6,180,0,0.3626751536726502,[21500|0|0|0]
21500,0.7913936972618103,-0.7982587814331055,0.008239632472395897,0.2945156991481781,-0.16171182692050934,-0.355933278799057,4.12109375,2,G1,7.6,180,0,0.36354632141727117,[21600|0|0|0]
21600,0.7910535931587219,-0.7977448105812073,0.007784195709973574,0.2850187122821808,-0.14742662012577057,-0.30467742681503296,4.12109375,2,G1,7.6,180,0,0.36431264999047214,[21700|0|0|0]
21700,0.7910669445991516,-0.7978066205978394,0.008075864985585213,0.2881332039833069,-0.1494789570569992,-0.3156764805316925,4.12109375,2,G1,7.6,180,0,0.36461109547201515,[21800|0|0|0]
21800,0.7916954159736633,-0.7982285618782043,0.00880829431116581,0.30178824067115784,-0.16233611106872559,-0.32241708040237427,4.12109375,2,G1,7.6,180,0,0.3656644061714895,[21900|0|0|0]
21900,0.7916997671127319,-0.7979868650436401,0.008981241844594479,0.2952282428741455,-0.1606299728155136,-0.29993683099746704,4.12109375,2,G1,7.6,180,0,0.36596163864207204,[22000|0|0|0]
22000,0.7916051745414734,-0.7980690002441406,0.00886722281575203,0.29818785190582275,-0.15741361677646637,-0.2814003527164459,4.12109375,2,G1,7.6,180,0,0.36613103251633183,[22100|0|0|0]
22100,0.791349470615387,-0.798068642616272,0.008057545870542526,0.30462127923965454,-0.1501067578792572,-0.28228241205215454,4.12109375,2,G1,7.6,180,0,0.3669801269641511,[22200|0|0|0]
22200,0.790954053401947,-0.7978209853172302,0.007910446263849735,0.3039345145225525,-0.1342194676399231,-0.28971797227859497,4.12109375,2,G1,7.6,180,0,0.36746933776201074,[22300|0|0|0]
22300,0.7913766503334045,-0.7979393601417542,0.008031846955418587,0.3116198480129242,-0.1492728590965271,-0.29209527373313904,4.12109375,2,G1,7.6,180,0,0.3679246825692412,[22400|0|0|0]
22400,0.7914666533470154,-0.7982532382011414,0.008573506958782673,0.32409730553627014,-0.15026016533374786,-0.29750311374664307,4.12109375,2,G1,7.6,180,0,0.3685571503849189,[22500|0|0|0]
22500,0.7913879752159119,-0.7982140183448792,0.008752823807299137,0.3240468502044678,-0.1491256207227707,-0.28970658779144287,4.12109375,2,G1,7.6,180,0,0.3687568576146354,[22600|0|0|0]
22600,0.7914429903030396,-0.7980757355690002,0.008646136149764061,0.31944823265075684,-0.15104922652244568,-0.2938946485519409,4.12109375,2,G1,7.6,180,0,0.3689399724479689,[22700|0|0|0]
22701,0.7914999127388,-0.7979718446731567,0.008440217934548855,0.31293803453445435,-0.151611790060997,-0.2767959237098694,4.12109375,2,G1,7.6,180,0,0.369177534636226,[22800|0|0|0]
22800,0.791280210018158,-0.7980003356933594,0.00861878227442503,0.31489086151123047,-0.14505578577518463,-0.26452431082725525,4.12109375,2,G1,7.6,180,0,0.369462080321776,[22900|0|0|0]
22900,0.791452944278717,-0.7979788184165955,0.008584081195294857,0.3144264817237854,-0.15453335642814636,-0.29525285959243774,4.12109375,2,G1,7.6,180,0,0.3696395747804586,[23000|0|0|0]
23001,0.7915845513343811,-0.7982826828956604,0.008890378288924694,0.31850966811180115,-0.16045443713665009,-0.28471317887306213,4.12109375,2,G1,7.6,180,0,0.37009065343025715,[23100|0|0|0]
23101,0.7914369702339172,-0.7981216907501221,0.008717618882656097,0.3166743516921997,-0.1527637541294098,-0.2611607313156128,4.12109375,2,G1,7.6,180,0,0.3703691214977145,[23200|0|0|0]
23201,0.7914398908615112,-0.7981645464897156,0.00852560717612505,0.315314918756485,-0.15882693231105804,-0.2619638741016388,4.12109375,2,G1,7.6,180,0,0.3705658793182112,[23300|0|0|0]
23301,0.7910922169685364,-0.7980109453201294,0.007876653224229813,0.30841147899627686,-0.15730170905590057,-0.2827235162258148,4.12109375,2,G1,7.6,180,0,0.3713179509150921,[23400|0|0|0]
23401,0.7914746999740601,-0.7982059121131897,0.008618731983006,0.313686341047287,-0.1724437177181244,-0.2925494313240051,4.12109375,2,G1,7.6,180,0,0.3721752642674537,[23500|0|0|0]
23501,0.791464626789093,-0.7982641458511353,0.008662980981171131,0.3153202533721924,-0.1716611385345459,-0.2956150472164154,4.12109375,2,G1,7.6,180,0,0.37224909252172744,[23600|0|0|0]
23601,0.7916238307952881,-0.7983963489532471,0.008404766209423542,0.3210570812225342,-0.1733637899160385,-0.2788902223110199,4.12109375,2,G1,7.6,180,0,0.3725799980129862,[23700|0|0|0]
23701,0.7910283803939819,-0.7977424263954163,0.007994087412953377,0.3045617341995239,-0.15798144042491913,-0.2546651065349579,4.12109375,2,G1,7.6,180,0,0.3735551046563467,[23800|0|0|0]
23801,0.7912846803665161,-0.7978140711784363,0.008447731845080853,0.29998642206192017,-0.16782331466674805,-0.27118828892707825,4.12109375,2,G1,7.6,180,0,0.37408104754455346,[23900|0|0|0]
23902,0.7916458249092102,-0.7983677387237549,0.008656765334308147,0.3044929504394531,-0.17342256009578705,-0.2863485813140869,4.12109375,2,G1,7.6,180,0,0.3747743498819759,[24000|0|0|0]
24000,0.7915598750114441,-0.7980054616928101,0.008767271414399147,0.2951730489730835,-0.16824254393577576,-0.28873521089553833,4.12109375,2,G1,7.6,180,0,0.3751627358057853,[24100|0|0|0]
24102,0.7915431261062622,-0.7982133626937866,0.008742699399590492,0.30091625452041626,-0.16571275889873505,-0.28969335556030273,4.12109375,2,G1,7.6,180,0,0.37537275279543997,[24200|0|0|0]
24202,0.7912864089012146,-0.7979082465171814,0.00810589361935854,0.29655617475509644,-0.15941733121871948,-0.30043932795524597,4.12109375,2,G1,7.6,180,0,0.37612409905804495,[24300|0|0|0]
24300,0.7913414835929871,-0.7978829145431519,0.008410035632550716,0.299075186252594,-0.15873318910598755,-0.286359041929245,4.12109375,2,G1,7.6,180,0,0.37643422370197166,[24400|0|0|0]
24400,0.7916533946990967,-0.7985142469406128,0.008533831685781479,0.3154165744781494,-0.16994032263755798,-0.281596839427948,4.12109375,2,G1,7.6,180,0,0.37714920244081207,[24500|0|0|0]
24502,0.7917081713676453,-0.7983956933021545,0.008970239199697971,0.30749940872192383,-0.16456721723079681,-0.2778977155685425,4.12109375,2,G1,7.6,180,0,0.37760473176677445,[24600|0|0|0]
24602,0.7915287613868713,-0.7980518937110901,0.008503063581883907,0.2961243689060211,-0.1548861563205719,-0.29501330852508545,4.12109375,2,G1,7.6,180,0,0.37821188838404657,[24700|0|0|0]
24700,0.7912226915359497,-0.798069179058075,0.008214112371206284,0.29795387387275696,-0.15268740057945251,-0.29597288370132446,4.12109375,2,G1,7.6,180,0,0.3786331606701225,[24800|0|0|0]
24800,0.7914034724235535,-0.7979999780654907,0.008251335471868515,0.29453060030937195,-0.15892541408538818,-0.29261574149131775,4.12109375,2,G1,7.6,180,0,0.37883028009057707,[24900|0|0|0]
24900,0.7913234829902649,-0.7982001900672913,0.008486032485961914,0.30840447545051575,-0.15786126255989075,-0.28261008858680725,4.12109375,2,G1,7.6,180,0,0.37914897405589043,[25000|0|0|0]
25000,0.7913113832473755,-0.7982200980186462,0.008781365118920803,0.31426408886909485,-0.16700652241706848,-0.2772410213947296,4.12109375,2,G1,7.6,180,0,0.3794452241097226,[25100|0|0|0]
25100,0.7917118072509766,-0.7982134222984314,0.008737594820559025,0.31177493929862976,-0.17876441776752472,-0.280152827501297,4.12109375,2,G1,7.6,180,0,0.3798480885868349,[25200|0|0|0]
25200,0.7917612791061401,-0.7982161641120911,0.008398235775530338,0.3117193281650543,-0.1703524887561798,-0.2770407795906067,4.12109375,2,G1,7.6,180,0,0.3801910456445524,[25300|0|0|0]
25300,0.7913352847099304,-0.7979496121406555,0.008372600190341473,0.3084874451160431,-0.16131040453910828,-0.29250991344451904,4.12109375,2,G1,7.6,180,0,0.3806942139685815,[25400|0|0|0]
25400,0.7910683155059814,-0.7975775599479675,0.007721973117440939,0.29859864711761475,-0.15680336952209473,-0.28628504276275635,4.12109375,2,G1,7.6,180,0,0.38148983383882873,[25500|0|0|0]
25500,0.791179895401001,-0.7980305552482605,0.008122945204377174,0.30998483300209045,-0.16845503449440002,-0.2884468138217926,4.12109375,2,G1,7.6,180,0,0.3821050032704182,[25600|0|0|0]
25600,0.7917345762252808,-0.7981475591659546,0.008835251443088055,0.3128468990325928,-0.17943167686462402,-0.2981276214122772,4.12109375,2,G1,7.6,180,0,0.38301535535136594,[25700|0|0|0]
25700,0.7917072772979736,-0.7983951568603516,0.00908472016453743,0.32093605399131775,-0.1822478324174881,-0.28850340843200684,4.12109375,2,G1,7.6,180,0,0.38336789540963506,[25800|0|0|0]
25800,0.7915301322937012,-0.7980750799179077,0.008395843207836151,0.3152744174003601,-0.17918623983860016,-0.2808760404586792,4.12109375,2,G1,7.6,180,0,0.38414788327050015,[25900|0|0|0]
25900,0.7912134528160095,-0.7977467775344849,0.008028059266507626,0.3058350086212158,-0.1710599809885025,-0.2930593490600586,4.12109375,2,G1,7.6,180,0,0.38473382983295384,[26000|0|0|0]
26000,0.7910737991333008,-0.7976830005645752,0.008050387725234032,0.3007311522960663,-0.16757914423942566,-0.2935192883014679,4.12109375,2,G1,7.6,180,0,0.3848889723901523,[26100|0|0|0]
26100,0.7913093566894531,-0.7979145050048828,0.00839948933571577,0.3009917140007019,-0.17181837558746338,-0.3060254156589508,4.12109375,2,G1,7.6,180,0,0.385369548713522,[26200|0|0|0]
26200,0.7920739054679871,-0.7984980940818787,0.008947406895458698,0.31362682580947876,-0.19088825583457947,-0.29746973514556885,4.12109375,2,G1,7.6,180,0,0.38647649256838607,[26300|0|0|0]
26300,0.7915841937065125,-0.7978958487510681,0.008593728765845299,0.288770854473114,-0.16856373846530914,-0.31230756640434265,4.12109375,2,G1,7.6,180,0,0.38732949038032727,[26400|0|0|0]
26400,0.7911944389343262,-0.797860860824585,0.00818097498267889,0.29038164019584656,-0.1532800793647766,-0.3003319799900055,4.12109375,2,G1,7.6,180,0,0.3878982597738074,[26500|0|0|0]
26500,0.7912766933441162,-0.7977502346038818,0.007893930189311504,0.28936251997947693,-0.1590041071176529,-0.3047458231449127,4.12109375,2,G1,7.6,180,0,0.38821669133951076,[26600|0|0|0]
26600,0.7913854718208313,-0.7982274889945984,0.008671266958117485,0.308702290058136,-0.16463656723499298,-0.2910768687725067,4.12109375,2,G1,7.6,180,0,0.38913530821427,[26700|0|0|0]
26700,0.7916037440299988,-0.7983204126358032,0.008656126447021961,0.3102231025695801,-0.16928543150424957,-0.2917017936706543,4.12109375,2,G1,7.6,180,0,0.3893730197946902,[26800|0|0|0]
26800,0.7918950915336609,-0.7980677485466003,0.008796242997050285,0.3019756078720093,-0.16905085742473602,-0.2881389856338501,4.1171875,2,G1,7.6,180,0,0.38978333084432776,[26900|0|0|0]
26900,0.7915647029876709,-0.7981817722320557,0.008455762639641762,0.30704155564308167,-0.15973728895187378,-0.2920302152633667,4.12109375,2,G1,7.6,180,0,0.3902712702523973,[27000|0|0|0]
27000,0.7913773059844971,-0.7980826497077942,0.008237654343247414,0.30546438694000244,-0.15270200371742249,-0.30037662386894226,4.12109375,2,G1,7.6,180,0,0.3905754316249786,[27100|0|0|0]
27100,0.791490375995636,-0.7981531023979187,0.007820842787623405,0.31129032373428345,-0.1636315882205963,-0.2985813617706299,4.12109375,2,G1,7.6,180,0,0.3910130162246464,[27200|0|0|0]
27200,0.791395902633667,-0.7981522083282471,0.008325993083417416,0.31110405921936035,-0.16748246550559998,-0.3090958297252655,4.12109375,2,G1,7.6,180,0,0.3915269255909972,[27300|0|0|0]
27300,0.791504442691803,-0.7983719706535339,0.008547505363821983,0.323742151260376,-0.16883133351802826,-0.30741989612579346,4.12109375,2,G1,7.6,180,0,0.3918572952539593,[27400|0|0|0]
27400,0.791358232498169,-0.7981325387954712,0.008474058471620083,0.3155007064342499,-0.1594800055027008,-0.2922878861427307,4.12109375,2,G1,7.6,180,0,0.3921472943597372,[27500|0|0|0]
27500,0.7914530038833618,-0.7981312870979309,0.008171690627932549,0.3127988278865814,-0.16582193970680237,-0.2774384617805481,4.12109375,2,G1,7.6,180,0,0.3924641689328641,[27600|0|0|0]
27600,0.7915064692497253,-0.7984374761581421,0.00855316687375307,0.3162442147731781,-0.16706743836402893,-0.285577654838562,4.12109375,2,G1,7.6,180,0,0.3929562404846924,[27700|0|0|0]
27700,0.7918561697006226,-0.7980205416679382,0.008879265747964382,0.2983592450618744,-0.1717008799314499,-0.27902984619140625,4.12109375,2,G1,7.6,180,0,0.3935906419744772,[27800|0|0|0]
27800,0.7913987636566162,-0.7978374361991882,0.00843165721744299,0.2919638752937317,-0.16341519355773926,-0.2832278609275818,4.1171875,2,G1,7.6,180,0,0.3942563005193598,[27900|0|0|0]
27900,0.7914111018180847,-0.7980003356933594,0.008500801399350166,0.2954358160495758,-0.160303995013237,-0.29233264923095703,4.12109375,2,G1,7.6,180,0,0.39443369666734857,[28000|0|0|0]
28000,0.7912991046905518,-0.7978576421737671,0.008322704583406448,0.2959124743938446,-0.16066375374794006,-0.29658639430999756,4.12109375,2,G1,7.6,180,0,0.39468790774688395,[28100|0|0|0]
28100,0.7914229035377502,-0.7980910539627075,0.008734816685318947,0.3046971559524536,-0.160457581281662,-0.29867950081825256,4.12109375,2,G1,7.6,180,0,0.39517744181344805,[28200|0|0|0]
28200,0.7914101481437683,-0.7980756759643555,0.008842132985591888,0.30214253067970276,-0.15789613127708435,-0.27973660826683044,4.12109375,2,G1,7.6,180,0,0.3952866021139846,[28300|0|0|0]
28300,0.7918586730957031,-0.7984834313392639,0.009122840128839016,0.3096735179424286,-0.1612730771303177,-0.26582181453704834,4.1171875,2,G1,7.6,180,0,0.3959546107805038,[28400|0|0|0]
28400,0.7916061282157898,-0.7979801893234253,0.008355928584933281,0.29418471455574036,-0.14952334761619568,-0.27545833587646484,4.12109375,2,G1,7.6,180,0,0.39690602276227177,[28500|0|0|0]
28500,0.7910140752792358,-0.7976611256599426,0.00810763519257307,0.28424862027168274,-0.13326393067836761,-0.28001147508621216,4.12109375,2,G1,7.6,180,0,0.39762294528927655,[28600|0|0|0]
28600,0.7911573648452759,-0.7977532744407654,0.008112103678286076,0.2959035336971283,-0.14040979743003845,-0.26766857504844666,4.12109375,2,G1,7.6,180,0,0.39779336613573507,[28700|0|0|0]
28700,0.7912099361419678,-0.7980107069015503,0.008678579702973366,0.3072948455810547,-0.1458330601453781,-0.26733967661857605,4.12109375,2,G1,7.6,180,0,0.39841781012813726,[28800|0|0|0]
28800,0.7917369604110718,-0.798130214214325,0.009009500034153461,0.3103273808956146,-0.15972088277339935,-0.26768115162849426,4.1171875,2,E2,7.6,180,0,0.3990514857893549,[28800|0|0|0]
28900,0.7916527390480042,-0.7983048558235168,0.009040148928761482,0.3551773428916931,-0.09099587798118591,-0.32759544253349304,3.15625,2,E2,7.6,180,0,0.39924778220908486,[28800|0|0|0]
29000,0.7914226651191711,-0.796197772026062,0.014754090458154678,-1.799986720085144,2.9775805473327637,-0.4405166804790497,3.611328125,2,E2,7.6,180,0,0.40534219472741256,[28800|0|0|0]
29100,0.7837539315223694,-0.7847818732261658,0.051704805344343185,-4.461979866027832,9.618884086608887,1.0477874279022217,3.716796875,2,E2,7.6,180,0,0.44476918486093125,[28800|0|0|0]
29200,0.7642909288406372,-0.7624800801277161,0.10835346579551697,-1.463375210762024,2.6773619651794434,1.0703182220458984,3.720703125,2,E2,7.6,180,0,0.5086851388920458,[28800|0|0|0]
29300,0.7403128743171692,-0.7344098687171936,0.1753433793783188,1.7060019969940186,-0.25106537342071533,1.0450913906097412,3.732421875,2,E2,7.6,180,0,0.585173911853789,[28800|0|0|0]
29400,0.7206123471260071,-0.7096979022026062,0.25095316767692566,4.266946792602539,-3.2272372245788574,0.5544440746307373,3.7421875,2,E2,7.6,180,0,0.6671228724767765,[28800|0|0|0]
29500,0.7059948444366455,-0.6921817660331726,0.32880303263664246,5.771772384643555,-4.133391380310059,-0.4625638723373413,3.736328125,2,E2,7.6,180,0,0.7482467770020504,[28800|0|0|0]
29600,0.6993722915649414,-0.6830840706825256,0.4095819294452667,5.3934407234191895,-4.494593143463135,-3.1686713695526123,3.736328125,2,E2,7.6,180,0,0.8298056909039047,[28800|0|0|0]
29700,0.6997093558311462,-0.6828960180282593,0.49367740750312805,4.496879577636719,-1.7788513898849487,-4.371814727783203,3.732421875,2,E2,7.6,180,0,0.9139020547129337,[28800|0|0|0]
29800,0.7016477584838867,-0.6899948120117188,0.5789958238601685,2.6470420360565186,-0.6623403429985046,-3.5629448890686035,3.736328125,2,E2,7.6,180,0,0.9995372253529053,[28800|0|0|0]
29900,0.7025811076164246,-0.7007178068161011,0.6656178832054138,0.6653361916542053,-0.26102709770202637,-2.4651598930358887,3.732421875,2,E2,7.6,180,0,1.0868254543611127,[28800|0|0|0]
30000,0.7042617201805115,-0.711345911026001,0.7547115087509155,-0.26933348178863525,0.42471298575401306,-1.3853157758712769,3.732421875,2,E2,7.6,180,0,1.1765664994326357,[28800|0|0|0]
30100,0.7051278352737427,-0.7208061218261719,0.844753623008728,-1.582851529121399,0.5773739218711853,-0.5495119094848633,3.7578125,2,E2,7.6,180,0,1.2671083576185342,[28800|0|0|0]
30200,0.7048956751823425,-0.7276169061660767,0.9344072341918945,-1.7629632949829102,0.6770358085632324,0.01303362101316452,3.7890625,2,E2,7.6,180,0,1.3570205963839834,[28800|0|0|0]
30300,0.7035223841667175,-0.730607807636261,1.0087294578552246,-1.5402545928955078,0.27065926790237427,0.28862956166267395,3.80078125,2,E2,7.6,180,0,1.431415652335841,[28800|0|0|0]
30400,0.7002651691436768,-0.730919361114502,1.077773094177246,-0.9226387739181519,0.11820275336503983,0.29560592770576477,3.80078125,2,E2,7.6,180,0,1.500536779582463,[28800|0|0|0]
30500,0.6966875791549683,-0.7296406626701355,1.1326555013656616,-0.47347861528396606,-0.45984092354774475,3.0312774181365967,3.7890625,2,E2,7.6,180,0,1.5555505309418638,[28800|0|0|0]
30600,0.6932263970375061,-0.7273482084274292,1.173332929611206,0.27521470189094543,-0.696587085723877,7.43358039855957,3.7734375,2,E2,7.6,180,0,1.596439261623759,[28800|0|0|0]
30700,0.697516679763794,-0.718502938747406,1.2045778036117554,0.8495063185691833,-1.0599265098571777,9.734651565551758,3.76953125,2,E2,7.6,180,0,1.6291942226662335,[28800|0|0|0]
30800,0.7013018131256104,-0.7184618711471558,1.2258641719818115,1.2849429845809937,-0.20650336146354675,10.153806686401367,3.7578125,2,E2,7.6,180,0,1.650814546426535,[28800|0|0|0]
30900,0.7017757296562195,-0.7201111912727356,1.2381662130355835,1.2056095600128174,0.7107332944869995,9.698648452758789,3.75390625,2,E2,7.6,180,0,1.6632357004728915,[28800|0|0|0]
31000,0.7013296484947205,-0.7240908741950989,1.2458891868591309,0.9572741985321045,0.6052500009536743,8.502727508544922,3.748046875,2,E2,7.6,180,0,1.67193519409289,[28800|0|0|0]
31100,0.7009066939353943,-0.7271215915679932,1.2501078844070435,0.8058282732963562,0.32641419768333435,7.286032199859619,3.7421875,2,E2,7.6,180,0,1.6771468682341215,[28800|0|0|0]
31200,0.7004076838493347,-0.7324675917625427,1.2537096738815308,0.6717272996902466,0.28829237818717957,6.2247185707092285,3.7421875,2,E2,7.6,180,0,1.683612285201699,[28800|0|0|0]
31300,0.7003392577171326,-0.740755558013916,1.2563648223876953,0.25252580642700195,-0.032566994428634644,5.153210163116455,3.736328125,2,E2,7.6,180,0,1.6923154386709456,[28800|0|0|0]
31400,0.7039943933486938,-0.7484247088432312,1.2583132982254028,0.9186035990715027,0.6103933453559875,-3.0297703742980957,3.7421875,2,E2,7.6,180,0,1.7010316562576069,[28800|0|0|0]
31500,0.7054959535598755,-0.7577685117721558,1.2591158151626587,0.2521664500236511,0.4232608377933502,-7.331578254699707,3.736328125,2,E2,7.6,180,0,1.710529307002763,[28800|0|0|0]
31600,0.7049393653869629,-0.7682293057441711,1.2604429721832275,-0.6161989569664001,0.5774447917938232,-8.63561725616455,3.7421875,2,E2,7.6,180,0,1.721088632107921,[28800|0|0|0]
31700,0.706135094165802,-0.7763790488243103,1.262211799621582,-1.0760681629180908,0.4090447425842285,-7.047460079193115,3.736328125,2,E2,7.6,180,0,1.7295134068877889,[28800|0|0|0]
31800,0.7022994160652161,-0.7898255586624146,1.2610610723495483,-1.246794581413269,0.41212010383605957,-4.223081588745117,3.7421875,2,E2,7.6,180,90.0,1.7435435610769683,[28800|0|0|0]
31900,0.7027025818824768,-0.7931197285652161,1.2631937265396118,-5.733459949493408,0.2784602642059326,-3.255852460861206,3.6484375,2,E2,7.6,180,90.0,1.747488470698129,[28800|0|0|0]
32000,0.7076317667961121,-0.7816569805145264,1.271614670753479,-15.058645248413086,1.4558850526809692,-4.920251369476318,3.673828125,2,E2,7.6,180,90.0,1.7625418343833479,[28800|0|0|0]
32100,0.7161063551902771,-0.7450260519981384,1.2872958183288574,-16.480710983276367,2.549917697906494,-5.5893778800964355,3.705078125,2,E2,7.6,180,90.0,1.80327931051656,[28800|0|0|0]
