time.ms,stateEstimate.x,stateEstimate.y,stateEstimate.z,stabilizer.roll,stabilizer.pitch,stabilizer.yaw,pm.vbat,drone_id,node_name,wind_speed,global_wind_direction,relative_wind_direction,travel_dist,waiting_time
0,1.676283836364746,1.1274739503860474,-0.028902798891067505,-0.4080981910228729,0.977154552936554,4.10726261138916,4.1484375,0,"['A1', 'B2', 'F2']",7.6,90,0,0.08237863624989042,[100|0|0]
100,1.6762617826461792,1.1276609897613525,-0.029122820124030113,-0.41064637899398804,0.9778065085411072,4.120179653167725,4.1484375,0,"['A1', 'B2', 'F2']",7.6,90,0,0.082668255719836,[200|0|0]
201,1.5216928720474243,1.1166627407073975,0.06675174832344055,0.3301028609275818,-7.755848407745361,7.532140254974365,4.1484375,0,"['A1', 'B2', 'F2']",7.6,90,0,0.26488911753573086,[300|0|0]
301,1.7089687585830688,1.1313015222549438,-0.051099199801683426,0.8224840760231018,-7.306338310241699,6.407917499542236,4.1484375,0,"['A1', 'B2', 'F2']",7.6,90,0,0.48664438258461096,[400|0|0]
401,1.6988834142684937,1.1295698881149292,-0.042899880558252335,4.537476539611816,2.669252634048462,6.215191841125488,4.1484375,0,"['A1', 'B2', 'F2']",7.6,90,0,0.49975703154636153,[500|0|0]
501,1.686177134513855,1.127441167831421,-0.037621092051267624,5.447151184082031,8.028416633605957,5.217945575714111,4.1484375,0,"['A1', 'B2', 'F2']",7.6,90,0,0.5136799121157708,[600|0|0]
601,1.678186058998108,1.1262296438217163,-0.033422425389289856,5.1259613037109375,8.951972961425781,4.495296478271484,4.1484375,0,"['A1', 'B2', 'F2']",7.6,90,0,0.522787814182815,[700|0|0]
701,1.674320101737976,1.126046895980835,-0.03141307085752487,4.454648017883301,8.382309913635254,4.054816246032715,4.1484375,0,"['A1', 'B2', 'F2']",7.6,90,0,0.5271486085995282,[800|0|0]
802,1.6725534200668335,1.125725269317627,-0.03028528206050396,3.7874486446380615,7.464305400848389,3.7658851146698,4.1484375,0,"['A1', 'B2', 'F2']",7.6,90,0,0.5292691074578922,[900|0|0]
902,1.6716840267181396,1.1256561279296875,-0.029158856719732285,3.1433215141296387,6.535516262054443,3.603548288345337,4.1484375,0,"['A1', 'B2', 'F2']",7.6,90,0,0.5306936984078185,[1000|0|0]
1001,1.671464204788208,1.1252752542495728,-0.02918587438762188,2.6005702018737793,5.674060821533203,3.5157341957092285,4.1484375,0,"['A1', 'B2', 'F2']",7.6,90,0,0.5311342848300574,[1100|0|0]
1101,1.6717033386230469,1.1260476112365723,-0.02898089587688446,2.1145973205566406,4.953091144561768,3.4361071586608887,4.1484375,0,"['A1', 'B2', 'F2']",7.6,90,0,0.5319683930341867,[1200|0|0]
1201,1.6719551086425781,1.1261413097381592,-0.02862456999719143,1.7132325172424316,4.330926895141602,3.40094256401062,4.1484375,0,"['A1', 'B2', 'F2']",7.6,90,0,0.5324146392492669,[1300|0|0]
1301,1.672110915184021,1.125942349433899,-0.028852302581071854,1.3825023174285889,3.8007700443267822,3.4209158420562744,4.1484375,0,"['A1', 'B2', 'F2']",7.6,90,0,0.5327548200993872,[1400|0|0]
1402,1.6723592281341553,1.1265071630477905,-0.02894413284957409,1.069278359413147,3.3366360664367676,3.4535555839538574,4.1484375,0,"['A1', 'B2', 'F2']",7.6,90,0,0.5333786041468387,[1500|0|0]
1502,1.6729286909103394,1.1263270378112793,-0.02905220538377762,0.8130732774734497,2.9207143783569336,3.4958815574645996,4.1484375,0,"['A1', 'B2', 'F2']",7.6,90,0,0.533985574184762,[1600|0|0]
1602,1.6728315353393555,1.1260162591934204,-0.02887985296547413,0.6226054430007935,2.581393003463745,3.5599095821380615,4.1484375,0,"['A1', 'B2', 'F2']",7.6,90,0,0.534353986875079,[1700|0|0]
1700,1.6736406087875366,1.1263377666473389,-0.028844915330410004,0.43059536814689636,2.2723188400268555,3.609844923019409,4.1484375,0,"['A1', 'B2', 'F2']",7.6,90,0,0.5352253005532803,[1800|0|0]
1800,1.674151062965393,1.1261769533157349,-0.028731999918818474,0.27473708987236023,2.023582696914673,3.6799771785736084,4.1484375,0,"['A1', 'B2', 'F2']",7.6,90,0,0.53577226882063,[1900|0|0]
1900,1.6743254661560059,1.126835584640503,-0.029101943597197533,0.1271786093711853,1.8221485614776611,3.7292275428771973,4.1484375,0,"['A1', 'B2', 'F2']",7.6,90,0,0.5365475558771673,[2000|0|0]
2000,1.674658179283142,1.1269073486328125,-0.02878987230360508,0.015041309408843517,1.6446723937988281,3.7957048416137695,4.1484375,0,"['A1', 'B2', 'F2']",7.6,90,0,0.5370093313505799,[2100|0|0]
2102,1.6747878789901733,1.1265193223953247,-0.028604276478290558,-0.07237326353788376,1.5119297504425049,3.8677685260772705,4.1484375,0,"['A1', 'B2', 'F2']",7.6,90,0,0.5374585887215346,[2200|0|0]
2200,1.6750952005386353,1.1272727251052856,-0.029048161581158638,-0.16097338497638702,1.4021199941635132,3.9053077697753906,4.1484375,0,"['A1', 'B2', 'F2']",7.6,90,0,0.5383854631262269,[2300|0|0]
2300,1.675902009010315,1.1270463466644287,-0.02877662144601345,-0.22193872928619385,1.2944399118423462,3.9126882553100586,4.1484375,0,"['A1', 'B2', 'F2']",7.6,90,0,0.5392663269939464,[2400|0|0]
2400,1.6757136583328247,1.1272627115249634,-0.029069242998957634,-0.28282880783081055,1.2233632802963257,3.9322588443756104,4.1484375,0,"['A1', 'B2', 'F2']",7.6,90,0,0.5396761038891378,[2500|0|0]
2500,1.6757142543792725,1.1273910999298096,-0.02872193045914173,-0.33250200748443604,1.166367769241333,3.945007801055908,4.1484375,0,"['A1', 'B2', 'F2']",7.6,90,0,0.5400463874805697,[2600|0|0]
2600,1.6760165691375732,1.1273666620254517,-0.02880910597741604,-0.36431002616882324,1.1121164560317993,3.9836299419403076,4.1484375,0,"['A1', 'B2', 'F2']",7.6,90,0,0.540361967890675,[2700|0|0]
2700,1.6760430335998535,1.1275508403778076,-0.029389917850494385,-0.3835894465446472,1.0792810916900635,4.01819372177124,4.1484375,0,"['A1', 'B2', 'F2']",7.6,90,0,0.5409718567864168,[2800|0|0]
2800,1.6758285760879517,1.1274747848510742,-0.028926678001880646,-0.3974798023700714,1.056170105934143,4.051670551300049,4.1484375,0,"['A1', 'B2', 'F2']",7.6,90,0,0.5414879649387468,[2900|0|0]
2900,1.675957202911377,1.1275370121002197,-0.029291346669197083,-0.41971278190612793,1.0376548767089844,4.071854114532471,4.1484375,0,"['A1', 'B2', 'F2']",7.6,90,0,0.5418796284769567,[3000|0|0]
3000,1.6764835119247437,1.1274021863937378,-0.028860094025731087,-0.4218946099281311,1.007161021232605,4.098903179168701,4.1484375,0,"['A1', 'B2', 'F2']",7.6,90,0,0.5425732840047051,[3100|0|0]
3100,1.6766669750213623,1.1275510787963867,-0.0291029904037714,-0.429745614528656,0.9936651587486267,4.112699031829834,4.1484375,0,"['A1', 'B2', 'F2']",7.6,90,0,0.5429121443090379,[3200|0|0]
3200,1.6765533685684204,1.127387523651123,-0.02911604382097721,-0.42882394790649414,0.9875207543373108,4.075997829437256,4.1484375,0,"['A1', 'B2', 'F2']",7.6,90,0,0.5431117115994264,[3300|0|0]
3300,1.6767029762268066,1.1276006698608398,-0.028760036453604698,-0.4360256791114807,0.9861966371536255,4.0853166580200195,4.1484375,0,"['A1', 'B2', 'F2']",7.6,90,0,0.5435527954959676,[3400|0|0]
3400,1.676081657409668,1.1274325847625732,-0.029056517407298088,-0.4312973618507385,1.0041673183441162,4.109401702880859,4.1484375,0,"['A1', 'B2', 'F2']",7.6,90,0,0.5442614495926134,[3500|0|0]
3500,1.6764564514160156,1.1278624534606934,-0.028553171083331108,-0.4357806146144867,0.9895855784416199,4.103499412536621,4.1484375,0,"['A1', 'B2', 'F2']",7.6,90,0,0.5450221171722227,[3600|0|0]
3600,1.676332712173462,1.127748727798462,-0.029279567301273346,-0.4289705157279968,0.9943028092384338,4.118916988372803,4.1484375,0,"['A1', 'B2', 'F2']",7.6,90,0,0.5457677017695948,[3700|0|0]
3700,1.6762244701385498,1.127637267112732,-0.028947219252586365,-0.4290834069252014,0.9920595288276672,4.0899529457092285,4.1484375,0,"['A1', 'B2', 'F2']",7.6,90,0,0.5461345737473354,[3800|0|0]
3800,1.6763936281204224,1.1275813579559326,-0.028782008215785027,-0.419730007648468,0.987727165222168,4.099196434020996,4.1484375,0,"['A1', 'B2', 'F2']",7.6,90,0,0.5463775448224167,[3900|0|0]
3900,1.6764005422592163,1.127949833869934,-0.028755242004990578,-0.43721577525138855,0.9850383996963501,4.108082294464111,4.1484375,0,"['A1', 'B2', 'F2']",7.6,90,0,0.546747056303368,[4000|0|0]
4000,1.6761903762817383,1.1276772022247314,-0.029086891561746597,-0.4284341037273407,0.9827256202697754,4.108906269073486,4.1484375,0,"['A1', 'B2', 'F2']",7.6,90,0,0.5472250617223243,[4100|0|0]
4100,1.6764414310455322,1.1276668310165405,-0.029191507026553154,-0.42334499955177307,0.9800716042518616,4.109176158905029,4.1484375,0,"['A1', 'B2', 'F2']",7.6,90,0,0.5474972389657883,[4200|0|0]
4200,1.6760749816894531,1.127829670906067,-0.02905621938407421,-0.42865899205207825,0.991377055644989,4.101589202880859,4.1484375,0,"['A1', 'B2', 'F2']",7.6,90,0,0.547920446605605,[4300|0|0]
4300,1.6763882637023926,1.127536416053772,-0.0287800170481205,-0.42603325843811035,0.9834779500961304,4.104358196258545,4.1484375,0,"['A1', 'B2', 'F2']",7.6,90,0,0.548430771755301,[4400|0|0]
4400,1.6762551069259644,1.1276835203170776,-0.028751062229275703,-0.42860323190689087,0.9925528168678284,4.103973865509033,4.1484375,0,"['A1', 'B2', 'F2']",7.6,90,0,0.5486312930083536,[4500|0|0]
4500,1.676471471786499,1.1274868249893188,-0.02878728322684765,-0.4241046905517578,0.9850108623504639,4.088945388793945,4.1484375,0,"['A1', 'B2', 'F2']",7.6,90,0,0.5489259364632298,[4600|0|0]
4600,1.6765614748001099,1.127677083015442,-0.028693128377199173,-0.4240831434726715,0.9821045994758606,4.084014892578125,4.1484375,0,"['A1', 'B2', 'F2']",7.6,90,0,0.5491565092167711,[4700|0|0]
4700,1.6764872074127197,1.1278880834579468,-0.028661642223596573,-0.4293126165866852,0.9806426763534546,4.104739189147949,4.1484375,0,"['A1', 'B2', 'F2']",7.6,90,0,0.54938240346069,[4800|0|0]
4800,1.6764593124389648,1.1277600526809692,-0.028862763196229935,-0.42603883147239685,0.9797797799110413,4.073141098022461,4.1484375,0,"['A1', 'B2', 'F2']",7.6,90,0,0.5496224444052125,[4900|0|0]
4900,1.6761459112167358,1.1275913715362549,-0.028991812840104103,-0.4189983010292053,0.9846735000610352,4.0590949058532715,4.1484375,0,"['A1', 'B2', 'F2']",7.6,90,0,0.5500010305450286,[5000|0|0]
5000,1.676241397857666,1.1278867721557617,-0.02889450080692768,-0.4223787188529968,0.9825865626335144,4.058219909667969,4.1484375,0,"['A1', 'B2', 'F2']",7.6,90,0,0.5503263747572132,[5100|0|0]
5100,1.676439881324768,1.127460241317749,-0.028976276516914368,-0.41166216135025024,0.9786453247070312,4.055197715759277,4.1484375,0,"['A1', 'B2', 'F2']",7.6,90,0,0.5508038802642312,[5200|0|0]
5200,1.6763464212417603,1.1279675960540771,-0.029081284999847412,-0.4231327176094055,0.9797441363334656,4.091665744781494,4.1484375,0,"['A1', 'B2', 'F2']",7.6,90,0,0.5513303500136739,[5300|0|0]
5300,1.676236629486084,1.1281189918518066,-0.028840187937021255,-0.43001589179039,0.974375307559967,4.099662780761719,4.1484375,0,"['A1', 'B2', 'F2']",7.6,90,0,0.5516354773819777,[5400|0|0]
5400,1.6760551929473877,1.1276936531066895,-0.028828080743551254,-0.41561558842658997,0.9748803973197937,4.119265079498291,4.1484375,0,"['A1', 'B2', 'F2']",7.6,90,0,0.5520980558615957,[5500|0|0]
5500,1.6762272119522095,1.1276012659072876,-0.028928598389029503,-0.411421000957489,0.968890368938446,4.130192756652832,4.1484375,0,"['A1', 'B2', 'F2']",7.6,90,0,0.5523176685426632,[5600|0|0]
5600,1.6762771606445312,1.127454400062561,-0.02875603176653385,-0.4104427397251129,0.9814667701721191,4.123815536499023,4.1484375,0,"['A1', 'B2', 'F2']",7.6,90,0,0.55254971096855,[5700|0|0]
5700,1.6764988899230957,1.1274138689041138,-0.028726965188980103,-0.4132940173149109,0.9782435297966003,4.1125102043151855,4.1484375,0,"['A1', 'B2', 'F2']",7.6,90,0,0.5527769806623247,[5800|0|0]
5800,1.6766369342803955,1.127726435661316,-0.029156578704714775,-0.41737422347068787,0.9747607111930847,4.092679500579834,4.1484375,0,"['A1', 'B2', 'F2']",7.6,90,0,0.5533259087042319,[5900|0|0]
5900,1.6761130094528198,1.1279138326644897,-0.029129762202501297,-0.4256492555141449,0.982554018497467,4.086807727813721,4.1484375,0,"['A1', 'B2', 'F2']",7.6,90,0,0.553882984988541,[6000|0|0]
6000,1.676448106765747,1.1278380155563354,-0.029240621253848076,-0.4190559387207031,0.9793917536735535,4.0785651206970215,4.1484375,0,"['A1', 'B2', 'F2']",7.6,90,0,0.5542439949223177,[6100|0|0]
6100,1.6763904094696045,1.1279584169387817,-0.028521575033664703,-0.42228615283966064,0.9738787412643433,4.090594291687012,4.1484375,0,"['A1', 'B2', 'F2']",7.6,90,0,0.554975331327563,[6200|0|0]
6200,1.6764386892318726,1.1270838975906372,-0.028980927541851997,-0.4030879735946655,0.9773423075675964,4.095656871795654,4.1484375,0,"['A1', 'B2', 'F2']",7.6,90,0,0.5559643306968761,[6300|0|0]
6300,1.6763465404510498,1.1277923583984375,-0.02896125428378582,-0.4275560677051544,0.9782790541648865,4.074085235595703,4.1484375,0,"['A1', 'B2', 'F2']",7.6,90,0,0.5566790300400122,[6400|0|0]
6400,1.6762876510620117,1.1273115873336792,-0.02894190326333046,-0.41471362113952637,0.9779922366142273,4.077913761138916,4.1484375,0,"['A1', 'B2', 'F2']",7.6,90,0,0.5571637807376318,[6500|0|0]
6500,1.6764646768569946,1.1273075342178345,-0.0284107718616724,-0.4164298474788666,0.9693849086761475,4.087631702423096,4.1484375,0,"['A1', 'B2', 'F2']",7.6,90,0,0.557723651370604,[6600|0|0]
6600,1.676777958869934,1.1277049779891968,-0.028661509975790977,-0.43057602643966675,0.9651954174041748,4.091289520263672,4.1484375,0,"['A1', 'B2', 'F2']",7.6,90,0,0.558288431657882,[6700|0|0]
6700,1.676922082901001,1.1275126934051514,-0.028648601844906807,-0.42592036724090576,0.9728280305862427,4.078038215637207,4.1484375,0,"['A1', 'B2', 'F2']",7.6,90,0,0.5585290801929604,[6800|0|0]
6800,1.676297903060913,1.127395510673523,-0.028549082577228546,-0.4196628928184509,0.9885989427566528,4.091490745544434,4.1484375,0,"['A1', 'B2', 'F2']",7.6,90,0,0.5591719148139971,[6900|0|0]
6900,1.6765607595443726,1.1271698474884033,-0.02853911928832531,-0.41653621196746826,0.9813339114189148,4.077847957611084,4.1484375,0,"['A1', 'B2', 'F2']",7.6,90,0,0.5595184933348849,[7000|0|0]
7000,1.6763900518417358,1.127218246459961,-0.028852518647909164,-0.4204366207122803,0.9933900237083435,4.081539630889893,4.1484375,0,"['A1', 'B2', 'F2']",7.6,90,0,0.5598786359993596,[7100|0|0]
7100,1.676566481590271,1.1275417804718018,-0.028306901454925537,-0.4266522228717804,0.9885188341140747,4.081619739532471,4.1484375,0,"['A1', 'B2', 'F2']",7.6,90,0,0.5605370430423545,[7200|0|0]
7200,1.6766963005065918,1.1276757717132568,-0.02887069806456566,-0.42889824509620667,0.9893753528594971,4.086036205291748,4.1484375,0,"['A1', 'B2', 'F2']",7.6,90,0,0.561130906007072,[7300|0|0]
7300,1.6766024827957153,1.1276496648788452,-0.02836441993713379,-0.42387884855270386,0.9866933226585388,4.078685283660889,4.1484375,0,"['A1', 'B2', 'F2']",7.6,90,0,0.5616464648029363,[7400|0|0]
7400,1.676400899887085,1.1274917125701904,-0.02825997583568096,-0.41358330845832825,0.9986152052879333,4.062837600708008,4.1484375,0,"['A1', 'B2', 'F2']",7.6,90,0,0.5619230387915715,[7500|0|0]
7500,1.6767187118530273,1.1276155710220337,-0.028496386483311653,-0.421026349067688,0.9866978526115417,4.066859245300293,4.1484375,0,"['A1', 'B2', 'F2']",7.6,90,0,0.5623380512686156,[7600|0|0]
7600,1.6762797832489014,1.127315878868103,-0.028527995571494102,-0.41375502943992615,0.9940229058265686,4.086488723754883,4.1484375,0,"['A1', 'B2', 'F2']",7.6,90,0,0.5628704729446425,[7700|0|0]
7700,1.676498532295227,1.127303123474121,-0.02815154194831848,-0.4151436388492584,0.992404043674469,4.077580451965332,4.1484375,0,"['A1', 'B2', 'F2']",7.6,90,0,0.5633060543672791,[7800|0|0]
7800,1.6766798496246338,1.1275970935821533,-0.028287086635828018,-0.4265497028827667,0.9921448826789856,4.064436912536621,4.1484375,0,"['A1', 'B2', 'F2']",7.6,90,0,0.5636770890835412,[7900|0|0]
7900,1.6767297983169556,1.12721848487854,-0.028523627668619156,-0.4094323217868805,0.9932156205177307,4.056793212890625,4.1484375,0,"['A1', 'B2', 'F2']",7.6,90,0,0.5641263007068439,[8000|0|0]
8000,1.6765209436416626,1.1272064447402954,-0.028992224484682083,-0.4118383228778839,0.9987828731536865,4.06242036819458,4.1484375,0,"['A1', 'B2', 'F2']",7.6,90,0,0.564639475351916,[8100|0|0]
8100,1.6766630411148071,1.1276862621307373,-0.028782593086361885,-0.4172256588935852,0.9903680086135864,4.053908348083496,4.1484375,0,"['A1', 'B2', 'F2']",7.6,90,0,0.5651820264953175,[8200|0|0]
8200,1.6764740943908691,1.1275246143341064,-0.02834211103618145,-0.42348557710647583,0.9884520173072815,4.027133941650391,4.1484375,0,"['A1', 'B2', 'F2']",7.6,90,0,0.5656878479175345,[8300|0|0]
8300,1.6763044595718384,1.1273934841156006,-0.02860729768872261,-0.41483646631240845,0.991969108581543,4.059328079223633,4.1484375,0,"['A1', 'B2', 'F2']",7.6,90,0,0.5660288685425984,[8400|0|0]
8400,1.6765660047531128,1.1277347803115845,-0.028367657214403152,-0.4204637110233307,0.9864388108253479,4.0671467781066895,4.1484375,0,"['A1', 'B2', 'F2']",7.6,90,0,0.5665211251140863,[8500|0|0]
8500,1.676385521888733,1.1273555755615234,-0.028426412492990494,-0.41401830315589905,0.9977390170097351,4.059086322784424,4.1484375,0,"['A1', 'B2', 'F2']",7.6,90,0,0.5669451799331433,[8600|0|0]
8600,1.6766486167907715,1.1272118091583252,-0.028496073558926582,-0.40392524003982544,0.9922712445259094,4.0426764488220215,4.1484375,0,"['A1', 'B2', 'F2']",7.6,90,0,0.5672529791701056,[8700|0|0]
8700,1.676663875579834,1.12739896774292,-0.028406886383891106,-0.41065871715545654,0.997919499874115,4.036697864532471,4.1484375,0,"['A1', 'B2', 'F2']",7.6,90,0,0.5674608625956642,[8800|0|0]
8800,1.6764320135116577,1.127480149269104,-0.028722820803523064,-0.4032471776008606,1.0065069198608398,4.068742752075195,4.1484375,0,"['A1', 'B2', 'F2']",7.6,90,0,0.5678610688129582,[8900|0|0]
8900,1.6766579151153564,1.1276663541793823,-0.028656313195824623,-0.403108149766922,0.99684077501297,4.062501430511475,4.1484375,0,"['A1', 'B2', 'F2']",7.6,90,0,0.5681612805133417,[9000|0|0]
9000,1.6765323877334595,1.1278165578842163,-0.028579605743288994,-0.40847647190093994,1.000777006149292,4.06447696685791,4.1484375,0,"['A1', 'B2', 'F2']",7.6,90,0,0.5683715239670478,[9100|0|0]
9100,1.6766061782836914,1.1276423931121826,-0.028394615277647972,-0.40127190947532654,0.999107301235199,4.059481620788574,4.1484375,0,"['A1', 'B2', 'F2']",7.6,90,0,0.5686360988817679,[9200|0|0]
9200,1.6766401529312134,1.1275628805160522,-0.028633717447519302,-0.4024636149406433,0.9987281560897827,4.0581183433532715,4.1484375,0,"['A1', 'B2', 'F2']",7.6,90,0,0.5688903554003762,[9300|0|0]
9300,1.6765050888061523,1.127426266670227,-0.028686733916401863,-0.3951598107814789,0.9986910820007324,4.058063983917236,4.1484375,0,"['A1', 'B2', 'F2']",7.6,90,0,0.5690896451560649,[9400|0|0]
9400,1.6765598058700562,1.1275396347045898,-0.02844691276550293,-0.398963987827301,0.9977161884307861,4.034915447235107,4.1484375,0,"['A1', 'B2', 'F2']",7.6,90,0,0.5693604965040697,[9500|0|0]
9500,1.6765177249908447,1.1274919509887695,-0.028529396280646324,-0.39652860164642334,0.9898790717124939,4.049117088317871,4.1484375,0,"['A1', 'B2', 'F2']",7.6,90,0,0.569464650560256,[9600|0|0]
9600,1.6763591766357422,1.1275957822799683,-0.028522782027721405,-0.39605045318603516,0.9960691928863525,4.075259685516357,4.1484375,0,"['A1', 'B2', 'F2']",7.6,90,0,0.5696542877567113,[9700|0|0]
9700,1.6766005754470825,1.127426266670227,-0.028866387903690338,-0.3954741656780243,0.9880625605583191,4.076682090759277,4.1484375,0,"['A1', 'B2', 'F2']",7.6,90,0,0.5701071386439389,[9800|0|0]
9800,1.6766343116760254,1.1276222467422485,-0.02877415157854557,-0.41366514563560486,0.9853363633155823,4.064949035644531,4.1484375,0,"['A1', 'B2', 'F2']",7.6,90,0,0.5703263505538549,[9900|0|0]
9900,1.6766440868377686,1.127518892288208,-0.02882494032382965,-0.40869376063346863,0.9936349391937256,4.061944961547852,4.1484375,0,"['A1', 'B2', 'F2']",7.6,90,0,0.5704419238795173,[10000|0|0]
10000,1.676397442817688,1.127367615699768,-0.028801891952753067,-0.4040120840072632,0.9988701939582825,4.073448657989502,4.1484375,0,"['A1', 'B2', 'F2']",7.6,90,0,0.57073218084543,[10100|0|0]
10100,1.67661714553833,1.127553105354309,-0.028714291751384735,-0.4007853865623474,0.997191846370697,4.070286273956299,4.1484375,0,"['A1', 'B2', 'F2']",7.6,90,0,0.571032762768837,[10200|0|0]
10200,1.6767290830612183,1.1277129650115967,-0.028741123154759407,-0.40831705927848816,1.000030517578125,4.052748203277588,4.1484375,0,"['A1', 'B2', 'F2']",7.6,90,0,0.5712297527261077,[10300|0|0]
10300,1.676642656326294,1.127498984336853,-0.02827460505068302,-0.40709954500198364,1.0050257444381714,4.030293941497803,4.1484375,0,"['A1', 'B2', 'F2']",7.6,90,0,0.5717502298640345,[10400|0|0]
10400,1.676740050315857,1.127607822418213,-0.028648294508457184,-0.40498626232147217,0.998296856880188,4.033443927764893,4.1484375,0,"['A1', 'B2', 'F2']",7.6,90,0,0.5721514469225061,[10500|0|0]
10500,1.6765111684799194,1.1274267435073853,-0.028894051909446716,-0.4003187119960785,1.002955436706543,4.043250560760498,4.1484375,0,"['A1', 'B2', 'F2']",7.6,90,0,0.5725329874405507,[10600|0|0]
10600,1.6764143705368042,1.1275638341903687,-0.0282937902957201,-0.40602031350135803,0.9944260716438293,4.049434661865234,4.1484375,0,"['A1', 'B2', 'F2']",7.6,90,0,0.5731562672349174,[10700|0|0]
10700,1.6764158010482788,1.1277832984924316,-0.02841942012310028,-0.41027629375457764,0.9886753559112549,4.067280292510986,4.1484375,0,"['A1', 'B2', 'F2']",7.6,90,0,0.573409149578648,[10800|0|0]
10800,1.6764235496520996,1.1275173425674438,-0.028473027050495148,-0.4037783741950989,0.9890975952148438,4.06534481048584,4.1484375,0,"['A1', 'B2', 'F2']",7.6,90,0,0.5736805649384971,[10900|0|0]
10900,1.6766856908798218,1.1276899576187134,-0.028562424704432487,-0.40265795588493347,0.9876510500907898,4.067513942718506,4.1484375,0,"['A1', 'B2', 'F2']",7.6,90,0,0.5740069173855937,[11000|0|0]
11000,1.676415205001831,1.127814531326294,-0.02892756089568138,-0.40287813544273376,0.9935736060142517,4.089123249053955,4.1484375,0,"['A1', 'B2', 'F2']",7.6,90,0,0.5744780921482588,[11100|0|0]
11100,1.6764665842056274,1.1273975372314453,-0.02846035361289978,-0.3898281753063202,0.9909002184867859,4.108406066894531,4.1484375,0,"['A1', 'B2', 'F2']",7.6,90,0,0.5751064284776284,[11200|0|0]
11200,1.6765841245651245,1.1275056600570679,-0.028433630242943764,-0.3892189860343933,0.9975352883338928,4.073334693908691,4.1484375,0,"['A1', 'B2', 'F2']",7.6,90,0,0.5752683556835979,[11300|0|0]
11300,1.67682683467865,1.1275488138198853,-0.028491782024502754,-0.39640378952026367,0.9892608523368835,4.0521745681762695,4.1484375,0,"['A1', 'B2', 'F2']",7.6,90,0,0.5755216382849572,[11400|0|0]
11400,1.6765518188476562,1.1274813413619995,-0.028005843982100487,-0.40123504400253296,0.9934630393981934,4.045669078826904,4.1484375,0,"['A1', 'B2', 'F2']",7.6,90,0,0.576084063409684,[11500|0|0]
11500,1.676495909690857,1.1275628805160522,-0.028335683047771454,-0.40279632806777954,0.9935594797134399,4.066135406494141,4.1484375,0,"['A1', 'B2', 'F2']",7.6,90,0,0.5764284008556586,[11600|0|0]
11600,1.676203727722168,1.1273051500320435,-0.028454456478357315,-0.39060381054878235,0.9958241581916809,4.065919399261475,4.1484375,0,"['A1', 'B2', 'F2']",7.6,90,0,0.5768357120794513,[11700|0|0]
11700,1.676231861114502,1.1274358034133911,-0.028767390176653862,-0.3974097669124603,0.9918606877326965,4.103719234466553,4.1484375,0,"['A1', 'B2', 'F2']",7.6,90,0,0.5771759903381622,[11800|0|0]
11800,1.6765438318252563,1.1274038553237915,-0.028783155605196953,-0.40174683928489685,0.9793360829353333,4.086828231811523,4.1484375,0,"['A1', 'B2', 'F2']",7.6,90,0,0.577489988671812,[11900|0|0]
11900,1.6763575077056885,1.1272238492965698,-0.028769677504897118,-0.3960739076137543,0.9832243323326111,4.084005355834961,4.1484375,0,"['A1', 'B2', 'F2']",7.6,90,0,0.5777494120835477,[12000|0|0]
12000,1.6767736673355103,1.127550721168518,-0.02855306677520275,-0.4080212712287903,0.9728779196739197,4.092403888702393,4.1484375,0,"['A1', 'B2', 'F2']",7.6,90,0,0.5783212112321856,[12100|0|0]
12100,1.6761951446533203,1.1273033618927002,-0.028327107429504395,-0.406107634305954,0.9851778745651245,4.0757856369018555,4.1484375,0,"['A1', 'B2', 'F2']",7.6,90,0,0.5789897415090242,[12200|0|0]
12200,1.676635980606079,1.1275421380996704,-0.028551310300827026,-0.4135381579399109,0.9678214192390442,4.081311225891113,4.1484375,0,"['A1', 'B2', 'F2']",7.6,90,0,0.5795389385062566,[12300|0|0]
12300,1.6768462657928467,1.1275004148483276,-0.02849385514855385,-0.40939125418663025,0.9622718095779419,4.071511268615723,4.1484375,0,"['A1', 'B2', 'F2']",7.6,90,0,0.5797608884645787,[12400|0|0]
12400,1.6766642332077026,1.1274358034133911,-0.028285998851060867,-0.41211140155792236,0.9694856405258179,4.05478048324585,4.1484375,0,"['A1', 'B2', 'F2']",7.6,90,0,0.5800446396583846,[12500|0|0]
12500,1.6765012741088867,1.1274172067642212,-0.028313565999269485,-0.41769275069236755,0.9692683815956116,4.025467395782471,4.1484375,0,"['A1', 'B2', 'F2']",7.6,90,0,0.5802109569783113,[12600|0|0]
12600,1.6766904592514038,1.1275275945663452,-0.028377648442983627,-0.41753849387168884,0.9683865308761597,4.049102783203125,4.1484375,0,"['A1', 'B2', 'F2']",7.6,90,0,0.5804391740780198,[12700|0|0]
12700,1.6764596700668335,1.1275079250335693,-0.028878236189484596,-0.4140998423099518,0.9744348526000977,4.065036773681641,4.1484375,0,"['A1', 'B2', 'F2']",7.6,90,0,0.5809907523863145,[12800|0|0]
12800,1.6765834093093872,1.127213716506958,-0.02844354696571827,-0.4098673462867737,0.9722331762313843,4.074559211730957,4.1484375,0,"['A1', 'B2', 'F2']",7.6,90,0,0.5815300341109605,[12900|0|0]
12900,1.6765121221542358,1.1272403001785278,-0.028344590216875076,-0.4075545072555542,0.978127121925354,4.09919548034668,4.1484375,0,"['A1', 'B2', 'F2']",7.6,90,0,0.5816548579397165,[13000|0|0]
13000,1.6765108108520508,1.1274170875549316,-0.028535692021250725,-0.4096931517124176,0.9882466793060303,4.095315456390381,4.1484375,0,"['A1', 'B2', 'F2']",7.6,90,0,0.5819151950204499,[13100|0|0]
13100,1.6764057874679565,1.127268671989441,-0.028447572141885757,-0.40887048840522766,0.9932384490966797,4.087345600128174,4.1484375,0,"['A1', 'B2', 'F2']",7.6,90,0,0.5821172400758851,[13200|0|0]
13200,1.6765236854553223,1.1273702383041382,-0.02864828146994114,-0.4126774072647095,0.9883481860160828,4.089212417602539,4.1484375,0,"['A1', 'B2', 'F2']",7.6,90,0,0.5823712083535784,[13300|0|0]
13300,1.676560878753662,1.1278319358825684,-0.028398796916007996,-0.42352911829948425,0.9862552285194397,4.086397171020508,4.1484375,0,"['A1', 'B2', 'F2']",7.6,90,0,0.5828973172187583,[13400|0|0]
13400,1.6763620376586914,1.127678394317627,-0.02852855622768402,-0.4190247654914856,0.9921178221702576,4.086061000823975,4.1484375,0,"['A1', 'B2', 'F2']",7.6,90,0,0.5831800720103718,[13500|0|0]
13500,1.6765937805175781,1.1273252964019775,-0.02849779836833477,-0.4134432375431061,0.9918539524078369,4.06935453414917,4.1484375,0,"['A1', 'B2', 'F2']",7.6,90,0,0.5836035444847933,[13600|0|0]
13600,1.6763805150985718,1.1273529529571533,-0.02841983176767826,-0.4166962802410126,0.9992511868476868,4.073470115661621,4.1484375,0,"['A1', 'B2', 'F2']",7.6,90,0,0.5838322928504839,[13700|0|0]
13700,1.6768288612365723,1.1275427341461182,-0.028226686641573906,-0.42314791679382324,0.9822270274162292,4.0761637687683105,4.1484375,0,"['A1', 'B2', 'F2']",7.6,90,0,0.5843560639826425,[13800|0|0]
13800,1.676216721534729,1.1272687911987305,-0.02829471044242382,-0.4149954319000244,0.9993494749069214,4.063937187194824,4.1484375,0,"['A1', 'B2', 'F2']",7.6,90,0,0.5850301463147639,[13900|0|0]
13900,1.6767159700393677,1.1275030374526978,-0.028436122462153435,-0.4218716621398926,0.9772768616676331,4.0770134925842285,4.1484375,0,"['A1', 'B2', 'F2']",7.6,90,0,0.5855994597049153,[14000|0|0]
14000,1.6762815713882446,1.1275429725646973,-0.028664812445640564,-0.4209330677986145,0.9811736941337585,4.074730396270752,4.1484375,0,"['A1', 'B2', 'F2']",7.6,90,0,0.5860920001700706,[14100|0|0]
14100,1.6764883995056152,1.127592921257019,-0.0285196416079998,-0.4216647744178772,0.976189374923706,4.0810017585754395,4.1484375,0,"['A1', 'B2', 'F2']",7.6,90,0,0.5863495798938476,[14200|0|0]
14200,1.6766003370285034,1.1273136138916016,-0.028567586094141006,-0.421448290348053,0.9721817374229431,4.070531845092773,4.1484375,0,"['A1', 'B2', 'F2']",7.6,90,0,0.5866542785764147,[14300|0|0]
14300,1.6768019199371338,1.1273319721221924,-0.028546202927827835,-0.42626070976257324,0.9753531217575073,4.058270454406738,4.1484375,0,"['A1', 'B2', 'F2']",7.6,90,0,0.5868578220201408,[14400|0|0]
14400,1.6763743162155151,1.1275187730789185,-0.028662921860814095,-0.4245127737522125,0.9860081672668457,4.063482284545898,4.1484375,0,"['A1', 'B2', 'F2']",7.6,90,0,0.5873388239426872,[14500|0|0]
14500,1.6767405271530151,1.1274510622024536,-0.02835993841290474,-0.4203144907951355,0.9757418036460876,4.0651631355285645,4.1484375,0,"['A1', 'B2', 'F2']",7.6,90,0,0.5878189220402082,[14600|0|0]
14600,1.676296353340149,1.1273051500320435,-0.028605645522475243,-0.41676560044288635,0.9920106530189514,4.063625335693359,4.1484375,0,"['A1', 'B2', 'F2']",7.6,90,0,0.5883470817899085,[14700|0|0]
14700,1.6766468286514282,1.1277005672454834,-0.028460146859288216,-0.4270417392253876,0.9881776571273804,4.075608730316162,4.1484375,0,"['A1', 'B2', 'F2']",7.6,90,0,0.5888951306722996,[14800|0|0]
14800,1.6765928268432617,1.1274853944778442,-0.028436757624149323,-0.422456830739975,0.9911471605300903,4.060125350952148,4.1484375,0,"['A1', 'B2', 'F2']",7.6,90,0,0.5891182059321092,[14900|0|0]
14900,1.6762199401855469,1.1266974210739136,-0.028860637918114662,-0.4082871377468109,1.0001047849655151,4.0433430671691895,4.1484375,0,"['A1', 'B2', 'F2']",7.6,90,0,0.5900875464545345,[15000|0|0]
15000,1.6762725114822388,1.126874327659607,-0.02898556925356388,-0.413266122341156,0.9941136837005615,4.034463405609131,4.1484375,0,"['A1', 'B2', 'F2']",7.6,90,0,0.5903104085640881,[15100|0|0]
15100,1.6761267185211182,1.1271727085113525,-0.028916943818330765,-0.4215775430202484,0.9974375367164612,4.057204723358154,4.1484375,0,"['A1', 'B2', 'F2']",7.6,90,0,0.5906495194169986,[15200|0|0]
15200,1.6764247417449951,1.127249002456665,-0.028576914221048355,-0.4193338453769684,0.9909011721611023,4.051928997039795,4.1484375,0,"['A1', 'B2', 'F2']",7.6,90,0,0.59110805920272,[15300|0|0]
15300,1.6767668724060059,1.1273226737976074,-0.02821505442261696,-0.4235720634460449,0.9761279225349426,4.029531002044678,4.1484375,0,"['A1', 'B2', 'F2']",7.6,90,0,0.5916114709322225,[15400|0|0]
15400,1.6764559745788574,1.1268177032470703,-0.02874617651104927,-0.4094037115573883,0.9876435995101929,4.051419258117676,4.1484375,0,"['A1', 'B2', 'F2']",7.6,90,0,0.5924075509462011,[15500|0|0]
15500,1.6764988899230957,1.1272287368774414,-0.028969721868634224,-0.4201733469963074,0.9866703748703003,4.042300224304199,4.1484375,0,"['A1', 'B2', 'F2']",7.6,90,0,0.5928774050713984,[15600|0|0]
15600,1.6764419078826904,1.1273430585861206,-0.028797458857297897,-0.41467511653900146,0.9822906255722046,4.03513240814209,4.1484375,0,"['A1', 'B2', 'F2']",7.6,90,0,0.5930918600808497,[15700|0|0]
15700,1.6759272813796997,1.1271892786026,-0.028809618204832077,-0.40987294912338257,0.9964991211891174,4.052460193634033,4.1484375,0,"['A1', 'B2', 'F2']",7.6,90,0,0.5936291091577632,[15800|0|0]
15800,1.6763768196105957,1.1272945404052734,-0.028693772852420807,-0.41445353627204895,0.9770581722259521,4.030275821685791,4.1484375,0,"['A1', 'B2', 'F2']",7.6,90,0,0.5941051184158817,[15900|0|0]
15900,1.6761518716812134,1.1270530223846436,-0.028909295797348022,-0.40425750613212585,0.9953149557113647,4.046493053436279,4.1484375,0,"['A1', 'B2', 'F2']",7.6,90,0,0.594499304495053,[16000|0|0]
16000,1.6764005422592163,1.127662181854248,-0.028895851224660873,-0.41888725757598877,0.9910491108894348,4.068575382232666,4.1484375,0,"['A1', 'B2', 'F2']",7.6,90,0,0.5951574025670057,[16100|0|0]
16100,1.6762088537216187,1.1270146369934082,-0.02882719784975052,-0.39626628160476685,0.9987241625785828,4.068596839904785,4.1484375,0,"['A1', 'B2', 'F2']",7.6,90,0,0.5958362045470654,[16200|0|0]
16201,1.6762123107910156,1.126949667930603,-0.028838474303483963,-0.39085856080055237,1.004392385482788,4.048337459564209,4.1484375,0,"['A1', 'B2', 'F2']",7.6,90,0,0.5959022355160073,[16300|0|0]
16300,1.676344871520996,1.1272722482681274,-0.029317136853933334,-0.40189146995544434,0.998574435710907,4.082747936248779,4.1484375,0,"['A1', 'B2', 'F2']",7.6,90,0,0.5964944755505314,[16400|0|0]
16400,1.676471471786499,1.1271557807922363,-0.02898840419948101,-0.40180695056915283,0.9884707927703857,4.079346656799316,4.1484375,0,"['A1', 'B2', 'F2']",7.6,90,0,0.5968654977308241,[16500|0|0]
16501,1.6765044927597046,1.1276354789733887,-0.02876945585012436,-0.42447376251220703,0.9962570071220398,4.064367294311523,4.1484375,0,"['A1', 'B2', 'F2']",7.6,90,0,0.5973938339016077,[16600|0|0]
16601,1.6764450073242188,1.1273372173309326,-0.028966382145881653,-0.41821324825286865,0.996502161026001,4.074409484863281,4.1484375,0,"['A1', 'B2', 'F2']",7.6,90,0,0.597756157638556,[16700|0|0]
16701,1.6761136054992676,1.1270660161972046,-0.028873682022094727,-0.4076636731624603,1.000917911529541,4.067931652069092,4.1484375,0,"['A1', 'B2', 'F2']",7.6,90,0,0.5981943020639073,[16800|0|0]
16801,1.6763460636138916,1.1271562576293945,-0.028953811153769493,-0.41120946407318115,0.9939064383506775,4.067625522613525,4.1484375,0,"['A1', 'B2', 'F2']",7.6,90,0,0.5984562199305777,[16900|0|0]
16901,1.6762558221817017,1.127518892288208,-0.029016641899943352,-0.42664074897766113,0.9887022972106934,4.065540313720703,4.1484375,0,"['A1', 'B2', 'F2']",7.6,90,0,0.5988351593908101,[17000|0|0]
17001,1.676207423210144,1.127061367034912,-0.029039647430181503,-0.4153556823730469,0.9918529987335205,4.071704387664795,4.1484375,0,"['A1', 'B2', 'F2']",7.6,90,0,0.599295812266925,[17100|0|0]
17101,1.6764484643936157,1.1274265050888062,-0.029250312596559525,-0.4300104081630707,0.9850733876228333,4.062733173370361,4.1484375,0,"['A1', 'B2', 'F2']",7.6,90,0,0.5997814113431762,[17200|0|0]
17201,1.6762194633483887,1.127110242843628,-0.029312746599316597,-0.4132063388824463,0.995248556137085,4.058472633361816,4.1484375,0,"['A1', 'B2', 'F2']",7.6,90,0,0.6001768367990342,[17300|0|0]
17302,1.6760467290878296,1.127335548400879,-0.029070403426885605,-0.4216168522834778,0.9986339807510376,4.053661823272705,4.1484375,0,"['A1', 'B2', 'F2']",7.6,90,0,0.6005501060478654,[17400|0|0]
17401,1.6761555671691895,1.1272149085998535,-0.02880774438381195,-0.41979140043258667,1.00137197971344,4.03834342956543,4.1484375,0,"['A1', 'B2', 'F2']",7.6,90,0,0.6008589578933413,[17500|0|0]
17501,1.6763702630996704,1.127461552619934,-0.02890000492334366,-0.42142799496650696,1.0007716417312622,4.042240142822266,4.1484375,0,"['A1', 'B2', 'F2']",7.6,90,0,0.6011987219620144,[17600|0|0]
17602,1.6763938665390015,1.1270265579223633,-0.028881773352622986,-0.4054620563983917,1.0074968338012695,4.044503211975098,4.1484375,0,"['A1', 'B2', 'F2']",7.6,90,0,0.6016347379014408,[17700|0|0]
17702,1.6760802268981934,1.12721848487854,-0.02934005856513977,-0.40960368514060974,1.0146019458770752,4.049878120422363,4.1484375,0,"['A1', 'B2', 'F2']",7.6,90,0,0.6022223016144159,[17800|0|0]
17802,1.6759071350097656,1.1272215843200684,-0.028916994109749794,-0.4087645411491394,1.0115809440612793,4.063652992248535,4.1484375,0,"['A1', 'B2', 'F2']",7.6,90,0,0.6026794164159611,[17900|0|0]
17902,1.676206111907959,1.1274255514144897,-0.028819307684898376,-0.41294482350349426,1.0013915300369263,4.057105541229248,4.1484375,0,"['A1', 'B2', 'F2']",7.6,90,0,0.6030542929274423,[18000|0|0]
18002,1.676162600517273,1.1270692348480225,-0.029117833822965622,-0.4045175313949585,1.0083075761795044,4.065517425537109,4.1484375,0,"['A1', 'B2', 'F2']",7.6,90,0,0.603521168276725,[18100|0|0]
18100,1.676465630531311,1.1272345781326294,-0.029128732159733772,-0.41472747921943665,0.9985530972480774,4.141019344329834,4.1484375,0,"['A1', 'B2', 'F2']",7.6,90,0,0.6038665439633575,[18200|0|0]
18200,1.6766825914382935,1.12765634059906,-0.028265217319130898,-0.42385903000831604,0.9832813143730164,4.230874538421631,4.1484375,0,"['A1', 'B2', 'F2']",7.6,90,0,0.6048517411482853,[18300|0|0]
18300,1.6765952110290527,1.1275050640106201,-0.028629228472709656,-0.40786170959472656,0.9841113090515137,4.182755947113037,4.1484375,0,"['A1', 'B2', 'F2']",7.6,90,0,0.6052555035314501,[18400|0|0]
18400,1.6768006086349487,1.127526879310608,-0.028765706345438957,-0.4024273753166199,0.9824419617652893,4.115584373474121,4.1484375,0,"['A1', 'B2', 'F2']",7.6,90,0,0.6055030722967781,[18500|0|0]
18500,1.6771265268325806,1.1275241374969482,-0.029046084731817245,-0.4005333185195923,0.9707244634628296,4.077879428863525,4.1484375,0,"['A1', 'B2', 'F2']",7.6,90,0,0.6059330051155275,[18600|0|0]
18600,1.6778674125671387,1.127399206161499,-0.02887868694961071,-0.3981854021549225,0.9579170942306519,4.03132963180542,4.1484375,0,"['A1', 'B2', 'F2']",7.6,90,0,0.6067027723061355,[18700|0|0]
18700,1.6787792444229126,1.1275211572647095,-0.028979625552892685,-0.4050690829753876,0.9470401406288147,4.009587287902832,4.1484375,0,"['A1', 'B2', 'F2']",7.6,90,0,0.6076282440811837,[18800|0|0]
18800,1.6797329187393188,1.1274466514587402,-0.029332676902413368,-0.3991623818874359,0.9410812258720398,3.966872453689575,4.1484375,0,"['A1', 'B2', 'F2']",7.6,90,0,0.6086478965083835,[18900|0|0]
18900,1.6808757781982422,1.1273685693740845,-0.02972409501671791,-0.39710739254951477,0.9359825849533081,3.924036979675293,4.1484375,0,"['A1', 'B2', 'F2']",7.6,90,0,0.6098584470835353,[19000|0|0]
19000,1.6822009086608887,1.1272073984146118,-0.030222374945878983,-0.39558225870132446,0.933895468711853,3.882094383239746,4.1484375,0,"['A1', 'B2', 'F2']",7.6,90,0,0.6112833083781938,[19100|0|0]
19100,1.6824322938919067,1.126944899559021,-0.031666651368141174,-0.39299049973487854,0.9399394989013672,3.9021551609039307,4.1484375,0,"['A1', 'B2', 'F2']",7.6,90,0,0.6127693700048508,[19200|0|0]
19200,1.6846749782562256,1.1265456676483154,-0.032685089856386185,-0.3888672888278961,0.9245368242263794,3.8458001613616943,4.1484375,0,"['A1', 'B2', 'F2']",7.6,90,0,0.6152646127246728,[19300|0|0]
19300,1.6848691701889038,1.1265382766723633,-0.03314580023288727,-0.39604151248931885,0.9300332069396973,3.888092279434204,4.1484375,0,"['A1', 'B2', 'F2']",7.6,90,0,0.6157646319085633,[19400|0|0]
19400,1.6868771314620972,1.1263529062271118,-0.034246690571308136,-0.4039933979511261,0.9172345995903015,3.903531789779663,4.1484375,0,"['A1', 'B2', 'F2']",7.6,90,0,0.6180620718346214,[19500|0|0]
19500,1.6882373094558716,1.1261590719223022,-0.03510658070445061,-0.40262168645858765,0.9175518751144409,3.9059958457946777,4.1484375,0,"['A1', 'B2', 'F2']",7.6,90,0,0.6196828947594176,[19600|0|0]
19600,1.6900925636291504,1.1253973245620728,-0.03602144122123718,-0.37241867184638977,0.9168102741241455,3.9004831314086914,4.1484375,0,"['A1', 'B2', 'F2']",7.6,90,0,0.6218872533630618,[19700|0|0]
19700,1.6899265050888062,1.1256487369537354,-0.03631088137626648,-0.3977903425693512,0.9266703128814697,3.9021034240722656,4.1484375,0,"['A1', 'B2', 'F2']",7.6,90,0,0.6223050562266783,[19800|0|0]
19800,1.6924083232879639,1.125257968902588,-0.03732588514685631,-0.39497581124305725,0.912196159362793,3.897355556488037,4.1484375,0,"['A1', 'B2', 'F2']",7.6,90,0,0.625014734048446,[19900|0|0]
19900,1.6938058137893677,1.125186800956726,-0.03830315172672272,-0.3979620039463043,0.9127811789512634,3.9092090129852295,4.1484375,0,"['A1', 'B2', 'F2']",7.6,90,0,0.6267215130459016,[20000|0|0]
20000,1.6968028545379639,1.1248462200164795,-0.039457254111766815,-0.38773491978645325,0.8971905708312988,3.8990533351898193,4.1484375,0,"['A1', 'B2', 'F2']",7.6,90,0,0.6299510952078492,[20100|0|0]
20100,1.6966710090637207,1.1247490644454956,-0.03962249308824539,-0.3827493488788605,0.9086530804634094,3.9014337062835693,4.1484375,0,"['A1', 'B2', 'F2']",7.6,90,0,0.6301837459190007,[20200|0|0]
20200,1.6770615577697754,1.1273363828659058,-0.02887866273522377,-0.3797602653503418,0.9539370536804199,4.014515399932861,4.1484375,0,"['A1', 'B2', 'F2']",7.6,90,0,0.6526927371738908,[20300|0|0]
20300,1.677850365638733,1.1270052194595337,-0.029611652716994286,-0.3784758746623993,0.947590172290802,3.9720237255096436,4.1484375,0,"['A1', 'B2', 'F2']",7.6,90,0,0.6538193077971653,[20400|0|0]
20400,1.6795892715454102,1.1274538040161133,-0.029595816507935524,-0.40318596363067627,0.9151934385299683,3.9436750411987305,4.1484375,0,"['A1', 'B2', 'F2']",7.6,90,0,0.6556152122050324,[20500|0|0]
20500,1.6767332553863525,1.1275086402893066,-0.029254456982016563,-0.41144534945487976,1.0004823207855225,4.13701057434082,4.1484375,0,"['A1', 'B2', 'F2']",7.6,90,0,0.6584920788414255,[20600|0|0]
20600,1.6770521402359009,1.1276153326034546,-0.029064621776342392,-0.42216819524765015,0.9916569590568542,4.240874290466309,4.1484375,0,"['A1', 'B2', 'F2']",7.6,90,0,0.6588782241540774,[20700|0|0]
20700,1.6771423816680908,1.1272969245910645,-0.02933589741587639,-0.41610535979270935,0.9909325242042542,4.207438945770264,4.1484375,0,"['A1', 'B2', 'F2']",7.6,90,0,0.6593061466365931,[20800|0|0]
20800,1.676384687423706,1.1270838975906372,-0.028688114136457443,-0.41387754678726196,1.0084199905395508,4.19211483001709,4.1484375,0,"['A1', 'B2', 'F2']",7.6,90,0,0.6603255112661441,[20900|0|0]
20900,1.6767375469207764,1.127073884010315,-0.028710229322314262,-0.42059212923049927,1.0036826133728027,4.18578577041626,4.1484375,0,"['A1', 'B2', 'F2']",7.6,90,0,0.6606792048876714,[21000|0|0]
21000,1.676939845085144,1.1275038719177246,-0.028269724920392036,-0.42450132966041565,0.9867915511131287,4.134527206420898,4.1484375,0,"['A1', 'B2', 'F2']",7.6,90,0,0.6613271696057988,[21100|0|0]
21100,1.676969051361084,1.1276508569717407,-0.028278924524784088,-0.4219568073749542,0.9786551594734192,4.092461585998535,4.1484375,0,"['A1', 'B2', 'F2']",7.6,90,0,0.6614773103576931,[21200|0|0]
21200,1.677139401435852,1.1278347969055176,-0.028396056964993477,-0.4226013123989105,0.9748279452323914,4.148736476898193,4.1484375,0,"['A1', 'B2', 'F2']",7.6,90,0,0.6617540287267268,[21300|0|0]
21300,1.6773127317428589,1.1273192167282104,-0.028662702068686485,-0.39939796924591064,0.974899411201477,4.184207439422607,4.1484375,0,"['A1', 'B2', 'F2']",7.6,90,0,0.6623598058523124,[21400|0|0]
21400,1.6776096820831299,1.127209186553955,-0.029217272996902466,-0.40769344568252563,0.9698215126991272,3.947901725769043,4.1484375,0,"['A1', 'B2', 'F2']",7.6,90,0,0.6629984255030091,[21500|0|0]
21500,1.6784356832504272,1.1276288032531738,-0.02964434213936329,-0.4338676631450653,0.9523878693580627,3.959602117538452,4.1484375,0,"['A1', 'B2', 'F2']",7.6,90,0,0.6640185941925316,[21600|0|0]
21600,1.6797080039978027,1.1272156238555908,-0.02986770123243332,-0.40713798999786377,0.941312849521637,3.932518720626831,4.1484375,0,"['A1', 'B2', 'F2']",7.6,90,0,0.6653748414352002,[21700|0|0]
21700,1.6802377700805664,1.1271296739578247,-0.03046935237944126,-0.4061579704284668,0.9431812763214111,3.9482128620147705,4.1484375,0,"['A1', 'B2', 'F2']",7.6,90,0,0.6661810818398369,[21800|0|0]
21800,1.6812808513641357,1.1268986463546753,-0.03127635642886162,-0.391380250453949,0.9370924234390259,3.9532487392425537,4.1484375,0,"['A1', 'B2', 'F2']",7.6,90,0,0.667519979839436,[21900|0|0]
21900,1.6838266849517822,1.1266977787017822,-0.03209874406456947,-0.4051293432712555,0.9090427160263062,3.9141323566436768,4.1484375,0,"['A1', 'B2', 'F2']",7.6,90,0,0.6702028771340287,[22000|0|0]
22000,1.6844459772109985,1.1268291473388672,-0.03271970525383949,-0.41981998085975647,0.9173464179039001,3.892496347427368,4.1484375,0,"['A1', 'B2', 'F2']",7.6,90,0,0.671089654118233,[22100|0|0]
22100,1.6860183477401733,1.126475214958191,-0.033656585961580276,-0.39846476912498474,0.9148603677749634,3.8791770935058594,4.1484375,0,"['A1', 'B2', 'F2']",7.6,90,0,0.6729538865800374,[22200|0|0]
22200,1.6886755228042603,1.1262340545654297,-0.034810297191143036,-0.401641845703125,0.9016579985618591,3.910707473754883,4.1484375,0,"['A1', 'B2', 'F2']",7.6,90,0,0.6758607383577278,[22300|0|0]
22300,1.6884732246398926,1.126478672027588,-0.03529522195458412,-0.40958765149116516,0.9155495762825012,3.9049243927001953,4.1484375,0,"['A1', 'B2', 'F2']",7.6,90,0,0.6764403194791402,[22400|0|0]
22400,1.6905452013015747,1.1256523132324219,-0.03643236309289932,-0.3754628002643585,0.90852952003479,3.9160797595977783,4.1484375,0,"['A1', 'B2', 'F2']",7.6,90,0,0.6789441258041886,[22500|0|0]
22500,1.6936968564987183,1.1251280307769775,-0.03766445070505142,-0.3765050172805786,0.8888710141181946,3.8881728649139404,4.1484375,0,"['A1', 'B2', 'F2']",7.6,90,0,0.6823684275518136,[22600|0|0]
22600,1.696540355682373,1.1245354413986206,-0.03890182822942734,-0.3751337230205536,0.8827199339866638,3.8458471298217773,4.1484375,0,"['A1', 'B2', 'F2']",7.6,90,0,0.6855256023833073,[22700|0|0]
22700,1.694167137145996,1.1251782178878784,-0.03853693976998329,-0.4017699956893921,0.9038114547729492,3.8645811080932617,4.1484375,0,"['A1', 'B2', 'F2']",7.6,90,0,0.6880112555015805,[22800|0|0]
22800,1.6968177556991577,1.124953269958496,-0.039936065673828125,-0.3967300057411194,0.8893930315971375,3.8983662128448486,4.1484375,0,"['A1', 'B2', 'F2']",7.6,90,0,0.6910169057773291,[22900|0|0]
22900,1.6974672079086304,1.124977946281433,-0.04031917080283165,-0.40145641565322876,0.8932876586914062,3.8791630268096924,4.1484375,0,"['A1', 'B2', 'F2']",7.6,90,0,0.6917713371083138,[23000|0|0]
23000,1.699581503868103,1.1246452331542969,-0.0412307009100914,-0.38395604491233826,0.8843761086463928,3.871255397796631,4.1484375,0,"['A1', 'B2', 'F2']",7.6,90,0,0.6940976716856376,[23100|0|0]
23100,1.6988414525985718,1.1243023872375488,-0.04131704196333885,-0.3652907907962799,0.902124285697937,3.8849692344665527,4.1484375,0,"['A1', 'B2', 'F2']",7.6,90,0,0.6949178387305995,[23200|0|0]
23200,1.6765775680541992,1.1273915767669678,-0.029087623581290245,-0.38583678007125854,0.9731966853141785,3.836625099182129,4.1484375,0,"['A1', 'B2', 'F2']",7.6,90,0,0.720506553448557,[23300|0|0]
23300,1.6759089231491089,1.1271284818649292,-0.028898688033223152,-0.3966556191444397,1.0310810804367065,3.9142792224884033,4.1484375,0,"['A1', 'B2', 'F2']",7.6,90,0,0.7212495215352911,[23400|0|0]
23400,1.6763496398925781,1.1274217367172241,-0.029318757355213165,-0.40627801418304443,1.018964409828186,3.955911636352539,4.1484375,0,"['A1', 'B2', 'F2']",7.6,90,0,0.7219253084037975,[23500|0|0]
23500,1.6762577295303345,1.1272952556610107,-0.02882099337875843,-0.4115228056907654,1.0202124118804932,3.9991912841796875,4.1484375,0,"['A1', 'B2', 'F2']",7.6,90,0,0.72244704966968,[23600|0|0]
23600,1.676377534866333,1.1271653175354004,-0.02908165752887726,-0.4112568497657776,1.0188212394714355,4.023728370666504,4.1484375,0,"['A1', 'B2', 'F2']",7.6,90,0,0.7227619830502194,[23700|0|0]
23700,1.6761598587036133,1.127156138420105,-0.02916461043059826,-0.42369866371154785,1.0207675695419312,4.058564186096191,4.1484375,0,"['A1', 'B2', 'F2']",7.6,90,0,0.7229951103799728,[23800|0|0]
23800,1.6761245727539062,1.1274291276931763,-0.0288514643907547,-0.42590487003326416,1.009613275527954,4.072670936584473,4.14453125,0,"['A1', 'B2', 'F2']",7.6,90,0,0.7234120380520316,[23900|0|0]
23900,1.676231026649475,1.1274455785751343,-0.029213648289442062,-0.42253363132476807,0.9999024868011475,4.087824821472168,4.1484375,0,"['A1', 'B2', 'F2']",7.6,90,0,0.7237899007782528,[24000|0|0]
24000,1.67606782913208,1.1272151470184326,-0.028904195874929428,-0.4140644371509552,1.000006079673767,4.103934288024902,4.1484375,0,"['A1', 'B2', 'F2']",7.6,90,0,0.7242088195398947,[24100|0|0]
24100,1.6765679121017456,1.1272834539413452,-0.02903217449784279,-0.4135768711566925,0.9828751683235168,4.092424392700195,4.1484375,0,"['A1', 'B2', 'F2']",7.6,90,0,0.7247295184357934,[24200|0|0]
24200,1.676215410232544,1.126923680305481,-0.029057621955871582,-0.40128543972969055,1.0048911571502686,4.06820011138916,4.1484375,0,"['A1', 'B2', 'F2']",7.6,90,0,0.7252338419529664,[24300|0|0]
24300,1.676412582397461,1.1274300813674927,-0.029229845851659775,-0.41558414697647095,0.9951651096343994,4.063912868499756,4.14453125,0,"['A1', 'B2', 'F2']",7.6,90,0,0.725803912096462,[24400|0|0]
24400,1.6760613918304443,1.1276055574417114,-0.029592158272862434,-0.41414186358451843,0.9989404082298279,4.098728656768799,4.1484375,0,"['A1', 'B2', 'F2']",7.6,90,0,0.7263381376644971,[24500|0|0]
24500,1.6761763095855713,1.127809762954712,-0.029309028759598732,-0.41609659790992737,0.997504472732544,4.127067565917969,4.1484375,0,"['A1', 'B2', 'F2']",7.6,90,0,0.72670565406313,[24600|0|0]
24600,1.6760852336883545,1.1273715496063232,-0.02947218529880047,-0.4058353304862976,0.9998459219932556,4.162715435028076,4.1484375,0,"['A1', 'B2', 'F2']",7.6,90,0,0.7271820423648799,[24700|0|0]
24700,1.676378607749939,1.1271984577178955,-0.028963234275579453,-0.4038172662258148,0.9927557706832886,4.155068874359131,4.1484375,0,"['A1', 'B2', 'F2']",7.6,90,0,0.7277944640218188,[24800|0|0]
24800,1.6763627529144287,1.1269580125808716,-0.028980683535337448,-0.40274277329444885,0.9897229671478271,4.139420509338379,4.1484375,0,"['A1', 'B2', 'F2']",7.6,90,0,0.7280360622759383,[24900|0|0]
24900,1.6763485670089722,1.1276885271072388,-0.029052678495645523,-0.43117019534111023,0.9889968037605286,4.112427234649658,4.1484375,0,"['A1', 'B2', 'F2']",7.6,90,0,0.7287702529783153,[25000|0|0]
25000,1.6765103340148926,1.1275649070739746,-0.029607735574245453,-0.42563751339912415,0.9918252825737,4.1117377281188965,4.1484375,0,"['A1', 'B2', 'F2']",7.6,90,0,0.7293614710745646,[25100|0|0]
25100,1.6759082078933716,1.1275578737258911,-0.029242947697639465,-0.42116495966911316,1.0125187635421753,4.137027263641357,4.1484375,0,"['A1', 'B2', 'F2']",7.6,90,0,0.730065513352501,[25200|0|0]
25200,1.6762917041778564,1.1273939609527588,-0.028972625732421875,-0.42149972915649414,0.9976378679275513,4.10722017288208,4.1484375,0,"['A1', 'B2', 'F2']",7.6,90,0,0.7305625151254241,[25300|0|0]
25300,1.6760658025741577,1.1271307468414307,-0.028922654688358307,-0.4168621897697449,1.0086520910263062,4.097118377685547,4.1484375,0,"['A1', 'B2', 'F2']",7.6,90,0,0.7309129581424765,[25400|0|0]
25400,1.6760995388031006,1.1275627613067627,-0.029115542769432068,-0.42257997393608093,0.9970894455909729,4.11765193939209,4.1484375,0,"['A1', 'B2', 'F2']",7.6,90,0,0.7313872791763973,[25500|0|0]
25500,1.6761581897735596,1.127663493156433,-0.029241517186164856,-0.42295679450035095,0.9909951090812683,4.147660732269287,4.1484375,0,"['A1', 'B2', 'F2']",7.6,90,0,0.7315589078323524,[25600|0|0]
25600,1.6760417222976685,1.1275750398635864,-0.02945059910416603,-0.42301857471466064,0.9875890612602234,4.148294448852539,4.1484375,0,"['A1', 'B2', 'F2']",7.6,90,0,0.7318140625038576,[25700|0|0]
25700,1.6765743494033813,1.127463698387146,-0.029137348756194115,-0.41772136092185974,0.9756554365158081,4.134096622467041,4.1484375,0,"['A1', 'B2', 'F2']",7.6,90,0,0.7324419274086107,[25800|0|0]
25800,1.6760809421539307,1.127386212348938,-0.029560159891843796,-0.41025638580322266,0.990318775177002,4.1630401611328125,4.1484375,0,"['A1', 'B2', 'F2']",7.6,90,0,0.733096315715625,[25900|0|0]
25900,1.6758997440338135,1.127526879310608,-0.029518233612179756,-0.4099554717540741,0.9888554215431213,4.149711608886719,4.1484375,0,"['A1', 'B2', 'F2']",7.6,90,0,0.7333295061223014,[26000|0|0]
26000,1.6762739419937134,1.1277284622192383,-0.029284927994012833,-0.4117805063724518,0.9749126434326172,4.1522111892700195,4.1484375,0,"['A1', 'B2', 'F2']",7.6,90,0,0.7338143682611753,[26100|0|0]
26100,1.676320195198059,1.1273125410079956,-0.02938234806060791,-0.3961963951587677,0.9780768752098083,4.159027099609375,4.1484375,0,"['A1', 'B2', 'F2']",7.6,90,0,0.7342440431176065,[26200|0|0]
26200,1.6763339042663574,1.1276092529296875,-0.029452122747898102,-0.4050418734550476,0.9815091490745544,4.1512274742126465,4.1484375,0,"['A1', 'B2', 'F2']",7.6,90,0,0.7345491568832975,[26300|0|0]
26300,1.6763286590576172,1.1276390552520752,-0.028841381892561913,-0.40099743008613586,0.984070360660553,4.180908203125,4.1484375,0,"['A1', 'B2', 'F2']",7.6,90,0,0.7351606469347384,[26400|0|0]
26400,1.6764038801193237,1.127537727355957,-0.028821565210819244,-0.38522425293922424,0.9827920198440552,4.154446125030518,4.1484375,0,"['A1', 'B2', 'F2']",7.6,90,0,0.7352883898466015,[26500|0|0]
26500,1.676572322845459,1.1277048587799072,-0.02870374359190464,-0.3808797299861908,0.9705199003219604,4.106102466583252,4.1484375,0,"['A1', 'B2', 'F2']",7.6,90,0,0.7355533196462526,[26600|0|0]
26600,1.6768029928207397,1.1279182434082031,-0.028960587456822395,-0.39033034443855286,0.9636977910995483,4.08111572265625,4.1484375,0,"['A1', 'B2', 'F2']",7.6,90,0,0.7359591649468721,[26700|0|0]
26700,1.6771979331970215,1.1278034448623657,-0.029302196577191353,-0.3866834342479706,0.9567356109619141,4.086190223693848,4.1484375,0,"['A1', 'B2', 'F2']",7.6,90,0,0.7364938175425482,[26800|0|0]
26800,1.6777317523956299,1.127842903137207,-0.02950257435441017,-0.3950890600681305,0.94864821434021,4.057700157165527,4.14453125,0,"['A1', 'B2', 'F2']",7.6,90,0,0.7370653690676616,[26900|0|0]
26900,1.6786251068115234,1.127539038658142,-0.02983716130256653,-0.3818959593772888,0.93897944688797,4.028426647186279,4.1484375,0,"['A1', 'B2', 'F2']",7.6,90,0,0.738066550449785,[27000|0|0]
27000,1.679280400276184,1.1270979642868042,-0.03036532737314701,-0.38146713376045227,0.9348939657211304,4.01750373840332,4.1484375,0,"['A1', 'B2', 'F2']",7.6,90,0,0.7390167691214551,[27100|0|0]
27100,1.6807997226715088,1.127357006072998,-0.03078647144138813,-0.41622796654701233,0.9119808077812195,4.033288478851318,4.14453125,0,"['A1', 'B2', 'F2']",7.6,90,0,0.7406145192627928,[27200|0|0]
27200,1.6760133504867554,1.1274076700210571,-0.02909117564558983,-0.4065142869949341,0.9904903769493103,4.162476062774658,4.1484375,0,"['A1', 'B2', 'F2']",7.6,90,0,0.7456925063996281,[27300|0|0]
27300,1.6761953830718994,1.1276609897613525,-0.0291905514895916,-0.41086748242378235,0.9914571046829224,4.164155006408691,4.1484375,0,"['A1', 'B2', 'F2']",7.6,90,0,0.746019893496577,[27400|0|0]
27400,1.67637038230896,1.1275156736373901,-0.029347216710448265,-0.411353200674057,0.999963641166687,4.15181303024292,4.1484375,0,"['A1', 'B2', 'F2']",7.6,90,0,0.7462960917954156,[27500|0|0]
27500,1.6763710975646973,1.12751042842865,-0.029090335592627525,-0.4148535132408142,1.0038518905639648,4.127145767211914,4.1484375,0,"['A1', 'B2', 'F2']",7.6,90,0,0.7465530274537006,[27600|0|0]
27600,1.6759185791015625,1.1275264024734497,-0.029094180092215538,-0.40940502285957336,1.0196760892868042,4.122325420379639,4.1484375,0,"['A1', 'B2', 'F2']",7.6,90,0,0.7470058440940333,[27700|0|0]
27700,1.675976276397705,1.1274011135101318,-0.029079293832182884,-0.4049636721611023,1.02024245262146,4.147987365722656,4.1484375,0,"['A1', 'B2', 'F2']",7.6,90,0,0.7471445809061964,[27800|0|0]
27800,1.6760321855545044,1.1272611618041992,-0.028956608846783638,-0.40186065435409546,1.0208454132080078,4.1315412521362305,4.14453125,0,"['A1', 'B2', 'F2']",7.6,90,0,0.7473389103158334,[27900|0|0]
27900,1.6764699220657349,1.127191424369812,-0.029087265953421593,-0.4077033996582031,0.9990705847740173,4.1194844245910645,4.1484375,0,"['A1', 'B2', 'F2']",7.6,90,0,0.7478010226858628,[28000|0|0]
28000,1.6761125326156616,1.1274211406707764,-0.028897147625684738,-0.41431233286857605,1.004238247871399,4.09621524810791,4.1484375,0,"['A1', 'B2', 'F2']",7.6,90,0,0.7482664706168861,[28100|0|0]
28100,1.6764291524887085,1.1273366212844849,-0.029167911037802696,-0.4093330502510071,0.9942938685417175,4.102198600769043,4.1484375,0,"['A1', 'B2', 'F2']",7.6,90,0,0.7486915641313145,[28200|0|0]
28200,1.6762033700942993,1.1274774074554443,-0.029070474207401276,-0.40476274490356445,0.9994099736213684,4.1176652908325195,4.14453125,0,"['A1', 'B2', 'F2']",7.6,90,0,0.7489749232170648,[28300|0|0]
28300,1.6762465238571167,1.1273967027664185,-0.02926217019557953,-0.40094807744026184,1.0021960735321045,4.11674690246582,4.14453125,0,"['A1', 'B2', 'F2']",7.6,90,0,0.749187344604782,[28400|0|0]
28400,1.6760214567184448,1.12738835811615,-0.029076995328068733,-0.40361645817756653,1.0094585418701172,4.105281352996826,4.1484375,0,"['A1', 'B2', 'F2']",7.6,90,0,0.7494789172057851,[28500|0|0]
28500,1.676066517829895,1.1275981664657593,-0.029458358883857727,-0.40605229139328003,0.9988651871681213,4.116560935974121,4.1484375,0,"['A1', 'B2', 'F2']",7.6,90,0,0.749916510863206,[28600|0|0]
28600,1.676107406616211,1.127681016921997,-0.02907555364072323,-0.40741902589797974,0.9883983135223389,4.1283464431762695,4.14453125,0,"['A1', 'B2', 'F2']",7.6,90,0,0.7503103076954895,[28700|0|0]
28700,1.6759759187698364,1.1275843381881714,-0.029010355472564697,-0.4027743637561798,0.9890363216400146,4.137740135192871,4.14453125,0,"['A1', 'B2', 'F2']",7.6,90,0,0.7504860536270201,[28800|0|0]
28800,1.6759225130081177,1.1274566650390625,-0.02909790724515915,-0.3883064389228821,0.9997234344482422,4.1329803466796875,4.1484375,0,"['A1', 'B2', 'F2']",7.6,90,0,0.7506498154091079,[28900|0|0]
28900,1.6763314008712769,1.1273338794708252,-0.02923302911221981,-0.3841325342655182,0.9878661036491394,4.140743255615234,4.1484375,0,"['A1', 'B2', 'F2']",7.6,90,0,0.7510976139121919,[29000|0|0]
29000,1.6761029958724976,1.1272228956222534,-0.0293129812926054,-0.380899578332901,0.9958111047744751,4.137561798095703,4.14453125,0,"['A1', 'B2', 'F2']",7.6,90,0,0.7513638442809697,[29100|0|0]
29100,1.676106333732605,1.1274253129959106,-0.028966763988137245,-0.39213985204696655,0.992209792137146,4.1382365226745605,4.1484375,0,"['A1', 'B2', 'F2']",7.6,90,0,0.7517649058178709,[29200|0|0]
29200,1.676464319229126,1.1272552013397217,-0.029024841263890266,-0.38682153820991516,0.9935299158096313,4.147795677185059,4.14453125,0,"['A1', 'B2', 'F2']",7.6,90,0,0.752165486098526,[29300|0|0]
29300,1.675994634628296,1.1272722482681274,-0.029269764199852943,-0.38611316680908203,1.000285029411316,4.153141975402832,4.14453125,0,"['A1', 'B2', 'F2']",7.6,90,0,0.7526954686138843,[29400|0|0]
29400,1.6759775876998901,1.1276183128356934,-0.029376646503806114,-0.40015265345573425,0.9984057545661926,4.154853343963623,4.1484375,0,"['A1', 'B2', 'F2']",7.6,90,0,0.753058063580191,[29500|0|0]
29500,1.67635977268219,1.1273669004440308,-0.029305098578333855,-0.39813604950904846,0.9787698984146118,4.138676643371582,4.14453125,0,"['A1', 'B2', 'F2']",7.6,90,0,0.7535210891270201,[29600|0|0]
29600,1.6761085987091064,1.127110481262207,-0.02918483316898346,-0.3996227979660034,0.9884340763092041,4.117292881011963,4.1484375,0,"['A1', 'B2', 'F2']",7.6,90,0,0.7538996428619745,[29700|0|0]
29700,1.6762704849243164,1.1272459030151367,-0.029084941372275352,-0.39879050850868225,0.989184558391571,4.113274097442627,4.1484375,0,"['A1', 'B2', 'F2']",7.6,90,0,0.7541331478274274,[29800|0|0]
29800,1.676411509513855,1.1274651288986206,-0.02955612912774086,-0.404186874628067,0.9853209257125854,4.09725284576416,4.14453125,0,"['A1', 'B2', 'F2']",7.6,90,0,0.7546716325753492,[29900|0|0]
29900,1.6762449741363525,1.1272327899932861,-0.029208090156316757,-0.3935580551624298,0.9894208312034607,4.108625888824463,4.14453125,0,"['A1', 'B2', 'F2']",7.6,90,0,0.7551220174380188,[30000|0|0]
30000,1.6760492324829102,1.127522587776184,-0.02954660914838314,-0.401040256023407,1.0018913745880127,4.091953277587891,4.1484375,0,"['A1', 'B2', 'F2']",7.6,90,0,0.7556087336364903,[30100|0|0]
30100,1.676140308380127,1.1276334524154663,-0.02931424230337143,-0.4073054790496826,0.9939810633659363,4.10160493850708,4.1484375,0,"['A1', 'B2', 'F2']",7.6,90,0,0.755881827279693,[30200|0|0]
30200,1.67597496509552,1.1273353099822998,-0.0290833692997694,-0.40146809816360474,1.000383973121643,4.097109317779541,4.14453125,0,"['A1', 'B2', 'F2']",7.6,90,0,0.7562935670713227,[30300|0|0]
30300,1.6761219501495361,1.1271581649780273,-0.02919583022594452,-0.38850072026252747,0.9927156567573547,4.108086585998535,4.1484375,0,"['A1', 'B2', 'F2']",7.6,90,0,0.756549755319607,[30400|0|0]
30400,1.6761411428451538,1.1274921894073486,-0.02922043949365616,-0.3974250853061676,0.9911003112792969,4.10640811920166,4.14453125,0,"['A1', 'B2', 'F2']",7.6,90,0,0.7568852345216536,[30500|0|0]
