time.ms,stateEstimate.x,stateEstimate.y,stateEstimate.z,stabilizer.roll,stabilizer.pitch,stabilizer.yaw,pm.vbat,drone_id,node_name,wind_speed,global_wind_direction,relative_wind_direction,travel_dist,waiting_time
0,0.7256684303283691,0.7329849600791931,-0.02868533506989479,-1.2804096937179565,0.4594733715057373,7.404401779174805,4.0703125,1,"['A1', 'B2', 'F2']",7.6,90,0,0.047026898106480176,[100|0|0]
100,0.7256690859794617,0.7331148386001587,-0.02892651967704296,-1.2880585193634033,0.4533611536026001,7.397424697875977,4.06640625,1,"['A1', 'B2', 'F2']",7.6,90,0,0.047300830351409064,[200|0|0]
200,0.7256460189819336,0.7333282232284546,-0.028636984527111053,-1.2889941930770874,0.4570825695991516,7.412557125091553,4.06640625,1,"['A1', 'B2', 'F2']",7.6,90,0,0.04766124079661568,[300|0|0]
300,0.7253153324127197,0.7329853773117065,-0.028818439692258835,-1.2793794870376587,0.46975839138031006,7.435832500457764,4.0703125,1,"['A1', 'B2', 'F2']",7.6,90,0,0.048170969064075954,[400|0|0]
400,0.7260745763778687,0.7331762313842773,-0.02847711741924286,-1.2791775465011597,0.4526849687099457,7.426731586456299,4.06640625,1,"['A1', 'B2', 'F2']",7.6,90,0,0.0490250051111423,[500|0|0]
500,0.7261008620262146,0.7332461476325989,-0.02879633568227291,-1.286651611328125,0.45430994033813477,7.411590576171875,4.0703125,1,"['A1', 'B2', 'F2']",7.6,90,0,0.04935284579888598,[600|0|0]
600,0.7258117198944092,0.7331461906433105,-0.02849503979086876,-1.2933663129806519,0.4654611051082611,7.379990100860596,4.0703125,1,"['A1', 'B2', 'F2']",7.6,90,0,0.049782233486494264,[700|0|0]
700,0.7256736159324646,0.7334067821502686,-0.0286798644810915,-1.3025119304656982,0.46518760919570923,7.376205921173096,4.06640625,1,"['A1', 'B2', 'F2']",7.6,90,0,0.05013028636167183,[800|0|0]
800,0.7256959676742554,0.7333276271820068,-0.028738783672451973,-1.2983264923095703,0.46030083298683167,7.378304481506348,4.0703125,1,"['A1', 'B2', 'F2']",7.6,90,0,0.05023146234929818,[900|0|0]
900,0.7256714105606079,0.7331287860870361,-0.0283802580088377,-1.2868313789367676,0.46923327445983887,7.358123302459717,4.0703125,1,"['A1', 'B2', 'F2']",7.6,90,0,0.05064217086436683,[1000|0|0]
1000,0.7256782054901123,0.7329779267311096,-0.028710858896374702,-1.2901759147644043,0.4597192406654358,7.358628749847412,4.06640625,1,"['A1', 'B2', 'F2']",7.6,90,0,0.05100562878927394,[1100|0|0]
1100,0.7257269620895386,0.7333877682685852,-0.028691601008176804,-1.2998732328414917,0.4531765580177307,7.379751682281494,4.0703125,1,"['A1', 'B2', 'F2']",7.6,90,0,0.051418809328609726,[1200|0|0]
1200,0.7256966233253479,0.7333084344863892,-0.028583373874425888,-1.2992374897003174,0.45132777094841003,7.38495397567749,4.06640625,1,"['A1', 'B2', 'F2']",7.6,90,0,0.0515563862237996,[1300|0|0]
1300,0.7255780696868896,0.7331209778785706,-0.02874622493982315,-1.2945085763931274,0.44696956872940063,7.400272846221924,4.0703125,1,"['A1', 'B2', 'F2']",7.6,90,0,0.05183155056470803,[1400|0|0]
1400,0.7252859473228455,0.7334508895874023,-0.02886342443525791,-1.3061407804489136,0.44976377487182617,7.398247241973877,4.0703125,1,"['A1', 'B2', 'F2']",7.6,90,0,0.052287525271165786,[1500|0|0]
1500,0.7255867719650269,0.7331140041351318,-0.028910869732499123,-1.267661213874817,0.47100764513015747,7.3830952644348145,4.0703125,1,"['A1', 'B2', 'F2']",7.6,90,0,0.05274165997532896,[1600|0|0]
1600,0.725417971611023,0.7332960367202759,-0.028684400022029877,-1.2771823406219482,0.45792120695114136,7.382745265960693,4.06640625,1,"['A1', 'B2', 'F2']",7.6,90,0,0.05307769263940507,[1700|0|0]
1700,0.7257267832756042,0.7332416772842407,-0.028745900839567184,-1.2765551805496216,0.44558000564575195,7.393181800842285,4.06640625,1,"['A1', 'B2', 'F2']",7.6,90,0,0.05339722658599806,[1800|0|0]
1800,0.7257933020591736,0.7330701351165771,-0.028588691726326942,-1.2806718349456787,0.449869304895401,7.3973069190979,4.06640625,1,"['A1', 'B2', 'F2']",7.6,90,0,0.053639231067650874,[1900|0|0]
1900,0.7256422638893127,0.7333203554153442,-0.028919044882059097,-1.2924147844314575,0.4528580605983734,7.416439056396484,4.06640625,1,"['A1', 'B2', 'F2']",7.6,90,0,0.05408031601884757,[2000|0|0]
2000,0.7256454825401306,0.7332335710525513,-0.028670016676187515,-1.2900657653808594,0.45020443201065063,7.428231716156006,4.0703125,1,"['A1', 'B2', 'F2']",7.6,90,0,0.05434405250221324,[2100|0|0]
2100,0.725766122341156,0.7327744960784912,-0.028611691668629646,-1.282630443572998,0.45031705498695374,7.427015781402588,4.06640625,1,"['A1', 'B2', 'F2']",7.6,90,0,0.05482228424510189,[2200|0|0]
2200,0.7252615094184875,0.7331967949867249,-0.02887551672756672,-1.2905850410461426,0.46859031915664673,7.410605430603027,4.06640625,1,"['A1', 'B2', 'F2']",7.6,90,0,0.05553120894585824,[2300|0|0]
2300,0.6798020005226135,0.7456719875335693,0.014025050215423107,-0.35137712955474854,-1.000501275062561,5.766750812530518,4.06640625,1,"['A1', 'B2', 'F2']",7.6,90,0,0.1192701767925754,[2400|0|0]
2400,0.7383213043212891,0.7318933010101318,-0.03865273669362068,0.5513831377029419,-1.563364028930664,6.726259708404541,4.0703125,1,"['A1', 'B2', 'F2']",7.6,90,0,0.19920333857807881,[2500|0|0]
2500,0.7325398921966553,0.7320500016212463,-0.034563854336738586,1.0539036989212036,2.6941208839416504,7.0075860023498535,4.06640625,1,"['A1', 'B2', 'F2']",7.6,90,0,0.20628629277564411,[2600|0|0]
2600,0.7280285358428955,0.7321015000343323,-0.03176633641123772,0.9048362970352173,4.252144813537598,6.882503986358643,4.0703125,1,"['A1', 'B2', 'F2']",7.6,90,0,0.21159487966677226,[2700|0|0]
2700,0.7252984046936035,0.7324782609939575,-0.0304722860455513,0.5814273357391357,4.224548816680908,6.7355146408081055,4.06640625,1,"['A1', 'B2', 'F2']",7.6,90,0,0.21463956869226655,[2800|0|0]
2800,0.7241000533103943,0.7324357628822327,-0.029248924925923347,0.3076842725276947,3.738736152648926,6.6393890380859375,4.06640625,1,"['A1', 'B2', 'F2']",7.6,90,0,0.2163525965835039,[2900|0|0]
2900,0.7242928147315979,0.7332852482795715,-0.02891942672431469,0.05949098616838455,3.222430944442749,6.575273513793945,4.06640625,1,"['A1', 'B2', 'F2']",7.6,90,0,0.21728391364587296,[3000|0|0]
3000,0.7246074080467224,0.733104407787323,-0.028480997309088707,-0.13055109977722168,2.711784839630127,6.564953327178955,4.0703125,1,"['A1', 'B2', 'F2']",7.6,90,0,0.21785302926654518,[3100|0|0]
3100,0.7248911261558533,0.7331230640411377,-0.028752736747264862,-0.2933371365070343,2.312347888946533,6.559762954711914,4.06640625,1,"['A1', 'B2', 'F2']",7.6,90,0,0.2182463311143866,[3200|0|0]
3200,0.7248936295509338,0.733058512210846,-0.028727641329169273,-0.42290449142456055,1.9838612079620361,6.592276096343994,4.06640625,1,"['A1', 'B2', 'F2']",7.6,90,0,0.21831563469142515,[3300|0|0]
3300,0.7250577211380005,0.7330926060676575,-0.028445960953831673,-0.5337600111961365,1.7116104364395142,6.586283206939697,4.06640625,1,"['A1', 'B2', 'F2']",7.6,90,0,0.218643403319986,[3400|0|0]
3400,0.724647045135498,0.7330908179283142,-0.02866797335445881,-0.631467878818512,1.4907513856887817,6.601792812347412,4.06640625,1,"['A1', 'B2', 'F2']",7.6,90,0,0.21911025177773852,[3500|0|0]
3500,0.7251101732254028,0.7333629131317139,-0.02824367955327034,-0.7168448567390442,1.2732889652252197,6.654213905334473,4.06640625,1,"['A1', 'B2', 'F2']",7.6,90,0,0.21979475791876205,[3600|0|0]
3600,0.7251424193382263,0.7332334518432617,-0.028798017650842667,-0.7893669009208679,1.104645848274231,6.693690299987793,4.06640625,1,"['A1', 'B2', 'F2']",7.6,90,0,0.22036492523053994,[3700|0|0]
3700,0.7251272797584534,0.7333089113235474,-0.02857414074242115,-0.849755585193634,0.9595765471458435,6.728107929229736,4.06640625,1,"['A1', 'B2', 'F2']",7.6,90,0,0.2206016618144577,[3800|0|0]
3800,0.725460946559906,0.7330502867698669,-0.02852293848991394,-0.8928250074386597,0.8302308917045593,6.750974178314209,4.0703125,1,"['A1', 'B2', 'F2']",7.6,90,0,0.22102691687300474,[3900|0|0]
3900,0.7254254817962646,0.733483612537384,-0.028479386121034622,-0.9489176869392395,0.7334011793136597,6.77926778793335,4.0703125,1,"['A1', 'B2', 'F2']",7.6,90,0,0.2214638674183636,[4000|0|0]
4000,0.7254324555397034,0.7332835793495178,-0.028642918914556503,-0.9749658107757568,0.6674997210502625,6.813593864440918,4.06640625,1,"['A1', 'B2', 'F2']",7.6,90,0,0.22172233382605044,[4100|0|0]
4100,0.7254875898361206,0.7332414984703064,-0.02876129187643528,-1.000971794128418,0.5998607873916626,6.83206033706665,4.0703125,1,"['A1', 'B2', 'F2']",7.6,90,0,0.22185952985055765,[4200|0|0]
4200,0.7253264784812927,0.7334507703781128,-0.028759200125932693,-1.0316686630249023,0.5578401684761047,6.829711437225342,4.06640625,1,"['A1', 'B2', 'F2']",7.6,90,0,0.22212364341603957,[4300|0|0]
4300,0.7257286310195923,0.7331371307373047,-0.028493398800492287,-1.034162998199463,0.5026413202285767,6.853952407836914,4.06640625,1,"['A1', 'B2', 'F2']",7.6,90,0,0.22269874934797984,[4400|0|0]
4400,0.7256765961647034,0.7331798672676086,-0.028397196903824806,-1.051748275756836,0.47487249970436096,6.8614182472229,4.06640625,1,"['A1', 'B2', 'F2']",7.6,90,0,0.22281617524830916,[4500|0|0]
4500,0.7258177399635315,0.733101487159729,-0.028618894517421722,-1.0539417266845703,0.449446439743042,6.86410665512085,4.06640625,1,"['A1', 'B2', 'F2']",7.6,90,0,0.22309042849830527,[4600|0|0]
4600,0.725848913192749,0.7332017421722412,-0.028474364429712296,-1.0669469833374023,0.4321228265762329,6.87938117980957,4.06640625,1,"['A1', 'B2', 'F2']",7.6,90,0,0.22326906719514042,[4700|0|0]
4700,0.7257810831069946,0.7333449721336365,-0.028561502695083618,-1.0757983922958374,0.4200114607810974,6.885725021362305,4.06640625,1,"['A1', 'B2', 'F2']",7.6,90,0,0.22344992299313057,[4800|0|0]
4800,0.7258076071739197,0.7334109544754028,-0.028660865500569344,-1.0860557556152344,0.41347676515579224,6.891500473022461,4.06640625,1,"['A1', 'B2', 'F2']",7.6,90,0,0.22357211203791452,[4900|0|0]
4900,0.7256150841712952,0.7332474589347839,-0.02865595743060112,-1.0854170322418213,0.41076919436454773,6.894618511199951,4.06640625,1,"['A1', 'B2', 'F2']",7.6,90,0,0.22382473821924306,[5000|0|0]
5000,0.7256662845611572,0.7333883047103882,-0.028656095266342163,-1.0890628099441528,0.4051387906074524,6.891737461090088,4.06640625,1,"['A1', 'B2', 'F2']",7.6,90,0,0.22397460159511015,[5100|0|0]
5100,0.7257884740829468,0.7328964471817017,-0.028689319267868996,-1.074945330619812,0.3940507173538208,6.905207633972168,4.06640625,1,"['A1', 'B2', 'F2']",7.6,90,0,0.2244824971966251,[5200|0|0]
5200,0.7257879972457886,0.7334373593330383,-0.028774995356798172,-1.093309760093689,0.3856838345527649,6.897541046142578,4.06640625,1,"['A1', 'B2', 'F2']",7.6,90,0,0.2250301527225276,[5300|0|0]
5300,0.7256629467010498,0.73355633020401,-0.028690913692116737,-1.1009809970855713,0.3869643807411194,6.905053615570068,4.06640625,1,"['A1', 'B2', 'F2']",7.6,90,0,0.22522214603807486,[5400|0|0]
5400,0.7256675958633423,0.733273983001709,-0.0284959077835083,-1.0939726829528809,0.39274248480796814,6.918127059936523,4.06640625,1,"['A1', 'B2', 'F2']",7.6,90,0,0.22556532071917684,[5500|0|0]
5500,0.7256991267204285,0.7332056164741516,-0.02875061146914959,-1.093723177909851,0.3894782066345215,6.910769462585449,4.06640625,1,"['A1', 'B2', 'F2']",7.6,90,0,0.22583091843098568,[5600|0|0]
5600,0.7258851528167725,0.7330676913261414,-0.028397632762789726,-1.0961542129516602,0.3899192810058594,6.917222499847412,4.0703125,1,"['A1', 'B2', 'F2']",7.6,90,0,0.22625308311700065,[5700|0|0]
5700,0.725929856300354,0.7330605387687683,-0.02845698781311512,-1.0948138236999512,0.39512374997138977,6.904760360717773,4.06640625,1,"['A1', 'B2', 'F2']",7.6,90,0,0.22632773284922006,[5800|0|0]
5800,0.7261645793914795,0.7332392930984497,-0.02900134213268757,-1.1001310348510742,0.3898700475692749,6.903028964996338,4.06640625,1,"['A1', 'B2', 'F2']",7.6,90,0,0.22694690137646004,[5900|0|0]
5900,0.7254725694656372,0.7333953380584717,-0.02885536104440689,-1.110652208328247,0.40522027015686035,6.889998912811279,4.0703125,1,"['A1', 'B2', 'F2']",7.6,90,0,0.22767115150255468,[6000|0|0]
6000,0.7258646488189697,0.7333904504776001,-0.028956664726138115,-1.1111738681793213,0.39977383613586426,6.893754005432129,4.06640625,1,"['A1', 'B2', 'F2']",7.6,90,0,0.22807613612410063,[6100|0|0]
6100,0.7259498834609985,0.7333879470825195,-0.02825962007045746,-1.1134159564971924,0.39131826162338257,6.894101142883301,4.06640625,1,"['A1', 'B2', 'F2']",7.6,90,0,0.22877837715337881,[6200|0|0]
6200,0.7259057760238647,0.7327719926834106,-0.028688518330454826,-1.0990138053894043,0.3900519907474518,6.894505977630615,4.06640625,1,"['A1', 'B2', 'F2']",7.6,90,0,0.22953024084130427,[6300|0|0]
6300,0.7257342338562012,0.7333914637565613,-0.02874181419610977,-1.1129189729690552,0.3945651054382324,6.900261402130127,4.06640625,1,"['A1', 'B2', 'F2']",7.6,90,0,0.23017523043428467,[6400|0|0]
6400,0.725821852684021,0.7329082489013672,-0.02875668928027153,-1.1044857501983643,0.39109957218170166,6.879510879516602,4.06640625,1,"['A1', 'B2', 'F2']",7.6,90,0,0.2306665500078797,[6500|0|0]
6500,0.7260622978210449,0.7329073548316956,-0.028166120871901512,-1.1005479097366333,0.3834044933319092,6.9053239822387695,3.484375,1,"['A/E1', 'B2', 'C1']",7.6,90,0,0.2313041907439088,[6500|0|0]
6600,0.725999653339386,0.733690619468689,-0.028163829818367958,-1.1270452737808228,0.4698874354362488,7.13868522644043,2.919921875,1,"['A/E1', 'B2', 'C1']",7.6,90,0,0.2320899598394916,[6500|0|0]
6700,0.7248680591583252,0.7363763451576233,-0.01826518215239048,-3.413459539413452,3.419745445251465,10.179443359375,3.140625,1,"['A/E1', 'B2', 'C1']",7.6,90,0,0.2424087220463638,[6500|0|0]
6800,0.7135400176048279,0.74626624584198,0.023980701342225075,-5.868869781494141,8.534356117248535,12.350951194763184,3.46875,1,"['A/E1', 'B2', 'C1']",7.6,90,0,0.2872512167720682,[6500|0|0]
6900,0.6935920715332031,0.765101969242096,0.08855881541967392,0.5571115016937256,-0.495487242937088,10.043017387390137,3.39453125,1,"['A/E1', 'B2', 'C1']",7.6,90,0,0.357415579851071,[6500|0|0]
7000,0.6714374423027039,0.7796849012374878,0.16337811946868896,4.246679782867432,-4.6925578117370605,6.719960689544678,3.208984375,1,"['A/E1', 'B2', 'C1']",7.6,90,0,0.4367970497310252,[6500|0|0]
7100,0.6597296595573425,0.786310076713562,0.24763096868991852,5.087673187255859,-6.758421421051025,3.738905906677246,3.236328125,1,"['A/E1', 'B2', 'C1']",7.6,90,0,0.5221170809593164,[6500|0|0]
7200,0.6608477234840393,0.7845866084098816,0.3375171720981598,3.703958034515381,-6.3129682540893555,1.759170413017273,3.205078125,1,"['A/E1', 'B2', 'C1']",7.6,90,0,0.612026757708183,[6500|0|0]
7300,0.672488808631897,0.7784171104431152,0.43363505601882935,1.8391517400741577,-3.8014278411865234,0.4991688132286072,3.146484375,1,"['A/E1', 'B2', 'C1']",7.6,90,0,0.7090433809125026,[6500|0|0]
7400,0.6877588033676147,0.7707939147949219,0.5300823450088501,-0.00012533074186649173,-0.43212684988975525,-0.08811964094638824,3.3046875,1,"['A/E1', 'B2', 'C1']",7.6,90,0,0.8069891077444786,[6500|0|0]
7500,0.7033054232597351,0.7637017369270325,0.6295362114906311,-1.090671420097351,1.8002296686172485,-0.5598191022872925,3.3671875,1,"['A/E1', 'B2', 'C1']",7.6,90,0,0.9079002960991689,[6500|0|0]
7600,0.7134504318237305,0.7607197761535645,0.7283429503440857,-1.7711074352264404,2.754506826400757,-0.9004440903663635,3.3515625,1,"['A/E1', 'B2', 'C1']",7.6,90,0,1.007271242213578,[6500|0|0]
7700,0.7192983627319336,0.7601485848426819,0.8266211748123169,-1.7238963842391968,3.0003533363342285,-1.1472737789154053,3.345703125,1,"['A/E1', 'B2', 'C1']",7.6,90,0,1.1057249570243906,[6500|0|0]
7800,0.7187461853027344,0.7619845867156982,0.9251047968864441,-1.275529384613037,2.276097297668457,-1.0808534622192383,3.44140625,1,"['A/E1', 'B2', 'C1']",7.6,90,0,1.2042272393310993,[6500|0|0]
7900,0.7121853232383728,0.7674661874771118,1.01825749874115,-0.8279667496681213,1.3425803184509277,-0.7379905581474304,3.515625,1,"['A/E1', 'B2', 'C1']",7.6,90,0,1.2977714466384833,[6500|0|0]
8000,0.7034209966659546,0.7736755609512329,1.097312331199646,-0.3003910183906555,-0.19634480774402618,-0.33033859729766846,3.509765625,1,"['A/E1', 'B2', 'C1']",7.6,90,0,1.3775526240818503,[6500|0|0]
8100,0.6927193403244019,0.7823967933654785,1.1574225425720215,0.37107592821121216,-0.6075406670570374,-0.009496140293776989,3.47265625,1,"['A/E1', 'B2', 'C1']",7.6,90,0,1.4392277637615272,[6500|0|0]
8200,0.6828016638755798,0.7894572615623474,1.200980305671692,0.7905393838882446,-1.6480538845062256,0.17145171761512756,3.419921875,1,"['A/E1', 'B2', 'C1']",7.6,90,0,1.4844548490484382,[6500|0|0]
8300,0.6745151281356812,0.7967984676361084,1.2310718297958374,0.04944784939289093,-1.6045796871185303,0.3336002826690674,3.39453125,1,"['A/E1', 'B2', 'C1']",7.6,90,0,1.5165182207566674,[6500|0|0]
8400,0.667959988117218,0.803607165813446,1.251970648765564,0.6077775955200195,-1.8157986402511597,0.322304368019104,3.39453125,1,"['A/E1', 'B2', 'C1']",7.6,90,0,1.5394548479250447,[6500|0|0]
8500,0.6636381149291992,0.8108718395233154,1.267614483833313,0.855313241481781,-1.6111831665039062,0.5096631646156311,3.39453125,1,"['A/E1', 'B2', 'C1']",7.6,90,0,1.5572364015014653,[6500|0|0]
8601,0.6614544987678528,0.81600421667099,1.2808127403259277,1.1013617515563965,-1.1776111125946045,0.6190609335899353,3.41015625,1,"['A/E1', 'B2', 'C1']",7.6,90,0,1.5715648155508606,[6500|0|0]
8701,0.6601219773292542,0.820923388004303,1.290669322013855,1.4870411157608032,-1.009122610092163,0.6851973533630371,3.37890625,1,"['A/E1', 'B2', 'C1']",7.6,90,0,1.5826610339409968,[6500|0|0]
8801,0.6598827838897705,0.8249000906944275,1.2971084117889404,0.9812179803848267,-0.7448363304138184,0.6812720894813538,3.36328125,1,"['A/E1', 'B2', 'C1']",7.6,90,0,1.5902329065573808,[6500|0|0]
8901,0.6612551808357239,0.8267816305160522,1.3023123741149902,1.1595160961151123,-0.7750255465507507,0.5248510837554932,3.3984375,1,"['A/E1', 'B2', 'C1']",7.6,90,0,1.5959342124927405,[6500|0|0]
9001,0.6634353399276733,0.8274156451225281,1.3037993907928467,1.3084481954574585,-0.9917029738426208,0.36951231956481934,3.39453125,1,"['A/E1', 'B2', 'C1']",7.6,90,0,1.5986483029090048,[6500|0|0]
9101,0.666304349899292,0.8265570998191833,1.3023502826690674,0.8050253391265869,-0.6360488533973694,0.664989709854126,3.3828125,1,"['A/E1', 'B2', 'C1']",7.6,90,0,1.6019751982499415,[6500|0|0]
9201,0.669453501701355,0.8258937001228333,1.2995383739471436,0.21349787712097168,-0.07420714944601059,0.7019345164299011,3.388671875,1,"['A/E1', 'B2', 'C1']",7.6,90,0,1.606248848550327,[6500|0|0]
9301,0.6729996800422668,0.8241106271743774,1.2977867126464844,0.006723172962665558,0.36634179949760437,0.4318781793117523,3.39453125,1,"['A/E1', 'B2', 'C1']",7.6,90,0,1.6105874021430922,[6500|0|0]
9401,0.6752318143844604,0.8232209086418152,1.2945588827133179,0.14541830122470856,0.2694850265979767,0.3023023009300232,3.36328125,1,"['A/E1', 'B2', 'C1']",7.6,90,0,1.6146114435029977,[6500|0|0]
9501,0.677142322063446,0.8221548199653625,1.2928872108459473,0.12734739482402802,0.4832267761230469,0.19295284152030945,3.373046875,1,"['A/E1', 'B2', 'C1']",7.6,90,115.11483488614456,1.6173648180669975,[6500|0|0]
9600,0.6797299385070801,0.8186658024787903,1.2922512292861938,6.109997749328613,-7.1678466796875,0.6898286938667297,3.373046875,1,"['A/E1', 'B2', 'C1']",7.6,90,115.11483488614456,1.6217549746046758,[6500|0|0]
9700,0.7006097435951233,0.8017808794975281,1.293725848197937,9.908598899841309,-13.36966323852539,0.8357247114181519,3.39453125,1,"['A/E1', 'B2', 'C1']",7.6,90,115.11483488614456,1.648648122161864,[6500|0|0]
9800,0.7411298155784607,0.7655973434448242,1.2883434295654297,10.268634796142578,-17.319713592529297,0.6111973524093628,3.373046875,1,"['A/E1', 'B2', 'C1']",7.6,90,115.11483488614456,1.7032383680410295,[6500|0|0]
9900,0.8066123723983765,0.716339647769928,1.277525544166565,5.879515171051025,-14.2993745803833,-0.11710258573293686,3.330078125,1,"['A/E1', 'B2', 'C1']",7.6,90,115.11483488614456,1.7858901222594195,[6500|0|0]
10000,0.8932235240936279,0.6607226133346558,1.2695937156677246,1.2219310998916626,-8.952138900756836,-0.4931419789791107,3.36328125,1,"['A/E1', 'B2', 'C1']",7.6,90,115.11483488614456,1.8891260657126911,[6500|0|0]
10100,0.9590659737586975,0.6518283486366272,1.2442635297775269,-2.748467206954956,-1.8455172777175903,-0.45077741146087646,3.3359375,1,"['A/E1', 'B2', 'C1']",7.6,90,115.11483488614456,1.9602313006792378,[6500|0|0]
10200,1.0543348789215088,0.6110305786132812,1.2397247552871704,-2.976025342941284,3.147453546524048,-0.016051767393946648,3.326171875,1,"['A/E1', 'B2', 'C1']",7.6,90,115.11483488614456,2.0639676144930266,[6500|0|0]
10300,1.1420435905456543,0.5769667029380798,1.241395115852356,-3.7925612926483154,7.367057800292969,0.026450561359524727,3.3671875,1,"['A/E1', 'B2', 'C1']",7.6,90,115.11483488614456,2.158073702634022,[6500|0|0]
10400,1.2161165475845337,0.5505915880203247,1.2460271120071411,-3.67905855178833,9.600747108459473,-0.1798209846019745,3.373046875,1,"['A/E1', 'B2', 'C1']",7.6,90,115.11483488614456,2.2368385744982384,[6500|0|0]
10500,1.272115707397461,0.5300389528274536,1.249280333518982,-2.913555145263672,9.945605278015137,-0.34784412384033203,3.37890625,1,"['A/E1', 'B2', 'C1']",7.6,90,115.11483488614456,2.296578847039717,[6500|0|0]
10600,1.3115328550338745,0.5137107372283936,1.2496516704559326,-2.5196127891540527,9.000141143798828,-0.5951120257377625,3.357421875,1,"['A/E1', 'B2', 'C1']",7.6,90,115.11483488614456,2.3392456965081383,[6500|0|0]
10700,1.336815357208252,0.5002419948577881,1.2450083494186401,-1.898037075996399,7.66816520690918,-0.871165931224823,3.326171875,1,"['A/E1', 'B2', 'C1']",7.6,90,115.11483488614456,2.3682659027013844,[6500|0|0]
10800,1.350610613822937,0.48775315284729004,1.2392469644546509,-1.490659236907959,5.795836448669434,-1.3117402791976929,3.341796875,1,"['A/E1', 'B2', 'C1']",7.6,90,115.11483488614456,2.387745990907845,[6500|0|0]
10900,1.3551647663116455,0.4772500991821289,1.2322509288787842,-1.9736735820770264,3.4598891735076904,-1.3025861978530884,3.3203125,1,"['A/E1', 'B2', 'C1']",7.6,90,115.11483488614456,2.4011623598265373,[6500|0|0]
11000,1.3552688360214233,0.46742916107177734,1.2283388376235962,-1.874159812927246,2.001730442047119,-1.5726953744888306,3.330078125,1,"['A/E1', 'B2', 'C1']",7.6,90,115.11483488614456,2.4117343092144585,[6500|0|0]
11100,1.3531489372253418,0.46205782890319824,1.2259520292282104,-1.9339905977249146,0.7971699237823486,-2.339056968688965,3.345703125,1,"['A/E1', 'B2', 'C1']",7.6,90,115.11483488614456,2.4179826717589274,[6500|0|0]
11200,1.3510024547576904,0.4571871757507324,1.224967360496521,-1.5475069284439087,0.25437724590301514,-2.504772663116455,3.3359375,1,"['A/E1', 'B2', 'C1']",7.6,90,115.11483488614456,2.4233956396718868,[6500|0|0]
11300,1.3495230674743652,0.4553021192550659,1.2232766151428223,-1.6877312660217285,-0.34926944971084595,-2.00712251663208,3.310546875,1,"['A/E1', 'B2', 'C1']",7.6,90,115.11483488614456,2.4263283252290124,[6500|0|0]
11400,1.348456859588623,0.4547310769557953,1.2229942083358765,-1.4262652397155762,-0.1778492033481598,-1.9237523078918457,3.341796875,1,"['A/E1', 'B2', 'C1']",7.6,90,115.11483488614456,2.427570356697126,[6500|0|0]
11500,1.348971962928772,0.4556581676006317,1.2241545915603638,-0.949088990688324,0.5052761435508728,-1.7490893602371216,3.357421875,1,"['A/E1', 'B2', 'C1']",7.6,90,115.11483488614456,2.429142399235497,[6500|0|0]
11600,1.3490508794784546,0.45808351039886475,1.2233994007110596,-0.7402116060256958,0.03007376566529274,-1.6030049324035645,3.341796875,1,"['A/E1', 'B2', 'C1']",7.6,90,115.11483488614456,2.431683821815397,[6500|0|0]
11700,1.3494833707809448,0.46109479665756226,1.2215795516967773,-0.5683983564376831,0.4008757472038269,-1.981040358543396,3.3359375,1,"['A/E1', 'B2', 'C1']",7.6,90,115.11483488614456,2.4352287821950536,[6500|0|0]
11800,1.3501362800598145,0.46394601464271545,1.2200371026992798,-0.41210445761680603,0.7562437057495117,-2.383462905883789,3.330078125,1,"['A/E1', 'B2', 'C1']",7.6,90,115.11483488614456,2.4385355757228044,[6500|0|0]
11900,1.3499330282211304,0.46707212924957275,1.2188568115234375,-0.13841599225997925,0.8565455079078674,-2.6752190589904785,3.330078125,1,"['A/E1', 'B2', 'C1']",7.6,90,115.11483488614456,2.441883260162071,[6500|0|0]
12000,1.348841667175293,0.4697468876838684,1.218505859375,0.31645461916923523,0.8272950649261475,-3.4928576946258545,3.3359375,1,"['A/E1', 'B2', 'C1']",7.6,90,115.11483488614456,2.444793340749391,[6500|0|0]
12100,1.3463209867477417,0.4718928337097168,1.2177002429962158,0.20303691923618317,0.40250664949417114,-4.58432674407959,3.330078125,1,"['A/E1', 'B2', 'C1']",7.6,90,115.11483488614456,2.4482003822685776,[6500|0|0]
12200,1.3434721231460571,0.4728434681892395,1.2147080898284912,0.16119451820850372,0.5361425876617432,-5.213723659515381,3.314453125,1,"['A/E1', 'B2', 'C1']",7.6,90,115.11483488614456,2.4524398056154237,[6500|0|0]
12300,1.3404159545898438,0.4725189208984375,1.210959792137146,0.09719109535217285,0.4492082893848419,-5.449412822723389,3.310546875,1,"['A/E1', 'B2', 'C1']",7.6,90,115.11483488614456,2.4572869937457624,[6500|0|0]
12400,1.3359363079071045,0.47226595878601074,1.2067444324493408,-0.4152727425098419,0.18356715142726898,-5.973938465118408,3.3046875,1,"['A/E1', 'B2', 'C1']",7.6,90,115.11483488614456,2.463443330443026,[6500|0|0]
12500,1.3310179710388184,0.47099000215530396,1.2029104232788086,-0.3808215856552124,0.19557340443134308,-6.5128984451293945,3.3046875,1,"['A/E1', 'B2', 'C1']",7.6,90,0,2.46980868425826,[6500|0|0]
12600,1.3259977102279663,0.47071754932403564,1.1951481103897095,-0.5064916610717773,-0.6695543527603149,-7.176507472991943,3.7265625,1,"['A/E1', 'B2', 'C1']",7.6,90,0,2.479056967912134,[6500|0|0]
12700,1.3211286067962646,0.4717768132686615,1.1572822332382202,-0.2602015733718872,-1.1852810382843018,-7.65722131729126,3.55859375,1,"['A/E1', 'B2', 'C1']",7.6,90,0,2.517249308253944,[6500|0|0]
12800,1.314906358718872,0.4735936224460602,1.0769095420837402,-1.4753998517990112,0.21696536242961884,-6.688900470733643,3.373046875,1,"['A/E1', 'B2', 'C1']",7.6,90,0,2.5978829653094015,[6500|0|0]
12900,1.3081448078155518,0.47585827112197876,0.964217483997345,-1.478258728981018,-0.6061640381813049,-5.475059509277344,3.26171875,1,"['A/E1', 'B2', 'C1']",7.6,90,0,2.7108004004555784,[6500|0|0]
13000,1.3018519878387451,0.479194700717926,0.8371705412864685,-1.5485445261001587,-1.12007474899292,-4.31079626083374,3.220703125,1,"['A/E1', 'B2', 'C1']",7.6,90,0,2.8380468424407668,[6500|0|0]
13100,1.2984330654144287,0.4838328957557678,0.7084512710571289,-2.386164903640747,-1.114259958267212,-3.2257063388824463,3.29296875,1,"['A/E1', 'B2', 'C1']",7.6,90,0,2.9668950182607072,[6500|0|0]
13200,1.300742745399475,0.49263936281204224,0.5830785036087036,-2.385680913925171,-3.3983492851257324,-3.268603801727295,3.330078125,1,"['A/E1', 'B2', 'C1']",7.6,90,0,3.0925979191871518,[6500|0|0]
13300,1.3100018501281738,0.5058074593544006,0.4613644480705261,-0.7955954670906067,-1.894365668296814,-2.4196572303771973,3.208984375,1,"['A/E1', 'B2', 'C1']",7.6,90,0,3.2153718622796355,[6500|0|0]
13400,1.324332594871521,0.5209539532661438,0.3449292778968811,2.386665105819702,0.040467776358127594,-0.6550055146217346,3.109375,1,"['A/E1', 'B2', 'C1']",7.6,90,0,3.3336593737763405,[6500|0|0]
13500,1.3418506383895874,0.532511293888092,0.24360352754592896,5.220784664154053,1.8391860723495483,3.1715149879455566,3.208984375,1,"['A/E1', 'B2', 'C1']",7.6,90,0,3.437135755889053,[6500|0|0]
13600,1.357367753982544,0.5339107513427734,0.16330015659332275,2.8932135105133057,5.006044864654541,6.953470706939697,3.267578125,1,"['A/E1', 'B2', 'C1']",7.6,90,0,3.5189365550529033,[6500|0|0]
13700,1.3660502433776855,0.5296070575714111,0.09845240414142609,-0.330145925283432,7.792333602905273,12.36780834197998,3.27734375,1,"['A/E1', 'B2', 'C1']",7.6,90,0,3.5845043703301935,[6500|0|0]
13800,1.3627291917800903,0.5210385322570801,0.0448480062186718,-3.446319818496704,7.65665340423584,16.161081314086914,3.283203125,1,"['A/E1', 'B2', 'C1']",7.6,90,0,3.6388907701599047,[6500|0|0]
13900,1.3480294942855835,0.5119647979736328,0.004520370624959469,5.232213497161865,-1.1234995126724243,15.985971450805664,3.236328125,1,"['A/E1', 'B2', 'C1']",7.6,90,0,3.6827625373098143,[6500|0|0]
14000,1.3345128297805786,0.48700854182243347,0.02324105054140091,11.050424575805664,18.40838050842285,7.539461135864258,3.251953125,1,"['A/E1', 'B2', 'C1']",7.6,90,0,3.716762225498958,[6500|0|0]
14100,1.303510069847107,0.45380643010139465,0.041435468941926956,-0.7220578193664551,-1.7283216714859009,4.359515190124512,3.29296875,1,"['A/E1', 'B2', 'C1']",7.6,90,0,3.7656967553031997,[6500|0|0]
14200,1.2722089290618896,0.41528400778770447,0.055401746183633804,-9.348012924194336,-11.03381061553955,0.7385413646697998,3.283203125,1,"['A/E1', 'B2', 'C1']",7.6,90,0,3.8172602630908057,[6500|0|0]
14300,1.2556791305541992,0.3913406729698181,0.06113392114639282,-9.903841972351074,-12.996516227722168,-1.128306269645691,3.3046875,1,"['A/E1', 'B2', 'C1']",7.6,90,0,3.8469145267085376,[6500|0|0]
14400,1.2581614255905151,0.3821479380130768,0.05772038549184799,-10.064603805541992,-12.110793113708496,-0.7597314119338989,3.267578125,1,"['A/E1', 'B2', 'C1']",7.6,90,0,3.8570298808939856,[6500|0|0]
14500,1.2778218984603882,0.3855246603488922,0.04675551876425743,-6.976397514343262,-8.296842575073242,-0.722008466720581,3.23046875,1,"['A/E1', 'B2', 'C1']",7.6,90,0,3.879793113299644,[6500|0|0]
14600,1.3091678619384766,0.39731892943382263,0.03847477212548256,-2.243018627166748,-1.25227952003479,0.2948293387889862,3.236328125,1,"['A/E1', 'B2', 'C1']",7.6,90,0,3.914293040466422,[6500|0|0]
14700,1.3437557220458984,0.41263461112976074,0.03611452504992485,0.24733421206474304,1.2287273406982422,1.760942816734314,3.2734375,1,"['A/E1', 'B2', 'C1']",7.6,90,0,3.952193712477345,[6500|0|0]
14800,1.373866081237793,0.4248865842819214,0.04120788350701332,1.6366374492645264,5.877418518066406,2.5308713912963867,3.310546875,1,"['A/E1', 'B2', 'C1']",7.6,90,0,3.9850979200678425,[6500|0|0]
14900,1.3944884538650513,0.430237740278244,0.048305485397577286,1.3149564266204834,6.161750316619873,3.789485216140747,3.310546875,1,"['A/E1', 'B2', 'C1']",7.6,90,0,4.007554390758301,[6500|0|0]
15000,1.4039218425750732,0.43055105209350586,0.051990702748298645,0.9037887454032898,5.595269680023193,4.22645378112793,3.298828125,1,"['A/E1', 'B2', 'C1']",7.6,90,0,4.0176869034659175,[6500|0|0]
15100,1.4028834104537964,0.42585480213165283,0.0528072714805603,-0.06601634621620178,5.0385565757751465,3.2391250133514404,3.2890625,1,"['A/E1', 'B2', 'C1']",7.6,90,0,4.022565416504663,[6500|0|0]
15200,1.3944660425186157,0.4188181757926941,0.051256339997053146,-1.7986952066421509,2.8837809562683105,2.162318229675293,3.2890625,1,"['A/E1', 'B2', 'C1']",7.6,90,0,4.033645650331477,[6500|0|0]
15300,1.3814705610275269,0.4125826358795166,0.04773762822151184,-1.3420566320419312,-0.19874872267246246,2.1109745502471924,3.27734375,1,"['A/E1', 'B2', 'C1']",7.6,90,0,4.048482962411277,[6500|0|0]
15400,1.3689825534820557,0.4083405137062073,0.048187874257564545,-2.477710723876953,-0.7864491939544678,3.112764835357666,3.283203125,1,"['A/E1', 'B2', 'C1']",7.6,90,0,4.061679501900174,[6500|0|0]
15500,1.358970046043396,0.40648990869522095,0.05172252655029297,-1.9121395349502563,-1.7370259761810303,3.3299102783203125,3.298828125,1,"['A/E1', 'B2', 'C1']",7.6,90,0,4.072457665516783,[6500|0|0]
15600,1.3499951362609863,0.40639716386795044,0.055657628923654556,-2.0840606689453125,-2.1087806224823,2.885833501815796,3.29296875,1,"['F1', 'B2', 'B1']",7.6,90,0,4.082257800102298,[6500|100|0]
15700,1.343094825744629,0.4081971347332001,0.057910993695259094,-3.2721476554870605,-1.5858619213104248,2.3151423931121826,3.29296875,1,"['F1', 'B2', 'B1']",7.6,90,0,4.089736558898503,[6500|200|0]
15800,1.3392425775527954,0.4147798418998718,0.05694371461868286,-1.7830885648727417,-0.8970822095870972,2.183443307876587,3.2890625,1,"['F1', 'B2', 'B1']",7.6,90,0,4.097424697723057,[6500|300|0]
15900,1.3375635147094727,0.4234673082828522,0.05383971333503723,-0.8192577362060547,-1.2281984090805054,2.8323099613189697,3.2890625,1,"['F1', 'B2', 'B1']",7.6,90,0,4.106801592099988,[6500|400|0]
16000,1.3373171091079712,0.43407487869262695,0.04774264618754387,0.12510547041893005,-0.19783860445022583,3.791682004928589,3.251953125,1,"['F1', 'B2', 'B1']",7.6,90,0,4.119039054807584,[6500|500|0]
16100,1.3383201360702515,0.4448283314704895,0.044925667345523834,-0.7474857568740845,-0.9101671576499939,3.77409291267395,3.26171875,1,"['F1', 'B2', 'B1']",7.6,90,0,4.130200514368465,[6500|600|0]
16200,1.341139793395996,0.4553963243961334,0.04775121435523033,0.32329660654067993,-0.274226576089859,2.9212872982025146,3.27734375,1,"['F1', 'B2', 'B1']",7.6,90,0,4.141497268672916,[6500|700|0]
16300,1.3453878164291382,0.465953528881073,0.05215553939342499,-0.1146274283528328,-1.1632848978042603,1.7708595991134644,3.29296875,1,"['F1', 'B2', 'B1']",7.6,90,0,4.153699659638174,[6500|800|0]
16400,1.3515645265579224,0.4763847589492798,0.05649091303348541,-0.9490504860877991,-0.8291220664978027,1.2196018695831299,3.27734375,1,"['F1', 'B2', 'B1']",7.6,90,0,4.16657435471611,[6500|900|0]
16500,1.3585987091064453,0.48810920119285583,0.05759156867861748,0.16613706946372986,0.34543418884277344,1.5095161199569702,3.267578125,1,"['F1', 'B2', 'B1']",7.6,90,0,4.180291268104261,[6500|1000|0]
16600,1.3661082983016968,0.5006884336471558,0.05852482467889786,-0.0941445529460907,-0.5812243819236755,3.2414169311523438,3.283203125,1,"['F1', 'B2', 'B1']",7.6,90,0,4.194971253996039,[6500|1100|0]
16700,1.3739650249481201,0.5118517279624939,0.057718679308891296,0.36968591809272766,-0.013229019939899445,4.818401336669922,3.2734375,1,"['F1', 'B2', 'B1']",7.6,90,0,4.208645944629653,[6500|1200|0]
16800,1.3831801414489746,0.523239254951477,0.05705484375357628,-0.28427720069885254,-0.824781596660614,4.566650867462158,3.2578125,1,"['F1', 'B2', 'B1']",7.6,90,0,4.223310010255995,[6500|1300|0]
16900,1.3948984146118164,0.5360485911369324,0.05789564922451973,0.6242989301681519,0.06705576181411743,3.2727999687194824,3.26171875,1,"['F1', 'B2', 'B1']",7.6,90,0,4.2406911486902565,[6500|1400|0]
17000,1.407782793045044,0.5475662350654602,0.05848162621259689,0.33460041880607605,-0.07523471862077713,1.1265697479248047,3.251953125,1,"['F1', 'B2', 'B1']",7.6,90,0,4.257982958841468,[6500|1500|0]
17100,1.4196125268936157,0.5584326386451721,0.06029336526989937,0.23173238337039948,-0.01445811428129673,-0.5517762303352356,3.29296875,1,"['F1', 'B2', 'B1']",7.6,90,0,4.2741478506783155,[6500|1600|0]
17200,1.4297459125518799,0.5700628757476807,0.059214964509010315,-0.406142920255661,0.5513487458229065,-0.5784494876861572,3.27734375,1,"['F1', 'B2', 'B1']",7.6,90,0,4.2896110608288875,[6500|1700|0]
17300,1.4387397766113281,0.5841533541679382,0.058719128370285034,0.9732511043548584,0.5012481212615967,0.49747541546821594,3.27734375,1,"['F1', 'B2', 'B1']",7.6,90,0,4.306334607890084,[6500|1800|0]
17400,1.4451096057891846,0.5963878631591797,0.056766245514154434,0.03581840172410011,1.0722936391830444,-0.08052729815244675,3.2734375,1,"['F1', 'B2', 'B1']",7.6,90,0,4.320265569287691,[6500|1900|0]
17500,1.4483213424682617,0.6070581674575806,0.04972269386053085,0.397384911775589,0.26146045327186584,-0.750823438167572,3.931640625,1,"['F1', 'B2', 'B1']",7.6,90,0,4.333448219484577,[6500|2000|0]
17600,1.4507778882980347,0.6165410876274109,0.00032575102522969246,-0.27233096957206726,-4.77023458480835,-1.6374971866607666,3.9375,1,"['F1', 'B2', 'B1']",7.6,90,0,4.3838071149632825,[6500|2100|0]
17700,1.4526339769363403,0.6233699321746826,-0.015973329544067383,-0.27076029777526855,-1.2782424688339233,-0.012781370431184769,3.94921875,1,"['F1', 'B2', 'B1']",7.6,90,0,4.401576138861305,[6500|2200|0]
17800,1.4531631469726562,0.6242612600326538,-0.014239314012229443,-0.21628907322883606,-1.0774898529052734,0.5717718005180359,3.94921875,1,"['F1', 'B2', 'B1']",7.6,90,0,4.403596360666549,[6500|2300|0]
17900,1.4533222913742065,0.6244259476661682,-0.014095072634518147,-0.27887383103370667,-0.9566826820373535,0.4993152916431427,3.953125,1,"['F1', 'B2', 'B1']",7.6,90,0,4.403867016411401,[6500|2400|0]
18000,1.4533846378326416,0.6243008971214294,-0.014429214410483837,-0.3224669098854065,-0.8430687785148621,0.45674052834510803,3.953125,1,"['F1', 'B2', 'B1']",7.6,90,0,4.404229197921233,[6500|2500|0]
18100,1.453465461730957,0.6246470808982849,-0.014637386426329613,-0.4256117641925812,-0.822485625743866,0.4044298231601715,3.958984375,1,"['F1', 'B2', 'B1']",7.6,90,0,4.404641158232523,[6500|2600|0]
18200,1.4536463022232056,0.624360978603363,-0.014691885560750961,-0.47134530544281006,-0.816699743270874,0.41614603996276855,3.958984375,1,"['F1', 'B2', 'B1']",7.6,90,0,4.404983981747541,[6500|2700|0]
18300,1.4534701108932495,0.6243759393692017,-0.015026424080133438,-0.46252143383026123,-0.7753550410270691,0.38430750370025635,3.958984375,1,"['F1', 'B2', 'B1']",7.6,90,0,4.4053623773476955,[6500|2800|0]
18400,1.4534616470336914,0.6247023940086365,-0.014805199578404427,-0.44918933510780334,-0.6746817827224731,0.3834605813026428,3.96484375,1,"['F1', 'B2', 'B1']",7.6,90,0,4.405756819420366,[6500|2900|0]
18500,1.4534696340560913,0.6245987415313721,-0.015004469081759453,-0.44843944907188416,-0.5865640640258789,0.35815149545669556,3.96484375,1,"['F1', 'B2', 'B1']",7.6,90,0,4.405981576986505,[6500|3000|0]
18600,1.4514005184173584,0.6200881600379944,-0.01438407227396965,-0.4552575945854187,-0.4564518630504608,-3.099374532699585,3.96484375,1,"['F1', 'B2', 'B1']",7.6,90,0,4.410982724568208,[6500|3100|0]
18700,1.4454127550125122,0.6150057315826416,-0.014068908989429474,-0.4956941306591034,-0.3723182678222656,-6.357810020446777,3.96875,1,"['F1', 'B2', 'B1']",7.6,90,0,4.418842986490823,[6500|3200|0]
18800,1.4345375299453735,0.6081767082214355,-0.01051285956054926,2.584681749343872,1.6990580558776855,-9.047170639038086,3.96875,1,"['F1', 'B2', 'B1']",7.6,90,0,4.432167834252409,[6500|3300|0]
18900,1.4231247901916504,0.6031830906867981,0.0007685581804253161,9.04464340209961,10.2571382522583,-12.110358238220215,3.96875,1,"['F1', 'B2', 'B1']",7.6,90,0,4.448974298217647,[6500|3400|0]
19000,1.4106290340423584,0.6033570766448975,0.03697088733315468,0.7351366877555847,3.870647430419922,-21.967248916625977,3.974609375,1,"['F1', 'B2', 'B1']",7.6,90,0,4.4872728990920745,[6500|3500|0]
19100,1.3992410898208618,0.5866945385932922,0.05935996025800705,-5.062859535217285,-0.4503575563430786,-21.154882431030273,3.974609375,1,"['F1', 'B2', 'B1']",7.6,90,0,4.517415825863499,[6500|3600|0]
19200,1.3787721395492554,0.553625226020813,0.057689134031534195,-4.317558288574219,-2.0326743125915527,-13.221923828125,3.974609375,1,"['F1', 'B2', 'B1']",7.6,90,0,4.556343309978414,[6500|3700|0]
19300,1.3560973405838013,0.5329136848449707,0.04035407304763794,-0.579444169998169,1.2650408744812012,-8.74516773223877,3.98046875,1,"['F1', 'B2', 'B1']",7.6,90,0,4.59160828956607,[6500|3800|0]
19400,1.347198486328125,0.5290230512619019,0.02477363869547844,1.6815571784973145,4.066961288452148,-8.33165168762207,3.974609375,1,"['F1', 'B2', 'B1']",7.6,90,0,4.609967934751732,[6500|3900|0]
19500,1.352103590965271,0.5312904119491577,0.008570513688027859,2.832648992538452,4.917330265045166,-7.344126224517822,3.98046875,1,"['F1', 'B2', 'B1']",7.6,90,0,4.627048398328419,[6500|4000|0]
19600,1.3554197549819946,0.5309431552886963,0.0031346639152616262,0.7749207615852356,2.16759991645813,-8.137665748596191,3.98046875,1,"['F1', 'B2', 'B1']",7.6,90,0,4.633425387722022,[6500|4100|0]
19700,1.353345513343811,0.52925044298172,0.002990911714732647,-0.8554515838623047,0.7210034728050232,-7.344122886657715,3.98046875,1,"['F1', 'B2', 'B1']",7.6,90,0,4.636106510252404,[6500|4200|0]
19800,1.3540852069854736,0.5313615202903748,0.0018407886382192373,-1.2441329956054688,-1.8219751119613647,-2.960249900817871,3.98046875,1,"['F1', 'B2', 'B1']",7.6,90,0,4.638621779060655,[6500|4300|0]
19900,1.3504120111465454,0.5311788320541382,0.0018391205230727792,-1.2084171772003174,-1.6244431734085083,-1.942318320274353,3.984375,1,"['F1', 'B2', 'B1']",7.6,90,0,4.642299515517416,[6500|4400|0]
20000,1.3492904901504517,0.5312507748603821,0.001989632146432996,-0.9299846291542053,-1.438805341720581,-0.5053068399429321,3.984375,1,"['F1', 'B2', 'B1']",7.6,90,0,4.643433375676702,[6500|4500|0]
20100,1.3493738174438477,0.5314224362373352,0.0017879594815894961,-1.0476093292236328,-1.4699852466583252,-0.514408528804779,3.984375,1,"['F1', 'B2', 'B1']",7.6,90,0,4.64371101380432,[6500|4600|0]
20200,1.349351406097412,0.5314581394195557,0.001802418497391045,-1.038719654083252,-1.4044060707092285,-0.5611591339111328,3.984375,1,"['F1', 'B2', 'B1']",7.6,90,0,4.643755578911834,[6500|4700|0]
20300,1.3494365215301514,0.5312835574150085,0.001515476847998798,-1.023987889289856,-1.317657709121704,-0.58983314037323,3.984375,1,"['F1', 'B2', 'B1']",7.6,90,0,4.644102074255754,[6500|4800|0]
20400,1.3493542671203613,0.5317221283912659,0.0019123097881674767,-1.0179036855697632,-1.2155083417892456,-0.6164121031761169,3.990234375,1,"['F1', 'B2', 'B1']",7.6,90,0,4.644699223040855,[6500|4900|0]
20500,1.3492259979248047,0.531796395778656,0.0013404603814706206,-1.0028560161590576,-1.1212787628173828,-0.6404047012329102,3.990234375,1,"['F1', 'B2', 'B1']",7.6,90,0,4.645289968650486,[6500|5000|0]
20600,1.3493266105651855,0.5317420363426208,0.0016133018070831895,-0.9803619980812073,-1.0712647438049316,-0.6626133918762207,3.990234375,1,"['F1', 'B2', 'B1']",7.6,90,0,4.645585806942837,[6500|5100|0]
20700,1.349234938621521,0.5314209461212158,0.0017967685125768185,-0.9649215936660767,-1.0435731410980225,-0.6887442469596863,3.990234375,1,"['F1', 'B2', 'B1']",7.6,90,0,4.645966809183725,[6500|5200|0]
20800,1.3495123386383057,0.5314326882362366,0.001949412515386939,-0.9645750522613525,-1.0332497358322144,-0.6913071274757385,3.990234375,1,"['F1', 'B2', 'B1']",7.6,90,0,4.646283651160381,[6500|5300|0]
20900,1.3492984771728516,0.5312439799308777,0.001855134149082005,-0.9623019695281982,-1.0049313306808472,-0.7107288837432861,3.990234375,1,"['F1', 'B2', 'B1']",7.6,90,0,4.646584044171735,[6500|5400|0]
21000,1.3494888544082642,0.5315271615982056,0.0014311682898551226,-0.9773037433624268,-0.9862275123596191,-0.7411532402038574,3.99609375,1,"['F1', 'B2', 'B1']",7.6,90,0,4.6471282705936074,[6500|5500|0]
21100,1.349307656288147,0.5317601561546326,0.0013261482818052173,-0.9815928936004639,-0.9623684883117676,-0.7490617632865906,3.99609375,1,"['F1', 'B2', 'B1']",7.6,90,0,4.6474415570825425,[6500|5600|0]
21200,1.3494857549667358,0.5312162637710571,0.001600339892320335,-0.9661957025527954,-0.9438538551330566,-0.7621601223945618,3.99609375,1,"['F1', 'B2', 'B1']",7.6,90,0,4.648076158613823,[6500|5700|0]
21300,1.3497234582901,0.5310804843902588,0.0016615246422588825,-1.083369255065918,-0.9429143071174622,-1.3000375032424927,3.99609375,1,"['F1', 'B2', 'B1']",7.6,90,0,4.648356662595637,[6500|5800|0]
21400,1.3506149053573608,0.5295142531394958,0.002044389955699444,-0.08144237846136093,-0.4817946255207062,-6.260430812835693,3.99609375,1,"['F1', 'B2', 'B1']",7.6,90,0,4.650199037164727,[6500|5900|0]
21500,1.3503977060317993,0.5290915369987488,0.0019474625587463379,0.06481947004795074,-0.4049612283706665,-8.580252647399902,3.99609375,1,"['F1', 'B2', 'B1']",7.6,90,0,4.6506840726303915,[6500|6000|0]
21600,1.3505444526672363,0.5283994674682617,0.002082119695842266,0.05104473978281021,-0.49646908044815063,-9.198013305664062,3.99609375,1,"['F1', 'B2', 'B1']",7.6,90,0,4.6514042304982315,[6500|6100|0]
21700,1.350504994392395,0.5290470719337463,0.002026340924203396,-0.042118195444345474,-0.47325754165649414,-9.91970157623291,3.99609375,1,"['F1', 'B2', 'B1']",7.6,90,0,4.652055429216393,[6500|6200|0]
21800,1.3517600297927856,0.5314847826957703,0.001485088374465704,-1.1155977249145508,-0.998405933380127,-10.936542510986328,3.99609375,1,"['F1', 'B2', 'B1']",7.6,90,0,4.654850156741237,[6500|6300|0]
21900,1.3523684740066528,0.5324348211288452,0.001402689260430634,-3.2009568214416504,-2.0491936206817627,-9.723374366760254,4.0,1,"['F1', 'B2', 'B1']",7.6,90,0,4.655981336214045,[6500|6400|0]
22000,1.3522483110427856,0.5327360033988953,0.0009002519655041397,-3.192084550857544,-2.03718900680542,-9.685873031616211,4.0,1,"['F1', 'B2', 'B1']",7.6,90,0,4.656579327127864,[6500|6500|0]
22100,1.3524889945983887,0.5323205590248108,0.0012240450596436858,-3.1499805450439453,-2.0324151515960693,-9.657352447509766,4.0,1,"['F1', 'B2', 'B1']",7.6,90,0,4.657158433827625,[6500|6600|0]
22200,1.3523181676864624,0.53256756067276,0.0009142417693510652,-3.12264084815979,-2.0125696659088135,-9.643881797790527,4.0,1,"['F1', 'B2', 'B1']",7.6,90,0,4.657589907727884,[6500|6700|0]
22300,1.3525103330612183,0.5329034924507141,0.0007610609754920006,-3.1064560413360596,-2.0144617557525635,-9.63267707824707,4.0,1,"['F1', 'B2', 'B1']",7.6,90,0,4.65800613128116,[6500|6800|0]
22400,1.3524268865585327,0.5326385498046875,0.0008774256566539407,-3.0671098232269287,-1.9971582889556885,-9.635854721069336,4.0,1,"['F1', 'B2', 'B1']",7.6,90,0,4.658307293469218,[6500|6900|0]
22500,1.35251784324646,0.5324648022651672,0.001314894063398242,-3.0315330028533936,-1.983435869216919,-9.639320373535156,4.0,1,"['F1', 'B2', 'B1']",7.6,90,0,4.658786709711608,[6500|7000|0]
22600,1.352289080619812,0.5327926874160767,0.001214749412611127,-3.0018138885498047,-1.9601233005523682,-9.589095115661621,4.0078125,1,"['F1', 'B2', 'B1']",7.6,90,0,4.6591988625505145,[6500|7100|0]
22700,1.3524940013885498,0.5330991148948669,0.001045790733769536,-2.9820938110351562,-1.9819276332855225,-9.593979835510254,4.0078125,1,"['F1', 'B2', 'B1']",7.6,90,0,4.659604371312903,[6500|7200|0]
22800,1.352475881576538,0.5328341722488403,0.0008708929526619613,-2.957463264465332,-1.9884330034255981,-9.598743438720703,4.0078125,1,"['F1', 'B2', 'B1']",7.6,90,0,4.659922352707182,[6500|7300|0]
22900,1.3523039817810059,0.5333189964294434,0.0005955973174422979,-2.9449408054351807,-1.9832733869552612,-9.622118949890137,4.0078125,1,"['F1', 'B2', 'B1']",7.6,90,0,4.660505783690737,[6500|7400|0]
23000,1.3523335456848145,0.5329595804214478,0.0011678538285195827,-2.899379253387451,-1.9542105197906494,-9.623684883117676,4.0078125,1,"['F1', 'B2', 'B1']",7.6,90,0,4.66118219436901,[6500|7500|0]
23100,1.3519601821899414,0.5325901508331299,0.0009748779702931643,-2.8406598567962646,-1.8687711954116821,-9.623991012573242,4.0078125,1,"['F1', 'B2', 'B1']",7.6,90,0,4.661741764026771,[6500|7600|0]
23200,1.3520188331604004,0.5327494740486145,0.0011855615302920341,-2.80718731880188,-1.8104636669158936,-9.553323745727539,4.0078125,1,"['F1', 'B2', 'B1']",7.6,90,0,4.6620123400526525,[6500|7700|0]
23300,1.3512357473373413,0.5321710109710693,0.001197728095576167,-2.7609596252441406,-1.788292646408081,-9.38595962524414,4.0078125,1,"['F1', 'B2', 'B1']",7.6,90,0,4.662985988327786,[6500|7800|0]
23400,1.350823998451233,0.5327306389808655,0.0015672846930101514,-2.7900164127349854,-1.782645344734192,-9.242840766906738,4.0078125,1,"['F1', 'B2', 'B1']",7.6,90,0,4.6637729398722065,[6500|7900|0]
23500,1.3503193855285645,0.5330493450164795,0.0023755740839987993,-2.7738420963287354,-1.7828449010849,-9.138398170471191,4.0078125,1,"['F1', 'B2', 'B1']",7.6,90,0,4.664777698290159,[6500|8000|0]
23600,1.3492944240570068,0.5335045456886292,0.00308796064928174,-2.777024507522583,-1.7710840702056885,-9.136397361755371,4.0078125,1,"['F1', 'B2', 'B1']",7.6,90,0,4.666106324757041,[6500|8100|0]
23700,1.3525443077087402,0.5324926972389221,0.001216114149428904,-2.7535531520843506,-1.8292268514633179,-9.113485336303711,4.01171875,1,"['F1', 'B2', 'B1']",7.6,90,0,4.669990831206255,[6500|8200|0]
23800,1.3519502878189087,0.5322100520133972,0.0008630830561742187,-2.7365169525146484,-1.816011905670166,-9.237858772277832,4.01171875,1,"['F1', 'B2', 'B1']",7.6,90,0,4.670737409337352,[6500|8300|0]
23900,1.3521771430969238,0.532686710357666,0.0010845838114619255,-2.741600751876831,-1.8160662651062012,-9.242786407470703,4.01171875,1,"['F1', 'B2', 'B1']",7.6,90,0,4.671309885606657,[6500|8400|0]
24000,1.3518933057785034,0.5321788191795349,0.0010712901130318642,-2.727891206741333,-1.8046584129333496,-9.313714981079102,4.01171875,1,"['F1', 'B2', 'B1']",7.6,90,0,4.671891859656396,[6500|8500|0]
24100,1.3521031141281128,0.5322865843772888,0.0012508165091276169,-2.734325408935547,-1.8146764039993286,-9.316178321838379,4.01171875,1,"['F1', 'B2', 'B1']",7.6,90,0,4.672188275931773,[6500|8600|0]
24200,1.3523238897323608,0.532226026058197,0.0010568995494395494,-2.7465622425079346,-1.8097400665283203,-9.430477142333984,4.01171875,1,"['F1', 'B2', 'B1']",7.6,90,0,4.672488297538823,[6500|8700|0]
24300,1.352481484413147,0.5325577855110168,0.0009196260944008827,-2.7584474086761475,-1.8053983449935913,-9.471417427062988,4.01171875,1,"['F1', 'B2', 'B1']",7.6,90,0,4.672880400101179,[6500|8800|0]
24400,1.3521053791046143,0.5329005122184753,0.0004944078391417861,-2.757054567337036,-1.7917636632919312,-9.436952590942383,4.01171875,1,"['F1', 'B2', 'B1']",7.6,90,0,4.673543519520075,[6500|8900|0]
24500,1.3519755601882935,0.5327147245407104,0.0004989784210920334,-2.744860887527466,-1.7912603616714478,-9.427255630493164,4.01171875,1,"['F1', 'B2', 'B1']",7.6,90,0,4.673770215136406,[6500|9000|0]
24601,1.3519971370697021,0.5323281288146973,0.00040877002174966037,-2.730736494064331,-1.787868857383728,-9.422080039978027,4.01171875,1,"['F1', 'B2', 'B1']",7.6,90,0,4.674167781951539,[6500|9100|0]
24701,1.351731777191162,0.5322170853614807,0.0010588455479592085,-2.736834764480591,-1.7827345132827759,-9.57323169708252,4.01171875,1,"['F1', 'B2', 'B1']",7.6,90,0,4.674878657962822,[6500|9200|0]
24801,1.3520971536636353,0.532112717628479,0.0012212350266054273,-2.736816644668579,-1.7837823629379272,-9.564634323120117,4.01171875,1,"['F1', 'B2', 'B1']",7.6,90,0,4.675291892681963,[6500|9300|0]
24901,1.352399468421936,0.5326319336891174,0.0008427559514530003,-2.750396251678467,-1.7780025005340576,-9.557109832763672,4.015625,1,"['F1', 'B2', 'B1']",7.6,90,0,4.676001981367297,[6500|9400|0]
25001,1.352081060409546,0.532644510269165,0.0004813214181922376,-2.74212908744812,-1.7689176797866821,-9.537474632263184,4.015625,1,"['F1', 'B2', 'B1']",7.6,90,0,4.676483828598848,[6500|9500|0]
25101,1.352209448814392,0.5325705409049988,0.0006893257959745824,-2.7310991287231445,-1.7701643705368042,-9.533909797668457,4.01171875,1,"['F1', 'B2', 'B1']",7.6,90,0,4.676739212369888,[6500|9600|0]
25201,1.3519833087921143,0.5324195623397827,0.001001131720840931,-2.720719575881958,-1.767211675643921,-9.532217025756836,4.015625,1,"['F1', 'B2', 'B1']",7.6,90,0,4.677152923345827,[6500|9700|0]
25302,1.3523283004760742,0.5321445465087891,0.0009602690697647631,-2.718930959701538,-1.7699382305145264,-9.533945083618164,4.015625,1,"['F1', 'B2', 'B1']",7.6,90,0,4.677596006549697,[6500|9800|0]
25402,1.3519489765167236,0.5325554013252258,0.0007466359529644251,-2.7303900718688965,-1.7620453834533691,-9.520235061645508,4.015625,1,"['F1', 'B2', 'B1']",7.6,90,0,4.67819461113949,[6500|9900|0]
25502,1.3521826267242432,0.5324963927268982,0.000677575240842998,-2.7345874309539795,-1.7643647193908691,-9.481253623962402,4.015625,1,"['F1', 'B2', 'B1']",7.6,90,0,4.678445297828624,[6500|10000|0]
25600,1.3520675897598267,0.5327937006950378,0.0007591728353872895,-2.7360215187072754,-1.7552462816238403,-9.479254722595215,4.015625,1,"['F1', 'B2', 'B1']",7.6,90,0,4.678774362713619,[6500|10100|0]
25700,1.3523584604263306,0.5326355695724487,0.0011040221434086561,-2.7254669666290283,-1.7491520643234253,-9.492624282836914,4.015625,1,"['F1', 'B2', 'B1']",7.6,90,0,4.679252413173097,[6500|10200|0]
25800,1.3517560958862305,0.5323458909988403,0.0006152715650387108,-2.707643508911133,-1.7134242057800293,-9.473678588867188,4.015625,1,"['F1', 'B2', 'B1']",7.6,90,0,4.680080443271001,[6500|10300|0]
25900,1.3516616821289062,0.5324403047561646,0.00035554662463255227,-2.7090466022491455,-1.7062745094299316,-9.487298965454102,4.015625,1,"['F1', 'B2', 'B1']",7.6,90,0,4.680372479158886,[6500|10400|0]
26000,1.3510702848434448,0.5324692130088806,0.0009889276698231697,-2.705740213394165,-1.7158422470092773,-9.322596549987793,4.015625,1,"['F1', 'B2', 'B1']",7.6,90,0,4.681239518941556,[6500|10500|0]
26100,1.3502295017242432,0.5329339504241943,0.0013239867985248566,-2.7341675758361816,-1.7412761449813843,-9.189848899841309,4.0234375,1,"['F1', 'B2', 'B1']",7.6,90,0,4.6822569479260325,[6500|10600|0]
26200,1.349321722984314,0.5332877039909363,0.0021610239055007696,-2.7380447387695312,-1.735979676246643,-9.077999114990234,4.0234375,1,"['F1', 'B2', 'B1']",7.6,90,0,4.683541406934761,[6500|10700|0]
26300,1.3483092784881592,0.5336717963218689,0.0031191473826766014,-2.733588695526123,-1.7007520198822021,-8.993191719055176,4.0234375,1,"['F1', 'B2', 'B1']",7.6,90,0,4.684987287764564,[6500|10800|0]
26400,1.346609115600586,0.5339012742042542,0.003960414323955774,-2.7146759033203125,-1.6771801710128784,-8.911120414733887,4.0234375,1,"['F1', 'B2', 'B1']",7.6,90,0,4.686898032124565,[6500|10900|0]
26500,1.344938039779663,0.5342906713485718,0.004969032946974039,-2.7291338443756104,-1.671035885810852,-8.841460227966309,4.0234375,1,"['F1', 'B2', 'B1']",7.6,90,0,4.688888367790219,[6500|11000|0]
26600,1.3518699407577515,0.5323320627212524,0.0009086609934456646,-2.72308087348938,-1.7438498735427856,-9.035914421081543,4.0234375,1,"['F1', 'B2', 'B1']",7.6,90,0,4.697157226195467,[6500|11100|0]
26700,1.3523502349853516,0.5323730111122131,0.0009942043107002974,-2.7322170734405518,-1.7544838190078735,-9.145126342773438,4.0234375,1,"['F1', 'B2', 'B1']",7.6,90,0,4.697646794346918,[6500|11200|0]
26800,1.3522613048553467,0.5324450135231018,0.0006747138104401529,-2.7416834831237793,-1.763377070426941,-9.250777244567871,4.0234375,1,"['F1', 'B2', 'B1']",7.6,90,0,4.6979861571247135,[6500|11300|0]
26900,1.3521344661712646,0.5322327613830566,0.0011395837645977736,-2.740939140319824,-1.765446662902832,-9.311683654785156,4.0234375,1,"['F1', 'B2', 'B1']",7.6,90,0,4.698512695914369,[6500|11400|0]
27000,1.352293610572815,0.5319607257843018,0.0010720998980104923,-2.737365245819092,-1.7766475677490234,-9.370598793029785,4.0234375,1,"['F1', 'B2', 'B1']",7.6,90,0,4.6988350069129154,[6500|11500|0]
27100,1.352480173110962,0.5323895812034607,0.0013422518968582153,-2.7452781200408936,-1.7745221853256226,-9.413625717163086,4.0234375,1,"['F1', 'B2', 'B1']",7.6,90,0,4.699375103805763,[6500|11600|0]
27200,1.3520431518554688,0.5326838493347168,0.0008842062088660896,-2.7780587673187256,-1.849226713180542,-9.517772674560547,4.0234375,1,"['F1', 'B2', 'B1']",7.6,90,0,4.700073234999103,[6500|11700|0]
27300,1.351919174194336,0.5330391526222229,0.0009224876994267106,-2.7963011264801025,-1.8756173849105835,-9.555214881896973,4.0234375,1,"['F1', 'B2', 'B1']",7.6,90,0,4.700451489356767,[6500|11800|0]
27400,1.352026343345642,0.5327776074409485,0.0008769168052822351,-2.7929461002349854,-1.8815929889678955,-9.584040641784668,4.0234375,1,"['F1', 'B2', 'B1']",7.6,90,0,4.700737789575475,[6500|11900|0]
27500,1.3524233102798462,0.5328065156936646,0.0010076737962663174,-2.79785418510437,-1.8925384283065796,-9.618672370910645,4.0234375,1,"['F1', 'B2', 'B1']",7.6,90,0,4.701156735663436,[6500|12000|0]
27600,1.3519779443740845,0.5327749848365784,0.00090329087106511,-2.7859091758728027,-1.8684617280960083,-9.631134986877441,4.0234375,1,"['F1', 'B2', 'B1']",7.6,90,0,4.701615255870228,[6500|12100|0]
27700,1.3521257638931274,0.5325750112533569,0.0007949747378006577,-2.7663583755493164,-1.8214691877365112,-9.649731636047363,4.0234375,1,"['F1', 'B2', 'B1']",7.6,90,0,4.701886498250623,[6500|12200|0]
27800,1.3520698547363281,0.5326226353645325,0.0012129666283726692,-2.7552947998046875,-1.7843563556671143,-9.647623062133789,4.0234375,1,"['F1', 'B2', 'B1']",7.6,90,0,4.702310893243952,[6500|12300|0]
27900,1.3520921468734741,0.5325157642364502,0.0011919105891138315,-2.751859188079834,-1.786314606666565,-9.653173446655273,4.0234375,1,"['F1', 'B2', 'B1']",7.6,90,0,4.702422076579868,[6500|12400|0]
28000,1.3522145748138428,0.5326716303825378,0.0010919749038293958,-2.750321626663208,-1.7845007181167603,-9.630615234375,4.0234375,1,"['F1', 'B2', 'B1']",7.6,90,0,4.7026440450399525,[6500|12500|0]
28100,1.3520870208740234,0.5324810147285461,0.0009207222610712051,-2.7422633171081543,-1.7829269170761108,-9.612783432006836,4.02734375,1,"['F1', 'B2', 'B1']",7.6,90,0,4.702930282358906,[6500|12600|0]
28200,1.3520455360412598,0.5325883626937866,0.0009549318347126245,-2.7410969734191895,-1.7748976945877075,-9.609160423278809,4.02734375,1,"['F1', 'B2', 'B1']",7.6,90,0,4.703050344309246,[6500|12700|0]
28300,1.3519964218139648,0.5324992537498474,0.000948578177485615,-2.736912250518799,-1.7739042043685913,-9.595402717590332,4.02734375,1,"['F1', 'B2', 'B1']",7.6,90,0,4.703152290276174,[6500|12800|0]
28400,1.3522017002105713,0.5326979160308838,0.0011240870226174593,-2.743638515472412,-1.7761085033416748,-9.60352897644043,4.02734375,1,"['F1', 'B2', 'B1']",7.6,90,0,4.70348756520327,[6500|12900|0]
28500,1.35191011428833,0.5329187512397766,0.0008649157825857401,-2.7484002113342285,-1.7667455673217773,-9.622057914733887,4.02734375,1,"['F1', 'B2', 'B1']",7.6,90,0,4.703935851128986,[6500|13000|0]
28600,1.3516639471054077,0.5324538350105286,0.0008512689964845777,-2.738328218460083,-1.764789342880249,-9.639245986938477,4.02734375,1,"['F1', 'B2', 'B1']",7.6,90,0,4.70446209405477,[6500|13100|0]
28700,1.3521817922592163,0.5328952670097351,0.0009967386722564697,-2.7525527477264404,-1.777175784111023,-9.633599281311035,4.02734375,1,"['F1', 'B2', 'B1']",7.6,90,0,4.70515792969615,[6500|13200|0]
28800,1.3519736528396606,0.5324940085411072,0.0009803918655961752,-2.7364110946655273,-1.7693071365356445,-9.637457847595215,4.02734375,1,"['F1', 'B2', 'B1']",7.6,90,0,4.705610254352461,[6500|13300|0]
28900,1.35228431224823,0.5325958728790283,0.0008594332030043006,-2.7398481369018555,-1.7787197828292847,-9.622673988342285,4.02734375,1,"['F1', 'B2', 'B1']",7.6,90,0,4.70595884667815,[6500|13400|0]
29000,1.3522169589996338,0.5325205326080322,0.0008133897208608687,-2.7411839962005615,-1.7724710702896118,-9.649935722351074,4.02734375,1,"['F1', 'B2', 'B1']",7.6,90,0,4.706069899002656,[6500|13500|0]
29100,1.3519597053527832,0.5325415730476379,0.0009579003672115505,-2.739727020263672,-1.7629128694534302,-9.646271705627441,4.02734375,1,"['F1', 'B2', 'B1']",7.6,90,0,4.706365712230598,[6500|13600|0]
29200,1.3520621061325073,0.5327199101448059,0.0012507489882409573,-2.7377398014068604,-1.7562646865844727,-9.655230522155762,4.02734375,1,"['F1', 'B2', 'B1']",7.6,90,0,4.706723553472985,[6500|13700|0]
29300,1.3519819974899292,0.5324402451515198,0.0007708285702392459,-2.7327864170074463,-1.7539277076721191,-9.680035591125488,4.02734375,1,"['F1', 'B2', 'B1']",7.6,90,0,4.707284760663513,[6500|13800|0]
29400,1.3517277240753174,0.5327211022377014,0.0005142387235537171,-2.736391305923462,-1.737618088722229,-9.673120498657227,4.02734375,1,"['F1', 'B2', 'B1']",7.6,90,0,4.707742334724905,[6500|13900|0]
29500,1.3520009517669678,0.5325779318809509,0.0009085427154786885,-2.7389121055603027,-1.7542492151260376,-9.673737525939941,4.02734375,1,"['F1', 'B2', 'B1']",7.6,90,0,4.708242961093153,[6500|14000|0]
29600,1.3521603345870972,0.5325732231140137,0.0010517959017306566,-2.7413954734802246,-1.7535697221755981,-9.673760414123535,4.02734375,1,"['F1', 'B2', 'B1']",7.6,90,0,4.708457312513045,[6500|14100|0]
29700,1.3520783185958862,0.5325908660888672,0.0010480752680450678,-2.7431697845458984,-1.7463377714157104,-9.674816131591797,4.02734375,1,"['F1', 'B2', 'B1']",7.6,90,0,4.708541287154997,[6500|14200|0]
29800,1.3522872924804688,0.5327364802360535,0.0007527084089815617,-2.7407326698303223,-1.7494608163833618,-9.65732192993164,4.02734375,1,"['F1', 'B2', 'B1']",7.6,90,0,4.708931306572118,[6500|14300|0]
29900,1.3518645763397217,0.5325321555137634,0.0011025455314666033,-2.727037191390991,-1.7417073249816895,-9.65506362915039,4.02734375,1,"['F1', 'B2', 'B1']",7.6,90,0,4.70951681792133,[6500|14400|0]
