,time.ms,stateEstimate.x,stateEstimate.y,stateEstimate.z,stabilizer.roll,stabilizer.pitch,stabilizer.yaw,pm.vbat,drone_id,node_name,wind_speed,global_wind_direction,relative_wind_direction,travel_dist,waiting_time
0,0,0.7636696696281433,0.7398992776870728,-0.029100002720952,-1.148648381233215,0.2565686404705047,10.797553062438965,4.1640625,1,"['A1', 'B2', 'F2']",7.6,270,0.0,0.072833206893681,[100|0|0]
1,100,0.7630115151405334,0.740015983581543,-0.0290509071201086,-1.157292366027832,0.2710699737071991,10.784838676452637,4.1640625,1,"['A1', 'B2', 'F2']",7.6,270,0.0,0.0735034292249915,[200|0|0]
2,200,0.7635188102722168,0.7399791479110718,-0.0293350648134946,-1.1545909643173218,0.2560577094554901,10.76887035369873,4.1640625,1,"['A1', 'B2', 'F2']",7.6,270,0.0,0.074086053299296,[300|0|0]
3,300,0.7636662721633911,0.74027019739151,-0.0293097663670778,-1.160470485687256,0.2472343742847442,10.775349617004396,4.1640625,1,"['A1', 'B2', 'F2']",7.6,270,0.0,0.0744133067497028,[400|0|0]
4,400,0.7633547782897949,0.7404080033302307,-0.029234193265438,-1.1577826738357544,0.2593381404876709,10.79399585723877,4.1640625,1,"['A1', 'B2', 'F2']",7.6,270,0.0,0.0747622053076335,[500|0|0]
5,500,0.7633910775184631,0.7403099536895752,-0.029207307845354,-1.1513763666152954,0.2586941123008728,10.7796630859375,4.1640625,1,"['A1', 'B2', 'F2']",7.6,270,0.0,0.0748701598899711,[600|0|0]
6,600,0.7633808255195618,0.7402743697166443,-0.0290569271892309,-1.1561672687530518,0.2609521448612213,10.7764310836792,4.1640625,1,"['A1', 'B2', 'F2']",7.6,270,0.0,0.0750250329487872,[700|0|0]
7,700,0.7631478905677795,0.7395347952842712,-0.0292386375367641,-1.146580457687378,0.2730469405651092,10.782842636108398,4.1640625,1,"['A1', 'B2', 'F2']",7.6,270,0.0,0.0758214296358611,[800|0|0]
8,800,0.7632644176483154,0.7401852011680603,-0.0290066488087177,-1.1641888618469238,0.2627462148666382,10.772482872009276,4.1640625,1,"['A1', 'B2', 'F2']",7.6,270,0.0,0.0765217332443812,[900|0|0]
9,900,0.7632357478141785,0.7399876117706299,-0.0293353460729122,-1.160088062286377,0.2620587646961212,10.780058860778809,4.1640625,1,"['A1', 'B2', 'F2']",7.6,270,0.0,0.0769063179825798,[1000|0|0]
10,1000,0.7630393505096436,0.7399864792823792,-0.0292503982782363,-1.1601765155792236,0.2594336569309234,10.806833267211914,4.1640625,1,"['A1', 'B2', 'F2']",7.6,270,0.0,0.0771203023548562,[1100|0|0]
11,1100,0.7632585763931274,0.7402306795120239,-0.0287626255303621,-1.1654605865478516,0.2520945072174072,10.820795059204102,4.1640625,1,"['A1', 'B2', 'F2']",7.6,270,0.0,0.077708193495899,[1200|0|0]
12,1200,0.7633079290390015,0.7402685284614563,-0.0290255304425954,-1.1595921516418457,0.2482925206422805,10.8206148147583,4.1640625,1,"['A1', 'B2', 'F2']",7.6,270,0.0,0.0779783549652175,[1300|0|0]
13,1300,0.7633314728736877,0.7400086522102356,-0.0295560359954834,-1.1493022441864014,0.2406279742717743,10.815199851989746,4.1640625,1,"['A1', 'B2', 'F2']",7.6,270,0.0,0.0785695623059578,[1400|0|0]
14,1400,0.7629971504211426,0.7401379346847534,-0.0292505640536546,-1.154389262199402,0.2526283264160156,10.834956169128418,4.1640625,1,"['A1', 'B2', 'F2']",7.6,270,0.0,0.0790405172589393,[1500|0|0]
15,1500,0.7633116841316223,0.74031662940979,-0.0288856104016304,-1.1556605100631714,0.243134468793869,10.838886260986328,4.1640625,1,"['A1', 'B2', 'F2']",7.6,270,0.0,0.0795543795244443,[1600|0|0]
16,1600,0.7633976340293884,0.7398591637611389,-0.0292743910104036,-1.1247835159301758,0.269252210855484,10.837933540344238,4.1640625,1,"['A1', 'B2', 'F2']",7.6,270,0.0,0.0801608550527057,[1700|0|0]
17,1700,0.7634471654891968,0.7398982644081116,-0.0292883943766355,-1.1264561414718628,0.2689365446567535,10.82806396484375,4.1640625,1,"['A1', 'B2', 'F2']",7.6,270,0.0,0.0802254949813122,[1800|0|0]
18,1800,0.763092041015625,0.7403005361557007,-0.0290218014270067,-1.1351869106292725,0.2699443399906158,10.828339576721191,4.1640625,1,"['A1', 'B2', 'F2']",7.6,270,0.0,0.0808246675369502,[1900|0|0]
19,1900,0.7632749676704407,0.7402322292327881,-0.0293925460427999,-1.139554142951965,0.2600250840187073,10.819490432739258,4.1640625,1,"['A1', 'B2', 'F2']",7.6,270,0.0,0.0812436896925691,[2000|0|0]
20,2000,0.5720446705818176,0.8005296587944031,0.1117962002754211,0.0010053865844383,-0.0019190444145351,5.609004020690918,4.1640625,1,"['A1', 'B2', 'F2']",7.6,270,0.0,0.3264763723090017,[2100|0|0]
21,2100,0.79049152135849,0.7394887208938599,-0.0507538393139839,-0.6692195534706116,-5.397120952606201,9.618508338928224,4.1640625,1,"['A1', 'B2', 'F2']",7.6,270,0.0,0.605523927547425,[2200|0|0]
22,2200,0.7844575047492981,0.738741934299469,-0.0459734499454498,1.5465630292892456,3.4256339073181152,10.794654846191406,4.1640625,1,"['A1', 'B2', 'F2']",7.6,270,0.0,0.6132582128519867,[2300|0|0]
23,2300,0.771895170211792,0.7389606833457947,-0.0385538935661315,1.7425199747085571,8.999340057373047,10.595746994018556,4.1640625,1,"['A1', 'B2', 'F2']",7.6,270,0.0,0.6278496458536958,[2400|0|0]
24,2400,0.7645783424377441,0.7390925288200378,-0.0346314050257205,1.5448061227798462,9.57608699798584,10.251962661743164,4.1640625,1,"['A1', 'B2', 'F2']",7.6,270,0.0,0.6361526132903303,[2500|0|0]
25,2500,0.7607364058494568,0.7395108938217163,-0.0313293188810348,1.2046972513198853,8.637959480285645,10.015527725219728,4.1640625,1,"['A1', 'B2', 'F2']",7.6,270,0.0,0.6412358483753895,[2600|0|0]
26,2600,0.7592890858650208,0.7393273115158081,-0.029942512512207,0.8901651501655579,7.455604553222656,9.9214506149292,4.1640625,1,"['A1', 'B2', 'F2']",7.6,270,0.0,0.6432487243042564,[2700|0|0]
27,2700,0.7583054900169373,0.7395004034042358,-0.0291713438928127,0.5845754742622375,6.3805251121521,9.88260269165039,4.1640625,1,"['A1', 'B2', 'F2']",7.6,270,0.0,0.644510517723856,[2800|0|0]
28,2800,0.7583916783332825,0.7394557595252991,-0.0288128219544887,0.3384721875190735,5.414010524749756,9.899443626403809,4.1640625,1,"['A1', 'B2', 'F2']",7.6,270,0.0,0.6448819466969593,[2900|0|0]
29,2900,0.758531391620636,0.7394812107086182,-0.0287078637629747,0.1163965165615081,4.60240364074707,9.934565544128418,4.1640625,1,"['A1', 'B2', 'F2']",7.6,270,0.0,0.6450585360153264,[3000|0|0]
30,3000,0.7585262656211853,0.7396441102027893,-0.0285739973187446,-0.0832080170512199,3.904202461242676,9.982693672180176,4.1640625,1,"['A1', 'B2', 'F2']",7.6,270,0.0,0.6452694453464675,[3100|0|0]
31,3100,0.7590342164039612,0.7393101453781128,-0.0286308415234088,-0.2427637130022049,3.2978343963623047,10.064902305603027,4.1640625,1,"['A1', 'B2', 'F2']",7.6,270,0.0,0.6458800006391705,[3200|0|0]
32,3200,0.759320855140686,0.7395148873329163,-0.0290642064064741,-0.386857122182846,2.787764072418213,10.145508766174316,4.1640625,1,"['A1', 'B2', 'F2']",7.6,270,0.0,0.6464384683242894,[3300|0|0]
33,3300,0.7598996758460999,0.7397741675376892,-0.0285481512546539,-0.5163459777832031,2.3374009132385254,10.184657096862791,4.1640625,1,"['A1', 'B2', 'F2']",7.6,270,0.0,0.6472561311847173,[3400|0|0]
34,3400,0.760442316532135,0.7397884726524353,-0.0285770464688539,-0.6226564049720764,1.9561095237731931,10.25192928314209,4.1640625,1,"['A1', 'B2', 'F2']",7.6,270,0.0,0.6477997289071667,[3500|0|0]
35,3500,0.7609778642654419,0.7397847771644592,-0.0287035275250673,-0.7048549652099609,1.6413516998291016,10.32420253753662,4.1640625,1,"['A1', 'B2', 'F2']",7.6,270,0.0,0.6483500220007654,[3600|0|0]
36,3600,0.761157751083374,0.739676296710968,-0.0292535629123449,-0.7808001041412354,1.3794341087341309,10.399781227111816,4.1640625,1,"['A1', 'B2', 'F2']",7.6,270,0.0,0.6489388056650369,[3700|0|0]
37,3700,0.7618778347969055,0.739934504032135,-0.0290174521505832,-0.8544939160346985,1.145461082458496,10.446146965026855,4.1640625,1,"['A1', 'B2', 'F2']",7.6,270,0.0,0.6497393928664192,[3800|0|0]
38,3800,0.7623119354248047,0.7399246096611023,-0.0289824288338422,-0.9116742014884948,0.9546009302139282,10.501897811889648,4.1640625,1,"['A1', 'B2', 'F2']",7.6,270,0.0,0.6501750164268888,[3900|0|0]
39,3900,0.7619389295578003,0.7399871945381165,-0.0289074406027793,-0.9638031125068665,0.8205922842025757,10.564849853515623,4.1640625,1,"['A1', 'B2', 'F2']",7.6,270,0.0,0.6505605984265316,[4000|0|0]
40,4000,0.7624115347862244,0.7400171756744385,-0.0290669705718755,-0.9970492720603944,0.6862218379974365,10.59410572052002,4.1640625,1,"['A1', 'B2', 'F2']",7.6,270,0.0,0.6510603027205983,[4100|0|0]
41,4100,0.7623855471611023,0.7397985458374023,-0.0291743148118257,-1.016999125480652,0.5962702035903931,10.642417907714844,4.1640625,1,"['A1', 'B2', 'F2']",7.6,270,0.0,0.6513052458734979,[4200|0|0]
42,4200,0.762688934803009,0.7403257489204407,-0.0293713901191949,-1.0589622259140017,0.5088363289833069,10.692320823669434,4.1640625,1,"['A1', 'B2', 'F2']",7.6,270,0.0,0.6519446407661906,[4300|0|0]
43,4300,0.7625569701194763,0.7399641275405884,-0.0289653707295656,-1.077146053314209,0.4513657093048095,10.71056079864502,4.1640625,1,"['A1', 'B2', 'F2']",7.6,270,0.0,0.652504137365663,[4400|0|0]
44,4400,0.7626457810401917,0.7401254773139954,-0.0292076915502548,-1.1005678176879885,0.4030220806598663,10.730206489562988,4.1640625,1,"['A1', 'B2', 'F2']",7.6,270,0.0,0.6528085064001529,[4500|0|0]
45,4500,0.7631652355194092,0.740333616733551,-0.0293148774653673,-1.1168699264526367,0.3550325632095337,10.754471778869627,4.1640625,1,"['A1', 'B2', 'F2']",7.6,270,0.0,0.6533782816140317,[4600|0|0]
46,4600,0.7633997797966003,0.7401021718978882,-0.0294858384877443,-1.121281623840332,0.3344886600971222,10.762640953063965,4.1640625,1,"['A1', 'B2', 'F2']",7.6,270,0.0,0.6537495031127226,[4700|0|0]
47,4700,0.7634323239326477,0.7401120662689209,-0.0292600449174642,-1.1347146034240725,0.3124170899391174,10.766887664794922,4.1640625,1,"['A1', 'B2', 'F2']",7.6,270,0.0,0.6539778444268755,[4800|0|0]
48,4800,0.763329267501831,0.7403424978256226,-0.0290476158261299,-1.1504476070404053,0.2958543002605438,10.790679931640623,4.1640625,1,"['A1', 'B2', 'F2']",7.6,270,0.0,0.654307761763646,[4900|0|0]
49,4900,0.7631593942642212,0.7403568625450134,-0.0290316883474588,-1.1588425636291504,0.2946369051933288,10.804941177368164,4.1640625,1,"['A1', 'B2', 'F2']",7.6,270,0.0,0.6544789836857122,[5000|0|0]
50,5000,0.7633671164512634,0.7404981255531311,-0.0291671454906463,-1.1687393188476562,0.2739950716495514,10.822250366210938,4.1640625,1,"['A1', 'B2', 'F2']",7.6,270,0.0,0.6547643823228719,[5100|0|0]
51,5100,0.7631572484970093,0.7404041290283203,-0.0293412897735834,-1.17315936088562,0.2742946743965149,10.829593658447266,4.16015625,1,"['A1', 'B2', 'F2']",7.6,270,0.0,0.6550528370613995,[5200|0|0]
52,5200,0.7633373737335205,0.7402423620223999,-0.0294324457645416,-1.164580225944519,0.2683317363262176,10.841806411743164,4.1640625,1,"['A1', 'B2', 'F2']",7.6,270,0.0,0.6553115320163566,[5300|0|0]
53,5300,0.7632472515106201,0.7401618957519531,-0.0291997585445642,-1.160114049911499,0.270315557718277,10.87545108795166,4.1640625,1,"['A1', 'B2', 'F2']",7.6,270,0.0,0.6555737154980653,[5400|0|0]
54,5400,0.7629258632659912,0.740637481212616,-0.0290951523929834,-1.1752898693084717,0.2694206833839416,10.873875617980955,4.1640625,1,"['A1', 'B2', 'F2']",7.6,270,0.0,0.6561571659082358,[5500|0|0]
55,5500,0.7631383538246155,0.740037739276886,-0.0290958583354949,-1.153946876525879,0.2640949785709381,10.86634635925293,4.16015625,1,"['A1', 'B2', 'F2']",7.6,270,0.0,0.6567934387469869,[5600|0|0]
56,5600,0.763126790523529,0.7403039932250977,-0.0291330069303512,-1.157970666885376,0.259783387184143,10.855700492858888,4.16015625,1,"['A1', 'B2', 'F2']",7.6,270,0.0,0.6570625203200648,[5700|0|0]
57,5700,0.7629996538162231,0.7401002049446106,-0.029239609837532,-1.1541788578033447,0.2570643126964569,10.855120658874512,4.1640625,1,"['A1', 'B2', 'F2']",7.6,270,0.0,0.6573253084199245,[5800|0|0]
58,5800,0.7633100152015686,0.7402942776679993,-0.0290282852947711,-1.1606125831604004,0.250756561756134,10.874091148376465,4.1640625,1,"['A1', 'B2', 'F2']",7.6,270,0.0,0.6577479743327329,[5900|0|0]
59,5900,0.7632914185523987,0.7401290535926819,-0.029130021110177,-1.1627117395401,0.2602532207965851,10.857297897338867,4.1640625,1,"['A1', 'B2', 'F2']",7.6,270,0.0,0.6579428974113078,[6000|0|0]
60,6000,0.7632139325141907,0.7403680086135864,-0.0288383457809686,-1.1707584857940674,0.2595570683479309,10.840152740478516,4.1640625,1,"['A1', 'B2', 'F2']",7.6,270,0.0,0.6583278364789555,[6100|0|0]
61,6100,0.7634979486465454,0.7403988242149353,-0.0290014408528804,-1.1699049472808838,0.2522979378700256,10.84228801727295,4.16015625,1,"['A1', 'B2', 'F2']",7.6,270,0.0,0.6586567966090718,[6200|0|0]
62,6200,0.763068437576294,0.7405639290809631,-0.0290666241198778,-1.1812872886657717,0.2581057548522949,10.827325820922852,4.1640625,1,"['A/E1', 'B2', 'C1']",7.6,270,0.0,0.6591215419528367,[6200|0|0]
63,6300,0.7634041905403137,0.7404953837394714,-0.0292548667639493,-1.0825823545455933,0.3290897309780121,11.13508129119873,3.39453125,1,"['A/E1', 'B2', 'C1']",7.6,270,0.0,0.6595125199697831,[6200|0|0]
64,6400,0.7615993618965149,0.7426982522010803,-0.0235538501292467,-3.624080181121826,4.920846462249756,11.648428916931152,3.689453125,1,"['A/E1', 'B2', 'C1']",7.6,270,0.0,0.6658852451766145,[6200|0|0]
65,6500,0.7430536150932312,0.754079282283783,0.008238285779953,-10.72666072845459,18.441919326782227,14.478506088256836,3.810546875,1,"['A/E1', 'B2', 'C1']",7.6,270,0.0,0.7044107234462469,[6200|0|0]
66,6600,0.6868636608123779,0.7750281691551208,0.0501203276216983,-4.436472415924072,21.197668075561523,12.637598991394045,3.7734375,1,"['A/E1', 'B2', 'C1']",7.6,270,0.0,0.7775562786910204,[6200|0|0]
67,6700,0.600954532623291,0.7940716743469238,0.0970623791217804,9.94344711303711,-7.308201313018799,8.372187614440918,3.75390625,1,"['A/E1', 'B2', 'C1']",7.6,270,0.0,0.8772888691278257,[6200|0|0]
68,6800,0.5255638360977173,0.7970952987670898,0.1567538976669311,8.545052528381348,-15.067380905151367,2.2762742042541504,3.7734375,1,"['A/E1', 'B2', 'C1']",7.6,270,0.0,0.973496856392249,[6200|0|0]
69,6900,0.4798103272914886,0.7838634252548218,0.2243395149707794,4.20379638671875,-23.494678497314453,-3.680452346801758,3.7578125,1,"['A/E1', 'B2', 'C1']",7.6,270,0.0,1.0561786664296964,[6200|0|0]
70,7000,0.4698741734027862,0.763957142829895,0.2970653176307678,-0.5078888535499573,-20.768186569213867,-5.602747917175293,3.763671875,1,"['A/E1', 'B2', 'C1']",7.6,270,0.0,1.132231474442422,[6200|0|0]
71,7100,0.4891518652439117,0.7397889494895935,0.3741958439350128,0.2188305258750915,-9.151450157165527,-6.45180082321167,3.763671875,1,"['A/E1', 'B2', 'C1']",7.6,270,0.0,1.215326895856754,[6200|0|0]
72,7200,0.5251954793930054,0.7169046401977539,0.4587785005569458,-5.448333263397217,-7.924955368041992,-4.488983631134033,3.76953125,1,"['A/E1', 'B2', 'C1']",7.6,270,0.0,1.3100742416449984,[6200|0|0]
73,7300,0.5710437893867493,0.7027060389518738,0.5507071018218994,-5.503838062286377,-1.5002583265304563,-2.57442569732666,3.78515625,1,"['A/E1', 'B2', 'C1']",7.6,270,0.0,1.4137783184074515,[6200|0|0]
74,7400,0.6214454770088196,0.6993505358695984,0.6486618518829346,-6.235574245452881,1.85499906539917,-1.2998541593551636,3.794921875,1,"['A/E1', 'B2', 'C1']",7.6,270,0.0,1.5239904891310507,[6200|0|0]
75,7500,0.6680489182472229,0.7065191864967346,0.7491921186447144,-4.422794818878174,5.129479885101318,-0.4623156785964966,3.794921875,1,"['A/E1', 'B2', 'C1']",7.6,270,0.0,1.6350292428266404,[6200|0|0]
76,7600,0.7067762613296509,0.7200900316238403,0.8500064015388489,-2.136845827102661,6.916251659393311,-0.9243738651275636,3.794921875,1,"['A/E1', 'B2', 'C1']",7.6,270,0.0,1.7438754397062124,[6200|0|0]
77,7700,0.734749436378479,0.7371534705162048,0.9513893127441406,-0.0798371434211731,7.0404157638549805,-0.4153863787651062,3.837890625,1,"['A/E1', 'B2', 'C1']",7.6,270,0.0,1.85042192793368,[6200|0|0]
78,7800,0.7533103823661804,0.753978431224823,1.0560758113861084,1.7033189535140991,5.868643283843994,0.0441219732165336,3.853515625,1,"['A/E1', 'B2', 'C1']",7.6,270,0.0,1.9580641641456784,[6200|0|0]
79,7900,0.7603286504745483,0.7689774632453918,1.1410467624664309,2.354933261871338,4.039444923400879,0.4314258992671966,3.86328125,1,"['A/E1', 'B2', 'C1']",7.6,270,0.0,2.0446337290994743,[6200|0|0]
80,8000,0.7626796960830688,0.780062735080719,1.2095420360565186,2.6601784229278564,2.9456183910369877,0.4752807021141052,3.859375,1,"['A/E1', 'B2', 'C1']",7.6,270,0.0,2.114060043788484,[6200|0|0]
81,8100,0.760966420173645,0.7879828810691833,1.259934902191162,2.6969563961029053,1.6579266786575315,0.7216455340385437,3.83203125,1,"['A/E1', 'B2', 'C1']",7.6,270,0.0,2.165100272864033,[6200|0|0]
82,8200,0.7576310634613037,0.7929797172546387,1.2950646877288818,1.5536288022994995,1.4719843864440918,0.735302746295929,3.83203125,1,"['A/E1', 'B2', 'C1']",7.6,270,0.0,2.2007400653464395,[6200|0|0]
83,8300,0.7521945834159851,0.7962478399276733,1.3182966709136963,1.1653045415878296,0.968951940536499,0.7918949723243713,3.822265625,1,"['A/E1', 'B2', 'C1']",7.6,270,0.0,2.224822444460403,[6200|0|0]
84,8400,0.7462313175201416,0.7989733219146729,1.3327875137329102,0.5582929849624634,1.1129624843597412,0.7284258008003235,3.806640625,1,"['A/E1', 'B2', 'C1']",7.6,270,0.0,2.240727579411643,[6200|0|0]
85,8500,0.7387883067131042,0.8023900389671326,1.3409239053726196,0.2225630581378936,1.3093888759613037,0.6238046884536743,3.806640625,1,"['A/E1', 'B2', 'C1']",7.6,270,0.0,2.252271982133524,[6200|0|0]
86,8600,0.7310512065887451,0.8046216368675232,1.345101833343506,0.3262915015220642,0.6159713268280029,0.4101585447788238,3.810546875,1,"['A/E1', 'B2', 'C1']",7.6,270,0.0,2.261343797258035,[6200|0|0]
87,8700,0.7229410409927368,0.8078318238258362,1.346061110496521,0.3284044861793518,-0.0468897297978401,0.4500959515571594,3.806640625,1,"['A/E1', 'B2', 'C1']",7.6,270,0.0,2.2701187786801404,[6200|0|0]
88,8800,0.7145692706108093,0.8109989762306213,1.3454861640930176,0.5244397521018982,-0.2603852152824402,0.3524665832519531,3.810546875,1,"['A/E1', 'B2', 'C1']",7.6,270,0.0,2.279088057193474,[6200|0|0]
89,8900,0.708408772945404,0.8139267563819885,1.3424402475357056,0.8033374547958374,-0.6246619820594788,0.1970197707414627,3.806640625,1,"['A/E1', 'B2', 'C1']",7.6,270,0.0,2.2865580796682945,[6200|0|0]
90,9000,0.7027783989906311,0.8168212175369263,1.3386898040771484,0.9937325119972228,-0.468005508184433,0.1937578320503235,3.80078125,1,"['A/E1', 'B2', 'C1']",7.6,270,0.0,2.2939163975728065,[6200|0|0]
91,9100,0.698500394821167,0.8179951906204224,1.334337592124939,1.170291543006897,-0.4694075584411621,0.1887286007404327,3.80078125,1,"['A/E1', 'B2', 'C1']",7.6,270,0.0,2.300130999840988,[6200|0|0]
92,9200,0.6954076886177063,0.8186054229736328,1.329059600830078,1.039177417755127,-0.3722082376480102,0.1662298738956451,3.80078125,1,"['A/E1', 'B2', 'C1']",7.6,270,295.11483488614454,2.3062787154569264,[6200|0|0]
93,9300,0.6940476298332214,0.8182280659675598,1.3244503736495972,4.765233516693115,-5.27908182144165,0.3485010266304016,3.78515625,1,"['A/E1', 'B2', 'C1']",7.6,270,295.11483488614454,2.3110992064494056,[6200|0|0]
94,9400,0.7116885781288147,0.8089787364006042,1.3264771699905396,10.582242012023926,-14.205157279968262,1.3442412614822388,3.794921875,1,"['A/E1', 'B2', 'C1']",7.6,270,295.11483488614454,2.331120721317507,[6200|0|0]
95,9500,0.7475346326828003,0.7769096493721008,1.3161994218826294,10.756155014038086,-16.952667236328125,1.3251124620437622,3.7734375,1,"['A/E1', 'B2', 'C1']",7.6,270,295.11483488614454,2.380304032268465,[6200|0|0]
96,9600,0.8100007176399231,0.7283523678779602,1.304723858833313,6.606112957000732,-14.341853141784668,0.4240220189094543,3.779296875,1,"['A/E1', 'B2', 'C1']",7.6,270,295.11483488614454,2.4602509515541424,[6200|0|0]
97,9700,0.8944892883300781,0.6715883016586304,1.295689582824707,2.1835625171661377,-9.275338172912598,0.0147729227319359,3.779296875,1,"['A/E1', 'B2', 'C1']",7.6,270,295.11483488614454,2.5624375256919296,[6200|0|0]
98,9800,0.9642916321754456,0.6543341875076294,1.2612535953521729,-1.9119352102279663,-2.169938087463379,-2.827185869216919,3.763671875,1,"['A/E1', 'B2', 'C1']",7.6,270,295.11483488614454,2.6421614800259388,[6200|0|0]
99,9900,1.0573631525039673,0.6108793616294861,1.2545504570007324,-2.632647752761841,3.1354920864105225,-0.8810234069824219,3.7734375,1,"['A/E1', 'B2', 'C1']",7.6,270,295.11483488614454,2.745096225627804,[6200|0|0]
100,10000,1.1417282819747925,0.5727030634880066,1.2537212371826172,-3.396578073501587,7.491289615631103,0.1983436197042465,3.7890625,1,"['A/E1', 'B2', 'C1']",7.6,270,295.11483488614454,2.8377007202051354,[6200|0|0]
101,10100,1.2115496397018433,0.5398585796356201,1.2547906637191772,-3.751630544662476,9.479181289672852,0.4051206409931183,3.7890625,1,"['A/E1', 'B2', 'C1']",7.6,270,295.11483488614454,2.914868885840296,[6200|0|0]
102,10200,1.2633095979690552,0.5119727253913879,1.2554528713226318,-3.3911173343658447,9.707391738891602,0.2126526534557342,3.78515625,1,"['A/E1', 'B2', 'C1']",7.6,270,295.11483488614454,2.973666442470348,[6200|0|0]
103,10300,1.2989201545715332,0.4881019294261932,1.2538295984268188,-3.1143815517425537,8.516533851623535,-0.3068870902061462,3.78515625,1,"['A/E1', 'B2', 'C1']",7.6,270,295.11483488614454,3.016568209991565,[6200|0|0]
104,10400,1.324376940727234,0.4728745222091675,1.2605900764465332,-3.3185532093048096,6.529881954193115,-0.7005749940872192,3.78515625,1,"['A/E1', 'B2', 'C1']",7.6,270,295.11483488614454,3.046992311539273,[6200|0|0]
105,10500,1.3353347778320312,0.4568540453910827,1.257425308227539,-3.4981980323791504,4.470349311828613,-0.8059933185577393,3.779296875,1,"['A/E1', 'B2', 'C1']",7.6,270,295.11483488614454,3.0666581608566563,[6200|0|0]
106,10600,1.3398994207382202,0.4447110295295715,1.2544783353805542,-3.5089190006256104,2.599151611328125,-1.1049715280532837,3.7734375,1,"['A/E1', 'B2', 'C1']",7.6,270,295.11483488614454,3.079961297630921,[6200|0|0]
107,10700,1.34062922000885,0.4371432960033417,1.252657413482666,-3.2709836959838867,1.4567118883132937,-1.232404708862305,3.78515625,1,"['A/E1', 'B2', 'C1']",7.6,270,295.11483488614454,3.08777915886387,[6200|0|0]
108,10800,1.3404148817062378,0.4333500862121582,1.2512154579162598,-2.855311870574951,0.4801162183284759,-1.1732964515686035,3.779296875,1,"['A/E1', 'B2', 'C1']",7.6,270,295.11483488614454,3.0918428538922136,[6200|0|0]
109,10900,1.3403747081756592,0.4334814250469208,1.2504618167877195,-2.2641396522521973,0.200022280216217,-1.0330958366394043,3.78515625,1,"['A/E1', 'B2', 'C1']",7.6,270,295.11483488614454,3.092608907906434,[6200|0|0]
110,11000,1.341549038887024,0.4361757934093475,1.2485567331314087,-1.504790186882019,-0.1695974469184875,-0.8469762206077576,3.78515625,1,"['A/E1', 'B2', 'C1']",7.6,270,295.11483488614454,3.096111480850663,[6200|0|0]
111,11100,1.3426350355148315,0.4405397772789001,1.2455281019210815,-1.097733736038208,0.1622800827026367,-0.5324518084526062,3.7734375,1,"['A/E1', 'B2', 'C1']",7.6,270,295.11483488614454,3.101533321026977,[6200|0|0]
112,11200,1.3449512720108032,0.4452498257160187,1.2426650524139404,-0.6871245503425598,0.3776160478591919,-0.2811146974563598,3.7734375,1,"['A/E1', 'B2', 'C1']",7.6,270,295.11483488614454,3.1075121637465686,[6200|0|0]
113,11300,1.3465099334716797,0.4507542252540588,1.2391880750656128,-0.020604345947504,0.6372672319412231,-0.3951954543590545,3.7734375,1,"['A/E1', 'B2', 'C1']",7.6,270,295.11483488614454,3.1142067295506206,[6200|0|0]
114,11400,1.3476183414459229,0.455331414937973,1.237141251564026,0.0951668918132782,0.6785140037536621,-0.6187829375267029,3.779296875,1,"['A/E1', 'B2', 'C1']",7.6,270,295.11483488614454,3.119341777757458,[6200|0|0]
115,11500,1.3481861352920532,0.4574564397335052,1.2343318462371826,0.5059828162193298,1.1182786226272583,-1.279913306236267,3.763671875,1,"['A/E1', 'B2', 'C1']",7.6,270,295.11483488614454,3.1229098134248563,[6200|0|0]
116,11601,1.3478456735610962,0.4593147337436676,1.231200933456421,0.2538534104824066,0.6085493564605713,-1.82045578956604,3.763671875,1,"['A/E1', 'B2', 'C1']",7.6,270,295.11483488614454,3.1265665586524034,[6200|0|0]
117,11701,1.3462765216827393,0.459710031747818,1.2285984754562378,-0.0985685214400291,0.7880669236183167,-2.180814504623413,3.763671875,1,"['A/E1', 'B2', 'C1']",7.6,270,295.11483488614454,3.129631079132373,[6200|0|0]
118,11801,1.344078540802002,0.4603818356990814,1.225494384765625,-0.7015033960342407,0.7381352186203003,-2.2016873359680176,3.76953125,1,"['A/E1', 'B2', 'C1']",7.6,270,295.11483488614454,3.1334934384523443,[6200|0|0]
119,11901,1.3420039415359497,0.4611816108226776,1.221734642982483,-0.8142229318618774,0.137869730591774,-2.1286489963531494,3.763671875,1,"['A/E1', 'B2', 'C1']",7.6,270,295.11483488614454,3.1378614197525483,[6200|0|0]
120,12001,1.3392270803451538,0.4628345072269439,1.21825110912323,-0.6716203689575195,0.183290421962738,-1.9914405345916748,3.7578125,1,"['A/E1', 'B2', 'C1']",7.6,270,295.11483488614454,3.142613054497007,[6200|0|0]
121,12101,1.3370946645736694,0.4654675424098968,1.2157456874847412,-0.7750445604324341,0.3812304437160492,-2.070433616638184,3.7578125,1,"['A/E1', 'B2', 'C1']",7.6,270,295.11483488614454,3.146826984833848,[6200|0|0]
122,12201,1.33464252948761,0.4685024321079254,1.2140711545944214,-0.4053800106048584,-0.0297429040074348,-2.280202865600586,3.7578125,1,"['A/E1', 'B2', 'C1']",7.6,270,295.11483488614454,3.151072874888978,[6200|0|0]
123,12300,1.3330910205841064,0.4720847308635711,1.2110507488250732,0.1440031975507736,-0.6441895365715027,-2.714792490005493,3.98046875,1,"['A/E1', 'B2', 'C1']",7.6,270,0.0,3.156008753256996,[6200|0|0]
124,12401,1.3324812650680542,0.4758122861385345,1.1850463151931765,1.2042181491851809,-2.2422666549682617,-3.531618118286133,3.931640625,1,"['A/E1', 'B2', 'C1']",7.6,270,0.0,3.182286063595632,[6200|0|0]
125,12501,1.332000970840454,0.4792219400405884,1.1203582286834717,-0.5505068302154541,-0.3791460692882538,-3.890682458877564,3.837890625,1,"['A/E1', 'B2', 'C1']",7.6,270,0.0,3.2470657282950097,[6200|0|0]
126,12601,1.3319828510284424,0.4820227921009063,1.0216456651687622,-0.1986086368560791,-0.2926096618175506,-4.64992094039917,3.7734375,1,"['A/E1', 'B2', 'C1']",7.6,270,0.0,3.345818020907571,[6200|0|0]
127,12701,1.3308113813400269,0.4856003820896148,0.9035996794700624,0.1410845816135406,1.4934531450271606,-6.071267127990723,3.7578125,1,"['A/E1', 'B2', 'C1']",7.6,270,0.0,3.463924016652647,[6200|0|0]
128,12800,1.3288248777389526,0.4885194003582001,0.7793843150138855,0.1360977590084076,0.3580504357814789,-7.679483413696289,3.7578125,1,"['A/E1', 'B2', 'C1']",7.6,270,0.0,3.588189553432521,[6200|0|0]
129,12900,1.3259354829788208,0.4900168776512146,0.6547216176986694,2.200162410736084,2.607945442199707,-8.352734565734863,3.7734375,1,"['A/E1', 'B2', 'C1']",7.6,270,0.0,3.7128947222998474,[6200|0|0]
130,13000,1.3165816068649292,0.4881286919116974,0.5292772650718689,-0.7213547825813293,3.8253116607666016,-6.483332633972168,3.7421875,1,"['A/E1', 'B2', 'C1']",7.6,270,0.0,3.8387015021239006,[6200|0|0]
131,13100,1.3001210689544678,0.4857615232467651,0.4105403423309326,6.640496730804443,6.319823741912842,-5.978036880493164,3.763671875,1,"['A/E1', 'B2', 'C1']",7.6,270,0.0,3.958597330315615,[6200|0|0]
132,13200,1.2671425342559814,0.4730512797832489,0.2983846366405487,3.389446258544922,8.85253620147705,-5.486271381378174,3.705078125,1,"['A/E1', 'B2', 'C1']",7.6,270,0.0,4.076190001680242,[6200|0|0]
133,13300,1.216663122177124,0.4655972123146057,0.1941133290529251,-22.15906524658203,-0.5605741143226624,-1.3749847412109375,3.7109375,1,"['A/E1', 'B2', 'C1']",7.6,270,0.0,4.192277209208406,[6200|0|0]
134,13400,1.1636312007904053,0.4968033730983734,0.0905099660158157,-21.704286575317383,-12.208866119384766,0.6480258703231812,3.65234375,1,"['A/E1', 'B2', 'C1']",7.6,270,0.0,4.31277561579301,[6200|0|0]
135,13500,1.1280286312103271,0.5626845955848694,-0.0024446886964142,2.268972873687744,-9.060134887695312,4.774577617645264,3.6640625,1,"['A/E1', 'B2', 'C1']",7.6,270,0.0,4.432142471618609,[6200|0|0]
136,13600,1.1105202436447144,0.6304107308387756,-0.0014251787215471,-13.157217025756836,-8.8783597946167,4.250514984130859,3.806640625,1,"['A/E1', 'B2', 'C1']",7.6,270,0.0,4.502102549035425,[6200|0|0]
137,13700,1.1128480434417725,0.7070176005363464,0.028636896982789,10.958695411682127,-13.64746379852295,3.164504289627075,3.810546875,1,"['A/E1', 'B2', 'C1']",7.6,270,0.0,4.584429698460198,[6200|0|0]
138,13800,1.1356146335601809,0.7682604789733887,0.041718877851963,25.81426048278809,-12.466793060302734,-0.9515777230262756,3.7578125,1,"['A/E1', 'B2', 'C1']",7.6,270,0.0,4.651064119057479,[6200|0|0]
139,13900,1.176586627960205,0.7884430289268494,0.0386612750589847,25.54146194458008,-11.036968231201172,-4.186209678649902,3.732421875,1,"['A/E1', 'B2', 'C1']",7.6,270,0.0,4.69683953366597,[6200|0|0]
140,14000,1.22790789604187,0.7700659036636353,0.0255417395383119,20.926982879638672,-2.357865333557129,-7.547385215759277,3.701171875,1,"['A/E1', 'B2', 'C1']",7.6,270,0.0,4.752908361928456,[6200|0|0]
141,14100,1.2786669731140137,0.7131633162498474,0.0131354909390211,13.772335052490234,3.108370065689087,-3.585955858230591,3.716796875,1,"['A/E1', 'B2', 'C1']",7.6,270,0.0,4.830163157015279,[6200|0|0]
142,14200,1.319154143333435,0.6324901580810547,0.0113153243437409,0.6648709774017334,9.277264595031738,1.094433307647705,3.7578125,1,"['A/E1', 'B2', 'C1']",7.6,270,0.0,4.920444286869407,[6200|0|0]
143,14300,1.3426475524902344,0.5477782487869263,0.0196707118302583,-5.105645656585693,4.830310344696045,2.798933267593384,3.7578125,1,"['A/E1', 'B2', 'C1']",7.6,270,0.0,5.008749781319726,[6200|0|0]
144,14400,1.3531014919281006,0.4712607264518738,0.035994529724121,-9.645447731018066,0.8647945523262024,3.0430407524108887,3.779296875,1,"['A/E1', 'B2', 'C1']",7.6,270,0.0,5.087684457506418,[6200|0|0]
145,14500,1.3559426069259644,0.410713642835617,0.0495346784591674,-11.122807502746582,1.138620376586914,3.545424461364746,3.779296875,1,"['A/E1', 'B2', 'C1']",7.6,270,0.0,5.149792081004924,[6200|0|0]
146,14600,1.35325288772583,0.3680672645568847,0.0568714514374733,-11.710108757019045,-0.4593172967433929,2.997967004776001,3.763671875,1,"['A/E1', 'B2', 'C1']",7.6,270,0.0,5.193148469316262,[6200|0|0]
147,14700,1.3453375101089478,0.3439454138278961,0.0544436797499656,-12.60662841796875,-1.2587697505950928,4.045282363891602,3.7578125,1,"['A/E1', 'B2', 'C1']",7.6,270,0.0,5.218651625214624,[6200|0|0]
148,14800,1.3370915651321411,0.341063529253006,0.0478395782411098,-8.39501667022705,-1.8220751285552976,3.220689058303833,3.736328125,1,"['A/E1', 'B2', 'C1']",7.6,270,0.0,5.229602197071964,[6200|0|0]
149,14900,1.3300811052322388,0.3527316153049469,0.043924506753683,-4.960037708282471,-1.384326696395874,3.35519814491272,3.748046875,1,"['A/E1', 'B2', 'C1']",7.6,270,0.0,5.243766185383005,[6200|0|0]
150,15000,1.32522451877594,0.372939258813858,0.0433051884174346,-1.7765427827835083,-1.9860938787460327,3.108069658279419,3.75390625,1,"['A/E1', 'B2', 'C1']",7.6,270,0.0,5.264558463839017,[6200|0|0]
151,15100,1.3229005336761477,0.3939659595489502,0.0470424219965934,1.2540074586868286,-1.937406301498413,2.2663464546203613,3.7578125,1,"['A/E1', 'B2', 'C1']",7.6,270,0.0,5.286040781343709,[6200|0|0]
152,15200,1.3229799270629885,0.4137080311775207,0.0504235066473484,2.9456284046173096,-2.140954732894897,2.127965211868286,3.7578125,1,"['A/E1', 'B2', 'C1']",7.6,270,0.0,5.306070445068121,[6200|0|0]
153,15300,1.3253613710403442,0.4274246096611023,0.0521335676312446,2.3890559673309326,-1.556572437286377,1.690138339996338,3.75390625,1,"['F1', 'B2', 'B1']",7.6,270,0.0,5.320096852636782,[6200|100|0]
154,15400,1.3299885988235474,0.4388779699802398,0.0523876957595348,4.237319946289063,0.1993383020162582,2.1601781845092773,3.75390625,1,"['F1', 'B2', 'B1']",7.6,270,0.0,5.332452227202664,[6200|200|0]
155,15500,1.3341244459152222,0.4451073110103607,0.0514056570827961,3.771855592727661,-0.5695861577987671,3.607931852340698,3.748046875,1,"['F1', 'B2', 'B1']",7.6,270,0.0,5.339993733736366,[6200|300|0]
156,15600,1.3361985683441162,0.4457674324512481,0.0537541657686233,0.3590707182884216,0.7293505668640137,4.2200775146484375,3.75390625,1,"['F1', 'B2', 'B1']",7.6,270,0.0,5.343195801383085,[6200|400|0]
157,15700,1.337351679801941,0.4443569183349609,0.0557010397315025,1.1510626077651978,-0.973971664905548,4.33560037612915,3.75390625,1,"['F1', 'B2', 'B1']",7.6,270,0.0,5.345862172387606,[6200|500|0]
158,15800,1.3393640518188477,0.4412576556205749,0.0577419511973857,1.5114030838012695,0.1445358991622924,4.434867858886719,3.75390625,1,"['F1', 'B2', 'B1']",7.6,270,0.0,5.350083592778752,[6200|600|0]
159,15900,1.3415262699127195,0.4368619620800018,0.058099940419197,0.4609673023223877,-0.6985110640525818,5.044018745422363,3.7578125,1,"['F1', 'B2', 'B1']",7.6,270,0.0,5.354995360797606,[6200|700|0]
160,16000,1.3435747623443604,0.4337474703788757,0.0548582859337329,-1.664283275604248,1.2862967252731323,5.812119960784912,3.7421875,1,"['F1', 'B2', 'B1']",7.6,270,0.0,5.35993547249695,[6200|800|0]
161,16100,1.345146894454956,0.4316377639770508,0.0492526702582836,-0.1313991546630859,-1.2678130865097046,3.889641046524048,3.732421875,1,"['F1', 'B2', 'B1']",7.6,270,0.0,5.36612783776201,[6200|900|0]
162,16200,1.3483541011810305,0.4292381107807159,0.049406997859478,1.4716882705688477,-0.4062568247318268,2.34116530418396,3.748046875,1,"['F1', 'B2', 'B1']",7.6,270,0.0,5.3701363695948565,[6200|1000|0]
163,16300,1.3529267311096191,0.425210177898407,0.0528068393468856,1.5780229568481443,0.1318829208612442,1.9353843927383425,3.748046875,1,"['F1', 'B2', 'B1']",7.6,270,0.0,5.377114342789683,[6200|1100|0]
164,16400,1.357573390007019,0.4167816340923309,0.0579171180725097,1.3412712812423706,-1.1656635999679563,1.2877823114395142,3.75390625,1,"['F1', 'B2', 'B1']",7.6,270,0.0,5.388011440488304,[6200|1200|0]
165,16500,1.3623418807983398,0.4057498872280121,0.0616146922111511,1.7683862447738647,-0.2712632119655609,0.4681273698806762,3.748046875,1,"['F1', 'B2', 'B1']",7.6,270,0.0,5.400585620295197,[6200|1300|0]
166,16600,1.367256760597229,0.393242210149765,0.0626641437411308,1.1208126544952393,0.1689909994602203,-0.7302893996238708,3.748046875,1,"['F1', 'B2', 'B1']",7.6,270,0.0,5.414065211455355,[6200|1400|0]
167,16700,1.3728692531585691,0.3796492218971252,0.0608200654387474,1.4047229290008545,-1.9951969385147093,-0.8997753262519836,3.736328125,1,"['F1', 'B2', 'B1']",7.6,270,0.0,5.428886480873756,[6200|1500|0]
168,16800,1.3812947273254397,0.364580750465393,0.0593249090015888,1.4685527086257937,-0.7338597774505615,-0.1476919800043106,3.736328125,1,"['F1', 'B2', 'B1']",7.6,270,0.0,5.446215154769848,[6200|1600|0]
169,16900,1.391950011253357,0.3469149470329284,0.0588852427899837,0.7941964864730835,-0.3892345726490021,0.1242549568414688,3.7421875,1,"['F1', 'B2', 'B1']",7.6,270,0.0,5.466850294528925,[6200|1700|0]
170,17000,1.4045052528381348,0.3281207680702209,0.0581543631851673,0.518034040927887,-0.6924160122871399,-0.339401513338089,3.7421875,1,"['F1', 'B2', 'B1']",7.6,270,0.0,5.489464215885716,[6200|1800|0]
171,17100,1.4192309379577637,0.3080407679080963,0.0601683668792247,0.8752744793891907,-0.9495472311973572,-0.4729691743850708,3.748046875,1,"['F1', 'B2', 'B1']",7.6,270,0.0,5.514446377914513,[6200|1900|0]
172,17200,1.4352604150772097,0.2879698872566223,0.0595298260450363,0.3650851249694824,-0.8794166445732117,0.0833526998758316,4.05859375,1,"['F1', 'B2', 'B1']",7.6,270,0.0,5.540140581954442,[6200|2000|0]
173,17300,1.4543246030807495,0.2671637237071991,0.0247371550649404,10.09714126586914,-7.492095470428467,0.3839199841022491,4.06640625,1,"['F1', 'B2', 'B1']",7.6,270,0.0,5.584938680795898,[6200|2100|0]
174,17400,1.4708305597305298,0.2488365471363067,-0.0023727603256702,-7.939350128173828,7.119523048400879,0.8163982629776001,4.06640625,1,"['F1', 'B2', 'B1']",7.6,270,0.0,5.621589458665831,[6200|2200|0]
175,17500,1.4764447212219238,0.2450947761535644,-0.0108727607876062,-1.8818495273590088,1.973582148551941,-5.48827075958252,4.0703125,1,"['F1', 'B2', 'B1']",7.6,270,0.0,5.632441632051456,[6200|2300|0]
176,17600,1.4755600690841677,0.2443970739841461,-0.0107975648716092,-1.690097451210022,1.728196382522583,-5.595998764038086,4.0703125,1,"['F1', 'B2', 'B1']",7.6,270,0.0,5.633570814121731,[6200|2400|0]
177,17700,1.4754638671875,0.2444366812705993,-0.0107448296621441,-1.4620633125305176,1.538460612297058,-5.629284858703613,4.0703125,1,"['F1', 'B2', 'B1']",7.6,270,0.0,5.633687452641868,[6200|2500|0]
178,17800,1.4755302667617798,0.24415984749794,-0.0108237778767943,-1.2731499671936035,1.3258953094482422,-5.545093059539795,4.07421875,1,"['F1', 'B2', 'B1']",7.6,270,0.0,5.633982882264191,[6200|2600|0]
179,17900,1.4754630327224731,0.2442813366651535,-0.0109561756253242,-1.094992756843567,1.1518014669418335,-5.484230995178223,4.07421875,1,"['F1', 'B2', 'B1']",7.6,270,0.0,5.634174739496547,[6200|2700|0]
180,18000,1.4757710695266724,0.2439021319150924,-0.0106872925534844,-0.9230279922485352,0.9908081889152528,-5.4173583984375,4.07421875,1,"['F1', 'B2', 'B1']",7.6,270,0.0,5.634732396220287,[6200|2800|0]
181,18100,1.4758538007736206,0.2434777915477752,-0.0104990852996706,-0.7923719882965088,0.8304153084754944,-5.368911743164063,4.07421875,1,"['F1', 'B2', 'B1']",7.6,270,0.0,5.635203916290851,[6200|2900|0]
182,18200,1.4759202003479004,0.2431127279996872,-0.010514254681766,-0.6730538606643677,0.7049041986465454,-5.337408065795898,4.08203125,1,"['F1', 'B2', 'B1']",7.6,270,0.0,5.635575279196592,[6200|3000|0]
183,18300,1.476097583770752,0.2431753426790237,-0.0105551276355981,-0.5853926539421082,0.6032517552375793,-5.3011088371276855,4.08203125,1,"['F1', 'B2', 'B1']",7.6,270,0.0,5.635767778742373,[6200|3100|0]
184,18400,1.475942850112915,0.2432612776756286,-0.0105419978499412,-0.564714789390564,0.4374638497829437,-5.219565391540527,4.08203125,1,"['F1', 'B2', 'B1']",7.6,270,0.0,5.635945260346436,[6200|3200|0]
185,18500,1.4758999347686768,0.2428952902555465,-0.0106100244447588,-0.5013359785079956,0.3423067033290863,-5.185900688171387,4.0859375,1,"['F1', 'B2', 'B1']",7.6,270,0.0,5.636319981757662,[6200|3300|0]
186,18600,1.476351618766785,0.242848053574562,-0.0104993814602494,-0.4677178859710693,0.2618253827095032,-5.1601409912109375,4.0859375,1,"['F1', 'B2', 'B1']",7.6,270,0.0,5.636787412616933,[6200|3400|0]
187,18700,1.476739525794983,0.2426194101572036,-0.0107424575835466,-0.4159088134765625,0.2199639081954956,-5.133358001708984,4.0859375,1,"['F1', 'B2', 'B1']",7.6,270,0.0,5.637299111431221,[6200|3500|0]
188,18800,1.4775162935256958,0.243997111916542,-0.0094411363825201,-0.421148270368576,0.167155385017395,-5.192993640899658,4.0859375,1,"['F1', 'B2', 'B1']",7.6,270,0.0,5.639347248905465,[6200|3600|0]
189,18900,1.4766112565994265,0.2460349798202514,-0.0089141810312867,-0.4186626374721527,0.1640117913484573,-5.140281200408936,4.0859375,1,"['F1', 'B2', 'B1']",7.6,270,0.0,5.641638466785343,[6200|3700|0]
190,19000,1.4775298833847046,0.2501636445522308,-0.0082959374412894,-0.4292112290859222,0.1314161568880081,-1.5276297330856323,4.0859375,1,"['F1', 'B2', 'B1']",7.6,270,0.0,5.645913039603332,[6200|3800|0]
191,19100,1.4797604084014893,0.2538305521011352,-0.0061456174589693,-2.399943828582764,0.4671072661876678,6.599975109100342,4.0859375,1,"['F1', 'B2', 'B1']",7.6,270,0.0,5.650713594659686,[6200|3900|0]
192,19200,1.4689582586288452,0.2387793064117431,0.0061480542644858,3.963048934936523,23.70988273620605,23.92497062683105,4.08984375,1,"['F1', 'B2', 'B1']",7.6,270,0.0,5.672947820550352,[6200|4000|0]
193,19300,1.449925184249878,0.298292338848114,0.062132354825735,3.352733373641968,13.826919555664062,18.274057388305664,4.08984375,1,"['F1', 'B2', 'B1']",7.6,270,0.0,5.75684240237433,[6200|4100|0]
194,19400,1.4254448413848877,0.3990871906280517,0.0809646546840667,5.542332172393799,5.425081253051758,5.476917743682861,4.08984375,1,"['F1', 'B2', 'B1']",7.6,270,0.0,5.862263201318757,[6200|4200|0]
195,19500,1.401918649673462,0.4715331494808197,0.0539112202823162,6.578376770019531,7.032942771911621,-2.364011287689209,4.08984375,1,"['F1', 'B2', 'B1']",7.6,270,0.0,5.943095045065324,[6200|4300|0]
196,19600,1.3948326110839844,0.5081433653831482,0.0177696049213409,2.8078033924102783,10.20997714996338,-6.148183822631836,4.08984375,1,"['F1', 'B2', 'B1']",7.6,270,0.0,5.995025153983055,[6200|4400|0]
197,19700,1.392063856124878,0.5191039443016052,0.0057827518321573,2.793906688690185,8.747856140136719,-6.672209739685059,4.08984375,1,"['F1', 'B2', 'B1']",7.6,270,0.0,6.011501954073879,[6200|4500|0]
198,19800,1.383659601211548,0.5117666125297546,-0.0023266761563718,-6.306797981262207,1.7728378772735596,-6.086922645568848,4.09765625,1,"['F1', 'B2', 'B1']",7.6,270,0.0,6.025294370848309,[6200|4600|0]
199,19900,1.378197193145752,0.4934061169624328,-0.0021001158747822,-1.7263728380203247,1.4020349979400637,-8.807165145874023,4.09765625,1,"['F1', 'B2', 'B1']",7.6,270,0.0,6.044451537364162,[6200|4700|0]
200,20000,1.376851201057434,0.470559686422348,-0.0027108795475214,-0.9073303937911988,-1.3277180194854736,-9.293999671936035,4.09765625,1,"['F1', 'B2', 'B1']",7.6,270,0.0,6.067345731287265,[6200|4800|0]
201,20100,1.3755476474761963,0.44764044880867,-0.0022740431595593,-0.8691930174827576,-1.1942479610443115,-7.670589923858643,4.09765625,1,"['F1', 'B2', 'B1']",7.6,270,0.0,6.090306165315419,[6200|4900|0]
202,20200,1.389484167098999,0.5317427515983582,-0.002004375681281,-2.399824619293213,-1.3027390241622925,-7.437992095947266,4.09765625,1,"['F1', 'B2', 'B1']",7.6,270,0.0,6.1755557790053,[6200|5000|0]
203,20300,1.3938055038452148,0.5316859483718872,-0.0013639833778142,-2.320547819137573,-1.2918701171875,-6.911961555480957,4.09765625,1,"['F1', 'B2', 'B1']",7.6,270,0.0,6.179924678201101,[6200|5100|0]
204,20400,1.388820767402649,0.5317407250404358,-0.0006453334353864,-2.1994221210479736,-0.8465096950531006,-6.569042205810547,4.09765625,1,"['F1', 'B2', 'B1']",7.6,270,0.0,6.1849612500138536,[6200|5200|0]
205,20500,1.3889760971069336,0.531480073928833,-0.0003629047714639,-2.076760053634644,-0.8247010111808777,-4.187664985656738,4.09765625,1,"['F1', 'B2', 'B1']",7.6,270,0.0,6.185375776574182,[6200|5300|0]
206,20600,1.3888036012649536,0.5306854248046875,-0.0008055757498368,-2.0101561546325684,-0.7600452303886414,-2.680124998092652,4.09765625,1,"['F1', 'B2', 'B1']",7.6,270,0.0,6.186301616539349,[6200|5400|0]
207,20700,1.388304352760315,0.5312213897705078,-0.0005088496836833,-1.9726645946502688,-0.5405560731887817,-1.679088115692139,4.12109375,1,"['F1', 'B2', 'B1']",7.6,270,0.0,6.187091903748094,[6200|5500|0]
208,20800,1.388627290725708,0.530778169631958,-0.0001419520558556,-1.953784704208374,-0.4483696222305298,-0.9286737442016602,4.16015625,1,"['F1', 'B2', 'B1']",7.6,270,0.0,6.187751711970241,[6200|5600|0]
209,20900,1.3883765935897827,0.5313724875450134,-0.0004727083723992,-1.999000072479248,-0.3921083509922027,-0.4287178814411163,3.419921875,1,"['A/E1', 'B2', 'C1']",7.6,270,0.0,6.188476599945499,[6200|5600|0]
210,21000,1.387798547744751,0.5323105454444885,0.0008253617561422,-2.66003155708313,0.4036676287651062,1.0399516820907593,3.599609375,1,"['A/E1', 'B2', 'C1']",7.6,270,0.0,6.1901792671708655,[6200|5600|0]
211,21100,1.376823663711548,0.5384630560874939,0.0135752484202384,-4.774147033691406,17.31899642944336,5.204427242279053,3.7109375,1,"['A/E1', 'B2', 'C1']",7.6,270,0.0,6.208091862647286,[6200|5600|0]
212,21200,1.3288874626159668,0.5456938147544861,0.040126122534275,-3.3732614517211914,23.805871963500977,7.8417158126831055,3.7265625,1,"['A/E1', 'B2', 'C1']",7.6,270,0.0,6.26336493170081,[6200|5600|0]
213,21300,1.244416117668152,0.5519999861717224,0.0722771733999252,8.324101448059082,3.397308111190796,7.004538536071777,3.6953125,1,"['A/E1', 'B2', 'C1']",7.6,270,0.0,6.353967724080526,[6200|5600|0]
214,21400,1.156715750694275,0.5422804355621338,0.1128915548324585,12.549628257751465,-14.5940580368042,5.994138240814209,3.6796875,1,"['A/E1', 'B2', 'C1']",7.6,270,0.0,6.451103464210266,[6200|5600|0]
215,21500,1.0920222997665403,0.5169562101364136,0.1599424183368683,3.423967123031616,-17.374433517456055,5.791014194488525,3.720703125,1,"['A/E1', 'B2', 'C1']",7.6,270,0.0,6.535010214492126,[6200|5600|0]
216,21600,1.0497788190841677,0.4942655563354492,0.2176438868045807,-3.4557876586914062,-6.526136875152588,7.211432933807373,3.7578125,1,"['A/E1', 'B2', 'C1']",7.6,270,0.0,6.610035789420997,[6200|5600|0]
217,21700,1.011683464050293,0.4862997829914093,0.2814038395881653,-11.779054641723633,-5.431466579437256,10.737834930419922,3.76953125,1,"['A/E1', 'B2', 'C1']",7.6,270,0.0,6.684735462774302,[6200|5600|0]
218,21800,0.9734324216842652,0.5011688470840454,0.3392441868782043,-4.545919895172119,-8.882278442382812,14.59955596923828,3.732421875,1,"['A/E1', 'B2', 'C1']",7.6,270,0.0,6.755656102109484,[6200|5600|0]
219,21900,0.9413636326789856,0.5270951986312866,0.3988695442676544,2.748600959777832,-9.073801040649414,16.57193946838379,3.748046875,1,"['A/E1', 'B2', 'C1']",7.6,270,0.0,6.828152765319841,[6200|5600|0]
220,22000,0.9214288592338562,0.5499610304832458,0.4549666047096252,10.03268814086914,-12.971087455749512,21.792911529541016,3.7421875,1,"['A/E1', 'B2', 'C1']",7.6,270,0.0,6.89192675413049,[6200|5600|0]
221,22100,0.927047312259674,0.56142258644104,0.5109001398086548,11.36693000793457,-9.049050331115724,29.596168518066406,3.7578125,1,"['A/E1', 'B2', 'C1']",7.6,270,0.0,6.9492983030729,[6200|5600|0]
222,22200,0.9503270983695984,0.5634353160858154,0.566117525100708,4.615968704223633,2.896829605102539,25.29064178466797,3.7109375,1,"['A/E1', 'B2', 'C1']",7.6,270,0.0,7.009256281361346,[6200|5600|0]
223,22300,0.9746423959732056,0.5539449453353882,0.6255671977996826,8.782508850097656,19.42717742919922,17.350990295410156,3.689453125,1,"['A/E1', 'B2', 'C1']",7.6,270,0.0,7.074183659396716,[6200|5600|0]
224,22400,0.9751023054122924,0.5250130891799927,0.6872957348823547,7.2406907081604,28.72329330444336,10.5847749710083,3.689453125,1,"['A/E1', 'B2', 'C1']",7.6,270,0.0,7.14235752614678,[6200|5600|0]
225,22500,0.9284253120422364,0.486076295375824,0.751550018787384,1.6065617799758911,25.64469718933105,5.5235114097595215,3.6796875,1,"['A/E1', 'B2', 'C1']",7.6,270,0.0,7.230807673811805,[6200|5600|0]
226,22600,0.8448753952980042,0.447052538394928,0.8205897212028503,-1.6418068408966064,-0.8796825408935547,0.1625026017427444,3.63671875,1,"['A/E1', 'B2', 'C1']",7.6,270,0.0,7.346002824345533,[6200|5600|0]
227,22700,0.7706589102745056,0.4194393455982208,0.9042266011238098,-10.37711238861084,-23.05996322631836,-7.542665481567383,3.689453125,1,"['A/E1', 'B2', 'C1']",7.6,270,0.0,7.461179656862252,[6200|5600|0]
228,22800,0.7469782829284668,0.4003187119960785,0.9984806180000304,-7.87354040145874,-27.761463165283203,-9.25947093963623,3.701171875,1,"['A/E1', 'B2', 'C1']",7.6,270,0.0,7.560226062340453,[6200|5600|0]
229,22900,0.7785690426826477,0.3903419971466064,1.088989496231079,-4.228122711181641,-29.353614807128903,-8.582730293273926,3.7265625,1,"['A/E1', 'B2', 'C1']",7.6,270,0.0,7.656607429728952,[6200|5600|0]
230,23000,0.8606722950935364,0.3815454542636871,1.172837734222412,-1.864256262779236,-23.687631607055664,-7.254990577697754,3.748046875,1,"['A/E1', 'B2', 'C1']",7.6,270,0.0,7.774288567713713,[6200|5600|0]
231,23100,0.9745188355445862,0.3789029717445373,1.2456443309783936,-0.8653323650360107,-11.864435195922852,-6.812729835510254,3.76953125,1,"['A/E1', 'B2', 'C1']",7.6,270,0.0,7.9094507592382834,[6200|5600|0]
232,23200,1.0807474851608276,0.4186117649078369,1.2882827520370483,-0.5491423606872559,-0.2552926540374756,-5.177489280700684,3.75390625,1,"['A/E1', 'B2', 'C1']",7.6,270,0.0,8.030609123390954,[6200|5600|0]
233,23300,1.2071577310562134,0.421628475189209,1.3452662229537964,2.4156715869903564,6.75792407989502,-5.246875286102295,3.76953125,1,"['A/E1', 'B2', 'C1']",7.6,270,0.0,8.169302190146194,[6200|5600|0]
234,23400,1.3205910921096802,0.4222131669521332,1.3934919834136963,1.955047369003296,10.94145393371582,-4.776380062103272,3.779296875,1,"['A/E1', 'B2', 'C1']",7.6,270,0.0,8.292562862042299,[6200|5600|0]
235,23500,1.4146918058395386,0.4204343259334564,1.429703950881958,1.4707859754562378,12.837438583374023,-4.22406816482544,3.779296875,1,"['A/E1', 'B2', 'C1']",7.6,270,0.0,8.393406380365297,[6200|5600|0]
236,23600,1.4873346090316772,0.4196268618106842,1.452323317527771,-0.0538592413067817,14.037480354309082,-3.875246286392212,3.76953125,1,"['A/E1', 'B2', 'C1']",7.6,270,0.0,8.469493597434782,[6200|5600|0]
237,23700,1.5383929014205933,0.4197776019573211,1.4620953798294067,-0.8387227058410645,14.700207710266112,-3.4680182933807373,3.75390625,1,"['A/E1', 'B2', 'C1']",7.6,270,0.0,8.521478837127322,[6200|5600|0]
238,23800,1.5667306184768677,0.4232231676578522,1.4622403383255005,-1.1039048433303833,14.992356300354004,-3.250019073486328,3.7421875,1,"['A/E1', 'B2', 'C1']",7.6,270,0.0,8.550025625807027,[6200|5600|0]
239,23900,1.5731184482574463,0.4285738468170166,1.4562957286834717,-1.181899070739746,11.89053726196289,-2.936791181564331,3.748046875,1,"['A/E1', 'B2', 'C1']",7.6,270,319.47489650624607,8.560261470694776,[6200|5600|0]
240,24000,1.5680413246154783,0.4329236447811126,1.4466135501861572,9.97788429260254,-4.339942455291748,-0.8291916847229004,3.75390625,1,"['A/E1', 'B2', 'C1']",7.6,270,319.47489650624607,8.572027630104632,[6200|5600|0]
241,24100,1.5682475566864014,0.4221602976322174,1.4295587539672852,14.324944496154783,-13.863245010375977,0.6361656785011292,3.7421875,1,"['A/E1', 'B2', 'C1']",7.6,270,319.47489650624607,8.592195878605231,[6200|5600|0]
242,24200,1.5915073156356812,0.3876855075359344,1.4043220281600952,18.057838439941406,-15.636282920837402,0.5794174075126648,3.705078125,1,"['A/E1', 'B2', 'C1']",7.6,270,319.47489650624607,8.640841740382248,[6200|5600|0]
243,24300,1.6404335498809814,0.323790043592453,1.3724368810653689,13.553547859191896,-10.846632957458496,-1.334818720817566,3.6953125,1,"['A/E1', 'B2', 'C1']",7.6,270,319.47489650624607,8.727404257185025,[6200|5600|0]
244,24400,1.7031066417694092,0.2567845582962036,1.3493739366531372,6.611842155456543,-4.188803195953369,-2.910575151443481,3.6953125,1,"['A/E1', 'B2', 'C1']",7.6,270,319.47489650624607,8.822006323291442,[6200|5600|0]
245,24500,1.77448308467865,0.1734188646078109,1.336509108543396,0.5306755304336548,1.969510793685913,-6.614994525909424,3.732421875,1,"['A/E1', 'B2', 'C1']",7.6,270,319.47489650624607,8.932504917349538,[6200|5600|0]
246,24600,1.84045684337616,0.097694031894207,1.3250460624694824,-3.4661145210266118,5.899822235107422,-3.5796492099761963,3.732421875,1,"['A/E1', 'B2', 'C1']",7.6,270,319.47489650624607,9.033589973374022,[6200|5600|0]
247,24700,1.897416591644287,0.0234264060854911,1.3187335729599,-6.094055652618408,8.812176704406738,-2.6401031017303467,3.736328125,1,"['A/E1', 'B2', 'C1']",7.6,270,319.47489650624607,9.127397972445744,[6200|5600|0]
248,24800,1.9383999109268188,-0.0382103584706783,1.3101681470870972,-8.068195343017578,9.893136024475098,-2.1390573978424072,3.732421875,1,"['A/E1', 'B2', 'C1']",7.6,270,319.47489650624607,9.201910318568714,[6200|5600|0]
249,24900,1.9630473852157595,-0.0871300399303436,1.2996004819869995,-8.438945770263672,9.1150484085083,-2.197699785232544,3.720703125,1,"['A/E1', 'B2', 'C1']",7.6,270,319.47489650624607,9.257698388696715,[6200|5600|0]
250,25000,1.971807718276977,-0.1233930066227912,1.2894231081008911,-7.661391258239746,7.365782260894775,-2.3816351890563965,3.720703125,1,"['A/E1', 'B2', 'C1']",7.6,270,319.47489650624607,9.296367822722814,[6200|5600|0]
251,25100,1.9688329696655276,-0.147512748837471,1.2801978588104248,-6.585559844970703,4.744786262512207,-2.563377857208252,3.7265625,1,"['A/E1', 'B2', 'C1']",7.6,270,319.47489650624607,9.322362366732571,[6200|5600|0]
252,25200,1.9581698179244995,-0.1628158539533615,1.2734822034835815,-5.015023708343506,2.5867040157318115,-2.284319400787353,3.7265625,1,"['A/E1', 'B2', 'C1']",7.6,270,319.47489650624607,9.34218628808303,[6200|5600|0]
253,25300,1.94503390789032,-0.1712895333766937,1.269800066947937,-3.6614794731140137,0.7003025412559509,-1.7355293035507202,3.736328125,1,"['A/E1', 'B2', 'C1']",7.6,270,319.47489650624607,9.358245973785516,[6200|5600|0]
254,25400,1.930664300918579,-0.1757832318544387,1.2670376300811768,-2.005656480789185,-0.1339989304542541,-1.3615436553955078,3.736328125,1,"['A/E1', 'B2', 'C1']",7.6,270,319.47489650624607,9.37355316124677,[6200|5600|0]
255,25500,1.9174548387527464,-0.178232192993164,1.2618327140808103,-1.1941654682159424,-1.7423936128616333,-1.4461615085601809,3.732421875,1,"['A/E1', 'B2', 'C1']",7.6,270,319.47489650624607,9.387960744386923,[6200|5600|0]
256,25600,1.90888774394989,-0.1792832463979721,1.2570525407791138,-0.8888663053512573,-2.146269559860229,-1.9334051609039309,3.7265625,1,"['A/E1', 'B2', 'C1']",7.6,270,319.47489650624607,9.397827348839073,[6200|5600|0]
257,25700,1.905118584632873,-0.1831272095441818,1.2535598278045654,-0.6552367806434631,-1.7426592111587524,-3.635978937149048,3.7265625,1,"['A/E1', 'B2', 'C1']",7.6,270,319.47489650624607,9.404244642548186,[6200|5600|0]
258,25800,1.9020260572433472,-0.1869746446609497,1.2476776838302612,-0.792637825012207,-1.3611905574798584,-4.456644058227539,3.7265625,1,"['A/E1', 'B2', 'C1']",7.6,270,319.47489650624607,9.411923581300847,[6200|5600|0]
259,25900,1.909100890159607,-0.1865525394678115,1.245233178138733,-1.012242078781128,-0.4083461165428161,-2.5622174739837646,3.732421875,1,"['A/E1', 'B2', 'C1']",7.6,270,319.47489650624607,9.419420716864716,[6200|5600|0]
260,26000,1.9127767086029053,-0.185843214392662,1.2386178970336914,-1.0932912826538086,0.278854638338089,-1.3151538372039795,3.732421875,1,"['A/E1', 'B2', 'C1']",7.6,270,319.47489650624607,9.427021817271171,[6200|5600|0]
261,26100,1.9173671007156368,-0.1836487650871276,1.2301133871078491,-0.9813004732131958,0.7807461619377136,-0.6130511164665222,3.720703125,1,"['A/E1', 'B2', 'C1']",7.6,270,319.47489650624607,9.436932114773365,[6200|5600|0]
262,26200,1.9208271503448489,-0.180615097284317,1.2205374240875244,-0.5931366086006165,1.1728264093399048,-0.3482148051261902,3.720703125,1,"['A/E1', 'B2', 'C1']",7.6,270,319.47489650624607,9.447556339523484,[6200|5600|0]
263,26300,1.9238107204437256,-0.178009957075119,1.211677312850952,-0.3621253669261932,1.1755934953689575,-0.3205528855323791,3.716796875,1,"['A/E1', 'B2', 'C1']",7.6,270,319.47489650624607,9.45726149367831,[6200|5600|0]
264,26400,1.925536870956421,-0.1759209632873535,1.2044845819473269,-0.2136636525392532,1.117912530899048,-0.3927892446517944,3.720703125,1,"['A/E1', 'B2', 'C1']",7.6,270,319.47489650624607,9.46494777161303,[6200|5600|0]
265,26500,1.9258846044540403,-0.1755353212356567,1.1989842653274536,-0.0938796177506446,0.8986380100250244,-0.5608775615692139,3.720703125,1,"['A/E1', 'B2', 'C1']",7.6,270,319.47489650624607,9.470472545028858,[6200|5600|0]
266,26600,1.9253718852996824,-0.1767285317182541,1.1950420141220093,-0.1387784481048584,0.6137830018997192,-0.6989204287528992,3.720703125,1,"['A/E1', 'B2', 'C1']",7.6,270,319.47489650624607,9.47462320482627,[6200|5600|0]
267,26700,1.924405694007873,-0.1799119859933853,1.193294644355774,-0.2921001017093658,0.4968846142292022,-0.9759157299995422,3.7265625,1,"['A/E1', 'B2', 'C1']",7.6,270,319.47489650624607,9.47838102438476,[6200|5600|0]
268,26800,1.9232584238052368,-0.1861226856708526,1.1935834884643557,-0.5705050826072693,0.3653595149517059,-1.2001583576202393,3.7265625,1,"['A/E1', 'B2', 'C1']",7.6,270,319.47489650624607,9.484703401336558,[6200|5600|0]
269,26900,1.9221253395080569,-0.1927211582660675,1.1937836408615112,-1.0289227962493896,0.3836183547973633,-1.5069972276687622,3.7265625,1,"['A/E1', 'B2', 'C1']",7.6,270,0.0,9.4914014444535,[6200|5600|0]
270,27001,1.9266765117645264,-0.2369716465473175,1.213178634643555,-1.3403961658477783,-1.066879391670227,-2.4359049797058105,3.916015625,1,"['A/E1', 'B2', 'C1']",7.6,270,0.0,9.539929628695676,[6200|5600|0]
271,27101,1.9165716171264648,-0.2421281635761261,1.1576383113861084,-4.132252216339111,0.1371272057294845,-4.8179931640625,3.837890625,1,"['A/E1', 'B2', 'C1']",7.6,270,0.0,9.596616717799424,[6200|5600|0]
272,27201,1.918372392654419,-0.2394634187221527,1.0771563053131104,-4.256463527679443,0.8936896324157715,-3.575770378112793,3.763671875,1,"['A/E1', 'B2', 'C1']",7.6,270,0.0,9.677162958923224,[6200|5600|0]
273,27301,1.9134728908538816,-0.2379230558872223,0.9670271277427672,-4.203634262084961,1.6679902076721191,-2.202357053756714,3.720703125,1,"['A/E1', 'B2', 'C1']",7.6,270,0.0,9.787411830064276,[6200|5600|0]
274,27401,1.9098068475723269,-0.2263883650302887,0.8508622646331787,-3.1437432765960693,1.882413506507873,-1.5842019319534302,3.705078125,1,"['A/E1', 'B2', 'C1']",7.6,270,0.0,9.904205513060306,[6200|5600|0]
275,27501,1.902696132659912,-0.2111171185970306,0.7325528860092163,-1.408678650856018,1.6753289699554443,-1.3120315074920654,3.716796875,1,"['A/E1', 'B2', 'C1']",7.6,270,0.0,10.023708158656875,[6200|5600|0]
276,27601,1.893244743347168,-0.1946458369493484,0.6153019666671753,0.0895914360880851,0.3881794810295105,-1.1862047910690308,3.720703125,1,"['A/E1', 'B2', 'C1']",7.6,270,0.0,10.142486986591877,[6200|5600|0]
277,27701,1.882888674736023,-0.1781574189662933,0.5006819367408752,1.4606527090072632,-0.3412405550479889,-0.6947678923606873,3.701171875,1,"['A/E1', 'B2', 'C1']",7.6,270,0.0,10.258749049815304,[6200|5600|0]
278,27801,1.8740038871765137,-0.1648135185241699,0.3906266689300537,1.3224291801452637,-0.384839117527008,-0.030804244801402,3.66796875,1,"['A/E1', 'B2', 'C1']",7.6,270,0.0,10.36996578013003,[6200|5600|0]
279,27901,1.865311622619629,-0.1541011184453964,0.2914643287658691,1.2955327033996582,-0.315133661031723,0.5714550614356995,3.65234375,1,"['A/E1', 'B2', 'C1']",7.6,270,0.0,10.47008311472006,[6200|5600|0]
280,28002,1.857584834098816,-0.1459992080926895,0.2087405920028686,0.8613814115524292,-0.2641201317310333,1.5567985773086548,3.658203125,1,"['A/E1', 'B2', 'C1']",7.6,270,0.0,10.553561020996169,[6200|5600|0]
281,28102,1.8512109518051147,-0.1382437199354171,0.1427615135908126,0.9469574093818665,-0.6831827163696289,2.813995361328125,3.6640625,1,"['A/E1', 'B2', 'C1']",7.6,270,0.0,10.620299411448409,[6200|5600|0]
282,28202,1.8466854095458984,-0.1314751505851745,0.092020109295845,0.4196906685829162,-0.4105046689510345,3.764925241470337,3.673828125,1,"['A/E1', 'B2', 'C1']",7.6,270,0.0,10.671689918097153,[6200|5600|0]
283,28300,1.844839572906494,-0.1259023547172546,0.0570975765585899,1.2062430381774902,-1.419749140739441,3.870019197463989,3.66796875,1,"['A/E1', 'B2', 'C1']",7.6,270,0.0,10.707102436497705,[6200|5600|0]
284,28400,1.846638560295105,-0.1231555417180061,0.0375763662159442,2.3260576725006104,-2.712829113006592,2.7630622386932373,3.689453125,1,"['A/E1', 'B2', 'C1']",7.6,270,0.0,10.72689786502348,[6200|5600|0]
285,28500,1.8544862270355225,-0.1231737434864044,0.0339887998998165,1.9531941413879397,-2.3889455795288086,1.4648844003677368,3.720703125,1,"['A/E1', 'B2', 'C1']",7.6,270,0.0,10.735526702526045,[6200|5600|0]
286,28600,1.866348147392273,-0.1257625967264175,0.0406396277248859,1.6397634744644165,-1.6056246757507324,0.1947133243083953,3.736328125,1,"['A/E1', 'B2', 'C1']",7.6,270,0.0,10.749370142358936,[6200|5600|0]
287,28700,1.8810144662857056,-0.1311202198266983,0.0508622787892818,1.714417576789856,0.0260425005108118,-1.0795812606811523,3.7421875,1,"['A/E1', 'B2', 'C1']",7.6,270,0.0,10.768033143991923,[6200|5600|0]
288,28800,1.895480036735535,-0.1379103511571884,0.0577694065868854,0.8445963263511658,1.3295801877975464,-1.864824652671814,3.736328125,1,"['A/E1', 'B2', 'C1']",7.6,270,0.0,10.785441964352213,[6200|5600|0]
289,28900,1.9077250957489011,-0.1468400508165359,0.0587992705404758,-0.0985992774367332,1.5370478630065918,-2.3058886528015137,3.720703125,1,"['A/E1', 'B2', 'C1']",7.6,270,0.0,10.800632146247432,[6200|5600|0]
290,29000,1.9170554876327517,-0.1543049365282058,0.0565993748605251,-0.9344550967216492,2.926612138748169,-2.45512056350708,3.720703125,1,"['A/E1', 'B2', 'C1']",7.6,270,0.0,10.812782054576187,[6200|5600|0]
291,29100,1.922476291656494,-0.1600513458251953,0.0524546429514884,-1.4120211601257324,2.106635570526123,-2.7644259929656982,3.716796875,1,"['A/E1', 'B2', 'C1']",7.6,270,0.0,10.821703104888238,[6200|5600|0]
