time.ms,stateEstimate.x,stateEstimate.y,stateEstimate.z,stabilizer.roll,stabilizer.pitch,stabilizer.yaw,pm.vbat,drone_id,node_name,wind_speed,global_wind_direction,relative_wind_direction,travel_dist,waiting_time
0,1.657934546470642,1.2255301475524902,-0.04163273423910141,-0.03361297398805618,0.5704143047332764,3.4499828815460205,4.05859375,1,"['C1', 'F2', 'F1']",6.1,270,0,0.049477570898037754,[100|0|0]
100,1.657962441444397,1.2254167795181274,-0.041952937841415405,-0.03534575179219246,0.569383442401886,3.4559426307678223,4.05859375,1,"['C1', 'F2', 'F1']",6.1,270,0,0.04981839458810482,[200|0|0]
200,1.6579337120056152,1.2254328727722168,-0.0421789214015007,-0.0398244746029377,0.5656530857086182,3.4872922897338867,4.05859375,1,"['C1', 'F2', 'F1']",6.1,270,0,0.050046764776414766,[300|0|0]
300,1.657767415046692,1.2253590822219849,-0.0422871932387352,-0.04013211652636528,0.5707154273986816,3.4747233390808105,4.05859375,1,"['C1', 'F2', 'F1']",6.1,270,0,0.050258478060336245,[400|0|0]
400,1.6578561067581177,1.2251981496810913,-0.0419168584048748,-0.03297540545463562,0.5713061690330505,3.4616217613220215,4.05859375,1,"['C1', 'F2', 'F1']",6.1,270,0,0.05067189478903079,[500|0|0]
500,1.6580286026000977,1.2255655527114868,-0.042016010731458664,-0.04407569393515587,0.5704889893531799,3.468456983566284,4.05859375,1,"['C1', 'F2', 'F1']",6.1,270,0,0.05108971171797357,[600|0|0]
600,1.6577016115188599,1.2252787351608276,-0.04232773184776306,-0.034612804651260376,0.5797579288482666,3.459041118621826,4.05859375,1,"['C1', 'F2', 'F1']",6.1,270,0,0.05162483556244815,[700|0|0]
700,1.6576939821243286,1.2251843214035034,-0.042372941970825195,-0.03297621011734009,0.5764760971069336,3.4476442337036133,4.05859375,1,"['C1', 'F2', 'F1']",6.1,270,0,0.05172979327040847,[800|0|0]
800,1.6580954790115356,1.2253557443618774,-0.0418376550078392,-0.038620807230472565,0.5642901659011841,3.4532930850982666,4.05859375,1,"['C1', 'F2', 'F1']",6.1,270,0,0.05242053035051739,[900|0|0]
900,1.6578716039657593,1.2255089282989502,-0.04201815649867058,-0.04295313358306885,0.5637186765670776,3.4437131881713867,4.05859375,1,"['C1', 'F2', 'F1']",6.1,270,0,0.05274636181445363,[1000|0|0]
1000,1.657845377922058,1.2255786657333374,-0.041998445987701416,-0.043483175337314606,0.5722500681877136,3.4341461658477783,4.05859375,1,"['C1', 'F2', 'F1']",6.1,270,0,0.05282343074052498,[1100|0|0]
1100,1.6581679582595825,1.2254358530044556,-0.042187828570604324,-0.036712147295475006,0.5726048946380615,3.4523568153381348,4.05859375,1,"['C1', 'F2', 'F1']",6.1,270,0,0.0532238296820758,[1200|0|0]
1200,1.6580816507339478,1.2255185842514038,-0.04183683544397354,-0.03820520639419556,0.5772032737731934,3.4432544708251953,4.05859375,1,"['C1', 'F2', 'F1']",6.1,270,0,0.05359462561401797,[1300|0|0]
1300,1.6579289436340332,1.2254749536514282,-0.042251188308000565,-0.040109749883413315,0.5881823897361755,3.418187141418457,4.05859375,1,"['C1', 'F2', 'F1']",6.1,270,0,0.05403837259546791,[1400|0|0]
1400,1.657867670059204,1.2251415252685547,-0.04242497310042381,-0.033766549080610275,0.5783356428146362,3.440816640853882,4.05859375,1,"['C1', 'F2', 'F1']",6.1,270,0,0.05441933203104549,[1500|0|0]
1500,1.6581249237060547,1.2254345417022705,-0.04177645593881607,-0.042733535170555115,0.5656211376190186,3.4060683250427246,4.05859375,1,"['C1', 'F2', 'F1']",6.1,270,0,0.05517604371864205,[1600|0|0]
1600,1.6578450202941895,1.225606918334961,-0.04187125340104103,-0.047643840312957764,0.5764842629432678,3.4227705001831055,4.05859375,1,"['C1', 'F2', 'F1']",6.1,270,0,0.055518163847128786,[1700|0|0]
1700,1.6577317714691162,1.2253888845443726,-0.04219658300280571,-0.04537595063447952,0.5787240266799927,3.4106862545013428,4.05859375,1,"['C1', 'F2', 'F1']",6.1,270,0,0.05592584433476975,[1800|0|0]
1800,1.6581025123596191,1.2256488800048828,-0.04173309728503227,-0.050200268626213074,0.5735501050949097,3.4432835578918457,4.05859375,1,"['C1', 'F2', 'F1']",6.1,270,0,0.05657381459485643,[1900|0|0]
1900,1.6578991413116455,1.225597858428955,-0.042056307196617126,-0.044669970870018005,0.5773223638534546,3.4287915229797363,4.05859375,1,"['C1', 'F2', 'F1']",6.1,270,0,0.05695907766252673,[2000|0|0]
2000,1.657681941986084,1.225180745124817,-0.042551189661026,-0.036203783005476,0.5876979827880859,3.4418764114379883,4.05859375,1,"['C1', 'F2', 'F1']",6.1,270,0,0.057641769180778464,[2100|0|0]
2100,1.6581542491912842,1.2255675792694092,-0.04183938354253769,-0.042538825422525406,0.5732517242431641,3.4271864891052246,4.05859375,1,"['C1', 'F2', 'F1']",6.1,270,0,0.058579523253989484,[2200|0|0]
2200,0.8547379374504089,1.3286985158920288,0.4308403730392456,0.0007968352874740958,0.00023469100415240973,1.5460453033447266,4.05859375,1,"['C1', 'F2', 'F1']",6.1,270,0,0.9964174156118233,[2300|0|0]
2300,1.6943427324295044,1.233429193496704,-0.07391297817230225,8.362119674682617,-10.930156707763672,9.772071838378906,4.05859375,1,"['C1', 'F2', 'F1']",6.1,270,0,1.9806879074487174,[2400|0|0]
2400,1.7118017673492432,1.230193018913269,-0.07115031778812408,11.429303169250488,-0.9055610299110413,8.06313705444336,4.05859375,1,"['C1', 'F2', 'F1']",6.1,270,0,1.998657966398577,[2500|0|0]
2500,1.7010468244552612,1.2310185432434082,-0.05965011566877365,11.143106460571289,12.339986801147461,5.39999532699585,4.05859375,1,"['C1', 'F2', 'F1']",6.1,270,0,2.0144251771810326,[2600|0|0]
2600,1.657201886177063,1.2232609987258911,-0.05199639871716499,10.664292335510254,14.211959838867188,3.993025302886963,4.05859375,1,"['C1', 'F2', 'F1']",6.1,270,0,2.059604126844959,[2700|0|0]
2700,1.6538764238357544,1.2221993207931519,-0.04731303080916405,9.411750793457031,11.610800743103027,3.6167023181915283,4.05859375,1,"['C1', 'F2', 'F1']",6.1,270,0,2.06544534202487,[2800|0|0]
2800,1.6525949239730835,1.221677303314209,-0.044841207563877106,7.995710372924805,9.598896026611328,3.380903959274292,4.05859375,1,"['C1', 'F2', 'F1']",6.1,270,0,2.06827812410302,[2900|0|0]
2900,1.6526784896850586,1.2218338251113892,-0.04382910579442978,6.732367038726807,8.00036334991455,3.219573974609375,4.05859375,1,"['C1', 'F2', 'F1']",6.1,270,0,2.069305661106212,[3000|0|0]
3000,1.652295708656311,1.2216261625289917,-0.043503083288669586,5.674832820892334,6.7529401779174805,3.0510852336883545,4.05859375,1,"['C1', 'F2', 'F1']",6.1,270,0,2.0698496608657333,[3100|0|0]
3100,1.6509816646575928,1.2223902940750122,-0.04242807999253273,4.620137691497803,5.720311641693115,2.968508243560791,4.05859375,1,"['C1', 'F2', 'F1']",6.1,270,0,2.071711445154231,[3200|0|0]
3200,1.6518617868423462,1.2222532033920288,-0.04240866377949715,3.901017189025879,4.844102382659912,2.8898565769195557,4.05859375,1,"['C1', 'F2', 'F1']",6.1,270,0,2.0726023917883145,[3300|0|0]
3300,1.6543399095535278,1.2236976623535156,-0.04194928705692291,3.265040636062622,4.1316447257995605,2.872960090637207,4.05859375,1,"['C1', 'F2', 'F1']",6.1,270,0,2.075507315339174,[3400|0|0]
3400,1.6546809673309326,1.2240872383117676,-0.0417407751083374,2.6890652179718018,3.5046730041503906,2.883439302444458,4.05859375,1,"['C1', 'F2', 'F1']",6.1,270,0,2.076065497269622,[3500|0|0]
3500,1.6552202701568604,1.2243621349334717,-0.041822969913482666,2.217193126678467,2.9947869777679443,2.8788654804229736,4.05859375,1,"['C1', 'F2', 'F1']",6.1,270,0,2.0766763750615502,[3600|0|0]
3600,1.6553882360458374,1.2238811254501343,-0.04223475232720375,1.8385772705078125,2.5692391395568848,2.9032068252563477,4.05859375,1,"['C1', 'F2', 'F1']",6.1,270,0,2.0773314685046333,[3700|0|0]
3700,1.6556382179260254,1.224461317062378,-0.041969869285821915,1.482208013534546,2.1894869804382324,2.9485023021698,4.05859375,1,"['C1', 'F2', 'F1']",6.1,270,0,2.0780165059291233,[3800|0|0]
3800,1.6563581228256226,1.2244503498077393,-0.042492903769016266,1.1878185272216797,1.8626915216445923,2.9885311126708984,4.05859375,1,"['C1', 'F2', 'F1']",6.1,270,0,2.078906420765357,[3900|0|0]
3900,1.6565685272216797,1.2243175506591797,-0.04218477010726929,0.9485151767730713,1.5951130390167236,3.052164316177368,4.05859375,1,"['C1', 'F2', 'F1']",6.1,270,0,2.07930246618856,[4000|0|0]
4000,1.6567168235778809,1.2240443229675293,-0.0420457161962986,0.7532700896263123,1.3599263429641724,3.1078996658325195,4.05859375,1,"['C1', 'F2', 'F1']",6.1,270,0,2.079643026272691,[4100|0|0]
4100,1.6563996076583862,1.2249265909194946,-0.04148164391517639,0.48765140771865845,1.155468225479126,3.179992437362671,4.05859375,1,"['C1', 'F2', 'F1']",6.1,270,0,2.0807371927211697,[4200|0|0]
4200,1.6570476293563843,1.2250229120254517,-0.04172297567129135,0.3632332682609558,1.0247045755386353,3.221999406814575,4.05859375,1,"['C1', 'F2', 'F1']",6.1,270,0,2.081435369556247,[4300|0|0]
4300,1.6572444438934326,1.2247989177703857,-0.04161062091588974,0.27156275510787964,0.912358283996582,3.233424186706543,4.05859375,1,"['C1', 'F2', 'F1']",6.1,270,0,2.0817540119566855,[4400|0|0]
4400,1.6573065519332886,1.2247612476348877,-0.04190069064497948,0.19452960789203644,0.8155410885810852,3.258104085922241,4.05859375,1,"['C1', 'F2', 'F1']",6.1,270,0,2.0820530385365363,[4500|0|0]
4500,1.657423973083496,1.2254313230514526,-0.04202766343951225,0.12410246580839157,0.7451440095901489,3.2886505126953125,4.06640625,1,"['C1', 'F2', 'F1']",6.1,270,0,2.0827450724092276,[4600|0|0]
4600,1.6577754020690918,1.2252131700515747,-0.04169395938515663,0.09925399720668793,0.7001223564147949,3.3354201316833496,4.05859375,1,"['C1', 'F2', 'F1']",6.1,270,0,2.083276534034527,[4700|0|0]
4700,1.657555341720581,1.2251564264297485,-0.04222732037305832,0.07184484601020813,0.6742169260978699,3.3732101917266846,4.05859375,1,"['C1', 'F2', 'F1']",6.1,270,0,2.0838562928973485,[4800|0|0]
4800,1.6577327251434326,1.2249611616134644,-0.04190060496330261,0.05095667764544487,0.6407307386398315,3.3861007690429688,4.05859375,1,"['C1', 'F2', 'F1']",6.1,270,0,2.084276216921611,[4900|0|0]
4900,1.6575425863265991,1.2247810363769531,-0.041787829250097275,-0.041659217327833176,0.5738136172294617,3.398909091949463,4.05859375,1,"['C1', 'F2', 'F1']",6.1,270,0,2.084561376932805,[5000|0|0]
5000,1.6576765775680542,1.2250968217849731,-0.042161304503679276,-0.046703267842531204,0.5622773170471191,3.403243064880371,4.05859375,1,"['C1', 'F2', 'F1']",6.1,270,0,2.085068484260442,[5100|0|0]
5100,1.6579557657241821,1.225099802017212,-0.042066045105457306,-0.054064325988292694,0.5422274470329285,3.4245452880859375,4.05859375,1,"['C1', 'F2', 'F1']",6.1,270,0,2.085363491482821,[5200|0|0]
5200,1.6580979824066162,1.2250031232833862,-0.04219228774309158,-0.05878482013940811,0.5342642068862915,3.447366714477539,4.05859375,1,"['C1', 'F2', 'F1']",6.1,270,0,2.08557682119452,[5300|0|0]
5300,1.6578389406204224,1.2251840829849243,-0.041816193610429764,-0.07415065169334412,0.5444889664649963,3.464707612991333,4.05859375,1,"['C1', 'F2', 'F1']",6.1,270,0,2.08606803994131,[5400|0|0]
5400,1.6576836109161377,1.2253358364105225,-0.041769687086343765,-0.0812811404466629,0.5422919988632202,3.4463281631469727,4.05859375,1,"['C1', 'F2', 'F1']",6.1,270,0,2.0862901193775403,[5500|0|0]
5500,1.6577433347702026,1.2249157428741455,-0.04218060150742531,-0.07427417486906052,0.5360690951347351,3.4830007553100586,4.05859375,1,"['C1', 'F2', 'F1']",6.1,270,0,2.0868807937205607,[5600|0|0]
5600,1.6579738855361938,1.2253053188323975,-0.04165143892168999,-0.06947429478168488,0.5344610810279846,3.479811429977417,4.05859375,1,"['C1', 'F2', 'F1']",6.1,270,0,2.0875771672733965,[5700|0|0]
5700,1.6579911708831787,1.22483491897583,-0.04178759828209877,-0.05213818699121475,0.5371921062469482,3.4780709743499756,4.05859375,1,"['C1', 'F2', 'F1']",6.1,270,0,2.0880671817422707,[5800|0|0]
5800,1.6580462455749512,1.2247909307479858,-0.04215547814965248,-0.04146922007203102,0.5451623797416687,3.4561378955841064,4.05859375,1,"['C1', 'F2', 'F1']",6.1,270,0,2.088441753207834,[5900|0|0]
5900,1.6579400300979614,1.2252131700515747,-0.04200400039553642,-0.06630594283342361,0.5386242270469666,3.4667646884918213,4.05859375,1,"['C1', 'F2', 'F1']",6.1,270,0,2.0889027448205986,[6000|0|0]
6000,1.6580950021743774,1.2250916957855225,-0.04162517562508583,-0.13229548931121826,0.48843106627464294,3.499105215072632,4.05859375,1,"['C1', 'F2', 'F1']",6.1,270,0,2.0893296880820382,[6100|0|0]
6100,1.6577543020248413,1.2248525619506836,-0.04178645834326744,-0.10273727029561996,0.5241983532905579,3.459439754486084,4.05859375,1,"['C1', 'F2', 'F1']",6.1,270,0,2.0897760889086983,[6200|0|0]
6200,1.6577582359313965,1.224913239479065,-0.04197435453534126,-0.08286598324775696,0.536786675453186,3.4634697437286377,4.05859375,1,"['C1', 'F2', 'F1']",6.1,270,0,2.0899735786984777,[6300|0|0]
6300,1.6579101085662842,1.2249175310134888,-0.04215201362967491,-0.05588502064347267,0.542767345905304,3.4844377040863037,4.05859375,1,"['C1', 'F2', 'F1']",6.1,270,0,2.0902073445392135,[6400|0|0]
6400,1.658003807067871,1.2253899574279785,-0.04190627112984657,-0.06651624292135239,0.5453546643257141,3.5096685886383057,4.05859375,1,"['C1', 'F2', 'F1']",6.1,270,0,2.0907480436260717,[6500|0|0]
6500,1.6578609943389893,1.2254093885421753,-0.04165586456656456,-0.048040036112070084,0.5628865957260132,3.4987919330596924,4.05859375,1,"['C1', 'F2', 'F1']",6.1,270,0,2.0910369666100386,[6600|0|0]
6600,1.658042311668396,1.2255213260650635,-0.04205181449651718,-0.03833064064383507,0.5693369507789612,3.5127956867218018,4.05859375,1,"['C1', 'F2', 'F1']",6.1,270,0,2.091486613504838,[6700|0|0]
6700,1.6580710411071777,1.2254140377044678,-0.041839491575956345,-0.10391058027744293,0.5161557793617249,3.4976186752319336,4.05859375,1,"['C1', 'F2', 'F1']",6.1,270,0,2.0917262323596213,[6800|0|0]
6800,1.6580538749694824,1.2250547409057617,-0.04163777455687523,-0.06770908832550049,0.5392899513244629,3.503284454345703,4.05859375,1,"['C1', 'F2', 'F1']",6.1,270,0,2.092138638253894,[6900|0|0]
6900,1.6579195261001587,1.225080132484436,-0.041603587567806244,-0.055523693561553955,0.5559042096138,3.4887356758117676,4.05859375,1,"['C1', 'F2', 'F1']",6.1,270,0,2.092279574768601,[7000|0|0]
7000,1.6578478813171387,1.225343108177185,-0.04191967099905014,-0.06431936472654343,0.5604427456855774,3.5020408630371094,4.05859375,1,"['C1', 'F2', 'F1']",6.1,270,0,2.0926969450184005,[7100|0|0]
7100,1.657981038093567,1.2248873710632324,-0.04181304946541786,-0.04815202206373215,0.5633084177970886,3.5250041484832764,4.05859375,1,"['C1', 'F2', 'F1']",6.1,270,0,2.093183561084285,[7200|0|0]
7200,1.6578809022903442,1.2246718406677246,-0.04183247312903404,-0.04129442572593689,0.5658978819847107,3.4730842113494873,4.05859375,1,"['C1', 'F2', 'F1']",6.1,270,0,2.09342200984017,[7300|0|0]
7300,1.6580238342285156,1.2249226570129395,-0.04181741550564766,-0.04964633658528328,0.5593584775924683,3.4770212173461914,4.05859375,1,"['C1', 'F2', 'F1']",6.1,270,0,2.093711086144973,[7400|0|0]
7400,1.6581013202667236,1.2253148555755615,-0.04182294383645058,-0.056667815893888474,0.5619857311248779,3.474720001220703,4.05859375,1,"['C1', 'F2', 'F1']",6.1,270,0,2.0941109040548787,[7500|0|0]
7500,1.6577770709991455,1.2249395847320557,-0.042093425989151,-0.03938775509595871,0.5790581107139587,3.463793992996216,4.05859375,1,"['C1', 'F2', 'F1']",6.1,270,0,2.094675816781271,[7600|0|0]
7600,1.6544239521026611,1.2220343351364136,-0.046057477593421936,0.07923512905836105,0.6901893019676208,3.430872917175293,4.05859375,1,"['C1', 'F2', 'F1']",6.1,270,0,2.1006254038819248,[7700|0|0]
7700,1.6546415090560913,1.222427248954773,-0.04662400856614113,0.07143179327249527,0.688102662563324,3.4565558433532715,4.05859375,1,"['C1', 'F2', 'F1']",6.1,270,0,2.1013483628293717,[7800|0|0]
7800,1.6546839475631714,1.2219022512435913,-0.0461927130818367,0.0884208232164383,0.6961607336997986,3.4671130180358887,4.05859375,1,"['C1', 'F2', 'F1']",6.1,270,0,2.102029126678596,[7900|0|0]
7900,1.6549395322799683,1.2220245599746704,-0.04623718559741974,0.039798445999622345,0.6470770239830017,3.4939470291137695,4.05859375,1,"['C1', 'F2', 'F1']",6.1,270,0,2.1023159380762086,[8000|0|0]
8000,1.654842734336853,1.2223739624023438,-0.04612351953983307,0.04985274747014046,0.6605761647224426,3.4509904384613037,4.05859375,1,"['C1', 'F2', 'F1']",6.1,270,0,2.102695901062436,[8100|0|0]
8100,1.6549372673034668,1.2221832275390625,-0.045609358698129654,0.06180594488978386,0.6568907499313354,3.4764182567596436,4.05859375,1,"['C1', 'F2', 'F1']",6.1,270,0,2.103252387936485,[8200|0|0]
8200,1.654886245727539,1.2222715616226196,-0.04594431445002556,0.058139827102422714,0.6598407030105591,3.4820847511291504,4.05859375,1,"['C1', 'F2', 'F1']",6.1,270,0,2.1036025328597043,[8300|0|0]
8300,1.6548511981964111,1.222150206565857,-0.04614910110831261,0.06484507024288177,0.6620396375656128,3.4840590953826904,4.05859375,1,"['C1', 'F2', 'F1']",6.1,270,0,2.1038431424078365,[8400|0|0]
8400,1.6548209190368652,1.2222974300384521,-0.04612720385193825,0.05777629837393761,0.6594825983047485,3.453697443008423,4.05859375,1,"['C1', 'F2', 'F1']",6.1,270,0,2.1039950340409916,[8500|0|0]
8501,1.6549077033996582,1.2217762470245361,-0.04570432007312775,0.06971576809883118,0.6655561923980713,3.4471182823181152,4.05859375,1,"['C1', 'F2', 'F1']",6.1,270,0,2.1046717865437583,[8600|0|0]
8601,1.6552128791809082,1.222109079360962,-0.04576073959469795,0.05612066015601158,0.64981609582901,3.459885835647583,4.05859375,1,"['C1', 'F2', 'F1']",6.1,270,0,2.1051268610256253,[8700|0|0]
8701,1.654599905014038,1.2221245765686035,-0.04597646743059158,0.05935777723789215,0.6591935753822327,3.4618947505950928,4.05859375,1,"['C1', 'F2', 'F1']",6.1,270,0,2.1057768733269504,[8800|0|0]
8801,1.6550947427749634,1.2222589254379272,-0.04577547684311867,0.05589384213089943,0.6365287899971008,3.458993434906006,4.05859375,1,"['C1', 'F2', 'F1']",6.1,270,0,2.1063276103282305,[8900|0|0]
8901,1.6550912857055664,1.2224371433258057,-0.04609121382236481,0.04719511792063713,0.6326839923858643,3.4629149436950684,4.05859375,1,"['C1', 'F2', 'F1']",6.1,270,0,2.106690189156835,[9000|0|0]
9001,1.655033826828003,1.221941590309143,-0.046316612511873245,0.05851827561855316,0.6317775845527649,3.4135489463806152,4.05859375,1,"['C1', 'F2', 'F1']",6.1,270,0,2.107237618498546,[9100|0|0]
9101,1.6549538373947144,1.222196340560913,-0.04584988206624985,0.04530108720064163,0.6313859820365906,3.3986258506774902,4.05859375,1,"['C1', 'F2', 'F1']",6.1,270,0,2.107775329674817,[9200|0|0]
9201,1.655163288116455,1.222192645072937,-0.045576974749565125,0.041429076343774796,0.6311107873916626,3.414216995239258,4.05859375,1,"['C1', 'F2', 'F1']",6.1,270,0,2.1081193669765286,[9300|0|0]
9301,1.6547460556030273,1.2221782207489014,-0.046271976083517075,0.03385995328426361,0.6506340503692627,3.4358904361724854,4.05859375,1,"['C1', 'F2', 'F1']",6.1,270,0,2.1089301184092006,[9400|0|0]
9402,1.655212640762329,1.2221906185150146,-0.045773837715387344,0.02935701236128807,0.631648600101471,3.45184326171875,4.05859375,1,"['C1', 'F2', 'F1']",6.1,270,0,2.109612758321078,[9500|0|0]
9502,1.654859185218811,1.2216641902923584,-0.04616309702396393,0.035026561468839645,0.6392061114311218,3.45556640625,4.05859375,1,"['C1', 'F2', 'F1']",6.1,270,0,2.1103567880947876,[9600|0|0]
9602,1.65478515625,1.221874475479126,-0.045805297791957855,0.027122534811496735,0.6446937918663025,3.4479827880859375,4.05859375,1,"['C1', 'F2', 'F1']",6.1,270,0,2.1107783571145475,[9700|0|0]
9702,1.6547340154647827,1.2220149040222168,-0.04589983448386192,0.01586315780878067,0.6425588130950928,3.4500699043273926,4.05859375,1,"['C1', 'F2', 'F1']",6.1,270,0,2.1109551981215096,[9800|0|0]
9802,1.654670000076294,1.2220247983932495,-0.045927636325359344,0.011768960393965244,0.641395628452301,3.4385101795196533,4.05859375,1,"['C1', 'F2', 'F1']",6.1,270,0,2.1110256879146156,[9900|0|0]
9902,1.6551649570465088,1.222269058227539,-0.04584222659468651,0.0013922452926635742,0.6277146935462952,3.428720235824585,4.05859375,1,"['C1', 'F2', 'F1']",6.1,270,0,2.1115842038867285,[10000|0|0]
10002,1.6548985242843628,1.2220356464385986,-0.045952167361974716,0.005786180030554533,0.6261663436889648,3.42934250831604,4.05859375,1,"['C1', 'F2', 'F1']",6.1,270,0,2.1119550872272455,[10100|0|0]
10102,1.6549433469772339,1.2222747802734375,-0.04600818455219269,0.005300040822476149,0.6190175414085388,3.432462215423584,4.05859375,1,"['C1', 'F2', 'F1']",6.1,270,0,2.1122047509818453,[10200|0|0]
10202,1.6548794507980347,1.2221319675445557,-0.04574105143547058,0.007944315671920776,0.6203027963638306,3.404757022857666,4.05859375,1,"['C1', 'F2', 'F1']",6.1,270,0,2.112514328596179,[10300|0|0]
10300,1.6549324989318848,1.2219228744506836,-0.0458424836397171,0.017503779381513596,0.6289414763450623,3.4287071228027344,4.05859375,1,"['C1', 'F2', 'F1']",6.1,270,0,2.112752703339951,[10400|0|0]
10400,1.6546436548233032,1.222115397453308,-0.04588184133172035,0.013667836785316467,0.6358907222747803,3.4382717609405518,4.05859375,1,"['C1', 'F2', 'F1']",6.1,270,0,2.113102052811858,[10500|0|0]
10500,1.6550592184066772,1.2219703197479248,-0.04611760750412941,0.015106521546840668,0.6202084422111511,3.4548802375793457,4.05859375,1,"['C1', 'F2', 'F1']",6.1,270,0,2.11360137867788,[10600|0|0]
10600,1.6548439264297485,1.222139835357666,-0.04600315913558006,0.01502311509102583,0.6209484934806824,3.43235182762146,4.05859375,1,"['C1', 'F2', 'F1']",6.1,270,0,2.1138983376082714,[10700|0|0]
10700,1.6546834707260132,1.2221808433532715,-0.045961979776620865,0.016531744971871376,0.6249331831932068,3.420043706893921,4.05859375,1,"['C1', 'F2', 'F1']",6.1,270,0,2.114068993484728,[10800|0|0]
10800,1.6548064947128296,1.2218608856201172,-0.046067945659160614,0.02716837450861931,0.6231430768966675,3.4358627796173096,4.05859375,1,"['C1', 'F2', 'F1']",6.1,270,0,2.1144277923428643,[10900|0|0]
10900,1.6549533605575562,1.2223094701766968,-0.04579231142997742,0.010682988911867142,0.6195297837257385,3.440192937850952,4.05859375,1,"['C1', 'F2', 'F1']",6.1,270,0,2.1149743926621527,[11000|0|0]
11000,1.655014991760254,1.22231924533844,-0.045892562717199326,0.018638864159584045,0.6199002861976624,3.453460216522217,4.05859375,1,"['C1', 'F2', 'F1']",6.1,270,0,2.1150924785610683,[11100|0|0]
11100,1.6547250747680664,1.2219566106796265,-0.046360284090042114,0.03185894712805748,0.6219693422317505,3.452876567840576,4.05859375,1,"['C1', 'F2', 'F1']",6.1,270,0,2.1157515074229143,[11200|0|0]
11200,1.6548137664794922,1.2221707105636597,-0.04574672877788544,0.026751581579446793,0.6192631125450134,3.433698892593384,4.05859375,1,"['C1', 'F2', 'F1']",6.1,270,0,2.1164073695281576,[11300|0|0]
11300,1.6548219919204712,1.221989393234253,-0.04570674151182175,0.029809294268488884,0.6334576606750488,3.424616575241089,4.05859375,1,"['C1', 'F2', 'F1']",6.1,270,0,2.1165932259600337,[11400|0|0]
11400,1.6549428701400757,1.2219953536987305,-0.046269338577985764,0.03364914655685425,0.6352666616439819,3.4506540298461914,4.05859375,1,"['C1', 'F2', 'F1']",6.1,270,0,2.1171686931875695,[11500|0|0]
11500,1.6551333665847778,1.2222050428390503,-0.04582006856799126,0.026702245697379112,0.625699520111084,3.457080841064453,4.05859375,1,"['C1', 'F2', 'F1']",6.1,270,0,2.1176998259138187,[11600|0|0]
11600,1.6550158262252808,1.2220772504806519,-0.046080395579338074,0.03100626915693283,0.634195864200592,3.4746499061584473,4.05859375,1,"['C1', 'F2', 'F1']",6.1,270,0,2.1180127424774784,[11700|0|0]
11700,1.6552025079727173,1.2220350503921509,-0.046036411076784134,0.026455005630850792,0.623211681842804,3.4846155643463135,4.05859375,1,"['C1', 'F2', 'F1']",6.1,270,0,2.1182091236343146,[11800|0|0]
11800,1.6550686359405518,1.222529649734497,-0.04610106721520424,0.008525898680090904,0.6231899261474609,3.491197347640991,4.05859375,1,"['C1', 'F2', 'F1']",6.1,270,0,2.1187255833584757,[11900|0|0]
11900,1.6551672220230103,1.2225408554077148,-0.0458553209900856,0.013934295624494553,0.6202048063278198,3.4872992038726807,4.05859375,1,"['C1', 'F2', 'F1']",6.1,270,0,2.1189906040933755,[12000|0|0]
12000,1.6548212766647339,1.2223098278045654,-0.045860789716243744,0.021466631442308426,0.6286184787750244,3.461221933364868,4.05859375,1,"['C1', 'F2', 'F1']",6.1,270,0,2.119406635163484,[12100|0|0]
12100,1.6551105976104736,1.221846580505371,-0.04597068950533867,0.0323728583753109,0.6249515414237976,3.469731330871582,4.05859375,1,"['C1', 'F2', 'F1']",6.1,270,0,2.119963755108826,[12200|0|0]
12200,1.655036211013794,1.22207772731781,-0.04571535065770149,0.029438409954309464,0.6294752955436707,3.466060161590576,4.05859375,1,"['C1', 'F2', 'F1']",6.1,270,0,2.1203161187587374,[12300|0|0]
12300,1.6549222469329834,1.2221086025238037,-0.046387169510126114,0.023572411388158798,0.6340929865837097,3.4558000564575195,4.05859375,1,"['C1', 'F2', 'F1']",6.1,270,0,2.120998234335845,[12400|0|0]
12400,1.6546519994735718,1.2221728563308716,-0.04601608216762543,0.024773387238383293,0.6357253193855286,3.4301533699035645,4.05859375,1,"['C1', 'F2', 'F1']",6.1,270,0,2.1214617729607785,[12500|0|0]
12500,1.6547333002090454,1.2221776247024536,-0.04602159932255745,0.02502928487956524,0.6343991756439209,3.4173858165740967,4.05859375,1,"['C1', 'F2', 'F1']",6.1,270,0,2.1215434000760935,[12600|0|0]
12600,1.655010461807251,1.222432255744934,-0.04597220942378044,0.024055320769548416,0.6217598915100098,3.4063210487365723,4.05859375,1,"['C1', 'F2', 'F1']",6.1,270,0,2.121922998391969,[12700|0|0]
12700,1.6548199653625488,1.221968650817871,-0.04608674347400665,0.03577033802866936,0.6298435926437378,3.414436101913452,4.05859375,1,"['C1', 'F2', 'F1']",6.1,270,0,2.1224371350202134,[12800|0|0]
12800,1.6549683809280396,1.2219051122665405,-0.04604773968458176,0.0409371443092823,0.6302186846733093,3.4191009998321533,4.05859375,1,"['C1', 'F2', 'F1']",6.1,270,0,2.1226032242226758,[12900|0|0]
12900,1.6548162698745728,1.2223738431930542,-0.04605064168572426,0.02845504693686962,0.6385806202888489,3.412388563156128,4.05859375,1,"['C1', 'F2', 'F1']",6.1,270,0,2.123096027302686,[13000|0|0]
13000,1.6548596620559692,1.2222754955291748,-0.046037524938583374,0.028180299326777458,0.6406598687171936,3.4112746715545654,4.05859375,1,"['C1', 'F2', 'F1']",6.1,270,0,2.123204319469773,[13100|0|0]
13100,1.6548899412155151,1.222144365310669,-0.045984093099832535,0.0289507657289505,0.6459643840789795,3.4402287006378174,4.05859375,1,"['C1', 'F2', 'F1']",6.1,270,0,2.123349119066114,[13200|0|0]
13200,1.6549242734909058,1.2220913171768188,-0.0459800586104393,0.029036203399300575,0.6405319571495056,3.4483277797698975,4.05859375,1,"['C1', 'F2', 'F1']",6.1,270,0,2.123412436415578,[13300|0|0]
13300,1.6550626754760742,1.2222565412521362,-0.04599922522902489,0.029022715985774994,0.6369551420211792,3.481764554977417,4.05859375,1,"['C1', 'F2', 'F1']",6.1,270,0,2.123628819094716,[13400|0|0]
13400,1.6547155380249023,1.2223836183547974,-0.0461469441652298,0.0265329759567976,0.6441552042961121,3.4890408515930176,4.05859375,1,"['C1', 'F2', 'F1']",6.1,270,0,2.1240269068791813,[13500|0|0]
13500,1.654755711555481,1.221908688545227,-0.04607409983873367,0.038497716188430786,0.638055145740509,3.448686122894287,4.05859375,1,"['C1', 'F2', 'F1']",6.1,270,0,2.124509067155936,[13600|0|0]
13600,1.6549090147018433,1.2220005989074707,-0.045869242399930954,0.02909058704972267,0.6294013857841492,3.4401183128356934,4.05859375,1,"['C1', 'F2', 'F1']",6.1,270,0,2.1247809420161294,[13700|0|0]
13700,1.6550891399383545,1.2220532894134521,-0.046151019632816315,0.028314778581261635,0.629611611366272,3.4279627799987793,4.05859375,1,"['C1', 'F2', 'F1']",6.1,270,0,2.125119497475724,[13800|0|0]
13800,1.6550334692001343,1.2223169803619385,-0.04601242393255234,0.0191211961209774,0.6379824280738831,3.4245967864990234,4.05859375,1,"['C1', 'F2', 'F1']",6.1,270,0,2.125422550137054,[13900|0|0]
13900,1.6550825834274292,1.2219089269638062,-0.04594326391816139,0.028308214619755745,0.631910502910614,3.4075706005096436,4.05859375,1,"['C1', 'F2', 'F1']",6.1,270,0,2.1258393269246043,[14000|0|0]
14000,1.6547247171401978,1.222374677658081,-0.0461791530251503,0.01680891402065754,0.6433736085891724,3.3930680751800537,4.05859375,1,"['C1', 'F2', 'F1']",6.1,270,0,2.1264722847901454,[14100|0|0]
14100,1.654789924621582,1.2222329378128052,-0.046273522078990936,0.021938782185316086,0.6442940831184387,3.429178476333618,4.05859375,1,"['C1', 'F2', 'F1']",6.1,270,0,2.126654624357135,[14200|0|0]
14200,1.6548597812652588,1.2220301628112793,-0.04588598012924194,0.02425513230264187,0.6356124877929688,3.4494426250457764,4.05859375,1,"['C1', 'F2', 'F1']",6.1,270,0,2.1270975537134946,[14300|0|0]
14300,1.6547236442565918,1.2222808599472046,-0.046089332550764084,0.0243665874004364,0.6387208104133606,3.4308786392211914,4.05859375,1,"['C1', 'F2', 'F1']",6.1,270,0,2.12744788861959,[14400|0|0]
14400,1.6548911333084106,1.2218444347381592,-0.04574492201209068,0.0409364253282547,0.6384465098381042,3.414889335632324,4.05859375,1,"['C1', 'F2', 'F1']",6.1,270,0,2.128028524619782,[14500|0|0]
14500,1.6549097299575806,1.222213625907898,-0.046101655811071396,0.026495955884456635,0.6331823468208313,3.4264838695526123,4.05859375,1,"['C1', 'F2', 'F1']",6.1,270,0,2.128542243374071,[14600|0|0]
14600,1.6546626091003418,1.2224550247192383,-0.04638615995645523,0.021684180945158005,0.6364234089851379,3.4148974418640137,4.05859375,1,"['C1', 'F2', 'F1']",6.1,270,0,2.1289897751751083,[14700|0|0]
14700,1.6551239490509033,1.2223936319351196,-0.04565666615962982,0.02674027904868126,0.6213284730911255,3.40522837638855,4.05859375,1,"['C1', 'F2', 'F1']",6.1,270,0,2.1298550871555713,[14800|0|0]
14800,1.6550508737564087,1.2221697568893433,-0.046031832695007324,0.03102198801934719,0.6223023533821106,3.450118064880371,4.05859375,1,"['C1', 'F2', 'F1']",6.1,270,0,2.1302980430947502,[14900|0|0]
14900,1.6549139022827148,1.2220760583877563,-0.045979395508766174,0.035050857812166214,0.6274176239967346,3.463456630706787,4.05859375,1,"['C1', 'F2', 'F1']",6.1,270,0,2.130472084044835,[15000|0|0]
15000,1.6548939943313599,1.222137689590454,-0.04597066715359688,0.03394653648138046,0.6271616220474243,3.455578565597534,4.05859375,1,"['C1', 'F2', 'F1']",6.1,270,0,2.1305374362893033,[15100|0|0]
15100,1.6551694869995117,1.2220277786254883,-0.04602819308638573,0.03952478989958763,0.6194418668746948,3.4376704692840576,4.05859375,1,"['C1', 'F2', 'F1']",6.1,270,0,2.130839571794281,[15200|0|0]
15200,1.6550577878952026,1.221988320350647,-0.04582129418849945,0.03858562558889389,0.6218214631080627,3.449659585952759,4.05859375,1,"['C1', 'F2', 'F1']",6.1,270,0,2.1310779848797097,[15300|0|0]
15300,1.6551728248596191,1.222012996673584,-0.04601970314979553,0.04523612931370735,0.6187120079994202,3.4537971019744873,4.05859375,1,"['C1', 'F2', 'F1']",6.1,270,0,2.131308654643698,[15400|0|0]
15400,1.6549676656723022,1.2221412658691406,-0.045672111213207245,0.043575793504714966,0.6261932849884033,3.456505537033081,4.05859375,1,"['C1', 'F2', 'F1']",6.1,270,0,2.1317321678466215,[15500|0|0]
15500,1.6551342010498047,1.2225209474563599,-0.04585440456867218,0.035918328911066055,0.6148112416267395,3.4156718254089355,4.05859375,1,"['C1', 'F2', 'F1']",6.1,270,0,2.132185072921753,[15600|0|0]
15600,1.654865026473999,1.2220271825790405,-0.046260569244623184,0.04683097079396248,0.6249995827674866,3.4527342319488525,4.05859375,1,"['C1', 'F2', 'F1']",6.1,270,0,2.1328787792359267,[15700|0|0]
15700,1.6550854444503784,1.2222356796264648,-0.04597045108675957,0.04005042463541031,0.6174813508987427,3.455782175064087,4.05859375,1,"['C1', 'F2', 'F1']",6.1,270,0,2.1332985692413082,[15800|0|0]
15800,1.6550720930099487,1.2226388454437256,-0.04599166661500931,0.030531076714396477,0.6258763670921326,3.4294450283050537,4.05859375,1,"['C1', 'F2', 'F1']",6.1,270,0,2.1337025135887226,[15900|0|0]
15900,1.6547716856002808,1.2221026420593262,-0.046011850237846375,0.04626484587788582,0.6364176273345947,3.404254198074341,4.05859375,1,"['C1', 'F2', 'F1']",6.1,270,0,2.134317465668039,[16000|0|0]
16000,1.6555603742599487,1.2220336198806763,-0.04579346254467964,0.09430400282144547,0.5631342530250549,3.3880178928375244,4.05859375,1,"['C1', 'F2', 'F1']",6.1,270,0,2.135138737272054,[16100|0|0]
16100,1.6557618379592896,1.2218658924102783,-0.04615345969796181,0.10907027870416641,0.5439750552177429,3.403707504272461,4.05859375,1,"['C1', 'F2', 'F1']",6.1,270,0,2.135584066450134,[16200|0|0]
16200,1.6558916568756104,1.2222447395324707,-0.04593392834067345,0.08744898438453674,0.5460954308509827,3.395899534225464,4.05859375,1,"['C1', 'F2', 'F1']",6.1,270,0,2.136040763406398,[16300|0|0]
16300,1.655704140663147,1.2221254110336304,-0.04615519195795059,0.08186621963977814,0.5441560745239258,3.4318838119506836,4.05859375,1,"['C1', 'F2', 'F1']",6.1,270,0,2.136354386123851,[16400|0|0]
16400,1.6569451093673706,1.2285163402557373,-0.0425422228872776,0.031189780682325363,0.4695744216442108,3.3857147693634033,4.05859375,1,"['C1', 'F2', 'F1']",6.1,270,0,2.143800024118844,[16500|0|0]
16500,1.6561577320098877,1.2218679189682007,-0.045184873044490814,0.281107634305954,0.44875985383987427,3.3642289638519287,4.05859375,1,"['C1', 'F2', 'F1']",6.1,270,0,2.150997597916525,[16600|0|0]
16600,1.6557731628417969,1.2211265563964844,-0.045674875378608704,0.22153912484645844,0.5369609594345093,3.357179880142212,4.05859375,1,"['C1', 'F2', 'F1']",6.1,270,0,2.151965902721444,[16700|0|0]
16700,1.6559990644454956,1.221672534942627,-0.045993100851774216,0.12310053408145905,0.574091374874115,3.3677291870117188,4.05859375,1,"['C1', 'F2', 'F1']",6.1,270,0,2.1526370149022105,[16800|0|0]
16800,1.6569539308547974,1.2212988138198853,-0.04371475428342819,0.0810626670718193,0.6045157313346863,3.333326578140259,4.05859375,1,"['C1', 'F2', 'F1']",6.1,270,0,2.1551354745121882,[16900|0|0]
16900,1.6554638147354126,1.2219611406326294,-0.04591204598546028,0.03722812235355377,0.6329488754272461,3.352536916732788,4.05859375,1,"['C1', 'F2', 'F1']",6.1,270,0,2.1578717518519235,[17000|0|0]
17000,1.655978798866272,1.2217293977737427,-0.04602134972810745,0.023710699751973152,0.6386029124259949,3.373706579208374,4.05859375,1,"['C1', 'F2', 'F1']",6.1,270,0,2.1584469567856983,[17100|0|0]
17100,1.655483365058899,1.2216954231262207,-0.04590247943997383,0.0030966424383223057,0.6676180362701416,3.4186246395111084,4.05859375,1,"['C1', 'F2', 'F1']",6.1,270,0,2.158957582949896,[17200|0|0]
17200,1.6556298732757568,1.2215694189071655,-0.04582974687218666,-0.008942969143390656,0.668935239315033,3.425567388534546,4.05859375,1,"['C1', 'F2', 'F1']",6.1,270,0,2.1591640575179265,[17300|0|0]
17300,1.6554102897644043,1.2220821380615234,-0.046035341918468475,-0.029194751754403114,0.674875795841217,3.4503884315490723,4.05859375,1,"['C1', 'F2', 'F1']",6.1,270,0,2.159758504464894,[17400|0|0]
17400,1.6556345224380493,1.2220627069473267,-0.04574129357933998,-0.025626154616475105,0.672553300857544,3.447758674621582,4.05859375,1,"['C1', 'F2', 'F1']",6.1,270,0,2.1601288047293727,[17500|0|0]
17500,1.6557047367095947,1.221808910369873,-0.04569004476070404,-0.017267774790525436,0.6661593317985535,3.434565782546997,4.05859375,1,"['C1', 'F2', 'F1']",6.1,270,0,2.1603970754658826,[17600|0|0]
17600,1.6558287143707275,1.222041368484497,-0.0460420697927475,-0.023657301440835,0.6531632542610168,3.4428935050964355,4.05859375,1,"['C1', 'F2', 'F1']",6.1,270,0,2.1608367672428126,[17700|0|0]
17700,1.6555662155151367,1.2220414876937866,-0.04567927122116089,-0.021759552881121635,0.660850465297699,3.433401107788086,4.05859375,1,"['C1', 'F2', 'F1']",6.1,270,0,2.161284571292529,[17800|0|0]
17800,1.6555843353271484,1.2217702865600586,-0.04624589532613754,-0.011510353535413742,0.6529466509819031,3.4324660301208496,4.05859375,1,"['C1', 'F2', 'F1']",6.1,270,0,2.161913014813351,[17900|0|0]
17900,1.6556015014648438,1.2216604948043823,-0.046117089688777924,0.0017829220741987228,0.6521511077880859,3.4487884044647217,4.05859375,1,"['C1', 'F2', 'F1']",6.1,270,0,2.1620831318263556,[18000|0|0]
18000,1.655672550201416,1.2219794988632202,-0.04550838842988014,0.0025330146308988333,0.6484975814819336,3.4315266609191895,4.05859375,1,"['C1', 'F2', 'F1']",6.1,270,0,2.162774021640369,[18100|0|0]
18100,1.6555509567260742,1.2220522165298462,-0.04583847150206566,0.007102791219949722,0.6525670886039734,3.442816734313965,4.05859375,1,"['C1', 'F2', 'F1']",6.1,270,0,2.1631332258536355,[18200|0|0]
18200,1.6558176279067993,1.2219210863113403,-0.04580172523856163,0.015019690617918968,0.6456186175346375,3.463094472885132,4.05859375,1,"['C1', 'F2', 'F1']",6.1,270,0,2.1634326568819477,[18300|0|0]
18300,1.6557073593139648,1.221877098083496,-0.04590572416782379,0.022162316367030144,0.6482831835746765,3.457988739013672,4.05859375,1,"['C1', 'F2', 'F1']",6.1,270,0,2.163590485599367,[18400|0|0]
18400,1.6555734872817993,1.2220017910003662,-0.04604287073016167,0.02478783205151558,0.6484553217887878,3.4750380516052246,4.05859375,1,"['C1', 'F2', 'F1']",6.1,270,0,2.1638191321039866,[18500|0|0]
18500,1.6556079387664795,1.2219834327697754,-0.04577210173010826,0.024083998054265976,0.6468654870986938,3.4420528411865234,4.05859375,1,"['C1', 'F2', 'F1']",6.1,270,0,2.1640927007074793,[18600|0|0]
18600,1.6555283069610596,1.2217860221862793,-0.04568762332201004,0.02877519093453884,0.6470890045166016,3.4052088260650635,4.0546875,1,"['C1', 'F2', 'F1']",6.1,270,0,2.1643217176595715,[18700|0|0]
18700,1.6553465127944946,1.2218093872070312,-0.045645732432603836,0.029006725177168846,0.6549531817436218,3.401670217514038,4.05859375,1,"['C1', 'F2', 'F1']",6.1,270,0,2.164509733323299,[18800|0|0]
18800,1.6556235551834106,1.2219120264053345,-0.04597225412726402,0.02893560193479061,0.6421644687652588,3.423089027404785,4.05859375,1,"['C1', 'F2', 'F1']",6.1,270,0,2.1649500783100635,[18900|0|0]
18900,1.6555209159851074,1.2222864627838135,-0.04589076340198517,0.027017736807465553,0.6486591100692749,3.403637409210205,4.05859375,1,"['C1', 'F2', 'F1']",6.1,270,0,2.1653467874539754,[19000|0|0]
19000,1.6555039882659912,1.222328543663025,-0.04608744755387306,0.02519456297159195,0.6434333920478821,3.422959566116333,4.05859375,1,"['C1', 'F2', 'F1']",6.1,270,0,2.1655486339393883,[19100|0|0]
19100,1.6556189060211182,1.2221719026565552,-0.045723553746938705,0.03234119340777397,0.6348000168800354,3.40911602973938,4.05859375,1,"['C1', 'F2', 'F1']",6.1,270,0,2.1659611399370133,[19200|0|0]
19200,1.6553279161453247,1.2218984365463257,-0.04569698125123978,0.029524682089686394,0.6368021368980408,3.406081438064575,4.05859375,1,"['C1', 'F2', 'F1']",6.1,270,0,2.1663613460324016,[19300|0|0]
19300,1.6554710865020752,1.2222108840942383,-0.045907050371170044,0.025718631222844124,0.6276435852050781,3.424515962600708,4.05859375,1,"['C1', 'F2', 'F1']",6.1,270,0,2.16676414903189,[19400|0|0]
19400,1.6554372310638428,1.222045660018921,-0.04573338106274605,0.028502553701400757,0.6321650743484497,3.4272301197052,4.05859375,1,"['C1', 'F2', 'F1']",6.1,270,0,2.167006236236118,[19500|0|0]
19500,1.655487298965454,1.221828579902649,-0.04567205533385277,0.033572569489479065,0.6410918235778809,3.4195921421051025,4.05859375,1,"['C1', 'F2', 'F1']",6.1,270,0,2.1672373020637012,[19600|0|0]
19600,1.6557177305221558,1.2219154834747314,-0.04590890184044838,0.03496910259127617,0.6263721585273743,3.437694787979126,4.0546875,1,"['C1', 'F2', 'F1']",6.1,270,0,2.1675789849588702,[19700|0|0]
19700,1.6554453372955322,1.2216808795928955,-0.045706916600465775,0.04600381478667259,0.6339343786239624,3.4564852714538574,4.05859375,1,"['C1', 'F2', 'F1']",6.1,270,0,2.167991338070237,[19800|0|0]
19800,1.6555074453353882,1.2217904329299927,-0.04594699293375015,0.036928825080394745,0.6234323382377625,3.4540467262268066,4.05859375,1,"['C1', 'F2', 'F1']",6.1,270,0,2.1682624395052885,[19900|0|0]
19900,1.654536485671997,1.222456455230713,-0.046087488532066345,0.026645351201295853,0.6134873032569885,3.4538962841033936,4.05859375,1,"['C1', 'F2', 'F1']",6.1,270,0,2.169448225061844,[20000|0|0]
20000,1.6576045751571655,1.2293801307678223,-0.03754207491874695,-0.14466772973537445,0.3982817530632019,3.399824857711792,4.05859375,1,"['C1', 'F2', 'F1']",6.1,270,0,2.1808663925967364,[20100|0|0]
20100,1.6583729982376099,1.2352155447006226,-0.033201854676008224,-0.14447318017482758,0.39115992188453674,3.362332582473755,4.05859375,1,"['C1', 'F2', 'F1']",6.1,270,0,2.1881793975572954,[20200|0|0]
20200,1.6556321382522583,1.2212272882461548,-0.045971017330884933,0.31091082096099854,0.5561286211013794,3.4346907138824463,4.05859375,1,"['C1', 'F2', 'F1']",6.1,270,0,2.2073166687055537,[20300|0|0]
20300,1.65678870677948,1.2217305898666382,-0.046116262674331665,0.2850727140903473,0.549172580242157,3.3649680614471436,4.05859375,1,"['C1', 'F2', 'F1']",6.1,270,0,2.208586337752642,[20400|0|0]
20400,1.6545031070709229,1.22011137008667,-0.04741279035806656,0.2756110727787018,0.6238227486610413,3.383678674697876,4.05859375,1,"['C1', 'F2', 'F1']",6.1,270,0,2.2116728929130574,[20500|0|0]
20500,1.6554970741271973,1.221016764640808,-0.0452418215572834,0.10519883781671524,0.5734363198280334,3.4333624839782715,4.05859375,1,"['C1', 'F2', 'F1']",6.1,270,0,2.214226481631233,[20600|0|0]
20600,1.655756950378418,1.2215266227722168,-0.045527223497629166,0.03970541059970856,0.6067716479301453,3.4155352115631104,4.0546875,1,"['C1', 'F2', 'F1']",6.1,270,0,2.2148659699013877,[20700|0|0]
20700,1.6557931900024414,1.2213003635406494,-0.045603636652231216,0.01933625526726246,0.5986265540122986,3.4967355728149414,4.05859375,1,"['C1', 'F2', 'F1']",6.1,270,0,2.215107518075496,[20800|0|0]
20800,1.6559677124023438,1.2215607166290283,-0.045468103140592575,0.04086487367749214,0.5809030532836914,3.520049571990967,4.05859375,1,"['C1', 'F2', 'F1']",6.1,270,0,2.215449001796152,[20900|0|0]
20900,1.6562225818634033,1.2218666076660156,-0.045387476682662964,-0.009672272950410843,0.5666977763175964,3.5119824409484863,4.05859375,1,"['C1', 'F2', 'F1']",6.1,270,0,2.2158552386659807,[21000|0|0]
21000,1.6558510065078735,1.221836805343628,-0.045261263847351074,-0.0423675961792469,0.5517076849937439,3.4948348999023438,4.05859375,1,"['C1', 'F2', 'F1']",6.1,270,0,2.216248794383833,[21100|0|0]
21100,1.6562031507492065,1.2222051620483398,-0.04519086703658104,-0.04426024481654167,0.5500968098640442,3.4658050537109375,4.05859375,1,"['C1', 'F2', 'F1']",6.1,270,0,2.216763233825922,[21200|0|0]
21200,1.6560715436935425,1.222130298614502,-0.04507782682776451,-0.0384339913725853,0.5280082821846008,3.4578564167022705,4.05859375,1,"['C1', 'F2', 'F1']",6.1,270,0,2.216952186305757,[21300|0|0]
21300,1.655452847480774,1.2221109867095947,-0.04532843455672264,-0.01420049648731947,0.627017080783844,3.4522461891174316,4.05859375,1,"['C1', 'F2', 'F1']",6.1,270,0,2.217619990309323,[21400|0|0]
21400,1.6554456949234009,1.2219960689544678,-0.045915935188531876,-0.042006827890872955,0.673054575920105,3.4437084197998047,4.05859375,1,"['C1', 'F2', 'F1']",6.1,270,0,2.218218667385798,[21500|0|0]
21500,1.6553797721862793,1.2222716808319092,-0.04608611762523651,-0.034205950796604156,0.6674942970275879,3.4004242420196533,4.05859375,1,"['C1', 'F2', 'F1']",6.1,270,0,2.218549227177695,[21600|0|0]
21600,1.6552553176879883,1.2219247817993164,-0.045730967074632645,-0.012914813123643398,0.6648873686790466,3.399735450744629,4.0546875,1,"['C1', 'F2', 'F1']",6.1,270,0,2.2190610472384127,[21700|0|0]
21700,1.6555838584899902,1.2219679355621338,-0.04594020918011665,0.004168370738625526,0.6503109335899353,3.4232826232910156,4.05859375,1,"['C1', 'F2', 'F1']",6.1,270,0,2.219452944628724,[21800|0|0]
21800,1.655555248260498,1.221932053565979,-0.045993831008672714,0.017702298238873482,0.6471959352493286,3.435453414916992,4.05859375,1,"['C1', 'F2', 'F1']",6.1,270,0,2.2195235234029935,[21900|0|0]
21900,1.6554532051086426,1.222092866897583,-0.04546848312020302,-0.0327305905520916,0.6127120852470398,3.416145086288452,4.05859375,1,"['C1', 'F2', 'F1']",6.1,270,0,2.220082329394713,[22000|0|0]
22000,1.655083417892456,1.2221332788467407,-0.045856088399887085,-0.01478151697665453,0.6312848329544067,3.389404058456421,4.05859375,1,"['C1', 'F2', 'F1']",6.1,270,0,2.220619557059422,[22100|0|0]
22100,1.6552734375,1.2221224308013916,-0.045752689242362976,-0.03460133448243141,0.5964471697807312,3.3956754207611084,4.0546875,1,"['C1', 'F2', 'F1']",6.1,270,0,2.220836159268819,[22200|0|0]
22200,1.6553999185562134,1.221699833869934,-0.045759167522192,-0.02053813636302948,0.6057417392730713,3.413012981414795,4.05859375,1,"['C1', 'F2', 'F1']",6.1,270,0,2.221277325441783,[22300|0|0]
22300,1.6554745435714722,1.221967101097107,-0.046066250652074814,0.01391487754881382,0.6200789213180542,3.416919231414795,4.05859375,1,"['C1', 'F2', 'F1']",6.1,270,0,2.221691210343998,[22400|0|0]
22400,1.655287742614746,1.2223055362701416,-0.04606074467301369,0.03502748906612396,0.6451601386070251,3.414670705795288,4.05859375,1,"['C1', 'F2', 'F1']",6.1,270,0,2.2220778151546074,[22500|0|0]
22500,1.6553328037261963,1.2219605445861816,-0.045827608555555344,0.012937501072883606,0.6137533783912659,3.42842960357666,4.05859375,1,"['C1', 'F2', 'F1']",6.1,270,0,2.2224966256308734,[22600|0|0]
22600,1.655438780784607,1.2222018241882324,-0.04545547068119049,-0.010872475802898407,0.595432460308075,3.4158101081848145,4.05859375,1,"['C1', 'F2', 'F1']",6.1,270,0,2.222952622978247,[22700|0|0]
22700,1.6554064750671387,1.22212553024292,-0.045787595212459564,0.011626270599663258,0.6128533482551575,3.4415643215179443,4.05859375,1,"['C1', 'F2', 'F1']",6.1,270,0,2.223294925665562,[22800|0|0]
22800,1.655563473701477,1.221907138824463,-0.04583755508065224,0.03138255700469017,0.6312488317489624,3.4297263622283936,4.05859375,1,"['C1', 'F2', 'F1']",6.1,270,0,2.223568493520526,[22900|0|0]
22900,1.6554456949234009,1.222458839416504,-0.04597257822751999,0.04214594513177872,0.6450954675674438,3.4392011165618896,4.05859375,1,"['C1', 'F2', 'F1']",6.1,270,0,2.224148559580569,[23000|0|0]
23000,1.6555469036102295,1.222130298614502,-0.045524295419454575,0.013647811487317085,0.6099249720573425,3.4136040210723877,4.05859375,1,"['C1', 'F2', 'F1']",6.1,270,0,2.224713484117898,[23100|0|0]
23100,1.6552921533584595,1.2218605279922485,-0.04562315717339516,0.05043338984251022,0.65097576379776,3.4337916374206543,4.0546875,1,"['C1', 'F2', 'F1']",6.1,270,0,2.225097473083625,[23200|0|0]
23200,1.6554502248764038,1.2218616008758545,-0.0457560271024704,0.07044914364814758,0.6680220365524292,3.441598892211914,4.05859375,1,"['C1', 'F2', 'F1']",6.1,270,0,2.2253039728994044,[23300|0|0]
23300,1.6554934978485107,1.2221261262893677,-0.04583308473229408,0.07405812293291092,0.6723617315292358,3.4514007568359375,4.05859375,1,"['C1', 'F2', 'F1']",6.1,270,0,2.225582870950354,[23400|0|0]
23400,1.6554858684539795,1.2220405340194702,-0.0457615852355957,0.0901145488023758,0.6768947243690491,3.4500887393951416,4.05859375,1,"['C1', 'F2', 'F1']",6.1,270,0,2.22569465834837,[23500|0|0]
23500,1.6556177139282227,1.2222511768341064,-0.04550797864794731,0.03870401903986931,0.6354515552520752,3.444570541381836,4.05859375,1,"['C1', 'F2', 'F1']",6.1,270,0,2.2260497216184145,[23600|0|0]
23600,1.658183217048645,1.2261559963226318,-0.04178794100880623,-0.0707612931728363,0.536443293094635,3.3981521129608154,4.0546875,1,"['C1', 'F2', 'F1']",6.1,270,0,2.232021999369448,[23700|0|0]
23700,1.6580027341842651,1.225706934928894,-0.04177362471818924,-0.055106163024902344,0.5586331486701965,3.407285690307617,4.05859375,1,"['C1', 'F2', 'F1']",6.1,270,0,2.2325061844124403,[23800|0|0]
23800,1.6579692363739014,1.2257275581359863,-0.04178488254547119,-0.00016164337284862995,0.5925931334495544,3.3982303142547607,4.05859375,1,"['C1', 'F2', 'F1']",6.1,270,0,2.232547100896222,[23900|0|0]
23900,1.6577976942062378,1.2259663343429565,-0.04214807599782944,-0.02172732912003994,0.5763521194458008,3.361820936203003,4.05859375,1,"['C1', 'F2', 'F1']",6.1,270,0,2.233014380551394,[24000|0|0]
24000,1.6577825546264648,1.225633978843689,-0.04141136631369591,-0.08637988567352295,0.5225886106491089,3.392024040222168,4.05859375,1,"['C1', 'F2', 'F1']",6.1,270,0,2.2338227310591967,[24100|0|0]
24100,1.65799880027771,1.2254735231399536,-0.04169983044266701,-0.015857728198170662,0.5619845390319824,3.39266037940979,4.05859375,1,"['C1', 'F2', 'F1']",6.1,270,0,2.23421734450074,[24200|0|0]
24200,1.6579344272613525,1.2258204221725464,-0.04168093204498291,-0.038617245852947235,0.5592373013496399,3.398611307144165,4.05859375,1,"['C1', 'F2', 'F1']",6.1,270,0,2.2345706715071856,[24300|0|0]
24300,1.657849907875061,1.226201057434082,-0.04213246703147888,-0.043665919452905655,0.5656346082687378,3.456392765045166,4.05859375,1,"['C1', 'F2', 'F1']",6.1,270,0,2.235167253918101,[24400|0|0]
24400,1.6578593254089355,1.226128101348877,-0.04208825156092644,-0.03658261522650719,0.5660377144813538,3.431194543838501,4.05859375,1,"['C1', 'F2', 'F1']",6.1,270,0,2.2352530810009412,[24500|0|0]
24501,1.6556118726730347,1.2216824293136597,-0.04521404579281807,-0.02867520973086357,0.5828005075454712,3.464735984802246,4.05859375,1,"['C1', 'F2', 'F1']",6.1,270,0,2.24113403612957,[24600|0|0]
24601,1.655715823173523,1.2215211391448975,-0.045515015721321106,0.0017809952842071652,0.5911662578582764,3.4789974689483643,4.0546875,1,"['C1', 'F2', 'F1']",6.1,270,0,2.2414909718702214,[24700|0|0]
24701,1.6554580926895142,1.2218109369277954,-0.04588613286614418,0.0029965506400913,0.6164657473564148,3.4897892475128174,4.05859375,1,"['C1', 'F2', 'F1']",6.1,270,0,2.2420277545939946,[24800|0|0]
24801,1.6580301523208618,1.2257485389709473,-0.04186723381280899,-0.06050034984946251,0.5468587875366211,3.4604828357696533,4.05859375,1,"['C1', 'F2', 'F1']",6.1,270,0,2.2482141711818375,[24900|0|0]
24901,1.658013939857483,1.2253296375274658,-0.04203089699149132,-0.04286585748195648,0.5555823445320129,3.4558308124542236,4.05859375,1,"['C1', 'F2', 'F1']",6.1,270,0,2.2486642010690407,[25000|0|0]
25001,1.657768726348877,1.2254585027694702,-0.04181941598653793,-0.04072456434369087,0.5590619444847107,3.449337959289551,4.05859375,1,"['C1', 'F2', 'F1']",6.1,270,0,2.2490127123756807,[25100|0|0]
25101,1.6580294370651245,1.22633695602417,-0.04207511991262436,-0.06780301779508591,0.5457002520561218,3.4507129192352295,4.0546875,1,"['C1', 'F2', 'F1']",6.1,270,0,2.24996404549088,[25200|0|0]
25201,1.6580950021743774,1.2263861894607544,-0.04193868115544319,-0.04957442730665207,0.5528016090393066,3.4200055599212646,4.05859375,1,"['C1', 'F2', 'F1']",6.1,270,0,2.25012322541829,[25300|0|0]
25301,1.6581789255142212,1.226338267326355,-0.041757382452487946,-0.035783544182777405,0.5473279356956482,3.445204496383667,4.05859375,1,"['C1', 'F2', 'F1']",6.1,270,0,2.250328673410807,[25400|0|0]
25401,1.658208966255188,1.2262705564498901,-0.041371215134859085,-0.09516377002000809,0.4957120418548584,3.453341007232666,4.05859375,1,"['C1', 'F2', 'F1']",6.1,270,0,2.250721881251667,[25500|0|0]
25501,1.658007264137268,1.2259135246276855,-0.041375014930963516,-0.09512977302074432,0.5159920454025269,3.4375925064086914,4.05859375,1,"['C1', 'F2', 'F1']",6.1,270,0,2.2511319664926726,[25600|0|0]
25602,1.6576533317565918,1.2265551090240479,-0.04138289764523506,-0.09504477679729462,0.5304566621780396,3.448817491531372,4.0546875,1,"['C1', 'F2', 'F1']",6.1,270,0,2.25186474258735,[25700|0|0]
25702,1.6575982570648193,1.2261734008789062,-0.04187103733420372,-0.08609845489263535,0.5335783362388611,3.439640998840332,4.05859375,1,"['C1', 'F2', 'F1']",6.1,270,0,2.2524868476312836,[25800|0|0]
25802,1.6579669713974,1.2265552282333374,-0.04157056659460068,-0.09576595574617386,0.5246608853340149,3.3863964080810547,4.05859375,1,"['C1', 'F2', 'F1']",6.1,270,0,2.2530967861962226,[25900|0|0]
25902,1.6578528881072998,1.226413607597351,-0.041398968547582626,-0.08912117779254913,0.5286750793457031,3.3997433185577393,4.05859375,1,"['C1', 'F2', 'F1']",6.1,270,0,2.2533468207765464,[26000|0|0]
26002,1.6577913761138916,1.2260464429855347,-0.04160838574171066,-0.07171143591403961,0.5255655646324158,3.373584032058716,4.05859375,1,"['C1', 'F2', 'F1']",6.1,270,0,2.253773961431015,[26100|0|0]
26102,1.6580173969268799,1.2259504795074463,-0.042049143463373184,-0.07525493949651718,0.5267528295516968,3.406761884689331,4.0546875,1,"['C1', 'F2', 'F1']",6.1,270,0,2.25427850257526,[26200|0|0]
26202,1.6577004194259644,1.225526213645935,-0.04180942103266716,-0.06441410630941391,0.5414001941680908,3.40838885307312,4.05859375,1,"['C1', 'F2', 'F1']",6.1,270,0,2.2548598313128205,[26300|0|0]
26302,1.6581929922103882,1.2256461381912231,-0.04161269590258598,-0.07095592468976974,0.5325336456298828,3.429335594177246,4.05859375,1,"['C1', 'F2', 'F1']",6.1,270,0,2.255403624123846,[26400|0|0]
26402,1.6576858758926392,1.2253906726837158,-0.04197081923484802,-0.06325726211071014,0.5505922436714172,3.410796880722046,4.05859375,1,"['C1', 'F2', 'F1']",6.1,270,0,2.2560749525876878,[26500|0|0]
26500,1.657783031463623,1.2254315614700317,-0.04159999266266823,-0.06903723627328873,0.5424383878707886,3.399052858352661,4.05859375,1,"['C1', 'F2', 'F1']",6.1,270,0,2.2564604697007375,[26600|0|0]
26600,1.657613754272461,1.2255377769470215,-0.0419519767165184,-0.07058130204677582,0.5441697835922241,3.377070665359497,4.0546875,1,"['C1', 'F2', 'F1']",6.1,270,0,2.2568652279856,[26700|0|0]
26700,1.658008337020874,1.225644826889038,-0.041792914271354675,-0.06957307457923889,0.5300007462501526,3.364663600921631,4.05859375,1,"['C1', 'F2', 'F1']",6.1,270,0,2.2573039261698824,[26800|0|0]
26800,1.6582311391830444,1.2258615493774414,-0.0418943352997303,-0.07165764272212982,0.5263402462005615,3.398186683654785,4.05859375,1,"['C1', 'F2', 'F1']",6.1,270,0,2.2576308751956407,[26900|0|0]
26900,1.6578598022460938,1.2255587577819824,-0.04177134484052658,-0.05483978986740112,0.5422563552856445,3.415501356124878,4.05859375,1,"['C1', 'F2', 'F1']",6.1,270,0,2.2581255473336066,[27000|0|0]
27000,1.6579198837280273,1.2254995107650757,-0.04173429310321808,-0.05392682924866676,0.5351558923721313,3.4072530269622803,4.05859375,1,"['C1', 'F2', 'F1']",6.1,270,0,2.2582177038565514,[27100|0|0]
27100,1.6580770015716553,1.2253811359405518,-0.041804321110248566,-0.051071662455797195,0.5359851717948914,3.4093010425567627,4.05859375,1,"['C1', 'F2', 'F1']",6.1,270,0,2.2584265160631776,[27200|0|0]
27200,1.6577171087265015,1.2255939245224,-0.041861262172460556,-0.059689827263355255,0.5417302846908569,3.4206178188323975,4.05859375,1,"['C1', 'F2', 'F1']",6.1,270,0,2.2588484688154185,[27300|0|0]
27300,1.65794038772583,1.2257106304168701,-0.04174434393644333,-0.05843031033873558,0.5290960073471069,3.4109339714050293,4.05859375,1,"['C1', 'F2', 'F1']",6.1,270,0,2.259126216274918,[27400|0|0]
27400,1.657936930656433,1.2259547710418701,-0.0417509600520134,-0.06985123455524445,0.5311754941940308,3.3709444999694824,4.05859375,1,"['C1', 'F2', 'F1']",6.1,270,0,2.2593704709966524,[27500|0|0]
27500,1.6578727960586548,1.2259488105773926,-0.04164723679423332,-0.07437927275896072,0.5387322902679443,3.357625722885132,4.05859375,1,"['C1', 'F2', 'F1']",6.1,270,0,2.259492566401863,[27600|0|0]
27600,1.658105492591858,1.2255189418792725,-0.041730280965566635,-0.0662676990032196,0.5419741272926331,3.354288101196289,4.05859375,1,"['C1', 'F2', 'F1']",6.1,270,0,2.2599883799843523,[27700|0|0]
27700,1.6579430103302002,1.2256966829299927,-0.041939590126276016,-0.07688196748495102,0.5454749464988708,3.3624143600463867,4.05859375,1,"['C1', 'F2', 'F1']",6.1,270,0,2.2603074453244028,[27800|0|0]
27800,1.6575943231582642,1.2257808446884155,-0.04193277284502983,-0.08089223504066467,0.5499114394187927,3.3538498878479004,4.05859375,1,"['C1', 'F2', 'F1']",6.1,270,0,2.260666210457571,[27900|0|0]
27900,1.657862901687622,1.225625991821289,-0.0421302504837513,-0.07474455237388611,0.539172887802124,3.3537380695343018,4.05859375,1,"['C1', 'F2', 'F1']",6.1,270,0,2.261033785286258,[28000|0|0]
28000,1.6581910848617554,1.2259279489517212,-0.04142850637435913,-0.08130919188261032,0.539425790309906,3.373788356781006,4.05859375,1,"['C1', 'F2', 'F1']",6.1,270,0,2.2618652461088287,[28100|0|0]
28100,1.657816767692566,1.2256059646606445,-0.04171990603208542,-0.07555271685123444,0.5490180253982544,3.3871066570281982,4.05859375,1,"['C1', 'F2', 'F1']",6.1,270,0,2.2624385706132526,[28200|0|0]
28200,1.6579768657684326,1.2258155345916748,-0.04170479252934456,-0.08216515928506851,0.5399959683418274,3.390430212020874,4.05859375,1,"['C1', 'F2', 'F1']",6.1,270,0,2.262702728459726,[28300|0|0]
28300,1.657835841178894,1.225541591644287,-0.04157785698771477,-0.07977544516324997,0.5347269177436829,3.3981549739837646,4.05859375,1,"['C1', 'F2', 'F1']",6.1,270,0,2.2630359630692833,[28400|0|0]
28400,1.6576586961746216,1.2258145809173584,-0.041854217648506165,-0.0826328918337822,0.537647008895874,3.3946189880371094,4.05859375,1,"['C1', 'F2', 'F1']",6.1,270,0,2.263462904178318,[28500|0|0]
28500,1.657902479171753,1.2257506847381592,-0.041464418172836304,-0.07215572148561478,0.5261589288711548,3.4262290000915527,4.05859375,1,"['C1', 'F2', 'F1']",6.1,270,0,2.263927077101526,[28600|0|0]
28600,1.6578232049942017,1.2257955074310303,-0.04155509173870087,-0.07496470212936401,0.5275970101356506,3.4080958366394043,4.05859375,1,"['C1', 'F2', 'F1']",6.1,270,0,2.264055588441762,[28700|0|0]
28700,1.6579530239105225,1.2255980968475342,-0.04143698140978813,-0.06539957970380783,0.5241869688034058,3.401759386062622,4.05859375,1,"['C1', 'F2', 'F1']",6.1,270,0,2.264319736012841,[28800|0|0]
28800,1.657697319984436,1.2254002094268799,-0.04204156994819641,-0.0672251507639885,0.5340455174446106,3.3833835124969482,4.05859375,1,"['C1', 'F2', 'F1']",6.1,270,0,2.265005353420616,[28900|0|0]
28900,1.6581910848617554,1.2256242036819458,-0.04151736572384834,-0.07169283181428909,0.5196647644042969,3.3983936309814453,4.05859375,1,"['C1', 'F2', 'F1']",6.1,270,0,2.265759520013088,[29000|0|0]
29000,1.6580133438110352,1.2256357669830322,-0.041711464524269104,-0.07456766813993454,0.5272127985954285,3.4092986583709717,4.05859375,1,"['C1', 'F2', 'F1']",6.1,270,0,2.266022958687864,[29100|0|0]
29100,1.6580352783203125,1.2255557775497437,-0.041783615946769714,-0.0757555142045021,0.5308379530906677,3.431251287460327,4.05859375,1,"['C1', 'F2', 'F1']",6.1,270,0,2.2661328916670103,[29200|0|0]
29200,1.6581517457962036,1.2258036136627197,-0.041823845356702805,-0.08226749300956726,0.5305964946746826,3.4484364986419678,4.05859375,1,"['C1', 'F2', 'F1']",6.1,270,0,2.2664096692261784,[29300|0|0]
29300,1.6577321290969849,1.2257832288742065,-0.041849102824926376,-0.07657734304666519,0.5446258187294006,3.4613707065582275,4.05859375,1,"['C1', 'F2', 'F1']",6.1,270,0,2.2668305393410204,[29400|0|0]
29400,1.6579421758651733,1.2256239652633667,-0.04148804396390915,-0.07701042294502258,0.5324415564537048,3.4656097888946533,4.05859375,1,"['C1', 'F2', 'F1']",6.1,270,0,2.2672775830119107,[29500|0|0]
29500,1.6581286191940308,1.2256256341934204,-0.04137546941637993,-0.08549856394529343,0.5247209668159485,3.4455859661102295,4.05859375,1,"['C1', 'F2', 'F1']",6.1,270,0,2.2674953832161218,[29600|0|0]
29600,1.657996654510498,1.2257148027420044,-0.041828908026218414,-0.08685747534036636,0.5323348045349121,3.4597713947296143,4.05859375,1,"['C1', 'F2', 'F1']",6.1,270,0,2.2679759789720837,[29700|0|0]
29700,1.6582164764404297,1.2258353233337402,-0.041667453944683075,-0.088422030210495,0.5198978781700134,3.4547693729400635,4.05859375,1,"['C1', 'F2', 'F1']",6.1,270,0,2.268274164005839,[29800|0|0]
29800,1.6580915451049805,1.2258796691894531,-0.04189088195562363,-0.08176819980144501,0.5341358184814453,3.4601688385009766,4.05859375,1,"['C1', 'F2', 'F1']",6.1,270,0,2.2685339609834365,[29900|0|0]
29900,1.6578810214996338,1.2251814603805542,-0.041715048253536224,-0.06004013493657112,0.5442661046981812,3.4495391845703125,4.05859375,1,"['C1', 'F2', 'F1']",6.1,270,0,2.2692841164473383,[30000|0|0]
30000,1.6581188440322876,1.225892424583435,-0.04136919602751732,-0.08311359584331512,0.5320889353752136,3.445152521133423,4.05859375,1,"['C1', 'F2', 'F1']",6.1,270,0,2.2701097334390834,[30100|0|0]
30100,1.657819151878357,1.2256451845169067,-0.041887108236551285,-0.07697775214910507,0.5287628173828125,3.4098875522613525,4.05859375,1,"['C1', 'F2', 'F1']",6.1,270,0,2.270757171539515,[30200|0|0]
