time.ms,stateEstimate.x,stateEstimate.y,stateEstimate.z,stabilizer.roll,stabilizer.pitch,stabilizer.yaw,pm.vbat,drone_id,node_name,wind_speed,global_wind_direction,relative_wind_direction,travel_dist,waiting_time
0,1.1845592260360718,-0.17255163192749023,-0.2656944990158081,-0.2999078929424286,0.6310657858848572,5.186182022094727,4.03125,0,"['C1', 'F2', 'F1']",6.1,270,0,0.3042355996769227,[100|0|0]
100,0.27645930647850037,0.21692313253879547,0.6349477767944336,-0.00021445154561661184,0.0012416127137839794,1.1065325736999512,4.03125,0,"['C1', 'F2', 'F1']",6.1,270,0,1.6412070148661884,[200|0|0]
200,1.2908591032028198,-0.32154062390327454,-0.001982291229069233,-0.5694398880004883,-1.1236876249313354,4.6568403244018555,4.03125,0,"['C1', 'F2', 'F1']",6.1,270,0,2.9544587333681935,[300|0|0]
300,1.2895034551620483,-0.32166802883148193,-0.0011614279355853796,-0.812543511390686,0.2574678063392639,5.251925468444824,4.03125,0,"['C1', 'F2', 'F1']",6.1,270,0,2.9560486485145985,[400|0|0]
400,1.2876880168914795,-0.321788489818573,-0.0007085885154083371,-0.8352285623550415,1.4292961359024048,5.556603908538818,4.03125,0,"['C1', 'F2', 'F1']",6.1,270,0,2.9579235859813218,[500|0|0]
500,1.2866498231887817,-0.3213406205177307,-0.0007519416976720095,-0.8373752236366272,1.8074746131896973,5.688708305358887,4.03125,0,"['C1', 'F2', 'F1']",6.1,270,0,2.9590550949620065,[600|0|0]
600,1.2857296466827393,-0.32141247391700745,-0.0008240907918661833,-0.7485343813896179,1.8399866819381714,5.689098834991455,4.03125,0,"['C1', 'F2', 'F1']",6.1,270,0,2.9599808882461973,[700|0|0]
700,1.2855387926101685,-0.32150745391845703,-0.0006339922547340393,-0.657201886177063,1.7304781675338745,5.69993782043457,4.03125,0,"['C1', 'F2', 'F1']",6.1,270,0,2.960266517256475,[800|0|0]
800,1.2857623100280762,-0.3215016722679138,-0.00017186676268465817,-0.5986179709434509,1.5721217393875122,5.652097225189209,4.03125,0,"['C1', 'F2', 'F1']",6.1,270,0,2.960779891811739,[900|0|0]
900,1.2856762409210205,-0.32133543491363525,-0.0005712195998057723,-0.5565534234046936,1.4247486591339111,5.617894172668457,4.03125,0,"['C1', 'F2', 'F1']",6.1,270,0,2.9612209421917,[1000|0|0]
1000,1.2855621576309204,-0.32132193446159363,-0.0003890827647410333,-0.5231311321258545,1.306527018547058,5.591596603393555,4.03125,0,"['C1', 'F2', 'F1']",6.1,270,0,2.961436281658526,[1100|0|0]
1100,1.2857626676559448,-0.3213687241077423,-0.00039759965147823095,-0.4882563054561615,1.180537223815918,5.536316871643066,4.03125,0,"['C1', 'F2', 'F1']",6.1,270,0,2.9616423546516173,[1200|0|0]
1200,1.285832166671753,-0.3214012086391449,-0.00021197099704295397,-0.4588572084903717,1.0752180814743042,5.504698753356934,4.03125,0,"['C1', 'F2', 'F1']",6.1,270,0,2.9618432112057205,[1300|0|0]
1300,1.2857075929641724,-0.321221262216568,-0.0005713910795748234,-0.44785797595977783,0.9918947219848633,5.4625983238220215,4.03125,0,"['C1', 'F2', 'F1']",6.1,270,0,2.962264022469051,[1400|0|0]
1400,1.2856769561767578,-0.32167303562164307,-0.0006999646429903805,-0.41791069507598877,0.9214489459991455,5.4299540519714355,4.03125,0,"['C1', 'F2', 'F1']",6.1,270,0,2.9627347336156,[1500|0|0]
1500,1.2862739562988281,-0.3215084671974182,-0.00016424577916041017,-0.41613253951072693,0.8364889025688171,5.40490198135376,4.03125,0,"['C1', 'F2', 'F1']",6.1,270,0,2.9635535660850754,[1600|0|0]
1600,1.2859892845153809,-0.32135844230651855,-0.00034086679806932807,-0.4222979247570038,0.7798234224319458,5.39398717880249,4.03125,0,"['C1', 'F2', 'F1']",6.1,270,0,2.9639206362098482,[1700|0|0]
1700,1.285876750946045,-0.3213985860347748,-0.0006281774840317667,-0.41487666964530945,0.7354601621627808,5.383044719696045,4.03125,0,"['C1', 'F2', 'F1']",6.1,270,0,2.964231799757543,[1800|0|0]
1800,1.2862458229064941,-0.32137441635131836,-0.0001848347019404173,-0.40632131695747375,0.6867271661758423,5.346374988555908,4.03125,0,"['C1', 'F2', 'F1']",6.1,270,0,2.9648091654198585,[1900|0|0]
1900,1.2864347696304321,-0.32135456800460815,-0.000562286120839417,-0.40517371892929077,0.6399624943733215,5.358033180236816,4.03125,0,"['C1', 'F2', 'F1']",6.1,270,0,2.965231734224887,[2000|0|0]
2000,1.2860677242279053,-0.3216688930988312,-0.0008920123800635338,-0.39465805888175964,0.6198347806930542,5.343632221221924,4.03125,0,"['C1', 'F2', 'F1']",6.1,270,0,2.9658167487532503,[2100|0|0]
2100,1.2864363193511963,-0.3214483857154846,-0.0003202019724994898,-0.3943273425102234,0.5776659250259399,5.337687969207764,4.02734375,0,"['C1', 'F2', 'F1']",6.1,270,0,2.9665319081852815,[2200|0|0]
2200,1.28644859790802,-0.3215000629425049,-0.0003119131433777511,-0.3983263671398163,0.5587440729141235,5.339571952819824,4.03125,0,"['C1', 'F2', 'F1']",6.1,270,0,2.966585666937484,[2300|0|0]
2300,1.2864304780960083,-0.3214276432991028,-0.0008526886813342571,-0.4031393229961395,0.5431020855903625,5.333195209503174,4.03125,0,"['C1', 'F2', 'F1']",6.1,270,0,2.967131570880307,[2400|0|0]
2400,1.2866184711456299,-0.3215254247188568,-0.00016364833572879434,-0.38823401927948,0.5392332673072815,5.342261791229248,4.03125,0,"['C1', 'F2', 'F1']",6.1,270,0,2.9678524586598036,[2500|0|0]
2500,1.286704421043396,-0.32175713777542114,-0.0003485067863948643,-0.3866058588027954,0.5277990698814392,5.333533763885498,4.03125,0,"['C1', 'F2', 'F1']",6.1,270,0,2.9681610862222327,[2600|0|0]
2600,1.286399245262146,-0.321250319480896,-0.0008357251645065844,-0.40060490369796753,0.526610255241394,5.314636707305908,4.03125,0,"['C1', 'F2', 'F1']",6.1,270,0,2.968927492634717,[2700|0|0]
2700,1.2866090536117554,-0.3213104009628296,-0.0004974157782271504,-0.4026377499103546,0.5144507884979248,5.321960926055908,4.03125,0,"['C1', 'F2', 'F1']",6.1,270,0,2.9693300874296185,[2800|0|0]
2800,1.2865122556686401,-0.32154300808906555,-0.00023096834775060415,-0.39660391211509705,0.5145177245140076,5.303897857666016,4.03125,0,"['C1', 'F2', 'F1']",6.1,270,0,2.969696789147878,[2900|0|0]
2900,1.2868430614471436,-0.3215276896953583,-0.0002972899819724262,-0.39548200368881226,0.5004764795303345,5.302113056182861,4.03125,0,"['C1', 'F2', 'F1']",6.1,270,0,2.9700345252511346,[3000|0|0]
3000,1.286450982093811,-0.3214925229549408,-0.0006799917900934815,-0.3933609426021576,0.5084686279296875,5.318392276763916,4.03125,0,"['C1', 'F2', 'F1']",6.1,270,0,2.970583545827143,[3100|0|0]
3100,1.2871440649032593,-0.3214777112007141,-0.0008052715566009283,-0.39482247829437256,0.5124655961990356,5.313604354858398,4.03125,0,"['C1', 'F2', 'F1']",6.1,270,0,2.9712880159746384,[3200|0|0]
3200,1.2870596647262573,-0.3217516243457794,-0.0011031164322048426,-0.3907819390296936,0.5100477337837219,5.336289882659912,4.03125,0,"['C1', 'F2', 'F1']",6.1,270,0,2.971701372202172,[3300|0|0]
3300,1.287177562713623,-0.32208776473999023,-0.0006445780745707452,-0.3842480778694153,0.5030829906463623,5.3398308753967285,4.03125,0,"['C1', 'F2', 'F1']",6.1,270,0,2.972282016435302,[3400|0|0]
3400,1.287284255027771,-0.3218011260032654,-0.0005008223815821111,-0.3873049318790436,0.4981480836868286,5.32261848449707,4.03125,0,"['C1', 'F2', 'F1']",6.1,270,0,2.9726199671928923,[3500|0|0]
3500,1.2873826026916504,-0.3217155337333679,-0.0006564175710082054,-0.40029388666152954,0.49056166410446167,5.3469390869140625,4.03125,0,"['C1', 'F2', 'F1']",6.1,270,0,2.9728229651303923,[3600|0|0]
3600,1.2872669696807861,-0.3222867548465729,-0.0010410645045340061,-0.38814249634742737,0.49073758721351624,5.366910934448242,4.03125,0,"['C1', 'F2', 'F1']",6.1,270,0,2.973521261497878,[3700|0|0]
3700,1.287111520767212,-0.32176244258880615,-0.0009400680428370833,-0.4103766977787018,0.4846668839454651,5.382271766662598,4.03125,0,"['C1', 'F2', 'F1']",6.1,270,0,2.9740773801845366,[3800|0|0]
3800,1.2872635126113892,-0.32194554805755615,-0.001046596560627222,-0.41038694977760315,0.47682124376296997,5.368832588195801,4.03125,0,"['C1', 'F2', 'F1']",6.1,270,0,2.9743381050557804,[3900|0|0]
3900,1.287432312965393,-0.32168203592300415,-0.0005391428130678833,-0.4554743468761444,0.4197593331336975,5.343291759490967,4.02734375,0,"['C1', 'F2', 'F1']",6.1,270,0,2.974934294212408,[4000|0|0]
4000,1.2867584228515625,-0.32174044847488403,-0.0003361411509104073,-0.48658740520477295,0.40477973222732544,5.332108020782471,4.03125,0,"['C1', 'F2', 'F1']",6.1,270,0,2.975640516264297,[4100|0|0]
4100,1.286851406097412,-0.32132789492607117,-0.00021031236974522471,-0.4885355532169342,0.4045279324054718,5.3469953536987305,4.03125,0,"['C1', 'F2', 'F1']",6.1,270,0,2.976081740920018,[4200|0|0]
4200,1.2872917652130127,-0.3217181861400604,-0.0006907208589836955,-0.46565520763397217,0.41464725136756897,5.357593059539795,4.03125,0,"['C1', 'F2', 'F1']",6.1,270,0,2.976841369578602,[4300|0|0]
4300,1.2873948812484741,-0.32199952006340027,-0.0004945352557115257,-0.43904176354408264,0.4394870102405548,5.322086334228516,4.03125,0,"['C1', 'F2', 'F1']",6.1,270,0,2.977199518268565,[4400|0|0]
4400,1.2872921228408813,-0.32202649116516113,-0.0007317333365790546,-0.4273945689201355,0.4541913866996765,5.3215460777282715,4.03125,0,"['C1', 'F2', 'F1']",6.1,270,0,2.977459421443283,[4500|0|0]
4500,1.287402629852295,-0.32176896929740906,-0.0009038495481945574,-0.42249515652656555,0.4676400423049927,5.317209243774414,4.03125,0,"['C1', 'F2', 'F1']",6.1,270,0,2.97778828813701,[4600|0|0]
4600,1.2873848676681519,-0.32199355959892273,-0.000477900292025879,-0.4112652540206909,0.47865718603134155,5.327396869659424,4.03125,0,"['C1', 'F2', 'F1']",6.1,270,0,2.97827014814526,[4700|0|0]
4700,1.2871897220611572,-0.32200050354003906,-0.001004240126349032,-0.4053046703338623,0.4949546456336975,5.310157299041748,4.03125,0,"['C1', 'F2', 'F1']",6.1,270,0,2.9788315425230754,[4800|0|0]
4800,1.2872496843338013,-0.32208406925201416,-0.0007451300625689328,-0.39763370156288147,0.4911390244960785,5.321427345275879,4.03125,0,"['C1', 'F2', 'F1']",6.1,270,0,2.9791103197235613,[4900|0|0]
4900,1.2871280908584595,-0.3221493065357208,-0.0006810787599533796,-0.39271143078804016,0.49480289220809937,5.322061538696289,4.03125,0,"['C1', 'F2', 'F1']",6.1,270,0,2.979262449424139,[5000|0|0]
5000,1.2870113849639893,-0.3218022584915161,-0.0009799775434657931,-0.42383211851119995,0.47576966881752014,5.343861103057861,4.03125,0,"['C1', 'F2', 'F1']",6.1,270,0,2.9797351047886234,[5100|0|0]
5100,1.287479281425476,-0.3218168616294861,-0.00104077800642699,-0.4170161485671997,0.4736548662185669,5.361690044403076,4.02734375,0,"['C1', 'F2', 'F1']",6.1,270,0,2.980207160978718,[5200|0|0]
5200,1.2873018980026245,-0.32197433710098267,-0.000944637693464756,-0.4144434630870819,0.480697363615036,5.359393119812012,4.03125,0,"['C1', 'F2', 'F1']",6.1,270,0,2.9804631030866293,[5300|0|0]
5300,1.287352204322815,-0.3217536509037018,-0.0007351692183874547,-0.4189648926258087,0.48747676610946655,5.362132549285889,4.03125,0,"['C1', 'F2', 'F1']",6.1,270,0,2.980771502447155,[5400|0|0]
5400,1.287166953086853,-0.32161980867385864,-0.0008221276220865548,-0.4241883456707001,0.49309465289115906,5.349052906036377,4.03125,0,"['C1', 'F2', 'F1']",6.1,270,0,2.981016029596749,[5500|0|0]
5500,1.2870405912399292,-0.3219948410987854,-0.001005679601803422,-0.4030151963233948,0.4972745180130005,5.363109111785889,4.03125,0,"['C1', 'F2', 'F1']",6.1,270,0,2.9814522726085695,[5600|0|0]
5600,1.2873945236206055,-0.3217368423938751,-0.0005328331026248634,-0.40758517384529114,0.48491907119750977,5.33657693862915,4.03125,0,"['C1', 'F2', 'F1']",6.1,270,0,2.9820967997791463,[5700|0|0]
5700,1.2873060703277588,-0.32210859656333923,-0.0004992965841665864,-0.40038999915122986,0.47947654128074646,5.314431190490723,4.03125,0,"['C1', 'F2', 'F1']",6.1,270,0,2.9824804009334716,[5800|0|0]
5800,1.2872891426086426,-0.3222270905971527,-0.0006557605811394751,-0.39634910225868225,0.4844309687614441,5.30666971206665,4.03125,0,"['C1', 'F2', 'F1']",6.1,270,0,2.9826773993245124,[5900|0|0]
5900,1.2873233556747437,-0.32219254970550537,-0.0007897689938545227,-0.396921843290329,0.48661014437675476,5.327090263366699,4.03125,0,"['C1', 'F2', 'F1']",6.1,270,0,2.982819954092115,[6000|0|0]
6000,1.2874691486358643,-0.3220284581184387,-0.0005471852491609752,-0.40759384632110596,0.4867043197154999,5.30426549911499,4.03125,0,"['C1', 'F2', 'F1']",6.1,270,0,2.983147106212157,[6100|0|0]
6100,1.287278413772583,-0.322222501039505,-0.0005699100438505411,-0.4081503748893738,0.4947260618209839,5.3085737228393555,4.03125,0,"['C1', 'F2', 'F1']",6.1,270,0,2.9834201425825926,[6200|0|0]
6200,1.2871941328048706,-0.3221045434474945,-0.0007102217641659081,-0.411067396402359,0.5057525038719177,5.314616680145264,4.03125,0,"['C1', 'F2', 'F1']",6.1,270,0,2.9836218965265178,[6300|0|0]
6300,1.2871967554092407,-0.3220197558403015,-0.0008021642570383847,-0.40633708238601685,0.5029637813568115,5.302230358123779,4.03125,0,"['C1', 'F2', 'F1']",6.1,270,0,2.983746993442478,[6400|0|0]
6400,1.2873269319534302,-0.32209447026252747,-0.0006175086018629372,-0.4027998745441437,0.504361093044281,5.28997802734375,4.03125,0,"['C1', 'F2', 'F1']",6.1,270,0,2.9839849553901376,[6500|0|0]
6500,1.2871801853179932,-0.32198259234428406,-0.0005835455376654863,-0.4112514853477478,0.5065587162971497,5.297074317932129,4.03125,0,"['C1', 'F2', 'F1']",6.1,270,0,2.9841725846344795,[6600|0|0]
6600,1.2873461246490479,-0.321841299533844,-0.0008939856779761612,-0.4138752818107605,0.508365273475647,5.3275346755981445,4.03125,0,"['C1', 'F2', 'F1']",6.1,270,0,2.9845518900530923,[6700|0|0]
6700,1.2873868942260742,-0.3217080533504486,-0.0009071720414794981,-0.4148891866207123,0.508346438407898,5.3408284187316895,4.03125,0,"['C1', 'F2', 'F1']",6.1,270,0,2.9846918564204197,[6800|0|0]
6800,1.2873575687408447,-0.3217601180076599,-0.0005986231844872236,-0.4134082496166229,0.5050429701805115,5.3364152908325195,4.03125,0,"['C1', 'F2', 'F1']",6.1,270,0,2.985006138315803,[6900|0|0]
6900,1.2873599529266357,-0.321959525346756,-0.0005143319140188396,-0.39626944065093994,0.5091319680213928,5.328630447387695,4.03125,0,"['C1', 'F2', 'F1']",6.1,270,0,2.985222642333097,[7000|0|0]
7000,1.2871644496917725,-0.32168319821357727,-0.0008013287442736328,-0.4039827287197113,0.5145583748817444,5.337324142456055,4.03125,0,"['C1', 'F2', 'F1']",6.1,270,0,2.985666427618961,[7100|0|0]
7100,1.2875782251358032,-0.3221781253814697,-0.0005526355234906077,-0.3916175663471222,0.5004042983055115,5.320390701293945,4.03125,0,"['C1', 'F2', 'F1']",6.1,270,0,2.9863578112589644,[7200|0|0]
7200,1.2872735261917114,-0.32223275303840637,-0.0005947773461230099,-0.3882977366447449,0.5001439452171326,5.321421146392822,4.03125,0,"['C1', 'F2', 'F1']",6.1,270,0,2.986670223743747,[7300|0|0]
7300,1.2873605489730835,-0.32204267382621765,-0.0006555781583301723,-0.3919615149497986,0.494183212518692,5.322378158569336,4.03125,0,"['C1', 'F2', 'F1']",6.1,270,0,2.98688793871831,[7400|0|0]
7400,1.2875083684921265,-0.32179927825927734,-0.0006453499081544578,-0.3985843062400818,0.48419779539108276,5.311262607574463,4.03125,0,"['C1', 'F2', 'F1']",6.1,270,0,2.9871728889408367,[7500|0|0]
7500,1.2873203754425049,-0.32187801599502563,-0.0007117838831618428,-0.4002481698989868,0.4843660295009613,5.3256120681762695,4.03125,0,"['C1', 'F2', 'F1']",6.1,270,0,2.9873872589265438,[7600|0|0]
7600,1.2870970964431763,-0.32178863883018494,-0.0007549242000095546,-0.40131741762161255,0.48891061544418335,5.3253960609436035,4.03125,0,"['C1', 'F2', 'F1']",6.1,270,0,2.9876316006464236,[7700|0|0]
7700,1.2874138355255127,-0.32176876068115234,-0.0008075883379206061,-0.39807820320129395,0.48376962542533875,5.312403202056885,4.03125,0,"['C1', 'F2', 'F1']",6.1,270,0,2.9879533028355834,[7800|0|0]
7800,1.2871898412704468,-0.3223392963409424,-0.0006216518813744187,-0.3853777348995209,0.48710253834724426,5.319291114807129,4.02734375,0,"['C1', 'F2', 'F1']",6.1,270,0,2.988593815701393,[7900|0|0]
7900,1.287473440170288,-0.3220474123954773,-0.0005947952158749104,-0.38548219203948975,0.48241835832595825,5.304605960845947,4.03125,0,"['C1', 'F2', 'F1']",6.1,270,0,2.989001670889043,[8000|0|0]
8000,1.2872651815414429,-0.3216652274131775,-0.001126637915149331,-0.3973880410194397,0.4942569136619568,5.309601306915283,4.03125,0,"['C1', 'F2', 'F1']",6.1,270,0,2.9896889071467854,[8100|0|0]
8100,1.2873632907867432,-0.32180872559547424,-0.0004514177853707224,-0.39755508303642273,0.4801807403564453,5.308581829071045,4.02734375,0,"['C1', 'F2', 'F1']",6.1,270,0,2.9903861441050674,[8200|0|0]
8200,1.2872226238250732,-0.3218200206756592,-0.0008075681398622692,-0.4014585614204407,0.4934433698654175,5.334543704986572,4.03125,0,"['C1', 'F2', 'F1']",6.1,270,0,2.990769233974349,[8300|0|0]
8300,1.2874349355697632,-0.32201018929481506,-0.000611863739322871,-0.398840069770813,0.48758465051651,5.3248066902160645,4.03125,0,"['C1', 'F2', 'F1']",6.1,270,0,2.99111498040316,[8400|0|0]
8400,1.2873152494430542,-0.3220157027244568,-0.0006339629762805998,-0.4002489447593689,0.492852121591568,5.328977584838867,4.03125,0,"['C1', 'F2', 'F1']",6.1,270,0,2.991236814483397,[8500|0|0]
8500,1.2871466875076294,-0.32196611166000366,-0.0009456322295591235,-0.4076383113861084,0.49230772256851196,5.3203043937683105,4.03125,0,"['C1', 'F2', 'F1']",6.1,270,0,2.991594599507101,[8600|0|0]
8600,1.287426233291626,-0.32211458683013916,-0.0005481617990881205,-0.4056253433227539,0.49164706468582153,5.314892292022705,4.03125,0,"['C1', 'F2', 'F1']",6.1,270,0,2.992102707236422,[8700|0|0]
8700,1.2869833707809448,-0.3218476176261902,-0.000922336766961962,-0.4105241894721985,0.5011413097381592,5.341531276702881,4.03125,0,"['C1', 'F2', 'F1']",6.1,270,0,2.992740991393994,[8800|0|0]
8800,1.287277340888977,-0.32172420620918274,-0.0006671762675978243,-0.41510799527168274,0.4935101568698883,5.335999488830566,4.03125,0,"['C1', 'F2', 'F1']",6.1,270,0,2.993149348691835,[8900|0|0]
8900,1.2873013019561768,-0.32164761424064636,-0.0008551391074433923,-0.419554740190506,0.4963111877441406,5.343986511230469,4.03125,0,"['C1', 'F2', 'F1']",6.1,270,0,2.9933537269968196,[9000|0|0]
9000,1.2875155210494995,-0.32209059596061707,-0.0009564438951201737,-0.4154152572154999,0.4880795180797577,5.363633155822754,4.03125,0,"['C1', 'F2', 'F1']",6.1,270,0,2.993856106618399,[9100|0|0]
9100,1.2873165607452393,-0.32169052958488464,-0.0007786887581460178,-0.4254791736602783,0.49034133553504944,5.3404412269592285,4.03125,0,"['C1', 'F2', 'F1']",6.1,270,0,2.9943369758276273,[9200|0|0]
9200,1.2872687578201294,-0.3217580020427704,-0.0006567472591996193,-0.42249155044555664,0.49033382534980774,5.342865943908691,4.03125,0,"['C1', 'F2', 'F1']",6.1,270,0,2.9944843100781853,[9300|0|0]
9300,1.2870854139328003,-0.3220556378364563,-0.001044353935867548,-0.41291818022727966,0.501130998134613,5.3551530838012695,4.03125,0,"['C1', 'F2', 'F1']",6.1,270,0,2.9950062688720585,[9400|0|0]
9400,1.2875221967697144,-0.32189998030662537,-0.0004801086033694446,-0.4026252329349518,0.4919435381889343,5.3244099617004395,4.03125,0,"['C1', 'F2', 'F1']",6.1,270,0,2.995736598460985,[9500|0|0]
9500,1.2875276803970337,-0.321898490190506,-0.0006040448788553476,-0.4084787666797638,0.48191869258880615,5.327151298522949,4.03125,0,"['C1', 'F2', 'F1']",6.1,270,0,2.9958606649391166,[9600|0|0]
9600,1.287172555923462,-0.3217758536338806,-0.0006789802573621273,-0.41609153151512146,0.4878478944301605,5.338066101074219,4.03125,0,"['C1', 'F2', 'F1']",6.1,270,0,2.9962437686166017,[9700|0|0]
9700,1.2872059345245361,-0.3217827081680298,-0.0006802098941989243,-0.4227387011051178,0.4869820475578308,5.337725639343262,4.03125,0,"['C1', 'F2', 'F1']",6.1,270,0,2.996277865942814,[9800|0|0]
9800,1.2873826026916504,-0.32196566462516785,-0.0004852708661928773,-0.41350626945495605,0.4813072979450226,5.340342998504639,4.03125,0,"['C1', 'F2', 'F1']",6.1,270,0,2.996598312398747,[9900|0|0]
9900,1.2873743772506714,-0.32208800315856934,-0.0006214621826075017,-0.4079131484031677,0.4829055070877075,5.3151373863220215,4.03125,0,"['C1', 'F2', 'F1']",6.1,270,0,2.9967815675468352,[10000|0|0]
10000,1.287437915802002,-0.32200801372528076,-0.0004688519111368805,-0.40980035066604614,0.47972390055656433,5.325506687164307,4.03125,0,"['C1', 'F2', 'F1']",6.1,270,0,2.9969652121816637,[10100|0|0]
10100,1.2871394157409668,-0.32173559069633484,-0.000987306353636086,-0.41642576456069946,0.4857413172721863,5.321466445922852,4.03125,0,"['C1', 'F2', 'F1']",6.1,270,0,2.99762256414377,[10200|0|0]
10200,1.2772184610366821,-0.33366769552230835,-0.004477865528315306,-0.07767442613840103,0.7686899900436401,5.237111568450928,4.03125,0,"['C1', 'F2', 'F1']",6.1,270,0,3.013528049712417,[10300|0|0]
10300,1.277212142944336,-0.3339451253414154,-0.004587430506944656,-0.06985881179571152,0.76850426197052,5.225268363952637,4.03125,0,"['C1', 'F2', 'F1']",6.1,270,0,3.0138263980111595,[10400|0|0]
10400,1.276986002922058,-0.33361902832984924,-0.004763756413012743,-0.06435035914182663,0.7844604253768921,5.22629976272583,4.03125,0,"['C1', 'F2', 'F1']",6.1,270,0,3.014260643789238,[10500|0|0]
10500,1.2773398160934448,-0.33390501141548157,-0.004668731242418289,-0.05939696356654167,0.781082272529602,5.228773593902588,4.03125,0,"['C1', 'F2', 'F1']",6.1,270,0,3.014725401649377,[10600|0|0]
10600,1.277158498764038,-0.3336668908596039,-0.004845455754548311,-0.06585146486759186,0.7834112048149109,5.235500335693359,4.03125,0,"['C1', 'F2', 'F1']",6.1,270,0,3.0150729774342966,[10700|0|0]
10700,1.2770044803619385,-0.3336247503757477,-0.004981480073183775,-0.06746041029691696,0.7930352687835693,5.247847557067871,4.03125,0,"['C1', 'F2', 'F1']",6.1,270,0,3.015282739451414,[10800|0|0]
10800,1.277291178703308,-0.3338887691497803,-0.0048753623850643635,-0.06421401351690292,0.7864334583282471,5.269930362701416,4.03125,0,"['C1', 'F2', 'F1']",6.1,270,0,3.0156866736239194,[10900|0|0]
10900,1.2771482467651367,-0.33364051580429077,-0.004607849288731813,-0.07299075275659561,0.7924458980560303,5.245830059051514,4.03125,0,"['C1', 'F2', 'F1']",6.1,270,0,3.0160786207111716,[11000|0|0]
11000,1.2771881818771362,-0.3335857093334198,-0.004755303729325533,-0.07344121485948563,0.7942917346954346,5.236858367919922,4.03125,0,"['C1', 'F2', 'F1']",6.1,270,0,3.016240920971401,[11100|0|0]
11100,1.2770620584487915,-0.3337230384349823,-0.00516026746481657,-0.07220780104398727,0.7967624664306641,5.223839282989502,4.03125,0,"['C1', 'F2', 'F1']",6.1,270,0,3.0166867483240574,[11200|0|0]
11200,1.2770978212356567,-0.333641916513443,-0.004599138628691435,-0.07191598415374756,0.7960630655288696,5.233769416809082,4.03125,0,"['C1', 'F2', 'F1']",6.1,270,0,3.0172548375017483,[11300|0|0]
11300,1.2771437168121338,-0.33381983637809753,-0.004480284638702869,-0.07334818691015244,0.7979751825332642,5.235647678375244,4.03125,0,"['C1', 'F2', 'F1']",6.1,270,0,3.0174736711214574,[11400|0|0]
11400,1.277228593826294,-0.33401668071746826,-0.004964494612067938,-0.061567582190036774,0.8031842708587646,5.225131511688232,4.03125,0,"['C1', 'F2', 'F1']",6.1,270,0,3.018003209693972,[11500|0|0]
11500,1.277226209640503,-0.33374327421188354,-0.004587098024785519,-0.06750202924013138,0.801911473274231,5.219445705413818,4.03125,0,"['C1', 'F2', 'F1']",6.1,270,0,3.0184692407935034,[11600|0|0]
11600,1.277302861213684,-0.3337279260158539,-0.004842626862227917,-0.06439048796892166,0.8005340099334717,5.209834098815918,4.03125,0,"['C1', 'F2', 'F1']",6.1,270,0,3.0187364598376547,[11700|0|0]
11700,1.2775179147720337,-0.33380842208862305,-0.004679281730204821,-0.06263671815395355,0.7934040427207947,5.197600841522217,4.03125,0,"['C1', 'F2', 'F1']",6.1,270,0,3.019018256365039,[11800|0|0]
11801,1.2770999670028687,-0.33344966173171997,-0.005117904860526323,-0.0722082182765007,0.8082084655761719,5.212438583374023,4.03125,0,"['C1', 'F2', 'F1']",6.1,270,0,3.0197223725357722,[11900|0|0]
11900,1.2771165370941162,-0.3334183394908905,-0.00496260542422533,-0.0752553790807724,0.8163118362426758,5.204653263092041,4.03125,0,"['C1', 'F2', 'F1']",6.1,270,0,3.019881663356631,[12000|0|0]
12000,1.2769834995269775,-0.33348068594932556,-0.004887348040938377,-0.07409065961837769,0.8231447339057922,5.1925578117370605,4.03125,0,"['C1', 'F2', 'F1']",6.1,270,0,3.0200467383362275,[12100|0|0]
12101,1.277339220046997,-0.3338925838470459,-0.004700703080743551,-0.06688179820775986,0.8212254643440247,5.180810451507568,4.03125,0,"['C1', 'F2', 'F1']",6.1,270,0,3.0206220932768297,[12200|0|0]
12201,1.277214527130127,-0.3337167203426361,-0.004485180601477623,-0.07320376485586166,0.8234074115753174,5.195510387420654,4.03125,0,"['C1', 'F2', 'F1']",6.1,270,0,3.020926931323618,[12300|0|0]
12301,1.277081847190857,-0.3337537348270416,-0.005206391215324402,-0.06838127225637436,0.8216550350189209,5.199751853942871,4.03125,0,"['C1', 'F2', 'F1']",6.1,270,0,3.0216611784127276,[12400|0|0]
12401,1.277012586593628,-0.33363285660743713,-0.004930012859404087,-0.0632505863904953,0.8178719282150269,5.226895809173584,4.03125,0,"['C1', 'F2', 'F1']",6.1,270,0,3.0219706837760487,[12500|0|0]
12501,1.277010440826416,-0.33383435010910034,-0.0048926351591944695,-0.061699483543634415,0.8135852813720703,5.247970104217529,4.03125,0,"['C1', 'F2', 'F1']",6.1,270,0,3.0221756260313364,[12600|0|0]
12601,1.277101755142212,-0.3335057199001312,-0.004885892383754253,-0.06986968219280243,0.80349200963974,5.24281120300293,4.03125,0,"['C1', 'F2', 'F1']",6.1,270,0,3.022516773482649,[12700|0|0]
12701,1.277113676071167,-0.33382153511047363,-0.0048926956951618195,-0.06165149807929993,0.7974498867988586,5.237674236297607,4.03125,0,"['C1', 'F2', 'F1']",6.1,270,0,3.0228328868178265,[12800|0|0]
12801,1.2772303819656372,-0.33380475640296936,-0.00477672228589654,-0.06525921821594238,0.8008033037185669,5.2510809898376465,4.03125,0,"['C1', 'F2', 'F1']",6.1,270,0,3.0229982700772156,[12900|0|0]
12901,1.2770026922225952,-0.33349609375,-0.004916616249829531,-0.07026132941246033,0.8032324910163879,5.259666919708252,4.03125,0,"['C1', 'F2', 'F1']",6.1,270,0,3.023406541523155,[13000|0|0]
13001,1.277105689048767,-0.33355411887168884,-0.004930967465043068,-0.0669652670621872,0.7927526831626892,5.258177280426025,4.03125,0,"['C1', 'F2', 'F1']",6.1,270,0,3.0235256264438064,[13100|0|0]
13100,1.277116060256958,-0.33372771739959717,-0.004648975562304258,-0.06768486648797989,0.7898707985877991,5.237422943115234,4.03125,0,"['C1', 'F2', 'F1']",6.1,270,0,3.023856932109411,[13200|0|0]
13200,1.277083158493042,-0.3338516652584076,-0.004716923926025629,-0.06569063663482666,0.7934508919715881,5.238440036773682,4.03125,0,"['C1', 'F2', 'F1']",6.1,270,0,3.024002061630546,[13300|0|0]
13300,1.2772796154022217,-0.333683580160141,-0.0048509631305933,-0.07273290306329727,0.7861917018890381,5.238996982574463,4.03125,0,"['C1', 'F2', 'F1']",6.1,270,0,3.024293290794238,[13400|0|0]
13400,1.27695894241333,-0.33340439200401306,-0.005071686580777168,-0.07184671610593796,0.8010764718055725,5.230361461639404,4.03125,0,"['C1', 'F2', 'F1']",6.1,270,0,3.0247723482373363,[13500|0|0]
13502,1.2771825790405273,-0.33375129103660583,-0.004952503368258476,-0.0717785581946373,0.7884522676467896,5.227980136871338,4.03125,0,"['C1', 'F2', 'F1']",6.1,270,0,3.025201949119533,[13600|0|0]
13602,1.2772815227508545,-0.33390316367149353,-0.0045910426415503025,-0.07187189906835556,0.7832158803939819,5.218507766723633,4.03125,0,"['C1', 'F2', 'F1']",6.1,270,0,3.025606311595529,[13700|0|0]
13702,1.277294397354126,-0.3337998390197754,-0.004883573390543461,-0.07713080942630768,0.7771904468536377,5.224098205566406,4.03125,0,"['C1', 'F2', 'F1']",6.1,270,0,3.025916820819496,[13800|0|0]
13802,1.2771718502044678,-0.33353257179260254,-0.0050111087039113045,-0.08584218472242355,0.7827164530754089,5.231450080871582,4.03125,0,"['C1', 'F2', 'F1']",6.1,270,0,3.026237312365041,[13900|0|0]
13902,1.2773808240890503,-0.3338225781917572,-0.004663145635277033,-0.08191462606191635,0.7802613973617554,5.234433174133301,4.03125,0,"['C1', 'F2', 'F1']",6.1,270,0,3.0267361631374383,[14000|0|0]
14002,1.2769572734832764,-0.3335444927215576,-0.005077600013464689,-0.09126924723386765,0.7875240445137024,5.224184513092041,4.03125,0,"['C1', 'F2', 'F1']",6.1,270,0,3.027390761545614,[14100|0|0]
14100,1.2769834995269775,-0.3335011303424835,-0.005089103244245052,-0.09379999339580536,0.7900781631469727,5.216754913330078,4.02734375,0,"['C1', 'F2', 'F1']",6.1,270,0,3.0274427271650715,[14200|0|0]
14200,1.277136206626892,-0.3338174819946289,-0.004694290924817324,-0.08457562327384949,0.7845230102539062,5.217320919036865,4.03125,0,"['C1', 'F2', 'F1']",6.1,270,0,3.0279711915382808,[14300|0|0]
14300,1.2770040035247803,-0.3336900770664215,-0.004911185707896948,-0.08644188195466995,0.7865866422653198,5.215948104858398,4.03125,0,"['C1', 'F2', 'F1']",6.1,270,0,3.0282553623018487,[14400|0|0]
14400,1.2782723903656006,-0.3337564170360565,-0.004533904604613781,-0.06605632603168488,0.785719633102417,5.226500034332275,4.02734375,0,"['C1', 'F2', 'F1']",6.1,270,0,3.029580332943196,[14500|0|0]
14500,1.2780247926712036,-0.3331311047077179,-0.005346326157450676,-0.08611571043729782,0.7858186960220337,5.222154140472412,4.03125,0,"['C1', 'F2', 'F1']",6.1,270,0,3.0306350124707095,[14600|0|0]
14600,1.2780179977416992,-0.33323919773101807,-0.0052970112301409245,-0.07902627438306808,0.7785025238990784,5.200756549835205,4.03125,0,"['C1', 'F2', 'F1']",6.1,270,0,3.0307540176588685,[14700|0|0]
14700,1.2782872915267944,-0.33347979187965393,-0.0045454674400389194,-0.0707043707370758,0.7746647000312805,5.212753772735596,4.02734375,0,"['C1', 'F2', 'F1']",6.1,270,0,3.0315878178480564,[14800|0|0]
14800,1.2783126831054688,-0.33356186747550964,-0.004717380274087191,-0.0733022391796112,0.7804056406021118,5.215050220489502,4.03125,0,"['C1', 'F2', 'F1']",6.1,270,0,3.0317800030665647,[14900|0|0]
14900,1.2783280611038208,-0.3337472379207611,-0.004676613956689835,-0.05924590304493904,0.7949443459510803,5.211376667022705,4.03125,0,"['C1', 'F2', 'F1']",6.1,270,0,3.031970425169904,[15000|0|0]
15000,1.2785086631774902,-0.33327218890190125,-0.004514386877417564,-0.21237576007843018,0.6450706124305725,5.217983245849609,4.02734375,0,"['C1', 'F2', 'F1']",6.1,270,0,3.032503910225536,[15100|0|0]
15100,1.2784831523895264,-0.333196759223938,-0.004571158438920975,-0.19626088440418243,0.6585289239883423,5.225973606109619,4.03125,0,"['C1', 'F2', 'F1']",6.1,270,0,3.0326017031026575,[15200|0|0]
15200,1.2784541845321655,-0.3332785367965698,-0.004537581000477076,-0.1770172268152237,0.6727379560470581,5.231389045715332,4.03125,0,"['C1', 'F2', 'F1']",6.1,270,0,3.032694730800243,[15300|0|0]
15300,1.2784862518310547,-0.33325204253196716,-0.004636922385543585,-0.16231705248355865,0.6848552227020264,5.236935615539551,4.03125,0,"['C1', 'F2', 'F1']",6.1,270,0,3.032802429307669,[15400|0|0]
15400,1.2783753871917725,-0.3332078456878662,-0.0045478385873138905,-0.15653826296329498,0.6954777836799622,5.225754737854004,4.03125,0,"['C1', 'F2', 'F1']",6.1,270,0,3.032951359668505,[15500|0|0]
15500,1.2785253524780273,-0.33288493752479553,-0.004717683419585228,-0.15287873148918152,0.6909717917442322,5.244565486907959,4.03125,0,"['C1', 'F2', 'F1']",6.1,270,0,3.033345829611477,[15600|0|0]
15600,1.2782721519470215,-0.33326390385627747,-0.00502141285687685,-0.12303328514099121,0.7184725403785706,5.252380847930908,4.03125,0,"['C1', 'F2', 'F1']",6.1,270,0,3.033893531684119,[15700|0|0]
15700,1.2783926725387573,-0.333234578371048,-0.004650314338505268,-0.12704665958881378,0.7207121849060059,5.236349582672119,4.03125,0,"['C1', 'F2', 'F1']",6.1,270,0,3.034284810750073,[15800|0|0]
15800,1.2782158851623535,-0.3329314589500427,-0.004938435275107622,-0.1345970332622528,0.7198734879493713,5.230250835418701,4.02734375,0,"['C1', 'F2', 'F1']",6.1,270,0,3.0347388469093763,[15900|0|0]
15900,1.2782158851623535,-0.33335080742836,-0.004667507950216532,-0.12410689145326614,0.7206838726997375,5.258343696594238,4.02734375,0,"['C1', 'F2', 'F1']",6.1,270,0,3.0352381011148064,[16000|0|0]
16000,1.2782100439071655,-0.33307212591171265,-0.004789659287780523,-0.13450779020786285,0.7166115045547485,5.264530658721924,4.03125,0,"['C1', 'F2', 'F1']",6.1,270,0,3.0355424339215356,[16100|0|0]
16100,1.2783385515213013,-0.33335354924201965,-0.0048319813795387745,-0.126078262925148,0.7145743370056152,5.285670280456543,4.02734375,0,"['C1', 'F2', 'F1']",6.1,270,0,3.0358546909585784,[16200|0|0]
16200,1.277712106704712,-0.33285319805145264,-0.004373760893940926,-0.2840825021266937,0.6035906672477722,5.272800922393799,4.03125,0,"['C1', 'F2', 'F1']",6.1,270,0,3.0367781358327073,[16300|0|0]
16300,1.2784278392791748,-0.3329542875289917,-0.004880513995885849,-0.23683711886405945,0.6515082716941833,5.269496917724609,4.02734375,0,"['C1', 'F2', 'F1']",6.1,270,0,3.0376609103831713,[16400|0|0]
16400,1.2783936262130737,-0.3331754207611084,-0.004700778052210808,-0.2125386893749237,0.6725295782089233,5.261434555053711,4.03125,0,"['C1', 'F2', 'F1']",6.1,270,0,3.0379479216193404,[16500|0|0]
16500,1.2782862186431885,-0.3329067528247833,-0.004938156809657812,-0.15285179018974304,0.7276468873023987,5.2488017082214355,4.03125,0,"['C1', 'F2', 'F1']",6.1,270,0,3.0383221775752913,[16600|0|0]
16600,1.278385043144226,-0.3336128294467926,-0.004488993901759386,-0.08208470046520233,0.7790684700012207,5.234197616577148,4.03125,0,"['C1', 'F2', 'F1']",6.1,270,0,3.0391648268475184,[16700|0|0]
16700,1.2782440185546875,-0.3333437740802765,-0.004788035526871681,-0.0644683688879013,0.8135049343109131,5.236683368682861,4.03125,0,"['C1', 'F2', 'F1']",6.1,270,0,3.0395910950948175,[16800|0|0]
16800,1.278417706489563,-0.3334943652153015,-0.004998035728931427,-0.047453999519348145,0.8296613693237305,5.236171722412109,4.02734375,0,"['C1', 'F2', 'F1']",6.1,270,0,3.0399024554544245,[16900|0|0]
16900,1.2780600786209106,-0.3331076502799988,-0.00513506680727005,-0.03917619585990906,0.8509197235107422,5.251842975616455,4.03125,0,"['C1', 'F2', 'F1']",6.1,270,0,3.040446719774451,[17000|0|0]
17000,1.2784695625305176,-0.33345726132392883,-0.004870858043432236,-0.023758549243211746,0.8504904508590698,5.260601997375488,4.02734375,0,"['C1', 'F2', 'F1']",6.1,270,0,3.0410464790804674,[17100|0|0]
17100,1.2782329320907593,-0.33365777134895325,-0.004849056713283062,-0.016235439106822014,0.860514760017395,5.260245323181152,4.02734375,0,"['C1', 'F2', 'F1']",6.1,270,0,3.0413574027578414,[17200|0|0]
17200,1.2783249616622925,-0.3336890637874603,-0.004782733973115683,-0.014658263884484768,0.8559865355491638,5.282828330993652,4.03125,0,"['C1', 'F2', 'F1']",6.1,270,0,3.041475077583559,[17300|0|0]
17300,1.2780537605285645,-0.3333092927932739,-0.005194521974772215,-0.023671457543969154,0.8581758141517639,5.268705368041992,4.03125,0,"['C1', 'F2', 'F1']",6.1,270,0,3.042097448390449,[17400|0|0]
17400,1.2782601118087769,-0.3334979712963104,-0.0047061811201274395,-0.017131993547081947,0.8513686656951904,5.282983303070068,4.02734375,0,"['C1', 'F2', 'F1']",6.1,270,0,3.0426601714294907,[17500|0|0]
17500,1.2783997058868408,-0.33362582325935364,-0.004712226334959269,-0.01953115127980709,0.8455071449279785,5.285368919372559,4.03125,0,"['C1', 'F2', 'F1']",6.1,270,0,3.042849563023039,[17600|0|0]
17600,1.2783726453781128,-0.3336252272129059,-0.004832175560295582,-0.022808469831943512,0.8417699337005615,5.279167652130127,4.03125,0,"['C1', 'F2', 'F1']",6.1,270,0,3.042972528233822,[17700|0|0]
17700,1.2782111167907715,-0.3335261046886444,-0.00469317939132452,-0.031640950590372086,0.8420704007148743,5.292369842529297,4.03125,0,"['C1', 'F2', 'F1']",6.1,270,0,3.0432075531140645,[17800|0|0]
17800,1.2782986164093018,-0.33379191160202026,-0.005185738205909729,-0.03830573707818985,0.8283132910728455,5.272993087768555,4.03125,0,"['C1', 'F2', 'F1']",6.1,270,0,3.043774054379965,[17900|0|0]
17900,1.2783517837524414,-0.33393582701683044,-0.0049103982746601105,-0.02892138808965683,0.8296133279800415,5.265182018280029,4.03125,0,"['C1', 'F2', 'F1']",6.1,270,0,3.044089253508671,[18000|0|0]
18000,1.2782220840454102,-0.333513081073761,-0.0045718783512711525,-0.03769560158252716,0.8358049988746643,5.270185947418213,4.02734375,0,"['C1', 'F2', 'F1']",6.1,270,0,3.0446461483685114,[18100|0|0]
18100,1.278165578842163,-0.3333621919155121,-0.004922974389046431,-0.039314739406108856,0.824549674987793,5.276392459869385,4.03125,0,"['C1', 'F2', 'F1']",6.1,270,0,3.045032449810151,[18200|0|0]
18200,1.2782988548278809,-0.33357158303260803,-0.004746370017528534,-0.03640759363770485,0.810688316822052,5.266565799713135,4.03125,0,"['C1', 'F2', 'F1']",6.1,270,0,3.0453370745503263,[18300|0|0]
18300,1.2783077955245972,-0.3335894048213959,-0.004878022707998753,-0.041551023721694946,0.8090426325798035,5.290114879608154,4.03125,0,"['C1', 'F2', 'F1']",6.1,270,0,3.0454702285330733,[18400|0|0]
18400,1.2782608270645142,-0.33346495032310486,-0.005008436739444733,-0.047526948153972626,0.8072168231010437,5.304199695587158,4.03125,0,"['C1', 'F2', 'F1']",6.1,270,0,3.0456565153495294,[18500|0|0]
18500,1.2783069610595703,-0.3335121273994446,-0.004812564700841904,-0.046978436410427094,0.8023470640182495,5.295960426330566,4.03125,0,"['C1', 'F2', 'F1']",6.1,270,0,3.0458632032242057,[18600|0|0]
18600,1.2783082723617554,-0.33358705043792725,-0.0047127678990364075,-0.049511346966028214,0.7992109060287476,5.272275924682617,4.02734375,0,"['C1', 'F2', 'F1']",6.1,270,0,3.0459880013926997,[18700|0|0]
18700,1.2782162427902222,-0.3336397111415863,-0.004581739194691181,-0.05180893465876579,0.8101295232772827,5.269991397857666,4.03125,0,"['C1', 'F2', 'F1']",6.1,270,0,3.0461565573570226,[18800|0|0]
18800,1.2783719301223755,-0.33360162377357483,-0.004806923680007458,-0.05407405272126198,0.8090592622756958,5.26369571685791,4.03125,0,"['C1', 'F2', 'F1']",6.1,270,0,3.046432957873343,[18900|0|0]
18900,1.278147578239441,-0.33322474360466003,-0.005173735320568085,-0.06279250979423523,0.8042821288108826,5.257203102111816,4.03125,0,"['C1', 'F2', 'F1']",6.1,270,0,3.047004729863518,[19000|0|0]
19000,1.2781436443328857,-0.3332326412200928,-0.005103176925331354,-0.05610160157084465,0.805515468120575,5.234513759613037,4.03125,0,"['C1', 'F2', 'F1']",6.1,270,0,3.0470758377750937,[19100|0|0]
19100,1.2782233953475952,-0.33334803581237793,-0.004821345675736666,-0.05531129986047745,0.8039210438728333,5.218837738037109,4.03125,0,"['C1', 'F2', 'F1']",6.1,270,0,3.0473906472246406,[19200|0|0]
19200,1.2781026363372803,-0.33354851603507996,-0.004707015585154295,-0.05227647349238396,0.8095887899398804,5.229238510131836,4.03125,0,"['C1', 'F2', 'F1']",6.1,270,0,3.047651120693308,[19300|0|0]
19300,1.2780694961547852,-0.3331899642944336,-0.005173240788280964,-0.06405024975538254,0.8057982325553894,5.234861373901367,4.03125,0,"['C1', 'F2', 'F1']",6.1,270,0,3.0482402077517694,[19400|0|0]
19400,1.2781951427459717,-0.333459734916687,-0.004737776704132557,-0.056905463337898254,0.7933732271194458,5.241621971130371,4.03125,0,"['C1', 'F2', 'F1']",6.1,270,0,3.0487676470592646,[19500|0|0]
19500,1.2781450748443604,-0.33356475830078125,-0.0046121529303491116,-0.057235199958086014,0.7967177033424377,5.236789226531982,4.03125,0,"['C1', 'F2', 'F1']",6.1,270,0,3.0489388721699173,[19600|0|0]
19600,1.2783405780792236,-0.33353254199028015,-0.004922340624034405,-0.059922173619270325,0.7901041507720947,5.247315406799316,4.03125,0,"['C1', 'F2', 'F1']",6.1,270,0,3.049306942558319,[19700|0|0]
19700,1.2782710790634155,-0.33363333344459534,-0.004648358095437288,-0.060623303055763245,0.8001798391342163,5.246148586273193,4.02734375,0,"['C1', 'F2', 'F1']",6.1,270,0,3.0496070349714817,[19800|0|0]
19800,1.2782189846038818,-0.3336799442768097,-0.00481351837515831,-0.05343091860413551,0.8016154170036316,5.238220691680908,4.02734375,0,"['C1', 'F2', 'F1']",6.1,270,0,3.049786379111033,[19900|0|0]
19900,1.2781126499176025,-0.3333297669887543,-0.0049265665002167225,-0.050498299300670624,0.8043293952941895,5.235934257507324,4.03125,0,"['C1', 'F2', 'F1']",6.1,270,0,3.0501694079312998,[20000|0|0]
20000,1.2780838012695312,-0.3336254358291626,-0.0047280569560825825,-0.04950585961341858,0.8017606139183044,5.227294445037842,4.03125,0,"['C1', 'F2', 'F1']",6.1,270,0,3.050526701013791,[20100|0|0]
20100,1.2782509326934814,-0.33350539207458496,-0.004879376385360956,-0.05750986188650131,0.7948797345161438,5.2344069480896,4.02734375,0,"['C1', 'F2', 'F1']",6.1,270,0,3.0507821241638027,[20200|0|0]
20200,1.2784041166305542,-0.33365219831466675,-0.004573006182909012,-0.05552311986684799,0.7871562838554382,5.226552486419678,4.03125,0,"['C1', 'F2', 'F1']",6.1,270,0,3.0511547903571374,[20300|0|0]
20300,1.2782169580459595,-0.33343249559402466,-0.0050498321652412415,-0.06663036346435547,0.7852445840835571,5.212794780731201,4.03125,0,"['C1', 'F2', 'F1']",6.1,270,0,3.051712159748719,[20400|0|0]
20400,1.2783724069595337,-0.3335566818714142,-0.004784881602972746,-0.05922059342265129,0.7815375328063965,5.2107062339782715,4.02734375,0,"['C1', 'F2', 'F1']",6.1,270,0,3.0520434985431115,[20500|0|0]
20500,1.2781517505645752,-0.3337269723415375,-0.004618245642632246,-0.05699686333537102,0.7797659039497375,5.219193935394287,4.03125,0,"['C1', 'F2', 'F1']",6.1,270,0,3.05236823787262,[20600|0|0]
20600,1.278308391571045,-0.33349502086639404,-0.0048628030344843864,-0.06301159411668777,0.7704096436500549,5.220880508422852,4.02734375,0,"['C1', 'F2', 'F1']",6.1,270,0,3.052739918124501,[20700|0|0]
20700,1.2783153057098389,-0.33368808031082153,-0.004755411297082901,-0.058085646480321884,0.7790395617485046,5.2161078453063965,4.02734375,0,"['C1', 'F2', 'F1']",6.1,270,0,3.052960944683222,[20800|0|0]
20800,1.2783373594284058,-0.33356839418411255,-0.004830319434404373,-0.05911283567547798,0.7804180979728699,5.222782135009766,4.03125,0,"['C1', 'F2', 'F1']",6.1,270,0,3.0531038515216387,[20900|0|0]
20900,1.2784416675567627,-0.3336544334888458,-0.00470963679254055,-0.0484766811132431,0.787158727645874,5.221852779388428,4.03125,0,"['C1', 'F2', 'F1']",6.1,270,0,3.0532850896182064,[21000|0|0]
21000,1.2783697843551636,-0.33376798033714294,-0.004621182102710009,-0.04636872932314873,0.7990718483924866,5.198054790496826,4.03125,0,"['C1', 'F2', 'F1']",6.1,270,0,3.053445975644894,[21100|0|0]
21100,1.278183937072754,-0.33341172337532043,-0.0047735292464494705,-0.06440065801143646,0.7964583039283752,5.223069667816162,4.03125,0,"['C1', 'F2', 'F1']",6.1,270,0,3.053875705661802,[21200|0|0]
21200,1.2782810926437378,-0.333637535572052,-0.004617912694811821,-0.060685932636260986,0.7897087335586548,5.210411548614502,4.03125,0,"['C1', 'F2', 'F1']",6.1,270,0,3.054166647003501,[21300|0|0]
21300,1.2781801223754883,-0.3335619270801544,-0.004590154625475407,-0.06554988771677017,0.7904026508331299,5.214707374572754,4.03125,0,"['C1', 'F2', 'F1']",6.1,270,0,3.0542958063993293,[21400|0|0]
21400,1.2783464193344116,-0.33367812633514404,-0.004738462157547474,-0.06253162771463394,0.7892020344734192,5.230942249298096,4.03125,0,"['C1', 'F2', 'F1']",6.1,270,0,3.054547107154355,[21500|0|0]
21500,1.2782412767410278,-0.33340904116630554,-0.005101710557937622,-0.07059472054243088,0.7936541438102722,5.2421722412109375,4.03125,0,"['C1', 'F2', 'F1']",6.1,270,0,3.0550112312685944,[21600|0|0]
21600,1.2781187295913696,-0.33358466625213623,-0.004738966468721628,-0.06689953058958054,0.7892357707023621,5.233231544494629,4.02734375,0,"['C1', 'F2', 'F1']",6.1,270,0,3.0554324737746685,[21700|0|0]
21700,1.278435468673706,-0.33366602659225464,-0.004682294093072414,-0.061691854149103165,0.7874733209609985,5.226273059844971,4.03125,0,"['C1', 'F2', 'F1']",6.1,270,0,3.0557643697062273,[21800|0|0]
21800,1.278472661972046,-0.33365464210510254,-0.004726853687316179,-0.06427646428346634,0.7871353030204773,5.228200912475586,4.03125,0,"['C1', 'F2', 'F1']",6.1,270,0,3.055823517871273,[21900|0|0]
21900,1.2782505750656128,-0.33351996541023254,-0.004633976146578789,-0.06827348470687866,0.7884387969970703,5.237737655639648,4.03125,0,"['C1', 'F2', 'F1']",6.1,270,0,3.0560993559464613,[22000|0|0]
22000,1.2779884338378906,-0.33342570066452026,-0.0049912696704268456,-0.06680413335561752,0.7955944538116455,5.229295253753662,4.02734375,0,"['C1', 'F2', 'F1']",6.1,270,0,3.0565524150239995,[22100|0|0]
22100,1.278268575668335,-0.33348193764686584,-0.004906054120510817,-0.06309880316257477,0.7884853482246399,5.245050430297852,4.02734375,0,"['C1', 'F2', 'F1']",6.1,270,0,3.056850582314787,[22200|0|0]
22200,1.2782624959945679,-0.33366864919662476,-0.0047819046303629875,-0.055533118546009064,0.7921351194381714,5.222770690917969,4.02734375,0,"['C1', 'F2', 'F1']",6.1,270,0,3.057074884033796,[22300|0|0]
22300,1.27829909324646,-0.3336080014705658,-0.004834681283682585,-0.06184941902756691,0.7919659614562988,5.236701011657715,4.02734375,0,"['C1', 'F2', 'F1']",6.1,270,0,3.057163217949467,[22400|0|0]
22400,1.2782267332077026,-0.33346718549728394,-0.004844652023166418,-0.06460732966661453,0.7953159213066101,5.245842933654785,4.03125,0,"['C1', 'F2', 'F1']",6.1,270,0,3.0573218512662264,[22500|0|0]
22500,1.2782602310180664,-0.3336270749568939,-0.0047232951037585735,-0.06175529956817627,0.8045656085014343,5.224999904632568,4.02734375,0,"['C1', 'F2', 'F1']",6.1,270,0,3.0575253561666136,[22600|0|0]
22600,1.2783340215682983,-0.3336177468299866,-0.0047597093507647514,-0.06291276961565018,0.8025780320167542,5.2323455810546875,4.03125,0,"['C1', 'F2', 'F1']",6.1,270,0,3.05760816955104,[22700|0|0]
22700,1.2783706188201904,-0.3335261940956116,-0.0048262919299304485,-0.06613000482320786,0.7998115420341492,5.233520984649658,4.03125,0,"['C1', 'F2', 'F1']",6.1,270,0,3.057727142244823,[22800|0|0]
22800,1.2782402038574219,-0.3332773447036743,-0.005128907971084118,-0.078023761510849,0.8044531345367432,5.239740371704102,4.02734375,0,"['C1', 'F2', 'F1']",6.1,270,0,3.05814007147695,[22900|0|0]
22900,1.2781068086624146,-0.3332655429840088,-0.0050145965069532394,-0.07298258692026138,0.8026921153068542,5.223252296447754,4.02734375,0,"['C1', 'F2', 'F1']",6.1,270,0,3.058316141546723,[23000|0|0]
23000,1.2783799171447754,-0.3336099088191986,-0.004594504367560148,-0.07308686524629593,0.796940267086029,5.225783824920654,4.03125,0,"['C1', 'F2', 'F1']",6.1,270,0,3.058924132893013,[23100|0|0]
23100,1.2780697345733643,-0.33338654041290283,-0.0049486481584608555,-0.08624991774559021,0.812964677810669,5.215033531188965,4.02734375,0,"['C1', 'F2', 'F1']",6.1,270,0,3.059445213018494,[23200|0|0]
23200,1.278351068496704,-0.33372464776039124,-0.004665461368858814,-0.07697946578264236,0.8089334964752197,5.204272747039795,4.02734375,0,"['C1', 'F2', 'F1']",6.1,270,0,3.0599683383501812,[23300|0|0]
23300,1.2784096002578735,-0.33344247937202454,-0.004772985354065895,-0.08587446063756943,0.8051378726959229,5.20931339263916,4.03125,0,"['C1', 'F2', 'F1']",6.1,270,0,3.0602759198415845,[23400|0|0]
23400,1.2783629894256592,-0.33353596925735474,-0.0046451338566839695,-0.08697685599327087,0.7980268001556396,5.210691452026367,4.02734375,0,"['C1', 'F2', 'F1']",6.1,270,0,3.0604410226390217,[23500|0|0]
23500,1.2783401012420654,-0.33348625898361206,-0.004641102161258459,-0.08225560188293457,0.8035342693328857,5.191842079162598,4.03125,0,"['C1', 'F2', 'F1']",6.1,270,0,3.0604958973584453,[23600|0|0]
23600,1.2781109809875488,-0.33342036604881287,-0.0051449015736579895,-0.08734937757253647,0.8021239042282104,5.208358287811279,4.03125,0,"['C1', 'F2', 'F1']",6.1,270,0,3.061053258837039,[23700|0|0]
23700,1.278188943862915,-0.33337265253067017,-0.0048827072605490685,-0.08949153125286102,0.7995620369911194,5.222431659698486,4.02734375,0,"['C1', 'F2', 'F1']",6.1,270,0,3.0613309288706683,[23800|0|0]
23800,1.278212547302246,-0.33354201912879944,-0.0046982308849692345,-0.08357264846563339,0.8034417033195496,5.207784175872803,4.02734375,0,"['C1', 'F2', 'F1']",6.1,270,0,3.0615824715113025,[23900|0|0]
23900,1.2792867422103882,-0.3332012891769409,-0.005145044066011906,-0.0773024708032608,0.80573570728302,5.239067554473877,4.03125,0,"['C1', 'F2', 'F1']",6.1,270,0,3.0627947559744237,[24000|0|0]
24000,1.27937912940979,-0.3335047960281372,-0.004759667906910181,-0.07700224965810776,0.7964676022529602,5.231075763702393,4.03125,0,"['C1', 'F2', 'F1']",6.1,270,0,3.0632939218660273,[24100|0|0]
24100,1.279442548751831,-0.33340415358543396,-0.004609950818121433,-0.07602380216121674,0.7923567295074463,5.255702018737793,4.02734375,0,"['C1', 'F2', 'F1']",6.1,270,0,3.063485144565761,[24200|0|0]
24200,1.2794303894042969,-0.33340388536453247,-0.004477316047996283,-0.08382284641265869,0.788862943649292,5.229062557220459,4.02734375,0,"['C1', 'F2', 'F1']",6.1,270,0,3.0636183357964075,[24300|0|0]
24300,1.279310941696167,-0.333256334066391,-0.005122246686369181,-0.08420329540967941,0.7912396788597107,5.213377952575684,4.02734375,0,"['C1', 'F2', 'F1']",6.1,270,0,3.0642906264098126,[24400|0|0]
24400,1.2790993452072144,-0.3332298696041107,-0.005209595430642366,-0.08819234371185303,0.7945609092712402,5.225804328918457,4.02734375,0,"['C1', 'F2', 'F1']",6.1,270,0,3.0645210678232497,[24500|0|0]
24500,1.2794184684753418,-0.33339568972587585,-0.00459393672645092,-0.0791035071015358,0.7816027402877808,5.224094867706299,4.03125,0,"['C1', 'F2', 'F1']",6.1,270,0,3.065234069655708,[24600|0|0]
24600,1.2795008420944214,-0.3334931433200836,-0.004585873801261187,-0.07642237842082977,0.7816400527954102,5.220613956451416,4.03125,0,"['C1', 'F2', 'F1']",6.1,270,0,3.0653619274943686,[24700|0|0]
24700,1.2793629169464111,-0.33328548073768616,-0.004961363505572081,-0.07918063551187515,0.789202094078064,5.231516361236572,4.02734375,0,"['C1', 'F2', 'F1']",6.1,270,0,3.065812637614762,[24800|0|0]
24800,1.27938973903656,-0.33336225152015686,-0.0048058065585792065,-0.07515763491392136,0.7934514284133911,5.228104114532471,4.02734375,0,"['C1', 'F2', 'F1']",6.1,270,0,3.065988168641418,[24900|0|0]
24900,1.279386281967163,-0.3334066867828369,-0.004831281490623951,-0.0659254640340805,0.7957563996315002,5.235118865966797,4.02734375,0,"['C1', 'F2', 'F1']",6.1,270,0,3.066039504944956,[25000|0|0]
25000,1.2793395519256592,-0.33337822556495667,-0.0048228902742266655,-0.07531921565532684,0.7921701669692993,5.235586643218994,4.02734375,0,"['C1', 'F2', 'F1']",6.1,270,0,3.0660948597118223,[25100|0|0]
25100,1.2793751955032349,-0.33292531967163086,-0.005177549086511135,-0.08792780339717865,0.7861230373382568,5.231888294219971,4.02734375,0,"['C1', 'F2', 'F1']",6.1,270,0,3.0666712077715594,[25200|0|0]
25200,1.2791260480880737,-0.3330993950366974,-0.005026273895055056,-0.07686636596918106,0.7952098250389099,5.237336158752441,4.03125,0,"['C1', 'F2', 'F1']",6.1,270,0,3.067010708656322,[25300|0|0]
25300,1.2793196439743042,-0.3333902955055237,-0.004793921951204538,-0.059320785105228424,0.7924489974975586,5.231200218200684,4.03125,0,"['C1', 'F2', 'F1']",6.1,270,0,3.067430339298363,[25400|0|0]
25400,1.2793737649917603,-0.3333471417427063,-0.004732451401650906,-0.05887962877750397,0.7889688611030579,5.235198497772217,4.03125,0,"['C1', 'F2', 'F1']",6.1,270,0,3.067522913378095,[25500|0|0]
25500,1.2792798280715942,-0.3333905041217804,-0.004628664348274469,-0.057389646768569946,0.7886987328529358,5.2302117347717285,4.02734375,0,"['C1', 'F2', 'F1']",6.1,270,0,3.0676694609585518,[25600|0|0]
25600,1.2793066501617432,-0.33338913321495056,-0.005011492408812046,-0.0661158636212349,0.7921745181083679,5.233442783355713,4.02734375,0,"['C1', 'F2', 'F1']",6.1,270,0,3.0680532299357246,[25700|0|0]
25700,1.2792739868164062,-0.3332479000091553,-0.005115882493555546,-0.07526032626628876,0.782030463218689,5.220362186431885,4.03125,0,"['C1', 'F2', 'F1']",6.1,270,0,3.068231866444705,[25800|0|0]
25800,1.279390811920166,-0.33306875824928284,-0.005053069442510605,-0.08156386762857437,0.778327465057373,5.237405776977539,4.03125,0,"['C1', 'F2', 'F1']",6.1,270,0,3.068454768563089,[25900|0|0]
25900,1.2792946100234985,-0.33329227566719055,-0.004646571818739176,-0.06740075349807739,0.7835546731948853,5.2597246170043945,3.66796875,0,"['E1B', 'F2', 'G1']",6.1,270,0,3.0689285355513465,[25900|0|0]
26000,1.2792519330978394,-0.3335687816143036,-0.004834992811083794,-0.05774645134806633,0.7217552661895752,5.214938163757324,3.03515625,0,"['E1B', 'F2', 'G1']",6.1,270,0,3.069265847468018,[25900|0|0]
26100,1.277300238609314,-0.33308082818984985,0.006599925458431244,0.4958423674106598,1.5170564651489258,4.957880020141602,3.37890625,0,"['E1B', 'F2', 'G1']",6.1,270,0,3.0808763843096747,[25900|0|0]
26200,1.2721319198608398,-0.33066704869270325,0.05606548488140106,-2.5012378692626953,2.014720916748047,3.518362045288086,3.515625,0,"['E1B', 'F2', 'G1']",6.1,270,0,3.1306697515303603,[25900|0|0]
26300,1.2632935047149658,-0.3220517039299011,0.1304481029510498,-0.6793621182441711,-0.6351303458213806,1.4182337522506714,3.57421875,0,"['E1B', 'F2', 'G1']",6.1,270,0,3.2060694572232076,[25900|0|0]
26400,1.2554106712341309,-0.30975836515426636,0.213809996843338,0.8229924440383911,-2.4344589710235596,-0.21081261336803436,3.583984375,0,"['E1B', 'F2', 'G1']",6.1,270,0,3.2907008378999296,[25900|0|0]
26500,1.2512692213058472,-0.2973412573337555,0.3001749813556671,1.523329496383667,-2.584632635116577,-1.3170605897903442,3.583984375,0,"['E1B', 'F2', 'G1']",6.1,270,0,3.3780521213704633,[25900|0|0]
26600,1.250274419784546,-0.2874491214752197,0.3839884102344513,2.7801287174224854,-2.548375129699707,-2.0510623455047607,3.5625,0,"['E1B', 'F2', 'G1']",6.1,270,0,3.4624531571598984,[25900|0|0]
26700,1.252529501914978,-0.2824004888534546,0.46796637773513794,2.9835779666900635,-1.9312853813171387,-2.447434902191162,3.55859375,0,"['E1B', 'F2', 'G1']",6.1,270,0,3.5466129641482165,[25900|0|0]
26800,1.2571003437042236,-0.283060222864151,0.5532453060150146,2.4667351245880127,-0.6100642681121826,-2.516676664352417,3.552734375,0,"['E1B', 'F2', 'G1']",6.1,270,0,3.632016848440393,[25900|0|0]
26900,1.260804533958435,-0.2864930331707001,0.639515221118927,1.342774748802185,0.3321574032306671,-2.1852545738220215,3.552734375,0,"['E1B', 'F2', 'G1']",6.1,270,0,3.718434459284922,[25900|0|0]
27000,1.2627296447753906,-0.2921089828014374,0.7281833291053772,0.8801685571670532,0.7643584609031677,-1.9008694887161255,3.552734375,0,"['E1B', 'F2', 'G1']",6.1,270,0,3.8073010914693888,[25900|0|0]
27100,1.262524127960205,-0.2975866198539734,0.8186783790588379,-0.177939310669899,0.7227564454078674,-1.6320134401321411,3.546875,0,"['E1B', 'F2', 'G1']",6.1,270,0,3.897962002621439,[25900|0|0]
27200,1.259840726852417,-0.3017371892929077,0.911191999912262,-0.49260425567626953,0.4466565251350403,-1.4369728565216064,3.552734375,0,"['E1B', 'F2', 'G1']",6.1,270,0,3.99060755249613,[25900|0|0]
27300,1.2557039260864258,-0.3052598237991333,1.0053664445877075,-0.4776090681552887,-0.23054464161396027,-1.8093823194503784,3.541015625,0,"['E1B', 'F2', 'G1']",6.1,270,0,4.084938608381085,[25900|0|0]
27400,1.2510707378387451,-0.3067503571510315,1.101720929145813,-0.6492080688476562,-0.5177742838859558,-2.224912643432617,3.546875,0,"['E1B', 'F2', 'G1']",6.1,270,0,4.181415936378236,[25900|0|0]
27500,1.2454497814178467,-0.3069712519645691,1.1991180181503296,-0.6071048974990845,-0.916973888874054,3.236605405807495,3.546875,0,"['E1B', 'F2', 'G1']",6.1,270,0,4.278975338242731,[25900|0|0]
27600,1.2412081956863403,-0.30632394552230835,1.2981102466583252,-0.7095781564712524,-0.7463777661323547,6.014279842376709,3.552734375,0,"['E1B', 'F2', 'G1']",6.1,270,0,4.37806051049432,[25900|0|0]
27700,1.2377042770385742,-0.3043408691883087,1.3957589864730835,0.2238045334815979,-0.5405130982398987,7.072504043579102,3.60546875,0,"['E1B', 'F2', 'G1']",6.1,270,0,4.475792216839022,[25900|0|0]
27800,1.2344129085540771,-0.30283477902412415,1.489092469215393,0.6539780497550964,-0.4105030298233032,6.907163619995117,3.630859375,0,"['E1B', 'F2', 'G1']",6.1,270,0,4.569195859246009,[25900|0|0]
27900,1.2291096448898315,-0.3010524809360504,1.5705260038375854,1.2956035137176514,0.17537011206150055,6.482625961303711,3.642578125,0,"['E1B', 'F2', 'G1']",6.1,270,0,4.650821356200276,[25900|0|0]
28000,1.2274279594421387,-0.30074065923690796,1.6351722478866577,1.3883227109909058,0.8900842666625977,5.9522881507873535,3.642578125,0,"['E1B', 'F2', 'G1']",6.1,270,0,4.715490221725885,[25900|0|0]
28100,1.2190513610839844,-0.31010982394218445,1.6844340562820435,1.047765851020813,-0.26652660965919495,-9.043708801269531,3.630859375,0,"['E1B', 'F2', 'G1']",6.1,270,0,4.766329915014811,[25900|0|0]
28200,1.2089356184005737,-0.31761813163757324,1.7121270895004272,-0.7478896379470825,0.32187575101852417,-14.240660667419434,3.615234375,0,"['E1B', 'F2', 'G1']",6.1,270,0,4.796753705431525,[25900|0|0]
28300,1.2015774250030518,-0.3161776661872864,1.7340593338012695,-1.012271761894226,-0.7368316650390625,-4.710263252258301,3.59375,0,"['E1B', 'F2', 'G1']",6.1,270,0,4.819932171533936,[25900|0|0]
28400,1.1904075145721436,-0.3121486306190491,1.746767282485962,-1.0404192209243774,-1.2123395204544067,1.0661283731460571,3.578125,0,"['E1B', 'F2', 'G1']",6.1,270,0,4.837324468289035,[25900|0|0]
28500,1.1849640607833862,-0.30924752354621887,1.7556804418563843,-0.6601080894470215,-1.481736183166504,3.997844934463501,3.578125,0,"['E1B', 'F2', 'G1']",6.1,270,0,4.848163841949948,[25900|0|0]
28600,1.1759268045425415,-0.3059663772583008,1.7504249811172485,0.03565499559044838,-1.868404746055603,3.4330697059631348,3.5625,0,"['E1B', 'F2', 'G1']",6.1,270,0,4.859120930473183,[25900|0|0]
28700,1.1662496328353882,-0.2995906174182892,1.7464628219604492,0.27951738238334656,-2.8911375999450684,-1.2149161100387573,3.55859375,0,"['E1B', 'F2', 'G1']",6.1,270,0,4.871368243279306,[25900|0|0]
28801,1.1676788330078125,-0.29521384835243225,1.745607852935791,1.053080439567566,-2.322248697280884,-4.212283134460449,3.5625,0,"['E1B', 'F2', 'G1']",6.1,270,0,4.8760511582499015,[25900|0|0]
28901,1.1674622297286987,-0.29702869057655334,1.7359577417373657,1.1348358392715454,-2.439161539077759,-5.481795310974121,3.537109375,0,"['E1B', 'F2', 'G1']",6.1,270,139.2538364361192,4.885872828954061,[25900|0|0]
29000,1.1708769798278809,-0.30249351263046265,1.7353739738464355,-8.221417427062988,7.674681663513184,-5.722715377807617,3.48828125,0,"['E1B', 'F2', 'G1']",6.1,270,139.2538364361192,4.892343190865982,[25900|0|0]
29100,1.1593308448791504,-0.3021484315395355,1.7236403226852417,-13.634431838989258,15.106091499328613,-5.783494472503662,3.48828125,0,"['E1B', 'F2', 'G1']",6.1,270,139.2538364361192,4.908808635979498,[25900|0|0]
29200,1.131697654724121,-0.2546651363372803,1.725866436958313,-18.10882568359375,18.53108787536621,-7.384539604187012,3.5,0,"['E1B', 'F2', 'G1']",6.1,270,139.2538364361192,4.963792379996846,[25900|0|0]
29300,1.1228893995285034,-0.17224739491939545,1.7412070035934448,-14.970072746276855,10.811406135559082,0.8497376441955566,3.5,0,"['E1B', 'F2', 'G1']",6.1,270,139.2538364361192,5.048087115566177,[25900|0|0]
29400,1.0726373195648193,-0.05523206666111946,1.7346762418746948,-4.397382736206055,9.641407012939453,-4.071856498718262,3.541015625,0,"['E1B', 'F2', 'G1']",6.1,270,139.2538364361192,5.175603818145469,[25900|0|0]
29500,1.0246758460998535,0.06228799745440483,1.7529590129852295,6.000522136688232,5.256957054138184,-7.775942802429199,3.55859375,0,"['E1B', 'F2', 'G1']",6.1,270,139.2538364361192,5.303843937164939,[25900|0|0]
29602,0.9556074142456055,0.16865968704223633,1.7544944286346436,11.665641784667969,2.020689010620117,-5.776308536529541,3.5625,0,"['E1B', 'F2', 'G1']",6.1,270,139.2538364361192,5.430681400580885,[25900|0|0]
29700,0.8802040815353394,0.25420665740966797,1.7653858661651611,14.972683906555176,-2.79939866065979,-7.880539417266846,3.546875,0,"['E1B', 'F2', 'G1']",6.1,270,139.2538364361192,5.545235187660765,[25900|0|0]
29801,0.8061777949333191,0.3084007501602173,1.7634570598602295,13.852781295776367,-5.252015590667725,-3.274664878845215,3.53125,0,"['E1B', 'F2', 'G1']",6.1,270,139.2538364361192,5.636999075388463,[25900|0|0]
29902,0.7361253499984741,0.3430100977420807,1.768600583076477,10.56106185913086,-8.494709014892578,-2.7688064575195312,3.53125,0,"['E1B', 'F2', 'G1']",6.1,270,139.2538364361192,5.715303658986537,[25900|0|0]
30002,0.6756249070167542,0.35626229643821716,1.7703958749771118,7.033452987670898,-10.636920928955078,-2.683488368988037,3.525390625,0,"['E1B', 'F2', 'G1']",6.1,270,139.2538364361192,5.777264513114565,[25900|0|0]
