time.ms,stateEstimate.x,stateEstimate.y,stateEstimate.z,stabilizer.roll,stabilizer.pitch,stabilizer.yaw,pm.vbat,drone_id,node_name,wind_speed,global_wind_direction,relative_wind_direction,travel_dist,waiting_time
0,-0.3336946368217468,-0.38792693614959717,0.021629182621836662,-0.5412282347679138,0.2980418801307678,-2.0463669300079346,4.046875,0,K1,0,None,0,0.03496612631602689,[100|0|0|0]
100,-0.3338371813297272,-0.3879191279411316,0.021773824468255043,-0.544349730014801,0.29579707980155945,-2.059668779373169,4.046875,0,K1,0,None,0,0.03516935320551281,[200|0|0|0]
200,-0.3342379629611969,-0.38772571086883545,0.02140321396291256,-0.55318284034729,0.3030024766921997,-2.0575551986694336,4.046875,0,K1,0,None,0,0.035748480330287116,[300|0|0|0]
300,-0.33371999859809875,-0.38790804147720337,0.021813146770000458,-0.5495530366897583,0.2875693440437317,-2.066045045852661,4.046875,0,K1,0,None,0,0.03643373680673549,[400|0|0|0]
400,-0.33388185501098633,-0.38819897174835205,0.021547645330429077,-0.5412766933441162,0.29051244258880615,-2.0502607822418213,4.046875,0,K1,0,None,0,0.036859564160809835,[500|0|0|0]
500,-0.3338139057159424,-0.3880026042461395,0.021793847903609276,-0.4517099857330322,0.36249569058418274,-2.0566444396972656,4.046875,0,K1,0,None,0,0.03718173338600477,[600|0|0|0]
600,-0.3337979018688202,-0.38797399401664734,0.02183069847524166,-0.4773300886154175,0.34740114212036133,-2.0514299869537354,4.046875,0,K1,0,None,0,0.03723105511533313,[700|0|0|0]
700,-0.3391967713832855,-0.3952823877334595,0.022849466651678085,-0.26410597562789917,0.5028281211853027,-2.0819313526153564,4.046875,0,K1,0,None,0,0.046374265675715176,[800|0|0|0]
801,-0.33340585231781006,-0.38817277550697327,0.02140953578054905,-0.5113243460655212,0.3225075602531433,-2.0609278678894043,4.046875,0,K1,0,None,0,0.05565622293415587,[900|0|0|0]
901,-0.339354008436203,-0.3955551087856293,0.023033052682876587,-0.28549712896347046,0.49773481488227844,-2.1008248329162598,4.046875,0,K1,0,None,0,0.06527470581754609,[1000|0|0|0]
1001,-0.3337753117084503,-0.38773319125175476,0.021507645025849342,-0.5322313904762268,0.32499760389328003,-2.0817854404449463,4.046875,0,K1,0,None,0,0.07500255859228983,[1100|0|0|0]
1101,-0.33353137969970703,-0.3879204988479614,0.021649697795510292,-0.5325852036476135,0.31684058904647827,-2.0738131999969482,4.046875,0,K1,0,None,0,0.07534132982757198,[1200|0|0|0]
1201,-0.3335905969142914,-0.3879246711730957,0.02129039727151394,-0.5268616080284119,0.32812362909317017,-2.0757575035095215,4.046875,0,K1,0,None,0,0.07570550142633307,[1300|0|0|0]
1301,-0.333673894405365,-0.3877715766429901,0.02163711003959179,-0.5323602557182312,0.3334979712963104,-2.0835723876953125,4.046875,0,K1,0,None,0,0.07609355574046399,[1400|0|0|0]
1401,-0.3340815603733063,-0.3875608444213867,0.021683329716324806,0.08132512122392654,0.06208425015211105,-1.5439770221710205,4.046875,0,K1,0,None,0,0.07655478872839602,[1500|0|0|0]
1501,-0.33412113785743713,-0.3885246813297272,0.02163064479827881,-0.18609687685966492,-0.2331344336271286,-1.8659873008728027,4.046875,0,K1,0,None,0,0.07752087550696145,[1600|0|0|0]
1601,-0.3337991237640381,-0.3883843719959259,0.02118012122809887,-0.4627995491027832,-0.33775314688682556,-1.8875864744186401,4.046875,0,K1,0,None,0,0.07809214713481202,[1700|0|0|0]
1701,-0.3337192237377167,-0.3881434202194214,0.021469905972480774,-0.5537725687026978,-0.22935186326503754,-1.893250584602356,4.046875,0,K1,0,None,0,0.07847739636697651,[1800|0|0|0]
1801,-0.33363258838653564,-0.3878205716609955,0.021414967253804207,-0.5892244577407837,-0.10031764209270477,-1.9163857698440552,4.046875,0,K1,0,None,0,0.07881615164525534,[1900|0|0|0]
1901,-0.33341506123542786,-0.38826456665992737,0.021470608189702034,-0.5486681461334229,-0.014962146990001202,-1.9221454858779907,4.046875,0,K1,0,None,0,0.07931369112539051,[2000|0|0|0]
2002,-0.33364224433898926,-0.3878740072250366,0.021361835300922394,-0.5572175979614258,0.0867675244808197,-1.9486736059188843,4.046875,0,K1,0,None,0,0.07977842801445725,[2100|0|0|0]
2102,-0.3333600163459778,-0.3882204592227936,0.02155337668955326,-0.5367993712425232,0.1264967918395996,-1.9614207744598389,4.046875,0,K1,0,None,0,0.08026460671652853,[2200|0|0|0]
2200,-0.3335757255554199,-0.3882009983062744,0.02092561684548855,-0.5348731279373169,0.17700286209583282,-1.978493094444275,4.046875,0,K1,0,None,0,0.08092867870971156,[2300|0|0|0]
2300,-0.3335326313972473,-0.3876778781414032,0.021476643159985542,-0.5468469262123108,0.20156316459178925,-2.001718759536743,4.046875,0,K1,0,None,0,0.0816896923841167,[2400|0|0|0]
2402,-0.3336698114871979,-0.3878610134124756,0.02182755060493946,-0.5317103862762451,0.2324952781200409,-2.0072250366210938,4.046875,0,K1,0,None,0,0.08210861115847957,[2500|0|0|0]
2502,-0.3334254026412964,-0.38777515292167664,0.021426407620310783,-0.5291395783424377,0.24857290089130402,-2.0212507247924805,4.046875,0,K1,0,None,0,0.08258612911830092,[2600|0|0|0]
2602,-0.33392542600631714,-0.3880835175514221,0.021733690053224564,-0.5150449275970459,0.27577805519104004,-2.0199735164642334,4.046875,0,K1,0,None,0,0.08324910317814199,[2700|0|0|0]
2702,-0.3336488902568817,-0.38829824328422546,0.021204181015491486,-0.5154162645339966,0.28547969460487366,-2.0313498973846436,4.046875,0,K1,0,None,0,0.08388389368065818,[2800|0|0|0]
2802,-0.3334602415561676,-0.3880881667137146,0.021396102383732796,-0.5227296352386475,0.2905427813529968,-2.0381927490234375,4.046875,0,K1,0,None,0,0.08422529419229569,[2900|0|0|0]
2900,-0.33345675468444824,-0.38793617486953735,0.021696418523788452,-0.5289850234985352,0.3038174510002136,-2.0298681259155273,4.046875,0,K1,0,None,0,0.0845618999898523,[3000|0|0|0]
3000,-0.33367183804512024,-0.3879564106464386,0.021247034892439842,-0.5278154611587524,0.3171129524707794,-2.034381628036499,4.046875,0,K1,0,None,0,0.0850605140558681,[3100|0|0|0]
3100,-0.3336174488067627,-0.38786590099334717,0.021807359531521797,-0.5207813382148743,0.3233738839626312,-2.0309529304504395,4.046875,0,K1,0,None,0,0.0856307016458016,[3200|0|0|0]
3200,-0.3338163495063782,-0.3874324560165405,0.021713295951485634,-0.5312151908874512,0.33323389291763306,-2.031867504119873,4.046875,0,K1,0,None,0,0.08611679216547427,[3300|0|0|0]
3300,-0.33380740880966187,-0.3877545893192291,0.021594546735286713,-0.5198029279708862,0.33406782150268555,-2.0495190620422363,4.046875,0,K1,0,None,0,0.08646023237439963,[3400|0|0|0]
3400,-0.3337382376194,-0.3880658745765686,0.021351195871829987,-0.509626567363739,0.3349853754043579,-2.054762840270996,4.046875,0,K1,0,None,0,0.08686135929663782,[3500|0|0|0]
3500,-0.3336997926235199,-0.38770791888237,0.021496735513210297,-0.5165035128593445,0.3414427638053894,-2.0438761711120605,4.046875,0,K1,0,None,0,0.08724967886082503,[3600|0|0|0]
3600,-0.3334125876426697,-0.388112872838974,0.021447021514177322,-0.5075838565826416,0.33028870820999146,-2.050891399383545,4.04296875,0,K1,0,None,0,0.08774862363702202,[3700|0|0|0]
3700,-0.333381712436676,-0.38811787962913513,0.021464087069034576,-0.5071723461151123,0.3304577171802521,-2.068969249725342,4.046875,0,K1,0,None,0,0.08778425479551362,[3800|0|0|0]
3800,-0.3339316248893738,-0.3877844214439392,0.021531227976083755,-0.5152323842048645,0.3497433662414551,-2.0503265857696533,4.046875,0,K1,0,None,0,0.08843086593700873,[3900|0|0|0]
3900,-0.3338209092617035,-0.3875772953033447,0.021662157028913498,-0.5181307196617126,0.34654560685157776,-2.053926467895508,4.046875,0,K1,0,None,0,0.08869975551509401,[4000|0|0|0]
4000,-0.33364999294281006,-0.3878415524959564,0.021363552659749985,-0.5088955760002136,0.3420361578464508,-2.051234483718872,4.046875,0,K1,0,None,0,0.08913358592112226,[4100|0|0|0]
4100,-0.3335666358470917,-0.3880149722099304,0.021484017372131348,-0.5049846172332764,0.34312716126441956,-2.0615580081939697,4.046875,0,K1,0,None,0,0.08936059814442875,[4200|0|0|0]
4200,-0.33339840173721313,-0.38796526193618774,0.021293625235557556,-0.5043790340423584,0.34283876419067383,-2.077995538711548,4.04296875,0,K1,0,None,0,0.08961948613702657,[4300|0|0|0]
4300,-0.333479106426239,-0.38806867599487305,0.021325360983610153,-0.5036945343017578,0.3398232161998749,-2.0709285736083984,4.046875,0,K1,0,None,0,0.08975444862095817,[4400|0|0|0]
4400,-0.3337790369987488,-0.38765406608581543,0.02170674502849579,-0.5473767518997192,0.3142223656177521,-2.0785911083221436,4.046875,0,K1,0,None,0,0.0903926598044297,[4500|0|0|0]
4500,-0.33404281735420227,-0.38795724511146545,0.0216350220143795,-0.5554974675178528,0.30976778268814087,-2.059969902038574,4.046875,0,K1,0,None,0,0.09080087762406916,[4600|0|0|0]
4600,-0.33405640721321106,-0.38803133368492126,0.021358123049139977,-0.5735942125320435,0.29040127992630005,-2.0676815509796143,4.046875,0,K1,0,None,0,0.09108783901160294,[4700|0|0|0]
4700,-0.33372509479522705,-0.3877951502799988,0.02152116969227791,-0.5911259055137634,0.2707669734954834,-2.077448844909668,4.046875,0,K1,0,None,0,0.0915261707659965,[4800|0|0|0]
4800,-0.33384785056114197,-0.387726753950119,0.02150125429034233,-0.609055757522583,0.26689842343330383,-2.068211078643799,4.04296875,0,K1,0,None,0,0.0916680991255327,[4900|0|0|0]
4900,-0.3339335024356842,-0.38807815313339233,0.021193664520978928,-0.4659762382507324,0.3615579307079315,-2.0668439865112305,4.046875,0,K1,0,None,0,0.09214289286583978,[5000|0|0|0]
5000,-0.33398905396461487,-0.38801079988479614,0.021720731630921364,-0.49539875984191895,0.3358196020126343,-2.050234317779541,4.046875,0,K1,0,None,0,0.09267714203134785,[5100|0|0|0]
5100,-0.33394789695739746,-0.38835588097572327,0.021338554099202156,-0.5132537484169006,0.3185548782348633,-2.0755014419555664,4.04296875,0,K1,0,None,0,0.09319370231273767,[5200|0|0|0]
5200,-0.33405745029449463,-0.38781553506851196,0.021616315469145775,-0.5380150079727173,0.31594282388687134,-2.083211898803711,4.046875,0,K1,0,None,0,0.09381105716348567,[5300|0|0|0]
5300,-0.3338980972766876,-0.38775402307510376,0.021291734650731087,-0.545541524887085,0.3049300014972687,-2.0795540809631348,4.046875,0,K1,0,None,0,0.09417784022920708,[5400|0|0|0]
5400,-0.3337516486644745,-0.38788971304893494,0.02139715850353241,-0.5356845855712891,0.3105259835720062,-2.069047212600708,4.046875,0,K1,0,None,0,0.09440361257861447,[5500|0|0|0]
5500,-0.3338630199432373,-0.38804420828819275,0.02179867960512638,-0.536880373954773,0.3138020932674408,-2.056194305419922,4.046875,0,K1,0,None,0,0.09484801277631001,[5600|0|0|0]
5600,-0.333547979593277,-0.38811197876930237,0.021534711122512817,-0.5420958995819092,0.30366697907447815,-2.079681634902954,4.046875,0,K1,0,None,0,0.09526457324014001,[5700|0|0|0]
5700,-0.33426597714424133,-0.3878788352012634,0.02130396105349064,-0.5504234433174133,0.32470232248306274,-2.0752170085906982,4.04296875,0,K1,0,None,0,0.0960539540106573,[5800|0|0|0]
5800,-0.3337964117527008,-0.3877791464328766,0.021648595109581947,-0.5543352961540222,0.3081449866294861,-2.0759499073028564,4.046875,0,K1,0,None,0,0.09664488728954168,[5900|0|0|0]
5900,-0.33406123518943787,-0.3878166079521179,0.021525206044316292,-0.5500525236129761,0.31929245591163635,-2.061556577682495,4.046875,0,K1,0,None,0,0.09693943725049267,[6000|0|0|0]
6000,-0.3337925970554352,-0.38802486658096313,0.021807391196489334,-0.4561498761177063,0.36682379245758057,-2.060530185699463,4.046875,0,K1,0,None,0,0.09738121384973245,[6100|0|0|0]
6100,-0.3340732455253601,-0.38803038001060486,0.021639980375766754,-0.4816019535064697,0.34882068634033203,-2.062361478805542,4.046875,0,K1,0,None,0,0.09770804766755524,[6200|0|0|0]
6200,-0.33430883288383484,-0.3877796530723572,0.021536793559789658,-0.4991086721420288,0.35204383730888367,-2.053804397583008,4.04296875,0,K1,0,None,0,0.09806723135319206,[6300|0|0|0]
6300,-0.33365970849990845,-0.3879685401916504,0.02167508378624916,-0.5079622268676758,0.318899005651474,-2.0607199668884277,4.04296875,0,K1,0,None,0,0.09875727845040858,[6400|0|0|0]
6400,-0.3339577317237854,-0.38808301091194153,0.02105923742055893,-0.5131558179855347,0.3240371644496918,-2.0642995834350586,4.046875,0,K1,0,None,0,0.09945095570526695,[6500|0|0|0]
6500,-0.33404994010925293,-0.3877577781677246,0.021451497450470924,-0.5598962903022766,0.2971757650375366,-2.069186210632324,4.046875,0,K1,0,None,0,0.09996878449485667,[6600|0|0|0]
6600,-0.3338145315647125,-0.38791051506996155,0.02154536359012127,-0.5847293734550476,0.27352094650268555,-2.064802408218384,4.04296875,0,K1,0,None,0,0.10026468413378925,[6700|0|0|0]
6700,-0.3335364758968353,-0.3880193829536438,0.02149880677461624,-0.6006738543510437,0.2565314471721649,-2.0605757236480713,4.046875,0,K1,0,None,0,0.10056690045963228,[6800|0|0|0]
6800,-0.3338208496570587,-0.3877887427806854,0.021578432992100716,-0.6163691282272339,0.2543351948261261,-2.0696864128112793,4.04296875,0,K1,0,None,0,0.10094160522260806,[6900|0|0|0]
6900,-0.3336597681045532,-0.38769155740737915,0.02121870219707489,-0.6222904920578003,0.2530759572982788,-2.062645435333252,4.04296875,0,K1,0,None,0,0.10134755904785445,[7000|0|0|0]
7000,-0.33367031812667847,-0.38789406418800354,0.021586159244179726,-0.6308126449584961,0.25651517510414124,-2.053879499435425,4.046875,0,K1,0,None,0,0.10176725534356446,[7100|0|0|0]
7100,-0.33347392082214355,-0.38789626955986023,0.02149145118892193,-0.6207864284515381,0.25176942348480225,-2.0673582553863525,4.046875,0,K1,0,None,0,0.10198530666922959,[7200|0|0|0]
7200,-0.33375871181488037,-0.3878558874130249,0.021598054096102715,-0.6216281652450562,0.2725984752178192,-2.0586323738098145,4.04296875,0,K1,0,None,0,0.10229206521784143,[7300|0|0|0]
7300,-0.33395126461982727,-0.38790762424468994,0.021632416173815727,-0.6236236095428467,0.2737516164779663,-2.05783748626709,4.04296875,0,K1,0,None,0,0.10249438683020257,[7400|0|0|0]
7400,-0.3339667022228241,-0.38808926939964294,0.021287064999341965,-0.6225458979606628,0.2720470130443573,-2.070505142211914,4.046875,0,K1,0,None,0,0.10288490023024742,[7500|0|0|0]
7500,-0.3336744010448456,-0.3876064717769623,0.02145206369459629,-0.6306306719779968,0.2630653977394104,-2.0690460205078125,4.04296875,0,K1,0,None,0,0.10347291221358565,[7600|0|0|0]
7600,-0.33358851075172424,-0.3879162669181824,0.021459490060806274,-0.6292414665222168,0.25877201557159424,-2.0631895065307617,4.04296875,0,K1,0,None,0,0.1037944791939974,[7700|0|0|0]
7700,-0.3338162302970886,-0.3875029683113098,0.021393418312072754,-0.6308223605155945,0.27348676323890686,-2.0636281967163086,4.04296875,0,K1,0,None,0,0.1042709636174201,[7800|0|0|0]
7800,-0.33379605412483215,-0.38763943314552307,0.02173144742846489,-0.6201725006103516,0.27347052097320557,-2.073314905166626,4.04296875,0,K1,0,None,0,0.10463605732105331,[7900|0|0|0]
7900,-0.3339763283729553,-0.3881521224975586,0.021563705056905746,-0.46609801054000854,0.3619096875190735,-2.0696964263916016,4.046875,0,K1,0,None,0,0.10520481621499983,[8000|0|0|0]
8000,-0.3342539370059967,-0.38796764612197876,0.021464213728904724,-0.49235543608665466,0.35577642917633057,-2.066016912460327,4.04296875,0,K1,0,None,0,0.10555266188571255,[8100|0|0|0]
8100,-0.33403950929641724,-0.38795045018196106,0.021722735837101936,-0.5183786153793335,0.33362025022506714,-2.06125807762146,4.04296875,0,K1,0,None,0,0.10588897814076918,[8200|0|0|0]
8200,-0.333758145570755,-0.38801631331443787,0.021825144067406654,-0.5277244448661804,0.3258990943431854,-2.064596652984619,4.04296875,0,K1,0,None,0,0.10619555756599589,[8300|0|0|0]
8300,-0.3336336612701416,-0.38832637667655945,0.021376214921474457,-0.5274308323860168,0.3169795274734497,-2.0363481044769287,4.04296875,0,K1,0,None,0,0.10675517619300606,[8400|0|0|0]
8400,-0.3340339958667755,-0.3880865275859833,0.021647173911333084,-0.541327953338623,0.3246930241584778,-2.0321712493896484,4.04296875,0,K1,0,None,0,0.10729481880594305,[8500|0|0|0]
8500,-0.3337913155555725,-0.38780665397644043,0.021408090367913246,-0.5567551851272583,0.3191966712474823,-2.0581657886505127,4.04296875,0,K1,0,None,0,0.10773570871453511,[8600|0|0|0]
8600,-0.3340680003166199,-0.38800013065338135,0.02174469269812107,-0.5533415675163269,0.33334672451019287,-2.0486252307891846,4.04296875,0,K1,0,None,0,0.10821245687679405,[8700|0|0|0]
8700,-0.3340667188167572,-0.3878881335258484,0.021788954734802246,-0.5720360279083252,0.323221892118454,-2.048905611038208,4.04296875,0,K1,0,None,0,0.10833288995658817,[8800|0|0|0]
8800,-0.33422011137008667,-0.38794320821762085,0.02172577939927578,-0.5603041648864746,0.3264942765235901,-2.0471980571746826,4.04296875,0,K1,0,None,0,0.10850768589506972,[8900|0|0|0]
8900,-0.3338293731212616,-0.3879624605178833,0.021601086482405663,-0.5533202290534973,0.31279635429382324,-2.034608840942383,4.04296875,0,K1,0,None,0,0.10891828954054533,[9000|0|0|0]
9000,-0.334201842546463,-0.3876093327999115,0.02152756042778492,-0.5571044683456421,0.33306795358657837,-2.0468006134033203,4.04296875,0,K1,0,None,0,0.10943678615443779,[9100|0|0|0]
9100,-0.333964079618454,-0.38787123560905457,0.021565601229667664,-0.5458943247795105,0.3207192122936249,-2.043415069580078,4.04296875,0,K1,0,None,0,0.10979255489109173,[9200|0|0|0]
9200,-0.3339255452156067,-0.3877902328968048,0.02181840129196644,-0.5487890243530273,0.3145461082458496,-2.045464515686035,4.04296875,0,K1,0,None,0,0.11006079771223123,[9300|0|0|0]
9300,-0.33365297317504883,-0.3881396949291229,0.021297404542565346,-0.5415893197059631,0.31841617822647095,-2.058117628097534,4.04296875,0,K1,0,None,0,0.11074479832788321,[9400|0|0|0]
9400,-0.33408069610595703,-0.3877023458480835,0.021701214835047722,-0.5479438900947571,0.32395458221435547,-2.060971260070801,4.04296875,0,K1,0,None,0,0.1114777948330764,[9500|0|0|0]
9500,-0.33443203568458557,-0.38783374428749084,0.021343836560845375,-0.5443282723426819,0.33044448494911194,-2.059720754623413,4.046875,0,K1,0,None,0,0.11199589161965341,[9600|0|0|0]
9600,-0.3339671492576599,-0.3878682553768158,0.021498654037714005,-0.5444826483726501,0.30944356322288513,-2.0729544162750244,4.046875,0,K1,0,None,0,0.11248709306139608,[9700|0|0|0]
9700,-0.3343871533870697,-0.3879697322845459,0.02170535922050476,-0.5323407649993896,0.32580962777137756,-2.0631749629974365,4.04296875,0,K1,0,None,0,0.11296607955819563,[9800|0|0|0]
9800,-0.3335531949996948,-0.3881954252719879,0.02149404026567936,-0.5295144319534302,0.3076692819595337,-2.0624918937683105,4.04296875,0,K1,0,None,0,0.11385550612465399,[9900|0|0|0]
9900,-0.3337625563144684,-0.38814979791641235,0.021560372784733772,-0.5287688970565796,0.31016865372657776,-2.0712292194366455,4.04296875,0,K1,0,None,0,0.11407981399073237,[10000|0|0|0]
10000,-0.33409178256988525,-0.3878706395626068,0.02162722311913967,-0.5389426946640015,0.3224721848964691,-2.0659115314483643,4.04296875,0,K1,0,None,0,0.11451660716943989,[10100|0|0|0]
10100,-0.3342446982860565,-0.3875499665737152,0.021565204486250877,-0.5459020733833313,0.32399076223373413,-2.0703318119049072,4.04296875,0,K1,0,None,0,0.1148772464530492,[10200|0|0|0]
10200,-0.3340621292591095,-0.3880422115325928,0.02173062227666378,-0.5345921516418457,0.31691524386405945,-2.0600061416625977,4.04296875,0,K1,0,None,0,0.11542770044252139,[10300|0|0|0]
10300,-0.3339426517486572,-0.38818031549453735,0.021576782688498497,-0.5340666174888611,0.309814989566803,-2.0587778091430664,4.04296875,0,K1,0,None,0,0.11566647690429166,[10400|0|0|0]
10400,-0.3345351219177246,-0.38755738735198975,0.021311776712536812,-0.5406542420387268,0.3287794589996338,-2.0413153171539307,4.04296875,0,K1,0,None,0,0.11656608156152057,[10500|0|0|0]
10500,-0.33381712436676025,-0.38784682750701904,0.02158517763018608,-0.5351002812385559,0.3051903247833252,-2.0716047286987305,4.04296875,0,K1,0,None,0,0.11738708347887866,[10600|0|0|0]
10600,-0.33382487297058105,-0.3880540728569031,0.021649012342095375,-0.5340682864189148,0.3039438724517822,-2.076028823852539,4.04296875,0,K1,0,None,0,0.11760407552102368,[10700|0|0|0]
10700,-0.33426225185394287,-0.3879210948944092,0.021265091374516487,-0.5373786687850952,0.321392297744751,-2.0827672481536865,4.04296875,0,K1,0,None,0,0.11820105017330514,[10800|0|0|0]
10800,-0.3338897228240967,-0.38789212703704834,0.021839627996087074,-0.5456039905548096,0.3080747723579407,-2.082958936691284,4.04296875,0,K1,0,None,0,0.11888640361815236,[10900|0|0|0]
10900,-0.3338291049003601,-0.3880263566970825,0.021091200411319733,-0.5527964234352112,0.30638477206230164,-2.081321954727173,4.04296875,0,K1,0,None,0,0.11964918535885655,[11000|0|0|0]
11000,-0.33418014645576477,-0.3876388967037201,0.02141422964632511,-0.5599253177642822,0.3144402503967285,-2.073680877685547,4.04296875,0,K1,0,None,0,0.1202637610716418,[11100|0|0|0]
11100,-0.33444997668266296,-0.388047456741333,0.02168019860982895,-0.5480830669403076,0.3184379041194916,-2.0742413997650146,4.04296875,0,K1,0,None,0,0.12082095865350079,[11200|0|0|0]
11200,-0.33421212434768677,-0.387873113155365,0.021636387333273888,-0.5529113411903381,0.3131403923034668,-2.0605087280273438,4.04296875,0,K1,0,None,0,0.12111910098054476,[11300|0|0|0]
11300,-0.33387383818626404,-0.38795432448387146,0.021732401102781296,-0.553367018699646,0.29847773909568787,-2.0602469444274902,4.04296875,0,K1,0,None,0,0.12148000463918919,[11400|0|0|0]
11400,-0.3338276743888855,-0.3878697156906128,0.02161855250597,-0.5470200181007385,0.30008190870285034,-2.0732622146606445,4.04296875,0,K1,0,None,0,0.12162917315825737,[11500|0|0|0]
11500,-0.3340207636356354,-0.3878978192806244,0.021597914397716522,-0.551176905632019,0.3093376159667969,-2.0694456100463867,4.04296875,0,K1,0,None,0,0.121825385289621,[11600|0|0|0]
11600,-0.3341083824634552,-0.38782763481140137,0.021316615864634514,-0.45616206526756287,0.38193708658218384,-2.0837647914886475,4.04296875,0,K1,0,None,0,0.12212825784272334,[11700|0|0|0]
11700,-0.33435091376304626,-0.3880957365036011,0.021646112203598022,-0.4712481200695038,0.3788415789604187,-2.0795323848724365,4.04296875,0,K1,0,None,0,0.1226174079076646,[11800|0|0|0]
11800,-0.3342047929763794,-0.3878495395183563,0.021609889343380928,-0.5006385445594788,0.3578413724899292,-2.0615081787109375,4.04296875,0,K1,0,None,0,0.12290598430212897,[11900|0|0|0]
11900,-0.3339216411113739,-0.3880004584789276,0.02163238823413849,-0.5077417492866516,0.3382175862789154,-2.03714919090271,4.04296875,0,K1,0,None,0,0.12322763273038773,[12000|0|0|0]
12000,-0.3340470492839813,-0.3878152370452881,0.02168021723628044,-0.5330665111541748,0.33663085103034973,-2.0354480743408203,4.04296875,0,K1,0,None,0,0.1234563723261776,[12100|0|0|0]
12100,-0.3337099254131317,-0.3879897892475128,0.021651949733495712,-0.573977530002594,0.29434964060783386,-2.0296833515167236,4.04296875,0,K1,0,None,0,0.12383705595770358,[12200|0|0|0]
12200,-0.33369049429893494,-0.38792306184768677,0.021461037918925285,-0.5973503589630127,0.2839256823062897,-2.0378966331481934,4.04296875,0,K1,0,None,0,0.12404022444696569,[12300|0|0|0]
12300,-0.333647221326828,-0.387851357460022,0.021590659394860268,-0.6182457804679871,0.2728646695613861,-2.0388364791870117,4.04296875,0,K1,0,None,0,0.12419454812093995,[12400|0|0|0]
12400,-0.33400508761405945,-0.38798725605010986,0.02162904106080532,-0.6259488463401794,0.2807682752609253,-2.036973714828491,4.04296875,0,K1,0,None,0,0.12457926861507226,[12500|0|0|0]
12500,-0.3334771394729614,-0.3878938853740692,0.02148057334125042,-0.6422625184059143,0.2574089765548706,-2.021148443222046,4.04296875,0,K1,0,None,0,0.12513558685725293,[12600|0|0|0]
12600,-0.3338140547275543,-0.38771507143974304,0.02108597941696644,-0.6437748074531555,0.2762471139431,-2.0248990058898926,4.04296875,0,K1,0,None,0,0.12568439527279376,[12700|0|0|0]
12700,-0.3341749310493469,-0.3877311050891876,0.0215323343873024,-0.6462929248809814,0.27651894092559814,-2.0359814167022705,4.04296875,0,K1,0,None,0,0.12625860913285697,[12800|0|0|0]
12800,-0.3339229226112366,-0.3880224823951721,0.02152489870786667,-0.6369211673736572,0.27071014046669006,-2.032442808151245,4.04296875,0,K1,0,None,0,0.12664391975644562,[12900|0|0|0]
12900,-0.3338359296321869,-0.3880656063556671,0.021590357646346092,-0.6371955871582031,0.26425570249557495,-2.0386054515838623,4.04296875,0,K1,0,None,0,0.1267610194020453,[13000|0|0|0]
13000,-0.33402299880981445,-0.3879072368144989,0.021738577634096146,-0.6391891241073608,0.2717258632183075,-2.0443825721740723,4.04296875,0,K1,0,None,0,0.12704745430487088,[13100|0|0|0]
13100,-0.333886981010437,-0.38797780871391296,0.02160162292420864,-0.6314411759376526,0.27209270000457764,-2.036076307296753,4.04296875,0,K1,0,None,0,0.12725297274028424,[13200|0|0|0]
13200,-0.334013432264328,-0.38765525817871094,0.021232234314084053,-0.6307990550994873,0.2827650308609009,-2.0409364700317383,4.04296875,0,K1,0,None,0,0.12775940803986308,[13300|0|0|0]
13300,-0.33404654264450073,-0.38787946105003357,0.021764203906059265,-0.6244043111801147,0.2888064980506897,-2.0358781814575195,4.04296875,0,K1,0,None,0,0.12833764231035452,[13400|0|0|0]
13400,-0.333936870098114,-0.3878268599510193,0.02163856104016304,-0.6248000264167786,0.29064813256263733,-2.0587167739868164,4.04296875,0,K1,0,None,0,0.12851251675902864,[13500|0|0|0]
13500,-0.33437374234199524,-0.38787463307380676,0.02159699983894825,-0.4803624153137207,0.39291462302207947,-2.062537908554077,4.04296875,0,K1,0,None,0,0.12895395414097663,[13600|0|0|0]
13600,-0.33425962924957275,-0.38804757595062256,0.02159833535552025,-0.49662142992019653,0.377706915140152,-2.053520679473877,4.04296875,0,K1,0,None,0,0.12916115650608875,[13700|0|0|0]
13700,-0.33409008383750916,-0.3880617618560791,0.021480822935700417,-0.52218097448349,0.3516254127025604,-2.035614490509033,4.04296875,0,K1,0,None,0,0.12936793188053491,[13800|0|0|0]
13800,-0.3342283368110657,-0.38779714703559875,0.021560613065958023,-0.5395666360855103,0.34922468662261963,-2.032478094100952,4.04296875,0,K1,0,None,0,0.129676964812116,[13900|0|0|0]
13900,-0.33408835530281067,-0.38777583837509155,0.021540720015764236,-0.5423431992530823,0.33976033329963684,-2.0372157096862793,4.04296875,0,K1,0,None,0,0.12981994947951767,[14000|0|0|0]
14000,-0.33409738540649414,-0.3880464434623718,0.021704498678445816,-0.5413256287574768,0.3366536498069763,-2.037008762359619,4.04296875,0,K1,0,None,0,0.13013638605512842,[14100|0|0|0]
14100,-0.33385738730430603,-0.387933611869812,0.02174784056842327,-0.5468859672546387,0.32139852643013,-2.0416457653045654,4.04296875,0,K1,0,None,0,0.1304051025912037,[14200|0|0|0]
14200,-0.3340710699558258,-0.38820788264274597,0.02179182693362236,-0.43959227204322815,0.4054471552371979,-2.047685146331787,4.04296875,0,K1,0,None,0,0.13075555876930553,[14300|0|0|0]
14300,-0.3339153230190277,-0.38774004578590393,0.021480778232216835,-0.48266419768333435,0.37677910923957825,-2.0494284629821777,4.04296875,0,K1,0,None,0,0.1313385508169253,[14400|0|0|0]
14400,-0.3341484069824219,-0.3878830075263977,0.021427355706691742,-0.5051564574241638,0.3660339415073395,-2.059570550918579,4.04296875,0,K1,0,None,0,0.1316171547642592,[14500|0|0|0]
14500,-0.33396798372268677,-0.3878430724143982,0.0217796191573143,-0.5260844826698303,0.3514063060283661,-2.0547573566436768,4.04296875,0,K1,0,None,0,0.13201494478986112,[14600|0|0|0]
14600,-0.3341766595840454,-0.38800522685050964,0.021610358729958534,-0.5352103114128113,0.34172195196151733,-2.034989595413208,4.04296875,0,K1,0,None,0,0.13232877399266585,[14700|0|0|0]
14700,-0.3339236378669739,-0.38755881786346436,0.021405205130577087,-0.5554322600364685,0.32237690687179565,-2.0319020748138428,4.04296875,0,K1,0,None,0,0.1328813940903494,[14800|0|0|0]
14800,-0.33415350317955017,-0.38789328932762146,0.021784702315926552,-0.5562313795089722,0.31739458441734314,-2.0353000164031982,4.04296875,0,K1,0,None,0,0.13343702646517053,[14900|0|0|0]
14900,-0.3340687155723572,-0.3878542184829712,0.021564165130257607,-0.5568296313285828,0.3136199414730072,-2.049804925918579,4.04296875,0,K1,0,None,0,0.13367650949066082,[15000|0|0|0]
15000,-0.3338823616504669,-0.38765642046928406,0.021288137882947922,-0.557964563369751,0.30967628955841064,-2.0561883449554443,4.04296875,0,K1,0,None,0,0.13406386317875454,[15100|0|0|0]
15100,-0.33414000272750854,-0.38773447275161743,0.021640878170728683,-0.5516160130500793,0.32221144437789917,-2.0682342052459717,4.04296875,0,K1,0,None,0,0.13450759372084092,[15200|0|0|0]
15200,-0.3337530195713043,-0.3877207636833191,0.021344028413295746,-0.5489147901535034,0.31768718361854553,-2.0712883472442627,4.04296875,0,K1,0,None,0,0.13499551141905178,[15300|0|0|0]
15300,-0.33408287167549133,-0.3878675103187561,0.02179812267422676,-0.5418100357055664,0.32913488149642944,-2.0484728813171387,4.04296875,0,K1,0,None,0,0.13557563087524951,[15400|0|0|0]
15400,-0.33414608240127563,-0.3878691494464874,0.02168501727283001,-0.586630642414093,0.29405316710472107,-2.041053056716919,4.04296875,0,K1,0,None,0,0.1357052114078114,[15500|0|0|0]
15500,-0.3336455821990967,-0.3880617916584015,0.021491967141628265,-0.6010854244232178,0.26991793513298035,-2.05704665184021,4.04296875,0,K1,0,None,0,0.1362751937122291,[15600|0|0|0]
15600,-0.33425697684288025,-0.38806357979774475,0.021447183564305305,-0.6165481805801392,0.2766653895378113,-2.0403897762298584,4.04296875,0,K1,0,None,0,0.13688822892874394,[15700|0|0|0]
15700,-0.3342224955558777,-0.3879665732383728,0.021767206490039825,-0.6222437024116516,0.26854565739631653,-2.038914442062378,4.04296875,0,K1,0,None,0,0.1372244043363963,[15800|0|0|0]
15800,-0.33455216884613037,-0.38766101002693176,0.021396765485405922,-0.6449997425079346,0.26718199253082275,-2.038740873336792,4.04296875,0,K1,0,None,0,0.137806881711413,[15900|0|0|0]
15900,-0.3342641294002533,-0.38790449500083923,0.02173462323844433,-0.6318902969360352,0.25829634070396423,-2.035203218460083,4.04296875,0,K1,0,None,0,0.1383132407897241,[16000|0|0|0]
16000,-0.33402279019355774,-0.38793784379959106,0.02112196944653988,-0.635539710521698,0.2520495355129242,-2.0465023517608643,4.04296875,0,K1,0,None,0,0.13897255969875183,[16100|0|0|0]
16100,-0.3338644504547119,-0.38795092701911926,0.02142566442489624,-0.6334414482116699,0.250933974981308,-2.0675852298736572,4.04296875,0,K1,0,None,0,0.13931530345640447,[16200|0|0|0]
16200,-0.3340041935443878,-0.3880256712436676,0.021134957671165466,-0.6291776895523071,0.2701425552368164,-2.0642666816711426,4.04296875,0,K1,0,None,0,0.13964640049184904,[16300|0|0|0]
16300,-0.3341154456138611,-0.387973427772522,0.021443748846650124,-0.6204501986503601,0.2767871618270874,-2.055269956588745,4.04296875,0,K1,0,None,0,0.13997875330633483,[16400|0|0|0]
16400,-0.33377036452293396,-0.3878764808177948,0.02146555669605732,-0.6236404180526733,0.2648932635784149,-2.0648536682128906,4.04296875,0,K1,0,None,0,0.1403378567087722,[16500|0|0|0]
16500,-0.33405470848083496,-0.3876541256904602,0.021553168073296547,-0.6271626949310303,0.267574667930603,-2.080559492111206,4.04296875,0,K1,0,None,0,0.1407092985514186,[16600|0|0|0]
16600,-0.33393582701683044,-0.38771185278892517,0.021676383912563324,-0.6203016638755798,0.27232974767684937,-2.0809409618377686,4.04296875,0,K1,0,None,0,0.14088998436554703,[16700|0|0|0]
16700,-0.33408820629119873,-0.3879736065864563,0.02162923291325569,-0.6121994853019714,0.28169944882392883,-2.094325304031372,4.04296875,0,K1,0,None,0,0.14119650958557742,[16800|0|0|0]
16800,-0.3339110314846039,-0.38766035437583923,0.02186029963195324,-0.6218592524528503,0.2722419798374176,-2.0893826484680176,4.04296875,0,K1,0,None,0,0.14162418900761928,[16900|0|0|0]
16900,-0.3341468274593353,-0.38748979568481445,0.0215714480727911,-0.6260823011398315,0.28599047660827637,-2.083787441253662,4.04296875,0,K1,0,None,0,0.1420342197772135,[17000|0|0|0]
17000,-0.3339006304740906,-0.38784411549568176,0.021700439974665642,-0.6044777631759644,0.28016072511672974,-2.0707104206085205,4.04296875,0,K1,0,None,0,0.1424845467635977,[17100|0|0|0]
17100,-0.3337899148464203,-0.3879961669445038,0.021450506523251534,-0.6060887575149536,0.2734892964363098,-2.0791409015655518,4.04296875,0,K1,0,None,0,0.142797347536351,[17200|0|0|0]
17200,-0.3337036073207855,-0.3880029022693634,0.02145705185830593,-0.6116653084754944,0.26889151334762573,-2.079789400100708,4.04296875,0,K1,0,None,0,0.14288416455653216,[17300|0|0|0]
17300,-0.3339170515537262,-0.38760289549827576,0.021891899406909943,-0.6176736354827881,0.2813727855682373,-2.081167697906494,4.04296875,0,K1,0,None,0,0.14351238127711394,[17400|0|0|0]
17400,-0.3339575231075287,-0.38776448369026184,0.021883368492126465,-0.6150636672973633,0.2816596031188965,-2.0590875148773193,4.04296875,0,K1,0,None,0,0.14367917895984234,[17500|0|0|0]
17500,-0.3339003324508667,-0.38774770498275757,0.02174144797027111,-0.616729199886322,0.27873238921165466,-2.068737030029297,4.04296875,0,K1,0,None,0,0.14383310664012966,[17600|0|0|0]
17600,-0.33405524492263794,-0.38798919320106506,0.021286968141794205,-0.6136870384216309,0.28636690974235535,-2.0764880180358887,4.04296875,0,K1,0,None,0,0.14437056952069352,[17700|0|0|0]
17700,-0.3392009735107422,-0.3960908055305481,0.02273876778781414,-0.3806361258029938,0.4407079815864563,-2.0979583263397217,4.04296875,0,K1,0,None,0,0.15407739017690472,[17800|0|0|0]
17800,-0.3393464684486389,-0.395574688911438,0.02313389629125595,-0.3928371071815491,0.4349300265312195,-2.1032962799072266,4.04296875,0,K1,0,None,0,0.1547434770148676,[17900|0|0|0]
17900,-0.33936944603919983,-0.39559322595596313,0.023097556084394455,-0.39171072840690613,0.4385300576686859,-2.1033191680908203,4.04296875,0,K1,0,None,0,0.15479029797515728,[18000|0|0|0]
18000,-0.3394383192062378,-0.39599597454071045,0.02254265360534191,-0.3897230625152588,0.4364469349384308,-2.1000115871429443,4.04296875,0,K1,0,None,0,0.15547940369775176,[18100|0|0|0]
18100,-0.3393847346305847,-0.3960873782634735,0.02237122878432274,-0.38720718026161194,0.4340372681617737,-2.095860242843628,4.04296875,0,K1,0,None,0,0.1556809289233299,[18200|0|0|0]
18200,-0.33926481008529663,-0.39578908681869507,0.023160548880696297,-0.3936139941215515,0.435323029756546,-2.109173059463501,4.04296875,0,K1,0,None,0,0.15653321167989004,[18300|0|0|0]
18300,-0.3392985463142395,-0.3955145478248596,0.02319200150668621,-0.4015662372112274,0.4378085732460022,-2.101468086242676,4.04296875,0,K1,0,None,0,0.15681159820966675,[18400|0|0|0]
18400,-0.3395811915397644,-0.3956555128097534,0.022937025874853134,-0.39742186665534973,0.45041459798812866,-2.114267110824585,4.04296875,0,K1,0,None,0,0.15721751941298928,[18500|0|0|0]
18500,-0.3396257758140564,-0.3957902789115906,0.023059125989675522,-0.3903021812438965,0.4570777714252472,-2.117633104324341,4.04296875,0,K1,0,None,0,0.15740475749073568,[18600|0|0|0]
18600,-0.3395872712135315,-0.39564618468284607,0.023124348372220993,-0.3954330086708069,0.45620208978652954,-2.0880377292633057,4.04296875,0,K1,0,None,0,0.1575675448065928,[18700|0|0|0]
18700,-0.339383602142334,-0.3958841562271118,0.022624870762228966,-0.38128119707107544,0.45842957496643066,-2.1093063354492188,4.04296875,0,K1,0,None,0,0.15815711196080512,[18800|0|0|0]
18800,-0.3395969867706299,-0.39585939049720764,0.023136230185627937,-0.3886875510215759,0.45625245571136475,-2.1194283962249756,4.04296875,0,K1,0,None,0,0.15871176031865863,[18900|0|0|0]
18900,-0.3396322429180145,-0.39550310373306274,0.02241957001388073,-0.397512286901474,0.4574805498123169,-2.1181976795196533,4.04296875,0,K1,0,None,0,0.1595128752018071,[19000|0|0|0]
19000,-0.3398631811141968,-0.39652225375175476,0.022990019991993904,-0.2142188549041748,0.577176034450531,-2.099821090698242,4.04296875,0,K1,0,None,0,0.1607034264978818,[19100|0|0|0]
19101,-0.3393743932247162,-0.3960537910461426,0.02320781908929348,-0.2642970681190491,0.5405309200286865,-2.0933005809783936,4.04296875,0,K1,0,None,0,0.16141462784366012,[19200|0|0|0]
19201,-0.3397168219089508,-0.39583227038383484,0.022900259122252464,-0.2852255702018738,0.5319616198539734,-2.091153621673584,4.04296875,0,K1,0,None,0,0.1619254330324965,[19300|0|0|0]
19301,-0.33997246623039246,-0.39603808522224426,0.022863777354359627,-0.291157603263855,0.5245299339294434,-2.083343267440796,4.04296875,0,K1,0,None,0,0.16225565218121968,[19400|0|0|0]
19400,-0.339633584022522,-0.3959845304489136,0.0230560302734375,-0.296689510345459,0.5134729146957397,-2.113722801208496,4.04296875,0,K1,0,None,0,0.16264893382260615,[19500|0|0|0]
19500,-0.3395836651325226,-0.3962475657463074,0.023230891674757004,-0.29272007942199707,0.5035692453384399,-2.115295171737671,4.04296875,0,K1,0,None,0,0.16296870870111482,[19600|0|0|0]
19601,-0.33957216143608093,-0.3962278366088867,0.02314748242497444,-0.2952931225299835,0.5049868226051331,-2.1144587993621826,4.04296875,0,K1,0,None,0,0.1630551880445702,[19700|0|0|0]
19701,-0.33915236592292786,-0.3954804241657257,0.023000657558441162,-0.2993752360343933,0.5039290189743042,-2.1044294834136963,4.04296875,0,K1,0,None,0,0.16392490706499455,[19800|0|0|0]
19801,-0.339656263589859,-0.39595919847488403,0.023127418011426926,-0.2865588665008545,0.5181610584259033,-2.1010332107543945,4.04296875,0,K1,0,None,0,0.1646314521168418,[19900|0|0|0]
19901,-0.33970528841018677,-0.3956834077835083,0.023110879585146904,-0.2918514609336853,0.51039719581604,-2.0960025787353516,4.04296875,0,K1,0,None,0,0.16491205407335938,[20000|0|0|0]
20001,-0.3395077884197235,-0.3955727517604828,0.022906603291630745,-0.2942788600921631,0.501404345035553,-2.1043643951416016,4.04296875,0,K1,0,None,0,0.16521697997543644,[20100|0|0|0]
20102,-0.33952850103378296,-0.3957115113735199,0.02290992997586727,-0.2893412411212921,0.49727049469947815,-2.103261709213257,4.04296875,0,K1,0,None,0,0.16535731639059442,[20200|0|0|0]
20202,-0.3394567370414734,-0.3957146406173706,0.023263562470674515,-0.2906138598918915,0.4892783761024475,-2.071683883666992,4.04296875,0,K1,0,None,0,0.1657181706605468,[20300|0|0|0]
20302,-0.33926913142204285,-0.3955700397491455,0.022909974679350853,-0.293049156665802,0.4865173399448395,-2.092654228210449,4.04296875,0,K1,0,None,0,0.1661437639002799,[20400|0|0|0]
20400,-0.3392466902732849,-0.39604413509368896,0.023152587935328484,-0.2929111123085022,0.48280689120292664,-2.0931813716888428,4.04296875,0,K1,0,None,0,0.16667680347934644,[20500|0|0|0]
20501,-0.33940809965133667,-0.3959149122238159,0.022866159677505493,-0.27992936968803406,0.4963054358959198,-2.0995852947235107,4.04296875,0,K1,0,None,0,0.16703006355960007,[20600|0|0|0]
20602,-0.3395129442214966,-0.3958829641342163,0.02326326258480549,-0.2815437316894531,0.49684974551200867,-2.0886080265045166,4.04296875,0,K1,0,None,0,0.1674420147500428,[20700|0|0|0]
20702,-0.3398904502391815,-0.3955237865447998,0.022754382342100143,-0.2937963604927063,0.5056079626083374,-2.0820741653442383,4.04296875,0,K1,0,None,0,0.16817035425572902,[20800|0|0|0]
20802,-0.33959895372390747,-0.3957018256187439,0.022835154086351395,-0.2838500142097473,0.4966665208339691,-2.0704338550567627,4.04296875,0,K1,0,None,0,0.16852134172692587,[20900|0|0|0]
20902,-0.3395291566848755,-0.3959479033946991,0.022825637832283974,-0.3981969654560089,0.4180729389190674,-2.0875203609466553,4.04296875,0,K1,0,None,0,0.16877730355526785,[21000|0|0|0]
21002,-0.33903568983078003,-0.3956587612628937,0.02299266681075096,-0.4075765609741211,0.40951716899871826,-2.0883805751800537,4.04296875,0,K1,0,None,0,0.16937313187628286,[21100|0|0|0]
21100,-0.33915677666664124,-0.3958284854888916,0.023022210225462914,-0.40090179443359375,0.41497278213500977,-2.0822784900665283,4.04296875,0,K1,0,None,0,0.16958370525556504,[21200|0|0|0]
21200,-0.33931463956832886,-0.39563772082328796,0.022488124668598175,-0.40093889832496643,0.4273459315299988,-2.0824074745178223,4.04296875,0,K1,0,None,0,0.17017239807480408,[21300|0|0|0]
21300,-0.33930644392967224,-0.3959044814109802,0.023097185418009758,-0.39825618267059326,0.42708492279052734,-2.086427688598633,4.04296875,0,K1,0,None,0,0.17083736677791175,[21400|0|0|0]
21400,-0.33936065435409546,-0.3960334360599518,0.02290932647883892,-0.39425769448280334,0.43565985560417175,-2.10636830329895,4.04296875,0,K1,0,None,0,0.17107158687233986,[21500|0|0|0]
21500,-0.33942610025405884,-0.39576488733291626,0.023034799844026566,-0.4115334749221802,0.4383363723754883,-2.1019439697265625,4.04296875,0,K1,0,None,0,0.17137514106846624,[21600|0|0|0]
21600,-0.33929306268692017,-0.3957102298736572,0.023016823455691338,-0.4112718999385834,0.4297926127910614,-2.087792158126831,4.04296875,0,K1,0,None,0,0.17152008789547674,[21700|0|0|0]
21700,-0.33896663784980774,-0.3958343267440796,0.022857971489429474,-0.4069702923297882,0.4306924641132355,-2.0983102321624756,4.04296875,0,K1,0,None,0,0.1719037376768109,[21800|0|0|0]
21800,-0.3391745090484619,-0.395819753408432,0.022892357781529427,-0.4009418189525604,0.4409049153327942,-2.0915181636810303,4.04296875,0,K1,0,None,0,0.17211493719012996,[21900|0|0|0]
21900,-0.33988943696022034,-0.3955990672111511,0.022684067487716675,-0.40314215421676636,0.46280500292778015,-2.0939486026763916,4.04296875,0,K1,0,None,0,0.17289160260276154,[22000|0|0|0]
22000,-0.3391255736351013,-0.39571261405944824,0.023012368008494377,-0.4011358618736267,0.42950016260147095,-2.1021904945373535,4.04296875,0,K1,0,None,0,0.1737307457956452,[22100|0|0|0]
22100,-0.33938735723495483,-0.39575085043907166,0.023056428879499435,-0.3990309238433838,0.43817776441574097,-2.1044528484344482,4.04296875,0,K1,0,None,0,0.17399895100482785,[22200|0|0|0]
22200,-0.33933568000793457,-0.3953334093093872,0.02291652001440525,-0.4020851254463196,0.4317218065261841,-2.1067898273468018,4.04296875,0,K1,0,None,0,0.17444223660472555,[22300|0|0|0]
22300,-0.3394792377948761,-0.39612308144569397,0.02277086302638054,-0.2030254602432251,0.5461703538894653,-2.1109654903411865,4.04296875,0,K1,0,None,0,0.17525796136174304,[22400|0|0|0]
22400,-0.3393300175666809,-0.39587029814720154,0.022858979180455208,-0.2419949471950531,0.5166163444519043,-2.1195926666259766,4.04296875,0,K1,0,None,0,0.1755644422406054,[22500|0|0|0]
22500,-0.33991920948028564,-0.39565765857696533,0.022904327139258385,-0.2602415382862091,0.5338916778564453,-2.111257553100586,4.04296875,0,K1,0,None,0,0.1761924702139116,[22600|0|0|0]
22600,-0.33966556191444397,-0.39587852358818054,0.022696521133184433,-0.26630163192749023,0.5143298506736755,-2.1094906330108643,4.04296875,0,K1,0,None,0,0.17658782040930412,[22700|0|0|0]
22700,-0.3394536077976227,-0.39561164379119873,0.02299386076629162,-0.2818792760372162,0.5079357028007507,-2.1185007095336914,4.04296875,0,K1,0,None,0,0.17704010376196136,[22800|0|0|0]
22800,-0.3391686677932739,-0.3957165777683258,0.023211706429719925,-0.2798977196216583,0.5055702924728394,-2.1120402812957764,4.04296875,0,K1,0,None,0,0.1774138131125381,[22900|0|0|0]
22900,-0.3393191695213318,-0.39595821499824524,0.023071570321917534,-0.28311705589294434,0.5063505172729492,-2.1241228580474854,4.04296875,0,K1,0,None,0,0.17773111021265334,[23000|0|0|0]
23000,-0.33947545289993286,-0.3959282338619232,0.02297247387468815,-0.299511581659317,0.5084472894668579,-2.1309096813201904,4.04296875,0,K1,0,None,0,0.17791857612639664,[23100|0|0|0]
23100,-0.3393501341342926,-0.39549922943115234,0.022871114313602448,-0.307138055562973,0.511456310749054,-2.142301321029663,4.04296875,0,K1,0,None,0,0.17837685917786825,[23200|0|0|0]
23200,-0.33962053060531616,-0.39566943049430847,0.02290250174701214,-0.2965194284915924,0.5325072407722473,-2.1281819343566895,4.04296875,0,K1,0,None,0,0.1786979009577311,[23300|0|0|0]
23300,-0.339263916015625,-0.3955068290233612,0.02285585179924965,-0.2953799068927765,0.5197201371192932,-2.120518445968628,4.04296875,0,K1,0,None,0,0.17909260264452895,[23400|0|0|0]
23400,-0.33944711089134216,-0.3958875834941864,0.023004569113254547,-0.2821238338947296,0.5309181809425354,-2.118306875228882,4.04296875,0,K1,0,None,0,0.179540543677509,[23500|0|0|0]
23500,-0.3392409682273865,-0.3960506021976471,0.022864406928420067,-0.28185030817985535,0.5169331431388855,-2.1167259216308594,4.04296875,0,K1,0,None,0,0.1798383948712926,[23600|0|0|0]
23600,-0.33941352367401123,-0.3957095444202423,0.022645248100161552,-0.2852352261543274,0.5291117429733276,-2.115595579147339,4.04296875,0,K1,0,None,0,0.18027899262627078,[23700|0|0|0]
23700,-0.33947619795799255,-0.3959081172943115,0.022765228524804115,-0.29377037286758423,0.5233261585235596,-2.120051860809326,4.04296875,0,K1,0,None,0,0.18051931439907984,[23800|0|0|0]
23800,-0.33932873606681824,-0.39563775062561035,0.02313424088060856,-0.32569774985313416,0.5012175440788269,-2.1049227714538574,4.04296875,0,K1,0,None,0,0.18099995279083567,[23900|0|0|0]
23900,-0.3392319679260254,-0.3953621983528137,0.023131467401981354,-0.35224664211273193,0.4803931713104248,-2.0827505588531494,4.04296875,0,K1,0,None,0,0.18129201583248863,[24000|0|0|0]
24000,-0.33929821848869324,-0.39543309807777405,0.0225119236856699,-0.3604302704334259,0.46437156200408936,-2.0712900161743164,4.04296875,0,K1,0,None,0,0.1819191125750047,[24100|0|0|0]
24100,-0.3394191563129425,-0.39532551169395447,0.022677106782794,-0.3664382994174957,0.4672083258628845,-2.0732967853546143,4.04296875,0,K1,0,None,0,0.1821503835046371,[24200|0|0|0]
24200,-0.33931371569633484,-0.39554786682128906,0.02253706566989422,-0.3630719780921936,0.45928066968917847,-2.0873818397521973,4.04296875,0,K1,0,None,0,0.1824335284137999,[24300|0|0|0]
24300,-0.3391529321670532,-0.3953949511051178,0.023112138733267784,-0.3688341975212097,0.4603751599788666,-2.0893986225128174,4.04296875,0,K1,0,None,0,0.18304992405602838,[24400|0|0|0]
24400,-0.33931639790534973,-0.3957521915435791,0.02258635126054287,-0.35880550742149353,0.467195063829422,-2.104750394821167,4.04296875,0,K1,0,None,0,0.18370627323515737,[24500|0|0|0]
24500,-0.33933189511299133,-0.395628422498703,0.02289097011089325,-0.35749417543411255,0.4638073742389679,-2.104475259780884,4.04296875,0,K1,0,None,0,0.18403544125289759,[24600|0|0|0]
24600,-0.3393247127532959,-0.39561888575553894,0.02330676093697548,-0.3539368808269501,0.4654686748981476,-2.112632989883423,4.04296875,0,K1,0,None,0,0.18445140344687092,[24700|0|0|0]
24700,-0.3390774130821228,-0.3953357934951782,0.02326248772442341,-0.3612288534641266,0.4587302505970001,-2.11637806892395,4.0390625,0,K1,0,None,0,0.18482989845686199,[24800|0|0|0]
24800,-0.33947837352752686,-0.3953075706958771,0.022939782589673996,-0.3597983717918396,0.4730997383594513,-2.136415719985962,4.04296875,0,K1,0,None,0,0.18534536369252066,[24900|0|0|0]
24900,-0.33902132511138916,-0.3954784572124481,0.023051027208566666,-0.3545885384082794,0.45893484354019165,-2.1298530101776123,4.04296875,0,K1,0,None,0,0.18584583429252863,[25000|0|0|0]
25000,-0.33924806118011475,-0.39543595910072327,0.02303685061633587,-0.35653823614120483,0.4647943079471588,-2.12568998336792,4.04296875,0,K1,0,None,0,0.18607695398041477,[25100|0|0|0]
25100,-0.3393267095088959,-0.3952135443687439,0.022726111114025116,-0.35678908228874207,0.45818981528282166,-2.1154582500457764,4.04296875,0,K1,0,None,0,0.18646709871114664,[25200|0|0|0]
25200,-0.33895355463027954,-0.39585426449775696,0.022905100136995316,-0.3373325765132904,0.45512905716896057,-2.1311497688293457,4.0390625,0,K1,0,None,0,0.18722985943214734,[25300|0|0|0]
25300,-0.3388560712337494,-0.3956150710582733,0.02286587283015251,-0.34757354855537415,0.4471777081489563,-2.1401214599609375,4.04296875,0,K1,0,None,0,0.18749111657691703,[25400|0|0|0]
25400,-0.3393711745738983,-0.3957027494907379,0.022910065948963165,-0.33986541628837585,0.46728047728538513,-2.1128077507019043,4.04296875,0,K1,0,None,0,0.1880154942941231,[25500|0|0|0]
25500,-0.3393891155719757,-0.3955174684524536,0.022971443831920624,-0.33908015489578247,0.47908341884613037,-2.101879596710205,4.04296875,0,K1,0,None,0,0.18821149987331937,[25600|0|0|0]
25600,-0.33930474519729614,-0.395228773355484,0.022882962599396706,-0.34768882393836975,0.4748670160770416,-2.103764772415161,4.04296875,0,K1,0,None,0,0.18852501565864255,[25700|0|0|0]
25700,-0.33933025598526,-0.3955671191215515,0.02303728275001049,-0.33914247155189514,0.4713333547115326,-2.110246181488037,4.0390625,0,K1,0,None,0,0.18889776673725106,[25800|0|0|0]
25800,-0.3392915725708008,-0.3957318663597107,0.022699471563100815,-0.33374276757240295,0.4660572409629822,-2.123411178588867,4.04296875,0,K1,0,None,0,0.1892755953452688,[25900|0|0|0]
25900,-0.33932486176490784,-0.3957507014274597,0.02302759513258934,-0.3358146846294403,0.4695088267326355,-2.0960752964019775,4.04296875,0,K1,0,None,0,0.1896059406298958,[26000|0|0|0]
26000,-0.3393755555152893,-0.3956468999385834,0.022928757593035698,-0.340503454208374,0.469393789768219,-2.0844693183898926,4.04296875,0,K1,0,None,0,0.1897579717604109,[26100|0|0|0]
26100,-0.33916956186294556,-0.39544713497161865,0.023191139101982117,-0.3430466651916504,0.46688854694366455,-2.0836973190307617,4.04296875,0,K1,0,None,0,0.1901467949632542,[26200|0|0|0]
26200,-0.33943381905555725,-0.3956367075443268,0.022857679054141045,-0.3445708155632019,0.47214847803115845,-2.0716042518615723,4.0390625,0,K1,0,None,0,0.19061259022694454,[26300|0|0|0]
26300,-0.3394916355609894,-0.3955978751182556,0.02298116683959961,-0.3461199402809143,0.4777233600616455,-2.0864109992980957,4.04296875,0,K1,0,None,0,0.19075436447979893,[26400|0|0|0]
26400,-0.3392504155635834,-0.39574944972991943,0.02307307720184326,-0.338955283164978,0.4863603413105011,-2.0964932441711426,4.04296875,0,K1,0,None,0,0.19105371288005749,[26500|0|0|0]
26500,-0.3398549258708954,-0.3956468403339386,0.022918017581105232,-0.3179451823234558,0.5100771188735962,-2.0981810092926025,4.04296875,0,K1,0,None,0,0.19168617227462242,[26600|0|0|0]
26600,-0.3397493362426758,-0.39564943313598633,0.0228424109518528,-0.34956276416778564,0.48482605814933777,-2.0917539596557617,4.04296875,0,K1,0,None,0,0.19181606551769892,[26700|0|0|0]
26700,-0.33940014243125916,-0.39546412229537964,0.02268162928521633,-0.37578120827674866,0.45758625864982605,-2.1011781692504883,4.0390625,0,K1,0,None,0,0.19224282911725307,[26800|0|0|0]
26800,-0.33949118852615356,-0.39570268988609314,0.02263936586678028,-0.3824131488800049,0.44702306389808655,-2.098395347595215,4.04296875,0,K1,0,None,0,0.19250165354282428,[26900|0|0|0]
26900,-0.3393765985965729,-0.3956044912338257,0.023075854405760765,-0.3985120356082916,0.4359877407550812,-2.0973105430603027,4.04296875,0,K1,0,None,0,0.1929634934197619,[27000|0|0|0]
27000,-0.33960282802581787,-0.39609622955322266,0.02320392057299614,-0.22128790616989136,0.556378185749054,-2.1182262897491455,4.04296875,0,K1,0,None,0,0.19351971933844084,[27100|0|0|0]
27100,-0.3397040367126465,-0.3959757387638092,0.023022858425974846,-0.25660407543182373,0.5349960327148438,-2.114598274230957,4.04296875,0,K1,0,None,0,0.19375960416436155,[27200|0|0|0]
27200,-0.33980897068977356,-0.3957732319831848,0.022775156423449516,-0.28163081407546997,0.5268735289573669,-2.119472026824951,4.0390625,0,K1,0,None,0,0.19409631831287572,[27300|0|0|0]
27300,-0.33927252888679504,-0.39575278759002686,0.022766027599573135,-0.2915690541267395,0.5124231576919556,-2.099644899368286,4.04296875,0,K1,0,None,0,0.1946332271660527,[27400|0|0|0]
27400,-0.33951056003570557,-0.3957355320453644,0.023205174133181572,-0.3026556670665741,0.5136313438415527,-2.102621555328369,4.04296875,0,K1,0,None,0,0.19513303338815638,[27500|0|0|0]
27500,-0.33960726857185364,-0.3954820930957794,0.022893555462360382,-0.3163898289203644,0.5111513733863831,-2.10412335395813,4.04296875,0,K1,0,None,0,0.19554617989744214,[27600|0|0|0]
27600,-0.3390912711620331,-0.39575067162513733,0.022791966795921326,-0.3149867057800293,0.48958712816238403,-2.105170726776123,4.04296875,0,K1,0,None,0,0.19613669493579633,[27700|0|0|0]
27700,-0.33951136469841003,-0.3959115147590637,0.02281118370592594,-0.3065836429595947,0.5109738111495972,-2.1242074966430664,4.0390625,0,K1,0,None,0,0.19658693751781972,[27800|0|0|0]
27800,-0.33933261036872864,-0.3955787718296051,0.022662680596113205,-0.31653809547424316,0.4985334575176239,-2.1125295162200928,4.04296875,0,K1,0,None,0,0.19699279973718561,[27900|0|0|0]
27900,-0.3393462002277374,-0.3957562744617462,0.02303294651210308,-0.30931082367897034,0.5056023001670837,-2.097167491912842,4.04296875,0,K1,0,None,0,0.19740363877772182,[28000|0|0|0]
28000,-0.3394817113876343,-0.3958735466003418,0.02320903167128563,-0.3062247335910797,0.5016952157020569,-2.1041746139526367,4.04296875,0,K1,0,None,0,0.19765487972229837,[28100|0|0|0]
28100,-0.3395724594593048,-0.3955402672290802,0.02308858186006546,-0.3219253718852997,0.4954691529273987,-2.1114134788513184,4.04296875,0,K1,0,None,0,0.19802069184462814,[28200|0|0|0]
28200,-0.33965030312538147,-0.3953445851802826,0.022697871550917625,-0.31857821345329285,0.4993484318256378,-2.098846435546875,4.0390625,0,K1,0,None,0,0.1984645450255836,[28300|0|0|0]
28300,-0.339872270822525,-0.39555779099464417,0.022659283131361008,-0.3081279397010803,0.5017481446266174,-2.097598075866699,4.04296875,0,K1,0,None,0,0.19877473116965952,[28400|0|0|0]
28400,-0.33939725160598755,-0.3956451714038849,0.022969918325543404,-0.3231841027736664,0.47659942507743835,-2.0959432125091553,4.04296875,0,K1,0,None,0,0.1993489896618594,[28500|0|0|0]
28500,-0.3393162786960602,-0.3953094780445099,0.022474298253655434,-0.33455201983451843,0.46979767084121704,-2.1035706996917725,4.04296875,0,K1,0,None,0,0.19995304752277077,[28600|0|0|0]
28600,-0.3390718102455139,-0.39511966705322266,0.022862235084176064,-0.3469207286834717,0.4610190689563751,-2.104100227355957,4.04296875,0,K1,0,None,0,0.2004493216609246,[28700|0|0|0]
28700,-0.33916279673576355,-0.3950992822647095,0.02278790809214115,-0.3602108061313629,0.46203768253326416,-2.100165843963623,4.0390625,0,K1,0,None,0,0.20056856335982073,[28800|0|0|0]
28800,-0.33947792649269104,-0.3950720429420471,0.022993000224232674,-0.37010657787323,0.4681817591190338,-2.089393138885498,4.04296875,0,K1,0,None,0,0.2009455401854296,[28900|0|0|0]
28900,-0.3392795920372009,-0.395334392786026,0.022588135674595833,-0.367040753364563,0.4565843641757965,-2.1076531410217285,4.04296875,0,K1,0,None,0,0.20146715239811536,[29000|0|0|0]
29000,-0.33884865045547485,-0.39540380239486694,0.022841569036245346,-0.3679265081882477,0.44076231122016907,-2.096121072769165,4.04296875,0,K1,0,None,0,0.2019718867930767,[29100|0|0|0]
29100,-0.3393595516681671,-0.3953823745250702,0.02255416288971901,-0.3672686219215393,0.4539296627044678,-2.1100313663482666,4.04296875,0,K1,0,None,0,0.20255847139549615,[29200|0|0|0]
29200,-0.33930277824401855,-0.3953314423561096,0.023037748411297798,-0.36854109168052673,0.4470116198062897,-2.1063458919525146,4.0390625,0,K1,0,None,0,0.20304803473583652,[29300|0|0|0]
29300,-0.33935603499412537,-0.39547574520111084,0.02291221357882023,-0.3637174665927887,0.4557889699935913,-2.114968776702881,4.04296875,0,K1,0,None,0,0.20324657588188075,[29400|0|0|0]
29400,-0.33941367268562317,-0.39507734775543213,0.022939618676900864,-0.37453776597976685,0.46203815937042236,-2.095010995864868,4.04296875,0,K1,0,None,0,0.20365005285471233,[29500|0|0|0]
29500,-0.33925071358680725,-0.3954605162143707,0.022916559129953384,-0.3659195303916931,0.4611748158931732,-2.0829856395721436,4.04296875,0,K1,0,None,0,0.20406707261265875,[29600|0|0|0]
29600,-0.3392566740512848,-0.39521563053131104,0.0228488240391016,-0.3710286319255829,0.46727344393730164,-2.094881772994995,4.04296875,0,K1,0,None,0,0.20432122329126712,[29700|0|0|0]
29700,-0.3395732641220093,-0.39526623487472534,0.02276463992893696,-0.3547249138355255,0.48557034134864807,-2.08870005607605,4.04296875,0,K1,0,None,0,0.2046527003445573,[29800|0|0|0]
29800,-0.339322030544281,-0.39612025022506714,0.022906770929694176,-0.31533384323120117,0.48798930644989014,-2.0871458053588867,4.04296875,0,K1,0,None,0,0.2055541778820333,[29900|0|0|0]
29900,-0.33913731575012207,-0.39567533135414124,0.022691629827022552,-0.3547247052192688,0.46844667196273804,-2.0961177349090576,4.04296875,0,K1,0,None,0,0.2060817743669969,[30000|0|0|0]
30000,-0.33921098709106445,-0.3956263065338135,0.022530894726514816,-0.36900681257247925,0.47086408734321594,-2.091381311416626,4.04296875,0,K1,0,None,0,0.20626525916751087,[30100|0|0|0]
30100,-0.33949753642082214,-0.3956482708454132,0.02293652854859829,-0.3896290957927704,0.46246829628944397,-2.0831329822540283,4.04296875,0,K1,0,None,0,0.20676238264008753,[30200|0|0|0]
30200,-0.33916935324668884,-0.39530372619628906,0.0229721087962389,-0.40453216433525085,0.4481738209724426,-2.0797173976898193,4.0390625,0,K1,0,None,0,0.20723954211557394,[30300|0|0|0]
30300,-0.3395461440086365,-0.3958161473274231,0.022996658459305763,-0.21859893202781677,0.5701642632484436,-2.086211919784546,4.04296875,0,K1,0,None,0,0.2078760555717384,[30400|0|0|0]
30400,-0.3397812247276306,-0.3958131670951843,0.022894298657774925,-0.24839843809604645,0.5604792237281799,-2.0829458236694336,4.04296875,0,K1,0,None,0,0.20813247194250367,[30500|0|0|0]
30500,-0.33959275484085083,-0.3960224390029907,0.023125946521759033,-0.25854650139808655,0.5346937775611877,-2.078726291656494,4.04296875,0,K1,0,None,0,0.20849713118413635,[30600|0|0|0]
30600,-0.33933156728744507,-0.39564085006713867,0.02252405323088169,-0.2833089828491211,0.5159689784049988,-2.0856995582580566,4.04296875,0,K1,0,None,0,0.20925614672259518,[30700|0|0|0]
30700,-0.33944326639175415,-0.3956760764122009,0.02279927395284176,-0.29106175899505615,0.5165997743606567,-2.0926361083984375,4.0390625,0,K1,0,None,0,0.20955525210717746,[30800|0|0|0]
30800,-0.3393763601779938,-0.39546823501586914,0.02280331403017044,-0.2942352890968323,0.5088041424751282,-2.11234188079834,4.04296875,0,K1,0,None,0,0.20977363436308144,[30900|0|0|0]
30900,-0.33902162313461304,-0.39508122205734253,0.02294963225722313,-0.4370049834251404,0.4041885435581207,-2.1253414154052734,4.04296875,0,K1,0,None,0,0.2103186356691183,[31000|0|0|0]
31000,-0.33898764848709106,-0.3952282667160034,0.02290160208940506,-0.4068792462348938,0.422773540019989,-2.107172727584839,4.0390625,0,K1,0,None,0,0.21047701276763817,[31100|0|0|0]
31100,-0.3391247093677521,-0.39524197578430176,0.022994572296738625,-0.3879680633544922,0.44037866592407227,-2.1075611114501953,4.0390625,0,K1,0,None,0,0.21064319665077016,[31200|0|0|0]
31200,-0.3392188549041748,-0.39536651968955994,0.022570790722966194,-0.3735308051109314,0.4503587484359741,-2.108464002609253,4.0390625,0,K1,0,None,0,0.21109482192534448,[31300|0|0|0]
31300,-0.3393787443637848,-0.3951077163219452,0.022943152114748955,-0.3808203339576721,0.45965611934661865,-2.0989830493927,4.04296875,0,K1,0,None,0,0.21157565123858724,[31400|0|0|0]
31400,-0.33921533823013306,-0.39547497034072876,0.022780971601605415,-0.36736512184143066,0.4484901428222656,-2.08317232131958,4.0390625,0,K1,0,None,0,0.2120091020404912,[31500|0|0|0]
31500,-0.3392629325389862,-0.3953721225261688,0.022987384349107742,-0.36195340752601624,0.4565640687942505,-2.0957205295562744,4.0390625,0,K1,0,None,0,0.21224457839498656,[31600|0|0|0]
31600,-0.3394615054130554,-0.39523977041244507,0.022908257320523262,-0.3606930375099182,0.4718988239765167,-2.082024574279785,4.04296875,0,K1,0,None,0,0.2124959931021456,[31700|0|0|0]
31700,-0.33927857875823975,-0.39547377824783325,0.022962715476751328,-0.3464657962322235,0.4676625430583954,-2.0772767066955566,4.0390625,0,K1,0,None,0,0.2127979658142321,[31800|0|0|0]
31800,-0.3393343389034271,-0.39533862471580505,0.022983990609645844,-0.348423570394516,0.46762195229530334,-2.0928597450256348,4.04296875,0,K1,0,None,0,0.21294570985739694,[31900|0|0|0]
31900,-0.3394354581832886,-0.39538779854774475,0.022708658128976822,-0.35271117091178894,0.4607366919517517,-2.115292549133301,4.04296875,0,K1,0,None,0,0.2132431172369602,[32000|0|0|0]
32000,-0.3395237326622009,-0.39515355229377747,0.023049887269735336,-0.35070866346359253,0.45820075273513794,-2.119892120361328,4.04296875,0,K1,0,None,0,0.2136663205186438,[32100|0|0|0]
32100,-0.3395353853702545,-0.39585983753204346,0.02258192002773285,-0.30754560232162476,0.4699375331401825,-2.1185195446014404,4.04296875,0,K1,0,None,0,0.21451365042073908,[32200|0|0|0]
32200,-0.3394179940223694,-0.39573630690574646,0.022760914638638496,-0.34304723143577576,0.45222872495651245,-2.139744281768799,4.0390625,0,K1,0,None,0,0.21476079332459205,[32300|0|0|0]
