time.ms,stateEstimate.x,stateEstimate.y,stateEstimate.z,stabilizer.roll,stabilizer.pitch,stabilizer.yaw,pm.vbat,drone_id,node_name,wind_speed,global_wind_direction,relative_wind_direction,travel_dist,waiting_time,curr_node_role
0,0.7272661328315735,0.7364497184753418,0.0,-1.0130788087844849,0.3992839455604553,3.423201084136963,4.0546875,1,F1,6.1,180,270.0,0.0,[6200|0|0],start
100,0.7266385555267334,0.7353024482727051,0.0,-0.9860840439796448,0.4292505383491516,3.442945003509521,4.0546875,1,fly,6.1,180,270.0,0.001307701109355,[6200|0|0],fly
200,0.7263866662979126,0.7355183959007263,0.0,-0.984411120414734,0.4564491808414459,3.9396562576293945,3.029296875,1,fly,6.1,180,270.0,0.0016394865244111,[6200|0|0],fly
300,0.7248105406761169,0.7391917109489441,0.0,-4.660813331604004,4.710947036743164,7.344747066497803,3.453125,1,fly,6.1,180,270.0,0.005636662454883,[6200|0|0],fly
400,0.7097944617271423,0.7528337240219116,0.0182522237300872,-8.068533897399902,9.456193923950195,11.156826972961426,3.599609375,1,fly,6.1,180,270.0,0.0329264191188405,[6200|0|0],fly
500,0.6772002577781677,0.7779844403266907,0.0744946151971817,-2.379178524017334,1.914692997932434,9.521780014038086,3.53125,1,fly,6.1,180,270.0,0.1026268298755121,[6200|0|0],fly
600,0.6400936841964722,0.8064635396003723,0.1411928236484527,6.859738826751709,-6.331974029541016,5.420250415802002,3.541015625,1,fly,6.1,180,270.0,0.1840922084668081,[6200|0|0],fly
700,0.6144160032272339,0.8233275413513184,0.2219031900167465,9.82735824584961,-9.46979808807373,1.6878573894500732,3.57421875,1,fly,6.1,180,270.0,0.2704513486565883,[6200|0|0],fly
800,0.6045114398002625,0.8243650794029236,0.3099163770675659,5.894619464874268,-9.217547416687012,-0.5134447813034058,3.583984375,1,fly,6.1,180,270.0,0.3590261642461788,[6200|0|0],fly
900,0.6067095994949341,0.8220097422599792,0.4068063795566559,4.1184563636779785,-7.131060123443604,-1.1754577159881592,3.58984375,1,fly,6.1,180,270.0,0.4559697153542131,[6200|0|0],fly
1000,0.6155653595924377,0.8107709884643555,0.5011442303657532,1.720840573310852,-4.547506332397461,-2.6095457077026367,3.583984375,1,fly,6.1,180,270.0,0.5513865072153037,[6200|0|0],fly
1101,0.628237783908844,0.7903063893318176,0.591168999671936,1.5000698566436768,-2.5925259590148926,-4.403070449829102,3.59375,1,fly,6.1,180,270.0,0.6445736803902743,[6200|0|0],fly
1200,0.6422783732414246,0.7742934823036194,0.6870455145835876,-0.4234292507171631,-0.9467384219169616,-4.695858478546143,3.57421875,1,fly,6.1,180,270.0,0.7427870066342421,[6200|0|0],fly
1300,0.657766580581665,0.7622265219688416,0.7805938720703125,-2.722063064575196,0.6946485042572021,-2.997043371200561,3.57421875,1,fly,6.1,180,270.0,0.8383735709976475,[6200|0|0],fly
1401,0.6745439171791077,0.7548341155052185,0.8774312138557434,-2.813624620437622,1.7453644275665283,-2.2443885803222656,3.615234375,1,fly,6.1,180,270.0,0.9369311554886224,[6200|0|0],fly
1501,0.6894961595535278,0.7540590763092041,0.973782479763031,-1.789468765258789,2.051699161529541,-1.9771729707717896,3.6640625,1,fly,6.1,180,270.0,1.0344387791891083,[6200|0|0],fly
1601,0.7013537883758545,0.7574240565299988,1.0610873699188232,-1.1832002401351929,2.4877054691314697,-1.6816786527633667,3.6796875,1,fly,6.1,180,270.0,1.122609467619501,[6200|0|0],fly
1701,0.710125207901001,0.7622423768043518,1.1322892904281616,-0.575073778629303,2.771425247192383,-0.8461294174194336,3.66796875,1,fly,6.1,180,270.0,1.1945112582437305,[6200|0|0],fly
1801,0.715525209903717,0.7684524059295654,1.18610417842865,0.0247524920850992,2.35023045539856,-0.1320124566555023,3.65234375,1,fly,6.1,180,270.0,1.248951745510749,[6200|0|0],fly
1902,0.7171283960342407,0.7749001383781433,1.2233814001083374,0.4625418186187744,2.094770669937134,0.1956771612167358,3.626953125,1,fly,6.1,180,270.0,1.286816435073112,[6200|0|0],fly
2001,0.7160717844963074,0.7813848853111267,1.2472254037857056,0.902651309967041,1.4098848104476929,0.3990221619606018,3.611328125,1,fly,6.1,180,270.0,1.311549103390406,[6200|0|0],fly
2102,0.7135645151138306,0.7880269885063171,1.264326810836792,0.7470376491546631,0.9527514576911926,-0.1506780534982681,3.60546875,1,fly,6.1,180,270.0,1.3300656381023548,[6200|0|0],fly
2202,0.7104513645172119,0.7906885743141174,1.2740012407302856,1.1820173263549805,0.6495252847671509,-1.0325597524642944,3.59375,1,fly,6.1,180,270.0,1.34057136698776,[6200|0|0],fly
2302,0.7076873779296875,0.7937211394309998,1.280950903892517,0.8786583542823792,0.1478868424892425,-2.2066762447357178,3.59375,1,fly,6.1,180,270.0,1.3486419240387089,[6200|0|0],fly
2400,0.7054656744003296,0.7954168915748596,1.2850351333618164,0.760558545589447,0.1633474826812744,-3.0784835815429688,3.578125,1,fly,6.1,180,270.0,1.3535909110323936,[6200|0|0],fly
2500,0.7028841376304626,0.7963941693305969,1.2879691123962402,0.4775408804416656,-0.016716418787837,-4.0239129066467285,3.583984375,1,fly,6.1,180,270.0,1.3576192651479688,[6200|0|0],fly
2600,0.701357901096344,0.7965770363807678,1.2898832559585571,0.4927326440811157,0.1251196563243866,-4.808339595794678,3.583984375,1,fly,6.1,180,270.0,1.3600742160422383,[6200|0|0],fly
2700,0.7006344795227051,0.795745313167572,1.2905327081680298,0.3083188831806183,0.1972036063671112,-5.596858024597168,3.578125,1,fly,6.1,180,270.0,1.3613536262379786,[6200|0|0],fly
2800,0.7002390027046204,0.7939791083335876,1.290566086769104,0.3478370606899261,0.3618321120738983,-6.246995449066162,3.578125,1,fly,6.1,180,270.0,1.363163873613406,[6200|0|0],fly
2900,0.6992474794387817,0.7922454476356506,1.2889907360076904,0.0168271493166685,0.5140405893325806,-6.456929683685303,3.57421875,1,fly,6.1,180,270.0,1.3657075771778484,[6200|0|0],fly
3000,0.6972032785415649,0.7913410663604736,1.2857884168624878,-0.0524813048541545,0.6062077283859253,-6.497272491455078,3.5625,1,fly,6.1,180,270.0,1.369612895437197,[6200|0|0],fly
3100,0.6946026086807251,0.7897358536720276,1.2826576232910156,-0.1207463219761848,0.4631866812705993,-6.788599491119385,3.568359375,1,fly,6.1,180,205.0,1.3739880594212557,[6200|0|0],fly
3200,0.6930602788925171,0.7880145311355591,1.278323531150818,4.752620220184326,-6.974831581115723,-6.843606472015381,3.552734375,1,fly,6.1,180,205.0,1.378899890763013,[6200|0|0],fly
3300,0.7113987803459167,0.7805036306381226,1.2884461879730225,7.374045372009277,-13.335320472717283,-6.346832275390625,3.578125,1,fly,6.1,180,205.0,1.401152585947616,[6200|0|0],fly
3400,0.7444518804550171,0.7479838132858276,1.283325433731079,8.360939979553223,-16.9326171875,-4.695987701416016,3.568359375,1,fly,6.1,180,205.0,1.4478030743850934,[6200|0|0],fly
3500,0.801200807094574,0.7014554142951965,1.2759298086166382,4.8984904289245605,-14.80313777923584,-2.49892520904541,3.546875,1,fly,6.1,180,205.0,1.5215596188961165,[6200|0|0],fly
3600,0.8784542083740234,0.6492862701416016,1.269986271858215,0.3704531490802765,-9.965880393981934,-0.4811080992221832,3.55859375,1,fly,6.1,180,205.0,1.614967505287796,[6200|0|0],fly
3700,0.9469313621520996,0.6235968470573425,1.244181513786316,-2.7228147983551025,-3.104494094848633,3.416580438613892,3.541015625,1,fly,6.1,180,205.0,1.6925236306880351,[6200|0|0],fly
3800,1.0379384756088257,0.5825152397155762,1.2406457662582395,-4.12343168258667,2.0094268321990967,3.459490299224853,3.552734375,1,fly,6.1,180,205.0,1.7924360657103624,[6200|0|0],fly
3900,1.1223394870758057,0.5525299310684204,1.2429925203323364,-4.841841697692871,5.924821853637695,3.76174521446228,3.55859375,1,fly,6.1,180,205.0,1.8820360474402644,[6200|0|0],fly
4000,1.1957687139511108,0.5315272212028503,1.2462890148162842,-4.746274948120117,8.4822998046875,3.730382204055786,3.568359375,1,fly,6.1,180,205.0,1.9584810084062108,[6200|0|0],fly
4100,1.254963517189026,0.5173592567443848,1.2477657794952393,-3.9893314838409424,9.35596752166748,3.6368818283081055,3.578125,1,fly,6.1,180,205.0,2.0193656269989955,[6200|0|0],fly
4200,1.2971770763397217,0.5096690654754639,1.2472848892211914,-2.6554079055786133,8.946556091308594,3.0607495307922363,3.5625,1,fly,6.1,180,205.0,2.06227663809612,[6200|0|0],fly
4300,1.3262563943862915,0.5048452615737915,1.242659330368042,-1.4412872791290283,7.678627967834473,2.6003689765930176,3.552734375,1,fly,6.1,180,205.0,2.092114057837768,[6200|0|0],fly
4400,1.3433581590652466,0.5016245245933533,1.2376527786254885,-0.5706627368927002,6.006924152374268,2.575505495071411,3.55859375,1,fly,6.1,180,205.0,2.1102223173395087,[6200|0|0],fly
4500,1.3521417379379272,0.4983144104480743,1.2329423427581787,0.0219303965568542,3.997636079788208,2.47972059249878,3.546875,1,fly,6.1,180,205.0,2.120724522799669,[6200|0|0],fly
4600,1.356001615524292,0.4968728423118591,1.2306528091430664,0.1487537175416946,2.5024678707122803,2.4055655002593994,3.552734375,1,fly,6.1,180,205.0,2.1254381984193738,[6200|0|0],fly
4700,1.3569871187210083,0.4914582967758178,1.226330041885376,0.0629780367016792,1.529873251914978,2.3943021297454834,3.5625,1,fly,6.1,180,205.0,2.132436400808328,[6200|0|0],fly
4800,1.357241153717041,0.4878914356231689,1.2230318784713743,-0.1382896900177002,0.9683387875556946,2.422767162322998,3.552734375,1,fly,6.1,180,205.0,2.137301060525815,[6200|0|0],fly
4900,1.3574614524841309,0.4841291606426239,1.220719337463379,-0.2728974223136902,0.6916953325271606,2.40268874168396,3.552734375,1,fly,6.1,180,205.0,2.141722722033628,[6200|0|0],fly
5000,1.3578799962997437,0.4812695980072021,1.218055248260498,-0.3529224097728729,0.8909431099891663,2.43320631980896,3.55859375,1,fly,6.1,180,205.0,2.1456533261439903,[6200|0|0],fly
5100,1.3576250076293943,0.4801893532276153,1.21665620803833,-0.3709298074245453,0.7013064622879028,2.477368116378784,3.546875,1,fly,6.1,180,205.0,2.147439176515403,[6200|0|0],fly
5200,1.357831597328186,0.4798240065574646,1.214957594871521,-0.6152334809303284,0.9486931562423706,2.4313809871673584,3.541015625,1,fly,6.1,180,205.0,2.14918887482754,[6200|0|0],fly
5300,1.3558138608932495,0.4776380062103271,1.2113479375839231,-0.4669671356678009,0.8102489709854126,2.346916675567627,3.552734375,1,fly,6.1,180,205.0,2.153866425850507,[6200|0|0],fly
5400,1.3536781072616575,0.4759774208068847,1.2083038091659546,-0.5173362493515015,0.9335585236549376,2.626005887985229,3.546875,1,fly,6.1,180,205.0,2.157938980979915,[6200|0|0],fly
5500,1.3517767190933228,0.4766451120376587,1.207354187965393,-0.4455301463603973,0.8868672251701355,2.731358766555786,3.541015625,1,fly,6.1,180,205.0,2.160166730734913,[6200|0|0],fly
5600,1.3483858108520508,0.4785724580287933,1.2055429220199585,-0.2860720455646515,0.6584289073944092,2.513906240463257,3.552734375,1,fly,6.1,180,205.0,2.16446714996975,[6200|0|0],fly
5700,1.3445110321044922,0.4806631207466125,1.203271508216858,0.0293035507202148,0.2773018777370453,2.2620973587036133,3.546875,1,fly,6.1,180,205.0,2.16942135037013,[6200|0|0],fly
5800,1.3404228687286377,0.4826558232307434,1.2007180452346802,0.3190360367298126,-0.0089050978422164,2.0639119148254395,3.537109375,1,fly,6.1,180,205.0,2.174637106900039,[6200|0|0],fly
5900,1.336978316307068,0.4856136441230774,1.1986750364303589,0.3938667178153991,-0.0196477342396974,1.9323548078536987,3.546875,1,fly,6.1,180,205.0,2.179615814643079,[6200|0|0],fly
6000,1.3337132930755615,0.4869463443756103,1.1964144706726074,0.4840924441814422,-0.01485778670758,1.8497120141983032,3.541015625,1,fly,6.1,180,205.0,2.183804683727987,[6200|0|0],fly
6100,1.3304178714752195,0.4886752068996429,1.1932592391967771,0.3979706764221191,0.1091865673661232,1.8187061548233032,3.53125,1,fly,6.1,180,205.0,2.188683644151794,[6200|0|0],fly
6200,1.3268402814865112,0.4901062250137329,1.1875439882278442,0.8191152215003967,-0.2655220031738281,1.4592373371124268,3.822265625,1,fly,6.1,180,270.0,2.1955764706118206,[6200|0|0],fly
6300,1.323419213294983,0.4923419952392578,1.15276038646698,0.7978562116622925,-1.1845005750656128,0.8995780348777771,3.763671875,1,fly,6.1,180,270.0,2.230599339248339,[6200|0|0],fly
6400,1.319133758544922,0.4940112233161926,1.0768849849700928,-0.2296143025159835,-0.4539529085159302,-1.4903026819229126,3.642578125,1,fly,6.1,180,270.0,2.3066139957107703,[6200|0|0],fly
6500,1.3157137632369995,0.4950675070285797,0.9687022566795348,0.1548481881618499,0.1441846638917923,-2.1769940853118896,3.552734375,1,fly,6.1,180,270.0,2.414855922908949,[6200|0|0],fly
6600,1.3124704360961914,0.4947879910469055,0.8440729379653931,0.0154665419831871,-0.1776985228061676,-0.0853449031710624,3.521484375,1,fly,6.1,180,270.0,2.539527749651311,[6200|0|0],fly
6700,1.31074059009552,0.4938956201076507,0.7167399525642395,0.4813184440135956,0.651844322681427,-1.3875665664672852,3.521484375,1,fly,6.1,180,270.0,2.6668756112911893,[6200|0|0],fly
6800,1.307403326034546,0.4918293356895447,0.5915278196334839,-0.3825810253620147,1.62647545337677,0.9889941811561584,3.541015625,1,fly,6.1,180,270.0,2.7921492521570093,[6200|0|0],fly
6900,1.2982600927352903,0.4848565459251404,0.4684273600578308,2.93678879737854,6.053904533386231,2.284655809402466,3.509765625,1,fly,6.1,180,270.0,2.915785580394304,[6200|0|0],fly
7000,1.2782312631607056,0.4763236343860626,0.3422832787036896,-4.652804851531982,3.0940425395965576,4.139842510223389,3.416015625,1,fly,6.1,180,270.0,3.043794540448441,[6200|0|0],fly
7100,1.251510500907898,0.4725434780120849,0.2267573326826095,-0.9616710543632508,-4.821774959564209,6.021480560302734,3.3984375,1,fly,6.1,180,270.0,3.1624306771086017,[6200|0|0],fly
7200,1.2233866453170776,0.4796800017356872,0.1312568187713623,-6.197817325592041,1.6740834712982178,9.9705228805542,3.47265625,1,fly,6.1,180,270.0,3.2622416453508905,[6200|0|0],fly
7300,1.1908321380615234,0.4983831644058227,0.0546088516712188,-3.9422926902771,-3.963643074035645,11.27097988128662,3.404296875,1,fly,6.1,180,270.0,3.347591016157605,[6200|0|0],fly
7400,1.164931297302246,0.5257859230041504,0.000304814428091,2.073212146759033,-9.910554885864258,11.290010452270508,3.388671875,1,fly,6.1,180,270.0,3.413702234507736,[6200|0|0],fly
7500,1.1512782573699951,0.5579183101654053,0.0,-1.343031644821167,3.260217905044556,10.37304973602295,3.505859375,1,fly,6.1,180,270.0,3.448616253410005,[6200|0|0],fly
7600,1.1440244913101196,0.584381103515625,0.0092650754377245,12.507320404052734,-10.18388557434082,9.62592315673828,3.568359375,1,fly,6.1,180,270.0,3.477577230203176,[6200|0|0],fly
7700,1.1569018363952637,0.5940836071968079,0.0270325783640146,16.701425552368164,-13.42992877960205,5.462395191192627,3.552734375,1,fly,6.1,180,270.0,3.501569911469782,[6200|0|0],fly
7800,1.1934911012649536,0.578871488571167,0.0369787439703941,14.056464195251465,-9.961379051208496,9.864375114440918,3.525390625,1,fly,6.1,180,270.0,3.5424246427386867,[6200|0|0],fly
7900,1.2479866743087769,0.5444675087928772,0.0419862456619739,8.163409233093262,-5.670507431030273,3.650165557861328,3.509765625,1,fly,6.1,180,270.0,3.607065778087247,[6200|0|0],fly
8000,1.3100239038467407,0.5041930675506592,0.0468878671526908,1.5938458442687988,0.690819263458252,0.8065016865730286,3.53125,1,fly,6.1,180,270.0,3.681191848800304,[6200|0|0],fly
8100,1.3729734420776367,0.4652629494667053,0.0539694018661975,-3.017547845840454,5.878654003143311,0.0078554218634963,3.546875,1,fly,6.1,180,270.0,3.7555447007389633,[6200|0|0],fly
8200,1.4281378984451294,0.4361400902271271,0.0610275231301784,-4.94766902923584,9.86094856262207,0.6402376890182495,3.552734375,1,fly,6.1,180,270.0,3.8183226845580247,[6200|0|0],fly
8300,1.4697003364562988,0.4194908440113067,0.0640419870615005,-6.920426845550537,10.273789405822754,0.2307271957397461,3.541015625,1,fly,6.1,180,270.0,3.863197183394007,[6200|0|0],fly
8400,1.4978073835372925,0.4149810373783111,0.0625209137797355,-6.11763334274292,10.741981506347656,-0.8497426509857178,3.521484375,1,fly,6.1,180,270.0,3.8917043424143074,[6200|0|0],fly
8500,1.5128870010375977,0.4221319258213043,0.0582054443657398,-3.699836015701294,9.780895233154297,-1.8973184823989868,3.515625,1,fly,6.1,180,270.0,3.90894247879104,[6200|0|0],fly
8600,1.5158408880233765,0.4355572462081909,0.0540381893515586,-0.5896283984184265,7.513547420501709,-2.9930574893951416,3.509765625,1,fly,6.1,180,270.0,3.923306694403752,[6200|0|0],fly
8700,1.5089962482452393,0.452084869146347,0.051152653992176,1.0294184684753418,4.404119491577148,-3.576780319213867,3.515625,1,fly,6.1,180,270.0,3.9414267862354335,[6200|0|0],fly
8800,1.497170329093933,0.4669209122657776,0.0513302162289619,2.6056952476501465,2.5537359714508057,-3.4373772144317627,3.525390625,1,fly,6.1,180,270.0,3.960400243157217,[6200|0|0],fly
8900,1.484010934829712,0.4786672294139862,0.0514676384627819,1.3428877592086792,0.8136658072471619,-2.705832004547119,3.521484375,1,fly,6.1,180,270.0,3.978040098848743,[6200|0|0],fly
9000,1.4713469743728638,0.4887756407260895,0.0518675185739994,2.583130121231079,0.9793964624404908,-1.9194685220718384,3.521484375,1,fly,6.1,180,270.0,3.994248608274678,[6200|0|0],fly
9100,1.457565426826477,0.4962045848369598,0.0528156794607639,2.8705639839172363,0.8667576313018799,-2.374451160430908,3.521484375,1,fly,6.1,180,270.0,4.009933609787044,[6200|0|0],fly
9200,1.444534182548523,0.5003277063369751,0.0529990456998348,3.459069967269897,0.3650567829608917,-2.929838895797729,3.521484375,1,B2,6.1,180,270.0,4.023602811721072,[6200|100|0],intermediate
9300,1.430788516998291,0.4998757243156433,0.0531568974256515,2.662574529647827,0.3686408400535583,-2.683105945587158,3.521484375,1,B2,6.1,180,270.0,4.0373568120967365,[6200|200|0],intermediate
9400,1.4162660837173462,0.4971131980419159,0.0534259974956512,1.311368465423584,0.2960309386253357,-2.356184720993042,3.525390625,1,B2,6.1,180,270.0,4.052142110019342,[6200|300|0],intermediate
9500,1.4023611545562744,0.4932738840579986,0.0568722672760486,2.1208062171936035,-0.0333121083676815,-2.123789072036743,3.53125,1,B2,6.1,180,270.0,4.066973298853714,[6200|400|0],intermediate
9600,1.3883384466171265,0.488970935344696,0.0602313503623008,-1.4818719625473022,-1.074299931526184,-1.4874426126480105,3.53125,1,B2,6.1,180,270.0,4.082021060971594,[6200|500|0],intermediate
9700,1.374443769454956,0.48611581325531,0.0610110685229301,0.5273250937461853,0.0156403239816427,-0.9283398389816284,3.525390625,1,B2,6.1,180,270.0,4.096227458685169,[6200|600|0],intermediate
9800,1.3620773553848269,0.4837557673454284,0.0590812899172306,0.652222752571106,-0.0881042629480362,-0.580823540687561,3.515625,1,B2,6.1,180,270.0,4.108964101065233,[6200|700|0],intermediate
9900,1.3485066890716553,0.4810341298580169,0.0568944849073886,0.1940690279006958,0.683590829372406,0.1368494033813476,3.509765625,1,B2,6.1,180,270.0,4.122976681518076,[6200|800|0],intermediate
10000,1.333262324333191,0.4786418080329895,0.055486261844635,1.3643717765808103,0.8872528672218323,0.6115811467170715,3.515625,1,B2,6.1,180,270.0,4.138471743705376,[6200|900|0],intermediate
10100,1.3157631158828735,0.4757005870342254,0.0558472126722335,-0.8947539329528809,-0.0490516945719718,0.3527376353740692,3.515625,1,B2,6.1,180,270.0,4.156220077792022,[6200|1000|0],intermediate
10200,1.2985326051712036,0.4732333123683929,0.0584644936025142,-0.4932427108287811,-0.7859170436859131,-0.0569822639226913,3.525390625,1,B2,6.1,180,270.0,4.173822012433693,[6200|1100|0],intermediate
10300,1.282212257385254,0.4717206954956054,0.0617389231920242,-0.781908392906189,0.4082472324371338,0.6433438658714294,3.525390625,1,B2,6.1,180,270.0,4.190536187579204,[6200|1200|0],intermediate
10400,1.2665051221847534,0.4724202752113342,0.0630982890725135,0.0602553188800811,-0.8611583113670349,0.3544255197048187,3.521484375,1,B2,6.1,180,270.0,4.206317549484392,[6200|1300|0],intermediate
10500,1.251082181930542,0.4749044775962829,0.0619439445436,-1.2035845518112185,-0.3121612071990967,0.6513356566429138,3.509765625,1,B2,6.1,180,270.0,4.221981867499096,[6200|1400|0],intermediate
10600,1.2360323667526243,0.4790646135807037,0.0580514036118984,-1.281053066253662,0.9428662657737732,0.5985080599784851,3.505859375,1,B2,6.1,180,270.0,4.238073963173784,[6200|1500|0],intermediate
10700,1.2203385829925537,0.4849397242069244,0.0543765649199485,1.4951715469360352,0.3681250512599945,-0.2702248692512512,3.5,1,B2,6.1,180,270.0,4.255229609853232,[6200|1600|0],intermediate
10800,1.2045340538024902,0.4898787438869476,0.053227499127388,-0.1836995929479599,-0.4660102427005768,-0.6408998966217041,3.505859375,1,B2,6.1,180,270.0,4.271827724520713,[6200|1700|0],intermediate
10900,1.1888480186462402,0.4933693706989288,0.0535109117627143,-0.3337814807891845,-0.3079692721366882,-0.7965128421783447,3.509765625,1,B2,6.1,180,270.0,4.28789995203234,[6200|1800|0],intermediate
11000,1.173755407333374,0.4983969032764435,0.0533039569854736,-0.6008461713790894,-0.4405864179134369,-1.0887272357940674,3.5,1,B2,6.1,180,270.0,4.303809252153308,[6200|1900|0],intermediate
11100,1.1583430767059326,0.5048888921737671,0.0514009520411491,1.1211084127426147,0.5359752774238586,-1.4038238525390625,3.921875,1,B2,6.1,180,270.0,4.320640986556829,[6200|2000|0],intermediate
11200,1.1412572860717771,0.5107441544532776,0.012697959318757,4.534247875213623,1.2794679403305054,-1.5541353225708008,3.927734375,1,B2,6.1,180,270.0,4.363350821298088,[6200|2100|0],intermediate
11300,1.1403037309646606,0.5142219066619873,0.0,-0.9473503828048706,-5.394280910491943,-11.872359275817873,3.931640625,1,B2,6.1,180,270.0,4.3765509045792,[6200|2200|0],intermediate
11400,1.1400610208511353,0.5154785513877869,0.0,-2.217643976211548,-6.788811206817627,-10.582405090332031,3.931640625,1,B2,6.1,180,270.0,4.3778307733873545,[6200|2300|0],intermediate
11500,1.1425414085388184,0.5169614553451538,0.0,-6.121974945068359,-11.145031929016112,-11.15033721923828,3.9375,1,B2,6.1,180,270.0,4.380720639686682,[6200|2400|0],intermediate
11600,1.1420818567276,0.5157201886177063,0.0,-1.3743616342544556,-9.569533348083496,-8.617341995239258,3.9375,1,B2,6.1,180,270.0,4.382044244973715,[6200|2500|0],intermediate
11700,1.1415531635284424,0.5155915021896362,0.0,-0.6159707903862,-9.0924072265625,-8.431859970092773,3.9375,1,B2,6.1,180,270.0,4.382588374274162,[6200|2600|0],intermediate
11800,1.1416798830032349,0.5157070755958557,0.0,-0.5539695620536804,-9.130133628845217,-8.42033863067627,3.943359375,1,B2,6.1,180,270.0,4.3827598824008405,[6200|2700|0],intermediate
11900,1.141662359237671,0.5156767964363098,0.0,-0.4835289716720581,-9.158845901489258,-8.399935722351074,3.943359375,1,B2,6.1,180,270.0,4.382794866823979,[6200|2800|0],intermediate
12000,1.1416105031967163,0.5156672596931458,0.0,-0.4278936982154846,-9.200526237487791,-8.40027904510498,3.94921875,1,B2,6.1,180,270.0,4.382847592514621,[6200|2900|0],intermediate
12100,1.1417618989944458,0.5157217979431152,0.0,-0.3780131936073303,-9.240549087524414,-8.413994789123535,3.94921875,1,B2,6.1,180,270.0,4.383008512085463,[6200|3000|0],intermediate
12200,1.1417179107666016,0.5154048800468445,0.0,-0.3177591562271118,-9.278491973876951,-8.400127410888672,3.94921875,1,B2,6.1,180,270.0,4.383328468203025,[6200|3100|0],intermediate
12300,1.1417059898376465,0.5157433748245239,0.0,-0.2803943455219269,-9.311213493347168,-8.3980131149292,3.94921875,1,B2,6.1,180,270.0,4.383667172828124,[6200|3200|0],intermediate
12400,1.1417702436447144,0.5151385068893433,0.0,-0.218611478805542,-9.343184471130373,-8.365797996520996,3.953125,1,B2,6.1,180,270.0,4.384275443960706,[6200|3300|0],intermediate
12500,1.1414361000061035,0.5152156352996826,0.0,-0.1866077929735183,-9.358519554138184,-8.343789100646973,3.953125,1,B2,6.1,180,270.0,4.384618373637033,[6200|3400|0],intermediate
12600,1.1416130065917969,0.5150004625320435,0.0,-0.1531384587287902,-9.3871488571167,-8.316204071044922,3.953125,1,B2,6.1,180,270.0,4.384896932894634,[6200|3500|0],intermediate
12700,1.14174222946167,0.5155802965164185,0.0,-0.1468803882598877,-9.409662246704102,-8.315091133117676,3.958984375,1,B2,6.1,180,270.0,4.385490991813879,[6200|3600|0],intermediate
12800,1.1415247917175293,0.5155763626098633,0.0,-0.1296152770519256,-9.419560432434082,-8.298989295959473,3.958984375,1,B2,6.1,180,270.0,4.385708465141434,[6200|3700|0],intermediate
12900,1.1417125463485718,0.5150033831596375,0.0,-0.0968250706791877,-9.436969757080078,-8.311127662658691,3.958984375,1,B2,6.1,180,270.0,4.3863114222310005,[6200|3800|0],intermediate
13000,1.1415966749191284,0.5151836276054382,0.0,-0.0936998799443245,-9.44506549835205,-8.333414077758789,3.958984375,1,B2,6.1,180,270.0,4.386525698334202,[6200|3900|0],intermediate
13100,1.14176344871521,0.5151649117469788,0.0,-0.0768745318055152,-9.456314086914062,-8.309876441955566,3.96484375,1,B2,6.1,180,270.0,4.38669351901951,[6200|4000|0],intermediate
13200,1.141866683959961,0.5152392983436584,0.0,-0.0632923543453216,-9.463253021240234,-8.303184509277344,3.96484375,1,B2,6.1,180,270.0,4.386820762414327,[6200|4100|0],intermediate
13300,1.1417958736419678,0.5156136751174927,0.0,-0.0837853625416755,-9.48062515258789,-8.397957801818848,3.96484375,1,B2,6.1,180,270.0,4.387201776941505,[6200|4200|0],intermediate
13400,1.1420012712478638,0.5150721669197083,0.0,-0.0468668714165687,-9.491567611694336,-8.764998435974121,3.96484375,1,B2,6.1,180,270.0,4.387780930897526,[6200|4300|0],intermediate
13500,1.141107201576233,0.5127882957458496,0.0,-0.3950099050998688,-9.63816261291504,-6.502251625061035,3.96484375,1,B2,6.1,180,270.0,4.390233567869545,[6200|4400|0],intermediate
13600,1.1338435411453247,0.5069724321365356,0.0,0.0076483646407723,-2.1553258895874023,-6.497947692871094,3.96484375,1,B2,6.1,180,270.0,4.399538675734459,[6200|4500|0],intermediate
13700,1.1160438060760498,0.503629207611084,0.0,1.3426882028579712,9.96037769317627,-11.29763889312744,3.96875,1,B2,6.1,180,270.0,4.417649659108201,[6200|4600|0],intermediate
13800,1.1073986291885376,0.4954636693000793,0.0,9.681498527526855,26.027042388916016,-23.8648681640625,3.96875,1,B2,6.1,180,270.0,4.429541467184555,[6200|4700|0],intermediate
13900,1.1267939805984497,0.4834462702274322,0.0155581887811422,18.739057540893555,49.26069259643555,-29.86881828308105,3.96875,1,B2,6.1,180,270.0,4.457157672118161,[6200|4800|0],intermediate
14000,1.1800802946090698,0.4850375950336456,0.0320118628442287,43.91950607299805,51.08061218261719,-44.18774032592773,3.96875,1,B2,6.1,180,270.0,4.512949131730287,[6200|4900|0],intermediate
14100,1.2364647388458252,0.4958197772502899,0.0472094193100929,33.323909759521484,47.10249710083008,-31.0953426361084,3.96875,1,B2,6.1,180,270.0,4.572332856165303,[6200|5000|0],intermediate
14200,1.2900946140289309,0.5078462958335876,0.0433087646961212,23.85566711425781,42.90060043334961,-17.84503936767578,3.96875,1,B2,6.1,180,270.0,4.627432908504728,[6200|5100|0],intermediate
14300,1.3323814868927002,0.5155022740364075,0.0201068297028541,28.113842010498047,40.7953987121582,-12.497331619262695,3.96875,1,B2,6.1,180,270.0,4.676270633741172,[6200|5200|0],intermediate
14400,1.3502862453460691,0.5232052206993103,0.0091518349945545,15.82346248626709,28.98636817932129,-2.0355453491210938,3.974609375,1,B2,6.1,180,270.0,4.69862969614602,[6200|5300|0],intermediate
14500,1.361971139907837,0.5247014164924622,0.0073499050922691,11.78458023071289,16.821237564086914,-5.365636825561523,3.974609375,1,B2,6.1,180,270.0,4.7105470076777305,[6200|5400|0],intermediate
14600,1.3668746948242188,0.5265905261039734,0.0023094902280718,10.981108665466309,3.656325578689575,-2.1684341430664062,3.974609375,1,B2,6.1,180,270.0,4.717828447641467,[6200|5500|0],intermediate
14700,1.3693286180496216,0.5286126136779785,0.000886388705112,5.902085304260254,1.451866626739502,-1.9348530769348145,3.974609375,1,B2,6.1,180,270.0,4.721312094480308,[6200|5600|0],intermediate
14800,1.3701492547988892,0.5306388139724731,9.744636190589516e-05,0.0466500706970691,-1.561232328414917,-2.0215654373168945,3.974609375,1,B2,6.1,180,270.0,4.723636177595982,[6200|5700|0],intermediate
14900,1.3704534769058228,0.5309436321258545,0.0,-0.1600499004125595,-1.3192580938339231,-2.079315185546875,3.974609375,1,B2,6.1,180,270.0,4.724077721467445,[6200|5800|0],intermediate
15000,1.3694709539413452,0.531663715839386,0.0003515486896503,-0.2740494906902313,-1.0539346933364868,-2.1016762256622314,3.974609375,1,B2,6.1,180,270.0,4.725345577299712,[6200|5900|0],intermediate
15100,1.3699074983596802,0.5316001176834106,0.0005426725256256,-0.2921090126037597,-0.7677626609802246,-2.163722038269043,3.974609375,1,B2,6.1,180,270.0,4.725826351753381,[6200|6000|0],intermediate
15200,1.3698822259902954,0.531782865524292,0.0007143430993892,-0.255119264125824,-0.5370131134986877,-2.185896158218384,3.98046875,1,B2,6.1,180,270.0,4.726078356221391,[6200|6100|0],intermediate
15300,1.369706392288208,0.5322074890136719,0.0005730938282795,-0.2887687981128692,-0.3923021852970123,-2.209059953689575,3.98046875,1,B2,6.1,180,270.0,4.726559161748722,[6200|6200|0],intermediate
15400,1.3690381050109863,0.531545877456665,0.0008322118665091,-0.2798467576503753,-0.2634828984737396,-2.197006225585937,3.98046875,1,B2,6.1,180,270.0,4.727534600057893,[6200|6300|0],intermediate
15500,1.3689724206924438,0.5315549969673157,0.0004692800575867,-0.2815642654895782,-0.1659993976354599,-2.210300207138061,3.98046875,1,B2,6.1,180,270.0,4.727903540558658,[6200|6400|0],intermediate
15600,1.3693900108337402,0.5314542651176453,0.0009939963929355,-0.2701431810855865,-0.0867211818695068,-2.2506442070007324,4.05859375,1,B2,6.1,180,270.0,4.728581667142879,[6200|6500|0],intermediate
15700,1.368922233581543,0.5318343043327332,0.0007780535961501,-0.2620418071746826,0.0050379373133182,-2.251569986343384,4.05859375,1,B2,6.1,180,270.0,4.729221883242459,[6200|6600|0],intermediate
15800,1.3687167167663574,0.5317871570587158,0.0004645706503652,-0.2448403090238571,0.0776538774371147,-2.281667709350586,4.05859375,1,B2,6.1,180,270.0,4.729599681580291,[6200|6700|0],intermediate
15900,1.3688358068466189,0.5316352248191833,0.0006943986518308,-0.219911053776741,0.1261647045612335,-2.3207271099090576,4.06640625,1,B2,6.1,180,270.0,4.729899826150263,[6200|6800|0],intermediate
16000,1.3684202432632446,0.5318872332572937,0.0006518981535919,-0.2009251117706298,0.1897663623094558,-2.322721481323242,4.06640625,1,B2,6.1,180,270.0,4.730387686414126,[6200|6900|0],intermediate
16100,1.3683894872665403,0.5316464304924011,0.0007957459893077,-0.1645022183656692,0.221773087978363,-2.3055269718170166,4.06640625,1,B2,6.1,180,270.0,4.730669863845458,[6200|7000|0],intermediate
16200,1.3686213493347168,0.5317232012748718,0.0006579656037501,-0.1510107219219207,0.2328443378210067,-2.337217092514038,4.06640625,1,B2,6.1,180,270.0,4.730950287108303,[6200|7100|0],intermediate
16300,1.3686511516571045,0.5318015813827515,0.0003209316637367,-0.1413370221853256,0.2448690235614776,-2.341416120529175,4.06640625,1,B2,6.1,180,270.0,4.731297596043477,[6200|7200|0],intermediate
16400,1.368527054786682,0.531460702419281,0.0006131972768343,-0.1173739284276962,0.2704546153545379,-2.350937843322754,4.0703125,1,B2,6.1,180,270.0,4.731763447618107,[6200|7300|0],intermediate
16500,1.3683202266693115,0.5321230292320251,0.0002288754767505,-0.1269967257976532,0.2851064205169678,-2.350158929824829,4.0703125,1,B2,6.1,180,270.0,4.732556642375424,[6200|7400|0],intermediate
16601,1.3682113885879517,0.5319235324859619,0.000595191377215,-0.1138620227575302,0.298298180103302,-2.349445343017578,4.0703125,1,B2,6.1,180,270.0,4.732987724755692,[6200|7500|0],intermediate
16700,1.368392825126648,0.531830370426178,0.0003491125244181,-0.1028520986437797,0.3034664392471313,-2.3707058429718018,4.0703125,1,B2,6.1,180,270.0,4.73330733888046,[6200|7600|0],intermediate
16801,1.3683360815048218,0.5317465662956238,0.0005477238446474,-0.0950161442160606,0.3130140006542206,-2.3555822372436523,4.0703125,1,B2,6.1,180,270.0,4.733530250135086,[6200|7700|0],intermediate
16901,1.368550181388855,0.5317258238792419,0.0007724579772911,-0.0927737429738044,0.3123262524604797,-2.3631961345672607,4.0703125,1,B2,6.1,180,270.0,4.733841336037298,[6200|7800|0],intermediate
17001,1.3680999279022217,0.5318251252174377,0.0004277178668417,-0.0950581282377243,0.3255438506603241,-2.37031626701355,4.0703125,1,B2,6.1,180,270.0,4.734417039695221,[6200|7900|0],intermediate
17101,1.3684760332107544,0.53168123960495,0.0009551435359753,-0.093436025083065,0.3120428025722503,-2.3748974800109863,4.07421875,1,B2,6.1,180,270.0,4.735080617956656,[6200|8000|0],intermediate
17201,1.3684695959091189,0.5315380096435547,0.0009219868225045,-0.0876539722084999,0.3118059635162353,-2.3738179206848145,4.07421875,1,B2,6.1,180,270.0,4.7352277764709925,[6200|8100|0],intermediate
17301,1.3682241439819336,0.5315584540367126,0.0003224414540454,-0.0864992812275886,0.3209101259708404,-2.3623712062835693,4.07421875,1,B2,6.1,180,270.0,4.735875942553576,[6200|8200|0],intermediate
17401,1.3680990934371948,0.5314359664916992,0.0009075023699551,-0.0843651965260505,0.3192870318889618,-2.3789496421813965,4.07421875,1,B2,6.1,180,270.0,4.736486628326087,[6200|8300|0],intermediate
17501,1.3682811260223389,0.5316758155822754,0.0006339521496556,-0.0905213356018066,0.3086314499378204,-2.3484227657318115,4.07421875,1,B2,6.1,180,270.0,4.736893436845333,[6200|8400|0],intermediate
17601,1.368327498435974,0.5317801833152771,0.0001548600994283,-0.0892964377999305,0.3066895604133606,-2.3527660369873047,4.07421875,1,B2,6.1,180,270.0,4.737385953055248,[6200|8500|0],intermediate
17701,1.3687093257904053,0.5313584208488464,0.0008638886502012,-0.0777781978249549,0.3007123172283172,-2.361825942993164,4.08203125,1,B2,6.1,180,270.0,4.738295016965264,[6200|8600|0],intermediate
17802,1.368316411972046,0.531593382358551,0.0005370210856199,-0.080459788441658,0.3055697381496429,-2.3263418674468994,4.08203125,1,B2,6.1,180,270.0,4.738857538595493,[6200|8700|0],intermediate
17901,1.3684971332550049,0.5316070914268494,0.000524622213561,-0.0813516601920127,0.2970303297042846,-2.3285350799560547,4.08203125,1,B2,6.1,180,270.0,4.739039202716046,[6200|8800|0],intermediate
18002,1.3684576749801636,0.5317550897598267,0.0004213696229271,-0.0935435518622398,0.3015374839305877,-2.3559162616729736,4.08203125,1,B2,6.1,180,270.0,4.73922392293554,[6200|8900|0],intermediate
18102,1.3682217597961426,0.5315849781036377,0.0009701667586341,-0.0911823585629463,0.3079426288604736,-2.370649099349976,4.08203125,1,B2,6.1,180,270.0,4.739845028599484,[6200|9000|0],intermediate
18202,1.3681001663208008,0.5314716100692749,0.0007314786198548,-0.0868933051824569,0.3112244606018066,-2.395090818405152,4.08203125,1,B2,6.1,180,270.0,4.740135905398241,[6200|9100|0],intermediate
18300,1.3684338331222534,0.5313389897346497,0.0006059848237782,-0.0786823406815528,0.3046998381614685,-2.391419172286988,4.08203125,1,B2,6.1,180,270.0,4.7405162609955465,[6200|9200|0],intermediate
18400,1.3681132793426514,0.5319111347198486,0.0006963847554288,-0.0885049030184745,0.315332293510437,-2.38733983039856,4.0859375,1,B2,6.1,180,270.0,4.741178285736283,[6200|9300|0],intermediate
18500,1.3684536218643188,0.5313037037849426,0.0006549513782374,-0.0709631219506263,0.3028239905834198,-2.3959312438964844,4.0859375,1,B2,6.1,180,270.0,4.741875797096393,[6200|9400|0],intermediate
18600,1.3682745695114136,0.5314565300941467,0.0006361858686432,-0.0764327198266983,0.3075393140316009,-2.398632049560547,4.0859375,1,B2,6.1,180,270.0,4.742111949102982,[6200|9500|0],intermediate
18700,1.3685346841812134,0.5314486026763916,0.0007147567812353,-0.0695573985576629,0.2948915660381317,-2.3993160724639893,4.0859375,1,B2,6.1,180,270.0,4.742383787057843,[6200|9600|0],intermediate
18800,1.3682644367218018,0.5313644409179688,0.000763144402299,-0.0604517050087451,0.3059097230434418,-2.4038660526275635,4.0859375,1,B2,6.1,180,270.0,4.7426709425083775,[6200|9700|0],intermediate
18900,1.3683140277862549,0.5312738418579102,0.0005952044739387,-0.0500114671885967,0.3063965439796448,-2.400956630706787,4.0859375,1,B2,6.1,180,270.0,4.742868100523419,[6200|9800|0],intermediate
19000,1.3680572509765625,0.5317789912223816,0.0006089069065637,-0.0615995116531848,0.3196981251239776,-2.392120599746704,4.0859375,1,B2,6.1,180,270.0,4.743434932039023,[6200|9900|0],intermediate
19100,1.368586778640747,0.5314642786979675,0.0007539428188465,-0.0533593706786632,0.3027756214141845,-2.405956029891968,4.0859375,1,B2,6.1,180,270.0,4.744067766089949,[6200|10000|0],intermediate
19200,1.3684451580047607,0.5312150120735168,0.0006331132608465,-0.0481032319366931,0.3024573624134063,-2.4032986164093018,4.08984375,1,B2,6.1,180,270.0,4.744378877061611,[6200|10100|0],intermediate
19300,1.3682862520217896,0.5319594144821167,0.0007407268276438,-0.0645328238606453,0.3073357939720154,-2.386306047439575,4.0859375,1,B2,6.1,180,270.0,4.745147620671088,[6200|10200|0],intermediate
19400,1.3685752153396606,0.5318155884742737,0.0003381519636604,-0.0598712600767612,0.2993280291557312,-2.390201568603516,4.08984375,1,B2,6.1,180,270.0,4.74566361702836,[6200|10300|0],intermediate
19500,1.368123173713684,0.5315084457397461,0.0005661544273607,-0.0530013367533683,0.3176643848419189,-2.349364280700684,4.08984375,1,B2,6.1,180,270.0,4.746255785428769,[6200|10400|0],intermediate
19600,1.368516206741333,0.5316340327262878,0.0002171567030018,-0.0580885000526905,0.3061910271644592,-2.3763160705566406,4.08984375,1,B2,6.1,180,270.0,4.746796198662896,[6200|10500|0],intermediate
19700,1.368136644363403,0.5316267013549805,0.0003344971046317,-0.0632943287491798,0.3212742209434509,-2.372666358947754,4.08984375,1,B2,6.1,180,270.0,4.747193552557554,[6200|10600|0],intermediate
19800,1.3683695793151855,0.5314835906028748,0.0006597666069865,-0.063859187066555,0.314305692911148,-2.3868329524993896,4.08984375,1,B2,6.1,180,270.0,4.74761845210838,[6200|10700|0],intermediate
19900,1.368244767189026,0.5316323637962341,0.0007639125105924,-0.0606669224798679,0.3126816153526306,-2.379644632339477,4.08984375,1,B2,6.1,180,270.0,4.7478388106778455,[6200|10800|0],intermediate
20000,1.3684815168380735,0.5314918160438538,0.0008286943193525,-0.0591913238167762,0.2971667349338531,-2.3693196773529053,4.08984375,1,B2,6.1,180,270.0,4.748121654715734,[6200|10900|0],intermediate
20100,1.3684132099151611,0.5314545631408691,0.0006624907837249,-0.0502734556794166,0.3046377003192901,-2.3812062740325928,4.08984375,1,B2,6.1,180,270.0,4.748305168284044,[6200|11000|0],intermediate
20200,1.3684215545654297,0.5314443111419678,0.0005477367085404,-0.056298803538084,0.3057724237442016,-2.4108803272247314,4.08984375,1,B2,6.1,180,270.0,4.74842068120298,[6200|11100|0],intermediate
20300,1.3685147762298584,0.531494140625,0.0004593605990521,-0.0500157177448272,0.3059185445308685,-2.406767606735229,4.08984375,1,B2,6.1,180,270.0,4.748558462162573,[6200|11200|0],intermediate
20400,1.3684124946594238,0.5316423177719116,0.0008130852947942,-0.0497330985963344,0.3095000386238098,-2.409054756164551,4.09765625,1,B2,6.1,180,270.0,4.748955374176621,[6200|11300|0],intermediate
20500,1.3683173656463623,0.531929612159729,0.0005715435254387,-0.0554155111312866,0.3107981383800506,-2.4196362495422363,4.09765625,1,B2,6.1,180,270.0,4.749342582157867,[6200|11400|0],intermediate
20600,1.3685139417648315,0.5318501591682434,0.0003913754771929,-0.0462376289069652,0.3047333061695099,-2.3989431858062744,4.09765625,1,B2,6.1,180,270.0,4.749620818521086,[6200|11500|0],intermediate
20700,1.368309736251831,0.5316172242164612,0.00055115763098,-0.0385219454765319,0.3097208440303802,-2.3949997425079346,4.09765625,1,B2,6.1,180,270.0,4.749969371128263,[6200|11600|0],intermediate
20800,1.3684288263320925,0.53166663646698,0.0007182139088399,-0.050012819468975,0.2968202531337738,-2.364405393600464,4.09765625,1,B2,6.1,180,270.0,4.750180396761044,[6200|11700|0],intermediate
20900,1.368696928024292,0.5314561128616333,0.0007171119214035,-0.0516450479626655,0.2925801277160644,-2.384688377380371,4.09765625,1,B2,6.1,180,270.0,4.750521277854895,[6200|11800|0],intermediate
21000,1.3685578107833862,0.5313319563865662,0.000912656658329,-0.0487436205148696,0.3010506927967071,-2.367110252380371,4.09765625,1,B2,6.1,180,270.0,4.75079147441512,[6200|11900|0],intermediate
21100,1.368463397026062,0.5317578315734863,0.0006693106843158,-0.0722591429948806,0.3003143966197967,-2.368824243545532,4.09765625,1,B2,6.1,180,270.0,4.751290975061241,[6200|12000|0],intermediate
21200,1.3685424327850342,0.5318055152893066,0.0004362070176284,-0.0733616203069686,0.3010315895080566,-2.3622796535491943,4.1015625,1,B2,6.1,180,270.0,4.751541689455271,[6200|12100|0],intermediate
21300,1.368156909942627,0.5316774249076843,0.0005131815560162,-0.0712561607360839,0.3134942054748535,-2.337982416152954,4.1015625,1,B2,6.1,180,270.0,4.751955162655663,[6200|12200|0],intermediate
21400,1.36831533908844,0.5313790440559387,0.000693654466886,-0.06781055778265,0.3047857284545898,-2.334144115447998,4.1015625,1,B2,6.1,180,270.0,4.752338178841338,[6200|12300|0],intermediate
21500,1.3683035373687744,0.5316554307937622,0.0004260664863977,-0.0731914639472961,0.3063516914844513,-2.328230381011963,4.1015625,1,B2,6.1,180,270.0,4.752723058350709,[6200|12400|0],intermediate
21600,1.368422269821167,0.5316532254219055,0.0008575248648412,-0.0775147527456283,0.3074415922164917,-2.3671305179595947,4.1015625,1,B2,6.1,180,270.0,4.753170560966618,[6200|12500|0],intermediate
21700,1.3684542179107666,0.53202223777771,0.0005312782013788,-0.0839771479368209,0.3041934669017792,-2.385413885116577,4.1015625,1,B2,6.1,180,270.0,4.753664147518892,[6200|12600|0],intermediate
21800,1.3684861660003662,0.5318446755409241,0.0008924923022277,-0.0730235502123832,0.3126659095287323,-2.395313262939453,4.1015625,1,B2,6.1,180,270.0,4.754067910636342,[6200|12700|0],intermediate
21900,1.368524432182312,0.5317105054855347,0.0005150817451067,-0.0693746209144592,0.3106455206871032,-2.4077906608581543,4.1015625,1,B2,6.1,180,270.0,4.754470284384331,[6200|12800|0],intermediate
22000,1.3683552742004397,0.5318719148635864,0.0004637964302673,-0.0723555535078048,0.3227248191833496,-2.408411741256714,4.1015625,1,B2,6.1,180,270.0,4.7547096535420605,[6200|12900|0],intermediate
22100,1.3682143688201904,0.5317543148994446,0.0003752571064978,-0.0628900974988937,0.3209604918956756,-2.404558658599853,4.1015625,1,B2,6.1,180,270.0,4.754913426183999,[6200|13000|0],intermediate
22200,1.3682479858398438,0.5316299796104431,0.0003277274081483,-0.0628358572721481,0.317106157541275,-2.390169143676758,4.1015625,1,B2,6.1,180,270.0,4.755050715806064,[6200|13100|0],intermediate
22300,1.3684898614883425,0.5316079258918762,0.0006384421722032,-0.0710235759615898,0.3075765967369079,-2.3866167068481445,4.1015625,1,B2,6.1,180,270.0,4.755445093620401,[6200|13200|0],intermediate
22400,1.3686580657958984,0.5313315391540527,0.0005640382296405,-0.0632265955209732,0.299864262342453,-2.3990421295166016,4.1015625,1,B2,6.1,180,270.0,4.755777084982629,[6200|13300|0],intermediate
22500,1.368270993232727,0.5314920544624329,0.0009153312421403,-0.0703859776258468,0.3122456967830658,-2.3974766731262207,4.1015625,1,B2,6.1,180,270.0,4.756323891268269,[6200|13400|0],intermediate
22600,1.3685109615325928,0.5312166213989258,0.0006586530944332,-0.0649929717183113,0.3074795305728912,-2.39498233795166,4.10546875,1,B2,6.1,180,270.0,4.756770357200814,[6200|13500|0],intermediate
22700,1.3683478832244873,0.5316948294639587,0.0003315310459583,-0.0727746561169624,0.3073630630970001,-2.385089874267578,4.10546875,1,B2,6.1,180,270.0,4.757372259454204,[6200|13600|0],intermediate
22800,1.3686383962631226,0.5314708948135376,0.0007234317017719,-0.0711686760187149,0.2993317246437073,-2.4066178798675537,4.10546875,1,B2,6.1,180,270.0,4.757909037506385,[6200|13700|0],intermediate
22900,1.3685029745101929,0.5314978361129761,0.0009221372311003,-0.0654575526714325,0.3080186247825622,-2.4128201007843018,4.10546875,1,B2,6.1,180,270.0,4.758151006041876,[6200|13800|0],intermediate
23000,1.3684914112091064,0.5317498445510864,0.0004613154160324,-0.0751854851841926,0.3008542358875274,-2.401568651199341,4.10546875,1,B2,6.1,180,270.0,4.758676361833748,[6200|13900|0],intermediate
23100,1.3687256574630735,0.5314529538154602,0.0007872091373428,-0.0643319711089134,0.291627436876297,-2.396780490875244,4.10546875,1,B2,6.1,180,270.0,4.759175583361717,[6200|14000|0],intermediate
23200,1.368416428565979,0.531480610370636,0.0008811883744783,-0.0599749200046062,0.3027345240116119,-2.397601366043091,4.10546875,1,B2,6.1,180,270.0,4.759499958904653,[6200|14100|0],intermediate
23300,1.368356227874756,0.5315563678741455,0.0007198857492767,-0.0582043342292308,0.3055623769760132,-2.3849868774414062,4.10546875,1,B2,6.1,180,270.0,4.759688059567753,[6200|14200|0],intermediate
23400,1.3687505722045898,0.5315724015235901,0.0007377117872238,-0.0588405430316925,0.29224893450737,-2.385218858718872,4.10546875,1,B2,6.1,180,270.0,4.760083132087698,[6200|14300|0],intermediate
23500,1.3687145709991455,0.5317398309707642,0.0005149914068169,-0.0635083019733429,0.2861800789833069,-2.396048069000244,4.10546875,1,B2,6.1,180,270.0,4.760364082393665,[6200|14400|0],intermediate
23600,1.3685765266418457,0.5319216251373291,0.000250327255344,-0.0706566348671913,0.29141965508461,-2.3971195220947266,4.10546875,1,B2,6.1,180,270.0,4.760713585579136,[6200|14500|0],intermediate
23700,1.3685675859451294,0.5317367315292358,0.0003830545465461,-0.0702268183231353,0.2903240323066711,-2.4058337211608887,4.10546875,1,B2,6.1,180,270.0,4.760941362040171,[6200|14600|0],intermediate
23800,1.3684303760528564,0.5314210653305054,0.0006510759121738,-0.0701485052704811,0.3030361533164978,-2.419985055923462,4.10546875,1,B2,6.1,180,270.0,4.7613776041243305,[6200|14700|0],intermediate
23900,1.3684061765670776,0.5316942930221558,0.0006668209098279,-0.0803776457905769,0.2995070517063141,-2.407040596008301,4.10546875,1,B2,6.1,180,270.0,4.761652352903305,[6200|14800|0],intermediate
24000,1.368456244468689,0.5318130850791931,0.0006928463117219,-0.0842820480465889,0.2982416450977325,-2.401196956634521,4.10546875,1,B2,6.1,180,270.0,4.761783865903159,[6200|14900|0],intermediate
24100,1.3683568239212036,0.5315690040588379,0.0008397116907872,-0.0814310684800148,0.3070505857467651,-2.3883304595947266,4.11328125,1,B2,6.1,180,270.0,4.762085576740432,[6200|15000|0],intermediate
24200,1.3683050870895386,0.5317790508270264,0.0005400640075094,-0.0834438726305961,0.305883526802063,-2.3867197036743164,4.11328125,1,B2,6.1,180,270.0,4.762455150926044,[6200|15100|0],intermediate
24300,1.3684282302856443,0.5317957997322083,0.0002484631258994,-0.0813261121511459,0.3017040193080902,-2.3862855434417725,4.10546875,1,B2,6.1,180,270.0,4.762772130178879,[6200|15200|0],intermediate
24400,1.3680881261825562,0.5316721200942993,0.0005594381364062,-0.0759810879826545,0.3023908138275146,-2.3676066398620605,4.11328125,1,B2,6.1,180,270.0,4.7632492810050655,[6200|15300|0],intermediate
24500,1.3683886528015137,0.5317688584327698,0.0006265745032578,-0.0773255303502082,0.2914473712444305,-2.359689474105835,4.11328125,1,B2,6.1,180,270.0,4.763572053133023,[6200|15400|0],intermediate
24600,1.368507742881775,0.5316142439842224,0.0003550333203747,-0.0751079618930816,0.2988217175006866,-2.3561019897460938,4.11328125,1,B2,6.1,180,270.0,4.76390645212961,[6200|15500|0],intermediate
24700,1.36847186088562,0.531613290309906,0.0005215815035626,-0.0787411853671073,0.3000754117965698,-2.3506109714508057,4.11328125,1,B2,6.1,180,270.0,4.764076824440934,[6200|15600|0],intermediate
24800,1.3685969114303589,0.5316601395606995,0.0005395640037022,-0.0819926783442497,0.2963212132453918,-2.336963891983032,4.11328125,1,B2,6.1,180,270.0,4.764211568128545,[6200|15700|0],intermediate
24900,1.368759274482727,0.5316294431686401,0.0005476606893353,-0.075403869152069,0.2950628399848938,-2.342355251312256,4.11328125,1,B2,6.1,180,270.0,4.764377005686487,[6200|15800|0],intermediate
25000,1.3685930967330933,0.5314910411834717,0.0005678876186721,-0.0690446570515632,0.3032166361808777,-2.358597755432129,4.11328125,1,B2,6.1,180,270.0,4.764594213611394,[6200|15900|0],intermediate
25100,1.3686792850494385,0.5314841866493225,0.0007050784188322,-0.0633677765727043,0.2996250987052917,-2.3529632091522217,4.11328125,1,B2,6.1,180,270.0,4.764756376264805,[6200|16000|0],intermediate
25200,1.3683953285217283,0.5317600965499878,0.0003781237173825,-0.07073874771595,0.3075186014175415,-2.3612606525421143,4.11328125,1,B2,6.1,180,270.0,4.765269851638816,[6200|16100|0],intermediate
25300,1.368224859237671,0.5316770672798157,0.0009378431714139,-0.0714776292443275,0.3163740634918213,-2.3688316345214844,4.11328125,1,B2,6.1,180,270.0,4.765860816530949,[6200|16200|0],intermediate
25400,1.3683079481124878,0.5316526889801025,0.0007948113488964,-0.0717557370662689,0.3092096149921417,-2.342806816101074,4.11328125,1,B2,6.1,180,270.0,4.766028017502441,[6200|16300|0],intermediate
25500,1.3684946298599243,0.5316230058670044,0.0007408400415442,-0.0719008445739746,0.3074124157428741,-2.381850481033325,4.1171875,1,B2,6.1,180,270.0,4.766224598437545,[6200|16400|0],intermediate
25600,1.3683960437774658,0.5316987037658691,0.0004849426040891,-0.0754302889108657,0.3121147453784942,-2.3916118144989014,4.11328125,1,B2,6.1,180,270.0,4.766509085495323,[6200|16500|0],intermediate
25700,1.368639349937439,0.5316336154937744,0.0007714718231,-0.0751395970582962,0.305552065372467,-2.374396324157715,4.1171875,1,B2,6.1,180,270.0,4.766890573849001,[6200|16600|0],intermediate
25800,1.3682936429977417,0.531852662563324,0.0005560007994063,-0.0717793181538581,0.3180240392684936,-2.3608298301696777,4.11328125,1,B2,6.1,180,270.0,4.767353091598807,[6200|16700|0],intermediate
25900,1.3686370849609375,0.5316704511642456,0.0008473567431792,-0.0651403814554214,0.3104092180728912,-2.3711228370666504,4.1171875,1,B2,6.1,180,270.0,4.767838932788919,[6200|16800|0],intermediate
26000,1.3684900999069214,0.531358540058136,0.0007903412333689,-0.063254177570343,0.3073486089706421,-2.364535331726074,4.1171875,1,B2,6.1,180,270.0,4.768188423722389,[6200|16900|0],intermediate
26100,1.3681100606918335,0.5318168997764587,0.0005573352682404,-0.065417043864727,0.3185321390628814,-2.373863458633423,4.1171875,1,B2,6.1,180,270.0,4.768827810316064,[6200|17000|0],intermediate
26200,1.368593454360962,0.5313093662261963,0.0008172136149369,-0.0449917577207088,0.3024995028972626,-2.3616206645965576,4.1171875,1,B2,6.1,180,270.0,4.769575337238039,[6200|17100|0],intermediate
26300,1.3684672117233276,0.5316312909126282,0.0008790710708126,-0.0525801070034503,0.305341511964798,-2.358729600906372,4.1171875,1,B2,6.1,180,270.0,4.769926619250301,[6200|17200|0],intermediate
26400,1.3683034181594849,0.5314241051673889,0.00091476138914,-0.0451073572039604,0.3165327608585357,-2.3734633922576904,4.1171875,1,B2,6.1,180,270.0,4.770193130157036,[6200|17300|0],intermediate
26500,1.368234157562256,0.5316412448883057,0.0003332538472022,-0.0514756999909877,0.3120628595352173,-2.3783583641052246,4.1171875,1,B2,6.1,180,270.0,4.7708177081826335,[6200|17400|0],intermediate
26600,1.3684744834899902,0.5316066145896912,0.0009932689135894,-0.0680919587612152,0.2968868613243103,-2.39165997505188,4.1171875,1,B2,6.1,180,270.0,4.771520968942936,[6200|17500|0],intermediate
26700,1.3684759140014648,0.5317352414131165,0.0009507244685664,-0.0689522922039032,0.2973000407218933,-2.4164927005767822,4.1171875,1,B2,6.1,180,270.0,4.771656456713122,[6200|17600|0],intermediate
26800,1.3685168027877808,0.5315001010894775,0.0006803757278248,-0.064601145684719,0.289905309677124,-2.4163143634796143,4.1171875,1,B2,6.1,180,270.0,4.772017082982642,[6200|17700|0],intermediate
26900,1.368727684020996,0.5315148830413818,0.0007450215052813,-0.0727632939815521,0.2896333932876587,-2.4015862941741943,4.1171875,1,B2,6.1,180,270.0,4.772238145139438,[6200|17800|0],intermediate
27000,1.3682622909545898,0.531714916229248,0.000548084732145,-0.0751591473817825,0.3103514611721039,-2.384406089782715,4.1171875,1,B2,6.1,180,270.0,4.772781641298689,[6200|17900|0],intermediate
27100,1.368311882019043,0.5320767760276794,0.0004208825703244,-0.0808404982089996,0.3122828006744385,-2.3824703693389893,4.1171875,1,B2,6.1,180,270.0,4.773168399850458,[6200|18000|0],intermediate
27200,1.3683085441589355,0.531608521938324,0.0005537733086384,-0.0651746317744255,0.3171726763248443,-2.399019479751587,4.1171875,1,B2,6.1,180,270.0,4.7736551574717,[6200|18100|0],intermediate
27300,1.368382215499878,0.5319606065750122,0.0006810850463807,-0.0752754658460617,0.3090185523033142,-2.4083261489868164,4.1171875,1,B2,6.1,180,270.0,4.77403673228276,[6200|18200|0],intermediate
27400,1.368219017982483,0.5317186713218689,0.0006259920191951,-0.0641171857714653,0.3152548670768738,-2.415045499801636,4.1171875,1,B2,6.1,180,270.0,4.77433371938356,[6200|18300|0],intermediate
27500,1.3682785034179688,0.5315977931022644,0.0008073352510109,-0.0673043355345726,0.3058314025402069,-2.4068024158477783,4.12109375,1,B2,6.1,180,270.0,4.774559629606292,[6200|18400|0],intermediate
27600,1.3680886030197144,0.5316746234893799,0.0006452198722399,-0.067927211523056,0.3151759803295135,-2.3975064754486084,4.1171875,1,B2,6.1,180,270.0,4.774820869851422,[6200|18500|0],intermediate
27700,1.368377685546875,0.5313941836357117,0.0007858290337026,-0.0625229254364967,0.3045231699943542,-2.3900809288024902,4.12109375,1,B2,6.1,180,270.0,4.775247468205055,[6200|18600|0],intermediate
27800,1.3684945106506348,0.5320047736167908,0.0007308332133106,-0.075781375169754,0.2991620302200317,-2.383706569671631,4.12109375,1,B2,6.1,180,270.0,4.775871561763845,[6200|18700|0],intermediate
27900,1.36859130859375,0.5316029191017151,0.0005687525845132,-0.0649429261684417,0.2991093695163727,-2.389565706253052,4.12109375,1,B2,6.1,180,270.0,4.776315551654844,[6200|18800|0],intermediate
28000,1.3683546781539917,0.5316718220710754,0.000516814936418,-0.0653887167572975,0.314378023147583,-2.3884286880493164,4.12109375,1,B2,6.1,180,270.0,4.776567422859027,[6200|18900|0],intermediate
28100,1.368310809135437,0.5317392945289612,0.0004797471046913,-0.0688716396689415,0.3153989911079407,-2.383842706680298,4.12109375,1,B2,6.1,180,270.0,4.77665602899601,[6200|19000|0],intermediate
28200,1.3684827089309692,0.5312804579734802,0.0006827657343819,-0.053112257272005,0.3111934959888458,-2.389965534210205,4.12109375,1,B2,6.1,180,270.0,4.7771864034753655,[6200|19100|0],intermediate
28300,1.3682801723480225,0.5317532420158386,0.0006609692936763,-0.0787030309438705,0.316374272108078,-2.381972312927246,4.12109375,1,B2,6.1,180,270.0,4.777701205284772,[6200|19200|0],intermediate
28400,1.3684793710708618,0.5315848588943481,0.0005329270497895,-0.0737276598811149,0.3060072660446167,-2.3779518604278564,4.12109375,1,B2,6.1,180,270.0,4.777991769947116,[6200|19300|0],intermediate
28500,1.368410348892212,0.5317379832267761,0.000790920050349,-0.07331183552742,0.309119164943695,-2.3884763717651367,4.12109375,1,B2,6.1,180,270.0,4.778299619765477,[6200|19400|0],intermediate
28600,1.3684874773025513,0.5314408540725708,0.0006804469157941,-0.0554735884070396,0.3154951930046081,-2.379858016967773,4.12109375,1,B2,6.1,180,270.0,4.778625869423589,[6200|19500|0],intermediate
28700,1.3684535026550293,0.5313628911972046,0.0007714114617556,-0.0487419031560421,0.31513512134552,-2.3864285945892334,4.12109375,1,B2,6.1,180,270.0,4.778750396670533,[6200|19600|0],intermediate
28800,1.368370771408081,0.5315130352973938,0.0008296750602312,-0.0542150698602199,0.3215813934803009,-2.392890930175781,4.12109375,1,B2,6.1,180,270.0,4.778931455658023,[6200|19700|0],intermediate
28900,1.3684659004211426,0.5318253636360168,0.0006938772276043,-0.0576211921870708,0.3141853809356689,-2.397669792175293,4.12109375,1,B2,6.1,180,270.0,4.779285065006851,[6200|19800|0],intermediate
29000,1.368433713912964,0.5319860577583313,0.0006145008956082,-0.0607205107808113,0.3022647798061371,-2.4034512042999268,4.12109375,1,B2,6.1,180,270.0,4.779467161614003,[6200|19900|0],intermediate
29100,1.368141531944275,0.5317572355270386,0.0005948144826106,-0.0544529743492603,0.3184900879859924,-2.399064064025879,4.12109375,1,B2,6.1,180,270.0,4.779838803203734,[6200|20000|0],intermediate
29200,1.3683969974517822,0.5313178896903992,0.0007135550258681,-0.0391473993659019,0.3185675144195556,-2.3858864307403564,4.12109375,1,B2,6.1,180,270.0,4.780360710002226,[6200|20100|0],intermediate
29300,1.3683743476867676,0.5316700339317322,0.0008000172092579,-0.0540019795298576,0.319769948720932,-2.383663415908813,4.12109375,1,B2,6.1,180,270.0,4.78072402018336,[6200|20200|0],intermediate
29400,1.368130803108215,0.5318028926849365,0.0005108214099891,-0.0539223365485668,0.330476850271225,-2.3986613750457764,4.12109375,1,B2,6.1,180,270.0,4.781124769007888,[6200|20300|0],intermediate
29500,1.3682551383972168,0.5314502120018005,0.0005913328495807,-0.0481316074728965,0.3189288973808288,-2.3787660598754883,4.12109375,1,B2,6.1,180,270.0,4.78150729354338,[6200|20400|0],intermediate
29600,1.3685389757156372,0.5314453840255737,0.0005909346509724,-0.0539603605866432,0.3062615692615509,-2.3959786891937256,4.12109375,1,B2,6.1,180,270.0,4.781791172199226,[6200|20500|0],intermediate
29700,1.3685129880905151,0.531434953212738,0.0009277216158807,-0.0585948154330253,0.3041071891784668,-2.3904504776000977,4.12109375,1,B2,6.1,180,270.0,4.782129121334819,[6200|20600|0],intermediate
29800,1.3684170246124268,0.5313071012496948,0.0007032649009488,-0.0538025051355361,0.3104724884033203,-2.373274564743042,4.12109375,1,B2,6.1,180,270.0,4.782404686083034,[6200|20700|0],intermediate
29900,1.3684711456298828,0.5315088033676147,0.0004736047703772,-0.0523665770888328,0.3125344514846802,-2.3620855808258057,4.12890625,1,B2,6.1,180,270.0,4.782715099685309,[6200|20800|0],intermediate
30000,1.3685109615325928,0.5317981839179993,0.0008202198660001,-0.0663065463304519,0.3169628381729126,-2.3629393577575684,4.12890625,1,B2,6.1,180,270.0,4.783168385945373,[6200|20900|0],intermediate
30100,1.368534803390503,0.5317100882530212,0.0004349189985077,-0.0671185404062271,0.321713238954544,-2.343407154083252,4.12890625,1,B2,6.1,180,270.0,4.783564348113853,[6200|21000|0],intermediate
30200,1.3687715530395508,0.5315996408462524,0.0006390115595422,-0.0627370625734329,0.3075482547283172,-2.3617641925811768,4.12890625,1,B2,6.1,180,270.0,4.783895864025169,[6200|21100|0],intermediate
30300,1.368395209312439,0.531610369682312,0.0009762580157257,-0.0655729994177818,0.3191162645816803,-2.389567852020264,4.12890625,1,B2,6.1,180,270.0,4.784401319147873,[6200|21200|0],intermediate
30400,1.3685071468353271,0.531585693359375,0.0010523464297875,-0.0643783062696456,0.3145992159843445,-2.3887221813201904,4.12890625,1,B2,6.1,180,270.0,4.784538899585067,[6200|21300|0],intermediate
30500,1.3685117959976196,0.5313749313354492,0.0007801529718562,-0.0619847290217876,0.316037118434906,-2.3779044151306152,4.12890625,1,B2,6.1,180,270.0,4.784883183659605,[6200|21400|0],intermediate
30600,1.368566870689392,0.5315104126930237,0.0007233722717501,-0.0634423196315765,0.3153643310070038,-2.373253583908081,4.12890625,1,B2,6.1,180,270.0,4.78504006727197,[6200|21500|0],intermediate
30700,1.3683301210403442,0.5315427780151367,0.000821515393909,-0.0616630055010318,0.3229615390300751,-2.363499641418457,4.12890625,1,B2,6.1,180,270.0,4.785298388743835,[6200|21600|0],intermediate
30800,1.3683454990386963,0.5317971110343933,0.0004506490076892,-0.0600239112973213,0.3252388834953308,-2.363706111907959,4.12890625,1,B2,6.1,180,270.0,4.785748348346406,[6200|21700|0],intermediate
30900,1.3682514429092407,0.5316274762153625,0.0006529127131216,-0.0573672018945217,0.3289729356765747,-2.3587806224823,4.12890625,1,B2,6.1,180,270.0,4.786028585984583,[6200|21800|0],intermediate
31000,1.368237018585205,0.5316226482391357,0.0006404139567166,-0.0603391677141189,0.3308998346328735,-2.3455591201782227,4.12890625,1,B2,6.1,180,270.0,4.786048273274645,[6200|21900|0],intermediate
31100,1.368385910987854,0.5315526127815247,0.0008443184196949,-0.0627504810690879,0.3303534686565399,-2.3607938289642334,4.12890625,1,B2,6.1,180,270.0,4.786310286524142,[6200|22000|0],intermediate
31200,1.368691325187683,0.5316582322120667,0.0005015710485167,-0.0644149109721183,0.3174485266208648,-2.354866743087769,4.12890625,1,B2,6.1,180,270.0,4.7867813587670245,[6200|22100|0],intermediate
31300,1.368574619293213,0.5316696166992188,0.0007105578552,-0.0631567314267158,0.3117561042308807,-2.369966983795166,4.12890625,1,B2,6.1,180,270.0,4.787020994652734,[6200|22200|0],intermediate
