time.ms,stateEstimate.x,stateEstimate.y,stateEstimate.z,stabilizer.roll,stabilizer.pitch,stabilizer.yaw,pm.vbat,drone_id,node_name,wind_speed,global_wind_direction,relative_wind_direction,travel_dist,waiting_time
0,0.6401788592338562,0.43221527338027954,-0.08689462393522263,1.3316600322723389,2.9397735595703125,-7.344151020050049,4.0703125,0,"['F2', 'B2', 'A1']",6.1,90,0,0.13281587090916694,[100|0|0]
100,0.6465478539466858,0.4266326427459717,-0.07323291897773743,-1.3486599922180176,-1.9784250259399414,-8.08652114868164,4.0703125,0,"['F2', 'B2', 'A1']",6.1,90,0,0.1488898262654736,[200|0|0]
200,0.6613789200782776,0.417074590921402,-0.06376615166664124,-1.2967015504837036,-3.551053047180176,-8.090353012084961,4.0703125,0,"['F2', 'B2', 'A1']",6.1,90,0,0.16891322659117375,[300|0|0]
300,0.6902055740356445,0.3860636055469513,-0.021979736164212227,0.04773639887571335,-3.729473829269409,-7.972073554992676,4.0703125,0,"['F2', 'B2', 'A1']",6.1,90,0,0.22840071866147213,[400|0|0]
400,0.6911554932594299,0.3866894841194153,-0.022834746167063713,-1.0147314071655273,-2.404803514480591,-7.895873069763184,4.0703125,0,"['F2', 'B2', 'A1']",6.1,90,0,0.22982378318009478,[500|0|0]
500,0.6904241442680359,0.3874189853668213,-0.02384956367313862,-1.6638826131820679,-1.143791675567627,-7.862607002258301,4.0703125,0,"['F2', 'B2', 'A1']",6.1,90,0,0.2312718501632886,[600|0|0]
600,0.6884784698486328,0.38875192403793335,-0.02453085593879223,-1.9460172653198242,-0.2112923413515091,-7.89311408996582,4.0703125,0,"['F2', 'B2', 'A1']",6.1,90,0,0.23372675007947763,[700|0|0]
700,0.6873223781585693,0.38893646001815796,-0.02452990412712097,-1.984925389289856,0.3595905005931854,-7.979118824005127,4.0703125,0,"['F2', 'B2', 'A1']",6.1,90,0,0.2348974773875117,[800|0|0]
800,0.686402440071106,0.3897210359573364,-0.024169448763132095,-1.9386032819747925,0.7063547968864441,-8.07579517364502,4.0703125,0,"['F2', 'B2', 'A1']",6.1,90,0,0.23615913247450335,[900|0|0]
900,0.6857972741127014,0.3900131583213806,-0.024275196716189384,-1.8360234498977661,0.9136968851089478,-8.141610145568848,4.0703125,0,"['F2', 'B2', 'A1']",6.1,90,0,0.23683938532628881,[1000|0|0]
1000,0.6850491762161255,0.39014121890068054,-0.024095358327031136,-1.7165212631225586,1.0321120023727417,-8.240886688232422,4.0703125,0,"['F2', 'B2', 'A1']",6.1,90,0,0.2376193800833526,[1100|0|0]
1100,0.6847031116485596,0.3899497389793396,-0.024312689900398254,-1.5883443355560303,1.0850424766540527,-8.305842399597168,4.0703125,0,"['F2', 'B2', 'A1']",6.1,90,0,0.23807066520163542,[1200|0|0]
1200,0.6844797134399414,0.39056992530822754,-0.024256888777017593,-1.4933857917785645,1.1076135635375977,-8.346146583557129,4.0703125,0,"['F2', 'B2', 'A1']",6.1,90,0,0.23873221762399047,[1300|0|0]
1300,0.684394896030426,0.39053958654403687,-0.024235209450125694,-1.3826359510421753,1.1104562282562256,-8.374366760253906,4.0703125,0,"['F2', 'B2', 'A1']",6.1,90,0,0.2388248698057457,[1400|0|0]
1400,0.6840401291847229,0.39022397994995117,-0.024028489366173744,-1.2757481336593628,1.0988153219223022,-8.404021263122559,4.0703125,0,"['F2', 'B2', 'A1']",6.1,90,0,0.2393427503229981,[1500|0|0]
1500,0.6840669512748718,0.3903666138648987,-0.02395322173833847,-1.1858323812484741,1.0741031169891357,-8.419288635253906,4.06640625,0,"['F2', 'B2', 'A1']",6.1,90,0,0.2395062406102116,[1600|0|0]
1600,0.6839450001716614,0.3902836740016937,-0.02382294461131096,-1.1142323017120361,1.0428651571273804,-8.429675102233887,4.0703125,0,"['F2', 'B2', 'A1']",6.1,90,0,0.23970302277990502,[1700|0|0]
1700,0.6838749051094055,0.3903955817222595,-0.024272790178656578,-1.0528757572174072,1.0089576244354248,-8.406710624694824,4.0703125,0,"['F2', 'B2', 'A1']",6.1,90,0,0.24017184864324384,[1800|0|0]
1800,0.6843215227127075,0.3901371359825134,-0.023970013484358788,-0.9958695769309998,0.960654616355896,-8.435070037841797,4.06640625,0,"['F2', 'B2', 'A1']",6.1,90,0,0.24077012551107513,[1900|0|0]
1900,0.6842468976974487,0.389930784702301,-0.02414676919579506,-0.9609944224357605,0.9369593262672424,-8.428709030151367,4.0703125,0,"['F2', 'B2', 'A1']",6.1,90,0,0.2410518919485247,[2000|0|0]
2000,0.6844920516014099,0.39005398750305176,-0.024110371246933937,-0.9360911250114441,0.9017540812492371,-8.404070854187012,4.0703125,0,"['F2', 'B2', 'A1']",6.1,90,0,0.24132866654530252,[2100|0|0]
2100,0.6844010949134827,0.3903099000453949,-0.023584747686982155,-0.9871736168861389,0.8416592478752136,-8.396995544433594,4.0703125,0,"['F2', 'B2', 'A1']",6.1,90,0,0.2419203121108091,[2200|0|0]
2200,0.6845546960830688,0.39019423723220825,-0.023856250569224358,-0.9298741817474365,0.8337662816047668,-8.396430015563965,4.0703125,0,"['F2', 'B2', 'A1']",6.1,90,0,0.2422530056946341,[2300|0|0]
2300,0.6841398477554321,0.39019984006881714,-0.024060335010290146,-0.8817633986473083,0.832905113697052,-8.398330688476562,4.0703125,0,"['F2', 'B2', 'A1']",6.1,90,0,0.24271537025405251,[2400|0|0]
2400,0.684363067150116,0.39026010036468506,-0.02423044852912426,-0.8614640831947327,0.8161207437515259,-8.382233619689941,4.0703125,0,"['F2', 'B2', 'A1']",6.1,90,0,0.24300241870067996,[2500|0|0]
2500,0.6844643950462341,0.39013269543647766,-0.02413143590092659,-0.8392533659934998,0.8104717135429382,-8.383333206176758,4.0703125,0,"['F2', 'B2', 'A1']",6.1,90,0,0.24319295179178457,[2600|0|0]
2600,0.6843946576118469,0.3896433115005493,-0.023836253210902214,-0.8086609244346619,0.8142799139022827,-8.386295318603516,4.0703125,0,"['F2', 'B2', 'A1']",6.1,90,0,0.2437687058773017,[2700|0|0]
2700,0.6844280362129211,0.3897528350353241,-0.024238940328359604,-0.8065193891525269,0.8059622645378113,-8.382606506347656,4.0703125,0,"['F2', 'B2', 'A1']",6.1,90,0,0.24418735423839413,[2800|0|0]
2800,0.6844736933708191,0.38975855708122253,-0.024038108065724373,-0.7731679081916809,0.8049018979072571,-8.38764476776123,4.0703125,0,"['F2', 'B2', 'A1']",6.1,90,0,0.24439339043810615,[2900|0|0]
2900,0.6844447255134583,0.38989317417144775,-0.02431355230510235,-0.7546729445457458,0.8063292503356934,-8.395552635192871,4.06640625,0,"['F2', 'B2', 'A1']",6.1,90,0,0.2447013359312495,[3000|0|0]
3000,0.6844460368156433,0.38974255323410034,-0.024635056033730507,-0.736164391040802,0.8052781224250793,-8.388413429260254,4.0703125,0,"['F2', 'B2', 'A1']",6.1,90,0,0.245056375413283,[3100|0|0]
3100,0.6844131946563721,0.39001092314720154,-0.024353863671422005,-0.8430018424987793,0.7517006397247314,-8.384392738342285,4.06640625,0,"['F2', 'B2', 'A1']",6.1,90,0,0.24544646535458395,[3200|0|0]
3200,0.6848633885383606,0.3900820314884186,-0.024024512618780136,-0.8210808038711548,0.7510217428207397,-8.37448787689209,4.0703125,0,"['F2', 'B2', 'A1']",6.1,90,0,0.24600878469752605,[3300|0|0]
3300,0.6845897436141968,0.3899894058704376,-0.024008506909012794,-0.8002606630325317,0.7680630683898926,-8.364481925964355,4.0703125,0,"['F2', 'B2', 'A1']",6.1,90,0,0.2462981240007189,[3400|0|0]
3400,0.684536337852478,0.38993459939956665,-0.0243134256452322,-0.7751472592353821,0.7790183424949646,-8.336441993713379,4.0703125,0,"['F2', 'B2', 'A1']",6.1,90,0,0.24661249855492412,[3500|0|0]
3500,0.6845644116401672,0.38992616534233093,-0.024082617834210396,-0.7694344520568848,0.7788759469985962,-8.347331047058105,4.0703125,0,"['F2', 'B2', 'A1']",6.1,90,0,0.24684516036207207,[3600|0|0]
3600,0.6843462586402893,0.3902573883533478,-0.024207137525081635,-0.7732484936714172,0.7867634296417236,-8.353991508483887,4.0703125,0,"['F2', 'B2', 'A1']",6.1,90,0,0.24726085805005876,[3700|0|0]
3700,0.684162974357605,0.3897126317024231,-0.023980364203453064,-0.7532520890235901,0.7946616411209106,-8.369572639465332,4.0703125,0,"['F2', 'B2', 'A1']",6.1,90,0,0.24787874078683675,[3800|0|0]
3800,0.6847165822982788,0.3896903395652771,-0.024117903783917427,-0.753973126411438,0.7795371413230896,-8.35083293914795,4.0703125,0,"['F2', 'B2', 'A1']",6.1,90,0,0.24844961365144844,[3900|0|0]
3900,0.6841304898262024,0.38969486951828003,-0.02392176166176796,-0.757108747959137,0.7961201071739197,-8.363471984863281,4.0703125,0,"['F2', 'B2', 'A1']",6.1,90,0,0.24906767241757036,[4000|0|0]
4000,0.684535801410675,0.3897165358066559,-0.024009184911847115,-0.7605435252189636,0.783304750919342,-8.35823917388916,4.0703125,0,"['F2', 'B2', 'A1']",6.1,90,0,0.24948287084388496,[4100|0|0]
4100,0.6844769716262817,0.3901563882827759,-0.024186424911022186,-0.7753919363021851,0.787126898765564,-8.343463897705078,4.0703125,0,"['F2', 'B2', 'A1']",6.1,90,0,0.24996072559335203,[4200|0|0]
4200,0.6843662261962891,0.3898915648460388,-0.023798955604434013,-0.7750293612480164,0.7889440655708313,-8.362964630126953,4.0703125,0,"['F2', 'B2', 'A1']",6.1,90,0,0.25044293764883946,[4300|0|0]
4300,0.6845322847366333,0.3897504508495331,-0.02401084452867508,-0.7755314707756042,0.7813171148300171,-8.34406852722168,4.06640625,0,"['F2', 'B2', 'A1']",6.1,90,0,0.2507468875049788,[4400|0|0]
4400,0.6845043301582336,0.38995879888534546,-0.023883096873760223,-0.7837340831756592,0.7806727290153503,-8.320917129516602,4.0703125,0,"['F2', 'B2', 'A1']",6.1,90,0,0.2509928749555055,[4500|0|0]
4500,0.6842212080955505,0.39008980989456177,-0.02424558810889721,-0.7904420495033264,0.7838811874389648,-8.313925743103027,4.0703125,0,"['F2', 'B2', 'A1']",6.1,90,0,0.25147112372180286,[4600|0|0]
4600,0.6846864819526672,0.3900574743747711,-0.023945240303874016,-0.7920348048210144,0.7700636982917786,-8.332833290100098,4.0703125,0,"['F2', 'B2', 'A1']",6.1,90,0,0.25202586163463975,[4700|0|0]
4700,0.6846579313278198,0.38979795575141907,-0.024404635652899742,-0.77725750207901,0.7856019735336304,-8.334818840026855,4.0703125,0,"['F2', 'B2', 'A1']",6.1,90,0,0.2525542640766782,[4800|0|0]
4800,0.6846612095832825,0.3897954821586609,-0.023943724110722542,-0.7851649522781372,0.7913036346435547,-8.348203659057617,4.0703125,0,"['F2', 'B2', 'A1']",6.1,90,0,0.25301519391443245,[4900|0|0]
4900,0.6847861409187317,0.3897268772125244,-0.024370865896344185,-0.7629534602165222,0.7992393374443054,-8.357765197753906,4.0703125,0,"['F2', 'B2', 'A1']",6.1,90,0,0.25346548779872974,[5000|0|0]
5000,0.6847237348556519,0.3898428678512573,-0.023958753794431686,-0.746765673160553,0.8044843077659607,-8.342069625854492,4.06640625,0,"['F2', 'B2', 'A1']",6.1,90,0,0.2538981363044772,[5100|0|0]
5100,0.6844878792762756,0.3898645341396332,-0.023966491222381592,-0.7220472097396851,0.8181484341621399,-8.33919620513916,4.0703125,0,"['F2', 'B2', 'A1']",6.1,90,0,0.2541351113035091,[5200|0|0]
5200,0.6845853328704834,0.389623761177063,-0.024221105501055717,-0.7141858339309692,0.8107569217681885,-8.32252311706543,4.06640625,0,"['F2', 'B2', 'A1']",6.1,90,0,0.2544988381975293,[5300|0|0]
5300,0.6846058964729309,0.389791876077652,-0.023936372250318527,-0.713115930557251,0.8108202815055847,-8.330866813659668,4.0703125,0,"['F2', 'B2', 'A1']",6.1,90,0,0.2548301364100524,[5400|0|0]
5400,0.6844819188117981,0.3900555670261383,-0.02439495176076889,-0.7189382910728455,0.8131705522537231,-8.31141471862793,4.06640625,0,"['F2', 'B2', 'A1']",6.1,90,0,0.25537345817860074,[5500|0|0]
5500,0.6845041513442993,0.389945924282074,-0.02445594221353531,-0.7182255387306213,0.8100993633270264,-8.325021743774414,4.0703125,0,"['F2', 'B2', 'A1']",6.1,90,0,0.2555008773771386,[5600|0|0]
5600,0.6845022439956665,0.3897456228733063,-0.02397272363305092,-0.7132737636566162,0.8083137273788452,-8.303500175476074,4.0703125,0,"['F2', 'B2', 'A1']",6.1,90,0,0.25602396865871235,[5700|0|0]
5700,0.6843416094779968,0.38987457752227783,-0.024374909698963165,-0.7232970595359802,0.8114854097366333,-8.31157112121582,4.0703125,0,"['F2', 'B2', 'A1']",6.1,90,0,0.25647583853087946,[5800|0|0]
5800,0.6847750544548035,0.38979002833366394,-0.024095892906188965,-0.7200639247894287,0.7967281937599182,-8.346959114074707,4.0703125,0,"['F2', 'B2', 'A1']",6.1,90,0,0.25699821146649554,[5900|0|0]
5900,0.6846851706504822,0.38962891697883606,-0.024408990517258644,-0.7179598808288574,0.801257848739624,-8.352767944335938,4.0703125,0,"['F2', 'B2', 'A1']",6.1,90,0,0.25736162043857974,[6000|0|0]
6000,0.6846118569374084,0.3898775279521942,-0.02373785525560379,-0.8251404166221619,0.7481378316879272,-8.349377632141113,4.0703125,0,"['F2', 'B2', 'A1']",6.1,90,0,0.2580810680433678,[6100|0|0]
6100,0.6845209002494812,0.39014139771461487,-0.024147000163793564,-0.8161001205444336,0.7602835297584534,-8.340882301330566,4.06640625,0,"['F2', 'B2', 'A1']",6.1,90,0,0.25857634566904475,[6200|0|0]
6200,0.6844629645347595,0.3892531096935272,-0.024390291422605515,-0.7088032960891724,0.8063606023788452,-8.349583625793457,4.06640625,0,"['F2', 'B2', 'A1']",6.1,90,0,0.2594991689414336,[6300|0|0]
6300,0.6846101880073547,0.3893744647502899,-0.024165838956832886,-0.7245981097221375,0.7984349131584167,-8.380653381347656,4.0703125,0,"['F2', 'B2', 'A1']",6.1,90,0,0.25979375459973403,[6400|0|0]
6400,0.684705376625061,0.3896576464176178,-0.024436717852950096,-0.7422061562538147,0.7904007434844971,-8.366671562194824,4.06640625,0,"['F2', 'B2', 'A1']",6.1,90,0,0.2601970263517985,[6500|0|0]
6500,0.6844099760055542,0.3893764317035675,-0.024515507742762566,-0.7378352284431458,0.7944207191467285,-8.36349868774414,4.0703125,0,"['F2', 'B2', 'A1']",6.1,90,0,0.2606124190432846,[6600|0|0]
6600,0.6847856640815735,0.38953664898872375,-0.024372361600399017,-0.7506672739982605,0.7819840908050537,-8.340590476989746,4.06640625,0,"['F2', 'B2', 'A1']",6.1,90,0,0.2610452029697415,[6700|0|0]
6700,0.6842729449272156,0.3895377516746521,-0.024036088958382607,-0.7442309260368347,0.7973111271858215,-8.353116035461426,4.06640625,0,"['F2', 'B2', 'A1']",6.1,90,0,0.2616583599128894,[6800|0|0]
6800,0.6846342086791992,0.3895508646965027,-0.024053236469626427,-0.7466351389884949,0.7785552144050598,-8.333239555358887,4.06640625,0,"['F2', 'B2', 'A1']",6.1,90,0,0.2620202680324186,[6900|0|0]
6900,0.6842049956321716,0.3898468315601349,-0.02428581565618515,-0.758539617061615,0.7850404977798462,-8.347289085388184,4.0703125,0,"['F2', 'B2', 'A1']",6.1,90,0,0.2625911562019644,[7000|0|0]
7000,0.684493362903595,0.3896472752094269,-0.024153804406523705,-0.7555275559425354,0.774702787399292,-8.340094566345215,4.06640625,0,"['F2', 'B2', 'A1']",6.1,90,0,0.26296586327472016,[7100|0|0]
7100,0.6842986345291138,0.3895341455936432,-0.02451685257256031,-0.7532649040222168,0.7815690040588379,-8.338134765625,4.0703125,0,"['F2', 'B2', 'A1']",6.1,90,0,0.26339308853223425,[7200|0|0]
7200,0.6843720078468323,0.38951316475868225,-0.023979634046554565,-0.7508333325386047,0.7714283466339111,-8.33596134185791,4.0703125,0,"['F2', 'B2', 'A1']",6.1,90,0,0.26393570034916464,[7300|0|0]
7300,0.6838953495025635,0.3895200490951538,-0.024505700916051865,-0.7457224130630493,0.7864090800285339,-8.337345123291016,4.0703125,0,"['F2', 'B2', 'A1']",6.1,90,0,0.2646456277556172,[7400|0|0]
7400,0.6843313574790955,0.38937675952911377,-0.024185974150896072,-0.7386941909790039,0.7758048176765442,-8.352621078491211,4.06640625,0,"['F2', 'B2', 'A1']",6.1,90,0,0.26520496670445987,[7500|0|0]
7500,0.6844605207443237,0.3894943594932556,-0.02412290684878826,-0.746425449848175,0.7714223861694336,-8.358077049255371,4.0703125,0,"['F2', 'B2', 'A1']",6.1,90,0,0.265390682576818,[7600|0|0]
7600,0.6844120621681213,0.38933566212654114,-0.02413881942629814,-0.7425245046615601,0.776078999042511,-8.334273338317871,4.06640625,0,"['F2', 'B2', 'A1']",6.1,90,0,0.2655573748019897,[7700|0|0]
7700,0.6844068169593811,0.38944634795188904,-0.024141352623701096,-0.7498714327812195,0.777549684047699,-8.370018005371094,4.06640625,0,"['F2', 'B2', 'A1']",6.1,90,0,0.265668213789881,[7800|0|0]
7800,0.6843674778938293,0.3897286653518677,-0.024349823594093323,-0.7534840106964111,0.784929633140564,-8.375961303710938,4.0703125,0,"['F2', 'B2', 'A1']",6.1,90,0,0.2660213579840927,[7900|0|0]
7900,0.6846598386764526,0.3895621597766876,-0.024154506623744965,-0.747750461101532,0.7760688066482544,-8.352363586425781,4.06640625,0,"['F2', 'B2', 'A1']",6.1,90,0,0.26641039224053836,[8000|0|0]
8000,0.6845143437385559,0.3893333077430725,-0.024313388392329216,-0.7478978037834167,0.782929003238678,-8.351205825805664,4.06640625,0,"['F2', 'B2', 'A1']",6.1,90,0,0.2667246937623797,[8100|0|0]
8100,0.6848359704017639,0.38961362838745117,-0.023890459910035133,-0.7554105520248413,0.7744787931442261,-8.356216430664062,4.0703125,0,"['F2', 'B2', 'A1']",6.1,90,0,0.2673254365320297,[8200|0|0]
8200,0.6841087341308594,0.38943034410476685,-0.024160053580999374,-0.7459946274757385,0.7913390398025513,-8.333662986755371,4.06640625,0,"['F2', 'B2', 'A1']",6.1,90,0,0.26812239730234544,[8300|0|0]
8300,0.6846227645874023,0.3893967568874359,-0.02391807548701763,-0.7482053637504578,0.7813067436218262,-8.346231460571289,4.0703125,0,"['F2', 'B2', 'A1']",6.1,90,0,0.26869152717275185,[8400|0|0]
8400,0.6843018531799316,0.3894515335559845,-0.02437659353017807,-0.7530304193496704,0.7912867665290833,-8.342733383178711,4.06640625,0,"['F2', 'B2', 'A1']",6.1,90,0,0.2692538646255022,[8500|0|0]
8500,0.6844085454940796,0.389595627784729,-0.024538476020097733,-0.7571281790733337,0.7877097129821777,-8.332029342651367,4.06640625,0,"['F2', 'B2', 'A1']",6.1,90,0,0.2694954269098065,[8600|0|0]
8600,0.6845192313194275,0.389505535364151,-0.024371599778532982,-0.7555110454559326,0.7858292460441589,-8.347352027893066,4.0703125,0,"['F2', 'B2', 'A1']",6.1,90,0,0.26971500759242073,[8700|0|0]
8700,0.6843540668487549,0.38967815041542053,-0.024216068908572197,-0.757195234298706,0.7885181903839111,-8.342195510864258,4.0703125,0,"['F2', 'B2', 'A1']",6.1,90,0,0.2700000779518201,[8800|0|0]
8800,0.6844936013221741,0.39013296365737915,-0.024180589243769646,-0.793114423751831,0.7776650786399841,-8.338912010192871,4.06640625,0,"['F2', 'B2', 'A1']",6.1,90,0,0.2704771353497795,[8900|0|0]
8900,0.684511125087738,0.38956379890441895,-0.02421204186975956,-0.7606000304222107,0.7854164838790894,-8.355128288269043,4.06640625,0,"['F2', 'B2', 'A1']",6.1,90,0,0.27104743778362794,[9000|0|0]
9000,0.6843382120132446,0.38953059911727905,-0.024209242314100266,-0.748377799987793,0.7993535995483398,-8.355690956115723,4.06640625,0,"['F2', 'B2', 'A1']",6.1,90,0,0.2712235314936485,[9100|0|0]
9100,0.6844676733016968,0.38975343108177185,-0.024237988516688347,-0.7427911162376404,0.8082626461982727,-8.34642505645752,4.06640625,0,"['F2', 'B2', 'A1']",6.1,90,0,0.2714828395223916,[9200|0|0]
9200,0.6843382120132446,0.3896481394767761,-0.024081021547317505,-0.7375733256340027,0.8141511678695679,-8.353296279907227,4.06640625,0,"['F2', 'B2', 'A1']",6.1,90,0,0.2717119359579024,[9300|0|0]
9300,0.6846507787704468,0.3897401690483093,-0.02430041693150997,-0.7387405633926392,0.8160364031791687,-8.366568565368652,4.06640625,0,"['F2', 'B2', 'A1']",6.1,90,0,0.2721047485777982,[9400|0|0]
9400,0.6846306324005127,0.38942089676856995,-0.024413343518972397,-0.7266535758972168,0.8198565244674683,-8.37074089050293,4.0703125,0,"['F2', 'B2', 'A1']",6.1,90,0,0.2724440022866761,[9500|0|0]
9500,0.6844922304153442,0.3898048400878906,-0.0242751557379961,-0.7406034469604492,0.8329300284385681,-8.370439529418945,4.06640625,0,"['F2', 'B2', 'A1']",6.1,90,0,0.2728748890986821,[9600|0|0]
9600,0.6846745610237122,0.3896056115627289,-0.024565311148762703,-0.7316960692405701,0.8237481713294983,-8.365914344787598,4.0703125,0,"['F2', 'B2', 'A1']",6.1,90,0,0.27327128109958915,[9700|0|0]
9700,0.6846685409545898,0.38974323868751526,-0.024189015850424767,-0.7337576746940613,0.8075279593467712,-8.357633590698242,4.06640625,0,"['F2', 'B2', 'A1']",6.1,90,0,0.2736719999764348,[9800|0|0]
9800,0.6842613220214844,0.38982582092285156,-0.024514755234122276,-0.7383298277854919,0.8160438537597656,-8.349729537963867,4.06640625,0,"['F2', 'B2', 'A1']",6.1,90,0,0.27419997083847586,[9900|0|0]
9900,0.684577226638794,0.38984593749046326,-0.024456031620502472,-0.7421391010284424,0.8033396005630493,-8.35289192199707,4.06640625,0,"['F2', 'B2', 'A1']",6.1,90,0,0.27452191627845995,[10000|0|0]
10000,0.6847066283226013,0.3890403211116791,-0.024180110543966293,-0.7269050478935242,0.8026835918426514,-8.34314250946045,4.06640625,0,"['F2', 'B2', 'A1']",6.1,90,0,0.2753832495391752,[10100|0|0]
10100,0.6843361258506775,0.38968369364738464,-0.024333292618393898,-0.7449163198471069,0.8139064908027649,-8.353404998779297,4.06640625,0,"['F2', 'B2', 'A1']",6.1,90,0,0.2761413161914742,[10200|0|0]
10200,0.6845332384109497,0.38969686627388,-0.023998668417334557,-0.7347435355186462,0.8007068037986755,-8.348323822021484,4.0703125,0,"['F2', 'B2', 'A1']",6.1,90,0,0.2765299036789728,[10300|0|0]
10300,0.6846840977668762,0.38991910219192505,-0.024471843615174294,-0.742320716381073,0.7929568290710449,-8.330843925476074,4.06640625,0,"['F2', 'B2', 'A1']",6.1,90,0,0.2770740012036782,[10400|0|0]
10400,0.6845894455909729,0.38962522149086,-0.024718716740608215,-0.743299663066864,0.7945730686187744,-8.330276489257812,4.06640625,0,"['F2', 'B2', 'A1']",6.1,90,0,0.277469312778165,[10500|0|0]
10500,0.6845573782920837,0.38948363065719604,-0.02427576296031475,-0.7322770357131958,0.7938578128814697,-8.346094131469727,4.06640625,0,"['F2', 'B2', 'A1']",6.1,90,0,0.27793545044807805,[10600|0|0]
10600,0.6811589598655701,0.38544198870658875,-0.026488197967410088,-0.6379019021987915,0.846498429775238,-8.377095222473145,4.06640625,0,"['F2', 'B2', 'A1']",6.1,90,0,0.28366074398808083,[10700|0|0]
10700,0.6811050176620483,0.3857332766056061,-0.0268689151853323,-0.6447591185569763,0.8548811078071594,-8.369876861572266,4.06640625,0,"['F2', 'B2', 'A1']",6.1,90,0,0.28414313801940494,[10800|0|0]
10800,0.681278645992279,0.3853633403778076,-0.02673414535820484,-0.635437548160553,0.8492622375488281,-8.361674308776855,4.06640625,0,"['F2', 'B2', 'A1']",6.1,90,0,0.28457344316229827,[10900|0|0]
10900,0.6809969544410706,0.3855213224887848,-0.02669650875031948,-0.6356027722358704,0.8604373335838318,-8.362972259521484,4.0703125,0,"['F2', 'B2', 'A1']",6.1,90,0,0.28489859695923775,[11000|0|0]
11000,0.684945285320282,0.3894825279712677,-0.024306105449795723,-0.7335308194160461,0.788227915763855,-8.34306526184082,4.06640625,0,"['F2', 'B2', 'A1']",6.1,90,0,0.2909809068449096,[11100|0|0]
11100,0.6810036301612854,0.38564449548721313,-0.0267263725399971,-0.6310144662857056,0.8630308508872986,-8.383203506469727,4.06640625,0,"['F2', 'B2', 'A1']",6.1,90,0,0.2969913004700405,[11200|0|0]
11200,0.684790849685669,0.38922083377838135,-0.0243363194167614,-0.7184471487998962,0.7913009524345398,-8.34639835357666,4.06640625,0,"['F2', 'B2', 'A1']",6.1,90,0,0.3027224069278405,[11300|0|0]
11300,0.6812581419944763,0.3853533864021301,-0.026783021166920662,-0.6268824934959412,0.8464661836624146,-8.38778305053711,4.06640625,0,"['F2', 'B2', 'A1']",6.1,90,0,0.3085037149367358,[11400|0|0]
11400,0.6813286542892456,0.3854503333568573,-0.026706591248512268,-0.6249808669090271,0.8461316823959351,-8.361577987670898,4.0703125,0,"['F2', 'B2', 'A1']",6.1,90,0,0.30864588465282333,[11500|0|0]
11500,0.6808444261550903,0.3854518234729767,-0.02673613280057907,-0.6261937022209167,0.8570811748504639,-8.369961738586426,4.06640625,0,"['F2', 'B2', 'A1']",6.1,90,0,0.3091310153668088,[11600|0|0]
11600,0.6808509826660156,0.38567325472831726,-0.026674168184399605,-0.6347206234931946,0.8609808683395386,-8.357222557067871,4.06640625,0,"['F2', 'B2', 'A1']",6.1,90,0,0.309361046674103,[11700|0|0]
11700,0.6811168789863586,0.38564684987068176,-0.02680482715368271,-0.6318425536155701,0.8489071726799011,-8.37775993347168,4.06640625,0,"['F2', 'B2', 'A1']",6.1,90,0,0.309658485467694,[11800|0|0]
11801,0.6810505986213684,0.3855438828468323,-0.02677532099187374,-0.627162516117096,0.8454729318618774,-8.372710227966309,4.06640625,0,"['F2', 'B2', 'A1']",6.1,90,0,0.30978444541517075,[11900|0|0]
11901,0.6812395453453064,0.38525286316871643,-0.026533814147114754,-0.6186940670013428,0.8390952348709106,-8.381058692932129,4.06640625,0,"['F2', 'B2', 'A1']",6.1,90,0,0.31020719696585153,[12000|0|0]
12000,0.6812178492546082,0.3854687213897705,-0.026860857382416725,-0.6240928769111633,0.8327217102050781,-8.393056869506836,4.06640625,0,"['F2', 'B2', 'A1']",6.1,90,0,0.3105996543134767,[12100|0|0]
12100,0.68133944272995,0.38546741008758545,-0.02615179494023323,-0.6895538568496704,0.8005999326705933,-8.392867088317871,4.06640625,0,"['F2', 'B2', 'A1']",6.1,90,0,0.31131906813018745,[12200|0|0]
12201,0.6813397407531738,0.3857235014438629,-0.026508716866374016,-0.6803609728813171,0.8128231167793274,-8.3810396194458,4.06640625,0,"['F2', 'B2', 'A1']",6.1,90,0,0.3117583586182906,[12300|0|0]
12300,0.6811301708221436,0.38528239727020264,-0.026366563513875008,-0.6587726473808289,0.8326322436332703,-8.39039421081543,4.0703125,0,"['F2', 'B2', 'A1']",6.1,90,0,0.31226698424057014,[12400|0|0]
12401,0.6811726093292236,0.3851446807384491,-0.02676858939230442,-0.651609480381012,0.8328806161880493,-8.395986557006836,4.06640625,0,"['F2', 'B2', 'A1']",6.1,90,0,0.3126940576264517,[12500|0|0]
12501,0.6810272932052612,0.3856428861618042,-0.026690226048231125,-0.6555349230766296,0.848989725112915,-8.401165962219238,4.06640625,0,"['F2', 'B2', 'A1']",6.1,90,0,0.31321890639842154,[12600|0|0]
12601,0.6812593340873718,0.3851921260356903,-0.0264411810785532,-0.6463916301727295,0.8406081795692444,-8.400900840759277,4.06640625,0,"['F2', 'B2', 'A1']",6.1,90,0,0.3137837524475241,[12700|0|0]
12701,0.6809671521186829,0.3853374719619751,-0.026619412004947662,-0.6508234143257141,0.8548638224601746,-8.413546562194824,4.06640625,0,"['F2', 'B2', 'A1']",6.1,90,0,0.31415558843857116,[12800|0|0]
12801,0.6811040639877319,0.3853908181190491,-0.02633899264037609,-0.6512565016746521,0.8491268157958984,-8.423073768615723,4.06640625,0,"['F2', 'B2', 'A1']",6.1,90,0,0.3144721728544665,[12900|0|0]
12902,0.6810003519058228,0.38512516021728516,-0.026491085067391396,-0.6391580104827881,0.8578314781188965,-8.430322647094727,4.06640625,0,"['F2', 'B2', 'A1']",6.1,90,0,0.31479537932571816,[13000|0|0]
13002,0.6810314655303955,0.3855000138282776,-0.027055371552705765,-0.6518084406852722,0.8521791100502014,-8.412053108215332,4.06640625,0,"['F2', 'B2', 'A1']",6.1,90,0,0.31547354046056486,[13100|0|0]
13101,0.681165337562561,0.3854825794696808,-0.02662484161555767,-0.6275485157966614,0.8695778250694275,-8.435976028442383,4.06640625,0,"['F2', 'B2', 'A1']",6.1,90,0,0.3159247407538234,[13200|0|0]
13202,0.6811689734458923,0.38567906618118286,-0.026717500761151314,-0.626823902130127,0.872162401676178,-8.450079917907715,4.0703125,0,"['F2', 'B2', 'A1']",6.1,90,0,0.31614201009060755,[13300|0|0]
13302,0.6812825202941895,0.38538530468940735,-0.026371734216809273,-0.6242777705192566,0.8719666004180908,-8.432533264160156,4.06640625,0,"['F2', 'B2', 'A1']",6.1,90,0,0.3166097099986625,[13400|0|0]
13402,0.680986762046814,0.3854442536830902,-0.026842450723052025,-0.6248003244400024,0.8795299530029297,-8.414182662963867,4.06640625,0,"['F2', 'B2', 'A1']",6.1,90,0,0.3171687466289438,[13500|0|0]
13502,0.6814250946044922,0.3850746154785156,-0.02675238996744156,-0.6264570951461792,0.8608077764511108,-8.416526794433594,4.06640625,0,"['F2', 'B2', 'A1']",6.1,90,0,0.3177491592176279,[13600|0|0]
13602,0.6809941530227661,0.38551226258277893,-0.026521358639001846,-0.6859152913093567,0.8462950587272644,-8.411467552185059,4.06640625,0,"['F2', 'B2', 'A1']",6.1,90,0,0.3184053764906795,[13700|0|0]
13700,0.6808662414550781,0.3855595290660858,-0.026457061991095543,-0.6749225854873657,0.8534071445465088,-8.445089340209961,4.06640625,0,"['F2', 'B2', 'A1']",6.1,90,0,0.31855613971074526,[13800|0|0]
13800,0.6809567809104919,0.3856470584869385,-0.026740258559584618,-0.6645188331604004,0.8545848727226257,-8.444080352783203,4.06640625,0,"['F2', 'B2', 'A1']",6.1,90,0,0.3188660737180846,[13900|0|0]
13900,0.6809837818145752,0.38558489084243774,-0.02663038857281208,-0.6543701887130737,0.851061224937439,-8.4522705078125,4.0703125,0,"['F2', 'B2', 'A1']",6.1,90,0,0.31899516778780695,[14000|0|0]
14000,0.6809425354003906,0.3854306638240814,-0.02640429697930813,-0.6431622505187988,0.8550338745117188,-8.444077491760254,4.06640625,0,"['F2', 'B2', 'A1']",6.1,90,0,0.3192719432356475,[14100|0|0]
14102,0.6810562014579773,0.38532304763793945,-0.02678535506129265,-0.63714998960495,0.8447912335395813,-8.410755157470703,4.06640625,0,"['F2', 'B2', 'A1']",6.1,90,0,0.3196838976967385,[14200|0|0]
14200,0.6805883049964905,0.3854862153530121,-0.026630045846104622,-0.6397728323936462,0.8537123799324036,-8.423069953918457,4.06640625,0,"['F2', 'B2', 'A1']",6.1,90,0,0.3202031969883192,[14300|0|0]
14300,0.6812219023704529,0.38548028469085693,-0.0268307663500309,-0.6357443928718567,0.8340610861778259,-8.409187316894531,4.06640625,0,"['F2', 'B2', 'A1']",6.1,90,0,0.32086785443824517,[14400|0|0]
14400,0.6807184815406799,0.3853118419647217,-0.026780471205711365,-0.6370005011558533,0.8455407023429871,-8.385838508605957,4.06640625,0,"['F2', 'B2', 'A1']",6.1,90,0,0.32140108523759875,[14500|0|0]
14500,0.6810826063156128,0.3852997422218323,-0.02672191895544529,-0.6431130766868591,0.8389248847961426,-8.382664680480957,4.06640625,0,"['F2', 'B2', 'A1']",6.1,90,0,0.32177008607975105,[14600|0|0]
14600,0.681246817111969,0.38548123836517334,-0.026318732649087906,-0.6492542624473572,0.8386785984039307,-8.389525413513184,4.06640625,0,"['F2', 'B2', 'A1']",6.1,90,0,0.3222417482823089,[14700|0|0]
14700,0.6808220148086548,0.38548582792282104,-0.0269144419580698,-0.6457622647285461,0.8510878682136536,-8.399115562438965,4.06640625,0,"['F2', 'B2', 'A1']",6.1,90,0,0.32297342282863956,[14800|0|0]
14800,0.6811535954475403,0.3854255974292755,-0.02664322406053543,-0.6452040076255798,0.8373926281929016,-8.413552284240723,4.06640625,0,"['F2', 'B2', 'A1']",6.1,90,0,0.32340601106285244,[14900|0|0]
14900,0.6810058355331421,0.38563835620880127,-0.02660626359283924,-0.6527750492095947,0.8381426334381104,-8.415279388427734,4.06640625,0,"['F2', 'B2', 'A1']",6.1,90,0,0.32366766993761226,[15000|0|0]
15000,0.6810035705566406,0.38505280017852783,-0.026756038889288902,-0.6421677470207214,0.8375747203826904,-8.392803192138672,4.06640625,0,"['F2', 'B2', 'A1']",6.1,90,0,0.3242720817460134,[15100|0|0]
15100,0.6810144186019897,0.38532283902168274,-0.026225507259368896,-0.6570940613746643,0.8358151912689209,-8.387815475463867,4.06640625,0,"['F2', 'B2', 'A1']",6.1,90,0,0.32486748284380035,[15200|0|0]
15200,0.6809899210929871,0.3852633833885193,-0.02692721039056778,-0.65839022397995,0.8378010392189026,-8.395975112915039,4.06640625,0,"['F2', 'B2', 'A1']",6.1,90,0,0.32557212628881105,[15300|0|0]
15300,0.6809647679328918,0.3852655291557312,-0.026394128799438477,-0.6616491675376892,0.8400368094444275,-8.379287719726562,4.06640625,0,"['F2', 'B2', 'A1']",6.1,90,0,0.3261058052827584,[15400|0|0]
15400,0.6809558272361755,0.3853606879711151,-0.02679266408085823,-0.6688326001167297,0.8425872325897217,-8.395585060119629,4.06640625,0,"['F2', 'B2', 'A1']",6.1,90,0,0.3265156412337673,[15500|0|0]
15500,0.6808680891990662,0.38530999422073364,-0.02680085226893425,-0.6656323075294495,0.8373041749000549,-8.406081199645996,4.06640625,0,"['F2', 'B2', 'A1']",6.1,90,0,0.3266173017762974,[15600|0|0]
15600,0.6808179616928101,0.38518765568733215,-0.02688104473054409,-0.5580744743347168,0.8929624557495117,-8.422879219055176,4.06640625,0,"['F2', 'B2', 'A1']",6.1,90,0,0.3267719313806341,[15700|0|0]
15700,0.6807816624641418,0.385454922914505,-0.026744605973362923,-0.5893736481666565,0.8788228631019592,-8.41977310180664,4.06640625,0,"['F2', 'B2', 'A1']",6.1,90,0,0.32707419771879254,[15800|0|0]
15800,0.680935263633728,0.3853093981742859,-0.02682432346045971,-0.5931931138038635,0.8673725128173828,-8.411635398864746,4.06640625,0,"['F2', 'B2', 'A1']",6.1,90,0,0.3273003075307493,[15900|0|0]
15900,0.6811932921409607,0.3850928246974945,-0.026681769639253616,-0.5938095450401306,0.8581018447875977,-8.387697219848633,4.06640625,0,"['F2', 'B2', 'A1']",6.1,90,0,0.3276661003318467,[16000|0|0]
16000,0.6813255548477173,0.38551855087280273,-0.026981452479958534,-0.6054230332374573,0.850206196308136,-8.38265323638916,4.0703125,0,"['F2', 'B2', 'A1']",6.1,90,0,0.32820326511564596,[16100|0|0]
16100,0.6810738444328308,0.38541916012763977,-0.026829935610294342,-0.6062089800834656,0.859425961971283,-8.374659538269043,4.06640625,0,"['F2', 'B2', 'A1']",6.1,90,0,0.32851341671564055,[16200|0|0]
16200,0.6813523173332214,0.3851328492164612,-0.026779720559716225,-0.5956619381904602,0.8532431125640869,-8.385051727294922,4.06640625,0,"['F2', 'B2', 'A1']",6.1,90,0,0.32891596192479905,[16300|0|0]
16300,0.681257963180542,0.3855961561203003,-0.02684488333761692,-0.6045585870742798,0.856654167175293,-8.396239280700684,4.0703125,0,"['F2', 'B2', 'A1']",6.1,90,0,0.32939324819203974,[16400|0|0]
16400,0.6812551021575928,0.38502269983291626,-0.02652514912188053,-0.5911372303962708,0.8520208597183228,-8.4008150100708,4.06640625,0,"['F2', 'B2', 'A1']",6.1,90,0,0.3300498228395134,[16500|0|0]
16500,0.6810488700866699,0.3852064609527588,-0.026570774614810944,-0.5962024927139282,0.8532624244689941,-8.394360542297363,4.06640625,0,"['F2', 'B2', 'A1']",6.1,90,0,0.3303297898051505,[16600|0|0]
16600,0.681120753288269,0.3852580189704895,-0.026879778131842613,-0.595535397529602,0.8516621589660645,-8.377469062805176,4.06640625,0,"['F2', 'B2', 'A1']",6.1,90,0,0.33065120635326584,[16700|0|0]
16700,0.6811746954917908,0.38499438762664795,-0.02664181776344776,-0.5886009931564331,0.8585860729217529,-8.372198104858398,4.06640625,0,"['F2', 'B2', 'A1']",6.1,90,0,0.33101042269991937,[16800|0|0]
16800,0.6809459328651428,0.38539642095565796,-0.02661387249827385,-0.6004825830459595,0.8657202124595642,-8.391620635986328,4.06640625,0,"['F2', 'B2', 'A1']",6.1,90,0,0.33147382757131305,[16900|0|0]
16900,0.6811065673828125,0.38554781675338745,-0.02675073966383934,-0.6014407277107239,0.857539713382721,-8.39467716217041,4.06640625,0,"['F2', 'B2', 'A1']",6.1,90,0,0.3317335519576287,[17000|0|0]
17000,0.6810095310211182,0.38533642888069153,-0.026980984956026077,-0.5904125571250916,0.8655325770378113,-8.36707878112793,4.06640625,0,"['F2', 'B2', 'A1']",6.1,90,0,0.33206083437815864,[17100|0|0]
17100,0.6809902787208557,0.3853437304496765,-0.02681044302880764,-0.5911349058151245,0.8680806756019592,-8.382205963134766,4.06640625,0,"['F2', 'B2', 'A1']",6.1,90,0,0.3322326147987962,[17200|0|0]
17200,0.681101381778717,0.38505974411964417,-0.026460004970431328,-0.5820749998092651,0.8564432263374329,-8.395042419433594,4.06640625,0,"['F2', 'B2', 'A1']",6.1,90,0,0.33269715646309544,[17300|0|0]
17300,0.6809609532356262,0.38529494404792786,-0.026741312816739082,-0.5929792523384094,0.8616690635681152,-8.39616584777832,4.06640625,0,"['F2', 'B2', 'A1']",6.1,90,0,0.3330898055257119,[17400|0|0]
17400,0.68120276927948,0.38560450077056885,-0.026797659695148468,-0.5982427000999451,0.855991780757904,-8.363557815551758,4.06640625,0,"['F2', 'B2', 'A1']",6.1,90,0,0.3334866371452986,[17500|0|0]
17500,0.6813283562660217,0.38514187932014465,-0.02659302018582821,-0.5864555239677429,0.8464844822883606,-8.361148834228516,4.06640625,0,"['F2', 'B2', 'A1']",6.1,90,0,0.33400785497534285,[17600|0|0]
17600,0.681296169757843,0.38523441553115845,-0.02682502567768097,-0.5908794403076172,0.8508707880973816,-8.350824356079102,4.06640625,0,"['F2', 'B2', 'A1']",6.1,90,0,0.33425969911346676,[17700|0|0]
17700,0.6811794638633728,0.38561585545539856,-0.026683973148465157,-0.6018255949020386,0.8528976440429688,-8.33553695678711,4.06640625,0,"['F2', 'B2', 'A1']",6.1,90,0,0.33468279779888965,[17800|0|0]
17800,0.6811999082565308,0.3852819800376892,-0.026774028316140175,-0.5902308225631714,0.8515874147415161,-8.352758407592773,4.06640625,0,"['F2', 'B2', 'A1']",6.1,90,0,0.3350292089721898,[17900|0|0]
17900,0.6812861561775208,0.38535892963409424,-0.026392409577965736,-0.5935841798782349,0.8488476276397705,-8.375020027160645,4.06640625,0,"['F2', 'B2', 'A1']",6.1,90,0,0.3354279479915845,[18000|0|0]
18000,0.6808836460113525,0.38536855578422546,-0.026887981221079826,-0.5928398966789246,0.865094780921936,-8.368674278259277,4.06640625,0,"['F2', 'B2', 'A1']",6.1,90,0,0.3360664605992078,[18100|0|0]
18100,0.6812030673027039,0.38499030470848083,-0.026511745527386665,-0.5845790505409241,0.8665106892585754,-8.360462188720703,4.06640625,0,"['F2', 'B2', 'A1']",6.1,90,0,0.33668827820500496,[18200|0|0]
18200,0.681097149848938,0.3851461112499237,-0.026871470734477043,-0.5908096432685852,0.8692330718040466,-8.357390403747559,4.06640625,0,"['F2', 'B2', 'A1']",6.1,90,0,0.337094352594723,[18300|0|0]
18300,0.6811609864234924,0.3856699466705322,-0.02657432295382023,-0.6045523881912231,0.8752857446670532,-8.342446327209473,4.06640625,0,"['F2', 'B2', 'A1']",6.1,90,0,0.3376999724917576,[18400|0|0]
18400,0.6813750267028809,0.38540416955947876,-0.026448510587215424,-0.5907629728317261,0.8687801361083984,-8.34954833984375,4.06640625,0,"['F2', 'B2', 'A1']",6.1,90,0,0.3380636749327053,[18500|0|0]
18500,0.6811513304710388,0.3851011097431183,-0.02659326046705246,-0.5825720429420471,0.8731132745742798,-8.380537033081055,4.0703125,0,"['F2', 'B2', 'A1']",6.1,90,0,0.3384672065722896,[18600|0|0]
18600,0.6811327934265137,0.38552403450012207,-0.02681579440832138,-0.5949439406394958,0.8719988465309143,-8.371342658996582,4.06640625,0,"['F2', 'B2', 'A1']",6.1,90,0,0.3389454641672352,[18700|0|0]
18700,0.6812794804573059,0.3852258622646332,-0.02675263024866581,-0.5908870100975037,0.8629416227340698,-8.387157440185547,4.06640625,0,"['F2', 'B2', 'A1']",6.1,90,0,0.3392837147815496,[18800|0|0]
18800,0.6812453866004944,0.3851849138736725,-0.02648373320698738,-0.5879334211349487,0.8625420331954956,-8.39276123046875,4.06640625,0,"['F2', 'B2', 'A1']",6.1,90,0,0.3395578402652573,[18900|0|0]
18900,0.681286633014679,0.3852667808532715,-0.026516109704971313,-0.5907694101333618,0.8653408885002136,-8.3872652053833,4.06640625,0,"['F2', 'B2', 'A1']",6.1,90,0,0.3396550601534153,[19000|0|0]
19000,0.6811389327049255,0.3854667842388153,-0.02627083845436573,-0.6747852563858032,0.8359515070915222,-8.379097938537598,4.06640625,0,"['F2', 'B2', 'A1']",6.1,90,0,0.3400043089502692,[19100|0|0]
19100,0.6811453700065613,0.38513240218162537,-0.026668984442949295,-0.6438035368919373,0.8382917642593384,-8.370762825012207,4.06640625,0,"['F2', 'B2', 'A1']",6.1,90,0,0.340524283014284,[19200|0|0]
19200,0.6813800930976868,0.3851199150085449,-0.026416096836328506,-0.633747935295105,0.8359608054161072,-8.389939308166504,4.06640625,0,"['F2', 'B2', 'A1']",6.1,90,0,0.3408695408897647,[19300|0|0]
19300,0.6810410022735596,0.38530728220939636,-0.026826556771993637,-0.6349563598632812,0.8503023386001587,-8.38929271697998,4.06640625,0,"['F2', 'B2', 'A1']",6.1,90,0,0.3414339577691618,[19400|0|0]
19400,0.6812647581100464,0.38528677821159363,-0.026564693078398705,-0.6349432468414307,0.8465962409973145,-8.379959106445312,4.06640625,0,"['F2', 'B2', 'A1']",6.1,90,0,0.34177900802971956,[19500|0|0]
19500,0.6813498735427856,0.38514915108680725,-0.026516607031226158,-0.6290423274040222,0.8479716181755066,-8.34947395324707,4.06640625,0,"['F2', 'B2', 'A1']",6.1,90,0,0.3419478219222167,[19600|0|0]
19600,0.6809794902801514,0.3853069841861725,-0.026612307876348495,-0.6322286128997803,0.8597231507301331,-8.362861633300781,4.06640625,0,"['F2', 'B2', 'A1']",6.1,90,0,0.34236165002693164,[19700|0|0]
19700,0.6809351444244385,0.3852279782295227,-0.02652524597942829,-0.6336686611175537,0.8571241497993469,-8.392862319946289,4.06640625,0,"['F2', 'B2', 'A1']",6.1,90,0,0.342487301409735,[19800|0|0]
19800,0.681223452091217,0.38552674651145935,-0.026770837604999542,-0.6402980089187622,0.8527341485023499,-8.406318664550781,4.06640625,0,"['F2', 'B2', 'A1']",6.1,90,0,0.3429696903021915,[19900|0|0]
19900,0.6810979247093201,0.3856450915336609,-0.02657577581703663,-0.6420937180519104,0.8518922924995422,-8.420602798461914,4.06640625,0,"['F2', 'B2', 'A1']",6.1,90,0,0.3432300972318402,[20000|0|0]
20000,0.6812713742256165,0.38541287183761597,-0.026878830045461655,-0.6401363611221313,0.8508718013763428,-8.41252326965332,4.06640625,0,"['F2', 'B2', 'A1']",6.1,90,0,0.34364944504368733,[20100|0|0]
20100,0.6812613606452942,0.385084867477417,-0.026366688311100006,-0.6304098963737488,0.8484476208686829,-8.450042724609375,4.06640625,0,"['F2', 'B2', 'A1']",6.1,90,0,0.3442577018054051,[20200|0|0]
20200,0.6813986301422119,0.38515782356262207,-0.026508430019021034,-0.6346870064735413,0.8473759889602661,-8.429550170898438,4.06640625,0,"['F2', 'B2', 'A1']",6.1,90,0,0.344468073421639,[20300|0|0]
20300,0.6816282868385315,0.3855808973312378,-0.026560362428426743,-0.6436722874641418,0.8412157297134399,-8.396671295166016,4.06640625,0,"['F2', 'B2', 'A1']",6.1,90,0,0.34495225374651994,[20400|0|0]
20400,0.681330680847168,0.3852047324180603,-0.026740651577711105,-0.6393555998802185,0.8538287281990051,-8.391427993774414,4.06640625,0,"['F2', 'B2', 'A1']",6.1,90,0,0.3454646730527048,[20500|0|0]
20500,0.6814323663711548,0.3852904438972473,-0.026854990050196648,-0.635715901851654,0.8474072217941284,-8.376786231994629,4.06640625,0,"['F2', 'B2', 'A1']",6.1,90,0,0.34564005745834914,[20600|0|0]
20600,0.6815199255943298,0.3854410648345947,-0.02666984125971794,-0.6494204998016357,0.8562546372413635,-8.386858940124512,4.06640625,0,"['F2', 'B2', 'A1']",6.1,90,0,0.3458942883749312,[20700|0|0]
20700,0.6818087697029114,0.3851074278354645,-0.026466216892004013,-0.6360657811164856,0.83558589220047,-8.376367568969727,4.06640625,0,"['F2', 'B2', 'A1']",6.1,90,0,0.34638030015398374,[20800|0|0]
20800,0.6812852621078491,0.3854410648345947,-0.026552874594926834,-0.6422021389007568,0.8492372632026672,-8.395136833190918,4.06640625,0,"['F2', 'B2', 'A1']",6.1,90,0,0.3470071042755021,[20900|0|0]
20900,0.6815336346626282,0.38542231917381287,-0.026129327714443207,-0.70533287525177,0.8021666407585144,-8.404491424560547,4.06640625,0,"['F2', 'B2', 'A1']",6.1,90,0,0.34749846187006334,[21000|0|0]
21000,0.681284487247467,0.38539814949035645,-0.026753710582852364,-0.5892660021781921,0.8569895029067993,-8.393072128295898,4.06640625,0,"['F2', 'B2', 'A1']",6.1,90,0,0.34817115241886176,[21100|0|0]
21100,0.6809711456298828,0.38530489802360535,-0.02685408666729927,-0.5851762890815735,0.863413393497467,-8.402276992797852,4.06640625,0,"['F2', 'B2', 'A1']",6.1,90,0,0.34851313803798983,[21200|0|0]
21200,0.6810184717178345,0.38525402545928955,-0.026887403801083565,-0.589367687702179,0.8638476133346558,-8.397913932800293,4.06640625,0,"['F2', 'B2', 'A1']",6.1,90,0,0.3485901952103002,[21300|0|0]
21300,0.6811909079551697,0.3852671980857849,-0.026700058951973915,-0.5806877613067627,0.8595103025436401,-8.384134292602539,4.06640625,0,"['F2', 'B2', 'A1']",6.1,90,0,0.3488451576909185,[21400|0|0]
21400,0.68099045753479,0.38527268171310425,-0.026947343721985817,-0.5830913782119751,0.8657780885696411,-8.368385314941406,4.06640625,0,"['F2', 'B2', 'A1']",6.1,90,0,0.34916352885587976,[21500|0|0]
21500,0.6812521815299988,0.3850201666355133,-0.02647313103079796,-0.5900263786315918,0.8501890301704407,-8.379924774169922,4.06640625,0,"['F2', 'B2', 'A1']",6.1,90,0,0.3497611415988517,[21600|0|0]
21600,0.6812950968742371,0.3852003514766693,-0.026809394359588623,-0.6136000156402588,0.8511026501655579,-8.395271301269531,4.06640625,0,"['F2', 'B2', 'A1']",6.1,90,0,0.3501450443600333,[21700|0|0]
21700,0.6815119981765747,0.38526687026023865,-0.026730362325906754,-0.6285389065742493,0.8379332423210144,-8.418354988098145,4.06640625,0,"['F2', 'B2', 'A1']",6.1,90,0,0.35038528795697443,[21800|0|0]
21800,0.6814321279525757,0.385283887386322,-0.02678072452545166,-0.6387767195701599,0.8367823362350464,-8.391453742980957,4.06640625,0,"['F2', 'B2', 'A1']",6.1,90,0,0.35048123161963535,[21900|0|0]
21900,0.6818253993988037,0.38525551557540894,-0.027016008272767067,-0.6532263159751892,0.8199147582054138,-8.389660835266113,4.06640625,0,"['F2', 'B2', 'A1']",6.1,90,0,0.35094038936140126,[22000|0|0]
22000,0.6813009977340698,0.3852046728134155,-0.02685156837105751,-0.6545181274414062,0.8422534465789795,-8.394341468811035,4.06640625,0,"['F2', 'B2', 'A1']",6.1,90,0,0.35149231560076394,[22100|0|0]
22100,0.6815928220748901,0.3853026330471039,-0.026678642258048058,-0.6567455530166626,0.8356122970581055,-8.390097618103027,4.06640625,0,"['F2', 'B2', 'A1']",6.1,90,0,0.3518453893803625,[22200|0|0]
22200,0.681449294090271,0.38503891229629517,-0.0268420297652483,-0.6520195603370667,0.8396053910255432,-8.372003555297852,4.06640625,0,"['F2', 'B2', 'A1']",6.1,90,0,0.3521872144734804,[22300|0|0]
22300,0.6814502477645874,0.38513293862342834,-0.02694966457784176,-0.6523256897926331,0.8445903062820435,-8.378426551818848,4.06640625,0,"['F2', 'B2', 'A1']",6.1,90,0,0.3523301379235188,[22400|0|0]
22400,0.6813417077064514,0.3850957155227661,-0.02676238864660263,-0.6512332558631897,0.846606969833374,-8.374388694763184,4.06640625,0,"['F2', 'B2', 'A1']",6.1,90,0,0.35254977120393083,[22500|0|0]
22500,0.6815595626831055,0.38510245084762573,-0.02641875110566616,-0.65430748462677,0.8489736914634705,-8.37716293334961,4.06640625,0,"['F2', 'B2', 'A1']",6.1,90,0,0.35295670229759996,[22600|0|0]
22600,0.6811636686325073,0.3852763772010803,-0.0266733281314373,-0.6347808837890625,0.8651186227798462,-8.355025291442871,4.06640625,0,"['F2', 'B2', 'A1']",6.1,90,0,0.35345849103579113,[22700|0|0]
22700,0.6810551881790161,0.3851892054080963,-0.02679024450480938,-0.646790623664856,0.8625532984733582,-8.351029396057129,4.06640625,0,"['F2', 'B2', 'A1']",6.1,90,0,0.3536402501308708,[22800|0|0]
22800,0.6812245845794678,0.38499411940574646,-0.026614120230078697,-0.6564645171165466,0.8517153263092041,-8.359756469726562,4.06640625,0,"['F2', 'B2', 'A1']",6.1,90,0,0.3539529375929607,[22900|0|0]
22900,0.6811800003051758,0.385446161031723,-0.026476796716451645,-0.6670125722885132,0.8476787209510803,-8.364830017089844,4.06640625,0,"['F2', 'B2', 'A1']",6.1,90,0,0.354427476460204,[23000|0|0]
23000,0.680972695350647,0.3852289319038391,-0.02651221677660942,-0.6624513268470764,0.8350502848625183,-8.374114990234375,4.06640625,0,"['F2', 'B2', 'A1']",6.1,90,0,0.3547298312498717,[23100|0|0]
23100,0.6812909841537476,0.38510674238204956,-0.026738060638308525,-0.5649146437644958,0.870182454586029,-8.376620292663574,4.06640625,0,"['F2', 'B2', 'A1']",6.1,90,0,0.3551387853931219,[23200|0|0]
23200,0.6810501217842102,0.3850214183330536,-0.02686556987464428,-0.5798001289367676,0.8598778247833252,-8.389689445495605,4.06640625,0,"['F2', 'B2', 'A1']",6.1,90,0,0.35542436109192543,[23300|0|0]
23300,0.6809372305870056,0.38538190722465515,-0.02681168168783188,-0.5992283821105957,0.8580725193023682,-8.378586769104004,4.06640625,0,"['F2', 'B2', 'A1']",6.1,90,0,0.3558059375587736,[23400|0|0]
23400,0.681272566318512,0.38492608070373535,-0.026678308844566345,-0.5965313911437988,0.845075249671936,-8.377331733703613,4.06640625,0,"['F2', 'B2', 'A1']",6.1,90,0,0.35638732915255483,[23500|0|0]
23500,0.6811308264732361,0.38502267003059387,-0.0268675796687603,-0.6054871678352356,0.8507481813430786,-8.355441093444824,4.06640625,0,"['F2', 'B2', 'A1']",6.1,90,0,0.356642756493873,[23600|0|0]
23600,0.6811864376068115,0.3852487802505493,-0.02639695815742016,-0.6190972924232483,0.8515187501907349,-8.38731575012207,4.06640625,0,"['F2', 'B2', 'A1']",6.1,90,0,0.3571678308092627,[23700|0|0]
23700,0.6809500455856323,0.38512900471687317,-0.026428742334246635,-0.6166359782218933,0.8586075305938721,-8.403229713439941,4.06640625,0,"['F2', 'B2', 'A1']",6.1,90,0,0.3574347345373017,[23800|0|0]
23800,0.6812877058982849,0.38502106070518494,-0.02676435373723507,-0.6124980449676514,0.8503027558326721,-8.41699504852295,4.06640625,0,"['F2', 'B2', 'A1']",6.1,90,0,0.3579228957916182,[23900|0|0]
23900,0.6808363795280457,0.38533756136894226,-0.026777973398566246,-0.618990957736969,0.8667543530464172,-8.380860328674316,4.06640625,0,"['F2', 'B2', 'A1']",6.1,90,0,0.3584743063988855,[24000|0|0]
24000,0.6810746788978577,0.38517293334007263,-0.0265510194003582,-0.6111540198326111,0.858601450920105,-8.367779731750488,4.06640625,0,"['F2', 'B2', 'A1']",6.1,90,0,0.3588422698411524,[24100|0|0]
24100,0.6812406778335571,0.3854691982269287,-0.02701759710907936,-0.6107553243637085,0.8555150032043457,-8.351971626281738,4.06640625,0,"['F2', 'B2', 'A1']",6.1,90,0,0.3594193515408386,[24200|0|0]
24200,0.6810675263404846,0.3853894770145416,-0.026591792702674866,-0.602161169052124,0.8636160492897034,-8.378030776977539,4.06640625,0,"['F2', 'B2', 'A1']",6.1,90,0,0.3598858773212315,[24300|0|0]
24300,0.6813182234764099,0.38518786430358887,-0.02660842426121235,-0.592258632183075,0.8588312268257141,-8.390389442443848,4.06640625,0,"['F2', 'B2', 'A1']",6.1,90,0,0.3602080160303589,[24400|0|0]
24400,0.68095463514328,0.38539430499076843,-0.0267302468419075,-0.5927404165267944,0.8718359470367432,-8.375006675720215,4.06640625,0,"['F2', 'B2', 'A1']",6.1,90,0,0.36064350997346095,[24500|0|0]
24500,0.6815981864929199,0.3851279616355896,-0.02641751430928707,-0.58546382188797,0.8634073138237,-8.389453887939453,4.06640625,0,"['F2', 'B2', 'A1']",6.1,90,0,0.36140698804088034,[24600|0|0]
24600,0.6814369559288025,0.38506630063056946,-0.026451054960489273,-0.5964543223381042,0.8633828163146973,-8.3953218460083,4.06640625,0,"['F2', 'B2', 'A1']",6.1,90,0,0.36158283555899984,[24700|0|0]
24700,0.6812731027603149,0.385414719581604,-0.0267754215747118,-0.6038984060287476,0.8732763528823853,-8.401259422302246,4.06640625,0,"['F2', 'B2', 'A1']",6.1,90,0,0.36208628101452167,[24800|0|0]
24800,0.681573212146759,0.38500306010246277,-0.02664005570113659,-0.5955907106399536,0.8701646327972412,-8.385377883911133,4.06640625,0,"['F2', 'B2', 'A1']",6.1,90,0,0.36261339873413223,[24900|0|0]
24900,0.6813246011734009,0.38506612181663513,-0.02657417394220829,-0.5992501378059387,0.8838455080986023,-8.365559577941895,4.06640625,0,"['F2', 'B2', 'A1']",6.1,90,0,0.3628782092362426,[25000|0|0]
25000,0.6812848448753357,0.38505318760871887,-0.02645804174244404,-0.5956211686134338,0.8884775638580322,-8.373580932617188,4.06640625,0,"['F2', 'B2', 'A1']",6.1,90,0,0.3630016375344256,[25100|0|0]
25100,0.6814567446708679,0.3849109709262848,-0.026578817516565323,-0.5948125123977661,0.8840277194976807,-8.389687538146973,4.06640625,0,"['F2', 'B2', 'A1']",6.1,90,0,0.36325533403042265,[25200|0|0]
25200,0.6815014481544495,0.38509058952331543,-0.026513470336794853,-0.6038892865180969,0.8744559288024902,-8.39706802368164,4.06640625,0,"['F2', 'B2', 'A1']",6.1,90,0,0.3634516284413149,[25300|0|0]
25300,0.681565523147583,0.38507533073425293,-0.026443801820278168,-0.6024783849716187,0.8776018619537354,-8.388956069946289,4.06640625,0,"['F2', 'B2', 'A1']",6.1,90,0,0.3635475040773355,[25400|0|0]
25400,0.68141770362854,0.38547489047050476,-0.026591697707772255,-0.6883717775344849,0.8401311039924622,-8.392563819885254,4.06640625,0,"['F2', 'B2', 'A1']",6.1,90,0,0.36399847168879046,[25500|0|0]
25500,0.6813440322875977,0.38507720828056335,-0.026317177340388298,-0.6553448438644409,0.8488637208938599,-8.41176986694336,4.06640625,0,"['F2', 'B2', 'A1']",6.1,90,0,0.36448728660548335,[25600|0|0]
25600,0.6811612248420715,0.38543805480003357,-0.02637188695371151,-0.6454342007637024,0.860253095626831,-8.435211181640625,4.06640625,0,"['F2', 'B2', 'A1']",6.1,90,0,0.36489548008233413,[25700|0|0]
25700,0.6812974214553833,0.3852368891239166,-0.026735693216323853,-0.6375676989555359,0.8532201647758484,-8.402689933776855,4.06640625,0,"['F2', 'B2', 'A1']",6.1,90,0,0.36533294110167314,[25800|0|0]
25800,0.6817014217376709,0.3850589692592621,-0.026568707078695297,-0.6303507685661316,0.8373668789863586,-8.394760131835938,4.06640625,0,"['F2', 'B2', 'A1']",6.1,90,0,0.3658049115207539,[25900|0|0]
25900,0.6812552213668823,0.3855426013469696,-0.026508186012506485,-0.6386340856552124,0.8510445356369019,-8.394597053527832,4.06640625,0,"['F2', 'B2', 'A1']",6.1,90,0,0.366465712221877,[26000|0|0]
26000,0.6812663674354553,0.3851042687892914,-0.02631784975528717,-0.622197151184082,0.8486316204071045,-8.373038291931152,4.06640625,0,"['F2', 'B2', 'A1']",6.1,90,0,0.3669437159423412,[26100|0|0]
26100,0.6814916729927063,0.3851849436759949,-0.026366708800196648,-0.6311406493186951,0.846593976020813,-8.362508773803711,4.06640625,0,"['F2', 'B2', 'A1']",6.1,90,0,0.36718796630107636,[26200|0|0]
26200,0.6812071800231934,0.385420560836792,-0.026599964126944542,-0.6428156495094299,0.8565426468849182,-8.359112739562988,4.06640625,0,"['F2', 'B2', 'A1']",6.1,90,0,0.36762484127589257,[26300|0|0]
26300,0.6811667680740356,0.38550522923469543,-0.026653824374079704,-0.6399314999580383,0.8593589663505554,-8.351605415344238,4.06640625,0,"['F2', 'B2', 'A1']",6.1,90,0,0.36773302070767017,[26400|0|0]
26400,0.6814891695976257,0.38520824909210205,-0.026749180629849434,-0.6386751532554626,0.8499981760978699,-8.363517761230469,4.06640625,0,"['F2', 'B2', 'A1']",6.1,90,0,0.3681816104567978,[26500|0|0]
26500,0.6815598607063293,0.3851848840713501,-0.026380833238363266,-0.6359253525733948,0.8512224555015564,-8.36913776397705,4.06640625,0,"['F2', 'B2', 'A1']",6.1,90,0,0.36855740688820604,[26600|0|0]
26600,0.681550920009613,0.38524261116981506,-0.02627899870276451,-0.6400681734085083,0.8596162796020508,-8.375883102416992,4.06640625,0,"['F2', 'B2', 'A1']",6.1,90,0,0.3686748063200427,[26700|0|0]
26700,0.6816190481185913,0.3853552043437958,-0.026395339518785477,-0.6421383619308472,0.8646215796470642,-8.394290924072266,4.06640625,0,"['F2', 'B2', 'A1']",6.1,90,0,0.3688504589531924,[26800|0|0]
26800,0.6811521649360657,0.3856313228607178,-0.026531925424933434,-0.7065257430076599,0.8455438613891602,-8.423022270202637,4.06640625,0,"['F2', 'B2', 'A1']",6.1,90,0,0.3694098130908107,[26900|0|0]
26900,0.681023359298706,0.3855192959308624,-0.026686284691095352,-0.6815467476844788,0.8561967015266418,-8.415628433227539,4.06640625,0,"['F2', 'B2', 'A1']",6.1,90,0,0.36963996023565177,[27000|0|0]
27000,0.6812060475349426,0.38515564799308777,-0.026338472962379456,-0.6590695381164551,0.8548850417137146,-8.402609825134277,4.06640625,0,"['F2', 'B2', 'A1']",6.1,90,0,0.3701752992057813,[27100|0|0]
27100,0.6813292503356934,0.3853166997432709,-0.026294982060790062,-0.6485188603401184,0.8472438454627991,-8.400144577026367,4.06640625,0,"['F2', 'B2', 'A1']",6.1,90,0,0.37038268304042354,[27200|0|0]
27200,0.680888295173645,0.3853939175605774,-0.026770181953907013,-0.6399489641189575,0.8564979434013367,-8.404078483581543,4.06640625,0,"['F2', 'B2', 'A1']",6.1,90,0,0.37103553753008034,[27300|0|0]
27300,0.6813139915466309,0.38505852222442627,-0.02684340998530388,-0.5184852480888367,0.9055130481719971,-8.389483451843262,4.06640625,0,"['F2', 'B2', 'A1']",6.1,90,0,0.3715824102557373,[27400|0|0]
27400,0.6813197135925293,0.38510793447494507,-0.02654506266117096,-0.5373857021331787,0.887944757938385,-8.396875381469727,4.06640625,0,"['F2', 'B2', 'A1']",6.1,90,0,0.3718848758539925,[27500|0|0]
27500,0.681744396686554,0.38502615690231323,-0.026498107239603996,-0.5512063503265381,0.8627763986587524,-8.390369415283203,4.06640625,0,"['F2', 'B2', 'A1']",6.1,90,0,0.37231990242025076,[27600|0|0]
27600,0.681451678276062,0.3854348361492157,-0.02663801982998848,-0.5707330703735352,0.8595320582389832,-8.42069149017334,4.06640625,0,"['F2', 'B2', 'A1']",6.1,90,0,0.3728417053788834,[27700|0|0]
27700,0.6811948418617249,0.3853794038295746,-0.026812231168150902,-0.5716601014137268,0.8649559617042542,-8.423527717590332,4.06640625,0,"['F2', 'B2', 'A1']",6.1,90,0,0.37315696285482125,[27800|0|0]
27800,0.6817044019699097,0.3851930797100067,-0.02650487795472145,-0.6634880304336548,0.8028388619422913,-8.429046630859375,4.06640625,0,"['F2', 'B2', 'A1']",6.1,90,0,0.3737805285523957,[27900|0|0]
27900,0.6815052628517151,0.3848849833011627,-0.02663441188633442,-0.6491227149963379,0.8171584606170654,-8.39818000793457,4.06640625,0,"['F2', 'B2', 'A1']",6.1,90,0,0.3741695771675802,[28000|0|0]
28000,0.6816198825836182,0.3847809433937073,-0.026578964665532112,-0.6396782398223877,0.8285109400749207,-8.424392700195312,4.06640625,0,"['F2', 'B2', 'A1']",6.1,90,0,0.3743340045971033,[28100|0|0]
28100,0.6816138029098511,0.3851330876350403,-0.026485512033104897,-0.6472009420394897,0.8299130797386169,-8.427139282226562,4.06640625,0,"['F2', 'B2', 'A1']",6.1,90,0,0.3746983889047302,[28200|0|0]
28200,0.6812412142753601,0.385179728269577,-0.026905057951807976,-0.6382394433021545,0.8419929146766663,-8.426294326782227,4.06640625,0,"['F2', 'B2', 'A1']",6.1,90,0,0.3752614310143829,[28300|0|0]
28300,0.6812593936920166,0.3851952850818634,-0.02683643437922001,-0.6314451098442078,0.8458017110824585,-8.394708633422852,4.06640625,0,"['F2', 'B2', 'A1']",6.1,90,0,0.3753341063218348,[28400|0|0]
28400,0.684592604637146,0.38981714844703674,-0.024024926126003265,-0.7916457653045654,0.74896240234375,-8.333868980407715,4.06640625,0,"['F2', 'B2', 'A1']",6.1,90,0,0.3816883564608337,[28500|0|0]
28500,0.6843670606613159,0.3899938762187958,-0.024248795583844185,-0.798332929611206,0.7604359984397888,-8.333808898925781,4.06640625,0,"['F2', 'B2', 'A1']",6.1,90,0,0.38205197758851767,[28600|0|0]
28600,0.6847449541091919,0.38988715410232544,-0.024118123576045036,-0.7894666194915771,0.7498047351837158,-8.326364517211914,4.06640625,0,"['F2', 'B2', 'A1']",6.1,90,0,0.38246582326230655,[28700|0|0]
28700,0.6844781041145325,0.389972060918808,-0.023903045803308487,-0.7922456860542297,0.7587364912033081,-8.333938598632812,4.06640625,0,"['F2', 'B2', 'A1']",6.1,90,0,0.3828189189086409,[28800|0|0]
28800,0.6812788248062134,0.3851875364780426,-0.02686832845211029,-0.6254024505615234,0.8496229648590088,-8.37174129486084,4.06640625,0,"['F2', 'B2', 'A1']",6.1,90,0,0.38929348170501604,[28900|0|0]
28900,0.6843498349189758,0.39014431834220886,-0.024453619495034218,-0.7853986024856567,0.7660660743713379,-8.316168785095215,4.06640625,0,"['F2', 'B2', 'A1']",6.1,90,0,0.3956047105005043,[29000|0|0]
29000,0.684583306312561,0.38983696699142456,-0.023993445560336113,-0.7649561166763306,0.7494264245033264,-8.333148956298828,4.06640625,0,"['F2', 'B2', 'A1']",6.1,90,0,0.3962053216847384,[29100|0|0]
29100,0.6842870712280273,0.3896932005882263,-0.023888247087597847,-0.7495629787445068,0.7628638744354248,-8.337116241455078,4.06640625,0,"['F2', 'B2', 'A1']",6.1,90,0,0.39655099598616056,[29200|0|0]
29200,0.6846590042114258,0.38969525694847107,-0.02409505657851696,-0.7424558401107788,0.7584319114685059,-8.349752426147461,4.06640625,0,"['F2', 'B2', 'A1']",6.1,90,0,0.396976564474528,[29300|0|0]
29300,0.6844978332519531,0.3899692893028259,-0.02424323745071888,-0.7435199022293091,0.7729048132896423,-8.334397315979004,4.06640625,0,"['F2', 'B2', 'A1']",6.1,90,0,0.3973273170658187,[29400|0|0]
29400,0.6841264367103577,0.38966095447540283,-0.024297352880239487,-0.7319359183311462,0.789003312587738,-8.338947296142578,4.06640625,0,"['F2', 'B2', 'A1']",6.1,90,0,0.39781304768727804,[29500|0|0]
29500,0.6846573948860168,0.38995808362960815,-0.024403391405940056,-0.7387405037879944,0.7805464863777161,-8.324771881103516,4.06640625,0,"['F2', 'B2', 'A1']",6.1,90,0,0.3984306612294797,[29600|0|0]
29600,0.6844567656517029,0.389757364988327,-0.024272844195365906,-0.7284477353096008,0.7833417654037476,-8.30440616607666,4.06640625,0,"['F2', 'B2', 'A1']",6.1,90,0,0.398743043426168,[29700|0|0]
29700,0.6845435500144958,0.38973480463027954,-0.024104269221425056,-0.734530508518219,0.7863876223564148,-8.310422897338867,4.06640625,0,"['F2', 'B2', 'A1']",6.1,90,0,0.3989339832523431,[29800|0|0]
29800,0.6843389272689819,0.38941681385040283,-0.024337196722626686,-0.7294384241104126,0.7885411977767944,-8.30168628692627,4.06640625,0,"['F2', 'B2', 'A1']",6.1,90,0,0.3993781046601634,[29900|0|0]
29900,0.6842000484466553,0.3901697099208832,-0.024171071127057076,-0.7533581852912903,0.7940918207168579,-8.303689002990723,4.06640625,0,"['F2', 'B2', 'A1']",6.1,90,0,0.40016151868463506,[30000|0|0]
30000,0.6845512390136719,0.3898172080516815,-0.024097798392176628,-0.742686927318573,0.7846832275390625,-8.303525924682617,4.06640625,0,"['F2', 'B2', 'A1']",6.1,90,0,0.4006644712428639,[30100|0|0]
30100,0.6840068101882935,0.3898458480834961,-0.024175938218832016,-0.7400410175323486,0.7979152798652649,-8.321833610534668,4.06640625,0,"['F2', 'B2', 'A1']",6.1,90,0,0.4012152242091156,[30200|0|0]
