time.ms,stateEstimate.x,stateEstimate.y,stateEstimate.z,stabilizer.roll,stabilizer.pitch,stabilizer.yaw,pm.vbat,drone_id,node_name,wind_speed,global_wind_direction,relative_wind_direction,travel_dist,waiting_time
0,1.325547695159912,-0.30985352396965027,-0.0054419864900410175,0.3287896513938904,0.8278906941413879,-0.12188643962144852,4.11328125,2,"['F2', 'B2', 'A1']",6.1,90,0,0.061708369824540525,[100|0|0]
100,1.3254961967468262,-0.30967769026756287,-0.005573906935751438,0.32314634323120117,0.8182728290557861,-0.1388930231332779,4.11328125,2,"['F2', 'B2', 'A1']",6.1,90,0,0.06193414090625066,[200|0|0]
200,1.3256651163101196,-0.3102037310600281,-0.005412510596215725,0.3571086823940277,0.8216466903686523,-0.17325548827648163,4.11328125,2,"['F2', 'B2', 'A1']",6.1,90,0,0.06250972887747332,[300|0|0]
300,1.3254863023757935,-0.3102264404296875,-0.005307379644364119,0.38546517491340637,0.8468633890151978,-0.15234234929084778,4.11328125,2,"['F2', 'B2', 'A1']",6.1,90,0,0.06271839764757742,[400|0|0]
400,1.3257249593734741,-0.3101126551628113,-0.00521868048235774,0.3991090953350067,0.8488053679466248,-0.16552002727985382,4.10546875,2,"['F2', 'B2', 'A1']",6.1,90,0,0.06299727358924445,[500|0|0]
500,1.3257195949554443,-0.3103111982345581,-0.005085531622171402,0.4161364734172821,0.850554883480072,-0.1628628969192505,4.11328125,2,"['F2', 'B2', 'A1']",6.1,90,0,0.06323639018692931,[600|0|0]
600,1.3259996175765991,-0.3102930784225464,-0.005771777592599392,0.3997003138065338,0.8501424789428711,-0.13859421014785767,4.11328125,2,"['F2', 'B2', 'A1']",6.1,90,0,0.06397779056990358,[700|0|0]
700,1.326185703277588,-0.31068214774131775,-0.005695783533155918,0.4271691143512726,0.8567859530448914,-0.13539966940879822,4.11328125,2,"['F2', 'B2', 'A1']",6.1,90,0,0.06441571512960809,[800|0|0]
800,1.3262298107147217,-0.3105885684490204,-0.005413959268480539,0.4287668764591217,0.8576293587684631,-0.1383204609155655,4.11328125,2,"['F2', 'B2', 'A1']",6.1,90,0,0.06471592749796956,[900|0|0]
900,1.3261996507644653,-0.31066474318504333,-0.005648366175591946,0.43413305282592773,0.8599829077720642,-0.16987353563308716,4.11328125,2,"['F2', 'B2', 'A1']",6.1,90,0,0.06496423942098005,[1000|0|0]
1000,1.3260945081710815,-0.31070464849472046,-0.005584642291069031,0.43503129482269287,0.8641089200973511,-0.1363295614719391,4.11328125,2,"['F2', 'B2', 'A1']",6.1,90,0,0.06509349936118809,[1100|0|0]
1100,1.3260482549667358,-0.3109021782875061,-0.005646090023219585,0.4395647943019867,0.8623449206352234,-0.1252152919769287,4.11328125,2,"['F2', 'B2', 'A1']",6.1,90,0,0.0653054738920559,[1200|0|0]
1200,1.3261504173278809,-0.3103709816932678,-0.005789726972579956,0.41307705640792847,0.8589410781860352,-0.1036580502986908,4.11328125,2,"['F2', 'B2', 'A1']",6.1,90,0,0.06586515106953113,[1300|0|0]
1300,1.3256367444992065,-0.3102237582206726,-0.005545143503695726,0.41184377670288086,0.866740345954895,-0.12658357620239258,4.11328125,2,"['F2', 'B2', 'A1']",6.1,90,0,0.06645282070380935,[1400|0|0]
1400,1.325838565826416,-0.31073763966560364,-0.005793078802525997,0.4137374460697174,0.8780104517936707,-0.12230280041694641,4.11328125,2,"['F2', 'B2', 'A1']",6.1,90,0,0.06705802967595621,[1500|0|0]
1500,1.3260380029678345,-0.31060004234313965,-0.005617739167064428,0.4090209901332855,0.870891273021698,-0.11534793674945831,4.11328125,2,"['F2', 'B2', 'A1']",6.1,90,0,0.06735711525616733,[1600|0|0]
1600,1.325953483581543,-0.3106352984905243,-0.005461728200316429,0.4159131348133087,0.8781008720397949,-0.11869736760854721,4.11328125,2,"['F2', 'B2', 'A1']",6.1,90,0,0.06753801839138933,[1700|0|0]
1700,1.3259716033935547,-0.31045231223106384,-0.005898118484765291,0.410955548286438,0.8752627372741699,-0.08793526142835617,4.11328125,2,"['F2', 'B2', 'A1']",6.1,90,0,0.06801156752199779,[1800|0|0]
1800,1.3262170553207397,-0.3106023967266083,-0.00544547475874424,0.40820783376693726,0.8618371486663818,-0.07711891084909439,4.11328125,2,"['F2', 'B2', 'A1']",6.1,90,0,0.06854790542581207,[1900|0|0]
1900,1.3260749578475952,-0.31039270758628845,-0.005627354606986046,0.39944642782211304,0.8678298592567444,-0.06566621363162994,4.10546875,2,"['F2', 'B2', 'A1']",6.1,90,0,0.06885974113037233,[2000|0|0]
2000,1.326294183731079,-0.3103134334087372,-0.005499855149537325,0.3773789405822754,0.8548495173454285,-0.08748837560415268,4.11328125,2,"['F2', 'B2', 'A1']",6.1,90,0,0.06912544866670775,[2100|0|0]
2100,1.3261845111846924,-0.3101993501186371,-0.005270420573651791,0.3983677625656128,0.8716310858726501,-0.09947311878204346,4.11328125,2,"['F2', 'B2', 'A1']",6.1,90,0,0.0694041658874222,[2200|0|0]
2200,1.3261797428131104,-0.31034791469573975,-0.0055608744733035564,0.4224458932876587,0.8931540250778198,-0.10351452976465225,4.11328125,2,"['F2', 'B2', 'A1']",6.1,90,0,0.06973044435554437,[2300|0|0]
2300,1.3260046243667603,-0.31032904982566833,-0.0055680121295154095,0.42482128739356995,0.896390438079834,-0.13084712624549866,4.11328125,2,"['F2', 'B2', 'A1']",6.1,90,0,0.06990672055845072,[2400|0|0]
2400,1.3260728120803833,-0.3102124035358429,-0.005776263773441315,0.43327173590660095,0.9080924987792969,-0.13301275670528412,4.11328125,2,"['F2', 'B2', 'A1']",6.1,90,0,0.07015496372233851,[2500|0|0]
2500,1.3258427381515503,-0.30960434675216675,-0.005110041704028845,0.19766181707382202,0.7466916441917419,-0.1535235345363617,4.10546875,2,"['F2', 'B2', 'A1']",6.1,90,0,0.07108583369750984,[2600|0|0]
2600,1.325825810432434,-0.3097602128982544,-0.004899269435554743,0.25115346908569336,0.7916593551635742,-0.13947398960590363,4.11328125,2,"['F2', 'B2', 'A1']",6.1,90,0,0.07134852315738292,[2700|0|0]
2700,1.325574278831482,-0.310066819190979,-0.005315894261002541,0.2843065559864044,0.8207004070281982,-0.1400030553340912,4.10546875,2,"['F2', 'B2', 'A1']",6.1,90,0,0.07192372034982678,[2800|0|0]
2800,1.325588583946228,-0.3100090026855469,-0.005101884249597788,0.3008614182472229,0.8227114677429199,-0.11477374285459518,4.11328125,2,"['F2', 'B2', 'A1']",6.1,90,0,0.07214586370351926,[2900|0|0]
2900,1.3255130052566528,-0.3098240792751312,-0.005239538382738829,0.29883620142936707,0.8202679753303528,-0.10551945120096207,4.10546875,2,"['F2', 'B2', 'A1']",6.1,90,0,0.07238846928137861,[3000|0|0]
3000,1.3254915475845337,-0.310049444437027,-0.005570681765675545,0.32299402356147766,0.8385176062583923,-0.12397163361310959,4.11328125,2,"['F2', 'B2', 'A1']",6.1,90,0,0.0727895999682524,[3100|0|0]
3100,1.32541823387146,-0.3100709319114685,-0.005605555139482021,0.3250901401042938,0.8423706889152527,-0.10303782671689987,4.11328125,2,"['F2', 'B2', 'A1']",6.1,90,0,0.07287358070582466,[3200|0|0]
3200,1.3264034986495972,-0.31039679050445557,-0.005564079154282808,0.3448931574821472,0.8352497816085815,-0.10884495824575424,4.10546875,2,"['F2', 'B2', 'A1']",6.1,90,0,0.0739121618355442,[3300|0|0]
3300,1.3263078927993774,-0.31061261892318726,-0.0056994943879544735,0.3836596608161926,0.8615384697914124,-0.12638331949710846,4.11328125,2,"['F2', 'B2', 'A1']",6.1,90,0,0.07418430090006602,[3400|0|0]
3400,1.3261116743087769,-0.31048664450645447,-0.005753371398895979,0.40162378549575806,0.8823779821395874,-0.12122879177331924,4.11328125,2,"['F2', 'B2', 'A1']",6.1,90,0,0.0744236207321584,[3500|0|0]
3500,1.326163649559021,-0.3104435205459595,-0.005575581453740597,0.412705659866333,0.8853761553764343,-0.12063600867986679,4.11328125,2,"['F2', 'B2', 'A1']",6.1,90,0,0.07461380581886361,[3600|0|0]
3600,1.3259975910186768,-0.3102952241897583,-0.005724919028580189,0.41193312406539917,0.88322913646698,-0.13927817344665527,4.11328125,2,"['F2', 'B2', 'A1']",6.1,90,0,0.07488188968511217,[3700|0|0]
3700,1.3258031606674194,-0.31075620651245117,-0.005507366266101599,0.4302443265914917,0.8967715501785278,-0.11973237991333008,4.11328125,2,"['F2', 'B2', 'A1']",6.1,90,0,0.07542745092620928,[3800|0|0]
3800,1.3261183500289917,-0.3106733560562134,-0.005490337964147329,0.42064356803894043,0.8779357671737671,-0.12595133483409882,4.11328125,2,"['F2', 'B2', 'A1']",6.1,90,0,0.07575379199750523,[3900|0|0]
3900,1.325730562210083,-0.31073880195617676,-0.005493564065545797,0.43298211693763733,0.8912724256515503,-0.11747527122497559,4.11328125,2,"['F2', 'B2', 'A1']",6.1,90,0,0.07614707683836007,[4000|0|0]
4000,1.326068639755249,-0.31062403321266174,-0.005515283904969692,0.43959692120552063,0.887741208076477,-0.10981636494398117,4.11328125,2,"['F2', 'B2', 'A1']",6.1,90,0,0.076504763911733,[4100|0|0]
4100,0.0,0.0,0.0,0.0,0.0,0.0,4.11328125,2,"['F2', 'B2', 'A1']",6.1,90,0,1.4384797070396123,[4200|0|0]
4200,1.3245584964752197,-0.3100050389766693,-0.004621142987161875,-0.5049729943275452,0.9984204769134521,0.0010877193417400122,4.10546875,2,"['F2', 'B2', 'A1']",6.1,90,0,2.798839839408291,[4300|0|0]
4300,1.3256813287734985,-0.3100569546222687,-0.0024333340115845203,-0.8631834387779236,0.517091691493988,-0.028979506343603134,4.11328125,2,"['F2', 'B2', 'A1']",6.1,90,0,2.801299505181914,[4400|0|0]
4400,1.325989842414856,-0.3098507523536682,-0.0038300915621221066,-0.7797619104385376,0.5292438864707947,-0.007558527868241072,4.11328125,2,"['F2', 'B2', 'A1']",6.1,90,0,2.8027447150965847,[4500|0|0]
4500,1.32576584815979,-0.3097837269306183,-0.005093467887490988,-0.5300138592720032,0.6287555694580078,0.025842878967523575,4.11328125,2,"['F2', 'B2', 'A1']",6.1,90,0,2.8040295441019936,[4600|0|0]
4600,1.3262476921081543,-0.3096480071544647,-0.005136813037097454,-0.3226507008075714,0.651222288608551,-0.019082404673099518,4.11328125,2,"['F2', 'B2', 'A1']",6.1,90,0,2.8045320102702167,[4700|0|0]
4700,1.326221227645874,-0.30973121523857117,-0.005454953759908676,-0.13467180728912354,0.7273058891296387,-0.05400696396827698,4.10546875,2,"['F2', 'B2', 'A1']",6.1,90,0,2.804861915518031,[4800|0|0]
4800,1.326123833656311,-0.31016960740089417,-0.005218857899308205,0.019882597029209137,0.7878764271736145,-0.05246653035283089,4.11328125,2,"['F2', 'B2', 'A1']",6.1,90,0,2.8053692758757474,[4900|0|0]
4900,1.3260893821716309,-0.31032660603523254,-0.005456594284623861,0.11729872971773148,0.8227739930152893,-0.07240746170282364,4.11328125,2,"['F2', 'B2', 'A1']",6.1,90,0,2.8056562498552013,[5000|0|0]
5000,1.326271414756775,-0.3101424276828766,-0.005383386742323637,0.19093580543994904,0.838304340839386,-0.0784432664513588,4.11328125,2,"['F2', 'B2', 'A1']",6.1,90,0,2.805925353686056,[5100|0|0]
5100,1.3260999917984009,-0.31023329496383667,-0.005333904176950455,0.25899040699005127,0.8657387495040894,-0.07893045991659164,4.11328125,2,"['F2', 'B2', 'A1']",6.1,90,0,2.8061255816004,[5200|0|0]
5200,1.3261258602142334,-0.3103693425655365,-0.0055466690100729465,0.2953709661960602,0.8736178874969482,-0.07955899834632874,4.10546875,2,"['F2', 'B2', 'A1']",6.1,90,0,2.8063794457354794,[5300|0|0]
5300,1.3261266946792603,-0.3102208971977234,-0.005272783804684877,0.32617124915122986,0.8859788775444031,-0.09843332320451736,4.11328125,2,"['F2', 'B2', 'A1']",6.1,90,0,2.8066909739513566,[5400|0|0]
5400,1.3260233402252197,-0.3100363314151764,-0.005817401222884655,0.34863534569740295,0.8986362218856812,-0.11331389844417572,4.11328125,2,"['F2', 'B2', 'A1']",6.1,90,0,2.8072752297202315,[5500|0|0]
5500,1.3260046243667603,-0.31007492542266846,-0.005850431974977255,0.36566850543022156,0.8969873785972595,-0.11922657489776611,4.11328125,2,"['F2', 'B2', 'A1']",6.1,90,0,2.8073293666887094,[5600|0|0]
5600,1.3260844945907593,-0.31030434370040894,-0.005321555770933628,0.38814207911491394,0.9027025103569031,-0.1310165524482727,4.11328125,2,"['F2', 'B2', 'A1']",6.1,90,0,2.80791136500318,[5700|0|0]
5700,1.325897455215454,-0.3102242946624756,-0.00567786768078804,0.39994633197784424,0.9075014591217041,-0.136287122964859,4.11328125,2,"['F2', 'B2', 'A1']",6.1,90,0,2.808321669467563,[5800|0|0]
5800,1.326157808303833,-0.3102599084377289,-0.005403697490692139,0.41504403948783875,0.9061704277992249,-0.11965694278478622,4.11328125,2,"['F2', 'B2', 'A1']",6.1,90,0,2.808701434348448,[5900|0|0]
5900,1.3261357545852661,-0.31044596433639526,-0.00558822276070714,0.4303582012653351,0.9078941941261292,-0.1234837993979454,4.11328125,2,"['F2', 'B2', 'A1']",6.1,90,0,2.8089644034325727,[6000|0|0]
6000,1.3261991739273071,-0.3103357255458832,-0.005214294884353876,0.4321153163909912,0.9022746682167053,-0.11707811057567596,4.11328125,2,"['F2', 'B2', 'A1']",6.1,90,0,2.809359367558276,[6100|0|0]
6100,1.3260571956634521,-0.3102585971355438,-0.005637015216052532,0.4398971498012543,0.9139788150787354,-0.1318138837814331,4.11328125,2,"['F2', 'B2', 'A1']",6.1,90,0,2.8098119149015672,[6200|0|0]
6200,1.3260101079940796,-0.3104371428489685,-0.0057423170655965805,0.4495314359664917,0.9170958399772644,-0.15105117857456207,4.10546875,2,"['F2', 'B2', 'A1']",6.1,90,0,2.8100244808911015,[6300|0|0]
6300,1.3260729312896729,-0.31045663356781006,-0.005384477321058512,0.454728364944458,0.9122365117073059,-0.13718187808990479,4.11328125,2,"['F2', 'B2', 'A1']",6.1,90,0,2.8103883159325163,[6400|0|0]
6400,1.3262085914611816,-0.3101872205734253,-0.0056083230301737785,0.4537462890148163,0.9097655415534973,-0.12680283188819885,4.11328125,2,"['F2', 'B2', 'A1']",6.1,90,0,2.8107639406723384,[6500|0|0]
6500,1.3259063959121704,-0.31061506271362305,-0.005880128592252731,0.4746072590351105,0.9167913794517517,-0.13192252814769745,4.11328125,2,"['F2', 'B2', 'A1']",6.1,90,0,2.811354067192966,[6600|0|0]
6600,1.326338291168213,-0.3104337453842163,-0.005694285500794649,0.46260419487953186,0.9002047181129456,-0.13141925632953644,4.11328125,2,"['F2', 'B2', 'A1']",6.1,90,0,2.8118579988756154,[6700|0|0]
6700,1.3259329795837402,-0.31042400002479553,-0.005454059690237045,0.4585358202457428,0.9042635560035706,-0.13474418222904205,4.10546875,2,"['F2', 'B2', 'A1']",6.1,90,0,2.8123292534698594,[6800|0|0]
6800,1.3262693881988525,-0.31035006046295166,-0.005315438378602266,0.4549095630645752,0.8921633958816528,-0.12383503466844559,4.10546875,2,"['F2', 'B2', 'A1']",6.1,90,0,2.8127005399942133,[6900|0|0]
6900,1.325822114944458,-0.3102225661277771,-0.005772086791694164,0.4532358646392822,0.9025270342826843,-0.10830563306808472,4.11328125,2,"['F2', 'B2', 'A1']",6.1,90,0,2.8133523343964426,[7000|0|0]
7000,1.326104760169983,-0.31018927693367004,-0.0056195687502622604,0.4531838893890381,0.9032886028289795,-0.12651236355304718,4.11328125,2,"['F2', 'B2', 'A1']",6.1,90,0,2.813675224852973,[7100|0|0]
7100,1.3258936405181885,-0.31032073497772217,-0.0059150876477360725,0.45748716592788696,0.9106062054634094,-0.12020095437765121,4.10546875,2,"['F2', 'B2', 'A1']",6.1,90,0,2.8140614684852623,[7200|0|0]
7200,1.326690673828125,-0.31060299277305603,-0.005595592316240072,0.4558209180831909,0.8998002409934998,-0.1498432457447052,4.10546875,2,"['F2', 'B2', 'A1']",6.1,90,0,2.8149653538911754,[7300|0|0]
7300,1.3256428241729736,-0.31018394231796265,-0.0057485150173306465,0.22729510068893433,0.7500579357147217,-0.13381649553775787,4.11328125,2,"['F2', 'B2', 'A1']",6.1,90,0,2.8161042031069297,[7400|0|0]
7400,1.3260351419448853,-0.3104092478752136,-0.005422662477940321,0.2765420973300934,0.7627761960029602,-0.15278573334217072,4.11328125,2,"['F2', 'B2', 'A1']",6.1,90,0,2.816661747460065,[7500|0|0]
7500,1.3259906768798828,-0.3106595277786255,-0.005660553928464651,0.4725729823112488,0.8873189091682434,-0.16011077165603638,4.11328125,2,"['F2', 'B2', 'A1']",6.1,90,0,2.8170098990280494,[7600|0|0]
7600,1.3260135650634766,-0.3108423054218292,-0.005648279096931219,0.4643661379814148,0.8824583888053894,-0.14273276925086975,4.11328125,2,"['F2', 'B2', 'A1']",6.1,90,0,2.8171945126984332,[7700|0|0]
7700,1.3259730339050293,-0.31064820289611816,-0.0055974810384213924,0.446978896856308,0.8721608519554138,-0.13547112047672272,4.10546875,2,"['F2', 'B2', 'A1']",6.1,90,0,2.8173992051703047,[7800|0|0]
7800,1.3259705305099487,-0.31032463908195496,-0.005777312442660332,0.4223632216453552,0.857536792755127,-0.1485382616519928,4.11328125,2,"['F2', 'B2', 'A1']",6.1,90,0,2.817769393153326,[7900|0|0]
7900,1.326134443283081,-0.3105677366256714,-0.0055215549655258656,0.42758992314338684,0.8601133227348328,-0.15569686889648438,4.11328125,2,"['F2', 'B2', 'A1']",6.1,90,0,2.8181584634555428,[8000|0|0]
8000,1.3260550498962402,-0.310672402381897,-0.00566599378362298,0.42643511295318604,0.864612877368927,-0.14078527688980103,4.10546875,2,"['F2', 'B2', 'A1']",6.1,90,0,2.8183537089486372,[8100|0|0]
8100,1.3262258768081665,-0.3104897141456604,-0.005228715017437935,0.4245297312736511,0.862769365310669,-0.12544924020767212,4.11328125,2,"['F2', 'B2', 'A1']",6.1,90,0,2.8188574643901503,[8200|0|0]
8200,1.325754165649414,-0.31064116954803467,-0.0056663150899112225,0.4266332983970642,0.8773841857910156,-0.09602980315685272,4.10546875,2,"['F2', 'B2', 'A1']",6.1,90,0,2.819518481772394,[8300|0|0]
8300,1.326205849647522,-0.3106801211833954,-0.005227773915976286,0.426207572221756,0.86736661195755,-0.08161791414022446,4.11328125,2,"['F2', 'B2', 'A1']",6.1,90,0,2.820149238480864,[8400|0|0]
8400,1.3258510828018188,-0.31069275736808777,-0.005767345428466797,0.4254125952720642,0.8822246789932251,-0.08400991559028625,4.11328125,2,"['F2', 'B2', 'A1']",6.1,90,0,2.820795115098389,[8500|0|0]
8500,1.3173439502716064,-0.3206217586994171,-0.009441581554710865,0.735090970993042,1.1021708250045776,-0.1105947196483612,4.11328125,2,"['F2', 'B2', 'A1']",6.1,90,0,2.8343765871259543,[8600|0|0]
8600,1.3260585069656372,-0.3105613589286804,-0.005638195667415857,0.40968871116638184,0.8762451410293579,-0.07649128139019012,4.11328125,2,"['F2', 'B2', 'A1']",6.1,90,0,2.8482193067333217,[8700|0|0]
8700,1.3260904550552368,-0.3103903532028198,-0.0056332009844481945,0.40066418051719666,0.8706781268119812,-0.09543817490339279,4.10546875,2,"['F2', 'B2', 'A1']",6.1,90,0,2.8483933428949784,[8800|0|0]
8800,1.325936198234558,-0.31028035283088684,-0.005784777924418449,0.4033550024032593,0.8791365623474121,-0.10907239466905594,4.11328125,2,"['F2', 'B2', 'A1']",6.1,90,0,2.8486359759868725,[8900|0|0]
8900,1.3182134628295898,-0.3202320337295532,-0.00960095226764679,0.717659592628479,1.102447748184204,-0.1224626824259758,4.11328125,2,"['F2', 'B2', 'A1']",6.1,90,0,2.8617980343920744,[9000|0|0]
9000,1.3255746364593506,-0.3108954429626465,-0.005685171112418175,0.547273576259613,0.9801213145256042,-0.0935916006565094,4.11328125,2,"['F2', 'B2', 'A1']",6.1,90,0,2.8743157077546373,[9100|0|0]
9100,1.3258249759674072,-0.3106543719768524,-0.005602609366178513,0.5158150792121887,0.9586750268936157,-0.09577032923698425,4.10546875,2,"['F2', 'B2', 'A1']",6.1,90,0,2.874672921320208,[9200|0|0]
9200,1.3180919885635376,-0.3204210698604584,-0.009125142358243465,0.6803481578826904,1.0585955381393433,-0.12257284671068192,4.10546875,2,"['F2', 'B2', 'A1']",6.1,90,0,2.887618797899962,[9300|0|0]
9300,1.3183774948120117,-0.3201489746570587,-0.009111820720136166,0.6559441685676575,1.0370855331420898,-0.12746869027614594,4.11328125,2,"['F2', 'B2', 'A1']",6.1,90,0,2.8880134206105,[9400|0|0]
9400,1.3184075355529785,-0.32037222385406494,-0.009314180351793766,0.6388083100318909,1.0171911716461182,-0.12275957316160202,4.11328125,2,"['F2', 'B2', 'A1']",6.1,90,0,2.888316227596229,[9500|0|0]
9500,1.3182677030563354,-0.31990543007850647,-0.00921073742210865,0.618632972240448,1.0174721479415894,-0.1274939924478531,4.10546875,2,"['F2', 'B2', 'A1']",6.1,90,0,2.8888143741567105,[9600|0|0]
9600,1.3184260129928589,-0.32049351930618286,-0.00927343126386404,0.6344833374023438,1.0151137113571167,-0.13405056297779083,4.11328125,2,"['F2', 'B2', 'A1']",6.1,90,0,2.8894266171587164,[9700|0|0]
9700,1.3184077739715576,-0.32015201449394226,-0.009159807115793228,0.6395336985588074,1.0173876285552979,-0.13666683435440063,4.11328125,2,"['F2', 'B2', 'A1']",6.1,90,0,2.889786990084595,[9800|0|0]
9800,1.31831955909729,-0.32003894448280334,-0.009233992546796799,0.6207454800605774,1.0155200958251953,-0.14610804617404938,4.11328125,2,"['F2', 'B2', 'A1']",6.1,90,0,2.88994845267975,[9900|0|0]
9900,1.3184220790863037,-0.3202681839466095,-0.009288407862186432,0.6236940622329712,1.0124125480651855,-0.1262960135936737,4.11328125,2,"['F2', 'B2', 'A1']",6.1,90,0,2.8902054003523654,[10000|0|0]
10000,1.3185127973556519,-0.32041677832603455,-0.009022839367389679,0.630932092666626,1.017805814743042,-0.11529457569122314,4.11328125,2,"['F2', 'B2', 'A1']",6.1,90,0,2.8905229483320767,[10100|0|0]
10100,1.3182095289230347,-0.32020944356918335,-0.00907249003648758,0.6231229901313782,1.0267612934112549,-0.11581729352474213,4.10546875,2,"['F2', 'B2', 'A1']",6.1,90,0,2.8908936566170698,[10200|0|0]
10200,1.3184057474136353,-0.31999802589416504,-0.009124089032411575,0.6252098679542542,1.0247867107391357,-0.12885701656341553,4.10546875,2,"['F2', 'B2', 'A1']",6.1,90,0,2.8911866780936615,[10300|0|0]
10300,1.3184962272644043,-0.32020366191864014,-0.009366659447550774,0.6305439472198486,1.0157392024993896,-0.14162756502628326,4.11328125,2,"['F2', 'B2', 'A1']",6.1,90,0,2.8915173035377184,[10400|0|0]
10401,1.3184058666229248,-0.32008096575737,-0.009431974031031132,0.640363872051239,1.0216573476791382,-0.1480664163827896,4.11328125,2,"['F2', 'B2', 'A1']",6.1,90,0,2.8916830907155524,[10500|0|0]
10500,1.3181153535842896,-0.32003241777420044,-0.009528122842311859,0.6454296708106995,1.0258537530899048,-0.12560582160949707,4.11328125,2,"['F2', 'B2', 'A1']",6.1,90,0,2.8919929282959034,[10600|0|0]
10601,1.3177189826965332,-0.3199503719806671,-0.00881614163517952,0.5347205996513367,0.96016925573349,-0.13898225128650665,4.11328125,2,"['F2', 'B2', 'A1']",6.1,90,0,2.892811926850363,[10700|0|0]
10701,1.3175362348556519,-0.3198168873786926,-0.009433181025087833,0.5659126043319702,0.9889121651649475,-0.13681243360042572,4.10546875,2,"['F2', 'B2', 'A1']",6.1,90,0,2.8934691577998852,[10800|0|0]
10801,1.317687749862671,-0.3202643394470215,-0.009227036498486996,0.6047857403755188,1.002062201499939,-0.11630569398403168,4.11328125,2,"['F2', 'B2', 'A1']",6.1,90,0,2.8939845855025275,[10900|0|0]
10901,1.3175753355026245,-0.31999802589416504,-0.00925476010888815,0.6067410707473755,1.012576699256897,-0.10931681096553802,4.11328125,2,"['F2', 'B2', 'A1']",6.1,90,0,2.8942749791928057,[11000|0|0]
11001,1.3176329135894775,-0.32025977969169617,-0.009405305609107018,0.6191644072532654,1.0112037658691406,-0.11455759406089783,4.10546875,2,"['F2', 'B2', 'A1']",6.1,90,0,2.8945823783376383,[11100|0|0]
11101,1.3174598217010498,-0.3201032280921936,-0.009299849160015583,0.6179273724555969,1.0237998962402344,-0.1086801066994667,4.11328125,2,"['F2', 'B2', 'A1']",6.1,90,0,2.894838484307505,[11200|0|0]
11201,1.317801594734192,-0.32062476873397827,-0.008914219215512276,0.6308282613754272,1.0180909633636475,-0.09488068521022797,4.10546875,2,"['F2', 'B2', 'A1']",6.1,90,0,2.895571644522815,[11300|0|0]
11301,1.3176628351211548,-0.3202938735485077,-0.009129649959504604,0.6266238689422607,1.0259073972702026,-0.1254073977470398,4.10546875,2,"['F2', 'B2', 'A1']",6.1,90,0,2.8959901612601566,[11400|0|0]
11401,1.3176743984222412,-0.32035741209983826,-0.009147821925580502,0.6373786330223083,1.0321555137634277,-0.14275090396404266,4.11328125,2,"['F2', 'B2', 'A1']",6.1,90,0,2.89605725133236,[11500|0|0]
11502,1.3173717260360718,-0.320111483335495,-0.009297693148255348,0.632434606552124,1.0404201745986938,-0.13472211360931396,4.11328125,2,"['F2', 'B2', 'A1']",6.1,90,0,2.8964750466337543,[11600|0|0]
11602,1.3173255920410156,-0.3200400769710541,-0.009293511509895325,0.6288080811500549,1.034632682800293,-0.10885821282863617,4.10546875,2,"['F2', 'B2', 'A1']",6.1,90,0,2.896560162440053,[11700|0|0]
11700,1.3175638914108276,-0.3199853003025055,-0.009387196972966194,0.622550904750824,1.0212560892105103,-0.12656845152378082,4.10546875,2,"['F2', 'B2', 'A1']",6.1,90,0,2.896822009798376,[11800|0|0]
11800,1.3173969984054565,-0.32018351554870605,-0.00940019078552723,0.6319206953048706,1.0224467515945435,-0.11387508362531662,4.10546875,2,"['F2', 'B2', 'A1']",6.1,90,0,2.897081454201347,[11900|0|0]
11902,1.3176779747009277,-0.32037368416786194,-0.00902088824659586,0.6315735578536987,1.0087014436721802,-0.09692744165658951,4.11328125,2,"['F2', 'B2', 'A1']",6.1,90,0,2.897590357137444,[12000|0|0]
12002,1.3176041841506958,-0.3202214241027832,-0.009362466633319855,0.631074070930481,1.0106744766235352,-0.1156892478466034,4.11328125,2,"['F2', 'B2', 'A1']",6.1,90,0,2.897971544712003,[12100|0|0]
12100,1.3176711797714233,-0.3204379379749298,-0.00884715560823679,0.6390230655670166,1.010771632194519,-0.11309222131967545,4.10546875,2,"['F2', 'B2', 'A1']",6.1,90,0,2.898534494196949,[12200|0|0]
12200,1.317573070526123,-0.32020094990730286,-0.009149376302957535,0.6268417835235596,1.0126972198486328,-0.12992225587368011,4.10546875,2,"['F2', 'B2', 'A1']",6.1,90,0,2.8989308855648273,[12300|0|0]
12302,1.3183841705322266,-0.3202488422393799,-0.009039635770022869,0.6535655856132507,1.033023715019226,-0.12228997051715851,4.11328125,2,"['F2', 'B2', 'A1']",6.1,90,0,2.899750775728167,[12400|0|0]
12400,1.3184232711791992,-0.3205309808254242,-0.009413723833858967,0.6840579509735107,1.0509202480316162,-0.1428993046283722,4.10546875,2,"['F2', 'B2', 'A1']",6.1,90,0,2.9002209596515773,[12500|0|0]
12500,1.3183059692382812,-0.32019880414009094,-0.009387873113155365,0.6929363012313843,1.0703476667404175,-0.14698515832424164,4.10546875,2,"['F2', 'B2', 'A1']",6.1,90,0,2.9005741867108226,[12600|0|0]
12600,1.3184927701950073,-0.32065632939338684,-0.00904091726988554,0.7174031734466553,1.076690673828125,-0.14285503327846527,4.11328125,2,"['F2', 'B2', 'A1']",6.1,90,0,2.9011780097908852,[12700|0|0]
12700,1.3182547092437744,-0.32036352157592773,-0.009335429407656193,0.7099510431289673,1.0877461433410645,-0.13781176507472992,4.10546875,2,"['F2', 'B2', 'A1']",6.1,90,0,2.9016567026295212,[12800|0|0]
12800,1.3183479309082031,-0.32034924626350403,-0.009041428565979004,0.7144253253936768,1.089095115661621,-0.1317967176437378,4.11328125,2,"['F2', 'B2', 'A1']",6.1,90,0,2.901965459100175,[12900|0|0]
12900,1.3184407949447632,-0.3205796182155609,-0.009116887114942074,0.718557596206665,1.094763159751892,-0.12520277500152588,4.11328125,2,"['F2', 'B2', 'A1']",6.1,90,0,2.902225052933292,[13000|0|0]
13000,1.3183025121688843,-0.32017481327056885,-0.00969386100769043,0.7126069664955139,1.1070927381515503,-0.15154975652694702,4.11328125,2,"['F2', 'B2', 'A1']",6.1,90,0,2.9029433064000485,[13100|0|0]
13100,1.3182744979858398,-0.32030004262924194,-0.009347867220640182,0.7194184064865112,1.1084308624267578,-0.1323625147342682,4.10546875,2,"['F2', 'B2', 'A1']",6.1,90,0,2.9033123306369255,[13200|0|0]
13200,1.3182510137557983,-0.3202168047428131,-0.009406565688550472,0.7229441404342651,1.1133508682250977,-0.13934433460235596,4.10546875,2,"['F2', 'B2', 'A1']",6.1,90,0,2.9034168560641325,[13300|0|0]
13300,1.3184202909469604,-0.320421427488327,-0.009001071564853191,0.7414137721061707,1.1099634170532227,-0.11686978489160538,4.11328125,2,"['F2', 'B2', 'A1']",6.1,90,0,2.903901573218546,[13400|0|0]
13400,1.318228840827942,-0.32038089632987976,-0.00953702162951231,0.7372646927833557,1.1163736581802368,-0.1097915917634964,4.10546875,2,"['F2', 'B2', 'A1']",6.1,90,0,2.9044721329390706,[13500|0|0]
13500,1.3185176849365234,-0.32071197032928467,-0.009300565347075462,0.7369884848594666,1.108428716659546,-0.09673132002353668,4.11328125,2,"['F2', 'B2', 'A1']",6.1,90,0,2.9049710843251275,[13600|0|0]
13600,1.3183249235153198,-0.3203762471675873,-0.009263667277991772,0.7244522571563721,1.1172676086425781,-0.10052663087844849,4.11328125,2,"['F2', 'B2', 'A1']",6.1,90,0,2.905359965379316,[13700|0|0]
13700,1.3181073665618896,-0.3202402591705322,-0.009428524412214756,0.7135513424873352,1.1082475185394287,-0.0841844454407692,4.10546875,2,"['F2', 'B2', 'A1']",6.1,90,0,2.905664927078605,[13800|0|0]
13800,1.3183891773223877,-0.31973034143447876,-0.009359221905469894,0.5588357448577881,0.9791915416717529,-0.1153687834739685,4.10546875,2,"['F2', 'B2', 'A1']",6.1,90,0,2.906251643568671,[13900|0|0]
13900,1.3183887004852295,-0.31992918252944946,-0.009316784329712391,0.6027774214744568,0.9937177896499634,-0.13326171040534973,4.11328125,2,"['F2', 'B2', 'A1']",6.1,90,0,2.9064549634060186,[14000|0|0]
14000,1.318433403968811,-0.3200127184391022,-0.00892076175659895,0.6283984184265137,1.005645751953125,-0.13633538782596588,4.10546875,2,"['F2', 'B2', 'A1']",6.1,90,0,2.9068621617950887,[14100|0|0]
14100,1.318467378616333,-0.3200991451740265,-0.009400397539138794,0.6484652161598206,1.0117583274841309,-0.16517159342765808,4.11328125,2,"['F2', 'B2', 'A1']",6.1,90,0,2.907350704875151,[14200|0|0]
14200,1.3182281255722046,-0.3200680613517761,-0.009414909407496452,0.6607248187065125,1.0208255052566528,-0.15389782190322876,4.10546875,2,"['F2', 'B2', 'A1']",6.1,90,0,2.9075924047250754,[14300|0|0]
14300,1.3184083700180054,-0.3201926052570343,-0.009396161884069443,0.6700093746185303,1.0245935916900635,-0.1581643670797348,4.10546875,2,"['F2', 'B2', 'A1']",6.1,90,0,2.9078122926833943,[14400|0|0]
14400,1.3182826042175293,-0.32023367285728455,-0.009311571717262268,0.6705940961837769,1.0305466651916504,-0.1432875543832779,4.11328125,2,"['F2', 'B2', 'A1']",6.1,90,0,2.9079693247841893,[14500|0|0]
14500,1.318314790725708,-0.3203124403953552,-0.009274209849536419,0.6704855561256409,1.038314938545227,-0.14031825959682465,4.11328125,2,"['F2', 'B2', 'A1']",6.1,90,0,2.9080622559712173,[14600|0|0]
14600,1.3185285329818726,-0.3202879726886749,-0.008867278695106506,0.6646502614021301,1.0336192846298218,-0.1361646056175232,4.10546875,2,"['F2', 'B2', 'A1']",6.1,90,0,2.9085225573781086,[14700|0|0]
14700,1.318295955657959,-0.3201254606246948,-0.009535450488328934,0.6646052002906799,1.0438016653060913,-0.12493036687374115,4.10546875,2,"['F2', 'B2', 'A1']",6.1,90,0,2.909248474679043,[14800|0|0]
14800,1.3183327913284302,-0.32014206051826477,-0.009327474981546402,0.6559922695159912,1.0369441509246826,-0.1280253678560257,4.11328125,2,"['F2', 'B2', 'A1']",6.1,90,0,2.9094603383958684,[14900|0|0]
14900,1.3182904720306396,-0.3201408386230469,-0.009304177016019821,0.6639376878738403,1.0389493703842163,-0.12694714963436127,4.10546875,2,"['F2', 'B2', 'A1']",6.1,90,0,2.9095086624187876,[15000|0|0]
15000,1.3184136152267456,-0.3205902576446533,-0.009409663267433643,0.6676215529441833,1.0330456495285034,-0.1610792577266693,4.10546875,2,"['F2', 'B2', 'A1']",6.1,90,0,2.9099864375258893,[15100|0|0]
15100,1.3183702230453491,-0.3202287554740906,-0.00895961094647646,0.6587026119232178,1.037071943283081,-0.13885733485221863,4.10546875,2,"['F2', 'B2', 'A1']",6.1,90,0,2.9105653276642807,[15200|0|0]
15200,1.3183218240737915,-0.3204503059387207,-0.009564705193042755,0.6603888869285583,1.0355408191680908,-0.13127343356609344,4.10546875,2,"['F2', 'B2', 'A1']",6.1,90,0,2.911211521223559,[15300|0|0]
15300,1.318291425704956,-0.32026782631874084,-0.009119873866438866,0.646658182144165,1.0289254188537598,-0.13057221472263336,4.10546875,2,"['F2', 'B2', 'A1']",6.1,90,0,2.911693286500083,[15400|0|0]
15400,1.3177580833435059,-0.3200361728668213,-0.00915127620100975,0.5337982773780823,0.9673575162887573,-0.15280938148498535,4.10546875,2,"['F2', 'B2', 'A1']",6.1,90,0,2.912275612442249,[15500|0|0]
15500,1.3177473545074463,-0.32006075978279114,-0.009226247668266296,0.5664049983024597,0.9838273525238037,-0.14874732494354248,4.10546875,2,"['F2', 'B2', 'A1']",6.1,90,0,2.912355238727248,[15600|0|0]
15600,1.318347454071045,-0.32012906670570374,-0.009324666112661362,0.591914176940918,0.9991145730018616,-0.16006335616111755,4.10546875,2,"['F2', 'B2', 'A1']",6.1,90,0,2.9129671795022793,[15700|0|0]
15700,1.318129301071167,-0.31996557116508484,-0.009433879517018795,0.6388707160949707,1.0311096906661987,-0.14794670045375824,4.10546875,2,"['F2', 'B2', 'A1']",6.1,90,0,2.9132608614575464,[15800|0|0]
15800,1.3183611631393433,-0.32012251019477844,-0.00936689879745245,0.6842480301856995,1.0580013990402222,-0.16215458512306213,4.10546875,2,"['F2', 'B2', 'A1']",6.1,90,0,2.9135487438892675,[15900|0|0]
15900,1.3184236288070679,-0.32031452655792236,-0.009168085642158985,0.7226155400276184,1.0941039323806763,-0.16575151681900024,4.10546875,2,"['F2', 'B2', 'A1']",6.1,90,0,2.9138321145194976,[16000|0|0]
16000,1.3185008764266968,-0.3199467658996582,-0.009588330052793026,0.7276764512062073,1.1000580787658691,-0.15701456367969513,4.10546875,2,"['F2', 'B2', 'A1']",6.1,90,0,2.9143958701945682,[16100|0|0]
16100,1.318389654159546,-0.3199247419834137,-0.009279856458306313,0.5827006697654724,0.9789060950279236,-0.14563903212547302,4.10546875,2,"['F2', 'B2', 'A1']",6.1,90,0,2.9147245210793873,[16200|0|0]
16200,1.3186607360839844,-0.32013624906539917,-0.009096662513911724,0.6211947202682495,1.0008859634399414,-0.13789060711860657,4.10546875,2,"['F2', 'B2', 'A1']",6.1,90,0,2.915114111475509,[16300|0|0]
16300,1.3187439441680908,-0.3199092745780945,-0.009226160123944283,0.6423898339271545,1.0243630409240723,-0.13263635337352753,4.11328125,2,"['F2', 'B2', 'A1']",6.1,90,0,2.9153883570482204,[16400|0|0]
16400,1.3184692859649658,-0.32039475440979004,-0.008992151357233524,0.6677575707435608,1.039602279663086,-0.12124989926815033,4.10546875,2,"['F2', 'B2', 'A1']",6.1,90,0,2.915993243730521,[16500|0|0]
16500,1.3183406591415405,-0.3201128840446472,-0.00914904847741127,0.6661267876625061,1.043959140777588,-0.11478671431541443,4.10546875,2,"['F2', 'B2', 'A1']",6.1,90,0,2.9163405367894355,[16600|0|0]
16600,1.3184146881103516,-0.32022932171821594,-0.00937721785157919,0.6933847665786743,1.0537889003753662,-0.13356874883174896,4.10546875,2,"['F2', 'B2', 'A1']",6.1,90,0,2.916607181278142,[16700|0|0]
16700,1.3184300661087036,-0.32041996717453003,-0.0091032013297081,0.6975721716880798,1.0505214929580688,-0.13518212735652924,4.10546875,2,"['F2', 'B2', 'A1']",6.1,90,0,2.9169413477443005,[16800|0|0]
16800,1.318200707435608,-0.32017621397972107,-0.008927098475396633,0.5842753648757935,0.9980239868164062,-0.12410122156143188,4.10546875,2,"['F2', 'B2', 'A1']",6.1,90,0,2.917319545095164,[16900|0|0]
16900,1.3184083700180054,-0.3198745548725128,-0.00930472370237112,0.5892108678817749,0.9945254325866699,-0.1290728896856308,4.10546875,2,"['F2', 'B2', 'A1']",6.1,90,0,2.9178455895582442,[17000|0|0]
17000,1.31845223903656,-0.32012125849723816,-0.009462996385991573,0.6173917651176453,1.0147123336791992,-0.13142044842243195,4.10546875,2,"['F2', 'B2', 'A1']",6.1,90,0,2.9181419633283756,[17100|0|0]
17100,1.3184093236923218,-0.32014191150665283,-0.009211452677845955,0.6328827142715454,1.0305708646774292,-0.13039326667785645,4.10546875,2,"['F2', 'B2', 'A1']",6.1,90,0,2.918397976044225,[17200|0|0]
17200,1.3183543682098389,-0.32038572430610657,-0.008915991522371769,0.6518636345863342,1.0371891260147095,-0.11995336413383484,4.10546875,2,"['F2', 'B2', 'A1']",6.1,90,0,2.918784967104363,[17300|0|0]
17300,1.3183581829071045,-0.32019320130348206,-0.00923412200063467,0.6423171758651733,1.0334328413009644,-0.1383659839630127,4.10546875,2,"['F2', 'B2', 'A1']",6.1,90,0,2.91915683624755,[17400|0|0]
17400,1.3184494972229004,-0.32007870078086853,-0.00926817674189806,0.6428426504135132,1.0425496101379395,-0.1362559199333191,4.10546875,2,"['F2', 'B2', 'A1']",6.1,90,0,2.9193071971445628,[17500|0|0]
17500,1.3185797929763794,-0.3202851116657257,-0.00907126720994711,0.7028628587722778,1.0680497884750366,-0.1321447491645813,4.10546875,2,"['F2', 'B2', 'A1']",6.1,90,0,2.9196208144281033,[17600|0|0]
17600,1.3184272050857544,-0.32034024596214294,-0.009397737681865692,0.7272119522094727,1.0875637531280518,-0.14470691978931427,4.10546875,2,"['F2', 'B2', 'A1']",6.1,90,0,2.919985376938575,[17700|0|0]
17700,1.3182954788208008,-0.3201468586921692,-0.009277808479964733,0.7385942339897156,1.101719856262207,-0.1575915813446045,4.10546875,2,"['F2', 'B2', 'A1']",6.1,90,0,2.9202483093605682,[17800|0|0]
17800,1.3183257579803467,-0.32042956352233887,-0.009344399906694889,0.7493572235107422,1.1086325645446777,-0.17864032089710236,4.10546875,2,"['F2', 'B2', 'A1']",6.1,90,0,2.9205403252276336,[17900|0|0]
17900,1.3182655572891235,-0.3203316032886505,-0.009183689020574093,0.7623639702796936,1.1138840913772583,-0.1702241152524948,4.10546875,2,"['F2', 'B2', 'A1']",6.1,90,0,2.9207379317040605,[18000|0|0]
18000,1.3180655241012573,-0.32020771503448486,-0.009658905677497387,0.7613139748573303,1.1226578950881958,-0.15036852657794952,4.10546875,2,"['F2', 'B2', 'A1']",6.1,90,0,2.921268207525483,[18100|0|0]
18100,1.3184230327606201,-0.3206550180912018,-0.009016959927976131,0.7712494730949402,1.114304542541504,-0.12923945486545563,4.11328125,2,"['F2', 'B2', 'A1']",6.1,90,0,2.9221284323864327,[18200|0|0]
18200,1.318298101425171,-0.3205912709236145,-0.009278758428990841,0.7604233622550964,1.1210367679595947,-0.12767240405082703,4.10546875,2,"['F2', 'B2', 'A1']",6.1,90,0,2.922425434061657,[18300|0|0]
18300,1.3181849718093872,-0.3201758861541748,-0.009339683689177036,0.7368568778038025,1.111775279045105,-0.11035069823265076,4.10546875,2,"['F2', 'B2', 'A1']",6.1,90,0,2.9228602382750433,[18400|0|0]
18400,1.3183472156524658,-0.3203987181186676,-0.009113616310060024,0.7413272857666016,1.1110749244689941,-0.11310109496116638,4.10546875,2,"['F2', 'B2', 'A1']",6.1,90,0,2.923216726155507,[18500|0|0]
18500,1.3183141946792603,-0.3205588757991791,-0.009212568402290344,0.7411864399909973,1.1075668334960938,-0.11965551972389221,4.10546875,2,"['F2', 'B2', 'A1']",6.1,90,0,2.923407860620884,[18600|0|0]
18600,1.3182835578918457,-0.32030120491981506,-0.009451114572584629,0.7306331992149353,1.1073880195617676,-0.13012373447418213,4.10546875,2,"['F2', 'B2', 'A1']",6.1,90,0,2.9237603335562667,[18700|0|0]
18700,1.318406105041504,-0.32049378752708435,-0.009235228411853313,0.7313491106033325,1.1009620428085327,-0.14462976157665253,4.10546875,2,"['F2', 'B2', 'A1']",6.1,90,0,2.9240745193275983,[18800|0|0]
18800,1.3184324502944946,-0.3205152750015259,-0.009021669626235962,0.7295500040054321,1.0998141765594482,-0.13342171907424927,4.10546875,2,"['F2', 'B2', 'A1']",6.1,90,0,2.9242907671919287,[18900|0|0]
18900,1.3184826374053955,-0.32047238945961,-0.009054115042090416,0.7220023274421692,1.1052924394607544,-0.12033554911613464,4.11328125,2,"['F2', 'B2', 'A1']",6.1,90,0,2.924364324114213,[19000|0|0]
19000,1.3182761669158936,-0.3203204274177551,-0.009170744568109512,0.725659966468811,1.117607593536377,-0.10034715384244919,4.10546875,2,"['F2', 'B2', 'A1']",6.1,90,0,2.9246459710057975,[19100|0|0]
19100,1.3183181285858154,-0.32057878375053406,-0.009271368384361267,0.7282536625862122,1.121361494064331,-0.09428371489048004,4.10546875,2,"['F2', 'B2', 'A1']",6.1,90,0,2.924926388424705,[19200|0|0]
19200,1.318472146987915,-0.32064512372016907,-0.008899903856217861,0.7234101891517639,1.1195415258407593,-0.07986361533403397,4.10546875,2,"['F2', 'B2', 'A1']",6.1,90,0,2.9253339525980877,[19300|0|0]
19300,1.3181555271148682,-0.32033905386924744,-0.009511577896773815,0.7142952680587769,1.122820258140564,-0.11096947640180588,4.10546875,2,"['F2', 'B2', 'A1']",6.1,90,0,2.9260876581304687,[19400|0|0]
19400,1.3182815313339233,-0.3205496668815613,-0.009200848639011383,0.7260032296180725,1.1265132427215576,-0.11160411685705185,4.10546875,2,"['F2', 'B2', 'A1']",6.1,90,0,2.9264836222397075,[19500|0|0]
19500,1.3184927701950073,-0.32064729928970337,-0.009036452509462833,0.7402511239051819,1.1315956115722656,-0.1001870334148407,4.10546875,2,"['F2', 'B2', 'A1']",6.1,90,0,2.9267685433357364,[19600|0|0]
19600,1.3181592226028442,-0.32041552662849426,-0.009211908094584942,0.7242035269737244,1.1292412281036377,-0.12317178398370743,4.10546875,2,"['F2', 'B2', 'A1']",6.1,90,0,2.92721098793687,[19700|0|0]
19700,1.318191647529602,-0.3205026090145111,-0.009158610366284847,0.7258185744285583,1.1251684427261353,-0.12685012817382812,4.10546875,2,"['F2', 'B2', 'A1']",6.1,90,0,2.9273181110700937,[19800|0|0]
19800,1.3182412385940552,-0.3202882409095764,-0.009441697038710117,0.7144294381141663,1.123828411102295,-0.11633323132991791,4.10546875,2,"['F2', 'B2', 'A1']",6.1,90,0,2.927676651196428,[19900|0|0]
19900,1.3181569576263428,-0.32014501094818115,-0.009406909346580505,0.7156826257705688,1.1296730041503906,-0.13352297246456146,4.10546875,2,"['F2', 'B2', 'A1']",6.1,90,0,2.9278464401444886,[20000|0|0]
20000,1.3191074132919312,-0.3198869228363037,-0.009540984407067299,0.5542462468147278,0.9947832822799683,-0.11078836023807526,4.10546875,2,"['F2', 'B2', 'A1']",6.1,90,0,2.928840397672548,[20100|0|0]
20100,1.3191258907318115,-0.3201397955417633,-0.008984616957604885,0.5814302563667297,1.0129402875900269,-0.1217830553650856,4.10546875,2,"['F2', 'B2', 'A1']",6.1,90,0,2.929451814682266,[20200|0|0]
20200,1.3184505701065063,-0.3200322985649109,-0.00899421889334917,0.491841197013855,0.967525064945221,-0.11082292348146439,4.10546875,2,"['F2', 'B2', 'A1']",6.1,90,0,2.930135704837309,[20300|0|0]
20300,1.3187099695205688,-0.3197806477546692,-0.009093189612030983,0.5294869542121887,0.9863628149032593,-0.1482088714838028,4.10546875,2,"['F2', 'B2', 'A1']",6.1,90,0,2.930510419915025,[20400|0|0]
20400,1.3183517456054688,-0.3201383948326111,-0.009240997023880482,0.5736542344093323,1.0176646709442139,-0.15070298314094543,4.10546875,2,"['F2', 'B2', 'A1']",6.1,90,0,2.9310378233432686,[20500|0|0]
20500,1.318615436553955,-0.32022830843925476,-0.009225321002304554,0.6116676926612854,1.029796838760376,-0.17510628700256348,4.10546875,2,"['F2', 'B2', 'A1']",6.1,90,0,2.9313168629652324,[20600|0|0]
20600,1.3184655904769897,-0.32007771730422974,-0.009308114647865295,0.627574622631073,1.0472761392593384,-0.16103799641132355,4.10546875,2,"['F2', 'B2', 'A1']",6.1,90,0,2.931544868062709,[20700|0|0]
20700,1.3187047243118286,-0.3204011023044586,-0.008891379460692406,0.6422789096832275,1.0437922477722168,-0.15579484403133392,4.10546875,2,"['F2', 'B2', 'A1']",6.1,90,0,2.9321240321720645,[20800|0|0]
20800,1.3183948993682861,-0.32004645466804504,-0.009158151224255562,0.6330876350402832,1.0478177070617676,-0.16619931161403656,4.10546875,2,"['F2', 'B2', 'A1']",6.1,90,0,2.9326652655925862,[20900|0|0]
20900,1.3186758756637573,-0.3201955556869507,-0.008758694864809513,0.645379364490509,1.045006513595581,-0.14249801635742188,4.10546875,2,"['F2', 'B2', 'A1']",6.1,90,0,2.9331758967467056,[21000|0|0]
21000,1.3184868097305298,-0.32025599479675293,-0.009135345928370953,0.6461093425750732,1.046213150024414,-0.13294003903865814,4.10546875,2,"['F2', 'B2', 'A1']",6.1,90,0,2.933601648830415,[21100|0|0]
21100,1.3182322978973389,-0.3202902376651764,-0.009436131455004215,0.6427498459815979,1.0485557317733765,-0.12628889083862305,4.10546875,2,"['F2', 'B2', 'A1']",6.1,90,0,2.933997149500837,[21200|0|0]
21200,1.3184833526611328,-0.3202877938747406,-0.009314299561083317,0.6466327905654907,1.0477968454360962,-0.145762637257576,4.10546875,2,"['F2', 'B2', 'A1']",6.1,90,0,2.93427621486399,[21300|0|0]
21300,1.3184657096862793,-0.32024532556533813,-0.00910547748208046,0.6462147235870361,1.0539766550064087,-0.12129908055067062,4.10546875,2,"['F2', 'B2', 'A1']",6.1,90,0,2.934490040710286,[21400|0|0]
21400,1.3183610439300537,-0.3201874792575836,-0.009397618472576141,0.6435493230819702,1.0569348335266113,-0.08302170038223267,4.10546875,2,"['F2', 'B2', 'A1']",6.1,90,0,2.9348057105919265,[21500|0|0]
21500,1.3185139894485474,-0.32050999999046326,-0.00884813442826271,0.6406403183937073,1.0436066389083862,-0.0898609310388565,4.10546875,2,"['F2', 'B2', 'A1']",6.1,90,0,2.9354609545691743,[21600|0|0]
21600,1.3182990550994873,-0.32024815678596497,-0.009348249062895775,0.6302201747894287,1.0491278171539307,-0.09033548831939697,4.10546875,2,"['F2', 'B2', 'A1']",6.1,90,0,2.9360650019894337,[21700|0|0]
21700,1.3183889389038086,-0.3201517164707184,-0.009352043271064758,0.6298640370368958,1.0416887998580933,-0.10698916018009186,4.10546875,2,"['F2', 'B2', 'A1']",6.1,90,0,2.936196889171145,[21800|0|0]
21800,1.3183857202529907,-0.32010775804519653,-0.009326168335974216,0.6415637135505676,1.0404300689697266,-0.11088395863771439,4.10546875,2,"['F2', 'B2', 'A1']",6.1,90,0,2.936247999005359,[21900|0|0]
21900,1.3185800313949585,-0.32030022144317627,-0.009585955180227757,0.6880397200584412,1.0556329488754272,-0.10178615897893906,4.10546875,2,"['F2', 'B2', 'A1']",6.1,90,0,2.9366252100655124,[22000|0|0]
22000,1.3181711435317993,-0.3203190267086029,-0.009491260163486004,0.7120299339294434,1.0774973630905151,-0.11871898174285889,4.10546875,2,"['F2', 'B2', 'A1']",6.1,90,0,2.9370453410794144,[22100|0|0]
22100,1.319280743598938,-0.32019802927970886,-0.009327343665063381,0.7353818416595459,1.0868533849716187,-0.14198079705238342,4.10546875,2,"['F2', 'B2', 'A1']",6.1,90,0,2.9381734905842443,[22200|0|0]
22200,1.3193895816802979,-0.320305734872818,-0.009377496317029,0.5931142568588257,0.9603163003921509,-0.13919571042060852,4.10546875,2,"['F2', 'B2', 'A1']",6.1,90,0,2.938334616346431,[22300|0|0]
22300,1.3192604780197144,-0.320006400346756,-0.009485110640525818,0.6208904981613159,0.9933017492294312,-0.11010783910751343,4.10546875,2,"['F2', 'B2', 'A1']",6.1,90,0,2.9386779088693475,[22400|0|0]
22400,1.3192654848098755,-0.3201354742050171,-0.009303274564445019,0.6412574648857117,1.0028637647628784,-0.08999476581811905,4.10546875,2,"['F2', 'B2', 'A1']",6.1,90,0,2.9389009548004887,[22500|0|0]
22500,1.3186771869659424,-0.3201509714126587,-0.008886778727173805,0.5366529822349548,0.9515219330787659,-0.09501142054796219,4.10546875,2,"['F2', 'B2', 'A1']",6.1,90,0,2.939621928655136,[22600|0|0]
22600,1.318460464477539,-0.3200152814388275,-0.00917914230376482,0.5736198425292969,0.9811862707138062,-0.1195262223482132,4.10546875,2,"['F2', 'B2', 'A1']",6.1,90,0,2.9400103316248662,[22700|0|0]
22700,1.3185456991195679,-0.3200514316558838,-0.009282251819968224,0.6008096933364868,1.0033981800079346,-0.1144893616437912,4.10546875,2,"['F2', 'B2', 'A1']",6.1,90,0,2.94014890779427,[22800|0|0]
22800,1.3183989524841309,-0.3203915059566498,-0.00925610400736332,0.6338493227958679,1.0337707996368408,-0.1333789974451065,4.10546875,2,"['F2', 'B2', 'A1']",6.1,90,0,2.9405202146931524,[22900|0|0]
22900,1.3184183835983276,-0.32005277276039124,-0.009127971716225147,0.6401477456092834,1.0460090637207031,-0.1467205286026001,4.10546875,2,"['F2', 'B2', 'A1']",6.1,90,0,2.9408828931050808,[23000|0|0]
23000,1.3181464672088623,-0.3202049434185028,-0.009285282343626022,0.655401885509491,1.0550388097763062,-0.1492646187543869,4.10546875,2,"['F2', 'B2', 'A1']",6.1,90,0,2.941231950500853,[23100|0|0]
23100,1.318503499031067,-0.32041117548942566,-0.009044378995895386,0.6630690097808838,1.0400673151016235,-0.12813009321689606,4.10546875,2,"['F2', 'B2', 'A1']",6.1,90,0,2.94170948354902,[23200|0|0]
23200,1.3184863328933716,-0.3203974962234497,-0.009320876561105251,0.6636120080947876,1.0420554876327515,-0.11553622037172318,4.10546875,2,"['F2', 'B2', 'A1']",6.1,90,0,2.9419868509987466,[23300|0|0]
23300,1.3183135986328125,-0.3201286792755127,-0.00932893343269825,0.6576334238052368,1.0514582395553589,-0.11995586007833481,4.10546875,2,"['F2', 'B2', 'A1']",6.1,90,0,2.942306482958114,[23400|0|0]
23400,1.318585991859436,-0.3205718696117401,-0.008943191729485989,0.6647689938545227,1.0500305891036987,-0.09445328265428543,4.10546875,2,"['F2', 'B2', 'A1']",6.1,90,0,2.942954103530388,[23500|0|0]
23500,1.3184341192245483,-0.3204646408557892,-0.009198206476867199,0.653028666973114,1.0473202466964722,-0.10897695273160934,4.10546875,2,"['F2', 'B2', 'A1']",6.1,90,0,2.9432696915921275,[23600|0|0]
23600,1.3184994459152222,-0.32028454542160034,-0.008948497474193573,0.6456047892570496,1.046177625656128,-0.10258341580629349,4.10546875,2,"['F2', 'B2', 'A1']",6.1,90,0,2.943584424062563,[23700|0|0]
23700,1.3182992935180664,-0.3203541934490204,-0.009020708501338959,0.6340826153755188,1.0437241792678833,-0.11171269416809082,4.10546875,2,"['F2', 'B2', 'A1']",6.1,90,0,2.9438083130132773,[23800|0|0]
23800,1.3186160326004028,-0.32044893503189087,-0.009117714129388332,0.6359304785728455,1.0298521518707275,-0.11388160288333893,4.10546875,2,"['F2', 'B2', 'A1']",6.1,90,0,2.944152855761971,[23900|0|0]
23900,1.3182686567306519,-0.32017868757247925,-0.00932271871715784,0.6258108615875244,1.042945146560669,-0.12768720090389252,4.10546875,2,"['F2', 'B2', 'A1']",6.1,90,0,2.944638376683467,[24000|0|0]
24000,1.318351149559021,-0.3203197717666626,-0.009034521877765656,0.6272041201591492,1.0420795679092407,-0.1031300500035286,4.10546875,2,"['F2', 'B2', 'A1']",6.1,90,0,2.9449696880699547,[24100|0|0]
24100,1.3192119598388672,-0.32013484835624695,-0.009619607590138912,0.8166446685791016,1.1762117147445679,-0.12412020564079285,4.10546875,2,"['F2', 'B2', 'A1']",6.1,90,0,2.9460268145034676,[24200|0|0]
24200,1.318960428237915,-0.32023885846138,-0.009304383769631386,0.7867425084114075,1.153654932975769,-0.13036029040813446,4.10546875,2,"['F2', 'B2', 'A1']",6.1,90,0,2.9464432905595173,[24300|0|0]
24300,1.3191943168640137,-0.3203093111515045,-0.00919344276189804,0.7745998501777649,1.1389321088790894,-0.13460631668567657,4.10546875,2,"['F2', 'B2', 'A1']",6.1,90,0,2.946711572832806,[24400|0|0]
24400,1.319064974784851,-0.3201674222946167,-0.009311731904745102,0.7551745772361755,1.1351616382598877,-0.10204257816076279,4.10546875,2,"['F2', 'B2', 'A1']",6.1,90,0,2.9469370814633873,[24500|0|0]
24500,1.3193461894989014,-0.32032912969589233,-0.00902610644698143,0.7423526048660278,1.1074750423431396,-0.12397264689207077,4.10546875,2,"['F2', 'B2', 'A1']",6.1,90,0,2.947369300043678,[24600|0|0]
24600,1.319172978401184,-0.3204198479652405,-0.009052802808582783,0.7337431311607361,1.1076780557632446,-0.11595140397548676,4.10546875,2,"['F2', 'B2', 'A1']",6.1,90,0,2.9475666438667094,[24700|0|0]
24700,1.3191304206848145,-0.3199551999568939,-0.009540923871099949,0.7166751027107239,1.1084595918655396,-0.10195045173168182,4.10546875,2,"['F2', 'B2', 'A1']",6.1,90,0,2.948241900190305,[24800|0|0]
24800,1.319319725036621,-0.32034650444984436,-0.009122511371970177,0.7243304252624512,1.1051310300827026,-0.09675282984972,4.10546875,2,"['F2', 'B2', 'A1']",6.1,90,0,2.9488452445059687,[24900|0|0]
24900,1.3191170692443848,-0.3202717900276184,-0.009214608930051327,0.7164806127548218,1.1118924617767334,-0.10615092515945435,4.10546875,2,"['F2', 'B2', 'A1']",6.1,90,0,2.9490800499045866,[25000|0|0]
25000,1.319105625152588,-0.3202803134918213,-0.009181167930364609,0.7198021411895752,1.1106839179992676,-0.12256253510713577,4.10546875,2,"['F2', 'B2', 'A1']",6.1,90,0,2.9491164080830217,[25100|0|0]
25100,1.3192496299743652,-0.32035571336746216,-0.009161767549812794,0.7243848443031311,1.109170913696289,-0.13093774020671844,4.10546875,2,"['F2', 'B2', 'A1']",6.1,90,0,2.9492801117931426,[25200|0|0]
25200,1.3193224668502808,-0.32018783688545227,-0.009104493074119091,0.7217356562614441,1.108432650566101,-0.12398473173379898,4.10546875,2,"['F2', 'B2', 'A1']",6.1,90,0,2.94947186186295,[25300|0|0]
25300,1.3193626403808594,-0.32031410932540894,-0.009053308516740799,0.7287641763687134,1.107084035873413,-0.10642704367637634,4.10546875,2,"['F2', 'B2', 'A1']",6.1,90,0,2.949613912912104,[25400|0|0]
25400,1.3192211389541626,-0.319949746131897,-0.009323385544121265,0.7201347947120667,1.109128475189209,-0.09994559735059738,4.10546875,2,"['F2', 'B2', 'A1']",6.1,90,0,2.9500890179439256,[25500|0|0]
25500,1.3191325664520264,-0.3203762471675873,-0.009030899964272976,0.7328954339027405,1.1098697185516357,-0.11596061289310455,4.10546875,2,"['F2', 'B2', 'A1']",6.1,90,0,2.9506137045513388,[25600|0|0]
25600,1.318963646888733,-0.320090651512146,-0.00927954725921154,0.7281776070594788,1.115717887878418,-0.11415132135152817,4.10546875,2,"['F2', 'B2', 'A1']",6.1,90,0,2.951028341952631,[25700|0|0]
25700,1.319140076637268,-0.3203452527523041,-0.009468378499150276,0.7367867231369019,1.1177915334701538,-0.11791319400072098,4.10546875,2,"['F2', 'B2', 'A1']",6.1,90,0,2.9513911180334786,[25800|0|0]
25800,1.3255139589309692,-0.31047019362449646,-0.0053755296394228935,0.4662306010723114,0.9244558215141296,-0.09543933719396591,4.10546875,2,"['F2', 'B2', 'A1']",6.1,90,0,2.963836783144682,[25900|0|0]
25900,1.3191745281219482,-0.32004514336586,-0.009277359582483768,0.7276819944381714,1.1213490962982178,-0.12895731627941132,4.10546875,2,"['F2', 'B2', 'A1']",6.1,90,0,2.975964945513177,[26000|0|0]
26000,1.3191044330596924,-0.32041430473327637,-0.009049169719219208,0.741553008556366,1.1226844787597656,-0.1114896684885025,4.10546875,2,"['F2', 'B2', 'A1']",6.1,90,0,2.9764045635822347,[26100|0|0]
26100,1.3252785205841064,-0.3105334937572479,-0.0053085205145180225,0.39833611249923706,0.8852999806404114,-0.08157769590616226,4.10546875,2,"['F2', 'B2', 'A1']",6.1,90,0,2.9886414847136207,[26200|0|0]
26200,1.3254350423812866,-0.31019294261932373,-0.005450790748000145,0.3594176471233368,0.8517869710922241,-0.10332932323217392,4.10546875,2,"['F2', 'B2', 'A1']",6.1,90,0,2.9890423774297794,[26300|0|0]
26300,1.3251086473464966,-0.31008440256118774,-0.005473348777741194,0.3416232168674469,0.844467282295227,-0.08965307474136353,4.10546875,2,"['F2', 'B2', 'A1']",6.1,90,0,2.9893870853172166,[26400|0|0]
26400,1.3192174434661865,-0.32020115852355957,-0.009311152622103691,0.6465762853622437,1.034010410308838,-0.11403640359640121,4.10546875,2,"['F2', 'B2', 'A1']",6.1,90,0,3.001707141027698,[26500|0|0]
26500,1.3255585432052612,-0.3100615441799164,-0.005061035044491291,0.3134723901748657,0.8113728761672974,-0.118798166513443,4.10546875,2,"['F2', 'B2', 'A1']",6.1,90,0,3.0143990606761295,[26600|0|0]
26600,1.3257489204406738,-0.3100650906562805,-0.004951181821525097,0.3054411709308624,0.7970972061157227,-0.10466458648443222,4.10546875,2,"['F2', 'B2', 'A1']",6.1,90,0,3.0146188874257622,[26700|0|0]
26700,1.3252836465835571,-0.3097385764122009,-0.00496244803071022,0.2981961965560913,0.7903082370758057,-0.11942055821418762,4.10546875,2,"['F2', 'B2', 'A1']",6.1,90,0,3.0151874102847334,[26800|0|0]
26800,1.3254770040512085,-0.3097432851791382,-0.005323894787579775,0.28446754813194275,0.7955516576766968,-0.13844546675682068,4.10546875,2,"['F2', 'B2', 'A1']",6.1,90,0,3.015597353013458,[26900|0|0]
26900,1.325493574142456,-0.30991479754447937,-0.005523697007447481,0.2868131995201111,0.7907363176345825,-0.11698801815509796,4.10546875,2,"['F2', 'B2', 'A1']",6.1,90,0,3.0158611938489117,[27000|0|0]
27000,1.3256672620773315,-0.30984994769096375,-0.004913789220154285,0.2843920886516571,0.7920264005661011,-0.0785229429602623,4.10546875,2,"['F2', 'B2', 'A1']",6.1,90,0,3.016498657974352,[27100|0|0]
27100,1.3254778385162354,-0.3100336492061615,-0.004902997985482216,0.3032698929309845,0.8089575171470642,-0.058711275458335876,4.10546875,2,"['F2', 'B2', 'A1']",6.1,90,0,3.0167627488354776,[27200|0|0]
27201,1.3253092765808105,-0.30993732810020447,-0.005547552369534969,0.2983786165714264,0.8079806566238403,-0.06648383289575577,4.10546875,2,"['F2', 'B2', 'A1']",6.1,90,0,3.017435906495709,[27300|0|0]
27300,1.3258477449417114,-0.30992597341537476,-0.0054523698054254055,0.2908722460269928,0.789451003074646,-0.10189691931009293,4.10546875,2,"['F2', 'B2', 'A1']",6.1,90,0,3.0179828405183016,[27400|0|0]
27400,1.3252460956573486,-0.3104994595050812,-0.005556163378059864,0.46654561161994934,0.9242702126502991,-0.0965089499950409,4.10546875,2,"['F2', 'B2', 'A1']",6.1,90,0,3.0188204808123307,[27500|0|0]
27500,1.325445532798767,-0.3106008470058441,-0.005291815847158432,0.4334203004837036,0.8953312635421753,-0.07727372646331787,4.10546875,2,"['F2', 'B2', 'A1']",6.1,90,0,3.0191667960094875,[27600|0|0]
27601,1.3253824710845947,-0.3103960454463959,-0.005644372198730707,0.412913054227829,0.8741819858551025,-0.094754658639431,4.10546875,2,"['F2', 'B2', 'A1']",6.1,90,0,3.0195793689601045,[27700|0|0]
27701,1.325218677520752,-0.310045063495636,-0.005689084064215422,0.38109835982322693,0.8579974174499512,-0.1146978959441185,4.10546875,2,"['F2', 'B2', 'A1']",6.1,90,0,3.0199692610121276,[27800|0|0]
27800,1.3255138397216797,-0.31047677993774414,-0.005529213231056929,0.38543856143951416,0.846387505531311,-0.14135907590389252,4.10546875,2,"['F2', 'B2', 'A1']",6.1,90,0,3.0205161234212743,[27900|0|0]
27901,1.3254989385604858,-0.31043562293052673,-0.005360051058232784,0.37923774123191833,0.8484727740287781,-0.13478781282901764,4.10546875,2,"['F2', 'B2', 'A1']",6.1,90,0,3.0206908568884825,[28000|0|0]
28001,1.3255711793899536,-0.3106034994125366,-0.0052897511050105095,0.3803102672100067,0.8461112976074219,-0.1468615084886551,4.10546875,2,"['F2', 'B2', 'A1']",6.1,90,0,3.0208866714284874,[28100|0|0]
28101,1.3256332874298096,-0.3099535405635834,-0.005048738326877356,0.3467811048030853,0.8315696716308594,-0.12912660837173462,4.10546875,2,"['F2', 'B2', 'A1']",6.1,90,0,3.0215826535210524,[28200|0|0]
28201,1.3254680633544922,-0.3095436692237854,-0.0054618860594928265,0.36276161670684814,0.8565353751182556,-0.135123610496521,4.10546875,2,"['F2', 'B2', 'A1']",6.1,90,0,3.022187620097995,[28300|0|0]
28301,1.325279712677002,-0.3099251389503479,-0.005639677867293358,0.4036826491355896,0.8748345971107483,-0.12529709935188293,4.10546875,2,"['F2', 'B2', 'A1']",6.1,90,0,3.0226487112570033,[28400|0|0]
28401,1.3256498575210571,-0.31013479828834534,-0.005242562387138605,0.43505415320396423,0.8849998116493225,-0.11650059372186661,4.10546875,2,"['F2', 'B2', 'A1']",6.1,90,0,3.023230660522978,[28500|0|0]
28501,1.3254938125610352,-0.31004101037979126,-0.005574006587266922,0.44680270552635193,0.895873486995697,-0.1343260109424591,4.10546875,2,"['F2', 'B2', 'A1']",6.1,90,0,3.0236088158602903,[28600|0|0]
28602,1.3256582021713257,-0.31005859375,-0.00531339505687356,0.45441335439682007,0.8945153951644897,-0.12785713374614716,4.10546875,2,"['F2', 'B2', 'A1']",6.1,90,0,3.0239174442592645,[28700|0|0]
28700,1.3255506753921509,-0.31010863184928894,-0.00532411877065897,0.4607008099555969,0.8982817530632019,-0.14037857949733734,4.10546875,2,"['F2', 'B2', 'A1']",6.1,90,0,3.0240365274976213,[28800|0|0]
28801,1.325556755065918,-0.30985939502716064,-0.005452075973153114,0.4571167826652527,0.9071438312530518,-0.12298919260501862,4.10546875,2,"['F2', 'B2', 'A1']",6.1,90,0,3.024316757762953,[28900|0|0]
28902,1.3254424333572388,-0.31004053354263306,-0.0058895293623209,0.4616575241088867,0.9224783778190613,-0.12083970010280609,4.10546875,2,"['F2', 'B2', 'A1']",6.1,90,0,3.024803836896726,[29000|0|0]
29002,1.3255776166915894,-0.31025636196136475,-0.00521085225045681,0.46827372908592224,0.9179386496543884,-0.10158698260784149,4.10546875,2,"['F2', 'B2', 'A1']",6.1,90,0,3.0255287224479592,[29100|0|0]
29100,1.3252460956573486,-0.3103751540184021,-0.005014527123421431,0.4668971300125122,0.9251337051391602,-0.09014647454023361,4.10546875,2,"['F2', 'B2', 'A1']",6.1,90,0,3.0259319113670338,[29200|0|0]
29202,1.3256111145019531,-0.31025364995002747,-0.005080371629446745,0.46211209893226624,0.9135385155677795,-0.09874211996793747,4.10546875,2,"['F2', 'B2', 'A1']",6.1,90,0,3.0263222157284257,[29300|0|0]
29302,1.3254797458648682,-0.3100067377090454,-0.005411616992205381,0.4508964717388153,0.919071614742279,-0.1089562401175499,4.10546875,2,"['F2', 'B2', 'A1']",6.1,90,0,3.0267557441172372,[29400|0|0]
29402,1.3252010345458984,-0.3103245198726654,-0.005402342416346073,0.4555272161960602,0.9214246869087219,-0.10149175673723221,4.10546875,2,"['F2', 'B2', 'A1']",6.1,90,0,3.027178534278658,[29500|0|0]
29500,1.3256676197052002,-0.30995458364486694,-0.005487305112183094,0.4412176012992859,0.91337651014328,-0.10980255901813507,4.10546875,2,"['F2', 'B2', 'A1']",6.1,90,0,3.027780010116246,[29600|0|0]
29600,1.3253264427185059,-0.31022879481315613,-0.005598735064268112,0.4465765655040741,0.9194574952125549,-0.12115149945020676,4.10546875,2,"['F2', 'B2', 'A1']",6.1,90,0,3.0282316849276825,[29700|0|0]
29700,1.3255422115325928,-0.31021848320961,-0.0053489916026592255,0.44140082597732544,0.9084609746932983,-0.1366976946592331,4.10546875,2,"['F2', 'B2', 'A1']",6.1,90,0,3.0285618883603065,[29800|0|0]
29800,1.3253294229507446,-0.3105705678462982,-0.0054587977938354015,0.4491581916809082,0.908299446105957,-0.1336926519870758,4.10546875,2,"['F2', 'B2', 'A1']",6.1,90,0,3.0289876817040513,[29900|0|0]
