time.ms,stateEstimate.x,stateEstimate.y,stateEstimate.z,stabilizer.roll,stabilizer.pitch,stabilizer.yaw,pm.vbat
59522,4.253588676452637,2.3374037742614746,-6.288487911224365,0.20103497803211212,2.2391533851623535,79.05931091308594,3.44140625
62022,4.265761375427246,2.363327980041504,-6.342599868774414,0.19076019525527954,2.2337498664855957,79.0765609741211,3.453125
64522,4.26967191696167,2.3722028732299805,-6.36063814163208,0.17712578177452087,2.221796989440918,79.08944702148438,3.462890625
67022,4.279458045959473,2.3926007747650146,-6.403924465179443,0.19447150826454163,2.2145373821258545,79.046875,3.47265625
69522,4.279715061187744,2.392688035964966,-6.404359817504883,0.21445155143737793,2.2211434841156006,79.0927505493164,3.478515625
72022,4.269238471984863,2.3702855110168457,-6.358118534088135,0.2199428826570511,2.196286916732788,78.8998031616211,3.48828125
74522,4.257637977600098,2.3468358516693115,-6.306870460510254,0.19577312469482422,2.204469919204712,78.95673370361328,3.5
77022,4.2448906898498535,2.3198299407958984,-6.2490339279174805,0.21587112545967102,2.223862409591675,79.00198364257812,3.505859375
79522,4.246735095977783,2.3235504627227783,-6.257851600646973,0.21650433540344238,2.2024762630462646,78.95501708984375,3.515625
82022,4.254063129425049,2.3385448455810547,-6.289763927459717,0.2445095330476761,2.1990652084350586,78.95585632324219,3.521484375
84522,4.264570236206055,2.361236810684204,-6.338409900665283,0.19025777280330658,2.194042205810547,79.01221466064453,3.525390625
87022,4.26974630355835,2.3723669052124023,-6.361032009124756,0.2157619148492813,2.1940724849700928,78.98180389404297,3.537109375
89522,4.2716474533081055,2.3756110668182373,-6.368965148925781,0.22604931890964508,2.200608968734741,78.99382781982422,3.541015625
92022,4.278323650360107,2.389383316040039,-6.398702621459961,0.20134243369102478,2.221369743347168,79.01726531982422,3.546875
94522,4.27799654006958,2.388468027114868,-6.396335601806641,0.22812028229236603,2.1733956336975098,79.06057739257812,3.55859375
97022,4.275811195373535,2.3844480514526367,-6.387119770050049,0.2268037050962448,2.189500331878662,79.00169372558594,3.5625
99522,4.270017623901367,2.3728461265563965,-6.36229133605957,0.22604334354400635,2.1836013793945312,79.06375122070312,3.568359375
102022,4.272803783416748,2.3784635066986084,-6.375332355499268,0.21920883655548096,2.1798977851867676,79.10167694091797,3.57421875
104522,2.6117501258850098,-1.1136151552200317,1.076947569847107,0.12620942294597626,1.464456558227539,41.62600326538086,3.578125
107022,2.652289390563965,-1.0280455350875854,0.8982084393501282,0.19708754122257233,2.2307634353637695,40.59925842285156,3.583984375
109522,2.651376724243164,-1.0300365686416626,0.9015610814094543,0.1999344676733017,2.201315402984619,40.547332763671875,3.58984375
112022,2.6514010429382324,-1.0299147367477417,0.9015427231788635,0.185195654630661,2.2032077312469482,40.52533721923828,3.59375
114522,2.6515302658081055,-1.0297883749008179,0.9012371897697449,0.20385396480560303,2.197665214538574,40.51008605957031,3.599609375
117022,2.650850772857666,-1.0310255289077759,0.9038764834403992,0.20334093272686005,2.217574119567871,40.4968376159668,3.60546875
119522,2.651270627975464,-1.0301508903503418,0.9021405577659607,0.20367974042892456,2.188015937805176,40.52436828613281,3.611328125
122022,2.650571823120117,-1.031649112701416,0.9050639271736145,0.1960684061050415,2.207942247390747,40.56129455566406,3.615234375
124522,2.6513936519622803,-1.0302244424819946,0.9020791053771973,0.2064141482114792,2.193168878555298,40.53517150878906,3.62109375
127022,2.6512787342071533,-1.0303120613098145,0.902321994304657,0.19310881197452545,2.183434247970581,40.54974365234375,3.626953125
129522,2.6514153480529785,-1.029893398284912,0.9016993641853333,0.203456312417984,2.1778597831726074,40.55867004394531,3.630859375
132022,2.6512796878814697,-1.0301510095596313,0.9021451473236084,0.18969537317752838,2.1883792877197266,40.63827896118164,3.630859375
134522,2.6509339809417725,-1.0311657190322876,0.9038023948669434,0.2131645381450653,2.215658664703369,40.62547302246094,3.63671875
137022,2.651378631591797,-1.0299623012542725,0.9016536474227905,0.2053896188735962,2.179511547088623,40.53409957885742,3.642578125
139522,2.6518890857696533,-1.0288845300674438,0.8993530869483948,0.20235870778560638,2.1685714721679688,40.56330108642578,3.6484375
142022,2.651233673095703,-1.030236840248108,0.9025636315345764,0.18960049748420715,2.1781880855560303,40.45760726928711,3.65234375
144522,2.6514971256256104,-1.0300136804580688,0.9016812443733215,0.20485951006412506,2.1907637119293213,40.45505142211914,3.658203125
147022,2.6521294116973877,-1.0283714532852173,0.8983495831489563,0.19692710041999817,2.1661481857299805,40.489776611328125,3.658203125
149522,2.6514663696289062,-1.0298352241516113,0.9016053676605225,0.20436900854110718,2.1933188438415527,40.48347854614258,3.6640625
152022,2.651702404022217,-1.0291833877563477,0.9001686573028564,0.2009776085615158,2.176964521408081,40.495208740234375,3.66796875
154522,2.6513326168060303,-1.0300569534301758,0.902148962020874,0.20140717923641205,2.1910576820373535,40.48263931274414,3.673828125
157022,2.6521337032318115,-1.0283945798873901,0.8984277248382568,0.20652754604816437,2.1429405212402344,40.53993225097656,3.673828125
159522,2.651441812515259,-1.029939889907837,0.9015910029411316,0.205457404255867,2.162091016769409,40.59147644042969,3.6796875
162022,2.6509838104248047,-1.0309745073318481,0.9038090705871582,0.21380119025707245,2.160878896713257,40.63710021972656,3.68359375
164522,2.6507644653320312,-1.0311858654022217,0.9041398763656616,0.19268456101417542,2.190364122390747,40.60372543334961,3.68359375
167022,2.6517419815063477,-1.0292391777038574,0.8999665975570679,0.19572460651397705,2.1783347129821777,40.592857360839844,3.689453125
169522,2.650967597961426,-1.0308618545532227,0.9035589694976807,0.2001711130142212,2.186387300491333,40.561805725097656,3.6953125
172022,2.65181565284729,-1.029071569442749,0.8997157216072083,0.19335095584392548,2.1764936447143555,40.619903564453125,3.6953125
174522,2.651150941848755,-1.030449628829956,0.9024612307548523,0.2295660823583603,2.1776623725891113,40.529335021972656,3.701171875
177022,2.6510486602783203,-1.0307753086090088,0.9034458994865417,0.21203206479549408,2.167771816253662,40.488712310791016,3.701171875
179522,2.6519272327423096,-1.0288881063461304,0.8992865085601807,0.2131749540567398,2.182927370071411,40.477760314941406,3.705078125
182022,2.651146411895752,-1.030676007270813,0.9030338525772095,0.20236600935459137,2.165736198425293,40.55253982543945,3.7109375
184522,2.6513240337371826,-1.0300143957138062,0.9016603231430054,0.2068946361541748,2.1772773265838623,40.54810333251953,3.7109375
187022,2.651015043258667,-1.0306682586669922,0.903033971786499,0.211956188082695,2.1706974506378174,40.56441116333008,3.716796875
189522,2.6514039039611816,-1.0298854112625122,0.9016572833061218,0.188541978597641,2.1569559574127197,40.52314376831055,3.716796875
192022,2.651479721069336,-1.0297092199325562,0.9009984731674194,0.2243100106716156,2.178544521331787,40.48670959472656,3.720703125
194522,2.6519720554351807,-1.0286298990249634,0.8989498019218445,0.21378649771213531,2.181281566619873,40.51194763183594,3.720703125
197022,2.651599407196045,-1.0295004844665527,0.9008358716964722,0.19809786975383759,2.1709835529327393,40.547088623046875,3.7265625
199522,2.6517562866210938,-1.029119610786438,0.900008499622345,0.22329938411712646,2.171823740005493,40.557762145996094,3.7265625
202022,2.651458978652954,-1.02981698513031,0.901441216468811,0.21104124188423157,2.1871819496154785,40.537513732910156,3.732421875
204522,2.651948928833008,-1.0288357734680176,0.8991805911064148,0.20276707410812378,2.16121768951416,40.58832931518555,3.736328125
207022,2.6517105102539062,-1.0291811227798462,0.900431752204895,0.17428231239318848,2.167424201965332,40.55868911743164,3.736328125
209522,2.651456594467163,-1.029825210571289,0.9014425873756409,0.19799163937568665,2.173341751098633,40.63159942626953,3.7421875
212022,2.6518714427948,-1.0289909839630127,0.8996347188949585,0.21884196996688843,2.1764066219329834,40.43241500854492,3.7421875
214522,2.6517093181610107,-1.029572606086731,0.9004585146903992,0.21782119572162628,2.162971019744873,40.50370788574219,3.7421875
217022,2.6516900062561035,-1.0293089151382446,0.9004007577896118,0.2105741798877716,2.1860203742980957,40.501365661621094,3.748046875
219522,2.6513471603393555,-1.0302941799163818,0.9022484421730042,0.23262862861156464,2.1760833263397217,40.52500534057617,3.748046875
222022,2.6517724990844727,-1.0291621685028076,0.8998913168907166,0.21879708766937256,2.177541494369507,40.56460189819336,3.75390625
224522,2.652043104171753,-1.0286396741867065,0.8988020420074463,0.22175271809101105,2.153181791305542,40.512271881103516,3.75390625
227022,2.652021646499634,-1.0286076068878174,0.8989989757537842,0.20290939509868622,2.1507480144500732,40.49510192871094,3.7578125
229522,2.651827812194824,-1.0290769338607788,0.8996952772140503,0.21783314645290375,2.1563758850097656,40.52819061279297,3.7578125
232022,2.6517813205718994,-1.0289692878723145,0.8997282385826111,0.1943168193101883,2.156986951828003,40.53398132324219,3.763671875
234522,2.651498317718506,-1.0295838117599487,0.9010961651802063,0.22710494697093964,2.1627392768859863,40.482933044433594,3.763671875
237022,2.652087688446045,-1.028437852859497,0.8984010815620422,0.1898592710494995,2.154597282409668,40.56405258178711,3.763671875
239522,2.6516268253326416,-1.0293965339660645,0.9004295468330383,0.19825614988803864,2.1651835441589355,40.55363845825195,3.76953125
242022,2.651331663131714,-1.029959797859192,0.9017044305801392,0.20595215260982513,2.168919324874878,40.5985107421875,3.76953125
244523,2.65150785446167,-1.0298471450805664,0.9012920260429382,0.2265680581331253,2.1611006259918213,40.42866897583008,3.7734375
247022,2.6515114307403564,-1.0297977924346924,0.9015730023384094,0.21866020560264587,2.1418204307556152,40.48517990112305,3.7734375
249522,2.652730941772461,-1.02718186378479,0.8956630229949951,0.2270229607820511,2.146078109741211,40.42780303955078,3.7734375
252022,2.65171480178833,-1.0291696786880493,0.9000715017318726,0.1974349319934845,2.163787841796875,40.42618179321289,3.779296875
254522,2.65197491645813,-1.028893232345581,0.8991815447807312,0.20022548735141754,2.1657629013061523,40.50556182861328,3.779296875
257022,2.6516196727752686,-1.0293283462524414,0.9003221392631531,0.20212021470069885,2.178328514099121,40.53242874145508,3.779296875
259522,2.6514101028442383,-1.0299259424209595,0.90138179063797,0.22851495444774628,2.1537649631500244,40.55718994140625,3.78515625
262022,2.6514272689819336,-1.0297720432281494,0.9011187553405762,0.22133038938045502,2.1491472721099854,40.53548049926758,3.78515625
264522,2.6518137454986572,-1.0289469957351685,0.8994139432907104,0.20626483857631683,2.1620519161224365,40.48260498046875,3.78515625
267022,2.65144944190979,-1.029759168624878,0.9013577103614807,0.20636551082134247,2.150099277496338,40.540924072265625,3.78515625
269522,2.652369499206543,-1.0278854370117188,0.8972030878067017,0.21691875159740448,2.166490316390991,40.525386810302734,3.78515625
272022,2.6515135765075684,-1.029624342918396,0.9007545113563538,0.19083808362483978,2.1522693634033203,40.554466247558594,3.7890625
274522,2.6518843173980713,-1.0288186073303223,0.8994315266609192,0.19839705526828766,2.1652865409851074,40.60204315185547,3.7890625
277022,2.651301860809326,-1.0301605463027954,0.9018517732620239,0.21923145651817322,2.140716791152954,40.51273727416992,3.7890625
279522,2.6518518924713135,-1.028997778892517,0.8997053503990173,0.24478623270988464,2.156829357147217,40.50608825683594,3.7890625
282022,2.6517505645751953,-1.029248833656311,0.8997305631637573,0.21796388924121857,2.1624817848205566,40.5212516784668,3.7890625
284522,2.6517512798309326,-1.0292649269104004,0.900126576423645,0.2123967707157135,2.141883373260498,40.50836944580078,3.7890625
287022,2.6515064239501953,-1.0296964645385742,0.9011415243148804,0.24376527965068817,2.1628530025482178,40.557586669921875,3.7890625
289522,2.652343988418579,-1.0281779766082764,0.8974491953849792,0.20213951170444489,2.148941993713379,40.59501266479492,3.7890625
292022,2.6511363983154297,-1.0303775072097778,0.9026187658309937,0.2243405431509018,2.1673946380615234,40.59973907470703,3.7890625
294522,2.6511220932006836,-1.0304851531982422,0.9025834202766418,0.2011011689901352,2.145658016204834,40.58854675292969,3.794921875
297022,2.6509878635406494,-1.0307008028030396,0.9030614495277405,0.22051940858364105,2.169891119003296,40.5930061340332,3.7890625
299522,2.651409864425659,-1.029964566230774,0.901404082775116,0.22177918255329132,2.152904510498047,40.594417572021484,3.794921875
302022,2.651893138885498,-1.029194712638855,0.8994202017784119,0.23362970352172852,2.1692848205566406,40.60372543334961,3.7890625
304522,2.6518921852111816,-1.0289069414138794,0.8992932438850403,0.2019328624010086,2.137908697128296,40.60689163208008,3.794921875
307022,2.651752471923828,-1.0292418003082275,0.9000241756439209,0.22872205078601837,2.1404483318328857,40.5599479675293,3.794921875
309522,2.651742935180664,-1.0290248394012451,0.8996418118476868,0.18419960141181946,2.1444618701934814,40.470008850097656,3.794921875
312022,2.652148962020874,-1.0283690690994263,0.898405134677887,0.2202855795621872,2.1381893157958984,40.451873779296875,3.794921875
314522,2.652324914932251,-1.027883529663086,0.897443950176239,0.20121686160564423,2.1313767433166504,40.45612335205078,3.794921875
317022,2.651442766189575,-1.0298646688461304,0.9013248085975647,0.20981596410274506,2.1456456184387207,40.531070709228516,3.794921875
319522,2.6520516872406006,-1.0286649465560913,0.8988249897956848,0.21875345706939697,2.137251377105713,40.5663948059082,3.794921875
322022,2.65201473236084,-1.0286319255828857,0.8988390564918518,0.21419475972652435,2.1477560997009277,40.54157638549805,3.794921875
324522,2.651736259460449,-1.029278039932251,0.9001913070678711,0.20065785944461823,2.1382577419281006,40.606201171875,3.794921875
327022,2.6513915061950684,-1.0298453569412231,0.9013763666152954,0.2131054699420929,2.1447513103485107,40.509246826171875,3.794921875
329522,2.65146541595459,-1.0298010110855103,0.9011197686195374,0.22398635745048523,2.1437039375305176,40.568931579589844,3.794921875
332022,2.6518337726593018,-1.0289031267166138,0.8994011878967285,0.23879556357860565,2.143979072570801,40.55293655395508,3.794921875
334522,2.6520657539367676,-1.0285494327545166,0.8984835743904114,0.2085709422826767,2.1413168907165527,40.56431198120117,3.794921875
337022,2.651780366897583,-1.0292277336120605,0.8997705578804016,0.19847676157951355,2.1558570861816406,40.60920715332031,3.794921875
339522,2.6520557403564453,-1.0285264253616333,0.8985635638237,0.21469172835350037,2.126906633377075,40.5536003112793,3.794921875
342022,2.6516900062561035,-1.0291975736618042,0.8999415636062622,0.2245752215385437,2.151860475540161,40.626136779785156,3.794921875
344524,2.6522130966186523,-1.0283987522125244,0.8979346752166748,0.22715462744235992,2.146233320236206,40.494781494140625,3.794921875
347022,2.651595115661621,-1.0296411514282227,0.9010061025619507,0.20989890396595,2.1399879455566406,40.49571990966797,3.794921875
349522,2.652196168899536,-1.02816641330719,0.8978779911994934,0.22354251146316528,2.1235055923461914,40.48870849609375,3.794921875
352022,2.65167236328125,-1.0294325351715088,0.9002906680107117,0.22323273122310638,2.162407159805298,40.51988983154297,3.794921875
354522,2.6520700454711914,-1.0285369157791138,0.8987783789634705,0.2170664668083191,2.142366409301758,40.48740768432617,3.794921875
357022,2.6522316932678223,-1.0280592441558838,0.8978961706161499,0.2114451676607132,2.126434564590454,40.48919677734375,3.794921875
359522,2.6524078845977783,-1.027970790863037,0.8971649408340454,0.2207854986190796,2.160207748413086,40.543701171875,3.794921875
362022,2.6519999504089355,-1.0286121368408203,0.8986587524414062,0.20734934508800507,2.129756212234497,40.595001220703125,3.794921875
364522,2.6522042751312256,-1.0282763242721558,0.8979541063308716,0.21559417247772217,2.1424810886383057,40.51995086669922,3.794921875
367022,2.6519014835357666,-1.0288407802581787,0.8991079926490784,0.19934850931167603,2.1375210285186768,40.576725006103516,3.794921875
369522,2.6524405479431152,-1.027651309967041,0.8968563079833984,0.23521576821804047,2.1410744190216064,40.5402946472168,3.794921875
372022,2.6523799896240234,-1.0278255939483643,0.8972604870796204,0.21149426698684692,2.140827178955078,40.6058349609375,3.794921875
374522,2.6523375511169434,-1.028088927268982,0.8974388241767883,0.2211562544107437,2.159409523010254,40.58369064331055,3.794921875
377023,2.651806116104126,-1.0291420221328735,0.899864673614502,0.215048685669899,2.1239497661590576,40.62498092651367,3.794921875
379522,2.652442455291748,-1.027716040611267,0.8969253301620483,0.19672855734825134,2.1414668560028076,40.45650100708008,3.794921875
382022,2.6520419120788574,-1.0285773277282715,0.8989236950874329,0.21694622933864594,2.1329586505889893,40.408634185791016,3.794921875
384522,2.652390956878662,-1.0280348062515259,0.8975691199302673,0.23211051523685455,2.144944906234741,40.44723892211914,3.794921875
387022,2.652385950088501,-1.028032660484314,0.8975866436958313,0.2095126360654831,2.113590717315674,40.4954719543457,3.794921875
389522,2.652312994003296,-1.0280319452285767,0.8974193334579468,0.21827523410320282,2.1498711109161377,40.49104690551758,3.794921875
392022,2.651742696762085,-1.029056429862976,0.8998051881790161,0.22102829813957214,2.1341681480407715,40.509254455566406,3.80078125
394522,2.6520557403564453,-1.028647541999817,0.8988547921180725,0.20780009031295776,2.1455867290496826,40.540775299072266,3.80078125
397022,2.652620553970337,-1.0272769927978516,0.8961506485939026,0.24178822338581085,2.147754669189453,40.520606994628906,3.80078125
399522,2.6523330211639404,-1.0279057025909424,0.897344708442688,0.21751727163791656,2.1558988094329834,40.50336837768555,3.80078125
402022,2.6512537002563477,-1.0302172899246216,0.9021948575973511,0.22011339664459229,2.1497230529785156,40.55414962768555,3.80078125
404522,2.6517221927642822,-1.0292352437973022,0.9000689387321472,0.22477279603481293,2.128596067428589,40.58951187133789,3.80078125
407022,2.6523332595825195,-1.028070330619812,0.8973420858383179,0.2108524888753891,2.1252009868621826,40.61129379272461,3.80078125
409523,2.6522369384765625,-1.0279901027679443,0.8976683020591736,0.22196398675441742,2.1300361156463623,40.475833892822266,3.80078125
412022,2.6523680686950684,-1.027827262878418,0.897175133228302,0.2204868346452713,2.131413459777832,40.47045135498047,3.80078125
414522,2.6521875858306885,-1.028139352798462,0.8978685736656189,0.20962584018707275,2.12243914604187,40.49959945678711,3.80078125
417022,2.6519248485565186,-1.0287810564041138,0.8991175889968872,0.2110900729894638,2.1398396492004395,40.55104446411133,3.80078125
419522,2.652289628982544,-1.027985692024231,0.8973017334938049,0.22133629024028778,2.1298751831054688,40.53511428833008,3.80078125
422022,2.6522748470306396,-1.027951717376709,0.8973374366760254,0.22242890298366547,2.135979652404785,40.51969909667969,3.80078125
424522,2.6519813537597656,-1.0286136865615845,0.89870685338974,0.23831216990947723,2.127847671508789,40.52848434448242,3.80078125
427022,2.65244197845459,-1.027584433555603,0.8966991901397705,0.21801680326461792,2.170494318008423,40.51471710205078,3.80078125
429522,2.652329444885254,-1.0278609991073608,0.897320032119751,0.21794576942920685,2.1182963848114014,40.5546760559082,3.80078125
432022,2.6515462398529053,-1.0295294523239136,0.9004290699958801,0.2224707454442978,2.1465275287628174,40.60341262817383,3.80078125
434522,2.6524548530578613,-1.027811050415039,0.8968015909194946,0.20737314224243164,2.1399590969085693,40.57499694824219,3.80078125
437022,2.652881622314453,-1.0266778469085693,0.8947405219078064,0.22280728816986084,2.1499435901641846,40.47550582885742,3.80078125
439522,2.651552677154541,-1.0294678211212158,0.9005177021026611,0.21114136278629303,2.122845411300659,40.597957611083984,3.806640625
442022,2.6515793800354004,-1.029387354850769,0.9005373120307922,0.21467186510562897,2.1396286487579346,40.49688720703125,3.806640625
444522,2.6523568630218506,-1.0281391143798828,0.8974728584289551,0.2237856090068817,2.1286232471466064,40.52104568481445,3.806640625
447022,2.6522679328918457,-1.0280994176864624,0.8979026079177856,0.22595150768756866,2.134990930557251,40.48714065551758,3.806640625
449522,2.651803731918335,-1.028954267501831,0.8993870615959167,0.22611895203590393,2.1351890563964844,40.46406173706055,3.806640625
452022,2.6522021293640137,-1.0282566547393799,0.8978920578956604,0.214781254529953,2.1359329223632812,40.51124572753906,3.806640625
454522,2.6524901390075684,-1.027585744857788,0.8965592384338379,0.224952831864357,2.1202821731567383,40.52391815185547,3.806640625
457022,2.652433156967163,-1.0276901721954346,0.8967102766036987,0.21835766732692719,2.131898880004883,40.56037902832031,3.806640625
459522,2.6520819664001465,-1.0284236669540405,0.8983105421066284,0.22991664707660675,2.12612247467041,40.51448059082031,3.806640625
462022,2.6519391536712646,-1.0289435386657715,0.8992442488670349,0.23679018020629883,2.1269118785858154,40.58403778076172,3.806640625
464522,2.6521999835968018,-1.028182029724121,0.8977389335632324,0.23149780929088593,2.141239643096924,40.558265686035156,3.806640625
467022,2.6520919799804688,-1.028446078300476,0.8982829451560974,0.22458237409591675,2.133660078048706,40.57279586791992,3.806640625
469522,2.652087926864624,-1.028429388999939,0.8982288241386414,0.21323055028915405,2.1496686935424805,40.59950256347656,3.806640625
472022,2.651831865310669,-1.0289762020111084,0.8994497656822205,0.2256910800933838,2.1208391189575195,40.620506286621094,3.806640625
474522,2.6524550914764404,-1.027782678604126,0.8969142436981201,0.22546330094337463,2.1260931491851807,40.44942092895508,3.810546875
477022,2.6517252922058105,-1.0293352603912354,0.8999341130256653,0.21899467706680298,2.137213706970215,40.49496841430664,3.806640625
479522,2.652264356613159,-1.0281325578689575,0.897628903388977,0.23009951412677765,2.1503608226776123,40.42751693725586,3.810546875
482022,2.6521458625793457,-1.0283745527267456,0.8980302810668945,0.2346501499414444,2.1350417137145996,40.45940017700195,3.810546875
484522,2.6527223587036133,-1.0270060300827026,0.8954985737800598,0.20799608528614044,2.1296474933624268,40.450157165527344,3.810546875
487022,2.652355432510376,-1.027881145477295,0.8971874117851257,0.21542710065841675,2.1056060791015625,40.52135467529297,3.810546875
489522,2.6523056030273438,-1.0280390977859497,0.8973000645637512,0.23389741778373718,2.1279215812683105,40.499080657958984,3.810546875
492022,2.651719093322754,-1.0292736291885376,0.9001168012619019,0.21528780460357666,2.1160402297973633,40.57124710083008,3.810546875
494522,2.652893543243408,-1.0267149209976196,0.8947370052337646,0.2197723239660263,2.1353087425231934,40.49993133544922,3.810546875
497022,2.651820659637451,-1.0289453268051147,0.899340808391571,0.22533966600894928,2.1282968521118164,40.5456657409668,3.810546875
499522,2.6526858806610107,-1.027310848236084,0.8958478569984436,0.23397791385650635,2.139486789703369,40.55495834350586,3.810546875
502022,2.651366710662842,-1.030076503753662,0.9016006588935852,0.2207777500152588,2.1236202716827393,40.625274658203125,3.810546875
504522,2.651487112045288,-1.029747724533081,0.9009053111076355,0.21918468177318573,2.151524305343628,40.60342025756836,3.810546875
507022,2.652709484100342,-1.0272753238677979,0.8958616852760315,0.21801908314228058,2.1095130443573,40.45170974731445,3.810546875
509522,2.652646541595459,-1.027244210243225,0.8958784341812134,0.2213863581418991,2.1289803981781006,40.426246643066406,3.810546875
512022,2.6526224613189697,-1.027308702468872,0.895861029624939,0.22221173346042633,2.13179087638855,40.449928283691406,3.81640625
514522,2.6528537273406982,-1.026916742324829,0.8952447772026062,0.21052464842796326,2.1289918422698975,40.42047882080078,3.810546875
517022,2.6523163318634033,-1.0280483961105347,0.8972140550613403,0.22829309105873108,2.1199498176574707,40.49736404418945,3.81640625
519522,2.6521682739257812,-1.028279185295105,0.8977126479148865,0.23629283905029297,2.1389336585998535,40.4691276550293,3.81640625
522022,2.653015375137329,-1.0264462232589722,0.8940638899803162,0.239899680018425,2.127042531967163,40.47226333618164,3.81640625
524522,2.652254581451416,-1.0281307697296143,0.8975906372070312,0.21206605434417725,2.1230690479278564,40.522945404052734,3.81640625
527022,2.6521925926208496,-1.0282630920410156,0.8982042074203491,0.22019894421100616,2.13420033454895,40.525630950927734,3.81640625
529522,2.6522722244262695,-1.0280345678329468,0.8974263668060303,0.21984995901584625,2.1429555416107178,40.53138732910156,3.81640625
532022,2.6521377563476562,-1.0284769535064697,0.8983483910560608,0.22151271998882294,2.129122257232666,40.622066497802734,3.81640625
534522,2.6523654460906982,-1.027850866317749,0.8970299363136292,0.2279624044895172,2.1200456619262695,40.546382904052734,3.81640625
537022,2.6519925594329834,-1.0286208391189575,0.898593008518219,0.22326241433620453,2.1479129791259766,40.570865631103516,3.81640625
539522,2.6524851322174072,-1.0277199745178223,0.8967573642730713,0.2246624380350113,2.1215462684631348,40.46900177001953,3.81640625
542022,2.6519041061401367,-1.02875554561615,0.8989747762680054,0.23874354362487793,2.1221139430999756,40.47066116333008,3.81640625
544522,2.6522908210754395,-1.0283688306808472,0.8975890874862671,0.24126769602298737,2.1114091873168945,40.52104568481445,3.822265625
547022,2.652336835861206,-1.0279942750930786,0.897177517414093,0.22187286615371704,2.1494429111480713,40.555965423583984,3.822265625
549522,2.6522281169891357,-1.028144359588623,0.8976083397865295,0.2138306051492691,2.1191179752349854,40.477745056152344,3.81640625
552022,2.651846170425415,-1.029004454612732,0.8995094299316406,0.2115025818347931,2.1246659755706787,40.51338195800781,3.822265625
554522,2.652451753616333,-1.0276743173599243,0.8967682123184204,0.2130553424358368,2.1257598400115967,40.53612518310547,3.822265625
557022,2.652090072631836,-1.0284655094146729,0.8984552621841431,0.22620394825935364,2.1325442790985107,40.49698257446289,3.822265625
559522,2.6522715091705322,-1.0280532836914062,0.8973047137260437,0.25741881132125854,2.125218152999878,40.51874923706055,3.822265625
562022,2.651573657989502,-1.0294383764266968,0.9004166722297668,0.23923923075199127,2.1206300258636475,40.528953552246094,3.822265625
564522,2.6527140140533447,-1.0271751880645752,0.8956065773963928,0.20883427560329437,2.118654251098633,40.56793975830078,3.822265625
567022,2.652094602584839,-1.0283042192459106,0.8980932235717773,0.2173316776752472,2.127915143966675,40.57602310180664,3.822265625
569522,2.651448965072632,-1.0297621488571167,0.9010892510414124,0.21650515496730804,2.122929573059082,40.61078643798828,3.822265625
572022,2.6529719829559326,-1.026639461517334,0.8946716785430908,0.22463101148605347,2.1143617630004883,40.46025085449219,3.822265625
574522,2.6524407863616943,-1.0277378559112549,0.8966999650001526,0.21331854164600372,2.1202456951141357,40.48914337158203,3.822265625
577022,2.652310371398926,-1.0280671119689941,0.89754319190979,0.21372663974761963,2.1264657974243164,40.50279998779297,3.826171875
579522,2.6523451805114746,-1.027918815612793,0.8973891735076904,0.2348967045545578,2.117331027984619,40.46293640136719,3.826171875
582022,2.65234375,-1.0280412435531616,0.8971960544586182,0.2073231041431427,2.121152400970459,40.54672622680664,3.826171875
584522,2.652128219604492,-1.028319239616394,0.8980628848075867,0.20513413846492767,2.1063103675842285,40.58805465698242,3.826171875
587022,2.651712417602539,-1.0291067361831665,0.8997132182121277,0.2102864533662796,2.1196205615997314,40.53931427001953,3.826171875
589522,2.652146339416504,-1.0283405780792236,0.8982238173484802,0.23293958604335785,2.1267971992492676,40.530113220214844,3.826171875
592022,2.6521377563476562,-1.0283722877502441,0.8982767462730408,0.205389603972435,2.1270077228546143,40.5886116027832,3.826171875
594522,2.652742624282837,-1.0270670652389526,0.8956239223480225,0.2324291318655014,2.139491081237793,40.54707717895508,3.826171875
597022,2.6516318321228027,-1.0293943881988525,0.900148332118988,0.22056755423545837,2.1257762908935547,40.61692428588867,3.826171875
599522,2.6520516872406006,-1.0285570621490479,0.8984463214874268,0.22622543573379517,2.1352100372314453,40.61591339111328,3.826171875
602022,2.6518280506134033,-1.028952956199646,0.8994457125663757,0.21337173879146576,2.103938579559326,40.629966735839844,3.826171875
604522,2.651895523071289,-1.02870512008667,0.8989583849906921,0.2312280386686325,2.1409616470336914,40.447174072265625,3.826171875
607022,2.652421474456787,-1.0276108980178833,0.8968390226364136,0.2251807004213333,2.1206774711608887,40.4579963684082,3.83203125
609522,2.652562379837036,-1.0273634195327759,0.8959903120994568,0.22085833549499512,2.127638578414917,40.467063903808594,3.83203125
612022,2.6530635356903076,-1.026424527168274,0.8940953612327576,0.19719883799552917,2.104376792907715,40.49938201904297,3.83203125
614522,2.6526095867156982,-1.0273491144180298,0.8960233330726624,0.22280162572860718,2.1217117309570312,40.49007797241211,3.83203125
617022,2.6527886390686035,-1.0270217657089233,0.8953269720077515,0.22147080302238464,2.1012234687805176,40.44663619995117,3.83203125
619522,2.6524999141693115,-1.0277222394943237,0.8964994549751282,0.2338225245475769,2.122831106185913,40.524044036865234,3.83203125
622022,2.6529951095581055,-1.0265889167785645,0.8944162726402283,0.22886741161346436,2.1163978576660156,40.47151565551758,3.83203125
624522,2.6525957584381104,-1.0273010730743408,0.8960035443305969,0.22471725940704346,2.1007165908813477,40.46345901489258,3.83203125
627022,2.6527116298675537,-1.0270940065383911,0.89560467004776,0.21435542404651642,2.107491970062256,40.488441467285156,3.83203125
629522,2.652549982070923,-1.027347445487976,0.8960750699043274,0.20648561418056488,2.108809471130371,40.5001335144043,3.83203125
632022,2.652390480041504,-1.0278730392456055,0.8970361948013306,0.22330738604068756,2.113482713699341,40.56406021118164,3.83203125
634522,2.6526741981506348,-1.0271514654159546,0.8956985473632812,0.20000845193862915,2.1177754402160645,40.562618255615234,3.83203125
637023,2.6522655487060547,-1.0280346870422363,0.8974183797836304,0.22743050754070282,2.1198506355285645,40.571327209472656,3.837890625
639522,2.6527774333953857,-1.026999592781067,0.8952763676643372,0.216128870844841,2.1192753314971924,40.4871940612793,3.837890625
642022,2.652721643447876,-1.0271097421646118,0.8957870602607727,0.19796475768089294,2.0995118618011475,40.44801712036133,3.837890625
644522,2.653024911880493,-1.0266107320785522,0.8941212892532349,0.22243143618106842,2.1141207218170166,40.529457092285156,3.837890625
647022,2.6525843143463135,-1.027421236038208,0.8960331678390503,0.22948844730854034,2.1352813243865967,40.49033737182617,3.837890625
649522,2.6525540351867676,-1.027645468711853,0.8963267207145691,0.22257716953754425,2.1081883907318115,40.50307846069336,3.837890625
652022,2.6528384685516357,-1.026916265487671,0.8949224352836609,0.21680665016174316,2.1405766010284424,40.51115417480469,3.837890625
654522,2.652069330215454,-1.0285576581954956,0.8985555171966553,0.2260543555021286,2.1203901767730713,40.55811309814453,3.837890625
657022,2.651899814605713,-1.0288538932800293,0.899005115032196,0.23685728013515472,2.1342833042144775,40.54928207397461,3.837890625
682307,2.652440309524536,-1.0276453495025635,0.8966678977012634,0.22827015817165375,2.103414535522461,40.54014587402344,3.84375
684807,2.652266502380371,-1.0280096530914307,0.8973526358604431,0.22740419209003448,2.112921953201294,40.525753021240234,3.84375
687308,2.6525189876556396,-1.0274953842163086,0.8966251611709595,0.21924205124378204,2.1218836307525635,40.43785858154297,3.84375
689807,2.651837110519409,-1.029058814048767,0.8993237018585205,0.2262704074382782,2.1121997833251953,40.489986419677734,3.84375
692307,2.6529648303985596,-1.026606798171997,0.8946705460548401,0.21652214229106903,2.093087911605835,40.46969223022461,3.84375
694807,2.6526639461517334,-1.0271823406219482,0.8957279324531555,0.22358860075473785,2.1082327365875244,40.446868896484375,3.84375
697307,2.6528494358062744,-1.0267616510391235,0.8949576020240784,0.21512627601623535,2.102896213531494,40.44300842285156,3.84375
699807,2.6526331901550293,-1.02732253074646,0.8960261344909668,0.2233654409646988,2.1083130836486816,40.46519470214844,3.84375
702307,2.6525261402130127,-1.027483344078064,0.8963814973831177,0.21535375714302063,2.1045210361480713,40.50823211669922,3.84765625
704807,2.652651309967041,-1.0272279977798462,0.8956864476203918,0.22677046060562134,2.119529962539673,40.54364013671875,3.84765625
707307,2.652440071105957,-1.027804970741272,0.8971896767616272,0.23012125492095947,2.09521484375,40.52021026611328,3.84765625
709807,2.6531174182891846,-1.0261821746826172,0.8937909603118896,0.21335314214229584,2.119213104248047,40.5288200378418,3.84765625
712307,2.6525521278381348,-1.0274425745010376,0.8962169885635376,0.2076776921749115,2.1138558387756348,40.571170806884766,3.84765625
714807,2.6525402069091797,-1.02743399143219,0.8962293267250061,0.2282610684633255,2.1251964569091797,40.532344818115234,3.84765625
717307,2.6523678302764893,-1.0277750492095947,0.8968859314918518,0.2222289741039276,2.11043643951416,40.545291900634766,3.84765625
719807,2.652674913406372,-1.0272947549819946,0.8959537744522095,0.22922362387180328,2.0986545085906982,40.44184875488281,3.84765625
722307,2.6529829502105713,-1.0266177654266357,0.8947614431381226,0.21833918988704681,2.0878262519836426,40.465858459472656,3.84765625
724807,2.6527209281921387,-1.0273430347442627,0.8956362009048462,0.2329963892698288,2.1149210929870605,40.42577362060547,3.84765625
727307,2.653164863586426,-1.0264586210250854,0.8938886523246765,0.25016066431999207,2.100194215774536,40.47413635253906,3.84765625
729807,2.6528337001800537,-1.026892066001892,0.895014762878418,0.2501692771911621,2.109621524810791,40.4637565612793,3.84765625
732307,2.6527106761932373,-1.0270448923110962,0.8954796195030212,0.21959815919399261,2.1131927967071533,40.45793914794922,3.84765625
734807,2.6536717414855957,-1.0251446962356567,0.8916053771972656,0.21510440111160278,2.106962203979492,40.41975402832031,3.84765625
737307,2.653245687484741,-1.026041030883789,0.893203616142273,0.2326168268918991,2.1077771186828613,40.49433898925781,3.853515625
739807,2.652498483657837,-1.0274295806884766,0.8961790204048157,0.21794337034225464,2.116173505783081,40.434043884277344,3.853515625
742307,2.6520447731018066,-1.0284703969955444,0.8983525037765503,0.2264593094587326,2.135186195373535,40.52756118774414,3.853515625
744807,2.652162551879883,-1.0283151865005493,0.8978821039199829,0.2200462371110916,2.121004581451416,40.57750701904297,3.853515625
747307,2.6528313159942627,-1.0267173051834106,0.8949453830718994,0.2168387621641159,2.09383487701416,40.50529098510742,3.853515625
749807,2.651836633682251,-1.0289350748062134,0.8993101119995117,0.2225230634212494,2.1062097549438477,40.54758834838867,3.853515625
752308,2.6526403427124023,-1.0273432731628418,0.8958050012588501,0.24185533821582794,2.1357662677764893,40.45712661743164,3.853515625
754807,2.6530046463012695,-1.026366114616394,0.8942109942436218,0.2102479785680771,2.0894854068756104,40.386932373046875,3.853515625
757307,2.6522152423858643,-1.0280882120132446,0.8977488875389099,0.22961144149303436,2.1152241230010986,40.41524124145508,3.853515625
759807,2.652496337890625,-1.027616024017334,0.8969877362251282,0.20236808061599731,2.1092281341552734,40.449745178222656,3.853515625
762307,2.6528713703155518,-1.0268633365631104,0.894993245601654,0.24096599221229553,2.1149420738220215,40.41510772705078,3.853515625
764807,2.6533801555633545,-1.0256133079528809,0.8928152918815613,0.19730116426944733,2.085731267929077,40.45939636230469,3.853515625
767307,2.653148651123047,-1.0263279676437378,0.8937861919403076,0.21886323392391205,2.1137945652008057,40.50586700439453,3.853515625
769807,2.6526105403900146,-1.02726411819458,0.8959890604019165,0.20613695681095123,2.102783441543579,40.485721588134766,3.853515625
772307,2.652245283126831,-1.0278936624526978,0.897158682346344,0.20567737519741058,2.1124610900878906,40.475399017333984,3.859375
774807,2.6524267196655273,-1.0277578830718994,0.8969818949699402,0.21381448209285736,2.099705696105957,40.52165222167969,3.859375
777307,2.6518311500549316,-1.0289357900619507,0.8992918729782104,0.2314125895500183,2.1239986419677734,40.54192352294922,3.859375
779807,2.6523008346557617,-1.0279492139816284,0.8971883058547974,0.22351911664009094,2.107125759124756,40.54543685913086,3.859375
782307,2.6526057720184326,-1.0274347066879272,0.8962034583091736,0.2101646512746811,2.1202127933502197,40.55692672729492,3.859375
784808,2.6527342796325684,-1.0268610715866089,0.8954733610153198,0.215923473238945,2.119222640991211,40.488990783691406,3.859375
787307,2.6531143188476562,-1.0262092351913452,0.8936959505081177,0.22003765404224396,2.1174519062042236,40.38746643066406,3.859375
789807,2.652822732925415,-1.02688467502594,0.8951365351676941,0.2327694147825241,2.0992114543914795,40.46842956542969,3.859375
792307,2.652738094329834,-1.0270655155181885,0.8956220149993896,0.20343157649040222,2.1054933071136475,40.43836212158203,3.859375
794807,2.6523756980895996,-1.0277395248413086,0.8968523740768433,0.2108348309993744,2.1165597438812256,40.408687591552734,3.859375
797307,2.6537160873413086,-1.0249748229980469,0.8912441730499268,0.20719972252845764,2.10237193107605,40.38827133178711,3.859375
799807,2.6523032188415527,-1.0277711153030396,0.8969821929931641,0.22763194143772125,2.1138052940368652,40.45987319946289,3.859375
802307,2.6529994010925293,-1.0264695882797241,0.8943226933479309,0.23595690727233887,2.136390447616577,40.43718338012695,3.859375
804807,2.6530086994171143,-1.0267469882965088,0.8944709897041321,0.2433483898639679,2.096620559692383,40.46733856201172,3.859375
807307,2.652635097503662,-1.0270038843154907,0.8958020210266113,0.21251408755779266,2.1093688011169434,40.51374053955078,3.859375
809807,2.65261173248291,-1.0273154973983765,0.8958390951156616,0.2301323264837265,2.1221327781677246,40.526405334472656,3.859375
812307,2.652733087539673,-1.0270386934280396,0.8952929377555847,0.22255969047546387,2.0956871509552,40.509735107421875,3.86328125
814807,2.65236234664917,-1.0278284549713135,0.896988570690155,0.2097291648387909,2.1204025745391846,40.505306243896484,3.86328125
817307,2.652987480163574,-1.026511788368225,0.8941546678543091,0.22659823298454285,2.110785722732544,40.42564392089844,3.86328125
819807,2.6533212661743164,-1.0258010625839233,0.8929893970489502,0.2154715359210968,2.100703001022339,40.41184616088867,3.86328125
822307,2.6531965732574463,-1.0261210203170776,0.8936481475830078,0.2105809897184372,2.0952582359313965,40.42280197143555,3.86328125
824807,2.652456760406494,-1.0275179147720337,0.8966628909111023,0.23467974364757538,2.1262805461883545,40.408382415771484,3.86328125
827307,2.6529812812805176,-1.0266553163528442,0.8944085240364075,0.21467970311641693,2.0870606899261475,40.45637512207031,3.86328125
829807,2.65285587310791,-1.0268296003341675,0.8948109149932861,0.2342970371246338,2.102473497390747,40.47977066040039,3.86328125
832307,2.653062582015991,-1.0262655019760132,0.893936276435852,0.21288302540779114,2.1000540256500244,40.450958251953125,3.86328125
834807,2.6528632640838623,-1.0268207788467407,0.8949456810951233,0.22175875306129456,2.1087634563446045,40.45413589477539,3.86328125
837307,2.652751922607422,-1.0271247625350952,0.8953534364700317,0.24012848734855652,2.0788540840148926,40.50273895263672,3.86328125
839807,2.6522607803344727,-1.0280816555023193,0.8974140286445618,0.2140529304742813,2.116884708404541,40.503231048583984,3.86328125
842307,2.652191638946533,-1.0281914472579956,0.8978635668754578,0.22649581730365753,2.0919628143310547,40.53546142578125,3.86328125
844807,2.6531331539154053,-1.0260125398635864,0.8935978412628174,0.21266590058803558,2.109301805496216,40.4991569519043,3.86328125
847307,2.653214693069458,-1.026116132736206,0.8932009339332581,0.2358020693063736,2.1188511848449707,40.50922393798828,3.869140625
849808,2.652482032775879,-1.0275992155075073,0.8963968753814697,0.23178841173648834,2.1042916774749756,40.56682205200195,3.86328125
852307,2.6529457569122314,-1.0267077684402466,0.8946428298950195,0.24101614952087402,2.118246555328369,40.452884674072266,3.869140625
854807,2.652756452560425,-1.0268610715866089,0.895092785358429,0.2206198275089264,2.1069257259368896,40.44272232055664,3.869140625
857307,2.652994394302368,-1.0264548063278198,0.8943812251091003,0.21851423382759094,2.098670244216919,40.4769401550293,3.869140625
859807,2.6532199382781982,-1.0260878801345825,0.8932626247406006,0.226520836353302,2.1039559841156006,40.4715576171875,3.869140625
862307,2.6522979736328125,-1.0282090902328491,0.8976209163665771,0.2257687896490097,2.0919644832611084,40.467613220214844,3.869140625
864807,2.6533186435699463,-1.025716781616211,0.8927448987960815,0.22052398324012756,2.099196672439575,40.44938659667969,3.869140625
867307,2.6520676612854004,-1.0284326076507568,0.8982832431793213,0.22864075005054474,2.115278482437134,40.463294982910156,3.869140625
869807,2.6525115966796875,-1.0275537967681885,0.896459698677063,0.2209949940443039,2.0848562717437744,40.56877899169922,3.869140625
872307,2.6523489952087402,-1.0277979373931885,0.896972119808197,0.23173803091049194,2.11053729057312,40.579627990722656,3.869140625
874807,2.652141571044922,-1.028346061706543,0.8979219794273376,0.21528726816177368,2.1316916942596436,40.564292907714844,3.869140625
877307,2.652667760848999,-1.0273888111114502,0.8957703709602356,0.22929275035858154,2.1032609939575195,40.557254791259766,3.869140625
879807,2.6523854732513428,-1.0277138948440552,0.8968544006347656,0.19552473723888397,2.1009068489074707,40.583351135253906,3.869140625
882307,2.652829170227051,-1.027106761932373,0.8953732848167419,0.24725070595741272,2.1137888431549072,40.44767379760742,3.869140625
884807,2.652844190597534,-1.0267987251281738,0.8948237299919128,0.23235632479190826,2.1100306510925293,40.412635803222656,3.869140625
887307,2.6528494358062744,-1.0269042253494263,0.8953197598457336,0.2352326363325119,2.0842297077178955,40.42414474487305,3.869140625
889807,2.65307354927063,-1.0263054370880127,0.893936038017273,0.22464509308338165,2.0997233390808105,40.40497970581055,3.875
892307,2.65327525138855,-1.02596914768219,0.8931155204772949,0.22561609745025635,2.099689483642578,40.38894271850586,3.875
894807,2.6526944637298584,-1.0270812511444092,0.895622730255127,0.22264641523361206,2.086519241333008,40.454368591308594,3.875
897307,2.652559518814087,-1.0274529457092285,0.8960742354393005,0.22606785595417023,2.12256121635437,40.50517272949219,3.875
899807,2.6521706581115723,-1.0282503366470337,0.8978135585784912,0.20519322156906128,2.1095871925354004,40.53212356567383,3.875
902307,2.6530542373657227,-1.026566743850708,0.8944104909896851,0.22902952134609222,2.084048271179199,40.51533508300781,3.875
904807,2.652440071105957,-1.027608871459961,0.8966168165206909,0.22681443393230438,2.1164965629577637,40.49342727661133,3.875
907307,2.6526525020599365,-1.0275148153305054,0.8963849544525146,0.21404846012592316,2.0891053676605225,40.5705451965332,3.875
909807,2.652291774749756,-1.027869701385498,0.8972103595733643,0.2062840610742569,2.1019227504730225,40.52553176879883,3.875
912307,2.6529877185821533,-1.0264445543289185,0.8943130373954773,0.22523263096809387,2.1097521781921387,40.569679260253906,3.875
914807,2.6533851623535156,-1.0256730318069458,0.892748236656189,0.23173515498638153,2.105837821960449,40.36663818359375,3.875
917307,2.653291940689087,-1.0259512662887573,0.8930586576461792,0.21161942183971405,2.1185076236724854,40.38465881347656,3.875
919807,2.653508424758911,-1.025438904762268,0.8921300768852234,0.2257639467716217,2.0905284881591797,40.37281036376953,3.875
922307,2.6533684730529785,-1.0256314277648926,0.8924752473831177,0.21599973738193512,2.099731206893921,40.37643051147461,3.875
924807,2.653003215789795,-1.0266767740249634,0.8945313096046448,0.2371305674314499,2.0944108963012695,40.451290130615234,3.875
927307,2.653282880783081,-1.0257471799850464,0.8930354118347168,0.2146914005279541,2.08208966255188,40.460262298583984,3.875
929807,2.6528942584991455,-1.0266367197036743,0.8943718075752258,0.23885898292064667,2.0919835567474365,40.432647705078125,3.875
932307,2.6526682376861572,-1.027078628540039,0.8956283926963806,0.220317542552948,2.081319570541382,40.46419143676758,3.875
934807,2.652681350708008,-1.0270510911941528,0.8958194255828857,0.2281223088502884,2.0983245372772217,40.468021392822266,3.875
937307,2.6530954837799072,-1.026142954826355,0.893734335899353,0.1982223242521286,2.0919089317321777,40.49955749511719,3.875
939807,2.6531529426574707,-1.0261344909667969,0.8934915661811829,0.21930071711540222,2.0801215171813965,40.46501541137695,3.875
942307,2.6528737545013428,-1.026818037033081,0.8949888944625854,0.2082405686378479,2.101487636566162,40.48280715942383,3.875
944807,2.6528844833374023,-1.0268617868423462,0.894938588142395,0.22639383375644684,2.088071823120117,40.366943359375,3.875
947307,2.652998447418213,-1.0265378952026367,0.8942165970802307,0.230725958943367,2.078855276107788,40.40578079223633,3.87890625
949807,2.6533825397491455,-1.0255439281463623,0.8924162983894348,0.2062719315290451,2.0968306064605713,40.35686492919922,3.875
952307,2.6526100635528564,-1.0273746252059937,0.8962407112121582,0.21101011335849762,2.0810587406158447,40.43717575073242,3.87890625
954807,2.6530749797821045,-1.0263761281967163,0.8942113518714905,0.219926118850708,2.1004600524902344,40.430145263671875,3.87890625
957307,2.6527767181396484,-1.0267646312713623,0.8951359987258911,0.2111959010362625,2.0894086360931396,40.47138977050781,3.87890625
959807,2.6528282165527344,-1.026934027671814,0.8948115706443787,0.19925735890865326,2.1113576889038086,40.50598907470703,3.87890625
962307,2.6531753540039062,-1.0261138677597046,0.8935597538948059,0.22358228266239166,2.1062138080596924,40.46070098876953,3.87890625
964807,2.653104782104492,-1.0261645317077637,0.8936984539031982,0.21165066957473755,2.1085846424102783,40.46509552001953,3.87890625
967307,2.652923822402954,-1.0266574621200562,0.8944002985954285,0.21686053276062012,2.0959055423736572,40.46751022338867,3.87890625
969807,2.6533455848693848,-1.0257906913757324,0.8929322361946106,0.22968041896820068,2.082643508911133,40.479652404785156,3.87890625
972307,2.6528544425964355,-1.0267740488052368,0.8949729204177856,0.22371099889278412,2.112766981124878,40.48197555541992,3.87890625
974807,2.653728723526001,-1.0248980522155762,0.8909925818443298,0.23527449369430542,2.0928397178649902,40.496238708496094,3.87890625
977307,2.6528279781341553,-1.026952862739563,0.8950292468070984,0.22955453395843506,2.1141629219055176,40.41496658325195,3.87890625
979807,2.6532812118530273,-1.02568519115448,0.8927000761032104,0.2223685383796692,2.1180028915405273,40.41786575317383,3.87890625
982307,2.6530282497406006,-1.0262432098388672,0.894077479839325,0.22333283722400665,2.0852010250091553,40.40140151977539,3.87890625
984807,2.653266429901123,-1.0257773399353027,0.8930778503417969,0.21138978004455566,2.0921010971069336,40.367332458496094,3.87890625
987307,2.6526403427124023,-1.0274611711502075,0.8960307240486145,0.22796531021595,2.0981104373931885,40.45915603637695,3.87890625
989807,2.6520962715148926,-1.0282607078552246,0.8980532884597778,0.2206842303276062,2.1033613681793213,40.475120544433594,3.87890625
992307,2.6531848907470703,-1.02601957321167,0.8934473991394043,0.21959318220615387,2.097630500793457,40.47597122192383,3.884765625
994807,2.653034210205078,-1.0262891054153442,0.8940176367759705,0.22019150853157043,2.0998196601867676,40.49525833129883,3.87890625
997307,2.6525731086730957,-1.027443766593933,0.8961032629013062,0.21999292075634003,2.0971922874450684,40.56460952758789,3.884765625
999807,2.6526222229003906,-1.0273932218551636,0.8959828019142151,0.19792324304580688,2.1001977920532227,40.62532043457031,3.884765625
1002307,2.6526544094085693,-1.0273724794387817,0.8957850337028503,0.22997811436653137,2.1044957637786865,40.58412170410156,3.884765625
1004807,2.652549982070923,-1.0274198055267334,0.8963039517402649,0.2248004525899887,2.101752996444702,40.55001449584961,3.884765625
1007307,2.6525540351867676,-1.0274065732955933,0.8960434198379517,0.22772134840488434,2.11639142036438,40.555389404296875,3.884765625
1009807,2.652911901473999,-1.026503562927246,0.8947249054908752,0.2302795797586441,2.0854575634002686,40.3976936340332,3.884765625
1012307,2.653132677078247,-1.0264739990234375,0.8939101696014404,0.226332426071167,2.0993874073028564,40.446346282958984,3.884765625
1014807,2.653285503387451,-1.0261669158935547,0.8933072686195374,0.2345116287469864,2.0939764976501465,40.41075897216797,3.884765625
1017307,2.6538186073303223,-1.0248500108718872,0.8910244703292847,0.2220936268568039,2.1080269813537598,40.377315521240234,3.884765625
1019807,2.653700590133667,-1.0249534845352173,0.8913214802742004,0.22595152258872986,2.1002180576324463,40.338958740234375,3.884765625
1022307,2.6535227298736572,-1.0252279043197632,0.8917080760002136,0.20576448738574982,2.0948359966278076,40.40857696533203,3.884765625
1024807,2.6529345512390137,-1.026513934135437,0.8941847085952759,0.24681326746940613,2.122905731201172,40.396324157714844,3.884765625
1027307,2.6532413959503174,-1.0258430242538452,0.8927462100982666,0.21824218332767487,2.115243911743164,40.43002700805664,3.884765625
1029807,2.653104543685913,-1.0261882543563843,0.893476665019989,0.22251437604427338,2.115034818649292,40.4455451965332,3.884765625
1032307,2.652846097946167,-1.026904582977295,0.8948608040809631,0.22094468772411346,2.1012558937072754,40.489891052246094,3.884765625
1034807,2.652902841567993,-1.0266468524932861,0.8947215676307678,0.2047121226787567,2.091930389404297,40.480979919433594,3.884765625
1037307,2.6528520584106445,-1.0267198085784912,0.8947331309318542,0.23067831993103027,2.0956671237945557,40.505863189697266,3.890625
1039807,2.652287244796753,-1.027933120727539,0.8972072005271912,0.22231192886829376,2.1076860427856445,40.51710510253906,3.884765625
1042308,2.652562141418457,-1.0272548198699951,0.8959940671920776,0.20898032188415527,2.115243673324585,40.578941345214844,3.884765625
1044807,2.6531310081481934,-1.0261954069137573,0.8935748934745789,0.2125691920518875,2.091883659362793,40.483097076416016,3.884765625
1047307,2.6527798175811768,-1.026950716972351,0.8950923085212708,0.2379990965127945,2.1016509532928467,40.410850524902344,3.890625
1049807,2.652690887451172,-1.027180552482605,0.895687460899353,0.24442777037620544,2.088733434677124,40.43837356567383,3.890625
1052307,2.6532304286956787,-1.0256913900375366,0.8927706480026245,0.22165259718894958,2.0994017124176025,40.43312454223633,3.890625
1054807,2.6532154083251953,-1.025851845741272,0.8929258584976196,0.21091248095035553,2.098684072494507,40.3828125,3.890625
1057307,2.653412342071533,-1.0256599187850952,0.8922905921936035,0.22717882692813873,2.0958006381988525,40.43000411987305,3.890625
1059807,2.65309476852417,-1.026386022567749,0.8939448595046997,0.23174811899662018,2.100709915161133,40.48171615600586,3.890625
1062307,2.653182029724121,-1.0259450674057007,0.893403947353363,0.21466413140296936,2.091893196105957,40.431854248046875,3.890625
1064807,2.6528477668762207,-1.0265469551086426,0.8945369720458984,0.2099820077419281,2.113399028778076,40.456905364990234,3.890625
1067307,2.653289556503296,-1.0257558822631836,0.8928125500679016,0.22670744359493256,2.092306137084961,40.4980354309082,3.890625
1069807,2.6528003215789795,-1.0270496606826782,0.8953045606613159,0.24633203446865082,2.1074411869049072,40.54637145996094,3.890625
1072307,2.6530232429504395,-1.0264935493469238,0.8942574858665466,0.25256767868995667,2.0874154567718506,40.53743362426758,3.890625
1074808,2.653463840484619,-1.0256954431533813,0.892435610294342,0.24062085151672363,2.0902199745178223,40.41164016723633,3.890625
1077307,2.6529242992401123,-1.0265902280807495,0.8943649530410767,0.21710531413555145,2.0876169204711914,40.41267776489258,3.890625
1079807,2.6530332565307617,-1.0263776779174805,0.8940106630325317,0.21262092888355255,2.0989186763763428,40.4315071105957,3.890625
1082307,2.6528217792510986,-1.0267807245254517,0.8949019312858582,0.21745559573173523,2.1089043617248535,40.46146011352539,3.890625
1084807,2.6531565189361572,-1.0260567665100098,0.8935422301292419,0.19640664756298065,2.0839078426361084,40.47801971435547,3.890625
1087307,2.6527998447418213,-1.027038812637329,0.8952539563179016,0.23366662859916687,2.0971598625183105,40.528053283691406,3.890625
1089807,2.653081178665161,-1.0263681411743164,0.8941753506660461,0.233087956905365,2.0912270545959473,40.516754150390625,3.890625
1092307,2.6530182361602783,-1.0265321731567383,0.894004762172699,0.23248964548110962,2.1031479835510254,40.51322555541992,3.890625
1094807,2.6528005599975586,-1.0269042253494263,0.8951005935668945,0.2199978083372116,2.099684000015259,40.50286865234375,3.890625
1097307,2.6529908180236816,-1.0264776945114136,0.8941380977630615,0.23329707980155945,2.10365629196167,40.451576232910156,3.890625
1099807,2.652228593826294,-1.0280756950378418,0.8975025415420532,0.21475934982299805,2.092963218688965,40.52954864501953,3.890625
1102307,2.65258526802063,-1.027439832687378,0.8961513638496399,0.2222980260848999,2.104029893875122,40.54420852661133,3.890625
1104807,2.6520822048187256,-1.0284630060195923,0.8982698321342468,0.22534027695655823,2.0873990058898926,40.59716033935547,3.890625
1107308,2.6525368690490723,-1.027517318725586,0.8965058326721191,0.2290455549955368,2.1031734943389893,40.59838104248047,3.890625
1109807,2.652799606323242,-1.0269078016281128,0.8951232433319092,0.2276427447795868,2.0937283039093018,40.467620849609375,3.896484375
1112307,2.653156042098999,-1.0260789394378662,0.8935445547103882,0.20326866209506989,2.1068525314331055,40.48951721191406,3.890625
1114807,2.653224229812622,-1.0257660150527954,0.8931772112846375,0.22491048276424408,2.095576763153076,40.44056701660156,3.896484375
1117307,2.6529288291931152,-1.0267164707183838,0.8946831822395325,0.23140794038772583,2.1058437824249268,40.47666931152344,3.896484375
1119807,2.6526482105255127,-1.0270864963531494,0.8957323431968689,0.21277980506420135,2.0896894931793213,40.5088005065918,3.896484375
1122307,2.653015375137329,-1.0264643430709839,0.8940313458442688,0.22558331489562988,2.125863790512085,40.539146423339844,3.896484375
1124807,2.652876853942871,-1.0269702672958374,0.8951036334037781,0.2396327406167984,2.0867743492126465,40.58577346801758,3.896484375
1127307,2.652649402618408,-1.0272791385650635,0.8956097364425659,0.23603548109531403,2.105802536010742,40.569496154785156,3.890625
1129807,2.652494192123413,-1.0276548862457275,0.896757960319519,0.2209165394306183,2.102626085281372,40.54082489013672,3.896484375
1132307,2.6526718139648438,-1.0272718667984009,0.8956891894340515,0.22498489916324615,2.1040430068969727,40.5654182434082,3.896484375
1134807,2.652299642562866,-1.0279461145401,0.8972036838531494,0.22095346450805664,2.1098268032073975,40.57112503051758,3.896484375
1137307,2.652742862701416,-1.027166485786438,0.8954616189002991,0.2214888632297516,2.107070207595825,40.58562469482422,3.896484375
1139808,2.653477668762207,-1.0257482528686523,0.8925748467445374,0.24849200248718262,2.0978894233703613,40.42030334472656,3.896484375
1142307,2.653451442718506,-1.0254563093185425,0.892268717288971,0.2195952832698822,2.1048460006713867,40.42355728149414,3.896484375
1144807,2.65356183052063,-1.0252044200897217,0.8917582035064697,0.22351139783859253,2.0894031524658203,40.452064514160156,3.896484375
1147307,2.653524160385132,-1.025118112564087,0.8914288282394409,0.2250537872314453,2.1027331352233887,40.42695999145508,3.896484375
1149807,2.65309476852417,-1.02619206905365,0.8936361074447632,0.22489947080612183,2.1064534187316895,40.45301055908203,3.896484375
1152307,2.6527211666107178,-1.0270471572875977,0.8952949643135071,0.23149849474430084,2.0947649478912354,40.46731185913086,3.896484375
1154807,2.6534690856933594,-1.0254449844360352,0.8918540477752686,0.21469466388225555,2.1228244304656982,40.4681396484375,3.896484375
1157307,2.6529312133789062,-1.0265085697174072,0.8945438861846924,0.20694833993911743,2.0830209255218506,40.51064682006836,3.896484375
1159807,2.6528775691986084,-1.0266450643539429,0.8944728970527649,0.24064309895038605,2.1089859008789062,40.46952819824219,3.896484375
1162307,2.6529431343078613,-1.0265151262283325,0.8943188786506653,0.2348310649394989,2.078727960586548,40.50984573364258,3.896484375
1164807,2.652585744857788,-1.0273585319519043,0.8960135579109192,0.24963273108005524,2.0985360145568848,40.56441116333008,3.896484375
1167307,2.651853322982788,-1.0287137031555176,0.8990011811256409,0.20385874807834625,2.106196165084839,40.58114242553711,3.896484375
1169807,2.6534206867218018,-1.0254907608032227,0.8923239707946777,0.23160390555858612,2.0984439849853516,40.37751770019531,3.900390625
1172307,2.6528563499450684,-1.0267740488052368,0.8949523568153381,0.2224157303571701,2.0759646892547607,40.4284553527832,3.896484375
1174807,2.6530892848968506,-1.026282548904419,0.8938363194465637,0.224398672580719,2.106689929962158,40.4704704284668,3.900390625
1177307,2.6529552936553955,-1.026605248451233,0.8943402767181396,0.2252872884273529,2.0960023403167725,40.48357391357422,3.896484375
1179807,2.6528236865997314,-1.0269055366516113,0.8950141668319702,0.2349739968776703,2.098147392272949,40.45260238647461,3.900390625
1182307,2.653052806854248,-1.0264604091644287,0.893947184085846,0.23029662668704987,2.0918924808502197,40.4434700012207,3.896484375
1184807,2.6522860527038574,-1.0280439853668213,0.8972826600074768,0.23029744625091553,2.092454195022583,40.539642333984375,3.900390625
1187307,2.653050422668457,-1.0264095067977905,0.894402801990509,0.22582696378231049,2.0793867111206055,40.4559440612793,3.900390625
1189807,2.65354323387146,-1.0254650115966797,0.8921061754226685,0.22357429563999176,2.093442678451538,40.47776794433594,3.900390625
1192307,2.6528825759887695,-1.0269376039505005,0.8948847055435181,0.23184603452682495,2.0904083251953125,40.53668212890625,3.900390625
1194807,2.65230655670166,-1.0280672311782837,0.8972578048706055,0.24088434875011444,2.104180097579956,40.5582275390625,3.900390625
1197307,2.653095245361328,-1.0261785984039307,0.8934789896011353,0.22675412893295288,2.116830825805664,40.565155029296875,3.900390625
1199807,2.6528403759002686,-1.0268720388412476,0.8949763178825378,0.2302895039319992,2.0901927947998047,40.57168960571289,3.900390625
1202307,2.6533737182617188,-1.0258283615112305,0.8929105401039124,0.2397914081811905,2.103670120239258,40.42659378051758,3.900390625
1204807,2.652588129043579,-1.0273892879486084,0.8960941433906555,0.22363339364528656,2.0988996028900146,40.42781066894531,3.900390625
1207307,2.6534719467163086,-1.0257010459899902,0.8925971388816833,0.23201128840446472,2.093986988067627,40.43581008911133,3.900390625
1209807,2.6531472206115723,-1.0261123180389404,0.8937321305274963,0.22594709694385529,2.084249258041382,40.41621780395508,3.900390625
