time.ms,stateEstimate.x,stateEstimate.y,stateEstimate.z,stabilizer.roll,stabilizer.pitch,stabilizer.yaw,pm.vbat
243289,-0.15085014700889587,-0.2852840721607208,-0.012109886854887009,0.3489932417869568,0.37614119052886963,-87.4981918334961,1
243299,-0.14699111878871918,-0.2867126166820526,-0.012401113286614418,0.2662647068500519,0.3258817493915558,-87.44664001464844,1
243310,-0.14676779508590698,-0.28681084513664246,-0.012266314588487148,0.26732727885246277,0.3272061049938202,-87.36660766601562,1
243319,-0.15109848976135254,-0.28533872961997986,-0.012432732619345188,0.38461679220199585,0.38640233874320984,-87.51364135742188,1
243329,-0.1475653201341629,-0.28684765100479126,-0.012534466572105885,0.26993435621261597,0.3144873082637787,-87.46371459960938,1
243339,-0.1473492532968521,-0.28696200251579285,-0.012404565699398518,0.26997268199920654,0.3147001564502716,-87.38523864746094,1
243349,-0.15099523961544037,-0.28539931774139404,-0.012158784084022045,0.3404732644557953,0.36251968145370483,-87.54315185546875,1
243359,-0.15088073909282684,-0.2854527235031128,-0.012010326609015465,0.3406333327293396,0.36454853415489197,-87.46331787109375,1
243369,-0.14684729278087616,-0.286973237991333,-0.01231562439352274,0.22919994592666626,0.30016040802001953,-87.40794372558594,1
243379,-0.15092165768146515,-0.28543463349342346,-0.012236577458679676,0.35611391067504883,0.3688802421092987,-87.54803466796875,1
243389,-0.15082354843616486,-0.28548285365104675,-0.012090323492884636,0.3557816743850708,0.36787182092666626,-87.46797180175781,1
243399,-0.14712178707122803,-0.2868722081184387,-0.012365777045488358,0.27727237343788147,0.32029852271080017,-87.41411590576172,1
243410,-0.14690934121608734,-0.2869820296764374,-0.012233879417181015,0.2775893211364746,0.32071322202682495,-87.33407592773438,1
243419,-0.1510501652956009,-0.2854975163936615,-0.012275172397494316,0.39116358757019043,0.3811917304992676,-87.49809265136719,1
243429,-0.14747022092342377,-0.2867247462272644,-0.012618971057236195,0.2751481533050537,0.3192847669124603,-87.45677947998047,1
243439,-0.14725247025489807,-0.2868346571922302,-0.012501473538577557,0.2763444483280182,0.32107168436050415,-87.37808227539062,1
243449,-0.15087197721004486,-0.28524690866470337,-0.012232196517288685,0.34652090072631836,0.36944761872291565,-87.53679656982422,1
243461,-0.15075574815273285,-0.28529390692710876,-0.012096735648810863,0.34554898738861084,0.3677027225494385,-87.45809173583984,1
243469,-0.14692212641239166,-0.28679919242858887,-0.012341048568487167,0.23928917944431305,0.3054378032684326,-87.404296875,1
243479,-0.15102894604206085,-0.28542831540107727,-0.012508166022598743,0.3674614131450653,0.3677576780319214,-87.55516815185547,1
243489,-0.15094265341758728,-0.2854739725589752,-0.012384148314595222,0.36800888180732727,0.36626678705215454,-87.47636413574219,1
243499,-0.14722207188606262,-0.2868393063545227,-0.012708708643913269,0.28995174169540405,0.31977754831314087,-87.42333984375,1
243510,-0.14702096581459045,-0.2869391441345215,-0.012599027715623379,0.29144182801246643,0.321455717086792,-87.34359741210938,1
243519,-0.15101811289787292,-0.28519341349601746,-0.01226772554218769,0.40064066648483276,0.38755208253860474,-87.49906158447266,1
243529,-0.1473056524991989,-0.28652068972587585,-0.01257343590259552,0.2813771367073059,0.32186535000801086,-87.44817352294922,1
243539,-0.14709237217903137,-0.28661197423934937,-0.012453533709049225,0.28046637773513794,0.32072582840919495,-87.3687515258789,1
243549,-0.15106171369552612,-0.2850361168384552,-0.012383358553051949,0.35986799001693726,0.36900806427001953,-87.5234146118164,1
243561,-0.15096241235733032,-0.2850637137889862,-0.012253699824213982,0.3586372435092926,0.3693256080150604,-87.4435043334961,1
243569,-0.14719362556934357,-0.2867300510406494,-0.012345744296908379,0.2527482807636261,0.301595002412796,-87.39750671386719,1
243579,-0.15129809081554413,-0.2853336036205292,-0.012473512440919876,0.3798659145832062,0.36646825075149536,-87.54927062988281,1
243589,-0.1512274444103241,-0.28537043929100037,-0.012343301437795162,0.38017261028289795,0.3659381568431854,-87.47068786621094,1
243599,-0.14740343391895294,-0.28695377707481384,-0.012535824440419674,0.3003554046154022,0.3119390904903412,-87.41841125488281,1
243610,-0.14721661806106567,-0.2870592474937439,-0.012414614669978619,0.3008229434490204,0.3113596737384796,-87.33757019042969,1
243619,-0.15134336054325104,-0.2852829098701477,-0.012074772268533707,0.41428524255752563,0.37995895743370056,-87.49258422851562,1
243629,-0.1472613513469696,-0.28671619296073914,-0.01244997326284647,0.28189393877983093,0.31036898493766785,-87.44462585449219,1
243639,-0.1470472365617752,-0.28682568669319153,-0.012323999777436256,0.2817111313343048,0.3102363049983978,-87.36554718017578,1
243649,-0.15121768414974213,-0.28538310527801514,-0.012472381815314293,0.3644593060016632,0.3552643060684204,-87.51626586914062,1
243659,-0.1511225700378418,-0.2854362428188324,-0.012345944531261921,0.36382296681404114,0.35664746165275574,-87.43636322021484,1
243669,-0.1470678597688675,-0.28692707419395447,-0.012713104486465454,0.2503650188446045,0.2938295900821686,-87.39004516601562,1
243679,-0.1509425938129425,-0.2853286564350128,-0.012487160973250866,0.3708334267139435,0.36441901326179504,-87.54573059082031,1
243689,-0.15085799992084503,-0.28536975383758545,-0.012352309189736843,0.3704492747783661,0.3647332489490509,-87.4655532836914,1
243699,-0.1471100002527237,-0.28693172335624695,-0.012525346130132675,0.2928656041622162,0.311215341091156,-87.4107894897461,1
243710,-0.14690935611724854,-0.2870418429374695,-0.01240075659006834,0.29282647371292114,0.3119141757488251,-87.33187866210938,1
243719,-0.1512160450220108,-0.2853059768676758,-0.012191485613584518,0.4125465452671051,0.37894541025161743,-87.4941635131836,1
243729,-0.14734502136707306,-0.28669020533561707,-0.012526306323707104,0.2855418920516968,0.3104252517223358,-87.4528579711914,1
243739,-0.14713701605796814,-0.2868002653121948,-0.012401041574776173,0.2844911813735962,0.31020042300224304,-87.37413787841797,1
243749,-0.15088772773742676,-0.2852194309234619,-0.01217707060277462,0.35867011547088623,0.3583780527114868,-87.53118133544922,1
243759,-0.1507851630449295,-0.2852696478366852,-0.012033005245029926,0.35838228464126587,0.3581031560897827,-87.45256805419922,1
243769,-0.14692562818527222,-0.28681230545043945,-0.012255696579813957,0.2500044107437134,0.2938902974128723,-87.39964294433594,1
243779,-0.151182621717453,-0.28529655933380127,-0.01228050235658884,0.38242077827453613,0.36384117603302,-87.56415557861328,1
243789,-0.15111446380615234,-0.28534135222435,-0.012137086130678654,0.38126546144485474,0.3642527759075165,-87.48365020751953,1
243799,-0.14723089337348938,-0.2867027819156647,-0.012521245516836643,0.29937177896499634,0.31883347034454346,-87.42780303955078,1
243810,-0.14704537391662598,-0.28680548071861267,-0.01239819172769785,0.2989356219768524,0.3178133964538574,-87.34740447998047,1
243819,-0.15117000043392181,-0.2852758467197418,-0.012376402504742146,0.41221150755882263,0.3784834146499634,-87.5114974975586,1
243829,-0.1474297195672989,-0.2867133915424347,-0.012614458799362183,0.28820666670799255,0.3091784715652466,-87.47157287597656,1
243839,-0.14723172783851624,-0.2868293225765228,-0.012491782195866108,0.2875206172466278,0.30963805317878723,-87.39311981201172,1
243849,-0.15104936063289642,-0.28531429171562195,-0.012387299910187721,0.36329108476638794,0.35655081272125244,-87.53981018066406,1
243859,-0.15096251666545868,-0.285368412733078,-0.012251991778612137,0.36224377155303955,0.3561447262763977,-87.46128845214844,1
243869,-0.14710703492164612,-0.2869957685470581,-0.012426741421222687,0.2552869915962219,0.2901371419429779,-87.408447265625,1
243879,-0.15129417181015015,-0.28543975949287415,-0.012358572334051132,0.3844611942768097,0.3595741093158722,-87.56489562988281,1
243889,-0.15123817324638367,-0.285489022731781,-0.012219076044857502,0.3842155635356903,0.3588058054447174,-87.4847412109375,1
243899,-0.14721514284610748,-0.28687459230422974,-0.012652624398469925,0.2987756133079529,0.3126838207244873,-87.43050384521484,1
243910,-0.14703518152236938,-0.28698426485061646,-0.012533443048596382,0.2989836037158966,0.3131582736968994,-87.35240173339844,1
243919,-0.15102119743824005,-0.28523045778274536,-0.01215553842484951,0.4079415500164032,0.37786754965782166,-87.51241302490234,1
243929,-0.14735551178455353,-0.28664565086364746,-0.012378270737826824,0.2897334098815918,0.30979615449905396,-87.45954895019531,1
243939,-0.14716295897960663,-0.28675439953804016,-0.012243760749697685,0.28904789686203003,0.3091108798980713,-87.38251495361328,1
243949,-0.15089239180088043,-0.2854180335998535,-0.012314056977629662,0.3621480464935303,0.3490450382232666,-87.53887939453125,1
243959,-0.15080663561820984,-0.28547483682632446,-0.012176400050520897,0.36133548617362976,0.3484492897987366,-87.45903015136719,1
243969,-0.1469166874885559,-0.28689417243003845,-0.012526903301477432,0.2524917423725128,0.29019588232040405,-87.406494140625,1
243979,-0.15124371647834778,-0.2853984534740448,-0.01261585857719183,0.386503130197525,0.3590885400772095,-87.55529022216797,1
243989,-0.1511913388967514,-0.2854418158531189,-0.01248933095484972,0.3858952820301056,0.3584217429161072,-87.47608947753906,1
243999,-0.14740219712257385,-0.2868909239768982,-0.01278724055737257,0.3059091866016388,0.30945324897766113,-87.42744445800781,1
244011,-0.1472340077161789,-0.286991149187088,-0.012678353115916252,0.30657586455345154,0.31079453229904175,-87.34814453125,1
244019,-0.15135203301906586,-0.28536859154701233,-0.012545781210064888,0.41814032196998596,0.3725062608718872,-87.49710083007812,1
244029,-0.1471753865480423,-0.2872849106788635,-0.01260379422456026,0.2878102958202362,0.28470680117607117,-87.45733642578125,1
244039,-0.14698369801044464,-0.28741586208343506,-0.012479721568524837,0.28762078285217285,0.2819249629974365,-87.37885284423828,1
244049,-0.15090031921863556,-0.2856520414352417,-0.012101822532713413,0.3522113859653473,0.3292088806629181,-87.52556610107422,1
244059,-0.15080249309539795,-0.28572386503219604,-0.011956905014812946,0.35136306285858154,0.3287612795829773,-87.44601440429688,1
244069,-0.14701764285564423,-0.2869110405445099,-0.012465270236134529,0.25014176964759827,0.2791704833507538,-87.39432525634766,1
244079,-0.1508541852235794,-0.28528085350990295,-0.012191531248390675,0.3243020474910736,0.32437214255332947,-87.53892517089844,1
244089,-0.15071289241313934,-0.28535494208335876,-0.012056373059749603,0.32443588972091675,0.32431936264038086,-87.46041870117188,1
244099,-0.1468726545572281,-0.28678956627845764,-0.012373900972306728,0.21182896196842194,0.264403373003006,-87.41217041015625,1
244111,-0.14656467735767365,-0.28694257140159607,-0.012260664254426956,0.2111724466085434,0.2637551426887512,-87.3326644897461,1
244119,-0.15062706172466278,-0.2853253483772278,-0.012081556022167206,0.33722278475761414,0.3348666727542877,-87.4901351928711,1
244129,-0.14697542786598206,-0.28692489862442017,-0.012175326235592365,0.26055485010147095,0.2792976200580597,-87.43670654296875,1
244139,-0.14697542786598206,-0.28692489862442017,-0.012175326235592365,0.26055485010147095,0.2792976200580597,-87.43670654296875,1
244149,-0.150886669754982,-0.2854132354259491,-0.012037839740514755,0.3792726695537567,0.3458012640476227,-87.58432006835938,1
244159,-0.15081897377967834,-0.28546470403671265,-0.011888712644577026,0.37896114587783813,0.3457956612110138,-87.5053939819336,1
244169,-0.14697667956352234,-0.2866036295890808,-0.012389468960464,0.2515988349914551,0.2864898145198822,-87.44732666015625,1
244179,-0.15084457397460938,-0.2851259112358093,-0.012356756255030632,0.3311956822872162,0.33401066064834595,-87.5994644165039,1
244189,-0.15071144700050354,-0.28519171476364136,-0.012232226319611073,0.3310355842113495,0.3349367380142212,-87.5199203491211,1
244199,-0.1472678929567337,-0.28670749068260193,-0.012314997613430023,0.23273339867591858,0.26981502771377563,-87.46920013427734,1
244209,-0.14699038863182068,-0.2868534028530121,-0.012200560420751572,0.23211145401000977,0.2697279453277588,-87.3892593383789,1
244219,-0.15092657506465912,-0.2855389416217804,-0.012337367050349712,0.35500654578208923,0.33169227838516235,-87.54033660888672,1
244229,-0.15082544088363647,-0.28561002016067505,-0.0122153265401721,0.35408639907836914,0.3320208191871643,-87.46240234375,1
244239,-0.1471201777458191,-0.28697842359542847,-0.01255054958164692,0.27766701579093933,0.28772521018981934,-87.41895294189453,1
244249,-0.15118293464183807,-0.28532999753952026,-0.012340228073298931,0.39379438757896423,0.3549543619155884,-87.5694351196289,1
244259,-0.1511373370885849,-0.2853749096393585,-0.012210438959300518,0.39312487840652466,0.3557761311531067,-87.49104309082031,1
244269,-0.14738839864730835,-0.28667932748794556,-0.01258365623652935,0.27261149883270264,0.291960209608078,-87.4411392211914,1
244279,-0.15125714242458344,-0.2851915657520294,-0.012532370164990425,0.34993046522140503,0.33852487802505493,-87.59200286865234,1
244289,-0.15115191042423248,-0.285257488489151,-0.01241552084684372,0.3500804901123047,0.34019210934638977,-87.51207733154297,1
244299,-0.14755092561244965,-0.28676071763038635,-0.012592757120728493,0.24411191046237946,0.2778867781162262,-87.47203826904297,1
244311,-0.1472957283258438,-0.2869064211845398,-0.012487271800637245,0.2445126473903656,0.2782507538795471,-87.3934555053711,1
244319,-0.15098612010478973,-0.2853047847747803,-0.012196415103971958,0.31427454948425293,0.3257130980491638,-87.54180908203125,1
244329,-0.14717718958854675,-0.286699503660202,-0.012526131235063076,0.20119468867778778,0.2665773630142212,-87.4898452758789,1
244339,-0.14685983955860138,-0.28685885667800903,-0.012420844286680222,0.20144912600517273,0.26662296056747437,-87.41088104248047,1
244349,-0.15089790523052216,-0.28537291288375854,-0.012403130531311035,0.33235183358192444,0.33607470989227295,-87.560302734375,1
244361,-0.1507623791694641,-0.285444974899292,-0.012283147312700748,0.33300986886024475,0.3350200057029724,-87.48112487792969,1
244369,-0.14656786620616913,-0.2869335412979126,-0.01269826851785183,0.24938172101974487,0.28589877486228943,-87.42909240722656,1
244379,-0.1508021205663681,-0.28513431549072266,-0.012417785823345184,0.36719197034835815,0.3552907705307007,-87.56529998779297,1
244389,-0.15070930123329163,-0.28518229722976685,-0.012286700308322906,0.3672045171260834,0.3558625876903534,-87.48579406738281,1
244399,-0.1470801681280136,-0.286739706993103,-0.012422362342476845,0.2510730028152466,0.2852177917957306,-87.44577026367188,1
244411,-0.14682388305664062,-0.2868729829788208,-0.012303144671022892,0.25133654475212097,0.2835136651992798,-87.36735534667969,1
244419,-0.1507679671049118,-0.28527316451072693,-0.01214953139424324,0.3293027877807617,0.33351996541023254,-87.5216293334961,1
244429,-0.1466124951839447,-0.28688856959342957,-0.012416485697031021,0.2108902633190155,0.264279305934906,-87.4735336303711,1
244439,-0.14629985392093658,-0.2870439887046814,-0.012298407033085823,0.2111307829618454,0.2635529339313507,-87.39480590820312,1
244449,-0.15097114443778992,-0.2856046259403229,-0.01257182564586401,0.35549890995025635,0.3318134546279907,-87.5366439819336,1
244459,-0.15086396038532257,-0.28567633032798767,-0.012454326264560223,0.35603538155555725,0.33315780758857727,-87.45756530761719,1
244469,-0.14706888794898987,-0.2870984673500061,-0.012808486819267273,0.2762933373451233,0.28551170229911804,-87.40660095214844,1
244479,-0.1509571373462677,-0.285527765750885,-0.012604796327650547,0.39018240571022034,0.35041263699531555,-87.56671905517578,1
244489,-0.15089987218379974,-0.28557509183883667,-0.012478876858949661,0.3904142379760742,0.35245704650878906,-87.48795318603516,1
244499,-0.1474936157464981,-0.2869316041469574,-0.01267911959439516,0.2794550061225891,0.28542304039001465,-87.44636535644531,1
244511,-0.14727570116519928,-0.2870623469352722,-0.012569968588650227,0.27955546975135803,0.2847138047218323,-87.36785888671875,1
244519,-0.15094339847564697,-0.28558656573295593,-0.01243602018803358,0.35182151198387146,0.3316904306411743,-87.52734375,1
244529,-0.15083298087120056,-0.2856593132019043,-0.012312820181250572,0.35130858421325684,0.3310926556587219,-87.44803619384766,1
244539,-0.14722579717636108,-0.2870784103870392,-0.012567763216793537,0.2512832581996918,0.27227699756622314,-87.40501403808594,1
244549,-0.15102149546146393,-0.28545713424682617,-0.012248136103153229,0.36986488103866577,0.34598907828330994,-87.57057189941406,1
244559,-0.1509353667497635,-0.2855076193809509,-0.012108656577765942,0.36827969551086426,0.3454640805721283,-87.4909439086914,1
244569,-0.14706459641456604,-0.2869841754436493,-0.012396670877933502,0.2853497862815857,0.294238805770874,-87.43453979492188,1
244579,-0.1513509303331375,-0.2855173647403717,-0.012507579289376736,0.40718063712120056,0.3552510738372803,-87.58881378173828,1
244589,-0.15132063627243042,-0.28555187582969666,-0.012376364320516586,0.40615203976631165,0.35546794533729553,-87.5098648071289,1
244599,-0.14742052555084229,-0.28681445121765137,-0.0128394216299057,0.2790406048297882,0.29149872064590454,-87.46123504638672,1
244609,-0.14721304178237915,-0.2869284749031067,-0.01274060644209385,0.2798915207386017,0.2900126874446869,-87.38188934326172,1
244619,-0.15097346901893616,-0.2852879464626312,-0.012468775734305382,0.35309898853302,0.3409777283668518,-87.54229736328125,1
244629,-0.15087327361106873,-0.2853389084339142,-0.012347070500254631,0.35195958614349365,0.34178057312965393,-87.46290588378906,1
244639,-0.1471489816904068,-0.28683212399482727,-0.012575633823871613,0.24848534166812897,0.28225773572921753,-87.41143798828125,1
244649,-0.15102235972881317,-0.2852398157119751,-0.012355320155620575,0.3690473139286041,0.3518373668193817,-87.5708999633789,1
244659,-0.1509440541267395,-0.2852749526500702,-0.012218189425766468,0.3691084384918213,0.3526548445224762,-87.49242401123047,1
244669,-0.14731711149215698,-0.2867909371852875,-0.012374062091112137,0.29226166009902954,0.3017114996910095,-87.43939208984375,1
244679,-0.15127845108509064,-0.2854851186275482,-0.012556466273963451,0.4040212333202362,0.35851845145225525,-87.5942611694336,1
244689,-0.15125030279159546,-0.2855171263217926,-0.012428050860762596,0.4039135277271271,0.35846978425979614,-87.51493835449219,1
244699,-0.14739251136779785,-0.28674599528312683,-0.012900885194540024,0.2796348035335541,0.29657188057899475,-87.45378875732422,1
244711,-0.14718866348266602,-0.2868545353412628,-0.012803920544683933,0.27979737520217896,0.2962554693222046,-87.37437438964844,1
244719,-0.15085941553115845,-0.28512492775917053,-0.012391239404678345,0.35119789838790894,0.3473260998725891,-87.53572845458984,1
244729,-0.1507583111524582,-0.28516897559165955,-0.012266443111002445,0.3511384427547455,0.34655606746673584,-87.45756530761719,1
244739,-0.1470193862915039,-0.2866273522377014,-0.012525152415037155,0.24670805037021637,0.2854849100112915,-87.40239715576172,1
244749,-0.15082421898841858,-0.2850991487503052,-0.01236008107662201,0.36577871441841125,0.3540894687175751,-87.56409454345703,1
244759,-0.15074186027050018,-0.28513655066490173,-0.012223736383020878,0.3658759295940399,0.35456568002700806,-87.48445892333984,1
244769,-0.14706601202487946,-0.2865770757198334,-0.012456404976546764,0.28773561120033264,0.30631911754608154,-87.4326171875,1
244779,-0.1507762372493744,-0.28518596291542053,-0.012420873157680035,0.3938906490802765,0.36209169030189514,-87.59241485595703,1
244789,-0.15073613822460175,-0.28521180152893066,-0.012282052077353,0.3935554325580597,0.3618815839290619,-87.51284790039062,1
244799,-0.14723289012908936,-0.2866562008857727,-0.012411733157932758,0.2780696153640747,0.2912583351135254,-87.46221923828125,1
244811,-0.14702531695365906,-0.28677240014076233,-0.012285389937460423,0.276937335729599,0.2922504246234894,-87.38272094726562,1
244819,-0.1511688530445099,-0.28534644842147827,-0.01243751123547554,0.3609505593776703,0.3360656499862671,-87.5378189086914,1
244829,-0.14732390642166138,-0.28674665093421936,-0.012784840539097786,0.2499195635318756,0.2758305072784424,-87.47769165039062,1
244839,-0.14707203209400177,-0.2868858575820923,-0.012682371772825718,0.25041717290878296,0.27734842896461487,-87.39846801757812,1
244849,-0.15088562667369843,-0.2852940261363983,-0.01242784596979618,0.3674178719520569,0.3485943078994751,-87.56378173828125,1
244859,-0.15080323815345764,-0.28534549474716187,-0.012294788844883442,0.3680920898914337,0.351509153842926,-87.4844970703125,1
244869,-0.14711003005504608,-0.2869124114513397,-0.012453070841729641,0.29086512327194214,0.2984401285648346,-87.43609619140625,1
244879,-0.14691412448883057,-0.2870337665081024,-0.012327605858445168,0.2893694043159485,0.299164742231369,-87.35759735107422,1
244889,-0.15095341205596924,-0.285674124956131,-0.012460842728614807,0.40123841166496277,0.35589849948883057,-87.51622772216797,1
244899,-0.1473516970872879,-0.28690242767333984,-0.012842712923884392,0.28471165895462036,0.296228289604187,-87.4645004272461,1
244911,-0.1471533477306366,-0.2870302200317383,-0.012738059274852276,0.28426432609558105,0.2959996163845062,-87.38553619384766,1
244919,-0.15092261135578156,-0.2852894961833954,-0.012322444468736649,0.3567112386226654,0.34914591908454895,-87.52890014648438,1
244929,-0.150828018784523,-0.285349577665329,-0.012194369919598103,0.35703256726264954,0.3474277853965759,-87.44869995117188,1
244939,-0.14705108106136322,-0.28691810369491577,-0.012388890609145164,0.25299206376075745,0.2841162085533142,-87.39427185058594,1
244949,-0.15105073153972626,-0.28524139523506165,-0.012156113982200623,0.3290001451969147,0.3344738483428955,-87.536865234375,1
244959,-0.15091358125209808,-0.28531551361083984,-0.012021373026072979,0.32903945446014404,0.3341037333011627,-87.45838928222656,1
244969,-0.14672288298606873,-0.2865351140499115,-0.012648353353142738,0.211093008518219,0.2795431315898895,-87.40159606933594,1
244979,-0.14641495048999786,-0.2866746783256531,-0.012549756094813347,0.20948022603988647,0.28106606006622314,-87.3218765258789,1
244989,-0.15057292580604553,-0.2850395143032074,-0.01241715531796217,0.33823728561401367,0.35179266333580017,-87.46605682373047,1
244999,-0.14697007834911346,-0.2866514027118683,-0.012486597523093224,0.2644422650337219,0.29938000440597534,-87.40614318847656,1
245009,-0.1467321813106537,-0.2867715656757355,-0.012371154502034187,0.2654150128364563,0.2972794771194458,-87.32672882080078,1
245019,-0.15085041522979736,-0.2851513922214508,-0.012231706641614437,0.38574132323265076,0.3634926378726959,-87.46998596191406,1
245029,-0.15078239142894745,-0.2851918637752533,-0.012095826677978039,0.38519832491874695,0.36430099606513977,-87.39079284667969,1
245039,-0.14703595638275146,-0.2867124080657959,-0.012292735278606415,0.269741952419281,0.2938975393772125,-87.33943176269531,1
245049,-0.1510954648256302,-0.2853536605834961,-0.012493625283241272,0.35040849447250366,0.33683231472969055,-87.47933197021484,1
245059,-0.15097954869270325,-0.28542885184288025,-0.012374323792755604,0.3487873077392578,0.33584341406822205,-87.39972686767578,1
245069,-0.1471969187259674,-0.28692111372947693,-0.012645943090319633,0.2437540739774704,0.2734970450401306,-87.34919738769531,1
245079,-0.1512845754623413,-0.2855187952518463,-0.012718237936496735,0.3781983554363251,0.34418439865112305,-87.49486541748047,1
245089,-0.15120689570903778,-0.28558826446533203,-0.012603610754013062,0.37800928950309753,0.3447085916996002,-87.4155044555664,1
245099,-0.14738325774669647,-0.28703752160072327,-0.012930307537317276,0.29511934518814087,0.29569169878959656,-87.36615753173828,1
245109,-0.14719124138355255,-0.28716984391212463,-0.012832285836338997,0.2949395179748535,0.29584115743637085,-87.28692626953125,1
245119,-0.1512419581413269,-0.28529825806617737,-0.012316795997321606,0.4094598591327667,0.3691835403442383,-87.4444351196289,1
245129,-0.15121856331825256,-0.28533631563186646,-0.012182282283902168,0.4085542559623718,0.3681526184082031,-87.36431884765625,1
245139,-0.14704875648021698,-0.28682613372802734,-0.012594583444297314,0.27905502915382385,0.29788586497306824,-87.3208236694336,1
245149,-0.15090380609035492,-0.2851744294166565,-0.012332357466220856,0.35451453924179077,0.3484461307525635,-87.48507690429688,1
245159,-0.1508019119501114,-0.28523167967796326,-0.012204333208501339,0.3531380891799927,0.34753555059432983,-87.4061508178711,1
245169,-0.14704473316669464,-0.2866245210170746,-0.012527449056506157,0.24961525201797485,0.290218710899353,-87.35953521728516,1
245179,-0.14704473316669464,-0.2866245210170746,-0.012527449056506157,0.24961525201797485,0.290218710899353,-87.35953521728516,1
245189,-0.1507880985736847,-0.2852444350719452,-0.012559821829199791,0.32128387689590454,0.32925447821617126,-87.52027893066406,1
245199,-0.14715828001499176,-0.28663209080696106,-0.012836704961955547,0.21382616460323334,0.26974931359291077,-87.47079467773438,1
245209,-0.14685486257076263,-0.2867887318134308,-0.012742112390697002,0.21247369050979614,0.2705075740814209,-87.39152526855469,1
245219,-0.15095344185829163,-0.2851080894470215,-0.01250975951552391,0.34251296520233154,0.3457980155944824,-87.53562927246094,1
245229,-0.14746762812137604,-0.28661784529685974,-0.0126152653247118,0.2667183578014374,0.2926345765590668,-87.48367309570312,1
245239,-0.1472185105085373,-0.2867567241191864,-0.012483739294111729,0.2664746940135956,0.29158562421798706,-87.4051284790039,1
245249,-0.15107697248458862,-0.2852364778518677,-0.0123385488986969,0.3822079598903656,0.35732749104499817,-87.54462432861328,1
245259,-0.15101417899131775,-0.2852775454521179,-0.012199321761727333,0.38125988841056824,0.35701659321784973,-87.4660415649414,1
245269,-0.1474168449640274,-0.2866538465023041,-0.012434008531272411,0.26485204696655273,0.2899478077888489,-87.4188003540039,1
245279,-0.14718888700008392,-0.28677815198898315,-0.012310769408941269,0.2634288966655731,0.2917064428329468,-87.33971405029297,1
245289,-0.15082095563411713,-0.285426527261734,-0.01231943629682064,0.3354359567165375,0.3338930308818817,-87.49966430664062,1
245299,-0.14757069945335388,-0.28667739033699036,-0.012531563639640808,0.24245667457580566,0.2806735932826996,-87.4519271850586,1
245309,-0.1473109871149063,-0.28681766986846924,-0.012414323166012764,0.2427462488412857,0.2822614312171936,-87.37296295166016,1
245319,-0.15107601881027222,-0.2855006158351898,-0.012468238361179829,0.36041444540023804,0.34316542744636536,-87.52228546142578,1
245329,-0.15098226070404053,-0.2855672240257263,-0.012340093031525612,0.36117711663246155,0.34362050890922546,-87.44218444824219,1
245339,-0.14732800424098969,-0.28695666790008545,-0.012629454024136066,0.28440335392951965,0.2987600862979889,-87.38584899902344,1
245349,-0.1511581540107727,-0.28543728590011597,-0.012460029684007168,0.39395275712013245,0.36086124181747437,-87.54618835449219,1
245389,-0.1509384959936142,-0.285410612821579,-0.011970970779657364,0.3347749412059784,0.33406057953834534,-87.7792739868164,1
245399,-0.14669086039066315,-0.2869655191898346,-0.012322992086410522,0.21987523138523102,0.2703125774860382,-87.79641723632812,1
245409,-0.14643627405166626,-0.28709498047828674,-0.012186521664261818,0.22083795070648193,0.26800674200057983,-87.79984283447266,1
245419,-0.15087635815143585,-0.28545907139778137,-0.01213768869638443,0.35174572467803955,0.32777243852615356,-87.98356628417969,1
245430,-0.1508188247680664,-0.28549301624298096,-0.011975696310400963,0.35140106081962585,0.3241906464099884,-87.9744644165039,1
245439,-0.14664332568645477,-0.2870633602142334,-0.012275478802621365,0.23806951940059662,0.3016361594200134,-87.89606475830078,1
245449,-0.15123343467712402,-0.28550368547439575,-0.012362354435026646,0.40592890977859497,0.3350188434123993,-87.99689483642578,1
245459,-0.1512659192085266,-0.28550201654434204,-0.012171016074717045,0.33396291732788086,0.27436935901641846,-87.88697052001953,1
245469,-0.14733827114105225,-0.286897212266922,-0.012544797733426094,0.2781596779823303,0.3669034540653229,-87.78215026855469,1
245479,-0.147194504737854,-0.28697288036346436,-0.012391719035804272,-0.024108193814754486,0.33638155460357666,-87.6513900756836,1
245489,-0.15079231560230255,-0.28514623641967773,-0.011607468128204346,0.14170172810554504,0.20453821122646332,-87.78607940673828,1
245499,-0.14628209173679352,-0.2869153320789337,-0.01144319400191307,0.08251730352640152,0.14750909805297852,-87.70249938964844,1
245509,-0.14606529474258423,-0.2869999408721924,-0.01071467436850071,0.030965831130743027,0.17173565924167633,-87.58995056152344,1
245519,-0.150190532207489,-0.2852402329444885,-0.00960992556065321,-0.01727839931845665,0.23485013842582703,-87.66016387939453,1
245529,-0.15015576779842377,-0.2852216064929962,-0.00831824541091919,-0.2456885278224945,0.22049671411514282,-87.5257797241211,1
245539,-0.14617447555065155,-0.2870643734931946,-0.006873889826238155,-0.47044995427131653,0.2093670815229416,-87.32593536376953,1
245549,-0.1498563587665558,-0.2852131426334381,-0.004450392909348011,-0.3904741406440735,0.3901430666446686,-87.31018829345703,1
245559,-0.14984126389026642,-0.2851574122905731,-0.0020850920118391514,-0.34725865721702576,0.4907042980194092,-87.10909271240234,1
245569,-0.14472182095050812,-0.2866043448448181,-0.0002008078881772235,-0.41229385137557983,0.479116290807724,-86.84367370605469,1
245579,-0.14446215331554413,-0.28662407398223877,0.0027910785283893347,-0.2826961278915405,0.5299358367919922,-86.64083862304688,1
245589,-0.14801374077796936,-0.28438565135002136,0.0069043273106217384,-0.10019059479236603,0.6978617310523987,-86.6199722290039,1
245599,-0.14368298649787903,-0.28617289662361145,0.01038212701678276,-0.1617887318134308,0.7624455690383911,-86.38347625732422,1
245609,-0.14333835244178772,-0.2861637473106384,0.01437028031796217,-0.19249780476093292,0.8990260362625122,-86.18315124511719,1
245619,-0.1476164162158966,-0.2853153944015503,0.01747722551226616,-0.10042817145586014,1.029905915260315,-86.15370178222656,1
245629,-0.14747139811515808,-0.2852141261100769,0.02197156473994255,-0.12329935282468796,1.0438884496688843,-85.97911834716797,1
245639,-0.14341676235198975,-0.28786715865135193,0.027267247438430786,-0.1674637794494629,0.9190651774406433,-85.76451110839844,1
245649,-0.14705505967140198,-0.286268949508667,0.032260529696941376,0.024185150861740112,0.9531471729278564,-85.78451538085938,1
245659,-0.14695891737937927,-0.28614342212677,0.037438999861478806,0.09429192543029785,0.908227801322937,-85.64717102050781,1
245669,-0.14213700592517853,-0.2864023447036743,0.04117125645279884,-0.02932623215019703,0.8231491446495056,-85.51102447509766,1
245679,-0.14482519030570984,-0.28397437930107117,0.047908563166856766,0.06489913910627365,0.8446391820907593,-85.53626251220703,1
245689,-0.1445923149585724,-0.283737450838089,0.0534428209066391,0.05909324064850807,0.7559075951576233,-85.40640258789062,1
245699,-0.14017616212368011,-0.28554466366767883,0.058982592076063156,-0.09765199571847916,0.5603957772254944,-85.20948028564453,1
245709,-0.13976800441741943,-0.28539812564849854,0.06461760401725769,-0.14530502259731293,0.43380147218704224,-85.10795593261719,1
245719,-0.14443513751029968,-0.28516489267349243,0.06804320216178894,-0.04298408702015877,0.3225686550140381,-85.1661605834961,1
245729,-0.1442498415708542,-0.28498655557632446,0.07369135320186615,-0.06587809324264526,0.17557808756828308,-85.07168579101562,1
245739,-0.14011919498443604,-0.2874673306941986,0.07984656095504761,-0.13169355690479279,-0.0535021647810936,-84.87213134765625,1
245749,-0.14387400448322296,-0.28600871562957764,0.08527423441410065,0.03451820835471153,-0.10066767036914825,-84.92889404296875,1
245759,-0.14374485611915588,-0.28586629033088684,0.0909138098359108,0.11079700291156769,-0.17037682235240936,-84.83251190185547,1
245769,-0.13815096020698547,-0.28609323501586914,0.09457661956548691,0.01785379834473133,-0.22702138125896454,-84.65089416503906,1
245779,-0.1410660445690155,-0.28401023149490356,0.10078763961791992,0.155793696641922,-0.1151508167386055,-84.70219421386719,1
245789,-0.14077918231487274,-0.2838369607925415,0.1061599850654602,0.23423436284065247,-0.019211191684007645,-84.6060791015625,1
245799,-0.13677772879600525,-0.28540101647377014,0.11131175607442856,0.20266151428222656,0.03219836205244064,-84.45504760742188,1
245809,-0.13634294271469116,-0.28532373905181885,0.11649389564990997,0.26698893308639526,0.18191199004650116,-84.36279296875,1
245819,-0.14088542759418488,-0.2854885160923004,0.11896920204162598,0.4671308994293213,0.32675445079803467,-84.41752624511719,1
245829,-0.14067478477954865,-0.2854059338569641,0.12382690608501434,0.5173608660697937,0.43297162652015686,-84.32996368408203,1
245839,-0.13659293949604034,-0.287625253200531,0.12883518636226654,0.5009589791297913,0.4143994450569153,-84.15245056152344,1
245849,-0.1396198272705078,-0.2859497666358948,0.1339356154203415,0.6381508111953735,0.4845946431159973,-84.21775817871094,1
245859,-0.13946831226348877,-0.2858637273311615,0.1384928822517395,0.6741352081298828,0.44523701071739197,-84.15225982666016,1
245869,-0.13440214097499847,-0.2855304777622223,0.14068150520324707,0.5452283024787903,0.35007572174072266,-84.01573944091797,1
245879,-0.13669219613075256,-0.2834693491458893,0.14593860507011414,0.594924807548523,0.31375566124916077,-84.12932586669922,1
245889,-0.13641923666000366,-0.28329917788505554,0.15002553164958954,0.5812355875968933,0.21541303396224976,-84.07716369628906,1
245899,-0.13257548213005066,-0.28456583619117737,0.15369747579097748,0.4659249484539032,0.05057479813694954,-83.94273376464844,1
245909,-0.1321820169687271,-0.28446611762046814,0.15754525363445282,0.4421049952507019,-0.03568578138947487,-83.88553619384766,1
245919,-0.13614286482334137,-0.2842286229133606,0.15939025580883026,0.5400112271308899,-0.0893058031797409,-84.00776672363281,1
245929,-0.1359424740076065,-0.2841135263442993,0.1629278063774109,0.5227711200714111,-0.1493823528289795,-83.96571350097656,1
245939,-0.13251636922359467,-0.2858073115348816,0.1664651334285736,0.4728263318538666,-0.24818454682826996,-83.84093475341797,1
245949,-0.13515886664390564,-0.28460851311683655,0.16977199912071228,0.5662140846252441,-0.21762330830097198,-83.93350219726562,1
245959,-0.13501061499118805,-0.28452128171920776,0.17298491299152374,0.5916181206703186,-0.20469501614570618,-83.90577697753906,1
245969,-0.13022662699222565,-0.2846682369709015,0.17435207962989807,0.49166157841682434,-0.20064127445220947,-83.76943969726562,1
245979,-0.13262169063091278,-0.28291845321655273,0.177988201379776,0.5648886561393738,-0.1004691869020462,-83.86862182617188,1
245989,-0.13237378001213074,-0.28280526399612427,0.1808277815580368,0.5875307321548462,-0.04734152927994728,-83.83760070800781,1
245999,-0.12835656106472015,-0.2838555574417114,0.1829518973827362,0.5190897583961487,-0.0589262880384922,-83.71781158447266,1
246009,-0.1279858648777008,-0.283807635307312,0.18554988503456116,0.5549936294555664,-0.02658681944012642,-83.67477416992188,1
246019,-0.13128060102462769,-0.2830449044704437,0.18718811869621277,0.6971029043197632,0.02499188296496868,-83.7680435180664,1
246029,-0.13107849657535553,-0.28295740485191345,0.18954631686210632,0.7242410182952881,-0.004235942382365465,-83.73777770996094,1
246039,-0.1272832602262497,-0.28438058495521545,0.19155025482177734,0.6911023259162903,-0.07108158618211746,-83.59783935546875,1
246049,-0.1296812742948532,-0.28311148285865784,0.19391021132469177,0.7757271528244019,-0.049483396112918854,-83.71617126464844,1
246059,-0.12952516973018646,-0.2830277979373932,0.1960209757089615,0.7690469622612,-0.07856377959251404,-83.70010375976562,1
246069,-0.1255226582288742,-0.2833945155143738,0.19683048129081726,0.6456612944602966,-0.12562857568264008,-83.56184387207031,1
246079,-0.12523669004440308,-0.2833481729030609,0.1987295150756836,0.6087531447410583,-0.12980113923549652,-83.53213500976562,1
246089,-0.12761826813220978,-0.2816717326641083,0.20129147171974182,0.6113976836204529,-0.08043497800827026,-83.66995239257812,1
246099,-0.12381016463041306,-0.2826857268810272,0.2025533765554428,0.5080078840255737,-0.11704431474208832,-83.55109405517578,1
246109,-0.12348279356956482,-0.2826497256755829,0.20431223511695862,0.5017558932304382,-0.0956495925784111,-83.5241928100586,1
246119,-0.1263839602470398,-0.2819376289844513,0.20531070232391357,0.5877369046211243,-0.04112141951918602,-83.65657806396484,1
246129,-0.1262064129114151,-0.28186604380607605,0.20695707201957703,0.6023877263069153,-0.025849001482129097,-83.63435363769531,1
246139,-0.12250817567110062,-0.28309816122055054,0.20815634727478027,0.5742002129554749,-0.04845469817519188,-83.50496673583984,1
246149,-0.12521302700042725,-0.2818121910095215,0.2098434865474701,0.6744675040245056,0.02455984242260456,-83.58478546142578,1
246159,-0.12509122490882874,-0.2817363440990448,0.21142332255840302,0.6877280473709106,0.040267426520586014,-83.55509185791016,1
246169,-0.12088744342327118,-0.2822035253047943,0.21175682544708252,0.5740566253662109,0.0076738628558814526,-83.4183349609375,1
246179,-0.12062238156795502,-0.28216812014579773,0.21325361728668213,0.5616323947906494,0.013651186600327492,-83.39899444580078,1
246189,-0.12321298569440842,-0.28072744607925415,0.21503400802612305,0.5667122006416321,0.04615948721766472,-83.55683898925781,1
246199,-0.1191820353269577,-0.28153061866760254,0.21566574275493622,0.42461609840393066,-0.01428436953574419,-83.47148895263672,1
246209,-0.11887066811323166,-0.28149861097335815,0.21712052822113037,0.38251322507858276,-0.03143428638577461,-83.47557067871094,1
246219,-0.12147818505764008,-0.2805865406990051,0.21822023391723633,0.4366688132286072,0.009647532366216183,-83.60369110107422,1
246229,-0.1213034987449646,-0.28050681948661804,0.2196405678987503,0.4283652901649475,0.038959868252277374,-83.6045150756836,1
246239,-0.11750412732362747,-0.2816011309623718,0.2204994112253189,0.3692735433578491,0.03665205091238022,-83.49710845947266,1
246249,-0.12011180073022842,-0.28042057156562805,0.22190237045288086,0.45823875069618225,0.1373063325881958,-83.61476135253906,1
246259,-0.11997690051794052,-0.28033068776130676,0.22329705953598022,0.48363909125328064,0.1902751326560974,-83.60342407226562,1
246269,-0.11610839515924454,-0.28047364950180054,0.22333432734012604,0.41374456882476807,0.21515098214149475,-83.49017333984375,1
246279,-0.11583911627531052,-0.2804027795791626,0.22465863823890686,0.4322676360607147,0.24867244064807892,-83.48017883300781,1
246289,-0.11816636472940445,-0.2792630195617676,0.22595080733299255,0.4789053499698639,0.2908334732055664,-83.64360809326172,1
246299,-0.1143747940659523,-0.2803020179271698,0.22678302228450775,0.38782915472984314,0.21930932998657227,-83.51484680175781,1
246309,-0.11406230181455612,-0.2802433967590332,0.2281135618686676,0.37196409702301025,0.1755107045173645,-83.51335906982422,1
246319,-0.11674802005290985,-0.2795301377773285,0.22877873480319977,0.43737486004829407,0.1519148051738739,-83.65361022949219,1
246329,-0.11657524853944778,-0.27942702174186707,0.23010222613811493,0.4100501537322998,0.08841738104820251,-83.66826629638672,1
246339,-0.11281207948923111,-0.2801852524280548,0.2306373119354248,0.3313799798488617,-0.007530384697020054,-83.5633544921875,1
246349,-0.11518097668886185,-0.27910280227661133,0.23186945915222168,0.4030894935131073,0.009168660268187523,-83.68660736083984,1
246359,-0.11503984779119492,-0.2789819836616516,0.23318500816822052,0.41471314430236816,0.013391353189945221,-83.69246673583984,1
246369,-0.11076588928699493,-0.27924081683158875,0.23326647281646729,0.3235361576080322,0.0007441044435836375,-83.58226776123047,1
246380,-0.1104661151766777,-0.2791551947593689,0.23452286422252655,0.34664076566696167,0.048511944711208344,-83.57687377929688,1
246389,-0.11309069395065308,-0.27769598364830017,0.2360001802444458,0.41708168387413025,0.13576117157936096,-83.7049331665039,1
246399,-0.10912787914276123,-0.27846062183380127,0.23647069931030273,0.3339357078075409,0.10506322979927063,-83.60018920898438,1
246409,-0.10878188163042068,-0.27837467193603516,0.23771661520004272,0.3316102921962738,0.11858276277780533,-83.60786437988281,1
246419,-0.1117355227470398,-0.2776407301425934,0.2381589710712433,0.42288824915885925,0.15082401037216187,-83.76313018798828,1
246429,-0.1115439236164093,-0.27751004695892334,0.2394011914730072,0.42793625593185425,0.11234689503908157,-83.77893829345703,1
246439,-0.10739845037460327,-0.2784366309642792,0.2398982048034668,0.36925068497657776,0.0065128686837852,-83.66095733642578,1
246449,-0.10998884588479996,-0.2773072421550751,0.24100396037101746,0.4672592580318451,-0.015447494573891163,-83.83079528808594,1
246459,-0.10983045399188995,-0.27716493606567383,0.2422693520784378,0.4864155352115631,-0.0723688080906868,-83.85686492919922,1
246469,-0.10557539016008377,-0.27758610248565674,0.24231110513210297,0.4000897705554962,-0.15994416177272797,-83.74109649658203,1
246480,-0.10526423901319504,-0.2774905562400818,0.24351255595684052,0.409342497587204,-0.1693277657032013,-83.74818420410156,1
246489,-0.10743895173072815,-0.27646923065185547,0.24456654489040375,0.4590967297554016,-0.12310165166854858,-83.89493560791016,1
246499,-0.10395187139511108,-0.2770420014858246,0.24503277242183685,0.3842603266239166,-0.12260734289884567,-83.78844451904297,1
246509,-0.10360506176948547,-0.2769644856452942,0.24623335897922516,0.3889709413051605,-0.06911394745111465,-83.78434753417969,1
246519,-0.10634005814790726,-0.2765793204307556,0.2462920993566513,0.4790090322494507,0.012759826146066189,-83.92123413085938,1
246529,-0.10613744705915451,-0.2764805853366852,0.24743585288524628,0.4863072633743286,0.04218946024775505,-83.9285888671875,1
246539,-0.10238124430179596,-0.2774044871330261,0.24795784056186676,0.43421074748039246,0.01487167738378048,-83.81409454345703,1
246549,-0.10497501492500305,-0.27627062797546387,0.24913759529590607,0.5285834670066833,0.04972963407635689,-83.9395523071289,1
246559,-0.10482244938611984,-0.2761600911617279,0.2503025233745575,0.547023594379425,0.011233869008719921,-83.96331787109375,1
246569,-0.10043826699256897,-0.27680888772010803,0.25051096081733704,0.5068735480308533,-0.08458495140075684,-83.85564422607422,1
246579,-0.10019286721944809,-0.2767316997051239,0.2516857087612152,0.5425222516059875,-0.15085554122924805,-83.88565826416016,1
246589,-0.10321187227964401,-0.275955468416214,0.25208720564842224,0.648469090461731,-0.17405331134796143,-84.02259063720703,1
246599,-0.09896377474069595,-0.2763015031814575,0.25192347168922424,0.5370469689369202,-0.26854902505874634,-83.94593048095703,1
246609,-0.09870686382055283,-0.27623066306114197,0.25300559401512146,0.5372797846794128,-0.2913168668746948,-83.96658325195312,1
246619,-0.1010175421833992,-0.27515873312950134,0.25409430265426636,0.577808678150177,-0.24734370410442352,-84.0910873413086,1
246629,-0.10084597766399384,-0.27506223320961,0.2551937997341156,0.5705424547195435,-0.21353411674499512,-84.10425567626953,1
246639,-0.09708499908447266,-0.2753293514251709,0.25509101152420044,0.4758822023868561,-0.20313405990600586,-84.00178527832031,1
246649,-0.09966811537742615,-0.2749740481376648,0.25506359338760376,0.5569854974746704,-0.13080552220344543,-84.16477966308594,1
246659,-0.0995112881064415,-0.27489641308784485,0.25608155131340027,0.5652603507041931,-0.09799746423959732,-84.1728744506836,1
246669,-0.09570883214473724,-0.27574771642684937,0.2563828229904175,0.5102764964103699,-0.12417636811733246,-84.06620788574219,1
246680,-0.09547189623117447,-0.2757151424884796,0.25741925835609436,0.5205705761909485,-0.14027735590934753,-84.08562469482422,1
246689,-0.09797509759664536,-0.27472245693206787,0.25827720761299133,0.5975333452224731,-0.13931791484355927,-84.27875518798828,1
246699,-0.09379639476537704,-0.27512073516845703,0.25823670625686646,0.494823157787323,-0.245644673705101,-84.1719970703125,1
246709,-0.0935271754860878,-0.2750880718231201,0.25928235054016113,0.5098207592964172,-0.31163498759269714,-84.1996078491211,1
246719,-0.09581771492958069,-0.27419912815093994,0.2600492537021637,0.5695952773094177,-0.3336052894592285,-84.34517669677734,1
246730,-0.09563221782445908,-0.27414560317993164,0.26109543442726135,0.5902861952781677,-0.3592391908168793,-84.37736511230469,1
246739,-0.09142674505710602,-0.27457085251808167,0.2608720064163208,0.5145392417907715,-0.39730605483055115,-84.26277923583984,1
246749,-0.09456658363342285,-0.2740600109100342,0.2608199119567871,0.6265953183174133,-0.33366474509239197,-84.39478302001953,1
246759,-0.09441546350717545,-0.27402442693710327,0.2617814540863037,0.6489617228507996,-0.28476208448410034,-84.40673828125,1
246769,-0.09054457396268845,-0.27476760745048523,0.26185768842697144,0.6164648532867432,-0.2636391818523407,-84.29151916503906,1
246780,-0.0903107225894928,-0.27477794885635376,0.26279640197753906,0.6463773250579834,-0.2169189453125,-84.29061889648438,1
246789,-0.09296266734600067,-0.273997962474823,0.26327085494995117,0.7354682683944702,-0.1355639547109604,-84.46113586425781,1
246809,-0.08879648149013519,-0.2744307816028595,0.26393741369247437,0.6022153496742249,-0.13927412033081055,-84.33688354492188,1
246819,-0.0913344994187355,-0.2733435034751892,0.2648208439350128,0.6020734906196594,-0.12382752448320389,-84.4630355834961,1
246830,-0.09118249267339706,-0.27332428097724915,0.26578089594841003,0.5407351851463318,-0.17945881187915802,-84.50348663330078,1
246859,-0.08995600789785385,-0.27364107966423035,0.2664492726325989,0.45337215065956116,-0.3508876860141754,-84.62797546386719,1
246880,-0.0858166515827179,-0.2747395634651184,0.2676433026790619,0.47437000274658203,-0.3644033372402191,-84.51109313964844,1
246889,-0.08853694796562195,-0.27404463291168213,0.2680685520172119,0.6058388352394104,-0.27809256315231323,-84.63252258300781,1
246899,-0.08441506326198578,-0.2746194303035736,0.2678471505641937,0.5452942848205566,-0.2570006251335144,-84.50774383544922,1
246909,-0.08417250961065292,-0.2747018039226532,0.2687445878982544,0.5809279680252075,-0.1907861977815628,-84.50138092041016,1
246919,-0.08721335232257843,-0.2739816904067993,0.2690122425556183,0.649911105632782,-0.1066594198346138,-84.63177490234375,1
246930,-0.087075375020504,-0.2740447521209717,0.2699234187602997,0.6320487260818481,-0.06550656259059906,-84.64824676513672,1
246939,-0.08307364583015442,-0.2748619616031647,0.2699059545993805,0.5094936490058899,-0.08636359125375748,-84.54740142822266,1
246949,-0.08578213304281235,-0.2744455933570862,0.26998233795166016,0.5580471754074097,-0.05585019290447235,-84.68396759033203,1
246959,-0.08566214889287949,-0.2745242118835449,0.2708978056907654,0.5397897362709045,-0.08525101095438004,-84.71269989013672,1
246969,-0.08215595036745071,-0.2754186689853668,0.27113285660743713,0.47448697686195374,-0.15506845712661743,-84.64216613769531,1
246980,-0.0819602832198143,-0.2755390703678131,0.27208495140075684,0.47874030470848083,-0.19729353487491608,-84.68118286132812,1
246989,-0.08482452481985092,-0.2747737467288971,0.2725904583930969,0.5609589219093323,-0.19564230740070343,-84.8588638305664,1
246999,-0.08063249289989471,-0.2749854326248169,0.2719731628894806,0.44356951117515564,-0.25737264752388,-84.78244018554688,1
247009,-0.08041129261255264,-0.2750914692878723,0.27284926176071167,0.44191136956214905,-0.2515827715396881,-84.80725860595703,1
247019,-0.08286122977733612,-0.27428045868873596,0.273469477891922,0.49307307600975037,-0.18210922181606293,-84.94049072265625,1
247030,-0.0827246606349945,-0.2743608355522156,0.27435657382011414,0.502970278263092,-0.11222633719444275,-84.95638275146484,1
247039,-0.07903848588466644,-0.2750745117664337,0.27433016896247864,0.43356433510780334,-0.06722354143857956,-84.8507080078125,1
247049,-0.08223748207092285,-0.2747000753879547,0.2741601765155792,0.5444368124008179,0.053908780217170715,-85.0148696899414,1
247059,-0.08214642107486725,-0.27478981018066406,0.2749991714954376,0.5439836978912354,0.12602950632572174,-85.02910614013672,1
247069,-0.07829485088586807,-0.2756892144680023,0.27500054240226746,0.47110068798065186,0.14220678806304932,-84.91788482666016,1
247080,-0.07811737805604935,-0.2758121192455292,0.2758404016494751,0.47653475403785706,0.1598401516675949,-84.92998504638672,1
247089,-0.08112014830112457,-0.27507856488227844,0.276183158159256,0.5763022899627686,0.17953765392303467,-85.07906341552734,1
247099,-0.07748112827539444,-0.2755777835845947,0.27596190571784973,0.45877423882484436,0.08859726786613464,-85.02239990234375,1
247109,-0.07730965316295624,-0.27568119764328003,0.27678680419921875,0.44861480593681335,-0.004572459962219,-85.07948303222656,1
247119,-0.07984118908643723,-0.27519845962524414,0.2769107222557068,0.4843895733356476,-0.08634848892688751,-85.30195617675781,1
247130,-0.07975631952285767,-0.2752821743488312,0.27774643898010254,0.47734397649765015,-0.16597822308540344,-85.36442565917969,1
247139,-0.0761614590883255,-0.2761414051055908,0.27782148122787476,0.3949525058269501,-0.2599863111972809,-85.29646301269531,1
247149,-0.07899361103773117,-0.2755456268787384,0.27805131673812866,0.49941450357437134,-0.2249729484319687,-85.40392303466797,1
247159,-0.07893792539834976,-0.2756398320198059,0.27888956665992737,0.5172241926193237,-0.2052023559808731,-85.43394470214844,1
247169,-0.0751861035823822,-0.2764670252799988,0.278850257396698,0.4766063988208771,-0.17803068459033966,-85.3396224975586,1
247180,-0.0750458613038063,-0.27660155296325684,0.27968519926071167,0.49384862184524536,-0.10992182791233063,-85.35132598876953,1
247189,-0.07820984721183777,-0.2759581506252289,0.27985548973083496,0.5889467597007751,0.0004313550016377121,-85.4966812133789,1
247199,-0.07442273944616318,-0.2763475477695465,0.27944013476371765,0.485763281583786,0.033033791929483414,-85.38756561279297,1
247209,-0.07428611069917679,-0.2764703631401062,0.2802584171295166,0.48540082573890686,0.07544214278459549,-85.394287109375,1
247219,-0.07680367678403854,-0.27555856108665466,0.2809697985649109,0.5212239027023315,0.126297727227211,-85.54512023925781,1
247230,-0.07675241678953171,-0.27564048767089844,0.28182920813560486,0.5015168190002441,0.12200471758842468,-85.56232452392578,1
247239,-0.07321169972419739,-0.27641215920448303,0.28189826011657715,0.38453909754753113,0.05026734620332718,-85.4540786743164,1
247280,-0.0726708248257637,-0.2772614061832428,0.2837361991405487,0.3814162611961365,-0.12203710526227951,-85.60261535644531,1
247289,-0.07558655738830566,-0.2766907215118408,0.28397685289382935,0.4599078893661499,-0.09776273369789124,-85.78607177734375,1
247299,-0.07195785641670227,-0.27694544196128845,0.283601313829422,0.33985722064971924,-0.1268705129623413,-85.71540832519531,1
247309,-0.07184725999832153,-0.27706190943717957,0.2844400405883789,0.32388630509376526,-0.10978005826473236,-85.72421264648438,1
247319,-0.07437682151794434,-0.27628979086875916,0.284986674785614,0.36551788449287415,-0.05879712477326393,-85.82048797607422,1
247331,-0.07434789836406708,-0.2763756215572357,0.28584277629852295,0.3694494664669037,-0.025370411574840546,-85.82366180419922,1
247339,-0.07096989452838898,-0.27706870436668396,0.2858540415763855,0.30380240082740784,-0.03176426142454147,-85.71145629882812,1
247349,-0.07392178475856781,-0.27678656578063965,0.2856196463108063,0.4081019163131714,0.022864509373903275,-85.86552429199219,1
