time.ms,stateEstimate.x,stateEstimate.y,stateEstimate.z,stabilizer.roll,stabilizer.pitch,stabilizer.yaw,pm.vbat
88949,-0.3779396414756775,-0.1351492702960968,0.018778540194034576,-0.16632947325706482,0.24146078526973724,22.765457153320312,1
88960,-0.377798467874527,-0.13500212132930756,0.018920181319117546,-0.1672012209892273,0.24038785696029663,22.743051528930664,1
88969,-0.37766513228416443,-0.1348339021205902,0.019030123949050903,-0.1681358367204666,0.2413664162158966,22.577465057373047,1
88979,-0.3779924809932709,-0.1355057656764984,0.018946275115013123,-0.15970167517662048,0.24553920328617096,22.78547477722168,1
88989,-0.37785547971725464,-0.13536934554576874,0.019096530973911285,-0.16022692620754242,0.24599440395832062,22.762489318847656,1
88999,-0.3778262734413147,-0.13514059782028198,0.01933358982205391,-0.16393493115901947,0.2488160878419876,22.58390235900879,1
89010,-0.37769684195518494,-0.13499993085861206,0.019491393119096756,-0.16453319787979126,0.24929068982601166,22.562597274780273,1
89019,-0.3780651390552521,-0.13499030470848083,0.018892107531428337,-0.17468047142028809,0.24927173554897308,22.758460998535156,1
89029,-0.378033846616745,-0.1347515732049942,0.019116828218102455,-0.1773374080657959,0.2504783272743225,22.58169937133789,1
89039,-0.3779118061065674,-0.1345931738615036,0.01927151158452034,-0.1763586550951004,0.24902722239494324,22.559532165527344,1
89049,-0.3784293830394745,-0.13502557575702667,0.01883108541369438,-0.17587760090827942,0.2577977776527405,22.748798370361328,1
89059,-0.3783171474933624,-0.13487352430820465,0.01897485740482807,-0.17541542649269104,0.25775057077407837,22.726633071899414,1
89069,-0.3782476782798767,-0.13467423617839813,0.01912817358970642,-0.17734842002391815,0.2596953213214874,22.55913543701172,1
89079,-0.3786054849624634,-0.13505589962005615,0.018827173858880997,-0.17612427473068237,0.2619689702987671,22.761730194091797,1
89089,-0.3784959614276886,-0.13490350544452667,0.01897161453962326,-0.17664362490177155,0.260443776845932,22.738759994506836,1
89099,-0.3783305585384369,-0.13477511703968048,0.018997687846422195,-0.1766444444656372,0.2615765631198883,22.565216064453125,1
89110,-0.3782190978527069,-0.13462504744529724,0.019140465185046196,-0.1767534464597702,0.26211050152778625,22.542566299438477,1
89119,-0.37814781069755554,-0.13491971790790558,0.019274037331342697,-0.17415986955165863,0.24806344509124756,22.750423431396484,1
89129,-0.37770208716392517,-0.13497553765773773,0.018976954743266106,-0.166949063539505,0.24237285554409027,22.585054397583008,1
89139,-0.3775605857372284,-0.1348324418067932,0.019121065735816956,-0.1672305315732956,0.24175754189491272,22.561927795410156,1
89149,-0.37805235385894775,-0.13510914146900177,0.01854601316154003,-0.171015664935112,0.24839971959590912,22.77919578552246,1
89159,-0.3779201805591583,-0.13496409356594086,0.018678488209843636,-0.17236295342445374,0.24922136962413788,22.756681442260742,1
89169,-0.3778555989265442,-0.13475358486175537,0.018855707719922066,-0.1745041459798813,0.2536914050579071,22.586549758911133,1
89179,-0.3780628442764282,-0.13516713678836823,0.018709829077124596,-0.17140191793441772,0.25181156396865845,22.792142868041992,1
89189,-0.37792932987213135,-0.13502320647239685,0.01885296031832695,-0.17010726034641266,0.2516239881515503,22.768930435180664,1
89199,-0.377896785736084,-0.1347949057817459,0.019081879407167435,-0.1730281412601471,0.2551731765270233,22.589885711669922,1
89210,-0.37776997685432434,-0.13465027511119843,0.019234811887145042,-0.17212985455989838,0.2542986273765564,22.567440032958984,1
89219,-0.37808504700660706,-0.13501469790935516,0.01897275447845459,-0.17237448692321777,0.2523035407066345,22.7547607421875,1
89229,-0.37800469994544983,-0.13481980562210083,0.01913735456764698,-0.17449398338794708,0.253358393907547,22.577590942382812,1
89239,-0.37788107991218567,-0.13467209041118622,0.019295109435915947,-0.17408230900764465,0.25417083501815796,22.555421829223633,1
89249,-0.37822628021240234,-0.13530708849430084,0.019198423251509666,-0.1647929549217224,0.2577585279941559,22.76462173461914,1
89259,-0.37810346484184265,-0.1351752132177353,0.01936418004333973,-0.1643296778202057,0.25855502486228943,22.742311477661133,1
89269,-0.3778689503669739,-0.1351032853126526,0.01933252066373825,-0.16158044338226318,0.2575352191925049,22.571407318115234,1
89279,-0.37806978821754456,-0.13511817157268524,0.018919823691248894,-0.1697460412979126,0.2494192272424698,22.76751136779785,1
89289,-0.37794044613838196,-0.1349760890007019,0.01907690055668354,-0.16863813996315002,0.24760399758815765,22.745311737060547,1
89299,-0.37785062193870544,-0.1347896158695221,0.01923656277358532,-0.1705072522163391,0.24960191547870636,22.56268310546875,1
89310,-0.3777231276035309,-0.13464601337909698,0.019398454576730728,-0.17019082605838776,0.24883629381656647,22.540328979492188,1
89319,-0.37813133001327515,-0.13512736558914185,0.019123021513223648,-0.16823333501815796,0.2520640194416046,22.730636596679688,1
89329,-0.3779168128967285,-0.13503262400627136,0.019124258309602737,-0.16678911447525024,0.2519065737724304,22.555187225341797,1
89339,-0.3777868449687958,-0.1348942071199417,0.01928187906742096,-0.1671840101480484,0.2514137923717499,22.533287048339844,1
89349,-0.37812697887420654,-0.13541892170906067,0.019093111157417297,-0.1616697609424591,0.2548714280128479,22.75018882751465,1
89359,-0.37799888849258423,-0.13529063761234283,0.019253600388765335,-0.16218061745166779,0.2533724308013916,22.728395462036133,1
89369,-0.37775468826293945,-0.13522747159004211,0.019218964502215385,-0.16012248396873474,0.25190889835357666,22.55503273010254,1
89379,-0.3779928684234619,-0.135311558842659,0.018794404342770576,-0.16596564650535583,0.24683701992034912,22.7529296875,1
89389,-0.3778572678565979,-0.1351742148399353,0.018946733325719833,-0.16664651036262512,0.24851946532726288,22.729717254638672,1
89399,-0.377717524766922,-0.13502487540245056,0.01905357837677002,-0.1667318344116211,0.24915127456188202,22.5620174407959,1
89410,-0.37757933139801025,-0.134890615940094,0.01921026222407818,-0.16672922670841217,0.24638350307941437,22.538846969604492,1
89419,-0.37802791595458984,-0.13528624176979065,0.01879052445292473,-0.16775180399417877,0.2487909346818924,22.741140365600586,1
89429,-0.3780462443828583,-0.13503196835517883,0.019090047106146812,-0.1728847771883011,0.2506828010082245,22.56134033203125,1
89439,-0.3779192268848419,-0.13489525020122528,0.019249899312853813,-0.17293599247932434,0.24979011714458466,22.539152145385742,1
89449,-0.37816527485847473,-0.1352001130580902,0.019010029733181,-0.17264989018440247,0.24676385521888733,22.752464294433594,1
89459,-0.3780349791049957,-0.1350598782300949,0.01917266845703125,-0.17306305468082428,0.24671973288059235,22.730100631713867,1
89469,-0.3779221475124359,-0.13488586246967316,0.019298864528536797,-0.17531606554985046,0.24693158268928528,22.55312156677246,1
89479,-0.3781917691230774,-0.13506071269512177,0.01892119087278843,-0.17718209326267242,0.24409259855747223,22.76203727722168,1
89489,-0.37806016206741333,-0.13491150736808777,0.0190824493765831,-0.17747969925403595,0.24375174939632416,22.738677978515625,1
89499,-0.3778330981731415,-0.13481172919273376,0.019066449254751205,-0.17517738044261932,0.24427828192710876,22.555837631225586,1
89510,-0.37769728899002075,-0.13466638326644897,0.019229255616664886,-0.1748054027557373,0.24310055375099182,22.533451080322266,1
89519,-0.3780558705329895,-0.13514629006385803,0.018988871946930885,-0.17142550647258759,0.24637435376644135,22.73326873779297,1
89529,-0.3778420388698578,-0.13504661619663239,0.019011937081813812,-0.16946806013584137,0.2471635937690735,22.562026977539062,1
89539,-0.3777012228965759,-0.13490983843803406,0.01917448826134205,-0.16874581575393677,0.2471642792224884,22.539396286010742,1
89549,-0.3780568242073059,-0.13541007041931152,0.018933899700641632,-0.1653599590063095,0.25071945786476135,22.750539779663086,1
89560,-0.37790510058403015,-0.1350415199995041,0.01937558874487877,-0.16827455163002014,0.2539401352405548,22.546632766723633,1
89569,-0.37790510058403015,-0.1350415199995041,0.01937558874487877,-0.16827455163002014,0.2539401352405548,22.546632766723633,1
89579,-0.37816208600997925,-0.13518694043159485,0.01900167390704155,-0.17419296503067017,0.24863405525684357,22.75680160522461,1
89589,-0.37802842259407043,-0.1350419819355011,0.019171535968780518,-0.1736101657152176,0.2501235604286194,22.733659744262695,1
89599,-0.37787020206451416,-0.13489806652069092,0.019263410940766335,-0.17389747500419617,0.2503683269023895,22.551950454711914,1
89611,-0.37773579359054565,-0.13475333154201508,0.019435176625847816,-0.17444050312042236,0.24813838303089142,22.530513763427734,1
89619,-0.3781207203865051,-0.13491575419902802,0.018947074189782143,-0.18007053434848785,0.24647504091262817,22.72303009033203,1
89629,-0.37803882360458374,-0.13471144437789917,0.019131815060973167,-0.181173175573349,0.24853982031345367,22.54612159729004,1
89639,-0.37790536880493164,-0.13455846905708313,0.01930074952542782,-0.1813613325357437,0.24850833415985107,22.52360725402832,1
89649,-0.3782001733779907,-0.13499903678894043,0.019122054800391197,-0.1768793910741806,0.2518236041069031,22.731830596923828,1
89660,-0.3779790699481964,-0.13465338945388794,0.019486665725708008,-0.1782008856534958,0.2532832622528076,22.5302734375,1
89669,-0.3779790699481964,-0.13465338945388794,0.019486665725708008,-0.1782008856534958,0.2532832622528076,22.5302734375,1
89679,-0.3785870671272278,-0.13511763513088226,0.018955890089273453,-0.17913469672203064,0.26425406336784363,22.731069564819336,1
89689,-0.3784676790237427,-0.13497337698936462,0.01912236586213112,-0.1790376603603363,0.26535043120384216,22.706811904907227,1
89699,-0.37796589732170105,-0.13508154451847076,0.01874612830579281,-0.16646826267242432,0.25962281227111816,22.523799896240234,1
89711,-0.37782764434814453,-0.1349465250968933,0.018886899575591087,-0.16581639647483826,0.25892022252082825,22.501239776611328,1
89719,-0.3779725730419159,-0.1350594311952591,0.018597418442368507,-0.17051267623901367,0.25265738368034363,22.709293365478516,1
89729,-0.3779972493648529,-0.13477616012096405,0.01890575885772705,-0.17561110854148865,0.25696516036987305,22.53584098815918,1
89739,-0.37785661220550537,-0.13462628424167633,0.019054891541600227,-0.1766204535961151,0.25625014305114746,22.513263702392578,1
89749,-0.37810051441192627,-0.13532854616641998,0.01909986138343811,-0.16401152312755585,0.2607685625553131,22.72484016418457,1
89760,-0.3779577314853668,-0.1351962685585022,0.01926499977707863,-0.16470949351787567,0.26159122586250305,22.702526092529297,1
89769,-0.3777729272842407,-0.13507598638534546,0.01932866871356964,-0.16325095295906067,0.26037153601646423,22.526430130004883,1
89779,-0.3781585991382599,-0.1352120339870453,0.018763698637485504,-0.17058692872524261,0.2592378556728363,22.729923248291016,1
89789,-0.3780183494091034,-0.13507385551929474,0.018915323540568352,-0.1698502153158188,0.2587850093841553,22.707704544067383,1
89799,-0.3779431879520416,-0.13487407565116882,0.019103171303868294,-0.17101500928401947,0.2624489367008209,22.536306381225586,1
89810,-0.37780603766441345,-0.1347344070672989,0.019262582063674927,-0.1706731617450714,0.26411283016204834,22.515043258666992,1
89819,-0.37800151109695435,-0.13522616028785706,0.019218260422348976,-0.16713567078113556,0.26182225346565247,22.720863342285156,1
89829,-0.3777361214160919,-0.13515955209732056,0.019180942326784134,-0.16270850598812103,0.26022082567214966,22.539701461791992,1
89839,-0.3775874078273773,-0.13502496480941772,0.019345784559845924,-0.16241273283958435,0.25959932804107666,22.518096923828125,1
89849,-0.37783560156822205,-0.13523279130458832,0.01900724321603775,-0.16574496030807495,0.258419007062912,22.740009307861328,1
89859,-0.37768277525901794,-0.13509149849414825,0.01916823349893093,-0.1661665439605713,0.2588348984718323,22.717967987060547,1
89869,-0.37756747007369995,-0.13490550220012665,0.01932682655751705,-0.1674550622701645,0.2589316666126251,22.545499801635742,1
89879,-0.3781539797782898,-0.13557031750679016,0.01891806721687317,-0.16027352213859558,0.2719677984714508,22.75836753845215,1
89889,-0.37801599502563477,-0.13544334471225739,0.019073158502578735,-0.1604529470205307,0.2723551392555237,22.73523712158203,1
89899,-0.3778219521045685,-0.13533970713615417,0.01910751685500145,-0.1587219536304474,0.27256524562835693,22.561248779296875,1
89909,-0.3776845335960388,-0.1352127343416214,0.019264956936240196,-0.15875501930713654,0.2740313410758972,22.538219451904297,1
89919,-0.3777468502521515,-0.13533608615398407,0.01908670738339424,-0.16324900090694427,0.2624553143978119,22.752376556396484,1
89929,-0.3776884377002716,-0.13511922955513,0.019313126802444458,-0.16679665446281433,0.2649538815021515,22.572509765625,1
89939,-0.37754544615745544,-0.13497887551784515,0.01948133297264576,-0.16577190160751343,0.26304763555526733,22.551191329956055,1
89949,-0.3780251145362854,-0.13543570041656494,0.01907387748360634,-0.16426309943199158,0.2721601724624634,22.762826919555664,1
89959,-0.377890408039093,-0.13530218601226807,0.019233034923672676,-0.16492073237895966,0.27136319875717163,22.739694595336914,1
89969,-0.377597838640213,-0.1352616250514984,0.019139720126986504,-0.16146326065063477,0.26904749870300293,22.56203269958496,1
89979,-0.3778724670410156,-0.13538162410259247,0.018691347911953926,-0.16710501909255981,0.2649206221103668,22.760955810546875,1
89989,-0.3777337074279785,-0.1352386176586151,0.01883668825030327,-0.1684878170490265,0.2636343538761139,22.73931884765625,1
89999,-0.3775746524333954,-0.13509419560432434,0.018909361213445663,-0.16770337522029877,0.26255619525909424,22.56468963623047,1
90009,-0.3774365186691284,-0.1349504142999649,0.019057484343647957,-0.16834764182567596,0.2626466155052185,22.543209075927734,1
90019,-0.3777657151222229,-0.13528013229370117,0.01871906779706478,-0.16888126730918884,0.2604537904262543,22.745494842529297,1
90029,-0.377827912569046,-0.13497665524482727,0.0190714281052351,-0.1757613867521286,0.26467323303222656,22.57223892211914,1
90039,-0.37769973278045654,-0.13482391834259033,0.019227284938097,-0.17469878494739532,0.26645827293395996,22.551225662231445,1
90049,-0.37809625267982483,-0.13539913296699524,0.01901833526790142,-0.16777390241622925,0.272239089012146,22.763429641723633,1
90059,-0.37797293066978455,-0.13525691628456116,0.019176442176103592,-0.16836155951023102,0.2710014581680298,22.740554809570312,1
90069,-0.3779065012931824,-0.13505436480045319,0.01935063861310482,-0.1711503565311432,0.27323102951049805,22.563451766967773,1
90079,-0.37829023599624634,-0.13499335944652557,0.018677741289138794,-0.18260537087917328,0.26896435022354126,22.776172637939453,1
90089,-0.37817254662513733,-0.1348332017660141,0.018824322149157524,-0.18155765533447266,0.2678515315055847,22.753759384155273,1
90099,-0.37813499569892883,-0.13459832966327667,0.01902775838971138,-0.18517403304576874,0.2708670496940613,22.57782745361328,1
90109,-0.37802088260650635,-0.13443392515182495,0.019182926043868065,-0.18583719432353973,0.2702161967754364,22.55553436279297,1
90119,-0.37830203771591187,-0.1347213089466095,0.018927976489067078,-0.18644963204860687,0.26786676049232483,22.755329132080078,1
90129,-0.37817323207855225,-0.13454589247703552,0.01901858113706112,-0.1844550520181656,0.2685409486293793,22.583980560302734,1
90139,-0.3780577778816223,-0.13437671959400177,0.019176047295331955,-0.18440133333206177,0.26933836936950684,22.561439514160156,1
90149,-0.3785736858844757,-0.13501709699630737,0.018908550962805748,-0.17679117619991302,0.28064462542533875,22.76346206665039,1
90159,-0.37847045063972473,-0.13486380875110626,0.019067419692873955,-0.1767294704914093,0.27824437618255615,22.74189567565918,1
90169,-0.3783177137374878,-0.13472898304462433,0.01911037415266037,-0.17468878626823425,0.27909329533576965,22.55968475341797,1
90179,-0.3787423074245453,-0.13519957661628723,0.018810372799634933,-0.17080989480018616,0.28391599655151367,22.772235870361328,1
90189,-0.3786470592021942,-0.1350569725036621,0.01896459236741066,-0.17149072885513306,0.2805441617965698,22.749608993530273,1
90199,-0.37823396921157837,-0.13512539863586426,0.018657952547073364,-0.1620001494884491,0.27590686082839966,22.57196807861328,1
90209,-0.37812936305999756,-0.13499414920806885,0.018795182928442955,-0.16129344701766968,0.2743143141269684,22.54923439025879,1
90219,-0.3780047297477722,-0.13511087000370026,0.018845021724700928,-0.16210328042507172,0.25762349367141724,22.75811195373535,1
90229,-0.37774336338043213,-0.13505227863788605,0.01876668632030487,-0.15841034054756165,0.2568058967590332,22.578664779663086,1
90239,-0.3776143193244934,-0.13491779565811157,0.018909554928541183,-0.15718881785869598,0.2572106420993805,22.555505752563477,1
90249,-0.37795254588127136,-0.13546636700630188,0.018711578100919724,-0.15179531276226044,0.25944167375564575,22.756290435791016,1
90259,-0.37782377004623413,-0.13534410297870636,0.018856419250369072,-0.15034300088882446,0.2581268548965454,22.73458480834961,1
90269,-0.3777490258216858,-0.13516765832901,0.01902608945965767,-0.15265333652496338,0.26041579246520996,22.55858612060547,1
90279,-0.37762150168418884,-0.13504356145858765,0.019173841923475266,-0.15242896974086761,0.2610021233558655,22.53722381591797,1
90289,-0.37776774168014526,-0.13531652092933655,0.018994130194187164,-0.15273480117321014,0.25635722279548645,22.74703598022461,1
90299,-0.37759527564048767,-0.13519956171512604,0.019045643508434296,-0.1526486575603485,0.25724613666534424,22.579818725585938,1
90309,-0.37746167182922363,-0.13507038354873657,0.01919572986662388,-0.15258905291557312,0.25738096237182617,22.557598114013672,1
90319,-0.3777178227901459,-0.1353713423013687,0.018916286528110504,-0.15424621105194092,0.25370749831199646,22.769332885742188,1
90329,-0.3776719272136688,-0.1351626068353653,0.019142547622323036,-0.1579071581363678,0.2575821280479431,22.602575302124023,1
90339,-0.37753698229789734,-0.13503137230873108,0.01929737813770771,-0.15723785758018494,0.2575676441192627,22.58014678955078,1
90349,-0.3778866231441498,-0.1352643072605133,0.018865445628762245,-0.1620824784040451,0.2572666108608246,22.7840633392334,1
90359,-0.3777516782283783,-0.1351306140422821,0.019012711942195892,-0.16349288821220398,0.2572837173938751,22.760770797729492,1
90369,-0.3777601718902588,-0.13487957417964935,0.019300352782011032,-0.1676349639892578,0.2604006826877594,22.59123992919922,1
90379,-0.3776310980319977,-0.13474057614803314,0.01945679262280464,-0.16723160445690155,0.258688360452652,22.5679874420166,1
90389,-0.3778960108757019,-0.13505136966705322,0.019188879057765007,-0.16732779145240784,0.2563982307910919,22.777915954589844,1
90399,-0.37785837054252625,-0.13483044505119324,0.01942024938762188,-0.1710597723722458,0.2573812007904053,22.596637725830078,1
90409,-0.37773334980010986,-0.134687140583992,0.019586121663451195,-0.17061027884483337,0.25775089859962463,22.57416343688965,1
90419,-0.3781501352787018,-0.1349196434020996,0.01911300979554653,-0.1757543981075287,0.2563340365886688,22.785051345825195,1
90429,-0.3780011534690857,-0.13477595150470734,0.019192393869161606,-0.17541822791099548,0.25705382227897644,22.609375,1
90439,-0.3778790235519409,-0.13462907075881958,0.019354388117790222,-0.17640525102615356,0.2558337450027466,22.5860538482666,1
90449,-0.37821558117866516,-0.13503609597682953,0.019105736166238785,-0.17340652644634247,0.25490182638168335,22.793638229370117,1
90459,-0.3780938386917114,-0.13489384949207306,0.019266901537775993,-0.17358985543251038,0.2556702196598053,22.769695281982422,1
90469,-0.3778904378414154,-0.13479220867156982,0.019275471568107605,-0.1708076447248459,0.2560991942882538,22.58675193786621,1
90479,-0.3777647316455841,-0.13465411961078644,0.019436677917838097,-0.17098788917064667,0.2572551369667053,22.56303596496582,1
90489,-0.37815654277801514,-0.13510644435882568,0.01912149041891098,-0.16897326707839966,0.2593148648738861,22.757551193237305,1
90499,-0.37788471579551697,-0.13506430387496948,0.019037170335650444,-0.16575434803962708,0.2561885714530945,22.584537506103516,1
90509,-0.3777574896812439,-0.13493719696998596,0.0191855076700449,-0.1644858419895172,0.25609156489372253,22.561466217041016,1
90519,-0.3777918517589569,-0.1350940316915512,0.01906604878604412,-0.1665029227733612,0.2463606745004654,22.768489837646484,1
90529,-0.37779945135116577,-0.134841650724411,0.019365496933460236,-0.17214974761009216,0.24994921684265137,22.599557876586914,1
90539,-0.37766554951667786,-0.1347031444311142,0.019524652510881424,-0.17186644673347473,0.24976837635040283,22.577045440673828,1
90549,-0.3783416450023651,-0.1349514126777649,0.018730519339442253,-0.17794132232666016,0.2603105902671814,22.77787971496582,1
90559,-0.3782266080379486,-0.13481181859970093,0.01886158064007759,-0.17851054668426514,0.2615572512149811,22.754127502441406,1
90569,-0.37810125946998596,-0.13466289639472961,0.018932975828647614,-0.17918872833251953,0.2626744508743286,22.583065032958984,1
90579,-0.37798789143562317,-0.1345207244157791,0.019065478816628456,-0.17952227592468262,0.26295652985572815,22.560199737548828,1
90589,-0.3780794143676758,-0.13500872254371643,0.019128957763314247,-0.17264199256896973,0.25771620869636536,22.763906478881836,1
90599,-0.37784701585769653,-0.13493458926677704,0.019077328965067863,-0.16949176788330078,0.25526905059814453,22.57907485961914,1
90609,-0.37772583961486816,-0.13480058312416077,0.01921597309410572,-0.16952528059482574,0.2537752091884613,22.556312561035156,1
90619,-0.3778679370880127,-0.13502177596092224,0.019024543464183807,-0.17070874571800232,0.24491678178310394,22.7734432220459,1
90629,-0.3777233958244324,-0.1348816156387329,0.019102461636066437,-0.17059434950351715,0.24506084620952606,22.601587295532227,1
90639,-0.3775959014892578,-0.13474240899085999,0.019245093688368797,-0.17095133662223816,0.24534232914447784,22.578977584838867,1
90649,-0.3779878616333008,-0.13520610332489014,0.018934881314635277,-0.16758306324481964,0.2482963353395462,22.78241729736328,1
90659,-0.37786442041397095,-0.13507051765918732,0.019072964787483215,-0.1682279258966446,0.2501547038555145,22.7594051361084,1
90669,-0.37767791748046875,-0.13496103882789612,0.01908062770962715,-0.16679389774799347,0.25105318427085876,22.58407974243164,1
90679,-0.3775545358657837,-0.1348239928483963,0.01921948790550232,-0.16731548309326172,0.2507997155189514,22.561758041381836,1
90689,-0.37773191928863525,-0.1351279616355896,0.01903175748884678,-0.16583360731601715,0.24764256179332733,22.77028465270996,1
90699,-0.3776254951953888,-0.13495905697345734,0.01916027069091797,-0.1679433286190033,0.24852941930294037,22.602548599243164,1
90709,-0.3775000274181366,-0.13481765985488892,0.01930347830057144,-0.16789112985134125,0.24763993918895721,22.580753326416016,1
90719,-0.37799373269081116,-0.13518644869327545,0.018832722678780556,-0.1694089025259018,0.2522696554660797,22.782115936279297,1
90729,-0.37785014510154724,-0.1350475251674652,0.01889643259346485,-0.16847091913223267,0.2518613040447235,22.614208221435547,1
90739,-0.37772759795188904,-0.1349084973335266,0.019035356119275093,-0.16919070482254028,0.2515099048614502,22.59357261657715,1
90749,-0.3780208230018616,-0.13537274301052094,0.018834568560123444,-0.165134459733963,0.2521893084049225,22.810440063476562,1
90759,-0.3778948485851288,-0.1352415680885315,0.018979057669639587,-0.16522258520126343,0.25103577971458435,22.787370681762695,1
90769,-0.3777785003185272,-0.1350882351398468,0.019094156101346016,-0.16585837304592133,0.2528505325317383,22.616905212402344,1
90779,-0.377651572227478,-0.13495773077011108,0.019238175824284554,-0.16478291153907776,0.25446274876594543,22.595674514770508,1
90789,-0.3779410421848297,-0.13530808687210083,0.018943417817354202,-0.16447895765304565,0.2551405131816864,22.798355102539062,1
90799,-0.3780292570590973,-0.1350068897008896,0.01931230165064335,-0.17302264273166656,0.260452002286911,22.612483978271484,1
90809,-0.3779143691062927,-0.13486641645431519,0.01947392150759697,-0.17339961230754852,0.2607932388782501,22.589385986328125,1
90819,-0.37819182872772217,-0.13487876951694489,0.019004855304956436,-0.18140146136283875,0.25630781054496765,22.800119400024414,1
90829,-0.3779199719429016,-0.13481678068637848,0.01890818029642105,-0.1771782636642456,0.2546406686306,22.625961303710938,1
90839,-0.3777964413166046,-0.13466493785381317,0.01905328780412674,-0.17725563049316406,0.252916157245636,22.604110717773438,1
90849,-0.3780248165130615,-0.13518770039081573,0.018995560705661774,-0.17006443440914154,0.2504870593547821,22.810453414916992,1
90859,-0.3778995871543884,-0.13504339754581451,0.01915021240711212,-0.16915763914585114,0.2507041394710541,22.78889274597168,1
90869,-0.37777000665664673,-0.13488507270812988,0.01925005577504635,-0.17022481560707092,0.2500944435596466,22.60491371154785,1
90879,-0.37764450907707214,-0.13474062085151672,0.019403444603085518,-0.1708499938249588,0.24979686737060547,22.58308982849121,1
90889,-0.37804868817329407,-0.13503897190093994,0.01896076835691929,-0.1725752204656601,0.25290152430534363,22.77764320373535,1
90899,-0.3779878616333008,-0.1348320096731186,0.01913563534617424,-0.17459581792354584,0.25472941994667053,22.590009689331055,1
90909,-0.37786784768104553,-0.13468432426452637,0.019286388531327248,-0.1743384748697281,0.2539326846599579,22.56695556640625,1
90919,-0.3781459331512451,-0.13493087887763977,0.018979638814926147,-0.1776513159275055,0.2511497139930725,22.762248992919922,1
90929,-0.3780079185962677,-0.13477471470832825,0.01905834674835205,-0.17703230679035187,0.251436710357666,22.57364273071289,1
90939,-0.3778861165046692,-0.1346236765384674,0.01920739747583866,-0.1758357733488083,0.25225648283958435,22.55012321472168,1
90949,-0.37831026315689087,-0.13526882231235504,0.019009791314601898,-0.16746188700199127,0.25798293948173523,22.76812744140625,1
90959,-0.3781953752040863,-0.13513636589050293,0.019164107739925385,-0.16767637431621552,0.2570565342903137,22.745872497558594,1
90969,-0.37811708450317383,-0.13496355712413788,0.019315756857395172,-0.1693711280822754,0.25940170884132385,22.561073303222656,1
90979,-0.3780054748058319,-0.1348320096731186,0.01947258785367012,-0.1690489798784256,0.2601895034313202,22.53771209716797,1
90989,-0.3783097565174103,-0.1350942850112915,0.019121550023555756,-0.17124274373054504,0.2591516375541687,22.73681640625,1
90999,-0.3779883086681366,-0.13509152829647064,0.018963146954774857,-0.1656518578529358,0.25683483481407166,22.56673240661621,1
91009,-0.37786751985549927,-0.1349625140428543,0.019108539447188377,-0.16624902188777924,0.2584422528743744,22.544780731201172,1
91019,-0.37791907787323,-0.13516084849834442,0.019000384956598282,-0.16725315153598785,0.24900226294994354,22.746187210083008,1
91029,-0.377813458442688,-0.1349899023771286,0.019140971824526787,-0.16843105852603912,0.2493402063846588,22.561092376708984,1
91039,-0.377681165933609,-0.1348532885313034,0.019295884296298027,-0.16862870752811432,0.24857348203659058,22.53774070739746,1
91049,-0.3781965970993042,-0.13523830473423004,0.018793199211359024,-0.16869524121284485,0.25713828206062317,22.73543930053711,1
91059,-0.3780737817287445,-0.13510407507419586,0.01893727481365204,-0.16810548305511475,0.25732389092445374,22.712671279907227,1
91069,-0.378069669008255,-0.13486777245998383,0.01918940246105194,-0.17153219878673553,0.2609941065311432,22.53162956237793,1
91079,-0.37795209884643555,-0.13472804427146912,0.019342489540576935,-0.1722174435853958,0.2604938745498657,22.508615493774414,1
91089,-0.37815797328948975,-0.13511469960212708,0.01920310966670513,-0.16989536583423615,0.25690627098083496,22.70985221862793,1
91099,-0.37781286239624023,-0.13512232899665833,0.019023574888706207,-0.1632813662290573,0.25290125608444214,22.537303924560547,1
91109,-0.37768441438674927,-0.13499347865581512,0.0191660039126873,-0.16170017421245575,0.2517751455307007,22.515430450439453,1
91119,-0.3777061104774475,-0.1351371705532074,0.019042326137423515,-0.16487328708171844,0.2429584264755249,22.73206901550293,1
91129,-0.37754055857658386,-0.1350046992301941,0.019110072404146194,-0.16419850289821625,0.24259880185127258,22.55805778503418,1
91139,-0.37739983201026917,-0.1348699927330017,0.01925712823867798,-0.1640099287033081,0.24176248908042908,22.53480339050293,1
91149,-0.37799641489982605,-0.13541798293590546,0.018754972144961357,-0.16206486523151398,0.2555972933769226,22.734500885009766,1
91159,-0.377870112657547,-0.13529154658317566,0.018890228122472763,-0.16230766475200653,0.2567642331123352,22.711013793945312,1
91169,-0.377927303314209,-0.13501694798469543,0.01920776441693306,-0.16803869605064392,0.2598384916782379,22.535722732543945,1
91179,-0.37780651450157166,-0.1348862200975418,0.019350364804267883,-0.16809603571891785,0.25972431898117065,22.512367248535156,1
91189,-0.37797412276268005,-0.1352434903383255,0.019215885549783707,-0.16633746027946472,0.2560631036758423,22.726734161376953,1
91199,-0.3779275417327881,-0.13503840565681458,0.019419804215431213,-0.17130915820598602,0.25835683941841125,22.542673110961914,1
91209,-0.3778039813041687,-0.13490398228168488,0.019575856626033783,-0.17023247480392456,0.2576245367527008,22.52019500732422,1
91219,-0.37809616327285767,-0.13485746085643768,0.01902775652706623,-0.1793566197156906,0.2530556619167328,22.720054626464844,1
91229,-0.37797096371650696,-0.13470689952373505,0.019174952059984207,-0.17891930043697357,0.25320354104042053,22.69778823852539,1
91239,-0.377716064453125,-0.13462810218334198,0.01909869723021984,-0.17612962424755096,0.25164955854415894,22.517303466796875,1
91249,-0.37807774543762207,-0.13518987596035004,0.0188946183770895,-0.1693953424692154,0.25643467903137207,22.724756240844727,1
91259,-0.3779492676258087,-0.13505218923091888,0.019044846296310425,-0.1699364185333252,0.2563804090023041,22.702598571777344,1
91269,-0.3779430389404297,-0.13480885326862335,0.01930321380496025,-0.17381322383880615,0.26009082794189453,22.51226234436035,1
91279,-0.3778187930583954,-0.13466614484786987,0.01946297101676464,-0.17358960211277008,0.2605830430984497,22.4895076751709,1
91289,-0.3781512677669525,-0.13485994935035706,0.01903410442173481,-0.1773456484079361,0.25917673110961914,22.696157455444336,1
91299,-0.3778873383998871,-0.13479037582874298,0.018949240446090698,-0.1733904778957367,0.256735622882843,22.51827621459961,1
91309,-0.3777586817741394,-0.13464242219924927,0.01909550651907921,-0.17314577102661133,0.25783416628837585,22.495925903320312,1
91319,-0.37803974747657776,-0.13512054085731506,0.018934765830636024,-0.17026694118976593,0.2549891471862793,22.703327178955078,1
91329,-0.37790730595588684,-0.1349780559539795,0.01908423751592636,-0.17023354768753052,0.25394412875175476,22.681034088134766,1
91339,-0.3778541386127472,-0.13476383686065674,0.019288185983896255,-0.17219893634319305,0.2566961348056793,22.497703552246094,1
91349,-0.37814149260520935,-0.13494667410850525,0.018903689458966255,-0.17589107155799866,0.25265491008758545,22.71261978149414,1
91359,-0.37801092863082886,-0.13479651510715485,0.01905033364892006,-0.17470338940620422,0.2532529830932617,22.69059944152832,1
91369,-0.37781912088394165,-0.13467466831207275,0.01907355524599552,-0.1739891916513443,0.25500962138175964,22.5100154876709,1
91379,-0.3776872456073761,-0.13452649116516113,0.019218679517507553,-0.17388266324996948,0.2531915605068207,22.487085342407227,1
91389,-0.37790632247924805,-0.1350051760673523,0.01911795325577259,-0.1688661128282547,0.2518247961997986,22.702999114990234,1
91399,-0.37773019075393677,-0.13487383723258972,0.019166266545653343,-0.16781531274318695,0.25264972448349,22.526247024536133,1
91409,-0.3775920271873474,-0.13473208248615265,0.019317064434289932,-0.16847839951515198,0.2514793872833252,22.5035343170166,1
91419,-0.3778870105743408,-0.1352071613073349,0.019137173891067505,-0.16574381291866302,0.2521441876888275,22.713327407836914,1
91429,-0.3777461051940918,-0.13506712019443512,0.019294440746307373,-0.16554459929466248,0.2522021234035492,22.689498901367188,1
91439,-0.3777396082878113,-0.13481533527374268,0.019579311832785606,-0.17035408318042755,0.25678184628486633,22.496986389160156,1
91449,-0.3781168758869171,-0.1349804699420929,0.019083866849541664,-0.1771579384803772,0.2547440826892853,22.720903396606445,1
91459,-0.3779856264591217,-0.13483025133609772,0.019238097593188286,-0.1779957264661789,0.25644806027412415,22.698841094970703,1
91469,-0.37791138887405396,-0.13462291657924652,0.019418001174926758,-0.18143071234226227,0.2573789954185486,22.513465881347656,1
91479,-0.37778207659721375,-0.1344708800315857,0.019576050341129303,-0.1793896108865738,0.25603166222572327,22.491151809692383,1
91489,-0.37838366627693176,-0.13501691818237305,0.019101016223430634,-0.1779581606388092,0.2625589370727539,22.706066131591797,1
91499,-0.3781988322734833,-0.13490448892116547,0.019114337861537933,-0.1762998253107071,0.26204055547714233,22.525808334350586,1
91509,-0.3780808448791504,-0.134761244058609,0.019260650500655174,-0.17726989090442657,0.26336097717285156,22.50473403930664,1
91519,-0.3783857822418213,-0.1350417584180832,0.018942074850201607,-0.1788625866174698,0.26090800762176514,22.71457862854004,1
91529,-0.3782670199871063,-0.13489684462547302,0.019086863845586777,-0.17846161127090454,0.2615273892879486,22.69133186340332,1
91539,-0.37815192341804504,-0.1347336322069168,0.01919054612517357,-0.17948071658611298,0.2636757791042328,22.516937255859375,1
91549,-0.3783232867717743,-0.13501036167144775,0.019015168771147728,-0.17893598973751068,0.25681301951408386,22.72397804260254,1
91559,-0.37819936871528625,-0.1348622739315033,0.01916826330125332,-0.1792900115251541,0.2574383318424225,22.701393127441406,1
91569,-0.37805864214897156,-0.13470907509326935,0.019255055114626884,-0.17960411310195923,0.2573959529399872,22.522592544555664,1
91580,-0.3779347240924835,-0.13455910980701447,0.019408801570534706,-0.17913615703582764,0.2580351233482361,22.500619888305664,1
91589,-0.3781123161315918,-0.13491979241371155,0.01928381621837616,-0.17766353487968445,0.25244030356407166,22.71670913696289,1
91599,-0.3778644800186157,-0.13483519852161407,0.01923893764615059,-0.17554989457130432,0.25059840083122253,22.53575897216797,1
91609,-0.3777288794517517,-0.13468752801418304,0.019391266629099846,-0.17493018507957458,0.24970418214797974,22.512571334838867,1
91619,-0.37808918952941895,-0.13499653339385986,0.01901172287762165,-0.1770961731672287,0.24909020960330963,22.714065551757812,1
91629,-0.37795308232307434,-0.13484515249729156,0.019159941002726555,-0.17653919756412506,0.2485135942697525,22.693023681640625,1
91639,-0.37777501344680786,-0.13470354676246643,0.019194524735212326,-0.1758032739162445,0.24938030540943146,22.512542724609375,1
91649,-0.37809649109840393,-0.13524983823299408,0.019029879942536354,-0.16877499222755432,0.25280505418777466,22.722450256347656,1
91659,-0.37796130776405334,-0.1351068764925003,0.01918182522058487,-0.16892415285110474,0.2514999806880951,22.7006893157959,1
91669,-0.37771138548851013,-0.13502636551856995,0.019136464223265648,-0.16630609333515167,0.2505605220794678,22.529399871826172,1
91680,-0.377572238445282,-0.13488556444644928,0.019286802038550377,-0.1672448366880417,0.25120624899864197,22.506982803344727,1
91689,-0.3778613805770874,-0.1351519525051117,0.018925901502370834,-0.1687723994255066,0.25031498074531555,22.709674835205078,1
91699,-0.3776617646217346,-0.1350349485874176,0.018951669335365295,-0.16750559210777283,0.25025248527526855,22.538585662841797,1
91709,-0.3775178790092468,-0.13489297032356262,0.019097020849585533,-0.16741280257701874,0.25103452801704407,22.516151428222656,1
91719,-0.37778517603874207,-0.1350640505552292,0.018713919445872307,-0.17064471542835236,0.24855348467826843,22.733280181884766,1
91729,-0.37763845920562744,-0.1349145770072937,0.018855489790439606,-0.17153477668762207,0.24673013389110565,22.711549758911133,1
91739,-0.37756967544555664,-0.13469506800174713,0.019056573510169983,-0.17447058856487274,0.24849793314933777,22.536394119262695,1
91749,-0.3779694736003876,-0.13525477051734924,0.018808647990226746,-0.16903570294380188,0.2526680529117584,22.738658905029297,1
91759,-0.3778284788131714,-0.1351136565208435,0.018961329013109207,-0.16911177337169647,0.2531335949897766,22.715660095214844,1
91769,-0.3777261972427368,-0.13492746651172638,0.019120756536722183,-0.17084266245365143,0.25434648990631104,22.54203987121582,1
91779,-0.3775843679904938,-0.13478215038776398,0.019274817779660225,-0.1713448464870453,0.2538963854312897,22.518932342529297,1
91789,-0.3779536485671997,-0.13505667448043823,0.018834402784705162,-0.17403392493724823,0.2551887333393097,22.738210678100586,1
91799,-0.3777415156364441,-0.13494421541690826,0.018837759271264076,-0.17240354418754578,0.2555287480354309,22.548349380493164,1
91809,-0.3776012063026428,-0.1347964107990265,0.018979238346219063,-0.1722976416349411,0.2548854351043701,22.526012420654297,1
91819,-0.37769073247909546,-0.13524186611175537,0.019002621993422508,-0.16722625494003296,0.24694155156612396,22.74019432067871,1
91829,-0.37754037976264954,-0.13509535789489746,0.019153796136379242,-0.16777530312538147,0.24693600833415985,22.718381881713867,1
91839,-0.37752971053123474,-0.13483527302742004,0.019445868209004402,-0.17183543741703033,0.24956998229026794,22.534767150878906,1
91849,-0.3779793381690979,-0.1352004110813141,0.019005339592695236,-0.1732012927532196,0.25458502769470215,22.7481632232666,1
91859,-0.3778402507305145,-0.13505347073078156,0.019158894196152687,-0.17427536845207214,0.25422608852386475,22.725749969482422,1
91869,-0.3776114284992218,-0.13495303690433502,0.019153829663991928,-0.17274795472621918,0.2553487718105316,22.547958374023438,1
91879,-0.37746667861938477,-0.13480672240257263,0.01930527575314045,-0.1722046434879303,0.2553250789642334,22.525732040405273,1
91889,-0.3779268264770508,-0.13525095582008362,0.018890580162405968,-0.1710788458585739,0.261677086353302,22.72686004638672,1
91899,-0.37795543670654297,-0.13496962189674377,0.01920589804649353,-0.17927467823028564,0.26633861660957336,22.541040420532227,1
91909,-0.3778245747089386,-0.1348150670528412,0.019367164000868797,-0.17887066304683685,0.26696693897247314,22.51924705505371,1
91919,-0.3781793415546417,-0.1351815015077591,0.019054220989346504,-0.17970392107963562,0.26690855622291565,22.72911834716797,1
91929,-0.3780486583709717,-0.13502684235572815,0.019213972613215446,-0.17843453586101532,0.2693248689174652,22.705747604370117,1
91939,-0.3778747320175171,-0.1348852664232254,0.019267790019512177,-0.1774241328239441,0.2714586853981018,22.51591682434082,1
91949,-0.37836095690727234,-0.13525235652923584,0.018805380910634995,-0.17871083319187164,0.2773437201976776,22.710800170898438,1
91959,-0.37823840975761414,-0.1351040005683899,0.018957212567329407,-0.17877830564975739,0.27820050716400146,22.687339782714844,1
91969,-0.37804746627807617,-0.134988933801651,0.0189755130559206,-0.1783624142408371,0.2774428427219391,22.513639450073242,1
91980,-0.3779257535934448,-0.13484247028827667,0.019126422703266144,-0.17868006229400635,0.27849629521369934,22.49183464050293,1
91989,-0.3781323730945587,-0.13517218828201294,0.0189408827573061,-0.1775296926498413,0.27491462230682373,22.704233169555664,1
91999,-0.3780244290828705,-0.13499614596366882,0.0190611369907856,-0.17824992537498474,0.2762600779533386,22.52071762084961,1
92009,-0.37790125608444214,-0.13484804332256317,0.019218072295188904,-0.17783445119857788,0.27659234404563904,22.49903106689453,1
92019,-0.37803617119789124,-0.13529032468795776,0.019221462309360504,-0.1720164269208908,0.2706156075000763,22.71681022644043,1
92029,-0.37790054082870483,-0.135145902633667,0.019386859610676765,-0.1703941524028778,0.27162283658981323,22.69489288330078,1
92039,-0.3777977228164673,-0.13496220111846924,0.019547801464796066,-0.1729385256767273,0.2735219895839691,22.518455505371094,1
92049,-0.3782496750354767,-0.1350095272064209,0.018886616453528404,-0.18325719237327576,0.2736688554286957,22.7238712310791,1
92059,-0.3781249225139618,-0.1348496973514557,0.01903502456843853,-0.18404461443424225,0.27382397651672363,22.700777053833008,1
92069,-0.37796908617019653,-0.1346924602985382,0.019085964187979698,-0.1836591511964798,0.27447396516799927,22.51796531677246,1
92080,-0.3778460919857025,-0.13453195989131927,0.019232651218771935,-0.1844269335269928,0.27351322770118713,22.497692108154297,1
92089,-0.3781592845916748,-0.13503991067409515,0.01905822940170765,-0.17919500172138214,0.27629682421684265,22.713172912597656,1
92099,-0.3779851794242859,-0.13491041958332062,0.019097836688160896,-0.1774931699037552,0.2766379415988922,22.533632278442383,1
92109,-0.37786373496055603,-0.13475827872753143,0.01925160177052021,-0.17934460937976837,0.2753015160560608,22.511119842529297,1
92119,-0.37798407673835754,-0.13500961661338806,0.01913469098508358,-0.17956675589084625,0.2669045925140381,22.727983474731445,1
92129,-0.3778548836708069,-0.13485224545001984,0.019294817000627518,-0.1784473955631256,0.26750847697257996,22.706310272216797,1
92139,-0.37765437364578247,-0.13473019003868103,0.01931280456483364,-0.176851287484169,0.26786622405052185,22.521255493164062,1
92149,-0.3781261444091797,-0.13509155809879303,0.01885061152279377,-0.17825353145599365,0.2721911668777466,22.736831665039062,1
92159,0.0,0.0,0.0,0.0,0.0,0.0,1
92169,-0.3236846327781677,-0.2477533519268036,0.09726680815219879,0.0007584806298837066,-4.6719364036107436e-05,9.681967735290527,1
92180,-0.3236800730228424,-0.24775655567646027,0.09726795554161072,-0.00048498372780159116,0.0010939643252640963,9.670059204101562,1
92189,-0.44564276933670044,-0.05674128234386444,0.03742225840687752,0.11715719103813171,-0.09688907116651535,15.715923309326172,1
92199,-0.42035847902297974,-0.13139057159423828,-0.0038437573239207268,2.2130448818206787,2.0669217109680176,16.353513717651367,1
92209,-0.42070773243904114,-0.13335488736629486,-0.0036740372888743877,2.2095425128936768,2.0647008419036865,16.338788986206055,1
92219,-0.39564600586891174,-0.13236594200134277,0.022133231163024902,1.7690515518188477,1.3163857460021973,19.297935485839844,1
92231,-0.3953961431980133,-0.1342155635356903,0.022963305935263634,1.7668297290802002,1.313599944114685,19.277578353881836,1
92239,-0.40634843707084656,-0.16839168965816498,0.013645240105688572,3.4486584663391113,3.345400333404541,18.857437133789062,1
92249,-0.3857386112213135,-0.14337770640850067,0.017950933426618576,1.3655545711517334,0.4036647081375122,21.11101531982422,1
92259,-0.38509175181388855,-0.1451875865459442,0.018631329759955406,1.3641042709350586,0.4011581838130951,21.088150024414062,1
92269,-0.40081140398979187,-0.17326103150844574,0.01674010418355465,2.433056354522705,2.4244985580444336,20.650991439819336,1
92281,-0.40081140398979187,-0.17591094970703125,0.017323525622487068,2.432514190673828,2.4230995178222656,20.630159378051758,1
92289,-0.38198235630989075,-0.14697673916816711,0.017186235636472702,0.14370930194854736,-1.167396903038025,21.993928909301758,1
92299,-0.3985368609428406,-0.17232884466648102,0.017540518194437027,1.9246782064437866,2.9640395641326904,21.659345626831055,1
92309,-0.39874646067619324,-0.17494581639766693,0.018035177141427994,1.9220166206359863,2.9606616497039795,21.63846778869629,1
92319,-0.38182324171066284,-0.14733104407787323,0.017082683742046356,-0.01204696111381054,0.11383429914712906,22.654691696166992,1
92330,-0.38124001026153564,-0.14875563979148865,0.017580317333340645,-0.01130963210016489,0.11395980417728424,22.63249397277832,1
92339,-0.39958542585372925,-0.17540553212165833,0.01780879870057106,1.7825775146484375,4.2705397605896,22.174386978149414,1
92349,-0.38289520144462585,-0.14635878801345825,0.0167960524559021,-1.6175451278686523,-0.7596133351325989,23.143972396850586,1
92359,-0.38228079676628113,-0.1470230221748352,0.017098980024456978,-1.6156388521194458,-0.7572731971740723,23.120677947998047,1
92369,-0.400038480758667,-0.173121377825737,0.01687765307724476,-0.4000738263130188,2.350513219833374,22.85487937927246,1
92381,-0.4005189538002014,-0.17489004135131836,0.01718851551413536,-0.4000400900840759,2.3485829830169678,22.831430435180664,1
92389,-0.3824082016944885,-0.14550329744815826,0.01718616671860218,-3.046388626098633,-2.14094614982605,23.295425415039062,1
92399,-0.3991234004497528,-0.17092332243919373,0.016693614423274994,-0.8803459405899048,2.5255978107452393,23.23162841796875,1
92409,-0.39984366297721863,-0.1725035160779953,0.016854451969265938,-0.8793235421180725,2.521953821182251,23.208358764648438,1
92419,-0.382792204618454,-0.14526017010211945,0.017271768301725388,-2.6755690574645996,-0.5666735172271729,23.624446868896484,1
92430,-0.3825228810310364,-0.1452941596508026,0.017434323206543922,-2.6736366748809814,-0.5665977597236633,23.6011962890625,1
92439,-0.400973916053772,-0.17336605489253998,0.01607772707939148,-0.6015803217887878,3.601398468017578,23.379528045654297,1
92449,-0.3839496374130249,-0.14542952179908752,0.017089102417230606,-3.4588234424591064,-1.1532964706420898,23.79245376586914,1
92459,-0.3836108446121216,-0.14484605193138123,0.017093366011977196,-3.4555416107177734,-1.1508375406265259,23.769123077392578,1
92469,-0.40108922123908997,-0.17095211148262024,0.015650806948542595,-2.213578224182129,1.5592023134231567,23.635896682739258,1
92480,-0.40186163783073425,-0.1715972125530243,0.015660706907510757,-2.210432767868042,1.5577480792999268,23.614017486572266,1
92489,-0.38371747732162476,-0.1431329846382141,0.017148684710264206,-4.2105607986450195,-2.041226863861084,23.752098083496094,1
92499,-0.40051355957984924,-0.16934144496917725,0.01536344550549984,-2.213205337524414,1.7446069717407227,23.76642608642578,1
92509,-0.4014689326286316,-0.16994187235832214,0.015256821177899837,-2.2102200984954834,1.7433525323867798,23.742523193359375,1
92519,-0.38416001200675964,-0.14350569248199463,0.01706046238541603,-3.464639663696289,-0.6580871939659119,23.924720764160156,1
92530,-0.38415077328681946,-0.14266011118888855,0.017012832686305046,-3.4611611366271973,-0.6582536101341248,23.90205192565918,1
92539,-0.40229761600494385,-0.1702309250831604,0.014927989803254604,-1.7956246137619019,2.435866117477417,23.77473258972168,1
92549,-0.38492223620414734,-0.1439967155456543,0.01762770488858223,-3.645453691482544,-0.965155839920044,23.966598510742188,1
92559,-0.38482773303985596,-0.1428164392709732,0.01756681315600872,-3.642979383468628,-0.9635927081108093,23.941728591918945,1
92569,-0.40197163820266724,-0.16916397213935852,0.015175247564911842,-2.5888803005218506,1.0555193424224854,23.817598342895508,1
92581,-0.40283456444740295,-0.16915065050125122,0.01507161371409893,-2.584634304046631,1.0563441514968872,23.792024612426758,1
92589,-0.38445764780044556,-0.14177900552749634,0.017947260290384293,-4.029021263122559,-1.6635842323303223,23.88711929321289,1
92599,-0.4007490873336792,-0.16852912306785583,0.014978625811636448,-2.3388984203338623,1.2336814403533936,23.86250877380371,1
92609,-0.40171435475349426,-0.16862282156944275,0.014786908403038979,-2.336371421813965,1.2345361709594727,23.838300704956055,1
92619,-0.3842169940471649,-0.1426195502281189,0.01731245592236519,-3.2607054710388184,-0.6039661765098572,23.973373413085938,1
92631,-0.3842851519584656,-0.14140769839286804,0.017221970483660698,-3.257459878921509,-0.6024311780929565,23.949031829833984,1
92639,-0.40248823165893555,-0.16929969191551208,0.014638982713222504,-1.8799998760223389,1.8315315246582031,23.819652557373047,1
92649,-0.38522621989250183,-0.14348293840885162,0.01761510595679283,-3.279068946838379,-0.7578138113021851,23.965595245361328,1
92659,-0.38522234559059143,-0.14206340909004211,0.017538810148835182,-3.2756645679473877,-0.7571771144866943,23.94297981262207,1
92669,-0.40227600932121277,-0.16882693767547607,0.014593553729355335,-2.3942668437957764,0.8190297484397888,23.80023765563965,1
92680,-0.40313348174095154,-0.1685185432434082,0.014436685480177402,-2.390615224838257,0.8179534077644348,23.77595329284668,1
92689,-0.3844883441925049,-0.14128148555755615,0.017881548032164574,-3.51914644241333,-1.3228228092193604,23.86964988708496,1
92699,-0.40116432309150696,-0.1681118905544281,0.014890676364302635,-2.152562379837036,0.9934946298599243,23.801939010620117,1
92709,-0.40211981534957886,-0.1679440140724182,0.014692244119942188,-2.1507444381713867,0.9928289651870728,23.77888298034668,1
92719,-0.3844998776912689,-0.14204931259155273,0.017580993473529816,-2.8738930225372314,-0.4626072347164154,23.927955627441406,1
92731,-0.3846238851547241,-0.1406993418931961,0.017501048743724823,-2.8708412647247314,-0.4603756368160248,23.904884338378906,1
92739,-0.4027372896671295,-0.16870883107185364,0.014587539248168468,-1.7325630187988281,1.4939968585968018,23.754892349243164,1
92749,-0.3853367865085602,-0.1432332843542099,0.01794675551354885,-2.8335750102996826,-0.5749168395996094,23.90350914001465,1
92759,-0.3853883147239685,-0.14175447821617126,0.017901109531521797,-2.831108570098877,-0.574320375919342,23.880470275878906,1
92769,-0.4023090600967407,-0.1685454547405243,0.014742300845682621,-2.098808765411377,0.6961321234703064,23.717044830322266,1
92781,-0.4031412899494171,-0.16809917986392975,0.01459500566124916,-2.0968739986419678,0.6960009336471558,23.693119049072266,1
92789,-0.38467538356781006,-0.14113537967205048,0.018114209175109863,-3.018014430999756,-1.037259817123413,23.794986724853516,1
92799,-0.40127870440483093,-0.1680430769920349,0.014895003288984299,-1.8749077320098877,0.8611165881156921,23.68655776977539,1
92809,-0.4022059738636017,-0.16775795817375183,0.014709940180182457,-1.8725782632827759,0.8607940673828125,23.662986755371094,1
92819,-0.38457727432250977,-0.14200682938098907,0.01775418221950531,-2.4676809310913086,-0.33516600728034973,23.827173233032227,1
92831,-0.3847271203994751,-0.14063413441181183,0.017702443525195122,-2.4664101600646973,-0.333293616771698,23.804019927978516,1
92839,-0.40277060866355896,-0.16884030401706696,0.014540462754666805,-1.4963754415512085,1.297616720199585,23.633834838867188,1
92849,-0.38529226183891296,-0.1431955099105835,0.017888735979795456,-2.4264087677001953,-0.436626136302948,23.805316925048828,1
92859,-0.38536539673805237,-0.14171886444091797,0.017871858552098274,-2.424995183944702,-0.4349498748779297,23.7808895111084,1
92869,-0.4021594822406769,-0.16830363869667053,0.01471471507102251,-1.8090015649795532,0.619792103767395,23.616626739501953,1
92881,-0.40295925736427307,-0.16779783368110657,0.014585483819246292,-1.8069125413894653,0.6196373701095581,23.59427261352539,1
92889,-0.38491716980934143,-0.14123518764972687,0.017926741391420364,-2.5832929611206055,-0.8230542540550232,23.705949783325195,1
92899,-0.4014095962047577,-0.16809909045696259,0.014596745371818542,-1.6036428213119507,0.7815029621124268,23.580059051513672,1
92909,-0.4023033380508423,-0.1677614152431488,0.014427268877625465,-1.6035507917404175,0.7810943126678467,23.556684494018555,1
92919,-0.3848109543323517,-0.14198341965675354,0.01731228642165661,-2.1195554733276367,-0.23662303388118744,23.714862823486328,1
92931,-0.38497766852378845,-0.14063414931297302,0.017271924763917923,-2.117452383041382,-0.23641043901443481,23.692058563232422,1
92939,-0.40308091044425964,-0.16818295419216156,0.014490504749119282,-1.2978224754333496,1.161772608757019,23.516704559326172,1
92949,-0.3854864537715912,-0.14304116368293762,0.01827521063387394,-2.084390163421631,-0.3345181941986084,23.690231323242188,1
92959,-0.3855706453323364,-0.14159779250621796,0.018321404233574867,-2.081554651260376,-0.3333839476108551,23.667293548583984,1
92969,-0.4024771451950073,-0.16841349005699158,0.015175824984908104,-1.5364840030670166,0.5953850150108337,23.484346389770508,1
92981,-0.40325143933296204,-0.1679019182920456,0.01511246245354414,-1.5350598096847534,0.5973652601242065,23.461074829101562,1
92989,-0.38506025075912476,-0.14096806943416595,0.01838449388742447,-2.2341182231903076,-0.6859691143035889,23.617475509643555,1
92999,-0.4013725221157074,-0.16819091141223907,0.014755603857338428,-1.349969506263733,0.7340179085731506,23.482465744018555,1
93009,-0.4022189974784851,-0.16785462200641632,0.014633122831583023,-1.3483902215957642,0.73307865858078,23.45893669128418,1
93019,-0.3845474421977997,-0.14225344359874725,0.01780136488378048,-1.8003474473953247,-0.17199820280075073,23.633771896362305,1
93031,-0.3846920430660248,-0.14096541702747345,0.017820725217461586,-1.7989321947097778,-0.17102955281734467,23.609378814697266,1
93039,-0.4025968611240387,-0.16861827671527863,0.014907391741871834,-1.0613744258880615,1.0748913288116455,23.42329216003418,1
93049,-0.3853960931301117,-0.14307653903961182,0.017979292199015617,-1.7936694622039795,-0.25793641805648804,23.5913143157959,1
93059,-0.38547343015670776,-0.14169394969940186,0.01803693361580372,-1.7922035455703735,-0.25733986496925354,23.568687438964844,1
93069,-0.4024747610092163,-0.16851060092449188,0.014994518831372261,-1.3039686679840088,0.5805758237838745,23.3835506439209,1
93081,-0.4032187759876251,-0.16802214086055756,0.01493915542960167,-1.3028666973114014,0.5802754163742065,23.36035919189453,1
93089,-0.38490164279937744,-0.14119374752044678,0.018355000764131546,-1.9360400438308716,-0.586715579032898,23.521568298339844,1
93099,-0.4013430178165436,-0.16832756996154785,0.014898298308253288,-1.1390177011489868,0.7052599191665649,23.376285552978516,1
93109,-0.4021557569503784,-0.16801321506500244,0.014799356460571289,-1.1374304294586182,0.7049828171730042,23.353351593017578,1
93119,-0.38448938727378845,-0.14221912622451782,0.01780734583735466,-1.5594593286514282,-0.1252937763929367,23.531570434570312,1
93129,-0.38462379574775696,-0.14098572731018066,0.017844118177890778,-1.5588796138763428,-0.12469300627708435,23.506805419921875,1
93139,-0.4021425247192383,-0.1688636690378189,0.014538806863129139,-0.8713764548301697,1.0117155313491821,23.327808380126953,1
93149,-0.3849134147167206,-0.14349325001239777,0.017645083367824554,-1.541038155555725,-0.21184132993221283,23.51112174987793,1
93159,-0.3849639892578125,-0.14218655228614807,0.01770738512277603,-1.5404276847839355,-0.21255944669246674,23.487890243530273,1
93169,-0.4021131098270416,-0.1684432178735733,0.015146817080676556,-1.1074315309524536,0.5628514289855957,23.298707962036133,1
93181,-0.40282222628593445,-0.16798445582389832,0.015118851326406002,-1.1056766510009766,0.5621583461761475,23.2750244140625,1
93189,-0.3850192725658417,-0.14130567014217377,0.018039369955658913,-1.6973159313201904,-0.5029869675636292,23.449108123779297,1
93199,-0.40139684081077576,-0.16837210953235626,0.014597596600651741,-0.958605170249939,0.6999378204345703,23.301103591918945,1
93209,-0.40219369530677795,-0.16808928549289703,0.014515641145408154,-0.9570435881614685,0.7004509568214417,23.2779541015625,1
93219,-0.3845943510532379,-0.1423773318529129,0.01746716909110546,-1.3520549535751343,-0.07182487845420837,23.458316802978516,1
93229,-0.3847316801548004,-0.1412118673324585,0.017515411600470543,-1.3502310514450073,-0.07050032168626785,23.434383392333984,1
93239,-0.40240055322647095,-0.16883957386016846,0.014510058797895908,-0.7151263356208801,0.9970306158065796,23.257352828979492,1
93249,-0.3849005401134491,-0.14357753098011017,0.01794491522014141,-1.338925838470459,-0.16623248159885406,23.454925537109375,1
93259,-0.38494497537612915,-0.1423320323228836,0.018051354214549065,-1.3373934030532837,-0.1656150072813034,23.432947158813477,1
93269,-0.4018227458000183,-0.16903606057167053,0.015113087370991707,-0.915584146976471,0.5621519088745117,23.24936866760254,1
93279,-0.40249502658843994,-0.16863471269607544,0.015113655477762222,-0.9141351580619812,0.5625874996185303,23.22551155090332,1
93289,-0.38440150022506714,-0.14177334308624268,0.01815645955502987,-1.4787273406982422,-0.46287041902542114,23.407962799072266,1
93299,-0.40108922123908997,-0.16885635256767273,0.015025137923657894,-0.7837063670158386,0.6922202706336975,23.245454788208008,1
93309,-0.4018493890762329,-0.168622687458992,0.014987035654485226,-0.7843337059020996,0.691662609577179,23.22243309020996,1
93319,-0.38423317670822144,-0.14255191385746002,0.01769750379025936,-1.1697148084640503,-0.046913858503103256,23.420080184936523,1
93329,-0.38434383273124695,-0.1414462924003601,0.017781078815460205,-1.169123888015747,-0.04832802340388298,23.396059036254883,1
93339,-0.4021089971065521,-0.1690533459186554,0.01493719033896923,-0.5665401816368103,0.9797916412353516,23.214351654052734,1
93349,-0.38487574458122253,-0.14328736066818237,0.017863990738987923,-1.2060608863830566,-0.17423012852668762,23.416847229003906,1
93359,-0.3848801255226135,-0.14204317331314087,0.01798515021800995,-1.2042537927627563,-0.17439623177051544,23.39512825012207,1
93369,-0.4021652340888977,-0.16877412796020508,0.015393564477562904,-0.8016142845153809,0.5484954714775085,23.210996627807617,1
93379,-0.4028134346008301,-0.16837401688098907,0.015419931150972843,-0.7997429966926575,0.5507171750068665,23.18708610534668,1
93389,-0.3848682940006256,-0.14137177169322968,0.018200285732746124,-1.347840666770935,-0.4349735677242279,23.379314422607422,1
93399,-0.40127772092819214,-0.1686297506093979,0.01477739866822958,-0.6731993556022644,0.6685766577720642,23.218814849853516,1
93409,-0.40200480818748474,-0.1684001088142395,0.01473428588360548,-0.6731931567192078,0.6679887175559998,23.195947647094727,1
93419,-0.38434556126594543,-0.14277739822864532,0.01770123839378357,-1.0319902896881104,-0.0405513234436512,23.384506225585938,1
93429,-0.38442960381507874,-0.14170528948307037,0.01778077520430088,-1.0310266017913818,-0.041041355580091476,23.36060333251953,1
93439,-0.4021642506122589,-0.16933196783065796,0.01494024321436882,-0.4501531422138214,0.9483246207237244,23.180007934570312,1
93449,-0.3848414421081543,-0.1435241401195526,0.017720937728881836,-1.0486583709716797,-0.1311468482017517,23.388973236083984,1
93459,-0.38484442234039307,-0.14236107468605042,0.017824700102210045,-1.0476821660995483,-0.1320389062166214,23.36618423461914,1
93469,-0.40191346406936646,-0.169107586145401,0.015076897107064724,-0.6609686017036438,0.5498528480529785,23.177579879760742,1
93479,-0.4025314450263977,-0.16876740753650665,0.015078285709023476,-0.6602749824523926,0.5506329536437988,23.153066635131836,1
93489,-0.38431599736213684,-0.14194054901599884,0.018137849867343903,-1.1878541707992554,-0.41195443272590637,23.34507942199707,1
93499,-0.38431599736213684,-0.14194054901599884,0.018137849867343903,-1.1878541707992554,-0.41195443272590637,23.34507942199707,1
93509,-0.40157389640808105,-0.16853317618370056,0.015118913725018501,-0.5485193133354187,0.6632440090179443,23.1550235748291,1
93519,-0.3841674327850342,-0.14282958209514618,0.017718926072120667,-0.9079177975654602,-0.027046721428632736,23.353031158447266,1
93529,-0.3842279314994812,-0.14180849492549896,0.0178001020103693,-0.9066271185874939,-0.02460985817015171,23.329280853271484,1
93539,-0.40224364399909973,-0.16941368579864502,0.015220421366393566,-0.3423212766647339,0.9530394077301025,23.12375259399414,1
93549,-0.38493362069129944,-0.1438593715429306,0.0181144829839468,-0.9254039525985718,-0.10252482444047928,23.357402801513672,1
93559,-0.38492536544799805,-0.14275553822517395,0.018240176141262054,-0.9247482419013977,-0.1030319556593895,23.334327697753906,1
93569,-0.4014541208744049,-0.1692148596048355,0.015303480438888073,-0.5452561974525452,0.5555351376533508,23.138792037963867,1
93579,-0.4020429253578186,-0.16892510652542114,0.015318279154598713,-0.5438252091407776,0.55644291639328,23.115676879882812,1
