time.ms,stateEstimate.x,stateEstimate.y,stateEstimate.z,stabilizer.roll,stabilizer.pitch,stabilizer.yaw,pm.vbat
545959,-0.2789004445075989,0.9061256647109985,-0.01843745820224285,-0.4089657962322235,0.2534056007862091,4.160705089569092,3.7109375
545969,-0.2787732183933258,0.9060429334640503,-0.018360095098614693,-0.4090298116207123,0.2535843253135681,4.157073020935059,3.7109375
545979,-0.27864402532577515,0.90595942735672,-0.018281500786542892,-0.4079470634460449,0.2529869079589844,4.152835845947266,3.7109375
545989,-0.2787648141384125,0.9062259197235107,-0.018537821248173714,-0.4185559153556824,0.2443506121635437,4.152742862701416,3.7109375
545999,-0.2786255180835724,0.9061543941497803,-0.018464582040905952,-0.41851523518562317,0.24492749571800232,4.150097846984863,3.7109375
546009,-0.278484970331192,0.90608149766922,-0.018390558660030365,-0.41763922572135925,0.2443435788154602,4.14446496963501,3.7109375
546019,-0.27834275364875793,0.906006395816803,-0.018316123634576797,-0.4175993800163269,0.24341127276420593,4.141331672668457,3.7109375
546029,-0.2786071002483368,0.9060276746749878,-0.018488040193915367,-0.41180720925331116,0.24768486618995667,4.14310884475708,3.7109375
546039,-0.2784714102745056,0.9059414863586426,-0.018413184210658073,-0.4111703634262085,0.2488936483860016,4.139407634735107,3.7109375
546049,-0.2783351242542267,0.9058530926704407,-0.01833711378276348,-0.4108152687549591,0.2487829327583313,4.135878086090088,3.7109375
546059,-0.27782756090164185,0.9057539701461792,-0.018032357096672058,-0.4192832410335541,0.24122551083564758,4.1409173011779785,3.7109375
546069,-0.277678519487381,0.9056766033172607,-0.017953423783183098,-0.4198266565799713,0.24146422743797302,4.137381076812744,3.7109375
546079,-0.2775287330150604,0.9056008458137512,-0.01787365786731243,-0.4198860824108124,0.24158678948879242,4.1330766677856445,3.7109375
546089,-0.2790209650993347,0.9062650203704834,-0.018638430163264275,-0.41977155208587646,0.26421138644218445,4.15084171295166,3.7109375
546099,-0.2789081037044525,0.9061950445175171,-0.018544752150774002,-0.4190587103366852,0.26414647698402405,4.146183490753174,3.7109375
546109,-0.2787948250770569,0.9061233401298523,-0.018451206386089325,-0.4187398850917816,0.2654942274093628,4.141136169433594,3.7109375
546119,-0.27868005633354187,0.9060510396957397,-0.01835838332772255,-0.41850271821022034,0.26498717069625854,4.137084007263184,3.7109375
546129,-0.2798476815223694,0.9067245721817017,-0.01893821358680725,-0.428396612405777,0.2768195867538452,4.150294303894043,3.7109375
546139,-0.27975451946258545,0.90666663646698,-0.018835503607988358,-0.4279771149158478,0.2780979871749878,4.146577835083008,3.7109375
546149,-0.2796604633331299,0.9066077470779419,-0.018733201548457146,-0.4281093180179596,0.27756404876708984,4.142615795135498,3.7109375
546159,-0.28020933270454407,0.9070146083831787,-0.01910177245736122,-0.4358624815940857,0.2769443392753601,4.1466546058654785,3.7109375
546169,-0.2801211476325989,0.9069646000862122,-0.01899770274758339,-0.4359087646007538,0.27710407972335815,4.143801212310791,3.7109375
546179,-0.2800338566303253,0.9069139957427979,-0.018891170620918274,-0.4342782497406006,0.2773805260658264,4.139054298400879,3.7109375
546189,-0.2799473702907562,0.9068634510040283,-0.018783345818519592,-0.4344750940799713,0.27793896198272705,4.1436309814453125,3.7109375
546199,-0.2788102626800537,0.9061360955238342,-0.01814495399594307,-0.4221320152282715,0.2693844735622406,4.139481067657471,3.7109375
546209,-0.2787046730518341,0.9060686826705933,-0.018048468977212906,-0.4223470091819763,0.27208420634269714,4.1355719566345215,3.7109375
546219,-0.27859827876091003,0.9060017466545105,-0.017951568588614464,-0.42080631852149963,0.2702682912349701,4.130989074707031,3.7109375
546229,-0.27844491600990295,0.9057886600494385,-0.01793772727251053,-0.41101908683776855,0.27061134576797485,4.145930290222168,3.7109375
546239,-0.2783314883708954,0.9057090878486633,-0.017848758026957512,-0.4106471538543701,0.2699650228023529,4.1426191329956055,3.7109375
546249,-0.2782151699066162,0.9056293368339539,-0.0177603829652071,-0.4104839861392975,0.2698485553264618,4.139024257659912,3.7109375
546259,-0.2790285050868988,0.9062824845314026,-0.018258901312947273,-0.4257810115814209,0.26889052987098694,4.1303277015686035,3.7109375
546269,-0.27891722321510315,0.9062264561653137,-0.01816534623503685,-0.42491430044174194,0.2676844894886017,4.127222061157227,3.7109375
546279,-0.2788048982620239,0.9061710238456726,-0.01807200349867344,-0.42415428161621094,0.26695430278778076,4.123386859893799,3.7109375
546289,-0.278692364692688,0.9061148166656494,-0.0179782472550869,-0.422607421875,0.26704081892967224,4.120029449462891,3.7109375
546299,-0.27896222472190857,0.906287431716919,-0.018380580469965935,-0.4200497567653656,0.26120975613594055,4.1275482177734375,3.7109375
546309,-0.27884429693222046,0.9062266945838928,-0.018301282078027725,-0.41973429918289185,0.2609502375125885,4.123126983642578,3.7109375
546319,-0.2787254750728607,0.906164824962616,-0.018221767619252205,-0.4195595979690552,0.2607576251029968,4.1179351806640625,3.7109375
546329,-0.27876144647598267,0.906151294708252,-0.01839306950569153,-0.4148387908935547,0.2584832012653351,4.121545791625977,3.7109375
546339,-0.27863839268684387,0.9060831665992737,-0.018322965130209923,-0.41499820351600647,0.25894150137901306,4.116415500640869,3.7109375
546349,-0.2785147428512573,0.9060138463973999,-0.01825117878615856,-0.41537413001060486,0.25860345363616943,4.112884044647217,3.7109375
546359,-0.27946653962135315,0.906417191028595,-0.018828948959708214,-0.4133712649345398,0.26824915409088135,4.121824264526367,3.7109375
546369,-0.27935969829559326,0.9063474535942078,-0.01875338703393936,-0.4134857952594757,0.2669416666030884,4.118113994598389,3.7109375
546379,-0.27925312519073486,0.9062764644622803,-0.01867832988500595,-0.41243627667427063,0.26683682203292847,4.115451335906982,3.7109375
546389,-0.279146671295166,0.9062038660049438,-0.018604179844260216,-0.4122392535209656,0.26516175270080566,4.111027240753174,3.7109375
546399,-0.2807675004005432,0.9072802066802979,-0.01956484280526638,-0.43072429299354553,0.2723962366580963,4.114404678344727,3.7109375
546409,-0.28068315982818604,0.9072341918945312,-0.01948084495961666,-0.4293709993362427,0.27198344469070435,4.109846115112305,3.7109375
546419,-0.28059864044189453,0.9071869254112244,-0.019397052004933357,-0.4284763038158417,0.2719029486179352,4.106168270111084,3.7109375
546429,-0.28060850501060486,0.9071255326271057,-0.01929011009633541,-0.42588722705841064,0.27647385001182556,4.126256465911865,3.7109375
546439,-0.2805301249027252,0.9070721864700317,-0.019202489405870438,-0.4263322055339813,0.27566298842430115,4.1227335929870605,3.7109375
546449,-0.28045225143432617,0.9070164561271667,-0.019115354865789413,-0.4258272051811218,0.2762872874736786,4.1178669929504395,3.7109375
546459,-0.27923163771629333,0.9063923954963684,-0.018444832414388657,-0.42281848192214966,0.2621281147003174,4.13027811050415,3.7109375
546469,-0.2791288197040558,0.906326413154602,-0.01836535334587097,-0.4228414297103882,0.2601344585418701,4.127232551574707,3.7109375
546479,-0.27902474999427795,0.9062598943710327,-0.018284030258655548,-0.4222407341003418,0.25950831174850464,4.122483730316162,3.7109375
546489,7.265767862918437e-07,-3.775886398216244e-06,-4.870817065238953e-07,1.8096510757459328e-05,0.0017156711546704173,0.00040456527494825423,3.7109375
546499,0.10986775904893875,0.6929124593734741,0.2871024012565613,0.00012228827108629048,0.0021828478202223778,2.2543039321899414,3.7109375
546509,0.10987468808889389,0.6928924322128296,0.287099689245224,-0.0007411579135805368,0.002013369230553508,2.253063678741455,3.7109375
546519,0.1098865270614624,0.6928638815879822,0.2870978116989136,-0.00082398735685274,0.002477183472365141,2.250391960144043,3.7109375
546529,0.10378876328468323,0.6946102976799011,0.2813531756401062,0.06120699644088745,0.0047539034858345985,2.944739580154419,3.7109375
546539,0.10381533950567245,0.6945002675056458,0.28130224347114563,0.06213913485407829,0.004673303104937077,2.942495107650757,3.7109375
546549,0.10384749621152878,0.6943801045417786,0.2812507450580597,0.06157514080405235,0.005018126685172319,2.9390339851379395,3.7109375
546559,0.10332731157541275,0.6945744752883911,0.2805136740207672,0.06775009632110596,-0.011344118975102901,3.324443817138672,3.7109375
546569,0.10338250547647476,0.6944336891174316,0.28044185042381287,0.06736797839403152,-0.009894784539937973,3.3197526931762695,3.7109375
546579,0.10344351828098297,0.6942835450172424,0.28036928176879883,0.06626733392477036,-0.008871182799339294,3.3152174949645996,3.7109375
546589,0.10351055860519409,0.6941242814064026,0.28029486536979675,0.06568975001573563,-0.00949905626475811,3.312654733657837,3.7109375
546599,0.10273156315088272,0.694447934627533,0.2801196277141571,0.019999787211418152,0.052053626626729965,3.518486261367798,3.7109375
546609,0.10278027504682541,0.6942934393882751,0.28008657693862915,0.01981830596923828,0.05263140797615051,3.5143213272094727,3.7109375
546619,0.10283408313989639,0.6941313743591309,0.28005245327949524,0.020765775814652443,0.05289841815829277,3.5113725662231445,3.7109375
546629,0.102141372859478,0.6945831179618835,0.27959689497947693,-0.04464203491806984,0.058169376105070114,3.645745277404785,3.7109375
546639,0.10220234841108322,0.6944315433502197,0.27957683801651,-0.044864870607852936,0.058098204433918,3.6423206329345703,3.7109375
546649,0.102268747985363,0.6942721605300903,0.27955490350723267,-0.04503655061125755,0.057416580617427826,3.6386525630950928,3.7109375
546659,0.10136178880929947,0.6948938369750977,0.2791305184364319,-0.14257945120334625,0.09101007878780365,3.746710777282715,3.7109375
546669,0.10141828656196594,0.6947609186172485,0.2791321873664856,-0.14279025793075562,0.09048623591661453,3.7416696548461914,3.7109375
546679,0.10147824138402939,0.6946222186088562,0.27913418412208557,-0.14256098866462708,0.0900447741150856,3.738431692123413,3.7109375
546689,0.10154286026954651,0.6944789886474609,0.279136598110199,-0.1421280801296234,0.09102559834718704,3.734907627105713,3.7109375
546699,0.10064196586608887,0.6955283880233765,0.27859142422676086,-0.3219609558582306,0.07442554086446762,3.8095855712890625,3.7109375
546709,0.10071717947721481,0.6954557299613953,0.2786144018173218,-0.32076117396354675,0.07510897517204285,3.8067259788513184,3.7109375
546719,0.10079726576805115,0.6953814029693604,0.27863672375679016,-0.3211701810359955,0.07448342442512512,3.803940773010254,3.7109375
546729,0.10017014294862747,0.6957806348800659,0.2781446576118469,-0.347680002450943,0.08433296531438828,3.876899242401123,3.7109375
546739,0.10025019943714142,0.6957166790962219,0.27816420793533325,-0.3460085690021515,0.08417383581399918,3.873368978500366,3.7109375
546749,0.10033491253852844,0.695651650428772,0.27818211913108826,-0.3457660377025604,0.08428717404603958,3.869337320327759,3.7109375
546759,0.09956470131874084,0.6962291598320007,0.27765604853630066,-0.4015115797519684,0.10532817244529724,3.9299352169036865,3.7109375
546769,0.09964264929294586,0.696186900138855,0.2776765823364258,-0.4004744291305542,0.10598043352365494,3.927177906036377,3.7109375
546779,0.09972574561834335,0.6961429715156555,0.27769893407821655,-0.40095552802085876,0.10559476912021637,3.9226908683776855,3.7109375
546789,0.09981392323970795,0.6960976719856262,0.27772271633148193,-0.400382399559021,0.10691358149051666,3.9187119007110596,3.7109375
546799,0.0990186408162117,0.69671231508255,0.2771557569503784,-0.45000672340393066,0.12602370977401733,3.9699716567993164,3.7109375
546809,0.09909714013338089,0.6966910362243652,0.27717986702919006,-0.4509448707103729,0.12594187259674072,3.966419219970703,3.7109375
546819,0.09917975217103958,0.6966679692268372,0.27720528841018677,-0.45027902722358704,0.12548914551734924,3.9618945121765137,3.7109375
546829,0.09810449182987213,0.6971206665039062,0.2765381336212158,-0.4488401412963867,0.18121443688869476,4.026394844055176,3.7109375
546839,0.09815932810306549,0.6970986723899841,0.27655836939811707,-0.4492703378200531,0.1814430207014084,4.022511959075928,3.7109375
546849,0.09821803867816925,0.6970767378807068,0.27657684683799744,-0.44800281524658203,0.18187913298606873,4.019093990325928,3.7109375
546859,0.09709734469652176,0.6980295777320862,0.2758515477180481,-0.529211699962616,0.21265926957130432,4.043118953704834,3.7109375
546869,0.09713009744882584,0.6980560421943665,0.275867223739624,-0.5288976430892944,0.21213579177856445,4.039222240447998,3.7109375
546879,0.09716428816318512,0.6980841159820557,0.2758842706680298,-0.5285148620605469,0.21229107677936554,4.035123825073242,3.7109375
546889,0.09720116853713989,0.6981132626533508,0.2759011685848236,-0.5282062888145447,0.2125108391046524,4.0307440757751465,3.7109375
546899,0.09622625261545181,0.6984161138534546,0.2750623822212219,-0.494209349155426,0.2395150363445282,4.058971881866455,3.7109375
546909,0.09624774754047394,0.6984278559684753,0.27505525946617126,-0.4944387674331665,0.23847687244415283,4.055191993713379,3.7109375
546919,0.0962706059217453,0.6984385848045349,0.2750479280948639,-0.4937198758125305,0.23873662948608398,4.0505876541137695,3.7109375
546929,0.09486261755228043,0.6990352869033813,0.2740241587162018,-0.4891536831855774,0.2855634093284607,4.080231666564941,3.7109375
546939,0.09484905749559402,0.6990463137626648,0.2739992141723633,-0.4875451326370239,0.28524109721183777,4.075922966003418,3.7109375
546949,0.09483438730239868,0.6990580558776855,0.27397456765174866,-0.48604893684387207,0.28482216596603394,4.0724310874938965,3.7109375
546959,0.09298474341630936,0.700128972530365,0.27276211977005005,-0.527636706829071,0.3396140933036804,4.092441082000732,3.7109375
546969,0.09291534870862961,0.7001754641532898,0.2727256715297699,-0.5275191068649292,0.3400415778160095,4.087573528289795,3.7109375
546979,0.0928448960185051,0.7002228498458862,0.27268895506858826,-0.5268118977546692,0.33944201469421387,4.082648277282715,3.7109375
546989,0.09277332574129105,0.7002713680267334,0.2726519703865051,-0.5261452198028564,0.33954286575317383,4.078149318695068,3.7109375
546999,0.09106603264808655,0.7012085318565369,0.271380752325058,-0.5466408133506775,0.3752778172492981,4.091418266296387,3.7109375
547009,0.09095337241888046,0.7012794017791748,0.2713208794593811,-0.547375500202179,0.3761540651321411,4.086890697479248,3.7109375
547019,0.09084001928567886,0.7013516426086426,0.27126258611679077,-0.5468662977218628,0.3759714663028717,4.0836687088012695,3.7109375
547029,0.08941725641489029,0.7021335959434509,0.2700057625770569,-0.5531041026115417,0.39245352149009705,4.075522422790527,3.7109375
547039,0.08928176760673523,0.7022190093994141,0.2699151933193207,-0.5526413321495056,0.39194682240486145,4.071445941925049,3.7109375
547049,0.08914478868246078,0.7023072838783264,0.2698248028755188,-0.5531158447265625,0.3929847478866577,4.066118240356445,3.7109375
547059,0.08729438483715057,0.7032504081726074,0.2683507204055786,-0.5605369806289673,0.42502740025520325,4.086363792419434,3.7109375
547069,0.08711729198694229,0.7033532857894897,0.26823118329048157,-0.5607095956802368,0.424463152885437,4.082631587982178,3.7109375
547079,0.08693887293338776,0.7034571170806885,0.26811257004737854,-0.5597410202026367,0.424608051776886,4.078827857971191,3.7109375
547089,0.08675892651081085,0.7035617232322693,0.26799383759498596,-0.5596982836723328,0.4242408871650696,4.0751118659973145,3.7109375
547099,0.08474864065647125,0.7045981884002686,0.2663123309612274,-0.5668750405311584,0.45116037130355835,4.079669952392578,3.7109375
547109,0.0845257043838501,0.7047176361083984,0.2661561667919159,-0.5667149424552917,0.45063212513923645,4.076499938964844,3.7109375
547119,0.08429966866970062,0.7048388719558716,0.2660016417503357,-0.5656211972236633,0.44993922114372253,4.072055339813232,3.7109375
547129,0.08234550803899765,0.7058407068252563,0.26428255438804626,-0.570429801940918,0.4717528820037842,4.082420825958252,3.7109375
547139,0.08208233118057251,0.7059726119041443,0.2640863358974457,-0.5689742565155029,0.47128570079803467,4.078718185424805,3.7109375
547149,0.0818166434764862,0.7061047554016113,0.26388993859291077,-0.568276584148407,0.4710482954978943,4.073744297027588,3.7109375
547159,0.07863523066043854,0.7080087065696716,0.26147738099098206,-0.6134434342384338,0.5144810676574707,4.088072299957275,3.7109375
547169,0.07829979062080383,0.7081913352012634,0.2612391412258148,-0.6113147735595703,0.5144056081771851,4.08439302444458,3.7109375
547179,0.07795961946249008,0.708376407623291,0.26100045442581177,-0.6104012727737427,0.5141076445579529,4.0797553062438965,3.7109375
547189,0.07761503010988235,0.7085645198822021,0.2607618272304535,-0.6111529469490051,0.5142185688018799,4.074827671051025,3.7109375
547199,0.07403630763292313,0.7104805707931519,0.25808966159820557,-0.6386876106262207,0.5648794770240784,4.080636501312256,3.7109375
547209,0.07361124455928802,0.710709810256958,0.25780612230300903,-0.6377139091491699,0.5650258660316467,4.076085567474365,3.7109375
547219,0.07318117469549179,0.7109411358833313,0.2575227618217468,-0.6368880867958069,0.5644809603691101,4.07245397567749,3.7109375
547229,0.07005234807729721,0.7126486301422119,0.25494667887687683,-0.655165433883667,0.5941977500915527,4.07236909866333,3.7109375
547239,0.06956259161233902,0.7129091024398804,0.25460585951805115,-0.6553187370300293,0.5936186909675598,4.069684028625488,3.7109375
547249,0.06906579434871674,0.7131719589233398,0.25426357984542847,-0.6546105146408081,0.5915180444717407,4.066225528717041,3.7109375
547259,0.06509996950626373,0.7154589295387268,0.2511679232120514,-0.69089275598526,0.6327553391456604,4.075733661651611,3.7109375
547269,0.06452429294586182,0.7157716155052185,0.2507707476615906,-0.6896573305130005,0.6323553919792175,4.071755886077881,3.7109375
547279,0.06394192576408386,0.7160876393318176,0.2503727078437805,-0.6887394785881042,0.6309441924095154,4.068922519683838,3.7109375
547289,0.06335239857435226,0.7164068222045898,0.249973863363266,-0.6881361603736877,0.630492627620697,4.065236568450928,3.7109375
547299,0.05991543084383011,0.7182595133781433,0.24702486395835876,-0.7015995383262634,0.6576010584831238,4.062814712524414,3.7109375
547309,0.05926688015460968,0.7186054587364197,0.2465611696243286,-0.7001959085464478,0.6572282314300537,4.058657646179199,3.7109375
547319,0.058611832559108734,0.718953013420105,0.24609848856925964,-0.6996895670890808,0.6571236848831177,4.054841041564941,3.7109375
547329,0.054613493382930756,0.7211591601371765,0.24280425906181335,-0.7207655906677246,0.6900916695594788,4.043785572052002,3.7109375
547339,0.05388665199279785,0.7215457558631897,0.24227526783943176,-0.7206724882125854,0.6895708441734314,4.039992809295654,3.7109375
547349,0.05315357446670532,0.7219372987747192,0.24174512922763824,-0.7199590802192688,0.6906965374946594,4.035412788391113,3.7109375
547359,0.048786669969558716,0.7244843244552612,0.23814235627651215,-0.750480592250824,0.7183738350868225,4.04355001449585,3.7109375
547369,0.047977618873119354,0.7249302864074707,0.23754499852657318,-0.7509419322013855,0.717144250869751,4.0398783683776855,3.7109375
547379,0.047160472720861435,0.7253807187080383,0.23694582283496857,-0.7508769631385803,0.7174750566482544,4.0361199378967285,3.7109375
547389,0.04633626341819763,0.7258365750312805,0.23634541034698486,-0.750464916229248,0.7150741815567017,4.031829357147217,3.7109375
547399,0.04090934619307518,0.7290634512901306,0.23201903700828552,-0.7936729192733765,0.7542089223861694,4.025753498077393,3.7109375
547409,0.039995450526475906,0.729591429233551,0.2313515692949295,-0.7925950884819031,0.753142774105072,4.022873878479004,3.7109375
547419,0.03907547518610954,0.7301232218742371,0.23068472743034363,-0.7915191650390625,0.7531335353851318,4.019018173217773,3.7109375
547429,0.033051684498786926,0.7334649562835693,0.2261035144329071,-0.8240315914154053,0.8041573762893677,4.018752574920654,3.7109375
547439,0.032021667808294296,0.7340563535690308,0.22537051141262054,-0.8225167989730835,0.8039542436599731,4.013652324676514,3.7109375
547449,0.030982835218310356,0.734653890132904,0.22463561594486237,-0.8216018676757812,0.8033698201179504,4.010387420654297,3.7109375
547459,0.02504919283092022,0.7377849817276001,0.22004440426826477,-0.8379072546958923,0.8516450524330139,4.013159275054932,3.7109375
547469,0.02390461228787899,0.7384272813796997,0.21923935413360596,-0.8374083042144775,0.8505408763885498,4.0095953941345215,3.7109375
547479,0.02274923585355282,0.7390756011009216,0.21843460202217102,-0.8370903730392456,0.8478764295578003,4.006021499633789,3.7109375
547489,0.02158329077064991,0.739730179309845,0.217630535364151,-0.8352090120315552,0.846841037273407,4.002461910247803,3.7109375
547499,0.016511697322130203,0.742537796497345,0.21339409053325653,-0.8507465720176697,0.8723747730255127,4.001333236694336,3.7109375
547509,0.015268560498952866,0.7432328462600708,0.21251247823238373,-0.8495683670043945,0.8719431757926941,3.9969329833984375,3.7109375
547519,0.014015618711709976,0.743934154510498,0.21163026988506317,-0.8485745191574097,0.8702932000160217,3.993403911590576,3.7109375
547529,0.008669224567711353,0.7470011115074158,0.20713384449481964,-0.869165301322937,0.891830325126648,3.983459234237671,3.7109375
547539,0.007342936471104622,0.7477540969848633,0.20617187023162842,-0.8680381774902344,0.8912324905395508,3.9794323444366455,3.7109375
547549,0.006007228046655655,0.7485139966011047,0.20520912110805511,-0.8672093152999878,0.8904717564582825,3.9753577709198,3.7109375
547559,0.0008329862030223012,0.7513510584831238,0.20081380009651184,-0.874609112739563,0.913245677947998,3.9768261909484863,3.7109375
547569,-0.0005736807361245155,0.7521479725837708,0.1997695416212082,-0.8728581666946411,0.9121992588043213,3.9720065593719482,3.7109375
547579,-0.001990962540730834,0.7529513835906982,0.198726087808609,-0.8720536231994629,0.9110244512557983,3.969139575958252,3.7109375
547589,-0.003418288193643093,0.7537612318992615,0.19768169522285461,-0.8721626996994019,0.9112650156021118,3.96476149559021,3.7109375
547599,-0.01011374220252037,0.7575348615646362,0.19228976964950562,-0.8966084718704224,0.9431018829345703,3.9666638374328613,3.7109375
547609,-0.011639147996902466,0.7584037780761719,0.19116415083408356,-0.8967541456222534,0.9422031044960022,3.962618112564087,3.7109375
547619,-0.013177119195461273,0.7592782974243164,0.19003835320472717,-0.8963539600372314,0.94200599193573,3.9589502811431885,3.7109375
547629,-0.01964353770017624,0.7626151442527771,0.18493565917015076,-0.8990673422813416,0.981389045715332,3.9697582721710205,3.7109375
547639,-0.021284719929099083,0.7635236978530884,0.18373629450798035,-0.8987544775009155,0.9822741150856018,3.9652810096740723,3.7109375
547649,-0.02293848991394043,0.764439582824707,0.18253596127033234,-0.8979567289352417,0.9815424084663391,3.9602057933807373,3.7109375
547659,-0.02897261455655098,0.7678695321083069,0.17756672203540802,-0.9174959659576416,1.00225031375885,3.9525129795074463,3.7109375
547669,-0.030705710873007774,0.7688378691673279,0.17628993093967438,-0.9166227579116821,1.0020579099655151,3.9485864639282227,3.7109375
547679,-0.0324503518640995,0.7698129415512085,0.1750117391347885,-0.9168939590454102,1.0031427145004272,3.943939685821533,3.7109375
547690,-0.0342065691947937,0.7707945108413696,0.1737324446439743,-0.9161051511764526,1.0024054050445557,3.9388575553894043,3.7109375
547699,-0.039644572883844376,0.7739509344100952,0.16901442408561707,-0.9321425557136536,1.009886622428894,3.9495904445648193,3.7109375
547709,-0.04146179184317589,0.7749794125556946,0.16765525937080383,-0.9308072328567505,1.0094157457351685,3.945680856704712,3.7109375
547719,-0.043475184589624405,0.7761191725730896,0.16616201400756836,-0.9297225475311279,1.0088542699813843,3.942251443862915,3.7109375
547729,-0.051194898784160614,0.7803303003311157,0.16019754111766815,-0.9464658498764038,1.0466344356536865,3.9473516941070557,3.7109375
547739,-0.05313774570822716,0.7814224362373352,0.15877173840999603,-0.9459074139595032,1.0448811054229736,3.9429407119750977,3.7109375
547749,-0.05509382486343384,0.7825210094451904,0.15734493732452393,-0.94502192735672,1.043245792388916,3.939663887023926,3.7109375
547759,-0.06102278456091881,0.7858445048332214,0.15236079692840576,-0.9551051259040833,1.0561912059783936,3.946477174758911,3.7109375
547769,-0.06304948776960373,0.7869829535484314,0.15085753798484802,-0.9537026882171631,1.0562375783920288,3.9435665607452393,3.7109375
547779,-0.06508953869342804,0.7881292104721069,0.1493549942970276,-0.9534981846809387,1.0559183359146118,3.9388725757598877,3.7109375
547790,-0.06714436411857605,0.7892827987670898,0.14785248041152954,-0.9535394906997681,1.0536435842514038,3.935080051422119,3.7109375
547799,-0.07474759966135025,0.793366551399231,0.14199240505695343,-0.9651085734367371,1.0867993831634521,3.929462194442749,3.7109375
547809,-0.07690933346748352,0.7945665121078491,0.14042870700359344,-0.9638146758079529,1.0847424268722534,3.925980567932129,3.7109375
547819,-0.07908512651920319,0.7957756519317627,0.13886715471744537,-0.9636039137840271,1.0839930772781372,3.921724557876587,3.7109375
547829,-0.08540528267621994,0.7990531325340271,0.13378053903579712,-0.9593798518180847,1.1065601110458374,3.922484874725342,3.7109375
547839,-0.08766248822212219,0.8002933859825134,0.13215260207653046,-0.9597901105880737,1.1057863235473633,3.918651819229126,3.7109375
547849,-0.08993382751941681,0.8015421628952026,0.13052524626255035,-0.9586362242698669,1.1050852537155151,3.91586971282959,3.7109375
547859,-0.09577999264001846,0.8047959804534912,0.1256834864616394,-0.9650131464004517,1.1131154298782349,3.906773567199707,3.7109375
547869,-0.09811580181121826,0.806082546710968,0.12399302423000336,-0.9650497436523438,1.1122559309005737,3.9014029502868652,3.7109375
547879,-0.10046697407960892,0.8073760867118835,0.12230269610881805,-0.9634332656860352,1.1096086502075195,3.8982012271881104,3.7109375
547889,-0.10046697407960892,0.8073760867118835,0.12230269610881805,-0.9634332656860352,1.1096086502075195,3.8982012271881104,3.7109375
547899,-0.10862991213798523,0.8118543028831482,0.11583886295557022,-0.9664130210876465,1.1151282787322998,3.8959038257598877,3.7109375
547909,-0.11106185615062714,0.8131863474845886,0.1140848770737648,-0.9649907350540161,1.1136630773544312,3.893355369567871,3.7109375
547919,-0.11350727081298828,0.8145260214805603,0.11233223229646683,-0.9629092216491699,1.1126466989517212,3.8897452354431152,3.7109375
547929,-0.11767437309026718,0.8166976571083069,0.10857204347848892,-0.949651300907135,1.1077827215194702,3.8899197578430176,3.7109375
547939,-0.12015456706285477,0.8180471658706665,0.10675439983606339,-0.9485435485839844,1.1070406436920166,3.8858091831207275,3.7109375
547949,-0.12264864891767502,0.8194047212600708,0.10493762046098709,-0.9489201307296753,1.1058775186538696,3.8820555210113525,3.7109375
547959,-0.12705430388450623,0.8218205571174622,0.101061150431633,-0.9489617943763733,1.1042201519012451,3.8781116008758545,3.7109375
547969,-0.12958402931690216,0.8231977224349976,0.09918347746133804,-0.9478678703308105,1.1030614376068115,3.8738503456115723,3.7109375
547979,-0.132128044962883,0.8245818018913269,0.09730562567710876,-0.9475662708282471,1.101543664932251,3.8705899715423584,3.7109375
547990,-0.132128044962883,0.8245818018913269,0.09730562567710876,-0.9475662708282471,1.101543664932251,3.8705899715423584,3.7109375
547999,-0.13852129876613617,0.8282822370529175,0.0918746292591095,-0.9524465799331665,1.084449291229248,3.8615758419036865,3.7109375
548009,-0.14109472930431366,0.8297000527381897,0.08993910253047943,-0.9505512714385986,1.082463264465332,3.857910394668579,3.7109375
548019,-0.14368072152137756,0.8311260938644409,0.088003970682621,-0.9498984813690186,1.082265019416809,3.8532135486602783,3.7109375
548029,-0.1494550108909607,0.8343605995178223,0.08342049270868301,-0.9583684206008911,1.089930772781372,3.8645179271698,3.7109375
548039,-0.15210312604904175,0.8358243107795715,0.08144564926624298,-0.9576191306114197,1.087174892425537,3.8608767986297607,3.7109375
548049,-0.15476547181606293,0.8372955322265625,0.07946929335594177,-0.9565232396125793,1.085227608680725,3.857649326324463,3.7109375
548059,-0.15998488664627075,0.8402442932128906,0.07523620128631592,-0.9624847769737244,1.087130069732666,3.8569841384887695,3.7109375
548069,-0.1626940816640854,0.8417461514472961,0.07321734726428986,-0.9629799723625183,1.0852326154708862,3.8533525466918945,3.7109375
548079,-0.16541741788387299,0.8432559370994568,0.07119810581207275,-0.9621779918670654,1.083614468574524,3.849536657333374,3.7109375
548090,-0.16541741788387299,0.8432559370994568,0.07119810581207275,-0.9621779918670654,1.083614468574524,3.849536657333374,3.7109375
548099,-0.17276978492736816,0.8472660779953003,0.06543578952550888,-0.9596040844917297,1.0828304290771484,3.8421781063079834,3.7109375
548109,-0.17554746568202972,0.8488019108772278,0.06337711215019226,-0.9581290483474731,1.081863284111023,3.838442802429199,3.7109375
548119,-0.17833757400512695,0.8503451943397522,0.0613187812268734,-0.9565147161483765,1.0791895389556885,3.835573673248291,3.7109375
548129,-0.18288284540176392,0.8529635071754456,0.05752155929803848,-0.9618345499038696,1.0721553564071655,3.8391168117523193,3.7109375
548139,-0.18570396304130554,0.8545358180999756,0.05542491376399994,-0.9599883556365967,1.0712450742721558,3.8346033096313477,3.7109375
548149,-0.18853765726089478,0.8561165928840637,0.0533270426094532,-0.9598649740219116,1.0681164264678955,3.8310060501098633,3.7109375
548159,-0.19178737699985504,0.8578442931175232,0.05040857940912247,-0.9498599767684937,1.0584156513214111,3.841231107711792,3.7109375
548169,-0.1946396827697754,0.8594291806221008,0.048267435282468796,-0.9502530097961426,1.057910442352295,3.8370373249053955,3.7109375
548179,-0.19750618934631348,0.8610216379165649,0.04612654447555542,-0.9502255916595459,1.0564364194869995,3.833216667175293,3.7109375
548190,-0.19750618934631348,0.8610216379165649,0.04612654447555542,-0.9502255916595459,1.0564364194869995,3.833216667175293,3.7109375
548199,-0.20146964490413666,0.8633614778518677,0.04273972660303116,-0.9539024829864502,1.0435924530029297,3.841860055923462,3.7109375
548209,-0.2043571025133133,0.8649776577949524,0.04056167975068092,-0.9538220763206482,1.0438454151153564,3.838240385055542,3.7109375
548219,-0.21016919612884521,0.8682371377944946,0.03620384261012077,-0.9506831169128418,1.0418318510055542,3.8307716846466064,3.7109375
548229,-0.2116658240556717,0.8689969778060913,0.034463196992874146,-0.9316691160202026,1.0239368677139282,3.8268778324127197,3.7109375
548239,-0.21456994116306305,0.8706218004226685,0.03224559128284454,-0.9309569597244263,1.0246273279190063,3.8223323822021484,3.7109375
548249,-0.2174883335828781,0.8722541928291321,0.030028631910681725,-0.9297895431518555,1.0224851369857788,3.818572759628296,3.7109375
548259,-0.22143448889255524,0.8742955923080444,0.026913758367300034,-0.9212452173233032,1.026057481765747,3.8216209411621094,3.7109375
548269,-0.22439052164554596,0.8759351372718811,0.02467890828847885,-0.9199013710021973,1.0243455171585083,3.8179290294647217,3.7109375
548279,-0.22735780477523804,0.8775811195373535,0.022445276379585266,-0.9190916419029236,1.0229078531265259,3.813769578933716,3.7109375
548290,-0.22735780477523804,0.8775811195373535,0.022445276379585266,-0.9190916419029236,1.0229078531265259,3.813769578933716,3.7109375
548299,-0.23109513521194458,0.8796662092208862,0.019528895616531372,-0.9194232225418091,1.0228205919265747,3.8220221996307373,3.7109375
548309,-0.23409223556518555,0.8813278675079346,0.017283013090491295,-0.9177213311195374,1.0218534469604492,3.818542957305908,3.7109375
548319,-0.23710301518440247,0.8829953074455261,0.015035147778689861,-0.9157648086547852,1.0205879211425781,3.814861536026001,3.7109375
548329,-0.23879271745681763,0.8838083148002625,0.01342738140374422,-0.8986068367958069,1.0086650848388672,3.804014205932617,3.7109375
548339,-0.24180498719215393,0.8854647278785706,0.011155808344483376,-0.8983547687530518,1.0082182884216309,3.7993783950805664,3.7109375
548349,-0.24483004212379456,0.8871281743049622,0.00888388603925705,-0.898058295249939,1.0069786310195923,3.7956371307373047,3.7109375
548359,-0.247511088848114,0.8885736465454102,0.006767563987523317,-0.8927517533302307,1.0006587505340576,3.813072919845581,3.7109375
548369,-0.2505536377429962,0.8902458548545837,0.004492271225899458,-0.8928446769714355,1.0005754232406616,3.808202028274536,3.7109375
548379,-0.2536081373691559,0.8919249176979065,0.002217539120465517,-0.8925507068634033,1.00011146068573,3.8052875995635986,3.7109375
548390,-0.2566739320755005,0.8936100006103516,-5.6575750932097435e-05,-0.891539990901947,0.9999762177467346,3.8021352291107178,3.7109375
548399,-0.2563614845275879,0.8937337398529053,-0.0003672103048302233,-0.8940052390098572,0.9599591493606567,3.814699649810791,3.7109375
548409,-0.25938642024993896,0.8954218029975891,-0.002657563891261816,-0.8932626247406006,0.9589876532554626,3.810004711151123,3.7109375
548419,-0.26242345571517944,0.8971157073974609,-0.00494785699993372,-0.8918731808662415,0.9589391946792603,3.805697202682495,3.7109375
548429,-0.2649185061454773,0.898400068283081,-0.006922944448888302,-0.8814395070075989,0.9566606879234314,3.819840669631958,3.7109375
548439,-0.2679712474346161,0.9000934362411499,-0.009217515587806702,-0.8812385201454163,0.9551741480827332,3.816220283508301,3.7109375
548449,-0.2710357904434204,0.9017936587333679,-0.011512177996337414,-0.8805411458015442,0.9550685286521912,3.811520576477051,3.7109375
548459,-0.2727864384651184,0.9027115106582642,-0.012974023818969727,-0.8716084957122803,0.9451038837432861,3.8080880641937256,3.7109375
548469,-0.27585187554359436,0.9044081568717957,-0.015276072546839714,-0.8715105652809143,0.9432708621025085,3.8049159049987793,3.7109375
548479,-0.2789277732372284,0.9061104655265808,-0.017578404396772385,-0.8710969686508179,0.9436022043228149,3.800913095474243,3.7109375
548490,-0.28201502561569214,0.9078189134597778,-0.019881386309862137,-0.870450496673584,0.9419180154800415,3.7968297004699707,3.7109375
548499,-0.28026360273361206,0.9068021774291992,-0.019119571894407272,-0.8458998799324036,0.9078351855278015,3.8120059967041016,3.7109375
548509,-0.2832998037338257,0.9084790945053101,-0.02144177258014679,-0.845399796962738,0.9076573848724365,3.807485818862915,3.7109375
548519,-0.2863447964191437,0.9101617932319641,-0.023764394223690033,-0.8440128564834595,0.9041656851768494,3.8036673069000244,3.7109375
548529,-0.2868722081184387,0.910559356212616,-0.02443162351846695,-0.8407945036888123,0.8841744661331177,3.8158719539642334,3.7109375
548539,-0.2898966372013092,0.912243127822876,-0.026752997189760208,-0.8386727571487427,0.8819533586502075,3.813056707382202,3.7109375
548549,-0.2929304540157318,0.913932204246521,-0.029074519872665405,-0.8387535214424133,0.8802400827407837,3.8085577487945557,3.7109375
548559,-0.2945954501628876,0.9150228500366211,-0.030261239036917686,-0.8477159142494202,0.8713977336883545,3.818373918533325,3.7109375
548569,-0.29763445258140564,0.916728675365448,-0.032563623040914536,-0.8464097380638123,0.8703894019126892,3.8153984546661377,3.7109375
548579,-0.30068302154541016,0.9184405207633972,-0.03486405685544014,-0.845446765422821,0.868270218372345,3.8119280338287354,3.7109375
548590,-0.30374202132225037,0.9201571345329285,-0.037164147943258286,-0.8447717428207397,0.8678586483001709,3.808316946029663,3.7109375
548599,-0.30361872911453247,0.9200688600540161,-0.03731253370642662,-0.8298730850219727,0.8500110507011414,3.8202035427093506,3.7109375
548609,-0.30665767192840576,0.9217745661735535,-0.039617497473955154,-0.8291968107223511,0.8498576879501343,3.8210599422454834,3.7109375
548619,-0.30971208214759827,0.923493504524231,-0.04192327335476875,-0.826545000076294,0.8537821173667908,3.8235280513763428,3.310546875
548629,-0.3084448277950287,0.9228333234786987,-0.04130970314145088,-0.813546359539032,0.8288915157318115,3.843358278274536,3.15625
548639,-0.3114716112613678,0.924547016620636,-0.04361935332417488,-0.8159129023551941,0.8277631998062134,3.8364052772521973,3.15625
548649,-0.3145134449005127,0.9262736439704895,-0.04593094065785408,-0.8123964071273804,0.8281037211418152,3.847609281539917,3.0625
548659,-0.31367501616477966,0.9257899522781372,-0.04557041823863983,-0.7958425283432007,0.8091691732406616,3.867262601852417,3.044921875
548669,-0.3166978657245636,0.9275097250938416,-0.04787919670343399,-0.8003795146942139,0.8145150542259216,3.85860538482666,3.05078125
548679,-0.31973546743392944,0.9292421340942383,-0.05019019916653633,-0.7969565987586975,0.8137711882591248,3.8643863201141357,3.06640625
548691,-0.3227878510951996,0.9309872388839722,-0.05250430107116699,-0.7968577742576599,0.8120784163475037,3.8978474140167236,3.09765625
548699,-0.3233881890773773,0.9310181140899658,-0.05293283611536026,-0.773493766784668,0.8043169379234314,3.98038649559021,3.09765625
548709,-0.3264533281326294,0.9327486157417297,-0.05523974448442459,-0.7675634026527405,0.8080628514289856,4.021832466125488,3.130859375
548719,-0.3326270282268524,0.9362457394599915,-0.05988551676273346,-0.7215868830680847,0.8295287489891052,4.072712421417236,3.146484375
548729,-0.33309128880500793,0.9362912178039551,-0.05987673997879028,-0.7856982946395874,0.6325377821922302,4.179664611816406,3.16796875
548739,-0.33620333671569824,0.9380450248718262,-0.0619351901113987,-0.6187294721603394,0.27808335423469543,4.367257118225098,3.177734375
548749,-0.3393247425556183,0.9398118853569031,-0.06382307410240173,-0.3467387557029724,-0.14097049832344055,4.497786045074463,3.19921875
548759,-0.337210476398468,0.9381900429725647,-0.06164243817329407,0.14270946383476257,-0.6931206583976746,4.58877420425415,3.19921875
548769,-0.34027761220932007,0.9399023652076721,-0.0631137490272522,0.8899841904640198,-1.4721875190734863,4.718609809875488,3.224609375
548779,-0.34331822395324707,0.941603422164917,-0.06435737013816833,1.7321851253509521,-2.289649724960327,4.870314121246338,3.23046875
548789,-0.34331822395324707,0.941603422164917,-0.06435737013816833,1.7321851253509521,-2.289649724960327,4.870314121246338,3.2578125
548799,-0.3412212133407593,0.9398079514503479,-0.06167016550898552,2.8516924381256104,-3.234252452850342,5.07241678237915,3.27734375
548809,-0.3441055715084076,0.9413546323776245,-0.062421031296253204,3.959538459777832,-4.179915904998779,5.325784683227539,3.298828125
548819,-0.3469005227088928,0.9428325295448303,-0.06293448805809021,4.869120121002197,-5.126099586486816,5.618137836456299,3.298828125
548829,-0.34504571557044983,0.9409774541854858,-0.059786293655633926,5.51829195022583,-6.035763740539551,5.9392170906066895,3.3046875
548839,-0.3475678861141205,0.9421910643577576,-0.05984701216220856,5.749750137329102,-6.801494121551514,6.279271125793457,3.310546875
548849,-0.3499438762664795,0.9433035850524902,-0.059721704572439194,5.62613582611084,-7.364924430847168,6.599900245666504,3.310546875
548859,-0.34839001297950745,0.9419580101966858,-0.055972225964069366,5.210813999176025,-7.690716743469238,6.903018951416016,3.314453125
548869,-0.3504303991794586,0.942853569984436,-0.05540846660733223,4.578249454498291,-7.79536771774292,7.186588764190674,3.326171875
548879,-0.3522953391075134,0.9436697363853455,-0.05462377890944481,3.930075168609619,-7.630397319793701,7.459691524505615,3.326171875
548890,-0.35398760437965393,0.9444206953048706,-0.05361466854810715,3.4203155040740967,-7.230536937713623,7.709670543670654,3.345703125
548899,-0.35175782442092896,0.9428724646568298,-0.05001793056726456,3.1741790771484375,-6.68701171875,7.955175399780273,3.357421875
548909,-0.35307610034942627,0.9434768557548523,-0.048565175384283066,3.1599864959716797,-6.052183151245117,8.19321346282959,3.36328125
548919,-0.35425373911857605,0.9440338611602783,-0.04688253626227379,3.372419834136963,-5.430938243865967,8.44504451751709,3.3671875
548929,-0.3501531481742859,0.9413080811500549,-0.04031742364168167,3.7600958347320557,-4.857230186462402,8.711200714111328,3.373046875
548939,-0.35108715295791626,0.9417216777801514,-0.03818289563059807,4.184453010559082,-4.444042682647705,8.954327583312988,3.373046875
548949,-0.3519169092178345,0.9420691728591919,-0.035875242203474045,4.561288833618164,-4.157539367675781,9.186811447143555,3.3828125
548959,-0.34771156311035156,0.939059853553772,-0.028745513409376144,4.833646297454834,-3.955103635787964,9.388400077819824,3.3828125
548969,-0.3483649492263794,0.9392166137695312,-0.02612653747200966,4.9117350578308105,-3.891896963119507,9.614253997802734,3.388671875
548979,-0.3489329218864441,0.9392975568771362,-0.023446543142199516,4.806839942932129,-3.880150079727173,9.830548286437988,3.39453125
548991,-0.34941667318344116,0.9393041133880615,-0.020715374499559402,4.5067925453186035,-3.9032394886016846,10.040421485900879,3.3984375
548999,-0.34571272134780884,0.9368526935577393,-0.015616650693118572,4.0849175453186035,-3.9715912342071533,10.222225189208984,3.3984375
549009,-0.3459565043449402,0.9366762638092041,-0.012833025306463242,3.520704984664917,-3.972790479660034,10.420408248901367,3.404296875
549019,-0.346118301153183,0.9364464282989502,-0.01001072023063898,2.929543972015381,-3.9386799335479736,10.617669105529785,3.3984375
549029,-0.3408917486667633,0.9333282113075256,-0.003005870385095477,2.361590623855591,-3.85798978805542,10.80471134185791,3.39453125
549039,-0.34085649251937866,0.9330077767372131,-0.00010290858335793018,1.879822015762329,-3.7306900024414062,10.99531078338623,3.39453125
549049,-0.3407498002052307,0.9326640963554382,0.002808369928970933,1.5221753120422363,-3.569753408432007,11.173338890075684,3.3984375
549059,-0.3356424868106842,0.9297937750816345,0.00987263210117817,1.2919089794158936,-3.389650344848633,11.37619686126709,3.3984375
549069,-0.3353745937347412,0.9294244647026062,0.012867406941950321,1.2177653312683105,-3.1922826766967773,11.534045219421387,3.3984375
549079,-0.33504554629325867,0.9290451407432556,0.015889514237642288,1.2426074743270874,-2.9762930870056152,11.685444831848145,3.3984375
549091,-0.3346595764160156,0.9286558032035828,0.01892833039164543,1.3395401239395142,-2.7269368171691895,11.834477424621582,3.404296875
549099,-0.3256644010543823,0.924157977104187,0.027554182335734367,1.4787094593048096,-2.5098934173583984,12.01425552368164,3.404296875
549109,-0.32503634691238403,0.9237215518951416,0.030587077140808105,1.5729619264602661,-2.221285820007324,12.15575885772705,3.41015625
549119,-0.3243633210659027,0.9232682585716248,0.03361564129590988,1.6089367866516113,-1.9138805866241455,12.289650917053223,3.41015625
549129,-0.3189713656902313,0.9204807877540588,0.04065587744116783,1.5413507223129272,-1.5968577861785889,12.411580085754395,3.3984375
549139,-0.31819698214530945,0.9199970960617065,0.04374769702553749,1.4087451696395874,-1.2890903949737549,12.531050682067871,3.3984375
549149,-0.31739288568496704,0.919494092464447,0.04684225469827652,1.2072069644927979,-1.0062326192855835,12.646655082702637,3.3984375
549159,-0.31273725628852844,0.9172178506851196,0.05363592505455017,0.9169070720672607,-0.7517921328544617,12.774395942687988,3.3984375
549169,-0.31188249588012695,0.9167091846466064,0.05681184306740761,0.640101969242096,-0.5540148615837097,12.874990463256836,3.404296875
549179,-0.31101396679878235,0.9161901473999023,0.05997457727789879,0.3637157380580902,-0.40990057587623596,12.966017723083496,3.404296875
549191,-0.31013551354408264,0.9156646132469177,0.06312259286642075,0.10866322368383408,-0.3179851770401001,13.051809310913086,3.404296875
549199,-0.3046325445175171,0.9124798774719238,0.06959635764360428,-0.0937652587890625,-0.26586323976516724,13.1493558883667,3.41015625
549209,-0.30370214581489563,0.9119216203689575,0.07271607220172882,-0.26593637466430664,-0.22993333637714386,13.220635414123535,3.41015625
549219,-0.3026748299598694,0.9113119840621948,0.07611460983753204,-0.4024597108364105,-0.1946084350347519,13.292596817016602,3.3984375
549229,-0.2953808605670929,0.9075499176979065,0.08396995812654495,-0.4903640151023865,-0.17325860261917114,13.350250244140625,3.39453125
549239,-0.2943847179412842,0.9070029854774475,0.08706812560558319,-0.5447791814804077,-0.11571148037910461,13.4070463180542,3.39453125
549249,-0.2933882176876068,0.9064651131629944,0.09015583246946335,-0.5796445608139038,-0.01872633770108223,13.46044635772705,3.39453125
549259,-0.2876722514629364,0.9034799337387085,0.09758740663528442,-0.6292702555656433,0.12835849821567535,13.513723373413086,3.3984375
549269,-0.2866673767566681,0.9029669761657715,0.10072892904281616,-0.6565361022949219,0.29799842834472656,13.55778694152832,3.3984375
549279,-0.28566843271255493,0.9024636745452881,0.1038471981883049,-0.6845200657844543,0.4854351282119751,13.597566604614258,3.3984375
549291,-0.2846783697605133,0.9019696712493896,0.10693929344415665,-0.7139086723327637,0.6676239967346191,13.632402420043945,3.404296875
549299,-0.2776000201702118,0.8980600833892822,0.11555127054452896,-0.7545219659805298,0.8646613359451294,13.682637214660645,3.404296875
549309,-0.27661627531051636,0.8975675106048584,0.11866454780101776,-0.7921169400215149,1.01930832862854,13.708354949951172,3.404296875
549319,-0.27565068006515503,0.8970836997032166,0.12174753099679947,-0.8397059440612793,1.1478171348571777,13.730587005615234,3.3984375
549329,-0.26872745156288147,0.8935129046440125,0.1288360208272934,-0.8846350312232971,1.211940884590149,13.746835708618164,3.39453125
549339,-0.2677379548549652,0.8930275440216064,0.13187342882156372,-0.9408029913902283,1.2720807790756226,13.761140823364258,3.39453125
549349,-0.26677241921424866,0.8925520777702332,0.13489387929439545,-1.0031554698944092,1.302977442741394,13.769726753234863,3.39453125
549359,-0.26583170890808105,0.8920872807502747,0.13789360225200653,-1.0585604906082153,1.3093881607055664,13.772459030151367,3.39453125
549369,-0.25956961512565613,0.888679027557373,0.14543825387954712,-1.1190121173858643,1.3088916540145874,13.801682472229004,3.39453125
549379,-0.25865674018859863,0.8882250785827637,0.14847438037395477,-1.1695560216903687,1.3128196001052856,13.801322937011719,3.39453125
549389,-0.2577698528766632,0.8877845406532288,0.15149186551570892,-1.2162834405899048,1.323370337486267,13.799287796020508,3.3984375
549399,-0.2512470781803131,0.8843094706535339,0.15933145582675934,-1.2616451978683472,1.335369348526001,13.8027925491333,3.3984375
549409,-0.2503878176212311,0.8838900327682495,0.16238035261631012,-1.275847315788269,1.351621389389038,13.796741485595703,3.404296875
549419,-0.24955540895462036,0.8834857940673828,0.16540560126304626,-1.2730947732925415,1.3820019960403442,13.785968780517578,3.404296875
549429,-0.24063687026500702,0.8785476088523865,0.17403468489646912,-1.23955237865448,1.4011406898498535,13.801709175109863,3.39453125
549439,-0.2397851198911667,0.8781266808509827,0.17702852189540863,-1.215095043182373,1.4461203813552856,13.786511421203613,3.388671875
549449,-0.23896156251430511,0.8777201175689697,0.18000592291355133,-1.1844371557235718,1.4992616176605225,13.773063659667969,3.388671875
549459,-0.232570618391037,0.8739674091339111,0.18737918138504028,-1.1343234777450562,1.564719796180725,13.726747512817383,3.39453125
549469,-0.23178009688854218,0.873550295829773,0.19038183987140656,-1.099228024482727,1.6094837188720703,13.705140113830566,3.39453125
549479,-0.2310199737548828,0.8731451630592346,0.19336792826652527,-1.0688081979751587,1.6503996849060059,13.680001258850098,3.39453125
549489,-0.23029057681560516,0.8727512359619141,0.19633004069328308,-1.050938367843628,1.6714335680007935,13.650894165039062,3.39453125
549499,-0.2234289050102234,0.8687605857849121,0.2044111043214798,-1.040583848953247,1.7060389518737793,13.604671478271484,3.3984375
549509,-0.2227412462234497,0.868359386920929,0.20740628242492676,-1.0505188703536987,1.7090942859649658,13.571762084960938,3.3984375
549519,-0.22208549082279205,0.8679685592651367,0.21037954092025757,-1.0696169137954712,1.6923506259918213,13.53995418548584,3.39453125
549529,-0.21279969811439514,0.8626235723495483,0.21916666626930237,-1.0557103157043457,1.6438301801681519,13.52864933013916,3.388671875
549539,-0.21212688088417053,0.8621941804885864,0.22210471332073212,-1.0744433403015137,1.5897533893585205,13.495231628417969,3.388671875
549549,-0.21148470044136047,0.8617758750915527,0.22502541542053223,-1.0943361520767212,1.5236867666244507,13.459752082824707,3.388671875
549559,-0.20541499555110931,0.8583758473396301,0.23218777775764465,-1.116027593612671,1.458972692489624,13.397257804870605,3.388671875
549569,-0.20479989051818848,0.8579656481742859,0.23513682186603546,-1.1427360773086548,1.4007289409637451,13.361395835876465,3.388671875
549579,-0.20421257615089417,0.8575683236122131,0.23806804418563843,-1.1729093790054321,1.3545745611190796,13.327807426452637,3.388671875
