time.ms,stateEstimate.x,stateEstimate.y,stateEstimate.z,stabilizer.roll,stabilizer.pitch,stabilizer.yaw,pm.vbat
58898,-0.1395207792520523,-0.6788210868835449,0.032827746123075485,0.259015291929245,0.48807263374328613,-78.19139099121094,1
58908,-0.13906154036521912,-0.6783332824707031,0.0324285589158535,0.24027755856513977,0.48686403036117554,-78.1321792602539,1
58918,-0.13904942572116852,-0.6783992648124695,0.03242810443043709,0.2396901398897171,0.4871278405189514,-78.06026458740234,1
58928,-0.13882026076316833,-0.6779637336730957,0.03242276981472969,0.23556876182556152,0.49923163652420044,-78.2157211303711,1
58938,-0.13880246877670288,-0.6780124306678772,0.032444488257169724,0.23495711386203766,0.5007938742637634,-78.14379119873047,1
58948,-0.13850955665111542,-0.677733838558197,0.03222901374101639,0.22299641370773315,0.5008893013000488,-78.06953430175781,1
58958,-0.13821643590927124,-0.6770164966583252,0.031718771904706955,0.22800803184509277,0.5184460282325745,-78.2279281616211,1
58968,-0.1381901651620865,-0.6770349144935608,0.031713660806417465,0.22785250842571259,0.5188570618629456,-78.15450286865234,1
58978,-0.13790863752365112,-0.6767467856407166,0.03148730471730232,0.21690693497657776,0.520251452922821,-78.06832122802734,1
58989,-0.13786593079566956,-0.6767593026161194,0.03147611767053604,0.21680420637130737,0.5196718573570251,-77.99459838867188,1
58998,-0.13748329877853394,-0.6757998466491699,0.030856700614094734,0.2212468534708023,0.5418218970298767,-78.17459106445312,1
59008,-0.13756299018859863,-0.6759345531463623,0.030932283028960228,0.22544746100902557,0.5427706241607666,-78.11284637451172,1
59018,-0.1375231295824051,-0.6759194135665894,0.03090077079832554,0.2256726175546646,0.5431327819824219,-78.04063415527344,1
59028,-0.13719509541988373,-0.6751512289047241,0.030557749792933464,0.22455821931362152,0.557380199432373,-78.22732543945312,1
59038,-0.13715186715126038,-0.6751097440719604,0.030526621267199516,0.22402510046958923,0.5567460060119629,-78.15442657470703,1
59048,-0.13782498240470886,-0.6758944392204285,0.031103352084755898,0.2495499700307846,0.5588411092758179,-78.0794906616211,1
59058,-0.13798198103904724,-0.6764001250267029,0.031565260142087936,0.2455321103334427,0.5452596545219421,-78.2466049194336,1
59068,-0.137968510389328,-0.6763849854469299,0.03157338127493858,0.24461856484413147,0.5446611642837524,-78.17523956298828,1
59078,-0.13847123086452484,-0.6769849061965942,0.03202919661998749,0.26217013597488403,0.5436835885047913,-78.10340118408203,1
59088,-0.1384810507297516,-0.6769824624061584,0.032049745321273804,0.2619681656360626,0.5435490608215332,-78.03193664550781,1
59098,-0.13834209740161896,-0.6764477491378784,0.03143497556447983,0.2700088322162628,0.5522918701171875,-78.199462890625,1
59108,-0.13881632685661316,-0.6769710183143616,0.03181428834795952,0.2864847183227539,0.5514950156211853,-78.12077331542969,1
59118,-0.13885417580604553,-0.6769629120826721,0.03180970996618271,0.28572550415992737,0.5503483414649963,-78.04813385009766,1
59128,-0.13904350996017456,-0.6774393916130066,0.03223755210638046,0.2833832800388336,0.5401797294616699,-78.21117401123047,1
59138,-0.13907401263713837,-0.6774448752403259,0.03225236013531685,0.28262871503829956,0.5412068963050842,-78.13874053955078,1
59148,-0.1393466591835022,-0.6777315735816956,0.03247356042265892,0.289740651845932,0.5417575836181641,-78.06865692138672,1
59158,-0.13944651186466217,-0.6778160929679871,0.032206110656261444,0.2969716787338257,0.5352927446365356,-78.2261734008789,1
59168,-0.13949152827262878,-0.6778308153152466,0.0321962870657444,0.29517921805381775,0.5345093607902527,-78.15401458740234,1
59178,-0.13969852030277252,-0.6780366897583008,0.03232539817690849,0.3001800775527954,0.5331280827522278,-78.08442687988281,1
59189,-0.1398220658302307,-0.6782975792884827,0.03256280720233917,0.2986741364002228,0.52605801820755,-78.25788879394531,1
59198,-0.13987435400485992,-0.6783221960067749,0.0325671061873436,0.2970144748687744,0.525745689868927,-78.18524169921875,1
59208,-0.1399705559015274,-0.6783953309059143,0.032607823610305786,0.29775485396385193,0.523542046546936,-78.12244415283203,1
59218,-0.14002548158168793,-0.6784214377403259,0.03261425346136093,0.29765281081199646,0.5241948366165161,-78.04855346679688,1
59228,-0.1402471661567688,-0.6789520978927612,0.03302573785185814,0.29506203532218933,0.511415421962738,-78.20852661132812,1
59238,-0.14030040800571442,-0.6789955496788025,0.03304623067378998,0.29431983828544617,0.5127063393592834,-78.13609313964844,1
59248,-0.1399783045053482,-0.678598165512085,0.03274114429950714,0.27931997179985046,0.5128143429756165,-78.07535552978516,1
59258,-0.1401223987340927,-0.6789982914924622,0.03314386308193207,0.27402177453041077,0.5051783323287964,-78.24602508544922,1
59268,-0.14015784859657288,-0.6790435910224915,0.03317495435476303,0.27223795652389526,0.5043558478355408,-78.17366790771484,1
59278,-0.13964210450649261,-0.6784234046936035,0.032724395394325256,0.25272321701049805,0.5045129060745239,-78.08818054199219,1
59289,-0.13965070247650146,-0.6784576773643494,0.03274082764983177,0.2526457607746124,0.5057164430618286,-78.01676940917969,1
59298,-0.13952267169952393,-0.678169846534729,0.0327574796974659,0.2510312497615814,0.513587236404419,-78.17221069335938,1
59308,-0.13906575739383698,-0.6776431202888489,0.0323835127055645,0.23157285153865814,0.5124158263206482,-78.09105682373047,1
59318,-0.13904863595962524,-0.6776576638221741,0.03239854425191879,0.23086021840572357,0.510959267616272,-78.01810455322266,1
59328,-0.1392013430595398,-0.6781026124954224,0.03247302398085594,0.2356759011745453,0.4988122582435608,-78.18611145019531,1
59338,-0.1391870230436325,-0.6781347990036011,0.03247483819723129,0.23470047116279602,0.49897852540016174,-78.1144027709961,1
59348,-0.13873282074928284,-0.6776548624038696,0.03210071846842766,0.21784475445747375,0.4981365501880646,-78.05548858642578,1
59358,-0.1385856717824936,-0.6773645877838135,0.03188884258270264,0.21929164230823517,0.5053046345710754,-78.21730041503906,1
59368,-0.13855120539665222,-0.6773765087127686,0.03187215328216553,0.21820402145385742,0.5041353106498718,-78.1438980102539,1
59378,-0.13818779587745667,-0.6769935488700867,0.03156740590929985,0.20607876777648926,0.5039925575256348,-78.07858276367188,1
59389,-0.1381354033946991,-0.6770008206367493,0.0315391831099987,0.2058594673871994,0.5048957467079163,-78.00638580322266,1
59398,-0.13770930469036102,-0.6759359240531921,0.030875133350491524,0.20964184403419495,0.5278241634368896,-78.17410278320312,1
59408,0.0,0.0,0.0,0.0,0.0,0.0,1
59418,5.166945356904762e-06,3.054733724638936e-06,-1.3663084246218204e-06,-0.00048475043149665,-0.0015280162915587425,-0.000645036343485117,1
59428,0.2031090259552002,-0.12489045411348343,-0.3295958936214447,-0.0016068457625806332,-0.001922610797919333,-41.41227340698242,1
59439,0.2031363844871521,-0.1248956248164177,-0.32960015535354614,-0.001239475212059915,-0.0013599428348243237,-41.37224578857422,1
59448,-0.09484071284532547,-0.6016653180122375,-0.022599168121814728,0.2643508315086365,0.38076528906822205,-53.802947998046875,1
59458,-0.09380117803812027,-0.5991817712783813,-0.020022301003336906,0.30819299817085266,0.3008577525615692,-61.118141174316406,1
59468,-0.0941479504108429,-0.5987551808357239,-0.019907033070921898,0.3076828122138977,0.3007029592990875,-61.06011962890625,1
59478,-0.09968635439872742,-0.5966230034828186,-0.019503900781273842,0.4601084589958191,0.39199262857437134,-64.53413391113281,1
59489,-0.1000877097249031,-0.5961300134658813,-0.019390851259231567,0.45843449234962463,0.3923304080963135,-64.47308349609375,1
59498,-0.09491094946861267,-0.5978744626045227,-0.01932355761528015,0.14980915188789368,-0.02640206180512905,-67.59575653076172,1
59508,-0.09898866713047028,-0.5956259965896606,-0.01953093335032463,0.23728814721107483,0.133766308426857,-69.15623474121094,1
59518,-0.09920379519462585,-0.5952067971229553,-0.01941300369799137,0.23574718832969666,0.13375519216060638,-69.09127807617188,1
59528,-0.09376127272844315,-0.5971678495407104,-0.019366146996617317,-0.23606103658676147,-0.3274820148944855,-70.83012390136719,1
59539,-0.09371522814035416,-0.5969105362892151,-0.019239062443375587,-0.23682422935962677,-0.32832071185112,-70.76349639892578,1
59548,-0.09792964160442352,-0.5948585271835327,-0.01927006058394909,0.0363534614443779,0.015645183622837067,-71.64234924316406,1
59558,-0.09337463229894638,-0.5968198180198669,-0.019640382379293442,-0.2818076014518738,-0.33424922823905945,-72.78314971923828,1
59568,-0.09327571094036102,-0.596601665019989,-0.019527064636349678,-0.280513733625412,-0.33464962244033813,-72.71537780761719,1
59578,-0.0978325754404068,-0.5946041345596313,-0.01942315138876438,0.09189927577972412,0.03291966766119003,-73.24906158447266,1
59589,-0.09790174663066864,-0.5942831039428711,-0.019314778968691826,0.09196819365024567,0.03485396131873131,-73.18083190917969,1
59598,-0.09300117939710617,-0.596671998500824,-0.019951950758695602,-0.5039747357368469,-0.5808795690536499,-73.99606323242188,1
59608,-0.09745213389396667,-0.5948871374130249,-0.01977725327014923,-0.1997756063938141,-0.28403815627098083,-74.36576843261719,1
59618,-0.09733723104000092,-0.5947224497795105,-0.019688427448272705,-0.19963446259498596,-0.28231340646743774,-74.2973403930664,1
59628,-0.0926331952214241,-0.5968798995018005,-0.0201259832829237,-0.7597335577011108,-0.7746919393539429,-74.89595031738281,1
59639,-0.0921824499964714,-0.5969269275665283,-0.020053766667842865,-0.7593164443969727,-0.7741960883140564,-74.8261489868164,1
59648,-0.09762882441282272,-0.595136284828186,-0.01966451108455658,-0.12623631954193115,-0.30052241683006287,-75.10204315185547,1
59658,-0.09292151778936386,-0.5973045825958252,-0.020028850063681602,-0.4924989342689514,-0.6576510071754456,-75.57933807373047,1
59668,-0.09256040304899216,-0.5973791480064392,-0.019946159794926643,-0.49070659279823303,-0.6578884720802307,-75.50978088378906,1
59678,-0.09773850440979004,-0.5955878496170044,-0.019705699756741524,0.06879029422998428,-0.24859027564525604,-75.69439697265625,1
59689,-0.09773850440979004,-0.5955878496170044,-0.019705699756741524,0.06879029422998428,-0.24859027564525604,-75.69439697265625,1
59698,-0.09266863763332367,-0.597801923751831,-0.01990204118192196,-0.5364099144935608,-0.7424513697624207,-76.02127838134766,1
59708,-0.09779155254364014,-0.5962671637535095,-0.01951037161052227,-0.1320929080247879,-0.471144437789917,-76.155517578125,1
59718,-0.09757582098245621,-0.5963616371154785,-0.019422641023993492,-0.1320469230413437,-0.47073817253112793,-76.0837631225586,1
59728,-0.09284528344869614,-0.598126232624054,-0.019231285899877548,-0.6182267665863037,-0.7899085879325867,-76.42250061035156,1
59739,-0.09284528344869614,-0.598126232624054,-0.019231285899877548,-0.6182267665863037,-0.7899085879325867,-76.42250061035156,1
59748,-0.09771654009819031,-0.5966331958770752,-0.018922656774520874,-0.03142770007252693,-0.3931976854801178,-76.44720458984375,1
59758,-0.09369616955518723,-0.5983697175979614,-0.019110994413495064,-0.3170183300971985,-0.6235883831977844,-76.8091049194336,1
59768,-0.09330233931541443,-0.5986059308052063,-0.019007626920938492,-0.31679463386535645,-0.6224676966667175,-76.73653411865234,1
59778,-0.09820369631052017,-0.5971182584762573,-0.01876346580684185,0.15158313512802124,-0.32143571972846985,-76.80593872070312,1
59789,-0.09812131524085999,-0.5972535610198975,-0.018659088760614395,0.1515294760465622,-0.32037314772605896,-76.73475646972656,1
59798,-0.09421858191490173,-0.5991963148117065,-0.018953019753098488,-0.23771652579307556,-0.6255279779434204,-77.00300598144531,1
59808,-0.09853364527225494,-0.597943902015686,-0.01872737519443035,0.04843740910291672,-0.4407429099082947,-77.04412078857422,1
59818,-0.0983496829867363,-0.5981884598731995,-0.018630871549248695,0.0487159788608551,-0.4390864074230194,-76.97283935546875,1
59828,-0.0941379964351654,-0.5997753143310547,-0.01828996278345585,-0.3186691105365753,-0.6564686298370361,-77.2093276977539,1
59839,-0.09365377575159073,-0.6001536250114441,-0.01817762292921543,-0.3172469437122345,-0.6538756489753723,-77.13677978515625,1
59848,-0.09843989461660385,-0.5984779000282288,-0.018255645409226418,0.11933037638664246,-0.3437230885028839,-77.17256927490234,1
59858,-0.09418989717960358,-0.6001776456832886,-0.017968643456697464,-0.11440474539995193,-0.49594923853874207,-77.39071655273438,1
59868,-0.09384085237979889,-0.6005223989486694,-0.017846697941422462,-0.11404334008693695,-0.4966888129711151,-77.31842803955078,1
59878,-0.09824193269014359,-0.5984265208244324,-0.018402038142085075,0.21044765412807465,-0.2164885401725769,-77.34752655029297,1
59890,-0.09815690666437149,-0.5986432433128357,-0.01831224001944065,0.20896920561790466,-0.2154165804386139,-77.27523040771484,1
59898,-0.09433688968420029,-0.6002928018569946,-0.018231555819511414,-0.09024643898010254,-0.41236287355422974,-77.47845458984375,1
59908,-0.09837307780981064,-0.5984677076339722,-0.01864560879766941,0.10648661851882935,-0.22628237307071686,-77.48704528808594,1
59918,-0.09819122403860092,-0.5987198352813721,-0.018564334139227867,0.10808160901069641,-0.22619347274303436,-77.41575622558594,1
59928,-0.09439041465520859,-0.6002333164215088,-0.01833287440240383,-0.1484406292438507,-0.38391390442848206,-77.6088638305664,1
59940,-0.09396141022443771,-0.600596010684967,-0.01823650859296322,-0.1481475681066513,-0.3817671835422516,-77.53688049316406,1
59948,-0.09818068891763687,-0.5983625650405884,-0.019003868103027344,0.1509016752243042,-0.10112551599740982,-77.52995300292969,1
59958,-0.09408796578645706,-0.599664568901062,-0.018450547009706497,-0.029380997642874718,-0.19485318660736084,-77.72154998779297,1
59968,-0.09375672787427902,-0.5999348759651184,-0.01837237924337387,-0.029557304456830025,-0.19511844217777252,-77.64878845214844,1
59978,-0.09798752516508102,-0.5975343585014343,-0.019233902916312218,0.21915759146213531,0.04204578325152397,-77.64275360107422,1
59990,-0.09790099412202835,-0.597664475440979,-0.019201735034585,0.21943943202495575,0.042271796613931656,-77.56895446777344,1
59998,-0.09388529509305954,-0.5992066264152527,-0.01906636543571949,-0.028263477608561516,-0.1178111806511879,-77.75531005859375,1
60008,-0.09806731343269348,-0.5969146490097046,-0.01980263739824295,0.1337488442659378,0.05349345505237579,-77.73082733154297,1
60018,-0.09789501130580902,-0.5970423221588135,-0.0197832640260458,0.13360875844955444,0.05367663502693176,-77.65898895263672,1
60028,-0.09349878132343292,-0.5984236001968384,-0.019316215068101883,-0.11119692027568817,-0.08464552462100983,-77.84900665283203,1
60039,-0.09305891394615173,-0.5986497402191162,-0.019265146926045418,-0.11062803119421005,-0.08488869667053223,-77.7763671875,1
60048,-0.09727322310209274,-0.596386730670929,-0.019908372312784195,0.044134948402643204,0.06683360785245895,-77.7497329711914,1
60058,-0.0931563451886177,-0.5979680418968201,-0.019851990044116974,-0.1669316291809082,-0.07330460101366043,-77.92522430419922,1
60068,-0.09263522922992706,-0.5981993079185486,-0.01981915906071663,-0.1665397733449936,-0.0720120519399643,-77.8535385131836,1
60078,-0.097438745200634,-0.5959534645080566,-0.020311711356043816,0.10692942142486572,0.14708729088306427,-77.83535766601562,1
60089,-0.09721199423074722,-0.5960397124290466,-0.020314939320087433,0.10733576864004135,0.146278515458107,-77.76304626464844,1
60098,-0.09246942400932312,-0.597590982913971,-0.01992587000131607,-0.03934204578399658,0.056818533688783646,-77.9342269897461,1
60108,-0.09712424874305725,-0.5954647660255432,-0.020309649407863617,0.18248894810676575,0.2282940149307251,-77.9061050415039,1
60118,-0.09697036445140839,-0.5954988598823547,-0.020304659381508827,0.1818627417087555,0.22827069461345673,-77.83358764648438,1
60128,-0.09253615885972977,-0.5972151756286621,-0.020328165963292122,-0.028800785541534424,0.08207526057958603,-78.00599670410156,1
60140,-0.09213089197874069,-0.5973634123802185,-0.020311642438173294,-0.029112406075000763,0.08282341808080673,-77.93342590332031,1
60148,-0.09710074216127396,-0.5956873297691345,-0.02013690210878849,0.13377797603607178,0.1870683878660202,-77.89225006103516,1
60158,-0.09283389151096344,-0.5973373055458069,-0.02009708061814308,-0.04678649082779884,0.06317498534917831,-78.0580062866211,1
60168,-0.09239093959331512,-0.5975196361541748,-0.020058339461684227,-0.0472601018846035,0.06291466951370239,-77.98463439941406,1
60178,-0.09746729582548141,-0.5956690311431885,-0.020067567005753517,0.1971813589334488,0.22662195563316345,-77.9509506225586,1
60190,-0.09730833768844604,-0.5957446098327637,-0.020032020285725594,0.19690319895744324,0.22578619420528412,-77.87767791748047,1
60198,-0.09278761595487595,-0.5976002812385559,-0.020026225596666336,0.08031179755926132,0.13573074340820312,-78.03699493408203,1
60208,-0.09775036573410034,-0.5960356593132019,-0.019797326996922493,0.2820959985256195,0.26434406638145447,-77.9985580444336,1
60218,-0.09768040478229523,-0.5961073637008667,-0.01974339596927166,0.28078752756118774,0.2631116211414337,-77.92707824707031,1
60228,-0.09342475235462189,-0.5979304909706116,-0.019833922386169434,0.10320279747247696,0.129574254155159,-78.08992767333984,1
60240,-0.09312207996845245,-0.5981156229972839,-0.019778095185756683,0.10306122153997421,0.1282789558172226,-78.01849365234375,1
60248,-0.09769096970558167,-0.5966705083847046,-0.01955718919634819,0.2317364364862442,0.21157310903072357,-77.96672821044922,1
60258,-0.0934755727648735,-0.5982306599617004,-0.019300132989883423,0.07321027666330338,0.10651619732379913,-78.13555145263672,1
60268,-0.09312435239553452,-0.5984507203102112,-0.019221220165491104,0.07438825070858002,0.10715766251087189,-78.06229400634766,1
60278,-0.09782199561595917,-0.5970593094825745,-0.01895507238805294,0.27310967445373535,0.22970423102378845,-78.00433349609375,1
60290,-0.09771709144115448,-0.5971977710723877,-0.018865518271923065,0.27317336201667786,0.2308565378189087,-77.93241119384766,1
60298,-0.09372890740633011,-0.5991982221603394,-0.019099917262792587,0.1824338585138321,0.14843964576721191,-78.09285736083984,1
60308,-0.09840450435876846,-0.5978339910507202,-0.018826698884367943,0.35709941387176514,0.2584005892276764,-78.04864501953125,1
60318,-0.098398856818676,-0.5979755520820618,-0.01872994750738144,0.3572189211845398,0.2594949007034302,-77.97621154785156,1
60328,-0.0943184345960617,-0.5997070670127869,-0.01861196756362915,0.19432063400745392,0.14190232753753662,-78.14360046386719,1
60340,-0.09409123659133911,-0.5999539494514465,-0.018505675718188286,0.19256824254989624,0.14128272235393524,-78.07121276855469,1
60348,-0.09842179715633392,-0.5983350872993469,-0.0185506921261549,0.29798591136932373,0.22643746435642242,-78.0179443359375,1
60358,-0.0944138839840889,-0.6000016331672668,-0.018354525789618492,0.15566018223762512,0.12868395447731018,-78.1882553100586,1
60368,-0.09409866482019424,-0.6003064513206482,-0.018227797001600266,0.15598426759243011,0.12811532616615295,-78.11602020263672,1
60378,-0.09846023470163345,-0.5985251665115356,-0.01841406710445881,0.26074424386024475,0.21889162063598633,-78.07025909423828,1
60390,-0.09831830859184265,-0.5987324118614197,-0.018309922888875008,0.25886648893356323,0.21885885298252106,-77.99795532226562,1
60398,-0.09388419985771179,-0.6003900170326233,-0.01789451390504837,0.11693630367517471,0.12658509612083435,-78.1608657836914,1
60408,-0.09824122488498688,-0.5981585383415222,-0.01851494610309601,0.273891806602478,0.2747592031955719,-78.10707092285156,1
60418,-0.09812517464160919,-0.59832364320755,-0.01843065395951271,0.2729606628417969,0.2759915888309479,-78.03497314453125,1
60428,-0.09404098987579346,-0.6001789569854736,-0.018449073657393456,0.1905037760734558,0.2060593217611313,-78.1967544555664,1
60438,-0.0938010960817337,-0.6004195213317871,-0.018358269706368446,0.1903272271156311,0.20786802470684052,-78.12451934814453,1
60448,-0.09831570088863373,-0.5982868075370789,-0.01883615367114544,0.326185941696167,0.3271554112434387,-78.06751251220703,1
60458,-0.09394576400518417,-0.5997615456581116,-0.018351826816797256,0.17658890783786774,0.23371775448322296,-78.2261962890625,1
60468,-0.09369157254695892,-0.5999819040298462,-0.01824553869664669,0.1765260249376297,0.2339298576116562,-78.15421295166016,1
60478,-0.09807317703962326,-0.5976498126983643,-0.01887677051126957,0.2660863697528839,0.33212730288505554,-78.0983657836914,1
60488,-0.09795185178518295,-0.5977855324745178,-0.018795156851410866,0.26547548174858093,0.33276453614234924,-78.02703857421875,1
60498,-0.09358097612857819,-0.5993876457214355,-0.018446458503603935,0.13710439205169678,0.24728895723819733,-78.18657684326172,1
60508,-0.09778554737567902,-0.596872091293335,-0.019336435943841934,0.27520522475242615,0.39208081364631653,-78.1131820678711,1
60518,-0.09768545627593994,-0.596949577331543,-0.019285814836621284,0.2756817638874054,0.39354169368743896,-78.04082489013672,1
60528,-0.09344495832920074,-0.5985710024833679,-0.019096599891781807,0.19266128540039062,0.33195364475250244,-78.19880676269531,1
60540,-0.09321819245815277,-0.5987083315849304,-0.019032854586839676,0.1914258748292923,0.3329770267009735,-78.12518310546875,1
60548,-0.0978151261806488,-0.5963084101676941,-0.019658813253045082,0.3195542097091675,0.4522543251514435,-78.07449340820312,1
60558,-0.09346718341112137,-0.5980526804924011,-0.019654156640172005,0.18297527730464935,0.3483951985836029,-78.24088287353516,1
60568,-0.09322872757911682,-0.5981737375259399,-0.019614562392234802,0.18308031558990479,0.3476434648036957,-78.16817474365234,1
60578,-0.09786147624254227,-0.5957810878753662,-0.020188985392451286,0.2734087109565735,0.439363569021225,-78.1124496459961,1
60590,-0.09776031970977783,-0.5958144068717957,-0.020168127492070198,0.27338168025016785,0.4394402801990509,-78.04149627685547,1
60598,-0.09291499108076096,-0.597670316696167,-0.020051714032888412,0.13980619609355927,0.3406935930252075,-78.20499420166016,1
60608,-0.09757572412490845,-0.5957737565040588,-0.020202653482556343,0.2877591550350189,0.4552457332611084,-78.15196990966797,1
60618,-0.09749637544155121,-0.5957983136177063,-0.02017342671751976,0.28812262415885925,0.4557650089263916,-78.07892608642578,1
60628,-0.0927417054772377,-0.5976318120956421,-0.02003641612827778,0.2018008530139923,0.3865801990032196,-78.24021911621094,1
60640,-0.09252524375915527,-0.5977222919464111,-0.01999334990978241,0.202046200633049,0.38539960980415344,-78.16654205322266,1
60648,-0.09729418158531189,-0.595754086971283,-0.0201417226344347,0.33453047275543213,0.4873966574668884,-78.11334991455078,1
60658,-0.09245128184556961,-0.5976444482803345,-0.02002953551709652,0.24225354194641113,0.41471222043037415,-78.27460479736328,1
60668,-0.09245128184556961,-0.5976444482803345,-0.02002953551709652,0.24225354194641113,0.41471222043037415,-78.27460479736328,1
60678,-0.09744170308113098,-0.5957021713256836,-0.020083284005522728,0.391571581363678,0.5264744758605957,-78.21139526367188,1
60690,-0.0975840762257576,-0.5956308841705322,-0.019998760893940926,0.38975539803504944,0.5271654725074768,-78.06673431396484,1
60698,-0.09296032786369324,-0.5973896384239197,-0.01986868679523468,0.2533615827560425,0.4238924980163574,-78.23648071289062,1
60708,-0.09767388552427292,-0.5958638191223145,-0.01959136128425598,0.34606271982192993,0.4867003560066223,-78.16856384277344,1
60718,-0.09767493605613708,-0.5958734750747681,-0.019524501636624336,0.34637996554374695,0.4850482642650604,-78.09727478027344,1
60728,-0.09287931770086288,-0.5979169607162476,-0.01957876607775688,0.21771477162837982,0.38167858123779297,-78.25940704345703,1
60740,-0.09267707914113998,-0.5980260372161865,-0.019507627934217453,0.2170979380607605,0.3821808993816376,-78.18687438964844,1
60748,-0.097806915640831,-0.5963990092277527,-0.01927017606794834,0.36694175004959106,0.47903209924697876,-78.19801330566406,1
60758,-0.09783589839935303,-0.5964221954345703,-0.01918344758450985,0.366006076335907,0.4792832136154175,-78.12602996826172,1
60768,-0.09361890703439713,-0.5984435677528381,-0.01942325569689274,0.29401445388793945,0.4086054861545563,-78.29376983642578,1
60778,-0.09797145426273346,-0.5969172716140747,-0.019317319616675377,0.408821165561676,0.4930382966995239,-78.21797180175781,1
60788,-0.09805979579687119,-0.5969402194023132,-0.0192253515124321,0.4079783260822296,0.4925537705421448,-78.1460189819336,1
60798,-0.09382879734039307,-0.598567008972168,-0.019017713144421577,0.28222426772117615,0.39882856607437134,-78.304443359375,1
60808,-0.09803178906440735,-0.5972726941108704,-0.01866883412003517,0.3607369363307953,0.45408567786216736,-78.16914367675781,1
60818,-0.09803178906440735,-0.5972726941108704,-0.01866883412003517,0.3607369363307953,0.45408567786216736,-78.16914367675781,1
60828,-0.09411917626857758,-0.5991716980934143,-0.018873894587159157,0.25406235456466675,0.36242687702178955,-78.3271713256836,1
60838,-0.0939713716506958,-0.5993277430534363,-0.018756603822112083,0.25299572944641113,0.362055242061615,-78.25550079345703,1
60848,-0.09825646877288818,-0.5977922677993774,-0.018701063469052315,0.37701112031936646,0.45706412196159363,-78.1949462890625,1
60858,-0.0940982848405838,-0.5994284152984619,-0.018455134704709053,0.3009938895702362,0.39886003732681274,-78.35468292236328,1
60868,-0.09402432292699814,-0.599555253982544,-0.018321143463253975,0.2991597056388855,0.3988387882709503,-78.28240966796875,1
60878,-0.09807953238487244,-0.5978220105171204,-0.01850241981446743,0.40169867873191833,0.484849214553833,-78.21890258789062,1
60888,-0.09816879779100418,-0.5978697538375854,-0.018384883180260658,0.4012805223464966,0.4818927049636841,-78.14590454101562,1
60898,-0.0941222757101059,-0.5997240543365479,-0.018474619835615158,0.28350630402565,0.382447749376297,-78.30440521240234,1
60908,-0.098234623670578,-0.5979801416397095,-0.018619941547513008,0.35680046677589417,0.4510831832885742,-78.1691665649414,1
60918,-0.098234623670578,-0.5979801416397095,-0.018619941547513008,0.35680046677589417,0.4510831832885742,-78.1691665649414,1
60928,-0.09397359937429428,-0.5997222661972046,-0.018466316163539886,0.2413153499364853,0.3622957468032837,-78.33958435058594,1
60938,-0.09381675720214844,-0.5998854637145996,-0.018346425145864487,0.24081164598464966,0.36274680495262146,-78.26602172851562,1
60948,-0.09799262136220932,-0.5977003574371338,-0.01892419159412384,0.35580793023109436,0.47856858372688293,-78.21058654785156,1
60958,-0.09384860098361969,-0.5995466113090515,-0.018805742263793945,0.2825372517108917,0.41732192039489746,-78.30435943603516,1
60968,-0.09384860098361969,-0.5995466113090515,-0.018805742263793945,0.2825372517108917,0.41732192039489746,-78.30435943603516,1
60978,-0.098258838057518,-0.5973341464996338,-0.019321301952004433,0.39238110184669495,0.5201423764228821,-78.23643493652344,1
60990,-0.09835650771856308,-0.5973453521728516,-0.0192546583712101,0.39041608572006226,0.5190367102622986,-78.16297912597656,1
60998,-0.0940413549542427,-0.5989704728126526,-0.019040141254663467,0.2643521726131439,0.42645499110221863,-78.3274917602539,1
61008,-0.09819108992815018,-0.5967535972595215,-0.01957811787724495,0.3354317247867584,0.5067955255508423,-78.18112182617188,1
61018,-0.09821635484695435,-0.5967718362808228,-0.01951797865331173,0.3355639576911926,0.5062355995178223,-78.1083984375,1
61028,-0.09351812303066254,-0.5986783504486084,-0.019434627145528793,0.21708045899868011,0.4140603542327881,-78.278076171875,1
61040,-0.09334635734558105,-0.5987913608551025,-0.01936504989862442,0.21617788076400757,0.4132530093193054,-78.20582580566406,1
61048,-0.0982157364487648,-0.596423327922821,-0.01985214091837406,0.34487250447273254,0.5307417511940002,-78.13077545166016,1
61058,-0.0982157364487648,-0.596423327922821,-0.01985214091837406,0.34487250447273254,0.5307417511940002,-78.13077545166016,1
61068,-0.09344479441642761,-0.5982691645622253,-0.01969323307275772,0.2632693946361542,0.46628472208976746,-78.30250549316406,1
61078,-0.0981745719909668,-0.5962323546409607,-0.01991221308708191,0.3805549144744873,0.5651692748069763,-78.2422866821289,1
61088,-0.09827600419521332,-0.5961905717849731,-0.01986842416226864,0.3795672059059143,0.5674164295196533,-78.16997528076172,1
61098,-0.09318388253450394,-0.597933828830719,-0.019498789682984352,0.2352016121149063,0.46298927068710327,-78.3407974243164,1
61108,-0.09305267035961151,-0.5979902744293213,-0.019427353516221046,0.234364852309227,0.4632028043270111,-78.26844787597656,1
61118,-0.09756709635257721,-0.595754086971283,-0.01984296925365925,0.310951828956604,0.5390040874481201,-78.20565032958984,1
61128,-0.0931529626250267,-0.5976043343544006,-0.01993260718882084,0.1972242295742035,0.4442027807235718,-78.36638641357422,1
61138,-0.09296366572380066,-0.5976710915565491,-0.019876006990671158,0.19626449048519135,0.44372427463531494,-78.29240417480469,1
61148,-0.0977509394288063,-0.5959267616271973,-0.019800396636128426,0.33115753531455994,0.5434448719024658,-78.23350524902344,1
61158,-0.097774438560009,-0.5959041118621826,-0.01973983459174633,0.33011311292648315,0.5442354679107666,-78.16158294677734,1
61168,-0.09286268055438995,-0.5977498292922974,-0.01951310597360134,0.2460680902004242,0.4780103266239166,-78.3203353881836,1
61178,-0.09753093868494034,-0.5959596633911133,-0.01948435790836811,0.3635227084159851,0.5682710409164429,-78.24141693115234,1
61188,-0.09760845452547073,-0.5959177613258362,-0.0194065161049366,0.3633671700954437,0.5682332515716553,-78.17010498046875,1
61198,-0.09334364533424377,-0.5977845191955566,-0.019556816667318344,0.2429502159357071,0.46825191378593445,-78.3457260131836,1
61208,-0.09322617202997208,-0.5978447794914246,-0.01947690360248089,0.24215810000896454,0.46885186433792114,-78.27287292480469,1
61218,-0.09784794598817825,-0.5961068272590637,-0.019402019679546356,0.3239816725254059,0.5320351719856262,-78.20132446289062,1
61228,-0.09329905360937119,-0.597939133644104,-0.01933056116104126,0.2049393206834793,0.4380027651786804,-78.36508178710938,1
61238,-0.09312067925930023,-0.5980326533317566,-0.019234975799918175,0.20442695915699005,0.43776649236679077,-78.29247283935547,1
61248,-0.09773272275924683,-0.59649258852005,-0.018935436382889748,0.33529382944107056,0.5272301435470581,-78.14805603027344,1
61258,-0.09773272275924683,-0.59649258852005,-0.018935436382889748,0.33529382944107056,0.5272301435470581,-78.14805603027344,1
61268,-0.09337380528450012,-0.5984551310539246,-0.018878145143389702,0.26462581753730774,0.4647379517555237,-78.2351303100586,1
61278,-0.0977037250995636,-0.596808910369873,-0.018920086324214935,0.3707824945449829,0.5439506769180298,-78.24394989013672,1
61288,-0.09785989671945572,-0.596817135810852,-0.018704911693930626,0.37002044916152954,0.5424824357032776,-78.09981536865234,1
61298,-0.09377013891935349,-0.5988296270370483,-0.01916680485010147,0.2584860026836395,0.439096063375473,-78.34965515136719,1
61308,-0.09806863963603973,-0.5973392724990845,-0.018994176760315895,0.33540359139442444,0.498935729265213,-78.20328521728516,1
61318,-0.09806863963603973,-0.5973392724990845,-0.018994176760315895,0.33540359139442444,0.498935729265213,-78.20328521728516,1
61328,-0.09359264373779297,-0.5992960929870605,-0.01884027011692524,0.22238224744796753,0.40975049138069153,-78.30158233642578,1
61338,-0.09342717379331589,-0.5994383692741394,-0.018735026940703392,0.22182822227478027,0.410484254360199,-78.2302017211914,1
61348,-0.09783884137868881,-0.5977384448051453,-0.018762994557619095,0.33996081352233887,0.5023823380470276,-78.16189575195312,1
61358,-0.09360459446907043,-0.5994459986686707,-0.018588673323392868,0.26810118556022644,0.44382819533348083,-78.32916259765625,1
61368,-0.09351180493831635,-0.5995593070983887,-0.01847195439040661,0.2666519582271576,0.44164952635765076,-78.25613403320312,1
61378,-0.09814994782209396,-0.597560465335846,-0.01867102086544037,0.3763248920440674,0.5338032841682434,-78.18331909179688,1
61388,-0.09814994782209396,-0.597560465335846,-0.01867102086544037,0.3763248920440674,0.5338032841682434,-78.18331909179688,1
61398,-0.09391984343528748,-0.5994916558265686,-0.018802620470523834,0.25782275199890137,0.43292421102523804,-78.3529281616211,1
61408,-0.09381630271673203,-0.5996127128601074,-0.018699510022997856,0.25666236877441406,0.43192222714424133,-78.28096008300781,1
61418,-0.0979931429028511,-0.5975549221038818,-0.019114991649985313,0.3266724944114685,0.5027011632919312,-78.2037353515625,1
61428,-0.09366599470376968,-0.599132776260376,-0.01880902610719204,0.21318039298057556,0.42114412784576416,-78.37702941894531,1
61438,-0.09349431842565536,-0.5992547273635864,-0.018700847402215004,0.2129998654127121,0.4191792905330658,-78.30548858642578,1
61448,-0.09791312366724014,-0.5971135497093201,-0.019114762544631958,0.33442768454551697,0.5308634638786316,-78.2289047241211,1
61458,-0.09794041514396667,-0.5971243381500244,-0.019028648734092712,0.33399149775505066,0.5314252376556396,-78.15597534179688,1
61468,-0.09372497349977493,-0.5987029671669006,-0.018778856843709946,0.2611342668533325,0.47728338837623596,-78.31476593017578,1
61478,-0.09802256524562836,-0.5965361595153809,-0.019233589991927147,0.3663236200809479,0.5769147276878357,-78.24861145019531,1
61488,-0.09811044484376907,-0.596502423286438,-0.019146732985973358,0.3654249310493469,0.5772762298583984,-78.17636108398438,1
61498,-0.09390026330947876,-0.5984445214271545,-0.019383953884243965,0.24936552345752716,0.4743788540363312,-78.3369369506836,1
61508,-0.09803733229637146,-0.5964798331260681,-0.01970703899860382,0.32137972116470337,0.5465372204780579,-78.2623062133789,1
61518,-0.0980556383728981,-0.596473217010498,-0.019636856392025948,0.32033926248550415,0.5456286072731018,-78.18994903564453,1
61528,-0.09330277144908905,-0.5982931852340698,-0.019481321796774864,0.19709482789039612,0.4502767324447632,-78.43080139160156,1
61538,-0.09313290566205978,-0.5983644127845764,-0.0193981621414423,0.1976175159215927,0.4504653513431549,-78.4315185546875,1
61548,-0.0978410616517067,-0.5963224172592163,-0.01959552988409996,0.32927581667900085,0.5596441030502319,-78.41175842285156,1
61558,-0.09789696335792542,-0.5962710976600647,-0.01952834241092205,0.334196001291275,0.559010922908783,-78.4124526977539,1
61568,-0.09332694858312607,-0.5978999733924866,-0.019249167293310165,0.25648099184036255,0.4965537190437317,-78.63580322265625,1
61578,-0.09778695553541183,-0.5959232449531555,-0.019410215318202972,0.36310169100761414,0.5917140245437622,-78.63133239746094,1
61588,-0.09792408347129822,-0.595809817314148,-0.019320880994200706,0.36595624685287476,0.5989282727241516,-78.63985443115234,1
61598,-0.09311085939407349,-0.5978097915649414,-0.019398720934987068,0.2305324822664261,0.48748236894607544,-78.87517547607422,1
61608,-0.09782671928405762,-0.5959110260009766,-0.019356513395905495,0.3342805504798889,0.562049388885498,-78.87662506103516,1
61618,-0.0979028195142746,-0.5958158373832703,-0.019237926229834557,0.2993386685848236,0.5270953178405762,-78.87013244628906,1
61628,-0.093364417552948,-0.5979017019271851,-0.019529186189174652,0.1548023372888565,0.41954314708709717,-79.00163269042969,1
61638,-0.09325771778821945,-0.5978969931602478,-0.019422391429543495,0.2377294898033142,0.5225957036018372,-78.8104476928711,1
61648,-0.09768429398536682,-0.5960283875465393,-0.019469108432531357,0.3860469460487366,0.5726770162582397,-78.60723876953125,1
61658,-0.09779230505228043,-0.5959108471870422,-0.019283700734376907,0.2786988615989685,0.5084366798400879,-78.44548797607422,1
61668,-0.09311464428901672,-0.597508430480957,-0.018715545535087585,0.028373774141073227,0.3965614438056946,-78.49479675292969,1
61678,-0.09774549305438995,-0.5959978103637695,-0.017921827733516693,-0.10337705910205841,0.4014973044395447,-78.28164672851562,1
61688,-0.09792420268058777,-0.5958419442176819,-0.017140686511993408,-0.39758265018463135,0.4054129123687744,-78.09902954101562,1
61698,-0.09330502152442932,-0.5975324511528015,-0.016019757837057114,-0.8598125576972961,0.40490269660949707,-78.11827850341797,1
61708,-0.09758169203996658,-0.5964066386222839,-0.01406689453870058,-1.099370002746582,0.6021797060966492,-77.88172149658203,1
61718,-0.0976337119936943,-0.5962737202644348,-0.012244322337210178,-1.2995853424072266,0.7758523225784302,-77.681640625,1
61728,-0.09277397394180298,-0.5978138446807861,-0.00976482406258583,-1.4972121715545654,0.8493116497993469,-77.6952133178711,1
61738,-0.09256156533956528,-0.5977173447608948,-0.00714999670162797,-1.4453010559082031,0.9924466013908386,-77.51980590820312,1
61748,-0.09660849720239639,-0.5957174897193909,-0.004425631370395422,-1.1886266469955444,1.1956411600112915,-77.2728271484375,1
61758,-0.09654983878135681,-0.5954537391662598,-0.001054177526384592,-1.0296440124511719,1.215622901916504,-77.0999984741211,1
61768,-0.09106534719467163,-0.5964454412460327,0.0037149619311094284,-0.9410232901573181,1.1593109369277954,-77.14728546142578,1
61778,-0.09537855535745621,-0.5951305627822876,0.008467171341180801,-0.5776253938674927,1.2100886106491089,-76.94444274902344,1
61788,-0.09531579911708832,-0.5947561860084534,0.012962168082594872,-0.3349383771419525,1.1722131967544556,-76.7823257446289,1
61798,-0.09104359149932861,-0.5974700450897217,0.01601024717092514,-0.23286576569080353,0.9618237614631653,-76.82513427734375,1
61808,-0.09077319502830505,-0.5972167253494263,0.020959630608558655,-0.08481694757938385,0.877723753452301,-76.71304321289062,1
61818,-0.09547165781259537,-0.5965845584869385,0.02749248966574669,0.07077500224113464,0.7860260605812073,-76.52991485595703,1
61828,-0.09061811864376068,-0.5978312492370605,0.03327734395861626,-0.13384495675563812,0.5355180501937866,-76.63580322265625,1
61838,-0.09030529111623764,-0.597610354423523,0.038911253213882446,-0.2951774001121521,0.37605026364326477,-76.56107330322266,1
61848,-0.09315197914838791,-0.5945672392845154,0.04310845583677292,-0.41180339455604553,0.3665978014469147,-76.41461181640625,1
61858,-0.092994824051857,-0.594171404838562,0.04891819879412651,-0.6172538995742798,0.23880241811275482,-76.34671783447266,1
61868,-0.08719135075807571,-0.5949957966804504,0.05601103603839874,-0.9092808365821838,0.07610934972763062,-76.47418975830078,1
61878,-0.09115629643201828,-0.5930787324905396,0.06200763210654259,-0.9278380274772644,0.07734707742929459,-76.34696960449219,1
61888,-0.0909872055053711,-0.5926231145858765,0.06806918233633041,-1.009480357170105,0.009682909585535526,-76.31159210205078,1
61898,-0.08741088956594467,-0.5962653756141663,0.07136889547109604,-1.0972422361373901,-0.22872909903526306,-76.47052001953125,1
61908,-0.08702908456325531,-0.5960306525230408,0.07729344815015793,-1.007085919380188,-0.24845395982265472,-76.43619537353516,1
61918,-0.0909339115023613,-0.5949777364730835,0.08388678729534149,-0.7480279207229614,-0.21220539510250092,-76.30020904541016,1
61928,-0.08578725904226303,-0.596552312374115,0.08984357863664627,-0.65399569272995,-0.2950848340988159,-76.4131088256836,1
61938,-0.08528973907232285,-0.5963894724845886,0.09572851657867432,-0.39403867721557617,-0.25157248973846436,-76.37843322753906,1
61948,-0.08820422738790512,-0.5925623178482056,0.09915398061275482,-0.044701188802719116,-0.018734002485871315,-76.27079010009766,1
61958,-0.08786453306674957,-0.5922031998634338,0.10476908832788467,0.21250537037849426,0.04903962090611458,-76.23739624023438,1
61968,-0.08151470124721527,-0.5927922129631042,0.11196302622556686,0.3216463029384613,0.06402228027582169,-76.38370513916016,1
61978,-0.08540316671133041,-0.5904176235198975,0.11697278916835785,0.6113505363464355,0.21977832913398743,-76.28440856933594,1
61988,-0.08509273082017899,-0.5899815559387207,0.12235351651906967,0.7184118628501892,0.25345760583877563,-76.2647933959961,1
61998,-0.0803014412522316,-0.5930776596069336,0.12541282176971436,0.6470195651054382,0.08591693639755249,-76.39417266845703,1
62008,-0.07980181276798248,-0.5928298234939575,0.13042312860488892,0.6245293617248535,0.04756743088364601,-76.38298797607422,1
62018,-0.08428763598203659,-0.5918571352958679,0.13629677891731262,0.6543876528739929,0.01834564283490181,-76.25131225585938,1
62028,-0.07842501252889633,-0.5935342311859131,0.141285702586174,0.40729621052742004,-0.1927974671125412,-76.40157318115234,1
62038,-0.07787802815437317,-0.5933710336685181,0.14595049619674683,0.29967713356018066,-0.28484484553337097,-76.37718963623047,1
62048,-0.08141305297613144,-0.5901280045509338,0.14878690242767334,0.3083975315093994,-0.2308083325624466,-76.24125671386719,1
62058,-0.08107155561447144,-0.5898088812828064,0.1530977338552475,0.23458288609981537,-0.3237493336200714,-76.2098159790039,1
62068,-0.07442251592874527,-0.5909871459007263,0.15851308405399323,0.09335242211818695,-0.4503169059753418,-76.30687713623047,1
62078,-0.07877657562494278,-0.5887712240219116,0.1622939109802246,0.21818304061889648,-0.3862074613571167,-76.18087768554688,1
62088,-0.07847169786691666,-0.588422954082489,0.16625557839870453,0.26877039670944214,-0.3955119550228119,-76.15933990478516,1
62098,-0.07315343618392944,-0.5913220643997192,0.16843506693840027,0.2418968230485916,-0.5335739850997925,-76.31534576416016,1
62108,-0.07263076305389404,-0.5911540985107422,0.17204156517982483,0.367900013923645,-0.4989716410636902,-76.29937744140625,1
62118,-0.07736910134553909,-0.5898464918136597,0.17614781856536865,0.5943069458007812,-0.411462664604187,-76.18855285644531,1
62128,-0.0714402124285698,-0.5917873978614807,0.17948153614997864,0.5795632600784302,-0.48059263825416565,-76.29925537109375,1
62138,-0.07086306065320969,-0.5917117595672607,0.1827055811882019,0.677042543888092,-0.44269222021102905,-76.27477264404297,1
62148,-0.07461842894554138,-0.5889184474945068,0.18446917831897736,0.8578536510467529,-0.2724342346191406,-76.1511001586914,1
62158,-0.0742555484175682,-0.5887201428413391,0.18735913932323456,0.8959935307502747,-0.2307906150817871,-76.12149810791016,1
62168,-0.06788457930088043,-0.5902655124664307,0.19085867702960968,0.8170648217201233,-0.26044222712516785,-76.2410888671875,1
62178,-0.07247330248355865,-0.5884590148925781,0.19353903830051422,0.9311665892601013,-0.14234580099582672,-76.130126953125,1
62188,-0.07219525426626205,-0.5882552266120911,0.19609268009662628,0.9014361500740051,-0.13533636927604675,-76.11112976074219,1
62198,-0.06648721545934677,-0.5907843112945557,0.19769799709320068,0.7301439642906189,-0.2813793420791626,-76.22432708740234,1
62209,-0.0660063698887825,-0.5907289385795593,0.1999763548374176,0.675302267074585,-0.3148871660232544,-76.214599609375,1
62218,-0.07028935849666595,-0.5891767144203186,0.2022251933813095,0.7015079259872437,-0.2943512797355652,-76.09693145751953,1
62228,-0.064185231924057,-0.5909403562545776,0.204727441072464,0.5262055397033691,-0.425875723361969,-76.23080444335938,1
62238,-0.06358864158391953,-0.590948224067688,0.20693349838256836,0.5088247060775757,-0.4446108639240265,-76.21607208251953,1
62248,-0.06759937107563019,-0.5890981554985046,0.20888501405715942,0.5991625189781189,-0.3756960332393646,-76.08370971679688,1
62259,-0.06721148639917374,-0.5890555381774902,0.21069708466529846,0.6319394707679749,-0.3506145775318146,-76.05745697021484,1
62268,-0.06074121966958046,-0.5911548733711243,0.21271473169326782,0.5342556238174438,-0.42045852541923523,-76.17086029052734,1
62278,-0.06493578851222992,-0.5884062647819519,0.21326757967472076,0.7293922901153564,-0.20397590100765228,-76.06183624267578,1
62288,-0.0645560547709465,-0.5883414149284363,0.21483369171619415,0.7883325815200806,-0.1349540501832962,-76.03917694091797,1
62298,-0.05829557403922081,-0.5900496244430542,0.21698302030563354,0.7502915859222412,-0.1424839347600937,-76.17550659179688,1
62309,-0.05773324519395828,-0.5900581479072571,0.21862652897834778,0.7829126119613647,-0.09740302711725235,-76.15547180175781,1
62318,-0.06228352338075638,-0.587700366973877,0.219310000538826,0.9174267053604126,0.038401827216148376,-76.00955200195312,1
62328,-0.05580166354775429,-0.5895739793777466,0.221391499042511,0.8273376822471619,-0.025766639038920403,-76.10838317871094,1
62338,-0.055386390537023544,-0.5895471572875977,0.22275201976299286,0.812493622303009,-0.033731963485479355,-76.08441925048828,1
62348,-0.05987771227955818,-0.5874472856521606,0.22355259954929352,0.9114251732826233,0.059401173144578934,-75.9374771118164,1
62358,-0.059693556278944016,-0.5873274803161621,0.22483156621456146,0.886430561542511,0.04106089100241661,-75.90723419189453,1
62368,-0.053569577634334564,-0.5897247791290283,0.2257707267999649,0.7229530215263367,-0.11574316769838333,-76.0315170288086,1
62378,-0.057859692722558975,-0.5877814292907715,0.2265404462814331,0.7709758281707764,-0.07661557197570801,-75.8871841430664,1
62388,-0.05760977789759636,-0.5877280831336975,0.22774221003055573,0.7454267740249634,-0.10274560749530792,-75.84942626953125,1
62398,-0.05105195567011833,-0.5896033048629761,0.2295791357755661,0.5884593725204468,-0.22720825672149658,-75.96617889404297,1
62408,-0.050583235919475555,-0.5896557569503784,0.230785071849823,0.5920677781105042,-0.2206731140613556,-75.93436431884766,1
62418,-0.05493970215320587,-0.5869404673576355,0.230674609541893,0.7253888249397278,-0.05650351196527481,-75.78113555908203,1
62428,-0.048291902989149094,-0.5885159969329834,0.2328563928604126,0.6551192998886108,-0.08561988174915314,-75.86115264892578,1
62438,-0.04790174961090088,-0.5884973406791687,0.23403812944889069,0.7003583908081055,-0.0461760051548481,-75.83309936523438,1
62448,-0.0525268092751503,-0.5861086845397949,0.2343856394290924,0.8617673516273499,0.10945099592208862,-75.68778228759766,1
62459,-0.05236074700951576,-0.5859878659248352,0.23553119599819183,0.9047927856445312,0.14688943326473236,-75.65509796142578,1
62468,-0.04572661966085434,-0.5881137251853943,0.23698367178440094,0.7807378768920898,0.04467131942510605,-75.7874755859375,1
62478,-0.05007113516330719,-0.5861072540283203,0.23764446377754211,0.8618686199188232,0.12286514788866043,-75.66915893554688,1
62488,-0.04982246458530426,-0.5860341191291809,0.23880833387374878,0.8404264450073242,0.10105876624584198,-75.64433288574219,1
62498,-0.04333540052175522,-0.5878414511680603,0.2406463772058487,0.6715019941329956,-0.030927618965506554,-75.73200225830078,1
62509,-0.04287683218717575,-0.5878655314445496,0.24184633791446686,0.6390677094459534,-0.06373204290866852,-75.71427154541016,1
62518,-0.04749737307429314,-0.5852577090263367,0.24193476140499115,0.7358433604240417,0.0479026660323143,-75.58152770996094,1
62528,-0.040654756128787994,-0.5870825052261353,0.2440197914838791,0.630923330783844,-0.02656710334122181,-75.69729614257812,1
62538,-0.040286120027303696,-0.5870476961135864,0.24522744119167328,0.6433943510055542,-0.020007796585559845,-75.69685363769531,1
62548,-0.045373156666755676,-0.5849803686141968,0.24607862532138824,0.8033633828163147,0.1086275577545166,-75.5921401977539,1
62559,-0.045373156666755676,-0.5849803686141968,0.24607862532138824,0.8033633828163147,0.1086275577545166,-75.5921401977539,1
62568,-0.03882066532969475,-0.5874868631362915,0.24808639287948608,0.7324681878089905,0.004963023122400045,-75.69530487060547,1
62578,-0.04372435808181763,-0.5857159495353699,0.24913761019706726,0.8627423048019409,0.10265198349952698,-75.58272552490234,1
62588,-0.04354012757539749,-0.585669219493866,0.2503434121608734,0.8868294358253479,0.11435574293136597,-75.57865142822266,1
62598,-0.037009745836257935,-0.5878523588180542,0.25185427069664,0.7453076839447021,-0.007610403001308441,-75.72977447509766,1
62609,-0.037009745836257935,-0.5878523588180542,0.25185427069664,0.7453076839447021,-0.007610403001308441,-75.72977447509766,1
62618,-0.04164057597517967,-0.5858116149902344,0.2537441849708557,0.8596669435501099,0.11487523466348648,-75.59785461425781,1
62628,-0.03495411202311516,-0.5878247618675232,0.255618691444397,0.7282781004905701,0.0336640290915966,-75.71683502197266,1
62638,-0.034664567559957504,-0.5878587365150452,0.2568507194519043,0.7076842188835144,0.04695466160774231,-75.72880554199219,1
62648,-0.039600636810064316,-0.5858160257339478,0.2575618028640747,0.8117258548736572,0.15850026905536652,-75.60092163085938,1
62659,-0.03955606371164322,-0.585750937461853,0.25875526666641235,0.7932806611061096,0.1560271829366684,-75.60578155517578,1
62668,-0.033204466104507446,-0.5883951187133789,0.2596191465854645,0.6298624873161316,-0.008170145563781261,-75.73684692382812,1
62678,-0.038044799119234085,-0.5867823958396912,0.2606494724750519,0.705385684967041,0.043268125504255295,-75.62399291992188,1
62688,-0.037928156554698944,-0.586802065372467,0.26179933547973633,0.6871239542961121,0.031111616641283035,-75.62259674072266,1
62698,-0.031728990375995636,-0.5893435478210449,0.2627168595790863,0.533466100692749,-0.1113428920507431,-75.79021453857422,1
62709,-0.03139084577560425,-0.5894940495491028,0.2638322114944458,0.5091373324394226,-0.11613816767930984,-75.79803466796875,1
62718,-0.036256179213523865,-0.5874069333076477,0.26420846581459045,0.6191014051437378,0.017426269128918648,-75.66876983642578,1
62728,-0.02983570285141468,-0.5892398953437805,0.26617109775543213,0.5028517842292786,-0.04660497605800629,-75.79933166503906,1
62738,-0.0296003594994545,-0.5893415808677673,0.26724544167518616,0.4957735240459442,-0.025226974859833717,-75.81094360351562,1
62748,-0.0344841331243515,-0.5872755646705627,0.267623633146286,0.6072381734848022,0.10622788220643997,-75.7251968383789,1
62759,-0.03447466343641281,-0.5872774124145508,0.26862862706184387,0.5991418957710266,0.13155147433280945,-75.73387908935547,1
62768,-0.028696568682789803,-0.5900234580039978,0.26897209882736206,0.4608522057533264,0.01051545049995184,-75.85687255859375,1
62778,-0.03319939598441124,-0.5883533954620361,0.26951584219932556,0.5384408831596375,0.08970127254724503,-75.7476577758789,1
62788,-0.03312303498387337,-0.5884295105934143,0.2704300880432129,0.5210018157958984,0.07458898425102234,-75.75698852539062,1
62798,-0.0269025806337595,-0.5907977223396301,0.2714320421218872,0.3574705719947815,-0.07366834580898285,-75.90872192382812,1
62809,-0.0269025806337595,-0.5907977223396301,0.2714320421218872,0.3574705719947815,-0.07366834580898285,-75.90872192382812,1
62818,-0.03155096247792244,-0.5883812308311462,0.2718866467475891,0.4572710692882538,0.05400272458791733,-75.82279205322266,1
62828,-0.025461019948124886,-0.5900234580039978,0.27365559339523315,0.35171541571617126,-0.003955646883696318,-75.98164367675781,1
62838,-0.02526332437992096,-0.59012770652771,0.27449437975883484,0.35541394352912903,0.01821872405707836,-76.01026916503906,1
62848,-0.029616519808769226,-0.5878864526748657,0.27425459027290344,0.4719516932964325,0.15888582170009613,-75.92807006835938,1
62859,-0.023812387138605118,-0.5901793241500854,0.27493295073509216,0.33066508173942566,0.034581366926431656,-76.06278228759766,1
62868,-0.023578450083732605,-0.5902987718582153,0.2757018208503723,0.33015117049217224,0.04653115198016167,-76.09199523925781,1
62878,-0.02807825803756714,-0.5882056951522827,0.2756146788597107,0.4008905291557312,0.13392344117164612,-76.01012420654297,1
62888,-0.027999291196465492,-0.5882399678230286,0.27633658051490784,0.377947598695755,0.12190734595060349,-76.03135681152344,1
62898,-0.02169906720519066,-0.5902420878410339,0.2776879072189331,0.21252313256263733,-0.010469083674252033,-76.14258575439453,1
62909,-0.02169906720519066,-0.5902420878410339,0.2776879072189331,0.21252313256263733,-0.010469083674252033,-76.14258575439453,1
62918,-0.026032160967588425,-0.5875678658485413,0.2769114673137665,0.3200654089450836,0.12409195303916931,-76.05023956298828,1
62928,-0.0201848354190588,-0.5895244479179382,0.27787408232688904,0.21171987056732178,0.022230133414268494,-76.21549224853516,1
62938,-0.01975161023437977,-0.5896270275115967,0.2792038917541504,0.23214386403560638,0.007835548371076584,-76.25310516357422,1
62948,-0.024607622995972633,-0.5873236060142517,0.2782331705093384,0.35499307513237,0.12925681471824646,-76.13959503173828,1
62959,-0.024609068408608437,-0.5872603058815002,0.27884507179260254,0.3856634795665741,0.13504160940647125,-76.152587890625,1
62968,-0.018314387649297714,-0.5891076326370239,0.28064796328544617,0.29561907052993774,0.02991446666419506,-76.30826568603516,1
62978,-0.022851113229990005,-0.5870099067687988,0.2805056571960449,0.39981094002723694,0.11306124925613403,-76.2064437866211,1
62988,-0.022764092311263084,-0.5869686603546143,0.28111758828163147,0.4122956693172455,0.10490230470895767,-76.2148208618164,1
62998,-0.016754383221268654,-0.58924800157547,0.28172674775123596,0.2774728238582611,-0.031907569617033005,-76.37132263183594,1
63009,-0.016754383221268654,-0.58924800157547,0.28172674775123596,0.2774728238582611,-0.031907569617033005,-76.37132263183594,1
63018,-0.02126442827284336,-0.58688884973526,0.28186458349227905,0.4047621786594391,0.05995196849107742,-76.26473999023438,1
63028,-0.01503375917673111,-0.5888437032699585,0.2824569642543793,0.3052048683166504,-0.022127985954284668,-76.41268157958984,1
63038,-0.01480801310390234,-0.5888605713844299,0.2830698788166046,0.3143092393875122,-0.04429536685347557,-76.427978515625,1
63048,-0.019558807834982872,-0.5867050290107727,0.28286027908325195,0.4528774917125702,0.046850234270095825,-76.33737182617188,1
63059,-0.019557153806090355,-0.5866172313690186,0.28343525528907776,0.47089019417762756,0.025542007759213448,-76.34445190429688,1
63068,-0.01318684034049511,-0.5885800719261169,0.2845137119293213,0.33724743127822876,-0.11719520390033722,-76.4964828491211,1
63078,-0.017976118251681328,-0.5867235064506531,0.28466346859931946,0.46144041419029236,-0.03823520988225937,-76.3960952758789,1
63088,-0.017881052568554878,-0.5866836905479431,0.2852822542190552,0.4815053641796112,-0.03991534933447838,-76.40623474121094,1
63098,-0.011816401034593582,-0.588705837726593,0.2862257659435272,0.34379658102989197,-0.1596260517835617,-76.54736328125,1
63110,-0.011494569480419159,-0.5887789726257324,0.28687068819999695,0.35100317001342773,-0.1585014909505844,-76.56842803955078,1
63118,-0.016404414549469948,-0.5867123007774353,0.2867978513240814,0.49909907579421997,-0.0244608074426651,-76.4710922241211,1
63128,-0.01040610857307911,-0.5888066291809082,0.28767871856689453,0.40800318121910095,-0.10629008710384369,-76.58087921142578,1
63138,-0.010196582414209843,-0.5888504385948181,0.28834059834480286,0.4229060411453247,-0.09486442804336548,-76.59251403808594,1
63148,-0.015005846507847309,-0.5872084498405457,0.28871670365333557,0.5859946012496948,0.019505538046360016,-76.48253631591797,1
63160,-0.015026947483420372,-0.5871714949607849,0.2893821895122528,0.6248425841331482,0.029673999175429344,-76.49261474609375,1
63168,-0.00916978158056736,-0.5894546508789062,0.28994879126548767,0.5195128917694092,-0.08960389345884323,-76.65613555908203,1
63178,-0.013964773155748844,-0.5879054069519043,0.290386825799942,0.6553165316581726,-0.005485059227794409,-76.5877685546875,1
63188,-0.01391915138810873,-0.5879390835762024,0.2910611629486084,0.6748714447021484,-0.003238628152757883,-76.60664367675781,1
63198,-0.008009313605725765,-0.5902026295661926,0.2917895019054413,0.5367953181266785,-0.1263609677553177,-76.74516296386719,1
63210,-0.007745941169559956,-0.5903575420379639,0.2924715578556061,0.5255917310714722,-0.11982461810112,-76.76170349121094,1
63218,-0.012477961368858814,-0.5885788202285767,0.2925378978252411,0.6457511782646179,0.01658013090491295,-76.648193359375,1
63228,-0.006933399476110935,-0.5906105637550354,0.2934245467185974,0.5271636843681335,-0.04942777380347252,-76.7475814819336,1
63238,-0.006792647764086723,-0.5907405018806458,0.2940995395183563,0.5172969698905945,-0.026663990691304207,-76.75660705566406,1
63248,-0.011422226205468178,-0.5889977216720581,0.29417315125465393,0.645004391670227,0.10575395077466965,-76.64800262451172,1
63260,-0.011507071554660797,-0.5890365242958069,0.2948170006275177,0.6617270708084106,0.13470424711704254,-76.65471649169922,1
63268,-0.00611566286534071,-0.5913220047950745,0.29527899622917175,0.539618194103241,0.0303591787815094,-76.76924896240234,1
63278,-0.010674671269953251,-0.5896203517913818,0.2953653037548065,0.6568816304206848,0.1479722112417221,-76.67352294921875,1
63288,-0.01071165781468153,-0.5897066593170166,0.29597118496894836,0.6730244755744934,0.16052217781543732,-76.6817626953125,1
63298,-0.0047938222996890545,-0.5917524695396423,0.29699230194091797,0.5326952934265137,0.04429458826780319,-76.79896545410156,1
63309,-0.0046080779284238815,-0.591945469379425,0.2976331412792206,0.5326223373413086,0.043482717126607895,-76.81548309326172,1
63318,-0.009435494430363178,-0.5899165272712708,0.297453373670578,0.6055831909179688,0.1290571242570877,-76.7205581665039,1
63328,-0.004002366680651903,-0.591886579990387,0.29835984110832214,0.4544934630393982,0.013995297253131866,-76.85852813720703,1
63338,-0.003766760928556323,-0.5920990109443665,0.29901063442230225,0.44303661584854126,0.01536564901471138,-76.87820434570312,1
63348,-0.008401323109865189,-0.5898810029029846,0.29843974113464355,0.5779760479927063,0.17072831094264984,-76.7795181274414,1
63360,-0.008424188010394573,-0.5899571180343628,0.29901832342147827,0.5783864259719849,0.1899256408214569,-76.79833221435547,1
63368,-0.0028304944280534983,-0.5919872522354126,0.29994142055511475,0.508379340171814,0.14271992444992065,-76.93768310546875,1
63378,-0.007518424186855555,-0.5897234678268433,0.29934626817703247,0.6544873714447021,0.30886560678482056,-76.86634826660156,1
63388,-0.007634806912392378,-0.5897486209869385,0.29989513754844666,0.6815671920776367,0.35032448172569275,-76.88999938964844,1
63398,-0.0018212086288258433,-0.5918474197387695,0.3007027506828308,0.5428425669670105,0.25709882378578186,-77.03266906738281,1
63410,-0.0017066927393898368,-0.5919832587242126,0.3012697696685791,0.5344826579093933,0.2807771563529968,-77.06842041015625,1
63418,-0.006576741114258766,-0.5897145867347717,0.30074819922447205,0.5868687033653259,0.3825242817401886,-76.98028564453125,1
63428,-0.0011186642805114388,-0.5917832851409912,0.30139172077178955,0.39938753843307495,0.24877268075942993,-77.10443878173828,1
63438,-0.000964575563557446,-0.5919197201728821,0.3018999397754669,0.33860012888908386,0.2253989279270172,-77.1362075805664,1
63448,-0.005759730469435453,-0.589471697807312,0.3010491132736206,0.4195733964443207,0.3421468734741211,-77.04853057861328,1
63460,-0.005858983378857374,-0.5894614458084106,0.301482230424881,0.37697741389274597,0.31419432163238525,-77.07535552978516,1
63468,-0.00011248431837884709,-0.5915106534957886,0.3022383451461792,0.27481645345687866,0.21481870114803314,-77.2104721069336,1
63478,-0.0051594870164990425,-0.5893828868865967,0.3018324673175812,0.415110319852829,0.3227714002132416,-77.13363647460938,1
63488,-0.005349715705960989,-0.5893281102180481,0.3022506535053253,0.43933215737342834,0.31716281175613403,-77.1657485961914,1
63498,0.0002481199335306883,-0.5913674831390381,0.3028181791305542,0.33145469427108765,0.19158849120140076,-77.30990600585938,1
63510,0.0002887881128117442,-0.5914210677146912,0.3032477796077728,0.37786543369293213,0.2018047273159027,-77.35196685791016,1
63518,-0.005061983596533537,-0.5890914797782898,0.30274420976638794,0.5004739761352539,0.29661670327186584,-77.27947998046875,1
63528,0.0008885449497029185,-0.5912244319915771,0.30336862802505493,0.35431280732154846,0.1633240431547165,-77.43889617919922,1
63538,0.0009876277763396502,-0.5912908911705017,0.30378633737564087,0.3416884243488312,0.15784984827041626,-77.47560119628906,1
63548,-0.0039575533010065556,-0.5891464352607727,0.3032735288143158,0.453019380569458,0.26761192083358765,-77.41258239746094,1
