time.ms,stateEstimate.x,stateEstimate.y,stateEstimate.z,stabilizer.roll,stabilizer.pitch,stabilizer.yaw,pm.vbat
2114759,-0.3550322353839874,-0.7672589421272278,-0.03798045963048935,2.0957748889923096,0.32223331928253174,-83.27936553955078,1
2114769,-0.3546704351902008,-0.7673587203025818,-0.03791976720094681,2.095268964767456,0.3217555284500122,-83.20468139648438,1
2114779,-0.3610813021659851,-0.7648468613624573,-0.03749370202422142,2.2860121726989746,0.44572028517723083,-83.14990234375,1
2114789,-0.35511645674705505,-0.7671260237693787,-0.03774978220462799,2.169525623321533,0.3661620318889618,-83.31402587890625,1
2114799,-0.35486045479774475,-0.7671768069267273,-0.03766584023833275,2.169948101043701,0.36826595664024353,-83.2394790649414,1
2114809,-0.3613835275173187,-0.7644328474998474,-0.037366289645433426,2.346836566925049,0.49149200320243835,-83.16861724853516,1
2114819,-0.36139607429504395,-0.7643502354621887,-0.03726803883910179,2.3457112312316895,0.49256089329719543,-83.09183502197266,1
2114829,-0.3549706041812897,-0.7670931816101074,-0.03794311732053757,2.141716957092285,0.35095125436782837,-83.24510192871094,1
2114839,-0.36122941970825195,-0.76473468542099,-0.037405457347631454,2.2622082233428955,0.4318750500679016,-83.1805419921875,1
2114849,-0.36111414432525635,-0.7647171020507812,-0.03731916844844818,2.259873151779175,0.4332738518714905,-83.104248046875,1
2114859,-0.35506927967071533,-0.7672759890556335,-0.037908025085926056,2.0888876914978027,0.31539109349250793,-83.2636947631836,1
2114871,-0.3546920120716095,-0.7673844695091248,-0.037854306399822235,2.0871102809906006,0.31684428453445435,-83.1876220703125,1
2114879,-0.36122894287109375,-0.7646811604499817,-0.03749672323465347,2.2049381732940674,0.40452346205711365,-83.1280517578125,1
2114889,-0.35495954751968384,-0.767018735408783,-0.037739098072052,2.0240039825439453,0.29144924879074097,-83.29679870605469,1
2114899,-0.3544360399246216,-0.7671705484390259,-0.037674304097890854,2.022556781768799,0.2945971190929413,-83.22100830078125,1
2114909,-0.3609684705734253,-0.7646471261978149,-0.03720803186297417,2.2296502590179443,0.42974603176116943,-83.1610107421875,1
2114921,-0.3608038127422333,-0.7646433711051941,-0.0371185764670372,2.227893114089966,0.43037042021751404,-83.08427429199219,1
2114929,-0.35444915294647217,-0.7673662304878235,-0.037682000547647476,2.107020616531372,0.33709874749183655,-83.24230194091797,1
2114939,-0.3609781861305237,-0.7647716999053955,-0.037259992212057114,2.286006450653076,0.4578118622303009,-83.16859436035156,1
2114949,-0.3608956038951874,-0.7647445201873779,-0.03716113418340683,2.2844865322113037,0.45895305275917053,-83.0918960571289,1
2114959,-0.35485050082206726,-0.767214298248291,-0.03763823211193085,2.099602460861206,0.3339725434780121,-83.26611328125,1
2114971,-0.354483038187027,-0.767322838306427,-0.03756557032465935,2.09787917137146,0.33438166975975037,-83.18956756591797,1
2114979,-0.36082974076271057,-0.764628529548645,-0.03727111220359802,2.215289831161499,0.4227846562862396,-83.13235473632812,1
2114989,-0.36063647270202637,-0.7646380662918091,-0.037183672189712524,2.2135837078094482,0.42374947667121887,-83.05608367919922,1
2114999,-0.35441792011260986,-0.7672426700592041,-0.037737272679805756,2.04886531829834,0.31076672673225403,-83.21629333496094,1
2115009,-0.36094194650650024,-0.7645477056503296,-0.037433456629514694,2.2443888187408447,0.446321964263916,-83.15570068359375,1
2115021,-0.36078572273254395,-0.7645353674888611,-0.03735656291246414,2.242621898651123,0.4474267363548279,-83.0798568725586,1
2115029,-0.35450878739356995,-0.7671274542808533,-0.037829503417015076,2.1253373622894287,0.36090368032455444,-83.23100280761719,1
2115039,-0.35416752099990845,-0.7672078013420105,-0.037764839828014374,2.12379789352417,0.36309200525283813,-83.15415954589844,1
2115049,-0.3609601557254791,-0.7644768357276917,-0.037324562668800354,2.3015544414520264,0.48052671551704407,-83.10099792480469,1
2115059,-0.3549700677394867,-0.7670663595199585,-0.03799030929803848,2.1183249950408936,0.35038378834724426,-83.25875091552734,1
2115069,-0.35461893677711487,-0.7671582698822021,-0.03793451935052872,2.1163737773895264,0.35140299797058105,-83.18242645263672,1
2115079,-0.36090680956840515,-0.7647387981414795,-0.03741871565580368,2.233198642730713,0.4303497076034546,-83.11848449707031,1
2115089,-0.3607281744480133,-0.7647461891174316,-0.037340566515922546,2.2323851585388184,0.4319906532764435,-83.04306030273438,1
2115099,-0.3545149862766266,-0.7671675086021423,-0.03768506273627281,2.0663249492645264,0.3221522569656372,-83.20700073242188,1
2115109,-0.3609268069267273,-0.7646467685699463,-0.03726009279489517,2.2592577934265137,0.44954583048820496,-83.14725494384766,1
2115119,-0.36078399419784546,-0.7646329402923584,-0.03717390075325966,2.25716233253479,0.4520924985408783,-83.07113647460938,1
2115129,-0.35465914011001587,-0.7672714591026306,-0.03775938227772713,2.142451286315918,0.36367127299308777,-83.2215576171875,1
2115139,-0.3609606623649597,-0.7648912072181702,-0.03722497075796127,2.3147811889648438,0.474819153547287,-83.15596771240234,1
2115149,-0.3608987331390381,-0.7648552060127258,-0.037123486399650574,2.3121113777160645,0.4746543765068054,-83.07971954345703,1
2115159,-0.35518011450767517,-0.7673326134681702,-0.03774995356798172,2.1362898349761963,0.35077205300331116,-83.23612213134766,1
2115169,-0.35485196113586426,-0.7674302458763123,-0.03768032789230347,2.1338484287261963,0.3540794849395752,-83.16082000732422,1
2115179,-0.3612281084060669,-0.7648718953132629,-0.03725982457399368,2.2519619464874268,0.43843698501586914,-83.09898376464844,1
2115189,-0.35492682456970215,-0.7673225402832031,-0.03759042173624039,2.0776519775390625,0.3210875988006592,-83.26703643798828,1
2115199,-0.35450565814971924,-0.7674509286880493,-0.03751887381076813,2.0761005878448486,0.3229837119579315,-83.19132232666016,1
2115209,-0.3608836829662323,-0.7647138237953186,-0.03730033338069916,2.2760820388793945,0.46332255005836487,-83.13265228271484,1
2115219,-0.36076244711875916,-0.7646875977516174,-0.03721580654382706,2.2738029956817627,0.46507859230041504,-83.05733489990234,1
2115229,-0.35435014963150024,-0.7672255039215088,-0.03757104650139809,2.1510579586029053,0.37813109159469604,-83.2267837524414,1
2115239,-0.36095279455184937,-0.7645964026451111,-0.037122808396816254,2.329998731613159,0.5002738237380981,-83.16281127929688,1
2115249,-0.3609168231487274,-0.7645308375358582,-0.03702033683657646,2.327913522720337,0.5016814470291138,-83.087158203125,1
2115259,-0.3549048900604248,-0.7674000263214111,-0.038002967834472656,2.1456058025360107,0.3613892197608948,-83.24698638916016,1
2115269,-0.35458531975746155,-0.7674915790557861,-0.03795793652534485,2.1446943283081055,0.3622097373008728,-83.17091369628906,1
2115279,-0.36109310388565063,-0.7649452686309814,-0.03749272599816322,2.2628676891326904,0.44641852378845215,-83.1134033203125,1
2115289,-0.3609558641910553,-0.764944851398468,-0.037427518516778946,2.2611122131347656,0.44829457998275757,-83.0371322631836,1
2115299,-0.35446059703826904,-0.7675843238830566,-0.03792662173509598,2.089805841445923,0.33475595712661743,-83.19847869873047,1
2115309,-0.36121097207069397,-0.7651035785675049,-0.03735390305519104,2.290240526199341,0.460360050201416,-83.13662719726562,1
2115319,-0.36110517382621765,-0.7650903463363647,-0.03727470338344574,2.288393259048462,0.461321622133255,-83.0621566772461,1
2115329,-0.3549889922142029,-0.7675357460975647,-0.03762872889637947,2.1735594272613525,0.37944239377975464,-83.21760559082031,1
2115339,-0.3547050654888153,-0.7676105499267578,-0.03755519166588783,2.1708152294158936,0.3818099796772003,-83.14241790771484,1
2115349,-0.3611376881599426,-0.7649855613708496,-0.0371827594935894,2.337754487991333,0.494206041097641,-83.08130645751953,1
2115359,-0.3552238941192627,-0.767356276512146,-0.03760358691215515,2.1558682918548584,0.372928649187088,-83.25773620605469,1
2115369,-0.35492199659347534,-0.7674387097358704,-0.037534840404987335,2.1547091007232666,0.3741501271724701,-83.18230438232422,1
2115379,-0.04873916879296303,-0.2750477194786072,0.40929993987083435,0.0019926871173083782,0.0012518749572336674,-0.15755926072597504,1
2115389,-0.04872777312994003,-0.2749873101711273,0.4092959761619568,0.001530462526716292,0.00011782564251916483,-0.15831974148750305,1
2115399,-0.3400043845176697,-0.7203285098075867,-0.06833600252866745,0.07612508535385132,-0.11693096160888672,-29.39662742614746,1
2115409,-0.35660797357559204,-0.7433944344520569,-0.04051358252763748,0.3816501796245575,-0.2963184118270874,-43.185821533203125,1
2115419,-0.3569789528846741,-0.74435955286026,-0.039922893047332764,0.38121721148490906,-0.2960740923881531,-43.144229888916016,1
2115429,-0.3513135313987732,-0.7528784275054932,-0.046065010130405426,0.20730309188365936,-0.8576938509941101,-51.991668701171875,1
2115439,-0.3516325354576111,-0.7540221810340881,-0.045577436685562134,0.20817305147647858,-0.8553869128227234,-51.9415283203125,1
2115449,-0.3617769777774811,-0.7602812051773071,-0.03600527346134186,0.2968633770942688,-0.9781128168106079,-57.45430374145508,1
2115459,-0.3566579520702362,-0.7656066417694092,-0.03783540800213814,-0.3929887115955353,-1.8373713493347168,-61.738826751708984,1
2115469,-0.356886088848114,-0.767087996006012,-0.03716186061501503,-0.3899998366832733,-1.835424542427063,-61.67942428588867,1
2115479,-0.36324891448020935,-0.7657013535499573,-0.03634880855679512,-0.5329653024673462,-1.4787155389785767,-64.6673583984375,1
2115489,-0.3634777367115021,-0.7670711874961853,-0.0356891006231308,-0.5325599312782288,-1.475880742073059,-64.60700988769531,1
2115499,-0.3576214909553528,-0.7709968686103821,-0.03554500266909599,-1.398252248764038,-2.0195670127868652,-67.10934448242188,1
2115509,-0.3631422221660614,-0.7668619751930237,-0.037635620683431625,-1.2583715915679932,-0.9076582193374634,-68.99156188964844,1
2115519,-0.36308619379997253,-0.7680354714393616,-0.03712592273950577,-1.2564187049865723,-0.9074851274490356,-68.92623901367188,1
2115529,-0.3566739857196808,-0.7707409262657166,-0.0359724797308445,-1.9111461639404297,-1.1209015846252441,-70.645751953125,1
2115539,-0.3562101721763611,-0.7720001935958862,-0.03542754799127579,-1.9081552028656006,-1.1194491386413574,-70.57916259765625,1
2115549,-0.36229872703552246,-0.7675667405128479,-0.037161651998758316,-1.4413694143295288,-0.05190678685903549,-71.80667114257812,1
2115559,-0.3566037118434906,-0.7698075175285339,-0.03628965839743614,-2.2543487548828125,-0.435857892036438,-73.0887451171875,1
2115569,-0.3558396100997925,-0.770803689956665,-0.03580447658896446,-2.253368616104126,-0.43688318133354187,-73.01947021484375,1
2115579,-0.36167123913764954,-0.766584038734436,-0.03716381639242172,-1.8855416774749756,0.42375829815864563,-73.87767791748047,1
2115589,-0.3609929084777832,-0.7672138810157776,-0.03675311803817749,-1.8832837343215942,0.42307931184768677,-73.80817413330078,1
2115599,-0.35468730330467224,-0.7697376608848572,-0.0364261195063591,-2.5851082801818848,0.05738533288240433,-74.8245849609375,1
2115609,-0.3613259494304657,-0.7656668424606323,-0.03723008930683136,-1.6795451641082764,1.143428087234497,-75.43480682373047,1
2115619,-0.3605612516403198,-0.7659627199172974,-0.03689251095056534,-1.678709626197815,1.1420724391937256,-75.3635482788086,1
2115629,-0.354461669921875,-0.7683948278427124,-0.03704831749200821,-2.1030101776123047,0.8599548935890198,-76.20490264892578,1
2115639,-0.3532956540584564,-0.7687819004058838,-0.03671245276927948,-2.1014046669006348,0.85934978723526,-76.13481140136719,1
2115649,-0.36033985018730164,-0.7650740742683411,-0.03673887625336647,-1.2271836996078491,1.581979751586914,-76.56396484375,1
2115659,-0.35502082109451294,-0.7675648927688599,-0.03760353475809097,-1.817164421081543,1.1135221719741821,-77.27098083496094,1
2115669,-0.3537968099117279,-0.7677862644195557,-0.03732971101999283,-1.8164105415344238,1.1121571063995361,-77.19962310791016,1
2115679,-0.36005109548568726,-0.76475989818573,-0.036950018256902695,-1.2641793489456177,1.5299240350723267,-77.52189636230469,1
2115689,-0.3590383529663086,-0.7647303938865662,-0.03667037561535835,-1.2629164457321167,1.5293229818344116,-77.45024871826172,1
2115699,-0.35324040055274963,-0.7672522068023682,-0.03760524094104767,-1.771039605140686,1.1552481651306152,-78.05646514892578,1
2115709,-0.36026903986930847,-0.7642688751220703,-0.03690477833151817,-0.8378409743309021,1.711225986480713,-78.30188751220703,1
2115719,-0.35933318734169006,-0.7640858292579651,-0.03664003685116768,-0.8376080989837646,1.7106541395187378,-78.22847747802734,1
2115729,-0.3533758819103241,-0.7667205333709717,-0.03774087503552437,-1.1722809076309204,1.4011677503585815,-78.7604751586914,1
2115739,-0.35208413004875183,-0.7666541337966919,-0.03751029819250107,-1.17130446434021,1.3998301029205322,-78.68757629394531,1
2115749,-0.35935649275779724,-0.7637407183647156,-0.036506492644548416,-0.3997921049594879,1.7924193143844604,-78.8697738647461,1
2115759,-0.3541839122772217,-0.7663922309875488,-0.03811338171362877,-0.8607146143913269,1.3751424551010132,-79.3537368774414,1
2115769,-0.3529224097728729,-0.7662858366966248,-0.037929438054561615,-0.8603678941726685,1.374313235282898,-79.28036499023438,1
2115779,-0.35949140787124634,-0.7637537121772766,-0.03681030496954918,-0.38283398747444153,1.5954852104187012,-79.43962097167969,1
2115789,-0.3584797978401184,-0.7634791135787964,-0.036590058356523514,-0.38187989592552185,1.5945525169372559,-79.36740112304688,1
2115799,-0.35280394554138184,-0.7663300037384033,-0.03828959912061691,-0.7850907444953918,1.2533442974090576,-79.7961654663086,1
2115809,-0.36014604568481445,-0.7638348340988159,-0.03693998232483864,-0.017370881512761116,1.5842655897140503,-79.92182922363281,1
2115819,-0.35925713181495667,-0.7635179162025452,-0.036722976714372635,-0.016598206013441086,1.5852130651474,-79.84833526611328,1
2115829,-0.35330143570899963,-0.7663325667381287,-0.038208797574043274,-0.2886601984500885,1.3189488649368286,-80.23779296875,1
2115839,-0.3520943224430084,-0.7661427855491638,-0.03803923726081848,-0.28884008526802063,1.3179426193237305,-80.1644287109375,1
2115849,-0.3595457673072815,-0.7636718153953552,-0.03653113916516304,0.32209256291389465,1.5677577257156372,-80.26050567626953,1
2115859,-0.35425013303756714,-0.7664365768432617,-0.03830477222800255,-0.0606268048286438,1.226190447807312,-80.62939453125,1
2115869,-0.35309168696403503,-0.7662636637687683,-0.03816560283303261,-0.060813579708337784,1.2271233797073364,-80.55621337890625,1
2115879,-0.35986804962158203,-0.7638722062110901,-0.03684411942958832,0.3203848600387573,1.381330132484436,-80.62134552001953,1
2115889,-0.3589678406715393,-0.7635617852210999,-0.03665286675095558,0.31970128417015076,1.38180410861969,-80.54671478271484,1
2115899,-0.3530080318450928,-0.7662100195884705,-0.038042034953832626,-0.02686941809952259,1.1192541122436523,-80.8906478881836,1
2115909,-0.3602297604084015,-0.7637811899185181,-0.036666128784418106,0.5605515837669373,1.3663127422332764,-80.95124053955078,1
2115919,-0.3594355285167694,-0.7634407877922058,-0.03646783530712128,0.5589639544487,1.3668625354766846,-80.87860107421875,1
2115929,-0.3537794053554535,-0.7664228081703186,-0.03825174644589424,0.34983325004577637,1.1412549018859863,-81.19319915771484,1
2115939,-0.3527190089225769,-0.7662162780761719,-0.038115717470645905,0.3491767346858978,1.140803337097168,-81.11689758300781,1
2115949,-0.35977903008461,-0.7637062668800354,-0.03684709221124649,0.8068541884422302,1.3389735221862793,-81.15544891357422,1
2115959,-0.3540593087673187,-0.7664059996604919,-0.03835524618625641,0.4646662175655365,1.0641634464263916,-81.44466400146484,1
2115969,-0.35300910472869873,-0.7662171125411987,-0.038245826959609985,0.4642804265022278,1.063857913017273,-81.37031555175781,1
2115979,-0.3599092364311218,-0.7637932896614075,-0.0369395837187767,0.7709295153617859,1.1910698413848877,-81.39590454101562,1
2115989,-0.35910463333129883,-0.7634822130203247,-0.03678014874458313,0.7706810832023621,1.192091941833496,-81.32154846191406,1
2115999,-0.3533107042312622,-0.7659928798675537,-0.038036786019802094,0.48827627301216125,0.9814915060997009,-81.61060333251953,1
2116009,-0.3602224588394165,-0.763698399066925,-0.03668956086039543,0.9425294399261475,1.1743110418319702,-81.62755584716797,1
2116019,-0.35950398445129395,-0.7633693218231201,-0.03651333600282669,0.9408220052719116,1.1741975545883179,-81.55313873291016,1
2116029,-0.35369354486465454,-0.7661215662956238,-0.03793543577194214,0.7567231059074402,0.9995374083518982,-81.81668853759766,1
2116039,-0.3527279794216156,-0.7659055590629578,-0.03780630603432655,0.7561954855918884,0.998577892780304,-81.7422103881836,1
2116049,-0.3598653972148895,-0.7633489370346069,-0.036552511155605316,1.1356130838394165,1.1693865060806274,-81.7389907836914,1
2116059,-0.3542761504650116,-0.7662342190742493,-0.03828360140323639,0.8548768162727356,0.9265539646148682,-81.98009490966797,1
2116069,-0.35333260893821716,-0.7660515308380127,-0.038190584629774094,0.85447758436203,0.9273046255111694,-81.9042739868164,1
2116079,-0.35994553565979004,-0.7638905644416809,-0.0368136502802372,1.0998849868774414,1.0240262746810913,-81.88347625732422,1
2116089,-0.35922569036483765,-0.7636104822158813,-0.03666377440094948,1.0998318195343018,1.0234289169311523,-81.8075942993164,1
2116099,-0.3531891107559204,-0.7663323879241943,-0.037988193333148956,0.8476976156234741,0.8315417170524597,-82.04124450683594,1
2116109,-0.36017993092536926,-0.7639037370681763,-0.03673000633716583,1.2506918907165527,1.0156372785568237,-82.0277099609375,1
2116119,-0.3595565855503082,-0.7636065483093262,-0.03657006844878197,1.2496126890182495,1.0142791271209717,-81.95327758789062,1
2116129,-0.3535616397857666,-0.7663389444351196,-0.03782469034194946,1.0803472995758057,0.8647230863571167,-82.18275451660156,1
2116139,-0.35269758105278015,-0.7661569118499756,-0.03770919889211655,1.079161286354065,0.8648033142089844,-82.107177734375,1
2116149,-0.3597903251647949,-0.7636093497276306,-0.03652747720479965,1.3982635736465454,1.0167583227157593,-82.09381866455078,1
2116159,-0.3543599843978882,-0.7661948204040527,-0.037911511957645416,1.157792568206787,0.8210436701774597,-82.32247924804688,1
2116169,-0.35352519154548645,-0.766025960445404,-0.03781863674521446,1.1570290327072144,0.8237517476081848,-82.24637603759766,1
2116179,-0.3600118160247803,-0.7637483477592468,-0.036644600331783295,1.359068512916565,0.915076494216919,-82.2220458984375,1
2116189,-0.3593859076499939,-0.7634820342063904,-0.03650471195578575,1.3577569723129272,0.9143742322921753,-82.14654541015625,1
2116199,-0.353450208902359,-0.766361653804779,-0.03800080344080925,1.137963056564331,0.7380331158638,-82.37665557861328,1
2116209,-0.3604099154472351,-0.7639346718788147,-0.03687726706266403,1.4683010578155518,0.8950316905975342,-82.3534927368164,1
2116219,-0.3598601818084717,-0.7636640071868896,-0.03674351051449776,1.4668385982513428,0.8945052027702332,-82.27702331542969,1
2116229,-0.35404375195503235,-0.7664287090301514,-0.038073938339948654,1.3246841430664062,0.7634466886520386,-82.4839096069336,1
2116239,-0.3532792925834656,-0.7662655711174011,-0.03798240050673485,1.3236937522888184,0.7643138766288757,-82.40762329101562,1
2116249,-0.36015939712524414,-0.7636929154396057,-0.03697071969509125,1.594316840171814,0.9002078771591187,-82.37885284423828,1
2116259,-0.35437265038490295,-0.766323447227478,-0.03821618854999542,1.3636950254440308,0.7209009528160095,-82.59358978271484,1
2116269,-0.35361072421073914,-0.7661778330802917,-0.038143087178468704,1.3625022172927856,0.7220529317855835,-82.51760864257812,1
2116279,-0.36018723249435425,-0.7638784050941467,-0.03701042756438255,1.5433433055877686,0.8065775036811829,-82.48568725585938,1
2116289,-0.35962846875190735,-0.7636427879333496,-0.03688984736800194,1.5404093265533447,0.8094632625579834,-82.41007995605469,1
2116299,-0.3535071015357971,-0.7662788033485413,-0.03797708824276924,1.333046317100525,0.6583408713340759,-82.60728454589844,1
2116309,-0.360373318195343,-0.7640211582183838,-0.03676329925656319,1.6249163150787354,0.7972710728645325,-82.55745697021484,1
2116319,-0.35987669229507446,-0.7637867331504822,-0.036621443927288055,1.6236498355865479,0.799515426158905,-82.48356628417969,1
2116329,-0.3538929224014282,-0.7666051387786865,-0.03785824403166771,1.4876869916915894,0.6772795915603638,-82.669189453125,1
2116339,-0.3531908094882965,-0.766477644443512,-0.0377567857503891,1.4881744384765625,0.6771764159202576,-82.59381103515625,1
2116349,-0.36019235849380493,-0.7639976739883423,-0.036645859479904175,1.7366074323654175,0.805187463760376,-82.5609130859375,1
2116359,-0.35465678572654724,-0.7665374279022217,-0.037799857556819916,1.5330508947372437,0.6454745531082153,-82.7536392211914,1
2116369,-0.35397717356681824,-0.7664293050765991,-0.037709031254053116,1.5314173698425293,0.6463724374771118,-82.67720794677734,1
2116379,-0.3602127730846405,-0.7640597820281982,-0.03683101758360863,1.686901330947876,0.7314301133155823,-82.63630676269531,1
2116390,-0.359720379114151,-0.763859212398529,-0.03670778125524521,1.684861421585083,0.7311631441116333,-82.56087493896484,1
2116399,-0.3538130521774292,-0.76654052734375,-0.03784520924091339,1.4986318349838257,0.5878973603248596,-82.75140380859375,1
2116409,-0.3600638806819916,-0.7641154527664185,-0.03693655878305435,1.6521564722061157,0.6711888909339905,-82.7061767578125,1
2116419,-0.35949140787124634,-0.7639585733413696,-0.03682979196310043,1.6516410112380981,0.6716771125793457,-82.63082122802734,1
2116429,-0.3534868359565735,-0.7667840123176575,-0.03812409192323685,1.4544429779052734,0.5239475965499878,-82.80530548095703,1
2116439,-0.3534868359565735,-0.7667840123176575,-0.03812409192323685,1.4544429779052734,0.5239475965499878,-82.80530548095703,1
2116449,-0.359976202249527,-0.76421719789505,-0.03699091449379921,1.7265760898590088,0.6694286465644836,-82.6839599609375,1
2116459,-0.3539823889732361,-0.7668588161468506,-0.03795763477683067,1.6012709140777588,0.5618368983268738,-82.8629150390625,1
2116469,-0.3532842695713043,-0.7667992115020752,-0.03787878900766373,1.6003994941711426,0.5641939640045166,-82.78825378417969,1
2116479,-0.3603234589099884,-0.7642765045166016,-0.036867108196020126,1.8295131921768188,0.6873378753662109,-82.73336791992188,1
2116490,-0.35992658138275146,-0.764085054397583,-0.036742474883794785,1.8280847072601318,0.6865839958190918,-82.65709686279297,1
2116499,-0.35379573702812195,-0.7667707204818726,-0.03777746111154556,1.6335347890853882,0.5395691394805908,-82.84806060791016,1
2116509,-0.3602616786956787,-0.7639708518981934,-0.03726765885949135,1.7873866558074951,0.639154851436615,-82.80070495605469,1
2116519,-0.3597790002822876,-0.7638125419616699,-0.03717106580734253,1.7852356433868408,0.6405034065246582,-82.72676849365234,1
2116529,-0.35385239124298096,-0.7665091156959534,-0.03829176723957062,1.6120290756225586,0.5059937834739685,-82.91334533691406,1
2116539,-0.35385239124298096,-0.7665091156959534,-0.03829176723957062,1.6120290756225586,0.5059937834739685,-82.91334533691406,1
2116549,-0.36012107133865356,-0.7643054723739624,-0.0369708314538002,1.8518774509429932,0.6251384019851685,-82.79080963134766,1
2116559,-0.3541513681411743,-0.7671080231666565,-0.03806900978088379,1.7325149774551392,0.5190517902374268,-82.96564483642578,1
2116569,-0.3535401225090027,-0.7670724987983704,-0.03799308463931084,1.7313146591186523,0.5203308463096619,-82.88992309570312,1
2116579,-0.3603893518447876,-0.7644526362419128,-0.0372043140232563,1.9378656148910522,0.6404054760932922,-82.85367584228516,1
2116590,-0.3603893518447876,-0.7644526362419128,-0.0372043140232563,1.9378656148910522,0.6404054760932922,-82.85367584228516,1
2116599,-0.35411256551742554,-0.7666981816291809,-0.03780292719602585,1.7531397342681885,0.5132929682731628,-82.96766662597656,1
2116609,-0.36049893498420715,-0.7643207311630249,-0.036956459283828735,1.8899517059326172,0.5924967527389526,-82.91486358642578,1
2116619,-0.3600797653198242,-0.7641900777816772,-0.03683892637491226,1.8880244493484497,0.5940144658088684,-82.83866119384766,1
2116629,-0.3538900315761566,-0.7669816017150879,-0.037863463163375854,1.714787483215332,0.4622921943664551,-83.00476837158203,1
2116640,-0.3538900315761566,-0.7669816017150879,-0.037863463163375854,1.714787483215332,0.4622921943664551,-83.00476837158203,1
2116649,-0.3603409230709076,-0.764377236366272,-0.03687996417284012,1.945446252822876,0.5945284962654114,-82.88233184814453,1
2116659,-0.35421139001846313,-0.7673102617263794,-0.03802366927266121,1.8288848400115967,0.48863527178764343,-83.04763793945312,1
2116669,-0.3536587059497833,-0.7672826051712036,-0.03793996945023537,1.828124761581421,0.4891657531261444,-82.97264862060547,1
2116679,-0.360804945230484,-0.7646341919898987,-0.03706963360309601,2.035611391067505,0.6108397245407104,-82.9209976196289,1
2116690,-0.360804945230484,-0.7646341919898987,-0.03706963360309601,2.035611391067505,0.6108397245407104,-82.9209976196289,1
2116699,-0.3544241189956665,-0.7669697999954224,-0.037632014602422714,1.8487248420715332,0.48417142033576965,-83.01886749267578,1
2116709,-0.3606005609035492,-0.7643553018569946,-0.037129003554582596,1.9754581451416016,0.569696307182312,-82.95453643798828,1
2116719,-0.3602394461631775,-0.7642350196838379,-0.03701401874423027,1.973105788230896,0.571053683757782,-82.88032531738281,1
2116729,-0.3541221618652344,-0.7669185996055603,-0.037897270172834396,1.803881287574768,0.44841304421424866,-83.04881286621094,1
2116740,-0.3541221618652344,-0.7669185996055603,-0.037897270172834396,1.803881287574768,0.44841304421424866,-83.04881286621094,1
2116749,-0.3604523241519928,-0.7642523050308228,-0.037084899842739105,2.0193212032318115,0.5780466198921204,-82.92117309570312,1
2116759,-0.3544621467590332,-0.7668866515159607,-0.03791441395878792,1.903059482574463,0.48288917541503906,-83.09046173095703,1
2116769,-0.35396668314933777,-0.7668542861938477,-0.037824299186468124,1.9006987810134888,0.48300614953041077,-83.0151596069336,1
2116779,-0.3604671061038971,-0.7639925479888916,-0.037444498389959335,2.0842230319976807,0.6061540246009827,-82.95279693603516,1
2116790,-0.3604671061038971,-0.7639925479888916,-0.037444498389959335,2.0842230319976807,0.6061540246009827,-82.95279693603516,1
2116799,-0.353983610868454,-0.7666071057319641,-0.0383172407746315,1.8989677429199219,0.46724846959114075,-83.04779052734375,1
2116809,-0.3606908321380615,-0.7644243836402893,-0.037232447415590286,2.0348784923553467,0.5377150177955627,-82.99433135986328,1
2116819,-0.3603444993495941,-0.7643168568611145,-0.03711828589439392,2.0347626209259033,0.5397137403488159,-82.91986083984375,1
2116829,-0.3543037176132202,-0.7669261693954468,-0.037937771528959274,1.8636863231658936,0.4163067638874054,-83.10443878173828,1
2116840,-0.3543037176132202,-0.7669261693954468,-0.037937771528959274,1.8636863231658936,0.4163067638874054,-83.10443878173828,1
2116849,-0.3604704737663269,-0.7644148468971252,-0.03714177757501602,2.0706188678741455,0.5425233244895935,-82.97435760498047,1
2116859,-0.3544694781303406,-0.7668567299842834,-0.037710703909397125,1.9569860696792603,0.4532296657562256,-83.15823364257812,1
2116869,-0.3544694781303406,-0.7668567299842834,-0.037710703909397125,1.9569860696792603,0.4532296657562256,-83.15823364257812,1
2116879,-0.3607826232910156,-0.7643327713012695,-0.03714411333203316,2.1385061740875244,0.5681726932525635,-83.10543060302734,1
2116890,-0.3605978786945343,-0.7641926407814026,-0.03702511638402939,2.1380398273468018,0.5710980296134949,-83.0294418334961,1
2116899,-0.3548903465270996,-0.7666772603988647,-0.03782839700579643,1.963200330734253,0.442776620388031,-83.20512390136719,1
2116909,-0.3609837293624878,-0.7643997669219971,-0.03714244067668915,2.084219455718994,0.5176728963851929,-83.14822387695312,1
2116919,-0.3607049882411957,-0.7643150091171265,-0.037034835666418076,2.083817720413208,0.5183799266815186,-83.07244110107422,1
2116929,-0.3548523783683777,-0.7670692801475525,-0.038066815584897995,1.920535922050476,0.39221060276031494,-83.22953033447266,1
2116940,-0.3543153405189514,-0.7671209573745728,-0.038008641451597214,1.9199562072753906,0.3935949206352234,-83.15322875976562,1
2116949,-0.36097607016563416,-0.7646650671958923,-0.0373186394572258,2.1288599967956543,0.5197850465774536,-83.0938949584961,1
2116959,-0.35508304834365845,-0.767113983631134,-0.03791605681180954,2.0142364501953125,0.4308437705039978,-83.25755310058594,1
2116969,-0.3546707332134247,-0.7671259641647339,-0.037834532558918,2.012368679046631,0.4337281584739685,-83.1808853149414,1
2116979,-0.36090102791786194,-0.7646032571792603,-0.03735298290848732,2.188321590423584,0.5473909974098206,-83.12336730957031,1
2116991,-0.3607444167137146,-0.7644887566566467,-0.037247609347105026,2.18603253364563,0.5481535196304321,-83.04800415039062,1
2116999,-0.35489100217819214,-0.7669786810874939,-0.03796747326850891,2.0075390338897705,0.41984009742736816,-83.21381378173828,1
2117009,-0.3611590564250946,-0.7646001577377319,-0.03733347728848457,2.1307857036590576,0.5007639527320862,-83.15409088134766,1
2117019,-0.36090803146362305,-0.7645297050476074,-0.037233464419841766,2.1282718181610107,0.5017378926277161,-83.07734680175781,1
2117029,-0.3549157977104187,-0.7670221328735352,-0.03787698596715927,1.961211919784546,0.38262802362442017,-83.23884582519531,1
2117040,-0.3544047176837921,-0.7670729756355286,-0.03780752047896385,1.9602099657058716,0.38655149936676025,-83.162353515625,1
2117049,-0.36064255237579346,-0.7646552920341492,-0.0371469184756279,2.078617811203003,0.46296533942222595,-83.10718536376953,1
2117059,-0.35473424196243286,-0.7673599123954773,-0.038079969584941864,1.9032893180847168,0.33308306336402893,-83.26148986816406,1
2117069,-0.3541286885738373,-0.7674664258956909,-0.038030341267585754,1.9020991325378418,0.33596664667129517,-83.18537139892578,1
2117079,-0.36092278361320496,-0.7648992538452148,-0.0374249704182148,2.1204309463500977,0.4717486500740051,-83.1335678100586,1
2117090,-0.36063331365585327,-0.7648608088493347,-0.037340275943279266,2.119581937789917,0.47387781739234924,-83.05864715576172,1
2117099,-0.35457858443260193,-0.7672395706176758,-0.03773615509271622,2.005326986312866,0.39079129695892334,-83.22508239746094,1
2117109,-0.3609911799430847,-0.7647309899330139,-0.03718190640211105,2.186807155609131,0.50603848695755,-83.16595458984375,1
2117119,-0.36079058051109314,-0.7646559476852417,-0.037075698375701904,2.183657169342041,0.5087248086929321,-83.0890884399414,1
2117129,-0.35462719202041626,-0.7672795057296753,-0.03778933361172676,1.9987205266952515,0.37405192852020264,-83.2578125,1
2117140,-0.35413816571235657,-0.7673476934432983,-0.03772372752428055,1.998077154159546,0.3753683567047119,-83.1830825805664,1
2117149,-0.3606816828250885,-0.7647950053215027,-0.037137243896722794,2.121690511703491,0.46003657579421997,-83.12285614013672,1
2117159,-0.3549187183380127,-0.7671209573745728,-0.03765241056680679,1.9625710248947144,0.3497639000415802,-83.3048095703125,1
2117169,-0.35437092185020447,-0.7672107219696045,-0.03758775815367699,1.9600729942321777,0.3517371416091919,-83.22875213623047,1
2117179,-0.36086711287498474,-0.7645918726921082,-0.03713841736316681,2.1603517532348633,0.4810824692249298,-83.17544555664062,1
2117190,-0.360617071390152,-0.7645362019538879,-0.03704741224646568,2.1595375537872314,0.483140766620636,-83.0987319946289,1
2117199,-0.3545380234718323,-0.7671968340873718,-0.037766724824905396,2.047422409057617,0.39182204008102417,-83.26593017578125,1
2117209,-0.360912024974823,-0.7647296786308289,-0.03720737621188164,2.2274281978607178,0.5054900050163269,-83.20272064208984,1
2117219,-0.3607518970966339,-0.7646507024765015,-0.03710993379354477,2.224228620529175,0.508607029914856,-83.12721252441406,1
2117229,-0.35505396127700806,-0.7672668099403381,-0.038000285625457764,2.0512890815734863,0.37690648436546326,-83.291259765625,1
2117240,-0.3546266257762909,-0.7673260569572449,-0.03795158118009567,2.050267457962036,0.37616896629333496,-83.21562194824219,1
2117249,-0.3608570992946625,-0.7648284435272217,-0.03747975826263428,2.1686203479766846,0.4570172131061554,-83.14142608642578,1
2117259,-0.35491499304771423,-0.7670773863792419,-0.0378313846886158,2.003016948699951,0.34824833273887634,-83.31409454345703,1
2117269,-0.3544130325317383,-0.7671574354171753,-0.03777715563774109,2.0020391941070557,0.34766897559165955,-83.23748779296875,1
2117279,-0.36082345247268677,-0.7646192312240601,-0.03731272742152214,2.199249267578125,0.47414109110832214,-83.17442321777344,1
2117290,-0.36060836911201477,-0.7645633816719055,-0.037229325622320175,2.1976211071014404,0.47515350580215454,-83.09793090820312,1
2117299,-0.3543340265750885,-0.7670407295227051,-0.037658799439668655,2.0801613330841064,0.3888608515262604,-83.2604751586914,1
2117309,-0.36104366183280945,-0.7644241452217102,-0.03709830343723297,2.267165184020996,0.5082417726516724,-83.18766784667969,1
2117319,-0.36092644929885864,-0.7643314003944397,-0.03699137270450592,2.265505790710449,0.5097026824951172,-83.11182403564453,1
2117329,-0.3548789620399475,-0.7668684124946594,-0.037643469870090485,2.080136299133301,0.3797416388988495,-83.27079772949219,1
2117341,-0.3544842302799225,-0.7669116854667664,-0.03756694868206978,2.077925682067871,0.38110485672950745,-83.1953125,1
2117349,-0.36073148250579834,-0.7643290758132935,-0.03713833540678024,2.1955175399780273,0.46534520387649536,-83.13504028320312,1
2117359,-0.35470736026763916,-0.7669023871421814,-0.037821535021066666,2.0275309085845947,0.3484615981578827,-83.29254913330078,1
2117369,-0.3542303144931793,-0.7669782638549805,-0.037758808583021164,2.026067018508911,0.3517097234725952,-83.21712493896484,1
2117379,-0.36078181862831116,-0.7644122838973999,-0.037256453186273575,2.226790428161621,0.4808889329433441,-83.15850830078125,1
2117391,-0.3547509014606476,-0.7670298218727112,-0.0379527248442173,2.1103570461273193,0.3901505172252655,-83.3113784790039,1
2117399,-0.35438984632492065,-0.7670682668685913,-0.03788251057267189,2.108975648880005,0.3921140730381012,-83.23408508300781,1
2117409,-0.36087965965270996,-0.7646967172622681,-0.03720887005329132,2.28857684135437,0.5010595917701721,-83.16413116455078,1
2117419,-0.36078256368637085,-0.7646186351776123,-0.037106066942214966,2.286013126373291,0.5032488703727722,-83.08811950683594,1
2117429,-0.3548067510128021,-0.7671859860420227,-0.037785064429044724,2.1035633087158203,0.3728904724121094,-83.24560546875,1
2117440,-0.36077699065208435,-0.7645672559738159,-0.03736674413084984,2.2203869819641113,0.4607902467250824,-83.11325073242188,1
2117449,-0.36077699065208435,-0.7645672559738159,-0.03736674413084984,2.2203869819641113,0.4607902467250824,-83.11325073242188,1
2117459,-0.35465574264526367,-0.7670151591300964,-0.037851568311452866,2.051223039627075,0.3444732427597046,-83.27763366699219,1
2117469,-0.35419461131095886,-0.7670961618423462,-0.03779657930135727,2.0515248775482178,0.3455300033092499,-83.20287322998047,1
2117479,-0.36074820160865784,-0.7646036744117737,-0.03723987191915512,2.250239133834839,0.47177523374557495,-83.1490249633789,1
2117491,-0.35460102558135986,-0.7670820951461792,-0.03773251920938492,2.1373417377471924,0.38540035486221313,-83.23690795898438,1
2117499,-0.35460102558135986,-0.7670820951461792,-0.03773251920938492,2.1373417377471924,0.38540035486221313,-83.23690795898438,1
2117509,-0.3609812557697296,-0.7644774913787842,-0.03732568770647049,2.3126015663146973,0.5021411776542664,-83.18154907226562,1
2117519,-0.3609059453010559,-0.7643826603889465,-0.03723103553056717,2.3106982707977295,0.5040159821510315,-83.10469818115234,1
2117529,-0.3549702763557434,-0.7669926285743713,-0.03800448775291443,2.1289708614349365,0.37299829721450806,-83.26348114013672,1
2117541,-0.3610924482345581,-0.7646369338035583,-0.03730639070272446,2.249255418777466,0.4535636007785797,-83.12251281738281,1
2117549,-0.3610924482345581,-0.7646369338035583,-0.03730639070272446,2.249255418777466,0.4535636007785797,-83.12251281738281,1
2117559,-0.3551153242588043,-0.7671785950660706,-0.03794897720217705,2.0817642211914062,0.33783790469169617,-83.28838348388672,1
2117569,-0.35468822717666626,-0.7672685980796814,-0.03789689764380455,2.0805742740631104,0.3387112021446228,-83.21099853515625,1
2117579,-0.3610924184322357,-0.7649118900299072,-0.037305910140275955,2.273822546005249,0.4583968222141266,-83.15118408203125,1
2117591,-0.3548034429550171,-0.7674135565757751,-0.03771418705582619,2.1562793254852295,0.3749152421951294,-83.22994995117188,1
2117599,-0.3548034429550171,-0.7674135565757751,-0.03771418705582619,2.1562793254852295,0.3749152421951294,-83.22994995117188,1
2117609,-0.36111512780189514,-0.7647049427032471,-0.03746568039059639,2.336139440536499,0.4998849332332611,-83.17237091064453,1
2117619,-0.3610692322254181,-0.7646245956420898,-0.03737794980406761,2.3339922428131104,0.5018796920776367,-83.09595489501953,1
2117629,-0.3548346757888794,-0.7669950127601624,-0.037730082869529724,2.142137289047241,0.37729382514953613,-83.26016235351562,1
2117640,-0.3544992506504059,-0.7670428156852722,-0.037658073008060455,2.1414918899536133,0.3786216378211975,-83.18387603759766,1
2117649,-0.36085325479507446,-0.764481782913208,-0.03719783201813698,2.258542060852051,0.4613311290740967,-83.12272644042969,1
2117659,-0.35487404465675354,-0.7670818567276001,-0.03789558261632919,2.091521739959717,0.3421410918235779,-83.27814483642578,1
2117669,-0.3544620871543884,-0.7671695947647095,-0.03783493861556053,2.089806079864502,0.3448493480682373,-83.20157623291016,1
2117679,-0.3609055280685425,-0.7646481990814209,-0.037376437336206436,2.282118320465088,0.4707687795162201,-83.13975524902344,1
2117691,-0.36077970266342163,-0.7646012306213379,-0.03728903830051422,2.281430244445801,0.47318267822265625,-83.06363677978516,1
2117699,-0.35455790162086487,-0.7670888900756836,-0.03768228366971016,2.1662039756774902,0.38876423239707947,-83.22627258300781,1
2117709,-0.3608810305595398,-0.7644683122634888,-0.03732932731509209,2.3371775150299072,0.503700852394104,-83.17015838623047,1
2117719,-0.3608340322971344,-0.7643847465515137,-0.03723142668604851,2.3362057209014893,0.506647527217865,-83.0950698852539,1
2117729,-0.35497942566871643,-0.7668576836585999,-0.03785506263375282,2.15317964553833,0.3773023784160614,-83.26555633544922,1
2117741,-0.35465043783187866,-0.7669134736061096,-0.03779302537441254,2.151491641998291,0.3797379434108734,-83.1906967163086,1
2117749,-0.3609500229358673,-0.7645886540412903,-0.037157364189624786,2.2688701152801514,0.4549366235733032,-83.12989807128906,1
2117759,-0.3550899028778076,-0.7671462297439575,-0.03784389793872833,2.1056485176086426,0.33886945247650146,-83.2942886352539,1
2117769,-0.3546854257583618,-0.7672461271286011,-0.03778240084648132,2.1046411991119385,0.34137511253356934,-83.21743774414062,1
2117779,-0.3609566390514374,-0.7646958231925964,-0.03734897822141647,2.2187306880950928,0.42163386940956116,-83.15763854980469,1
2117789,-0.3607228100299835,-0.7647086381912231,-0.037271562963724136,2.217503309249878,0.42223164439201355,-83.08032989501953,1
2117799,-0.3542616367340088,-0.7673354744911194,-0.0377705842256546,2.0359244346618652,0.300032377243042,-83.24729919433594,1
2117809,-0.36100900173187256,-0.7648719549179077,-0.03715760260820389,2.243722677230835,0.43028172850608826,-83.18558502197266,1
2117819,-0.36080846190452576,-0.7648806571960449,-0.03706711158156395,2.2416739463806152,0.43264007568359375,-83.1093978881836,1
2117829,-0.3545984625816345,-0.7674809098243713,-0.03755372390151024,2.1250157356262207,0.34460505843162537,-83.27012634277344,1
2117839,-0.3542165458202362,-0.7675871849060059,-0.03747691959142685,2.1235320568084717,0.34699440002441406,-83.19377899169922,1
2117849,-0.36092421412467957,-0.7647321224212646,-0.037180282175540924,2.299490451812744,0.46934518218040466,-83.1290512084961,1
2117859,-0.3549098074436188,-0.767323911190033,-0.037843652069568634,2.1196000576019287,0.3413197100162506,-83.28082275390625,1
2117869,-0.35451775789260864,-0.7674331068992615,-0.03778725489974022,2.118250608444214,0.3442683815956116,-83.20463562011719,1
2117879,-0.36087197065353394,-0.7649261355400085,-0.037320662289857864,2.235457181930542,0.4256625473499298,-83.14942169189453,1
2117889,-0.3606562316417694,-0.7649464011192322,-0.037246622145175934,2.234551429748535,0.4246536195278168,-83.07257843017578,1
2117899,-0.3544512689113617,-0.7674203515052795,-0.03765035793185234,2.0709075927734375,0.3178293704986572,-83.22560119628906,1
2117909,-0.36105895042419434,-0.7649524807929993,-0.03710076957941055,2.268105983734131,0.4430880844593048,-83.1605224609375,1
2117919,-0.36089015007019043,-0.7649526000022888,-0.037011709064245224,2.265303134918213,0.444049209356308,-83.08405303955078,1
2117929,-0.35473018884658813,-0.7676481604576111,-0.03764212504029274,2.15030574798584,0.3551909029483795,-83.23888397216797,1
2117939,-0.35438042879104614,-0.7677436470985413,-0.037570588290691376,2.1482746601104736,0.35575127601623535,-83.16189575195312,1
2117949,-0.36093276739120483,-0.7648463249206543,-0.03739365562796593,2.3192813396453857,0.4770030379295349,-83.10546875,1
2117959,-0.3550754189491272,-0.767137348651886,-0.037766020745038986,2.1413631439208984,0.3605195879936218,-83.2696533203125,1
2117969,-0.35471290349960327,-0.7672222852706909,-0.037701886147260666,2.138594627380371,0.3609217405319214,-83.19357299804688,1
2117979,-0.36092615127563477,-0.7647649049758911,-0.037234753370285034,2.2533817291259766,0.4396207928657532,-83.13182067871094,1
2117991,-0.3607347905635834,-0.7647642493247986,-0.03714925795793533,2.251405715942383,0.44072863459587097,-83.05638885498047,1
2117999,-0.3543883264064789,-0.7673357725143433,-0.03762773796916008,2.0837371349334717,0.32883310317993164,-83.21484375,1
2118009,-0.3610101342201233,-0.7646803855895996,-0.037225570529699326,2.2811686992645264,0.46244677901268005,-83.15888977050781,1
2118019,-0.3608594238758087,-0.7646591663360596,-0.03713864088058472,2.279102087020874,0.46361228823661804,-83.08287048339844,1
2118029,-0.3547256886959076,-0.7672154307365417,-0.03764364495873451,2.164567470550537,0.37804925441741943,-83.24998474121094,1
2118041,-0.3543965518474579,-0.7672879099845886,-0.03756772354245186,2.1640608310699463,0.3801584243774414,-83.17476654052734,1
2118049,-0.3609619140625,-0.7645767331123352,-0.03719078749418259,2.3341469764709473,0.49845126271247864,-83.11286926269531,1
2118059,-0.35505175590515137,-0.766992449760437,-0.03770188242197037,2.1527340412139893,0.3754982054233551,-83.28418731689453,1
2118069,-0.3547062873840332,-0.7670683264732361,-0.03762852028012276,2.152228593826294,0.37603509426116943,-83.20783233642578,1
2118079,-0.36099493503570557,-0.7646682262420654,-0.037048228085041046,2.267737627029419,0.4544813632965088,-83.14962005615234,1
2118091,-0.36082735657691956,-0.7646591663360596,-0.03695147484540939,2.2658629417419434,0.45487499237060547,-83.07347869873047,1
2118099,-0.35466575622558594,-0.7673382759094238,-0.03761911019682884,2.0968406200408936,0.33418092131614685,-83.2335433959961,1
2118109,-0.3611529767513275,-0.7647660970687866,-0.03720884397625923,2.2915782928466797,0.4622974991798401,-83.17223358154297,1
2118119,-0.3610195517539978,-0.7647475600242615,-0.03711926192045212,2.2904908657073975,0.4638834297657013,-83.09785461425781,1
2118129,-0.3546244502067566,-0.7673594355583191,-0.037553977221250534,2.1704564094543457,0.3753798007965088,-83.27079772949219,1
2118141,-0.35430124402046204,-0.7674368023872375,-0.03747526928782463,2.1677324771881104,0.3763299286365509,-83.1958236694336,1
2118149,-0.3608423173427582,-0.7644898891448975,-0.03733744099736214,2.3372559547424316,0.4986955225467682,-83.13764190673828,1
2118159,-0.36077919602394104,-0.7644292712211609,-0.03725297376513481,2.3357627391815186,0.4992261230945587,-83.06147766113281,1
2118169,-0.3546369969844818,-0.7669405937194824,-0.03778086602687836,2.1578383445739746,0.3802976608276367,-83.23095703125,1
2118179,-0.36090508103370667,-0.7646987438201904,-0.037090543657541275,2.2736566066741943,0.4543946385383606,-83.16063690185547,1
2118189,-0.3607439696788788,-0.7646894454956055,-0.03699997067451477,2.2726173400878906,0.45448198914527893,-83.08583068847656,1
2118199,-0.3546745479106903,-0.7673671245574951,-0.03770875185728073,2.1112468242645264,0.3391534388065338,-83.24261474609375,1
2118209,-0.36084797978401184,-0.7648958563804626,-0.03734562546014786,2.2944576740264893,0.46144455671310425,-83.17865753173828,1
2118219,-0.36071690917015076,-0.7648807168006897,-0.03726339712738991,2.2918972969055176,0.46291717886924744,-83.10295867919922,1
2118229,-0.3545975685119629,-0.767416775226593,-0.037736859172582626,2.177778720855713,0.3788110017776489,-83.25456237792969,1
2118239,-0.35428735613822937,-0.7674896121025085,-0.037664785981178284,2.176335096359253,0.3816630244255066,-83.17904663085938,1
2118249,-0.3610790967941284,-0.7647919654846191,-0.03719310462474823,2.35174822807312,0.4982091784477234,-83.1170654296875,1
2118259,-0.355118989944458,-0.7671811580657959,-0.03764190152287483,2.1715075969696045,0.3774789869785309,-83.28148651123047,1
2118269,-0.3548022210597992,-0.7672547101974487,-0.037565406411886215,2.170286178588867,0.3793652057647705,-83.20567321777344,1
2118279,-0.3609957993030548,-0.7645849585533142,-0.037299588322639465,2.2817609310150146,0.46591824293136597,-83.13980102539062,1
2118289,-0.3608505129814148,-0.7645642757415771,-0.03720693290233612,2.281316041946411,0.4666801691055298,-83.06480407714844,1
2118299,-0.3542877733707428,-0.7671799063682556,-0.037631694227457047,2.1057064533233643,0.3505837321281433,-83.2238998413086,1
2118309,-0.360745370388031,-0.7643893957138062,-0.03742072358727455,2.297865629196167,0.48443707823753357,-83.16223907470703,1
2118319,-0.36062660813331604,-0.7643424868583679,-0.03733605891466141,2.2963144779205322,0.4873533546924591,-83.08792877197266,1
2118329,-0.35468021035194397,-0.7669424414634705,-0.03798244893550873,2.1844332218170166,0.3990021347999573,-83.25048065185547,1
2118339,-0.3543904721736908,-0.7669903039932251,-0.03791532665491104,2.1826179027557373,0.4001351594924927,-83.17460632324219,1
2118349,-0.36095255613327026,-0.7645016312599182,-0.0373353473842144,2.353440999984741,0.5097798109054565,-83.11414337158203,1
2118359,-0.35493794083595276,-0.7670631408691406,-0.03797087445855141,2.163844108581543,0.37690430879592896,-83.28016662597656,1
2118369,-0.3546144366264343,-0.7671367526054382,-0.0379117876291275,2.1626169681549072,0.3791489601135254,-83.2040023803711,1
2118379,-0.3610357940196991,-0.7646069526672363,-0.037432800978422165,2.281498908996582,0.4637044072151184,-83.14285278320312,1
2118389,-0.360892653465271,-0.7645878791809082,-0.0373491607606411,2.281100034713745,0.4636152982711792,-83.06717681884766,1
2118399,-0.35465896129608154,-0.7672399878501892,-0.037969134747982025,2.115834951400757,0.34503743052482605,-83.22771453857422,1
2118409,-0.3611588776111603,-0.7647715210914612,-0.0374649278819561,2.307835817337036,0.4687976837158203,-83.16978454589844,1
2118419,-0.3610519766807556,-0.7647470831871033,-0.03737684711813927,2.3060436248779297,0.4715798795223236,-83.09379577636719,1
2118429,-0.35472336411476135,-0.7672621011734009,-0.03772425651550293,2.186584949493408,0.3850720226764679,-83.25743865966797,1
2118441,-0.35443049669265747,-0.767331063747406,-0.0376434363424778,2.185338020324707,0.38518351316452026,-83.18160247802734,1
2118449,-0.361041396856308,-0.7647133469581604,-0.03716360032558441,2.3561034202575684,0.49663662910461426,-83.12187957763672,1
2118459,-0.35515904426574707,-0.767143726348877,-0.037678539752960205,2.176872730255127,0.37520331144332886,-83.29710388183594,1
2118469,-0.3548554480075836,-0.7672196626663208,-0.037602704018354416,2.1768534183502197,0.37698525190353394,-83.22111511230469,1
2118479,-0.3611146807670593,-0.7647368907928467,-0.03714356943964958,2.2898476123809814,0.45661598443984985,-83.1552505493164,1
2118489,-0.3609846234321594,-0.7647204995155334,-0.03704920411109924,2.288393259048462,0.4589206576347351,-83.07950592041016,1
2118499,-0.35463449358940125,-0.7674504518508911,-0.03769771382212639,2.1193203926086426,0.34077510237693787,-83.23711395263672,1
2118509,-0.35463449358940125,-0.7674504518508911,-0.03769771382212639,2.1193203926086426,0.34077510237693787,-83.23711395263672,1
2118519,-0.3612366020679474,-0.7646482586860657,-0.03730551153421402,2.3171067237854004,0.47676995396614075,-83.09361267089844,1
2118529,-0.354707807302475,-0.7672228217124939,-0.03765185549855232,2.1950771808624268,0.38860663771629333,-83.2529296875,1
2118539,-0.3544254004955292,-0.7672778367996216,-0.03757605701684952,2.1930553913116455,0.3891950845718384,-83.17648315429688,1
2118549,-0.360860139131546,-0.764745831489563,-0.037093423306941986,2.3587775230407715,0.4983450770378113,-83.11489868164062,1
2118559,-0.360860139131546,-0.764745831489563,-0.037093423306941986,2.3587775230407715,0.4983450770378113,-83.11489868164062,1
2118569,-0.3545481860637665,-0.7672950625419617,-0.037535883486270905,2.1729841232299805,0.3725587725639343,-83.19840240478516,1
2118579,-0.36084070801734924,-0.7646659016609192,-0.03719743341207504,2.286952018737793,0.45792803168296814,-83.13997650146484,1
2118589,-0.36071112751960754,-0.7646427750587463,-0.03710959851741791,2.2843410968780518,0.45954012870788574,-83.06403350830078,1
2118599,-0.35439959168434143,-0.767192542552948,-0.03757895529270172,2.115210771560669,0.34473592042922974,-83.2249755859375,1
2118609,-0.35439959168434143,-0.767192542552948,-0.03757895529270172,2.115210771560669,0.34473592042922974,-83.2249755859375,1
2118619,-0.36069560050964355,-0.764513373374939,-0.037167053669691086,2.3027403354644775,0.4762939214706421,-83.08255004882812,1
2118629,-0.35478079319000244,-0.7671908140182495,-0.03790866583585739,2.1917831897735596,0.387405127286911,-83.24006652832031,1
2118639,-0.3544996678829193,-0.7672417759895325,-0.03784440830349922,2.1904795169830322,0.38874176144599915,-83.16339874267578,1
2118649,-0.3611092269420624,-0.7646216750144958,-0.03737808018922806,2.361172676086426,0.5008097290992737,-83.10753631591797,1
2118659,-0.3611092269420624,-0.7646216750144958,-0.03737808018922806,2.361172676086426,0.5008097290992737,-83.10753631591797,1
2118669,-0.35479018092155457,-0.767116904258728,-0.037795137614011765,2.1758475303649902,0.37740883231163025,-83.1839370727539,1
2118679,-0.3609713912010193,-0.764629602432251,-0.03737102448940277,2.2877471446990967,0.4565572440624237,-83.12427520751953,1
2118689,-0.36084696650505066,-0.7646052837371826,-0.037281621247529984,2.287334442138672,0.45776742696762085,-83.04911041259766,1
2118699,-0.3546246886253357,-0.76702481508255,-0.03761890158057213,2.121481418609619,0.348252534866333,-83.2193603515625,1
2118709,-0.3610057532787323,-0.7645310163497925,-0.037161074578762054,2.311086654663086,0.47413232922554016,-83.1562728881836,1
2118719,-0.36091431975364685,-0.7644879817962646,-0.0370648056268692,2.3106491565704346,0.47601625323295593,-83.0806655883789,1
2118729,-0.3546311557292938,-0.7671961784362793,-0.03766542300581932,2.1926584243774414,0.3842010498046875,-83.24581909179688,1
2118739,-0.3543563783168793,-0.76725172996521,-0.037586357444524765,2.1907405853271484,0.38388004899024963,-83.169677734375,1
2118749,-0.36103570461273193,-0.7644751071929932,-0.03722095862030983,2.36405348777771,0.5027701258659363,-83.0963134765625,1
2118759,-0.35505762696266174,-0.7669605016708374,-0.03778114914894104,2.180891990661621,0.37549564242362976,-83.26659393310547,1
2118769,-0.3547690808773041,-0.7670233249664307,-0.03771228343248367,2.1785004138946533,0.3776451349258423,-83.18978881835938,1
2118779,-0.3609720766544342,-0.7644730806350708,-0.03733810409903526,2.2912404537200928,0.45936644077301025,-83.12139892578125,1
2118789,-0.36086079478263855,-0.7644419074058533,-0.0372508205473423,2.289597749710083,0.4609282910823822,-83.04557037353516,1
2118799,-0.35463568568229675,-0.7670050263404846,-0.03775782510638237,2.1212141513824463,0.34734803438186646,-83.21483612060547,1
2118809,-0.35463568568229675,-0.7670050263404846,-0.03775782510638237,2.1212141513824463,0.34734803438186646,-83.21483612060547,1
2118819,-0.3608202338218689,-0.7645240426063538,-0.03722788020968437,2.30604887008667,0.4697999656200409,-83.0794906616211,1
2118829,-0.3547602891921997,-0.7669808864593506,-0.03762898966670036,2.1917226314544678,0.38542482256889343,-83.25218963623047,1
2118839,-0.35449451208114624,-0.7670340538024902,-0.037547700107097626,2.1905596256256104,0.3854229748249054,-83.17627716064453,1
2118849,-0.36104464530944824,-0.7643652558326721,-0.037143394351005554,2.359799385070801,0.49876680970191956,-83.11689758300781,1
2118859,-0.36104464530944824,-0.7643652558326721,-0.037143394351005554,2.359799385070801,0.49876680970191956,-83.11689758300781,1
2118869,-0.3547574281692505,-0.7668743133544922,-0.037573542445898056,2.1730313301086426,0.37500032782554626,-83.1938705444336,1
2118879,-0.3610336184501648,-0.7644610404968262,-0.03704703971743584,2.2875406742095947,0.4531552791595459,-83.13603973388672,1
2118889,-0.3609217703342438,-0.7644408345222473,-0.036955736577510834,2.2859952449798584,0.4565291106700897,-83.06098175048828,1
2118899,-0.3545197546482086,-0.7673168182373047,-0.03774971887469292,2.1149682998657227,0.333186537027359,-83.21614074707031,1
2118909,-0.3545197546482086,-0.7673168182373047,-0.03774971887469292,2.1149682998657227,0.333186537027359,-83.21614074707031,1
2118919,-0.36098626255989075,-0.764651358127594,-0.03732497617602348,2.3081226348876953,0.4659968316555023,-83.06598663330078,1
2118929,-0.35471466183662415,-0.7671180963516235,-0.03764826059341431,2.1874516010284424,0.38049694895744324,-83.23326873779297,1
2118939,-0.35444375872612,-0.7671782970428467,-0.03757811337709427,2.185380697250366,0.38173118233680725,-83.1572036743164,1
2118949,-0.36114218831062317,-0.7645511031150818,-0.037085969001054764,2.359187602996826,0.4963851869106293,-83.10155487060547,1
2118959,-0.36114218831062317,-0.7645511031150818,-0.037085969001054764,2.359187602996826,0.4963851869106293,-83.10155487060547,1
2118969,-0.35482466220855713,-0.7672915458679199,-0.03775080293416977,2.1725096702575684,0.36249223351478577,-83.17884063720703,1
2118979,-0.36107197403907776,-0.7649350166320801,-0.037211138755083084,2.286802053451538,0.4404206871986389,-83.11572265625,1
2118989,-0.36095958948135376,-0.7649332880973816,-0.03712449222803116,2.286719799041748,0.4413105845451355,-83.04025268554688,1
2118999,-0.3546193838119507,-0.7675601243972778,-0.03763261064887047,2.1165719032287598,0.3262079358100891,-83.1980209350586,1
2119009,-0.3546193838119507,-0.7675601243972778,-0.03763261064887047,2.1165719032287598,0.3262079358100891,-83.1980209350586,1
2119019,-0.3609725534915924,-0.7647247314453125,-0.03741750866174698,2.305677652359009,0.46702462434768677,-83.0665054321289,1
2119029,-0.35474902391433716,-0.7671404480934143,-0.0377037487924099,2.1865713596343994,0.3831457495689392,-83.24119567871094,1
2119039,-0.3544829785823822,-0.7672011852264404,-0.037632085382938385,2.1854708194732666,0.3846895098686218,-83.16543579101562,1
2119049,-0.3611154556274414,-0.7646282911300659,-0.03711897134780884,2.3563549518585205,0.49717915058135986,-83.10572814941406,1
2119059,-0.36111482977867126,-0.764568030834198,-0.03702377527952194,2.3548035621643066,0.4972820281982422,-83.02862548828125,1
2119069,-0.35463884472846985,-0.7672890424728394,-0.03761203959584236,2.165210723876953,0.3652000427246094,-83.20281219482422,1
2119079,-0.3608682155609131,-0.7647724747657776,-0.037213899195194244,2.279235601425171,0.4474101960659027,-83.14318084716797,1
2119089,-0.36075159907341003,-0.764761745929718,-0.03713185712695122,2.275761127471924,0.4490303695201874,-83.06704711914062,1
2119099,-0.354409396648407,-0.7672721147537231,-0.03752322867512703,2.1042399406433105,0.33461323380470276,-83.23793029785156,1
2119109,-0.3540278375148773,-0.7673829793930054,-0.037459295243024826,2.1038498878479004,0.33776289224624634,-83.16207122802734,1
2119119,-0.36081212759017944,-0.7646124958992004,-0.03708403930068016,2.2969930171966553,0.4695209860801697,-83.1022720336914,1
2119129,-0.35468247532844543,-0.7671261429786682,-0.03752459958195686,2.1805083751678467,0.3842847943305969,-83.26065826416016,1
2119139,-0.35441553592681885,-0.7671847343444824,-0.03744714334607124,2.1780149936676025,0.3838749825954437,-83.18502044677734,1
2119149,-0.36099153757095337,-0.7645941376686096,-0.0369621142745018,2.348651170730591,0.4963752329349518,-83.12508392333984,1
2119159,-0.36099153757095337,-0.7645941376686096,-0.0369621142745018,2.348651170730591,0.4963752329349518,-83.12508392333984,1
2119169,-0.35455504059791565,-0.7672549486160278,-0.037470608949661255,2.157482385635376,0.3631002604961395,-83.21175384521484,1
2119179,-0.36095184087753296,-0.7646215558052063,-0.037096746265888214,2.274991273880005,0.4500102400779724,-83.159423828125,1
2119189,-0.3608319163322449,-0.7646044492721558,-0.037009626626968384,2.271967649459839,0.45275917649269104,-83.08331298828125,1
2119199,-0.3544462323188782,-0.7672906517982483,-0.037589557468891144,2.1009316444396973,0.33441323041915894,-83.24634552001953,1
2119209,-0.3544462323188782,-0.7672906517982483,-0.037589557468891144,2.1009316444396973,0.33441323041915894,-83.24634552001953,1
2119219,-0.36078765988349915,-0.7646710276603699,-0.03714745119214058,2.289327621459961,0.4643409550189972,-83.10704803466797,1
2119229,-0.35458242893218994,-0.7673854231834412,-0.03778960555791855,2.17179799079895,0.37407630681991577,-83.26207733154297,1
2119239,-0.3543108105659485,-0.7674532532691956,-0.03772398829460144,2.1693274974823,0.37541523575782776,-83.18482971191406,1
2119249,-0.36103200912475586,-0.76474928855896,-0.03730609640479088,2.3444747924804688,0.49208927154541016,-83.11791229248047,1
2119259,-0.36103200912475586,-0.76474928855896,-0.03730609640479088,2.3444747924804688,0.49208927154541016,-83.11791229248047,1
2119269,-0.3546563982963562,-0.7674002647399902,-0.03784829005599022,2.1559741497039795,0.3628811240196228,-83.19984436035156,1
2119279,-0.361062616109848,-0.7648102641105652,-0.037451501935720444,2.2723982334136963,0.44723841547966003,-83.14409637451172,1
2119289,-0.36095091700553894,-0.7647944092750549,-0.03737102076411247,2.2709574699401855,0.449172705411911,-83.06792449951172,1
2119299,-0.35478639602661133,-0.7672615647315979,-0.03778054565191269,2.1040797233581543,0.3373519480228424,-83.23394775390625,1
2119309,-0.35478639602661133,-0.7672615647315979,-0.03778054565191269,2.1040797233581543,0.3373519480228424,-83.23394775390625,1
2119319,-0.3609027564525604,-0.7647941708564758,-0.03728529065847397,2.289583206176758,0.4614447355270386,-83.08985137939453,1
2119329,-0.3545287549495697,-0.7673269510269165,-0.0376303568482399,2.1678528785705566,0.37504130601882935,-83.25628662109375,1
2119339,-0.3542560040950775,-0.7673891186714172,-0.037544142454862595,2.166607141494751,0.3761904239654541,-83.1810531616211,1
2119349,-0.36098477244377136,-0.7646223306655884,-0.03715350106358528,2.3420307636260986,0.49456292390823364,-83.12447357177734,1
2119359,-0.36098477244377136,-0.7646223306655884,-0.03715350106358528,2.3420307636260986,0.49456292390823364,-83.12447357177734,1
2119369,-0.35467103123664856,-0.7671960592269897,-0.03762027621269226,2.154567241668701,0.3698449432849884,-83.21258544921875,1
2119379,-0.3610354959964752,-0.7647783756256104,-0.03705525025725365,2.2714390754699707,0.4497879445552826,-83.13565826416016,1
