time.ms,stateEstimate.x,stateEstimate.y,stateEstimate.z,stabilizer.roll,stabilizer.pitch,stabilizer.yaw,pm.vbat
1516378,0.0,0.0,54.10449981689453,-0.12790706753730774,0.31009259819984436,60.40272521972656,3.958984375
1516388,0.0,0.0,54.104522705078125,-0.1262458711862564,0.30994799733161926,60.40303421020508,3.958984375
1516398,0.0,0.0,54.10452651977539,-0.127188041806221,0.307333767414093,60.40245819091797,3.958984375
1516408,0.0,0.0,54.104530334472656,-0.12725237011909485,0.30713459849357605,60.402156829833984,3.958984375
1516418,0.0,0.0,54.104583740234375,-0.12705110013484955,0.30730193853378296,60.401580810546875,3.958984375
1516428,0.0,0.0,54.104637145996094,-0.12705622613430023,0.3079018294811249,60.40227508544922,3.958984375
1516438,0.0,0.0,54.10475540161133,-0.12692366540431976,0.3057463765144348,60.402496337890625,3.958984375
1516448,0.0,0.0,54.10487365722656,-0.126672625541687,0.3055441081523895,60.40254211425781,3.958984375
1516458,0.0,0.0,54.1049919128418,-0.12629327178001404,0.3076859414577484,60.40111541748047,3.958984375
1516468,0.0,0.0,54.10511016845703,-0.12589046359062195,0.3064577877521515,60.40129852294922,3.958984375
1516478,0.0,0.0,54.104801177978516,-0.12601499259471893,0.3062935173511505,60.401824951171875,3.958984375
1516488,0.0,0.0,54.1044921875,-0.12664756178855896,0.3069249093532562,60.40269470214844,3.958984375
1516498,0.0,0.0,54.10416793823242,-0.1265581250190735,0.3073549270629883,60.402767181396484,3.958984375
1516508,0.0,0.0,54.10384750366211,-0.1265350580215454,0.30666449666023254,60.402034759521484,3.958984375
1516518,0.0,0.0,54.10346221923828,-0.1259787231683731,0.3075573444366455,60.401466369628906,3.958984375
1516528,0.0,0.0,54.10307693481445,-0.12540386617183685,0.3088136613368988,60.40032958984375,3.958984375
1516538,0.0,0.0,54.10289001464844,-0.12514469027519226,0.3092080354690552,60.401397705078125,3.958984375
1516548,0.0,0.0,54.10270309448242,-0.12446078658103943,0.3090806305408478,60.4017219543457,3.958984375
1516558,0.0,0.0,54.10246658325195,-0.12475871294736862,0.309405654668808,60.400352478027344,3.958984375
1516568,0.0,0.0,54.102230072021484,-0.12584179639816284,0.3082730770111084,60.40144729614258,3.958984375
1516578,0.0,0.0,54.10194778442383,-0.1242099180817604,0.3097027540206909,60.40017318725586,3.958984375
1516588,0.0,0.0,54.10166549682617,-0.1258009821176529,0.3095010817050934,60.39973449707031,3.958984375
1516598,0.0,0.0,54.10133361816406,-0.12620067596435547,0.3100782334804535,60.399635314941406,3.958984375
1516608,0.0,0.0,54.10100555419922,-0.1265748292207718,0.30866768956184387,60.39949035644531,3.958984375
1516618,0.0,0.0,54.1008415222168,-0.1267586201429367,0.30900150537490845,60.39963912963867,3.958984375
1516628,0.0,0.0,54.100677490234375,-0.12656386196613312,0.30998891592025757,60.3997802734375,3.958984375
1516638,0.0,0.0,54.10047912597656,-0.12703628838062286,0.3101666271686554,60.399837493896484,3.958984375
1516648,0.0,0.0,54.100284576416016,-0.12829895317554474,0.31121551990509033,60.40058135986328,3.958984375
1516658,0.0,0.0,54.10025405883789,-0.12782497704029083,0.31310319900512695,60.40191650390625,3.958984375
1516668,0.0,0.0,54.100223541259766,-0.1274949461221695,0.31101834774017334,60.402000427246094,3.958984375
1516678,0.0,0.0,54.100128173828125,-0.12729062139987946,0.31022360920906067,60.40156555175781,3.958984375
1516688,0.0,0.0,54.100032806396484,-0.126586452126503,0.31008297204971313,60.402008056640625,3.958984375
1516698,0.0,0.0,54.10000228881836,-0.12727537751197815,0.3107960820198059,60.40135192871094,3.958984375
1516708,0.0,0.0,54.099971771240234,-0.12690812349319458,0.3098641335964203,60.40134811401367,3.958984375
1516718,0.0,0.0,54.100040435791016,-0.12626969814300537,0.3097071349620819,60.401607513427734,3.958984375
1516728,0.0,0.0,54.1001091003418,-0.12622907757759094,0.3094841241836548,60.402748107910156,3.958984375
1516738,0.0,0.0,54.1002082824707,-0.1263195425271988,0.30759114027023315,60.40277862548828,3.958984375
1516748,0.0,0.0,54.10030746459961,-0.12639638781547546,0.30639100074768066,60.40277862548828,3.958984375
1516758,0.0,0.0,54.100341796875,-0.12660986185073853,0.3060433566570282,60.40251541137695,3.958984375
1516768,0.0,0.0,54.10037612915039,-0.1264188140630722,0.3063889145851135,60.40205383300781,3.953125
1516778,0.0,0.0,54.10037612915039,-0.12577642500400543,0.30695852637290955,60.40220260620117,3.953125
1516788,0.0,0.0,54.10037612915039,-0.12486438453197479,0.3080148994922638,60.403480529785156,3.953125
1516798,0.0,0.0,54.100460052490234,-0.1253049522638321,0.30889543890953064,60.402305603027344,3.958984375
1516808,0.0,0.0,54.10054397583008,-0.12448551505804062,0.308790385723114,60.40266036987305,3.958984375
1516818,0.0,0.0,54.10082244873047,-0.12481381744146347,0.3101937472820282,60.40218734741211,3.958984375
1516828,0.0,0.0,54.10110092163086,-0.12425846606492996,0.31202709674835205,60.40316390991211,3.958984375
1516838,0.0,0.0,54.101200103759766,-0.12448985129594803,0.31131792068481445,60.403385162353516,3.958984375
1516848,0.0,0.0,54.101295471191406,-0.12389279156923294,0.3107157051563263,60.40340042114258,3.958984375
1516858,0.0,0.0,54.10162353515625,-0.1231844574213028,0.31329190731048584,60.40279006958008,3.958984375
1516868,0.0,0.0,54.10194778442383,-0.12339170277118683,0.313750296831131,60.403297424316406,3.958984375
1516878,0.0,0.0,54.10204315185547,-0.1219446212053299,0.3142991065979004,60.40451431274414,3.958984375
1516888,0.0,0.0,54.10213851928711,-0.12113841623067856,0.313576340675354,60.40404510498047,3.958984375
1516898,0.0,0.0,54.10221481323242,-0.12228947132825851,0.31402722001075745,60.40312576293945,3.958984375
1516908,0.0,0.0,54.102291107177734,-0.12166205793619156,0.3143233358860016,60.403564453125,3.958984375
1516918,0.0,0.0,54.102272033691406,-0.12077873200178146,0.31618812680244446,60.40427780151367,3.958984375
1516928,0.0,0.0,54.10225296020508,-0.11996549367904663,0.3174893260002136,60.4029655456543,3.958984375
1516938,0.0,0.0,54.1021842956543,-0.11977144330739975,0.3178075850009918,60.403099060058594,3.958984375
1516948,0.0,0.0,54.102115631103516,-0.11986765265464783,0.31789398193359375,60.40272521972656,3.958984375
1516958,0.0,0.0,54.10194778442383,-0.12111503630876541,0.31876590847969055,60.40281677246094,3.958984375
1516968,0.0,0.0,54.10177993774414,-0.1214335635304451,0.3184116780757904,60.403228759765625,3.958984375
1516978,0.0,0.0,54.10163116455078,-0.12005650252103806,0.3198794424533844,60.403316497802734,3.958984375
1516988,0.0,0.0,54.10148239135742,-0.11928711831569672,0.32078829407691956,60.4028434753418,3.958984375
1516998,0.0,0.0,54.101497650146484,-0.11915058642625809,0.31992435455322266,60.40227508544922,3.958984375
1517008,0.0,0.0,54.10151290893555,-0.11917862296104431,0.3188473880290985,60.40127944946289,3.958984375
1517018,0.0,0.0,54.10139465332031,-0.11945461481809616,0.31609758734703064,60.402435302734375,3.958984375
1517028,0.0,0.0,54.10127639770508,-0.11954770982265472,0.3169298470020294,60.40244674682617,3.958984375
1517038,0.0,0.0,54.10125732421875,-0.11884637176990509,0.31713351607322693,60.4018669128418,3.958984375
1517048,0.0,0.0,54.10123825073242,-0.11814197152853012,0.3160257339477539,60.401554107666016,3.958984375
1517058,0.0,0.0,54.10126876831055,-0.11757553368806839,0.3177945613861084,60.402679443359375,3.958984375
1517068,0.0,0.0,54.10129928588867,-0.11781661212444305,0.31963345408439636,60.40248107910156,3.958984375
1517078,0.0,0.0,54.10137939453125,-0.11716911941766739,0.31910890340805054,60.40279769897461,3.958984375
1517088,0.0,0.0,54.10145950317383,-0.11817313730716705,0.31921595335006714,60.40217590332031,3.958984375
1517098,0.0,0.0,54.10127639770508,-0.1181081235408783,0.320639431476593,60.40229034423828,3.958984375
1517108,0.0,0.0,54.10109329223633,-0.11947957426309586,0.3202502131462097,60.401065826416016,3.958984375
1517118,0.0,0.0,54.10099411010742,-0.11861619353294373,0.3211709260940552,60.40242385864258,3.958984375
1517128,0.0,0.0,54.100894927978516,-0.117864228785038,0.3208902180194855,60.402442932128906,3.958984375
1517138,0.0,0.0,54.10066604614258,-0.11868475377559662,0.31998589634895325,60.40282440185547,3.958984375
1517148,0.0,0.0,54.10043716430664,-0.11924882978200912,0.32057297229766846,60.40218734741211,3.958984375
1517158,0.0,0.0,54.100128173828125,-0.11863233894109726,0.3200437128543854,60.40100860595703,3.958984375
1517168,0.0,0.0,54.09981918334961,-0.11870043724775314,0.3214232623577118,60.4018669128418,3.958984375
1517178,0.0,0.0,54.09959411621094,-0.11871492862701416,0.3217986524105072,60.39970397949219,3.958984375
1517188,0.0,0.0,54.099369049072266,-0.11908072978258133,0.3227413296699524,60.400089263916016,3.958984375
1517198,0.0,0.0,54.09935760498047,-0.12048344314098358,0.32251349091529846,60.40020751953125,3.958984375
1517208,0.0,0.0,54.09934616088867,-0.1217351108789444,0.3233736753463745,60.39985656738281,3.958984375
1517218,0.0,0.0,54.099220275878906,-0.12142722308635712,0.3253825306892395,60.3991584777832,3.958984375
1517228,0.0,0.0,54.09909439086914,-0.12091752886772156,0.3252008855342865,60.39960479736328,3.958984375
1517238,0.0,0.0,54.09891891479492,-0.1230417862534523,0.32395124435424805,60.39983367919922,3.958984375
1517248,0.0,0.0,54.0987434387207,-0.12323982268571854,0.32398322224617004,60.399681091308594,3.958984375
1517258,0.0,0.0,54.09846878051758,-0.12405208498239517,0.3220507800579071,60.398685455322266,3.953125
1517268,0.0,0.0,54.09819793701172,-0.12499947845935822,0.32146936655044556,60.399147033691406,3.953125
1517278,0.0,0.0,54.09794235229492,-0.12459587305784225,0.32180848717689514,60.39859390258789,3.953125
1517288,0.0,0.0,54.097686767578125,-0.12390346080064774,0.3216281235218048,60.39908218383789,3.953125
1517298,0.0,0.0,54.09746551513672,-0.12224406003952026,0.3222763240337372,60.400508880615234,3.958984375
1517308,0.0,0.0,54.09724426269531,-0.12273478507995605,0.3220139145851135,60.40019226074219,3.958984375
1517318,0.0,0.0,54.097042083740234,-0.12323857098817825,0.321484237909317,60.39919662475586,3.958984375
1517328,0.0,0.0,54.096839904785156,-0.12250005453824997,0.32318538427352905,60.39869689941406,3.958984375
1517338,0.0,0.0,54.09657287597656,-0.12363233417272568,0.3214537799358368,60.399375915527344,3.958984375
1517348,0.0,0.0,54.09630584716797,-0.12187130004167557,0.3228275775909424,60.398040771484375,3.958984375
1517358,0.0,0.0,54.096221923828125,-0.12207576632499695,0.3244946599006653,60.39711380004883,3.958984375
1517368,0.0,0.0,54.09613800048828,-0.12127233296632767,0.3226587474346161,60.39731216430664,3.958984375
1517378,0.0,0.0,54.09598922729492,-0.12195010483264923,0.32154712080955505,60.396507263183594,3.958984375
1517388,0.0,0.0,54.09584045410156,-0.12206415832042694,0.32066360116004944,60.397216796875,3.958984375
1517398,0.0,0.0,54.09588623046875,-0.12300185859203339,0.31979528069496155,60.39884567260742,3.958984375
1517408,0.0,0.0,54.09593200683594,-0.12362369149923325,0.3201931118965149,60.39775085449219,3.958984375
1517418,0.0,0.0,54.095947265625,-0.12427323311567307,0.31984856724739075,60.39686584472656,3.958984375
1517428,0.0,0.0,54.09596252441406,-0.12441136687994003,0.31971293687820435,60.39592361450195,3.958984375
1517438,0.0,0.0,54.095863342285156,-0.12338664382696152,0.32021117210388184,60.395973205566406,3.958984375
1517448,0.0,0.0,54.09576416015625,-0.12306706607341766,0.32029974460601807,60.3949089050293,3.958984375
1517458,0.0,0.0,54.09564971923828,-0.12364225089550018,0.3203480541706085,60.395713806152344,3.958984375
1517468,0.0,0.0,54.09553527832031,-0.12420304864645004,0.32099810242652893,60.394657135009766,3.958984375
1517478,0.0,0.0,54.09550094604492,-0.12560759484767914,0.31865978240966797,60.39519500732422,3.958984375
1517488,0.0,0.0,54.09546661376953,-0.1265200525522232,0.3181452453136444,60.39528274536133,3.958984375
1517498,0.0,0.0,54.09556579589844,-0.12564057111740112,0.31871840357780457,60.39622116088867,3.958984375
1517508,0.0,0.0,54.095664978027344,-0.12658736109733582,0.3202139437198639,60.3954963684082,3.958984375
1517518,0.0,0.0,54.095664978027344,-0.12723472714424133,0.3187224566936493,60.39527893066406,3.958984375
1517528,0.0,0.0,54.095664978027344,-0.12723581492900848,0.3186199963092804,60.39529037475586,3.958984375
1517538,0.0,0.0,54.09574508666992,-0.1284046620130539,0.31702643632888794,60.39524841308594,3.958984375
1517548,0.0,0.0,54.0958251953125,-0.12789200246334076,0.3171813189983368,60.39533615112305,3.958984375
1517558,0.0,0.0,54.09584045410156,-0.12980841100215912,0.31629979610443115,60.394554138183594,3.958984375
1517568,0.0,0.0,54.095855712890625,-0.12936176359653473,0.3179177939891815,60.39558410644531,3.958984375
1517578,0.0,0.0,54.09575653076172,-0.12880685925483704,0.3189614713191986,60.39676284790039,3.958984375
1517588,0.0,0.0,54.09565734863281,-0.1287071704864502,0.32024940848350525,60.39672088623047,3.958984375
1517598,0.0,0.0,54.095672607421875,-0.12746208906173706,0.31981804966926575,60.39620590209961,3.958984375
1517608,0.0,0.0,54.09568786621094,-0.12884707748889923,0.3204459846019745,60.395023345947266,3.958984375
1517618,0.0,0.0,54.09571838378906,-0.12720392644405365,0.31996670365333557,60.39622116088867,3.958984375
1517628,0.0,0.0,54.09574890136719,-0.12780196964740753,0.3206721246242523,60.394927978515625,3.958984375
1517638,0.0,0.0,54.095680236816406,-0.12698812782764435,0.32237663865089417,60.39453887939453,3.958984375
1517648,0.0,0.0,54.095611572265625,-0.12755724787712097,0.3223889172077179,60.39329528808594,3.958984375
1517658,0.0,0.0,54.0954475402832,-0.1275854855775833,0.32324135303497314,60.39301300048828,3.958984375
1517668,0.0,0.0,54.09528350830078,-0.12686660885810852,0.32385972142219543,60.3939323425293,3.958984375
1517678,0.0,0.0,54.09515380859375,-0.12575066089630127,0.3240897059440613,60.39167022705078,3.958984375
1517688,0.0,0.0,54.09502410888672,-0.12614943087100983,0.3243774473667145,60.39045333862305,3.958984375
1517698,0.0,0.0,54.094844818115234,-0.1267460584640503,0.32553163170814514,60.390342712402344,3.958984375
1517708,0.0,0.0,54.09466552734375,-0.12701630592346191,0.3267223834991455,60.39125442504883,3.958984375
1517718,0.0,0.0,54.09440612792969,-0.12670010328292847,0.32542070746421814,60.391727447509766,3.958984375
1517728,0.0,0.0,54.094146728515625,-0.1263459026813507,0.3269335925579071,60.39213180541992,3.958984375
1517738,0.0,0.0,54.09364318847656,-0.1261347085237503,0.32586658000946045,60.392425537109375,3.958984375
1517748,0.0,0.0,54.0931396484375,-0.12533357739448547,0.3251541554927826,60.39242172241211,3.958984375
1517758,0.0,0.0,54.09281921386719,-0.12602762877941132,0.3261652886867523,60.391014099121094,3.953125
1517768,0.0,0.0,54.092498779296875,-0.12530352175235748,0.32691463828086853,60.39059066772461,3.953125
1517778,0.0,0.0,54.09204864501953,-0.1264353096485138,0.3249798119068146,60.38998794555664,3.953125
1517788,0.0,0.0,54.09159851074219,-0.1264226883649826,0.32514265179634094,60.38968276977539,3.953125
1517798,0.0,0.0,54.091217041015625,-0.12705755233764648,0.32598060369491577,60.39025115966797,3.958984375
1517808,0.0,0.0,54.09083557128906,-0.12755508720874786,0.3252813518047333,60.39053726196289,3.958984375
1517818,0.0,0.0,54.09050369262695,-0.12825436890125275,0.3260408639907837,60.39033889770508,3.958984375
1517828,0.0,0.0,54.090171813964844,-0.12891994416713715,0.3276209533214569,60.390079498291016,3.958984375
1517838,0.0,0.0,54.08995819091797,-0.12853121757507324,0.32743266224861145,60.391014099121094,3.958984375
1517848,0.0,0.0,54.089744567871094,-0.12790964543819427,0.3265182077884674,60.39176940917969,3.958984375
1517858,0.0,0.0,54.08956527709961,-0.12832441926002502,0.32411012053489685,60.39081954956055,3.958984375
1517868,0.0,0.0,54.089385986328125,-0.1281767636537552,0.3239329159259796,60.39229202270508,3.958984375
1517878,0.0,0.0,54.08920669555664,-0.12956945598125458,0.32298406958580017,60.393836975097656,3.958984375
1517888,0.0,0.0,54.089027404785156,-0.12936192750930786,0.3226151466369629,60.39304733276367,3.958984375
1517898,0.0,0.0,54.088783264160156,-0.12982739508152008,0.32101866602897644,60.39362716674805,3.958984375
1517908,0.0,0.0,54.088539123535156,-0.12988372147083282,0.31915563344955444,60.39341735839844,3.958984375
1517918,0.0,0.0,54.08811569213867,-0.12944020330905914,0.3196019232273102,60.393367767333984,3.958984375
1517928,0.0,0.0,54.08769607543945,-0.12988267838954926,0.31718912720680237,60.39468002319336,3.958984375
1517938,0.0,0.0,54.08730697631836,-0.12953004240989685,0.31756019592285156,60.39446258544922,3.958984375
1517948,0.0,0.0,54.08692169189453,-0.12968981266021729,0.3194485008716583,60.39409637451172,3.958984375
1517958,0.0,0.0,54.086849212646484,-0.13010990619659424,0.3206373453140259,60.3955192565918,3.958984375
1517968,0.0,0.0,54.08677673339844,-0.13084618747234344,0.32061338424682617,60.39472579956055,3.958984375
1517978,0.0,0.0,54.086997985839844,-0.13149970769882202,0.32163459062576294,60.39447021484375,3.958984375
1517988,0.0,0.0,54.08721923828125,-0.13050790131092072,0.32070788741111755,60.39421081542969,3.958984375
1517998,0.0,0.0,54.087440490722656,-0.12986549735069275,0.3216334879398346,60.393165588378906,3.958984375
1518008,0.0,0.0,54.08766174316406,-0.13046380877494812,0.3225879967212677,60.39329147338867,3.958984375
1518018,0.0,0.0,54.08784866333008,-0.12957721948623657,0.3218177855014801,60.39247512817383,3.958984375
1518028,0.0,0.0,54.088035583496094,-0.12961818277835846,0.3231908679008484,60.39208221435547,3.958984375
1518038,0.0,0.0,54.088172912597656,-0.12942953407764435,0.32165515422821045,60.39162826538086,3.958984375
1518048,0.0,0.0,54.08831024169922,-0.13030005991458893,0.32138964533805847,60.391510009765625,3.958984375
1518058,0.0,0.0,54.08844757080078,-0.13182789087295532,0.3205719292163849,60.39129638671875,3.958984375
1518068,0.0,0.0,54.08858108520508,-0.13204127550125122,0.3204166889190674,60.390132904052734,3.958984375
1518078,0.0,0.0,54.088829040527344,-0.132160946726799,0.31822144985198975,60.390045166015625,3.958984375
1518088,0.0,0.0,54.08907699584961,-0.13302889466285706,0.31791970133781433,60.38917541503906,3.958984375
1518098,0.0,0.0,54.089324951171875,-0.13421885669231415,0.3180936574935913,60.38886260986328,3.958984375
1518108,0.0,0.0,54.08957290649414,-0.13351944088935852,0.3161790370941162,60.38998794555664,3.958984375
1518118,0.0,0.0,54.089786529541016,-0.13381044566631317,0.31558528542518616,60.39100646972656,3.958984375
1518128,0.0,0.0,54.09000015258789,-0.13463734090328217,0.3140869736671448,60.390602111816406,3.958984375
1518138,0.0,0.0,54.09008026123047,-0.13442429900169373,0.31463193893432617,60.39149856567383,3.958984375
1518148,0.0,0.0,54.09016036987305,-0.13379250466823578,0.31513547897338867,60.39200210571289,3.958984375
1518158,0.0,0.0,54.090274810791016,-0.13326983153820038,0.3152073323726654,60.3910026550293,3.958984375
1518168,0.0,0.0,54.090389251708984,-0.13372138142585754,0.3145715892314911,60.39104080200195,3.958984375
1518178,0.0,0.0,54.09050369262695,-0.13264396786689758,0.31494081020355225,60.39017105102539,3.958984375
1518188,0.0,0.0,54.09061813354492,-0.1333959549665451,0.31314370036125183,60.3897590637207,3.958984375
1518198,0.0,0.0,54.09058380126953,-0.1327030062675476,0.3128730356693268,60.3908576965332,3.958984375
1518208,0.0,0.0,54.09054946899414,-0.1318187415599823,0.31464603543281555,60.390220642089844,3.958984375
1518218,0.0,0.0,54.09074401855469,-0.13069093227386475,0.3164147138595581,60.38939666748047,3.958984375
1518228,0.0,0.0,54.090938568115234,-0.1297374814748764,0.31731724739074707,60.389862060546875,3.958984375
1518238,0.0,0.0,54.090999603271484,-0.12796762585639954,0.3153647482395172,60.39082336425781,3.958984375
1518248,0.0,0.0,54.091060638427734,-0.12812751531600952,0.31416550278663635,60.39033126831055,3.953125
1518258,0.0,0.0,54.09107208251953,-0.12762293219566345,0.31275486946105957,60.392372131347656,3.953125
1518268,0.0,0.0,54.09108352661133,-0.12881602346897125,0.31455206871032715,60.391441345214844,3.953125
1518278,0.0,0.0,54.091243743896484,-0.12876124680042267,0.3159267008304596,60.39142608642578,3.953125
1518288,0.0,0.0,54.09140396118164,-0.12890563905239105,0.3158523738384247,60.39157485961914,3.953125
1518298,0.0,0.0,54.09154510498047,-0.1288325935602188,0.3155231475830078,60.392189025878906,3.958984375
1518308,0.0,0.0,54.0916862487793,-0.12851203978061676,0.31540143489837646,60.39181900024414,3.958984375
1518318,0.0,0.0,54.091712951660156,-0.1289968341588974,0.31715288758277893,60.39112854003906,3.958984375
1518328,0.0,0.0,54.091739654541016,-0.1295827478170395,0.3162461221218109,60.390655517578125,3.958984375
1518338,0.0,0.0,54.091766357421875,-0.13003894686698914,0.31884005665779114,60.38954162597656,3.958984375
1518348,0.0,0.0,54.091793060302734,-0.13026809692382812,0.31749510765075684,60.390037536621094,3.958984375
1518358,0.0,0.0,54.091739654541016,-0.13071073591709137,0.31703758239746094,60.390235900878906,3.958984375
1518368,0.0,0.0,54.0916862487793,-0.13031211495399475,0.31776562333106995,60.39068603515625,3.958984375
1518378,0.0,0.0,54.09149932861328,-0.12965334951877594,0.31874555349349976,60.39002227783203,3.953125
1518388,0.0,0.0,54.091312408447266,-0.12954507768154144,0.3181472420692444,60.3897590637207,3.953125
1518398,0.0,0.0,54.09119415283203,-0.12977373600006104,0.316080242395401,60.38924026489258,3.953125
1518408,0.0,0.0,54.0910758972168,-0.12918706238269806,0.31742313504219055,60.3891487121582,3.953125
1518418,0.0,0.0,54.09122085571289,-0.12890152633190155,0.3186737298965454,60.39065933227539,3.953125
1518428,0.0,0.0,54.091365814208984,-0.12961342930793762,0.3204357326030731,60.38979721069336,3.953125
1518438,0.0,0.0,54.09137725830078,-0.12930399179458618,0.3185945153236389,60.39031982421875,3.953125
1518448,0.0,0.0,54.09138870239258,-0.12867555022239685,0.31914007663726807,60.389495849609375,3.953125
1518458,0.0,0.0,54.0913200378418,-0.12912678718566895,0.31938377022743225,60.389129638671875,3.953125
1518468,0.0,0.0,54.091251373291016,-0.129842147231102,0.3188169002532959,60.389949798583984,3.953125
1518478,0.0,0.0,54.09111404418945,-0.13048186898231506,0.3209476172924042,60.38945007324219,3.953125
1518488,0.0,0.0,54.090980529785156,-0.12923334538936615,0.32042834162712097,60.38982009887695,3.958984375
1518498,0.0,0.0,54.09096145629883,-0.12965580821037292,0.3205316960811615,60.390872955322266,3.958984375
1518508,0.0,0.0,54.0909423828125,-0.1301090270280838,0.31988370418548584,60.39170455932617,3.958984375
1518518,0.0,0.0,54.09098815917969,-0.13152816891670227,0.3177068829536438,60.39189529418945,3.958984375
1518528,0.0,0.0,54.091033935546875,-0.13027144968509674,0.3169987201690674,60.39198303222656,3.958984375
1518538,0.0,0.0,54.091129302978516,-0.1302850842475891,0.31536853313446045,60.392669677734375,3.958984375
1518548,0.0,0.0,54.091224670410156,-0.13051779568195343,0.31413233280181885,60.39231491088867,3.958984375
1518558,0.0,0.0,54.09133529663086,-0.13107486069202423,0.31313633918762207,60.39263916015625,3.958984375
1518568,0.0,0.0,54.09144592285156,-0.13034716248512268,0.3143870532512665,60.391746520996094,3.958984375
1518578,0.0,0.0,54.091278076171875,-0.1300927698612213,0.3135574162006378,60.39258575439453,3.958984375
1518588,0.0,0.0,54.09111022949219,-0.13084101676940918,0.31375226378440857,60.3928108215332,3.958984375
1518598,0.0,0.0,54.090858459472656,-0.13021346926689148,0.3123926520347595,60.39162063598633,3.958984375
1518608,0.0,0.0,54.09061050415039,-0.12996241450309753,0.3143221437931061,60.391334533691406,3.958984375
1518618,0.0,0.0,54.09062576293945,-0.13015732169151306,0.31320837140083313,60.389984130859375,3.958984375
1518628,0.0,0.0,54.090641021728516,-0.1308845728635788,0.3127724826335907,60.38970184326172,3.958984375
1518638,0.0,0.0,54.090572357177734,-0.13108977675437927,0.3129880130290985,60.388492584228516,3.958984375
1518648,0.0,0.0,54.09050369262695,-0.13032187521457672,0.31130772829055786,60.38838195800781,3.958984375
1518658,0.0,0.0,54.09040451049805,-0.12948501110076904,0.3120926320552826,60.387481689453125,3.958984375
1518668,0.0,0.0,54.09030532836914,-0.1288750171661377,0.3114846646785736,60.387107849121094,3.958984375
1518678,0.0,0.0,54.09010696411133,-0.12964321672916412,0.3113849461078644,60.38679122924805,3.958984375
1518688,0.0,0.0,54.089908599853516,-0.130773663520813,0.312347412109375,60.38760757446289,3.958984375
1518698,0.0,0.0,54.08961486816406,-0.13158762454986572,0.30937469005584717,60.3875846862793,3.958984375
1518708,0.0,0.0,54.08932113647461,-0.13148237764835358,0.3091881573200226,60.388607025146484,3.958984375
1518718,0.0,0.0,54.08884811401367,-0.13107839226722717,0.30754563212394714,60.38808822631836,3.958984375
1518728,0.0,0.0,54.088375091552734,-0.1309422105550766,0.306791752576828,60.389217376708984,3.958984375
1518738,0.0,0.0,54.088050842285156,-0.1329033523797989,0.3045494556427002,60.389198303222656,3.958984375
1518748,0.0,0.0,54.08772659301758,-0.132742241024971,0.30375394225120544,60.38911056518555,3.958984375
1518758,0.0,0.0,54.0875358581543,-0.1319347620010376,0.3039758503437042,60.38957977294922,3.953125
1518768,0.0,0.0,54.087345123291016,-0.13153128325939178,0.3035546541213989,60.389896392822266,3.953125
1518778,0.0,0.0,54.08713912963867,-0.13186337053775787,0.3028438091278076,60.39052200317383,3.953125
1518788,0.0,0.0,54.08693313598633,-0.13184140622615814,0.3016594350337982,60.39094543457031,3.953125
1518798,0.0,0.0,54.08659744262695,-0.13275384902954102,0.29919207096099854,60.39139175415039,3.958984375
1518808,0.0,0.0,54.08626174926758,-0.1335587054491043,0.299457311630249,60.39138412475586,3.958984375
1518818,0.0,0.0,54.085960388183594,-0.134677916765213,0.29792121052742004,60.390018463134766,3.958984375
1518828,0.0,0.0,54.08565902709961,-0.13514335453510284,0.29767337441444397,60.389896392822266,3.958984375
1518838,0.0,0.0,54.085670471191406,-0.13587556779384613,0.2981766164302826,60.3897590637207,3.958984375
1518848,0.0,0.0,54.0856819152832,-0.13538216054439545,0.2992110848426819,60.39040756225586,3.84765625
1518858,0.0,0.0,54.08574295043945,-0.13500145077705383,0.29991835355758667,60.389530181884766,3.716796875
1518868,0.0,0.0,54.0858039855957,-0.1341565102338791,0.2989392578601837,60.39125442504883,3.716796875
1518878,0.0,0.0,54.08573532104492,-0.13437597453594208,0.29711464047431946,60.390140533447266,3.68359375
1518888,0.0,0.0,54.08566665649414,-0.13340166211128235,0.29701095819473267,60.388084411621094,3.689453125
1518898,0.0,0.0,54.085533142089844,-0.13472627103328705,0.2995385229587555,60.3858642578125,3.689453125
1518908,0.0,0.0,54.08539962768555,-0.13117443025112152,0.29759395122528076,60.395530700683594,3.705078125
1518918,0.0,0.0,54.085182189941406,-0.13075904548168182,0.30046841502189636,60.38737869262695,3.705078125
1518928,0.0,0.0,54.084964752197266,-0.13220949470996857,0.29713553190231323,60.38030242919922,3.7109375
1518938,0.0,0.0,54.08473205566406,-0.12933750450611115,0.28985828161239624,60.38480758666992,3.720703125
1518948,0.0,0.0,54.084503173828125,-0.12668712437152863,0.29298466444015503,60.37009048461914,3.7265625
1518958,0.0,0.0,54.08425521850586,-0.12395922094583511,0.29330796003341675,60.374595642089844,3.7265625
1518968,0.0,0.0,54.08401107788086,-0.12761367857456207,0.29029977321624756,60.38484573364258,3.736328125
1518978,0.0,0.0,54.08358383178711,-0.13172025978565216,0.2936404049396515,60.38156509399414,3.7421875
1518988,0.0,0.0,54.083160400390625,-0.1316409856081009,0.295543372631073,60.39370346069336,3.7421875
1518998,0.0,0.0,54.08247375488281,-0.1306561976671219,0.2901666760444641,60.38582992553711,3.748046875
1519008,0.0,0.0,54.081790924072266,-0.13296404480934143,0.28818538784980774,60.38631820678711,3.75390625
1519018,0.0,0.0,54.08087921142578,-0.12890376150608063,0.28706449270248413,60.388919830322266,3.75390625
1519028,0.0,0.0,54.07997131347656,-0.13310424983501434,0.2862025499343872,60.38218307495117,3.75390625
1519038,0.0,0.0,54.07891845703125,-0.1276647299528122,0.28404951095581055,60.38606262207031,3.7578125
1519048,0.0,0.0,54.0778694152832,-0.12637488543987274,0.28561538457870483,60.38593673706055,3.7578125
1519058,0.0,0.0,54.076805114746094,-0.13216286897659302,0.28267914056777954,60.38292694091797,3.7578125
1519068,0.0,0.0,54.07574462890625,-0.1303798109292984,0.27938127517700195,60.38483810424805,3.7578125
1519078,0.0,0.0,54.074851989746094,-0.1464003175497055,0.2637843191623688,60.38312530517578,3.763671875
1519088,0.0,0.0,54.0739631652832,-0.14834339916706085,0.26198849081993103,60.38371276855469,3.763671875
1519098,0.0,0.0,54.07305908203125,-0.14297547936439514,0.2669735252857208,60.3823127746582,3.763671875
1519108,0.0,0.0,54.07215881347656,-0.14478696882724762,0.26386675238609314,60.38383483886719,3.763671875
1519118,0.0,0.0,54.070884704589844,-0.15682552754878998,0.2520539462566376,60.384456634521484,3.763671875
1519128,0.0,0.0,54.06961441040039,-0.15429691970348358,0.2465398609638214,60.38132858276367,3.76953125
1519138,0.0,0.0,54.06814956665039,-0.14334067702293396,0.2519802153110504,60.38490676879883,3.76953125
1519148,0.0,0.0,54.066688537597656,-0.14033222198486328,0.2629299461841583,60.384063720703125,3.76953125
1519158,0.0,0.0,54.065086364746094,-0.15677620470523834,0.24798369407653809,60.38897705078125,3.76953125
1519168,0.0,0.0,54.0634880065918,-0.14612072706222534,0.2667069137096405,60.41797637939453,3.76953125
1519178,0.0,0.0,54.061927795410156,-0.15845343470573425,0.24597463011741638,60.44005584716797,3.76953125
1519188,0.0,0.0,54.06037139892578,-0.1413445621728897,0.26395806670188904,60.457054138183594,3.76953125
1519198,0.0,0.0,54.058719635009766,-0.13688181340694427,0.2554352879524231,60.45429229736328,3.76953125
1519208,0.0,0.0,54.05707550048828,-0.13892824947834015,0.2553851008415222,60.44784164428711,3.76953125
1519218,0.0,0.0,54.05550003051758,-0.14003944396972656,0.2378844916820526,60.45577621459961,3.7734375
1519228,0.0,0.0,54.05392837524414,-0.13050903379917145,0.2503795027732849,60.451541900634766,3.76953125
1519238,0.0,0.0,54.05241394042969,-0.13301025331020355,0.23746076226234436,60.45133590698242,3.76953125
1519248,0.0,0.0,54.0509033203125,-0.14512984454631805,0.23284587264060974,60.446353912353516,3.7734375
1519258,0.0,0.0,54.04933166503906,-0.12597374618053436,0.23805668950080872,60.439231872558594,3.76953125
1519268,0.0,0.0,54.04776382446289,-0.1573992371559143,0.2102583795785904,60.40321731567383,3.76953125
1519278,0.0,0.0,54.04621505737305,-0.13068963587284088,0.23614361882209778,60.323936462402344,3.76953125
1519288,0.0,0.0,54.044673919677734,-0.13618284463882446,0.2227027863264084,60.33244705200195,3.76953125
1519298,0.0,0.0,54.04303741455078,-0.14205870032310486,0.2202490121126175,60.41730880737305,3.76953125
1519308,0.0,0.0,54.041404724121094,-0.1250331550836563,0.22748614847660065,60.47136306762695,3.76953125
1519318,0.0,0.0,54.03984451293945,-0.15504679083824158,0.19532610476016998,60.50078201293945,3.7734375
1519328,0.0,0.0,54.03828811645508,-0.13550592958927155,0.22705332934856415,60.50167465209961,3.7734375
1519338,0.0,0.0,54.036766052246094,-0.15089818835258484,0.1903257519006729,60.528038024902344,3.7734375
1519348,0.0,0.0,54.035247802734375,-0.1261375993490219,0.2173611968755722,60.54161834716797,3.7734375
1519358,0.0,0.0,54.03352737426758,-0.15415199100971222,0.19829849898815155,60.548095703125,3.7734375
1519368,0.0,0.0,54.03181076049805,-0.1422538459300995,0.2122422605752945,60.542076110839844,3.7734375
1519378,0.0,0.0,54.0300178527832,-0.13848023116588593,0.20190270245075226,60.45602798461914,3.7734375
1519388,0.0,0.0,54.028228759765625,-0.16003495454788208,0.18358050286769867,60.41891860961914,3.7734375
1519398,0.0,0.0,54.02638626098633,-0.10249128937721252,0.22624258697032928,60.412715911865234,3.7734375
1519408,0.0,0.0,54.0245475769043,-0.1370055377483368,0.19260044395923615,60.42518615722656,3.7734375
1519418,0.0,0.0,54.02263259887695,-0.10605406016111374,0.22677138447761536,60.4552001953125,3.7734375
1519428,0.0,0.0,54.020721435546875,-0.16024640202522278,0.16824232041835785,60.51947784423828,3.7734375
1519438,0.0,0.0,54.018898010253906,-0.1150847002863884,0.2045046091079712,60.58450698852539,3.7734375
1519448,0.0,0.0,54.01708221435547,-0.11715113371610641,0.1962600201368332,60.64276123046875,3.7734375
1519458,0.0,0.0,54.015220642089844,-0.1163240596652031,0.1889270842075348,60.74562072753906,3.7734375
1519468,0.0,0.0,54.01336669921875,-0.1245664656162262,0.18132276833057404,60.79713821411133,3.7734375
1519478,0.0,0.0,54.01169967651367,-0.13036487996578217,0.18364983797073364,60.91484832763672,3.7734375
1519488,0.0,0.0,54.01003646850586,-0.13752225041389465,0.1743096113204956,61.0260124206543,3.7734375
1519498,0.0,0.0,54.0084114074707,-0.1373656690120697,0.17811289429664612,61.17138671875,3.7734375
1519508,0.0,0.0,54.00679016113281,-0.10007825493812561,0.2098177671432495,61.2117919921875,3.7734375
1519518,0.0,0.0,54.00502395629883,-0.10720694810152054,0.19086745381355286,61.18342590332031,3.7734375
1519528,0.0,0.0,54.00326156616211,-0.10090808570384979,0.20165514945983887,61.152957916259766,3.7734375
1519538,0.0,0.0,54.00127410888672,-0.10437427461147308,0.19619345664978027,61.027099609375,3.7734375
1519548,0.0,0.0,53.99929428100586,-0.0729643777012825,0.22055985033512115,60.9759635925293,3.7734375
1519558,0.0,0.0,53.997501373291016,-0.10414888709783554,0.18621809780597687,60.91310119628906,3.7734375
1519568,0.0,0.0,53.99571228027344,-0.07436128705739975,0.22337444126605988,60.88525390625,3.7734375
1519578,0.0,0.0,53.99406051635742,-0.11602313071489334,0.18303588032722473,60.80241394042969,3.7734375
1519588,0.0,0.0,53.99241256713867,-0.0856318324804306,0.2105475217103958,60.77547073364258,3.7734375
1519598,0.0,0.0,53.990623474121094,-0.10906349122524261,0.1948653906583786,60.759803771972656,3.7734375
1519608,0.0,0.0,53.98883819580078,-0.11129167675971985,0.19110682606697083,60.77967071533203,3.7734375
1519618,0.0,0.0,53.98725509643555,-0.10406752675771713,0.19711367785930634,60.80396270751953,3.7734375
1519628,0.0,0.0,53.98567581176758,-0.1146560087800026,0.1872086375951767,60.7999267578125,3.7734375
1519638,0.0,0.0,53.98394012451172,-0.104049451649189,0.2049890011548996,60.79521942138672,3.76953125
1519648,0.0,0.0,53.982208251953125,-0.1155771017074585,0.18521034717559814,60.77311706542969,3.76953125
1519658,0.0,0.0,53.980201721191406,-0.10597842931747437,0.19138199090957642,60.72422409057617,3.76953125
1519668,0.0,0.0,53.978206634521484,-0.12816445529460907,0.17674024403095245,60.66474151611328,3.7734375
1519678,0.0,0.0,53.97651290893555,-0.11067965626716614,0.19289986789226532,60.55046463012695,3.7734375
1519688,0.0,0.0,53.974822998046875,-0.1261056363582611,0.17581236362457275,60.47718811035156,3.76953125
1519698,0.0,0.0,53.972923278808594,-0.11143177002668381,0.19210612773895264,60.34311294555664,3.7734375
1519708,0.0,0.0,53.97102737426758,-0.12822340428829193,0.1800159066915512,60.26544952392578,3.7734375
1519718,0.0,0.0,53.9690055847168,-0.09346961975097656,0.21680240333080292,60.168514251708984,3.7734375
1519728,0.0,0.0,53.96699142456055,-0.12766826152801514,0.17853952944278717,60.13750457763672,3.7734375
1519738,0.0,0.0,53.96491622924805,-0.08447115123271942,0.22713123261928558,60.09002685546875,3.7734375
1519748,0.0,0.0,53.96284866333008,-0.1089075356721878,0.20339860022068024,60.051151275634766,3.7734375
1519758,0.0,0.0,53.960758209228516,-0.12365903705358505,0.18910741806030273,60.00757598876953,3.76953125
1519768,0.0,0.0,53.95867156982422,-0.07996707409620285,0.2215927094221115,59.98284912109375,3.76953125
1519778,0.0,0.0,53.95659255981445,-0.09445475041866302,0.2051629275083542,59.909950256347656,3.76953125
1519788,0.0,0.0,53.95452117919922,-0.0947687029838562,0.21914885938167572,59.88581466674805,3.76953125
1519798,0.0,0.0,53.95217514038086,-0.0852324515581131,0.2132275402545929,59.86576461791992,3.76953125
1519808,0.0,0.0,53.94983673095703,-0.07701262831687927,0.2091662585735321,59.80998229980469,3.76953125
1519818,0.0,0.0,53.94755554199219,-0.0760200247168541,0.20686574280261993,59.712684631347656,3.76953125
1519828,0.0,0.0,53.945281982421875,-0.08153561502695084,0.20257622003555298,59.747886657714844,3.76953125
1519838,0.0,0.0,53.94301223754883,-0.09463196247816086,0.1972465068101883,59.9255256652832,3.76953125
1519848,0.0,0.0,53.94075012207031,-0.0853249579668045,0.1976553052663803,60.072391510009766,3.76953125
1519858,0.0,0.0,53.93849563598633,-0.13529016077518463,0.14108812808990479,60.231964111328125,3.76953125
1519868,0.0,0.0,53.936248779296875,-0.1476365476846695,0.14641043543815613,60.313941955566406,3.76953125
1519878,0.0,0.0,53.93400955200195,-0.09945517778396606,0.20327803492546082,60.39082336425781,3.76953125
1519888,0.0,0.0,53.9317741394043,-0.12705940008163452,0.1682790219783783,60.42782974243164,3.76953125
1519898,0.0,0.0,53.9294319152832,-0.1065695583820343,0.19537654519081116,60.40770721435547,3.76953125
1519908,0.0,0.0,53.92709732055664,-0.15198193490505219,0.15488305687904358,60.42723846435547,3.76953125
1519918,0.0,0.0,53.92470169067383,-0.11042708903551102,0.18412594497203827,60.434288024902344,3.76953125
1519928,0.0,0.0,53.92231369018555,-0.1470606029033661,0.15335021913051605,60.45883560180664,3.76953125
1519938,0.0,0.0,53.91990280151367,-0.11720140278339386,0.18880429863929749,60.534610748291016,3.76953125
1519948,0.0,0.0,53.9174919128418,-0.14158935844898224,0.16223840415477753,60.59468460083008,3.76953125
1519958,0.0,0.0,53.914798736572266,-0.13803406059741974,0.15992720425128937,60.7293815612793,3.76953125
1519968,0.0,0.0,53.912105560302734,-0.15628214180469513,0.1470021903514862,60.79180908203125,3.76953125
1519978,0.0,0.0,53.90955352783203,-0.1165754571557045,0.18546360731124878,60.848968505859375,3.76953125
1519988,0.0,0.0,53.90700912475586,-0.13390177488327026,0.1661994308233261,60.86819076538086,3.76953125
1519998,0.0,0.0,53.90437316894531,-0.10912837088108063,0.19580622017383575,60.8620719909668,3.76953125
1520008,0.0,0.0,53.9017448425293,-0.11856061220169067,0.1858842372894287,60.8526496887207,3.76953125
1520018,0.0,0.0,53.89894485473633,-0.10609131306409836,0.19577112793922424,60.78950881958008,3.76953125
1520028,0.0,0.0,53.89615249633789,-0.13637404143810272,0.16438166797161102,60.7267951965332,3.76953125
1520038,0.0,0.0,53.89313888549805,-0.10630656033754349,0.20147199928760529,60.70381164550781,3.76953125
1520048,0.0,0.0,53.890132904052734,-0.11829013377428055,0.16885297000408173,60.704227447509766,3.76953125
1520058,0.0,0.0,53.887184143066406,-0.10298072546720505,0.18294556438922882,60.67262649536133,3.76953125
1520068,0.0,0.0,53.884246826171875,-0.10825753957033157,0.1852388232946396,60.65827941894531,3.76953125
1520078,0.0,0.0,53.881168365478516,-0.12161959707736969,0.16418109834194183,60.67435073852539,3.763671875
1520088,0.0,0.0,53.87810134887695,-0.11343157291412354,0.1715678572654724,60.678524017333984,3.76953125
1520098,0.0,0.0,53.87502670288086,-0.11344707012176514,0.17398539185523987,60.67720031738281,3.76953125
1520108,0.0,0.0,53.8719596862793,-0.1312268078327179,0.16172030568122864,60.717041015625,3.76953125
1520118,0.0,0.0,53.868919372558594,-0.13354630768299103,0.15451687574386597,60.847591400146484,3.763671875
1520128,0.0,0.0,53.86588668823242,-0.12818068265914917,0.1570304036140442,60.94249725341797,3.763671875
1520138,0.0,0.0,53.86288070678711,-0.15968374907970428,0.1320728361606598,61.0657958984375,3.763671875
1520148,0.0,0.0,53.859886169433594,-0.17455396056175232,0.11412033438682556,61.17576217651367,3.763671875
1520158,0.0,0.0,53.857078552246094,-0.1343359649181366,0.1650422364473343,61.29319381713867,3.763671875
1520168,0.0,0.0,53.85428237915039,-0.1306879222393036,0.16530005633831024,61.30538558959961,3.763671875
1520178,0.0,0.0,53.85133361816406,-0.12767459452152252,0.15743762254714966,61.25757598876953,3.76953125
1520188,0.0,0.0,53.848392486572266,-0.12025322020053864,0.16386182606220245,61.20655059814453,3.76953125
1520198,0.0,0.0,53.84537887573242,-0.12532030045986176,0.1602282077074051,61.20676803588867,3.76953125
1520208,0.0,0.0,53.84237289428711,-0.11416271328926086,0.16218216717243195,61.25676727294922,3.763671875
1520218,0.0,0.0,53.839508056640625,-0.1353367269039154,0.13706843554973602,61.369110107421875,3.763671875
1520228,0.0,0.0,53.83665084838867,-0.1211664155125618,0.15126432478427887,61.43932342529297,3.763671875
1520238,0.0,0.0,53.83411407470703,-0.12361609935760498,0.1386575996875763,61.499267578125,3.763671875
1520248,0.0,0.0,53.83158493041992,-0.1038101390004158,0.16159817576408386,61.50029754638672,3.763671875
1520258,0.0,0.0,53.82914733886719,-0.1096038892865181,0.15006771683692932,61.44517135620117,3.763671875
1520268,0.0,0.0,53.82671356201172,-0.10843082517385483,0.14248697459697723,61.46872329711914,3.763671875
1520278,0.0,0.0,53.82443618774414,-0.09862354397773743,0.15906168520450592,61.53410720825195,3.763671875
1520288,0.0,0.0,53.82216262817383,-0.12036329507827759,0.1369214653968811,61.588279724121094,3.763671875
1520298,0.0,0.0,53.820011138916016,-0.1199677437543869,0.13091039657592773,61.659584045410156,3.763671875
1520308,0.0,0.0,53.81786346435547,-0.10802151262760162,0.15119588375091553,61.652679443359375,3.763671875
1520318,0.0,0.0,53.81572341918945,-0.09892521053552628,0.16092373430728912,61.57938003540039,3.763671875
1520328,0.0,0.0,53.81359100341797,-0.11321458220481873,0.1412539929151535,61.547760009765625,3.763671875
1520338,0.0,0.0,53.8112678527832,-0.10949813574552536,0.15325288474559784,61.58695983886719,3.763671875
1520348,0.0,0.0,53.80895233154297,-0.12659958004951477,0.1403798609972,61.649497985839844,3.763671875
1520358,0.0,0.0,53.80659484863281,-0.11411501467227936,0.15241922438144684,61.723995208740234,3.763671875
1520368,0.0,0.0,53.80424118041992,-0.11519179493188858,0.15251366794109344,61.7582893371582,3.763671875
1520378,0.0,0.0,53.802093505859375,-0.08791207522153854,0.16796599328517914,61.78868865966797,3.763671875
1520388,0.0,0.0,53.79995346069336,-0.09217004477977753,0.15778113901615143,61.777000427246094,3.763671875
1520398,0.0,0.0,53.797950744628906,-0.1705368608236313,0.08674846589565277,61.85211181640625,3.763671875
1520408,0.0,0.0,53.79595184326172,-0.1915738731622696,0.0654289573431015,61.92635726928711,3.763671875
1520418,0.0,0.0,53.79391098022461,-0.15899507701396942,0.10552485287189484,61.96515655517578,3.763671875
1520428,0.0,0.0,53.79188537597656,-0.10370107740163803,0.16559520363807678,61.95647430419922,3.763671875
1520438,0.0,0.0,53.789833068847656,-0.1257838010787964,0.13003887236118317,61.890018463134766,3.763671875
1520448,0.0,0.0,53.78779983520508,-0.11893900483846664,0.14707762002944946,61.87331771850586,3.763671875
1520458,0.0,0.0,53.7857551574707,-0.15687857568264008,0.102979376912117,61.903770446777344,3.763671875
1520468,0.0,0.0,53.78371810913086,-0.15542399883270264,0.10544408857822418,61.95903015136719,3.763671875
1520478,0.0,0.0,53.781639099121094,-0.12528862059116364,0.15077613294124603,62.01518630981445,3.763671875
1520488,0.0,0.0,53.779563903808594,-0.13728226721286774,0.13504979014396667,62.016483306884766,3.763671875
1520498,0.0,0.0,53.777347564697266,-0.09370571374893188,0.16605737805366516,61.96927261352539,3.763671875
1520508,0.0,0.0,53.77513885498047,-0.13596710562705994,0.12334645539522171,61.9631233215332,3.763671875
1520518,0.0,0.0,53.7733154296875,-0.13971549272537231,0.1255342960357666,61.98678970336914,3.763671875
1520528,0.0,0.0,53.7714958190918,-0.1260683834552765,0.13862012326717377,62.004947662353516,3.763671875
1520538,0.0,0.0,53.76951599121094,-0.14605453610420227,0.13346780836582184,62.009002685546875,3.763671875
1520548,0.0,0.0,53.767539978027344,-0.11504215002059937,0.15806621313095093,61.97871017456055,3.763671875
1520558,0.0,0.0,53.76552200317383,-0.18425017595291138,0.08675593137741089,61.87710189819336,3.763671875
1520568,0.0,0.0,53.76350784301758,-0.15863613784313202,0.10844235122203827,61.82355880737305,3.763671875
1520578,0.0,0.0,53.76138687133789,-0.12661680579185486,0.13754545152187347,61.77348709106445,3.763671875
1520588,0.0,0.0,53.7592658996582,-0.13305993378162384,0.12596705555915833,61.711612701416016,3.763671875
1520598,0.0,0.0,53.75734329223633,-0.1355620175600052,0.12464402616024017,61.702083587646484,3.763671875
1520608,0.0,0.0,53.75542449951172,-0.09168136119842529,0.15318790078163147,61.74238204956055,3.763671875
1520618,0.0,0.0,53.7532844543457,-0.12761108577251434,0.1213303878903389,61.74174118041992,3.763671875
1520628,0.0,0.0,53.75114822387695,-0.08990170061588287,0.16305691003799438,61.73881912231445,3.763671875
1520638,0.0,0.0,53.74885559082031,-0.11603588610887527,0.12221178412437439,61.73336410522461,3.763671875
1520648,0.0,0.0,53.7465705871582,-0.17966558039188385,0.05254526063799858,61.75011444091797,3.763671875
1520658,0.0,0.0,53.74434280395508,-0.19598618149757385,0.04085884988307953,61.84348678588867,3.763671875
1520668,0.0,0.0,53.74211883544922,-0.1413644552230835,0.08792445063591003,61.85688400268555,3.763671875
1520678,0.0,0.0,53.740020751953125,-0.09964663535356522,0.13185039162635803,61.75191879272461,3.763671875
1520688,0.0,0.0,53.73793411254883,-0.12148988246917725,0.11888350546360016,61.60911178588867,3.763671875
1520698,0.0,0.0,53.736019134521484,-0.06811480969190598,0.15800268948078156,61.56427001953125,3.7578125
1520708,0.0,0.0,53.734107971191406,-0.10862886905670166,0.11980139464139938,61.503719329833984,3.763671875
1520718,0.0,0.0,53.73259735107422,-0.10756789892911911,0.12183697521686554,61.512908935546875,3.7578125
1520728,0.0,0.0,53.7310905456543,-0.07045507431030273,0.1413201242685318,61.55427169799805,3.7578125
1520738,0.0,0.0,53.72985076904297,-0.11252322047948837,0.09840261936187744,61.68112564086914,3.763671875
1520748,0.0,0.0,53.728614807128906,-0.1170792281627655,0.10176093876361847,61.8082389831543,3.763671875
1520758,0.0,0.0,53.72751235961914,-0.073115773499012,0.15197603404521942,61.91590118408203,3.7578125
1520768,0.0,0.0,53.72641372680664,-0.09981947392225266,0.11528022587299347,61.894203186035156,3.7578125
1520778,0.0,0.0,53.72525405883789,-0.060196347534656525,0.15373851358890533,61.867610931396484,3.7578125
1520788,0.0,0.0,53.724098205566406,-0.06741355359554291,0.12745286524295807,61.84553146362305,3.7578125
1520798,0.0,0.0,53.7230110168457,-0.09235382825136185,0.10422400385141373,61.86521530151367,3.7578125
1520808,0.0,0.0,53.721927642822266,-0.07115347683429718,0.1165459081530571,61.927886962890625,3.7578125
1520818,0.0,0.0,53.7207145690918,-0.05943121016025543,0.10951829701662064,62.05558776855469,3.763671875
1520828,0.0,0.0,53.719505310058594,-0.06606532633304596,0.10434101521968842,62.12075424194336,3.763671875
1520838,0.0,0.0,53.71820068359375,-0.04493413493037224,0.1326531618833542,62.118282318115234,3.7578125
1520848,0.0,0.0,53.71689987182617,-0.05878767743706703,0.11018790304660797,62.08565902709961,3.7578125
1520858,0.0,0.0,53.71540832519531,-0.07370918244123459,0.10217506438493729,62.14322280883789,3.763671875
1520868,0.0,0.0,53.71392059326172,-0.07478515058755875,0.10445941984653473,62.19173812866211,3.763671875
1520878,0.0,0.0,53.712486267089844,-0.07415725290775299,0.10423844307661057,62.23322296142578,3.763671875
1520888,0.0,0.0,53.7110595703125,-0.06867366284132004,0.12315080314874649,62.188011169433594,3.763671875
1520898,0.0,0.0,53.7096061706543,-0.07491204887628555,0.103685162961483,62.13292694091797,3.763671875
1520908,0.0,0.0,53.70815658569336,-0.07637937366962433,0.10637979209423065,62.16615676879883,3.763671875
1520918,0.0,0.0,53.706581115722656,-0.09035123139619827,0.09764749556779861,62.2089729309082,3.7578125
1520928,0.0,0.0,53.70500946044922,-0.07356331497430801,0.1026739552617073,62.25127410888672,3.763671875
1520938,0.0,0.0,53.70346450805664,-0.09025876224040985,0.09541550278663635,62.247623443603516,3.7578125
1520948,0.0,0.0,53.701927185058594,-0.07029186934232712,0.10899345576763153,62.17121505737305,3.7578125
1520958,0.0,0.0,53.700443267822266,-0.09793267399072647,0.0723569467663765,62.09473419189453,3.7578125
1520968,0.0,0.0,53.6989631652832,-0.10769602656364441,0.07060970366001129,62.116432189941406,3.7578125
1520978,0.0,0.0,53.6972770690918,-0.07025989890098572,0.10035388171672821,62.12627029418945,3.7578125
1520988,0.0,0.0,53.695594787597656,-0.07134711742401123,0.1103069856762886,62.097381591796875,3.7578125
1520998,0.0,0.0,53.69378662109375,-0.06642498821020126,0.12021399289369583,62.02611541748047,3.7578125
1521008,0.0,0.0,53.691986083984375,-0.07745683938264847,0.10320863127708435,61.983402252197266,3.7578125
1521018,0.0,0.0,53.69043731689453,-0.06767445057630539,0.10546880215406418,61.98543167114258,3.7578125
1521028,0.0,0.0,53.688880920410156,-0.07111256569623947,0.10280956327915192,62.033016204833984,3.7578125
1521038,0.0,0.0,53.68724822998047,-0.05733824148774147,0.11025311797857285,62.02063751220703,3.7578125
1521048,0.0,0.0,53.68561935424805,-0.06474357843399048,0.10373900830745697,61.94711685180664,3.7578125
1521058,0.0,0.0,53.68386459350586,-0.06318454444408417,0.1092003807425499,61.86787414550781,3.7578125
1521068,0.0,0.0,53.68211364746094,-0.09322293102741241,0.06799150258302689,61.84613800048828,3.7578125
1521078,0.0,0.0,53.68081283569336,-0.07163913547992706,0.09060971438884735,61.88943099975586,3.7578125
1521088,0.0,0.0,53.67951583862305,-0.05094355344772339,0.10392798483371735,61.954586029052734,3.7578125
1521098,0.0,0.0,53.67841720581055,-0.0716799795627594,0.09046623855829239,62.006309509277344,3.7578125
1521108,0.0,0.0,53.67732238769531,-0.04170841723680496,0.12951982021331787,61.97721481323242,3.7578125
1521118,0.0,0.0,53.67605209350586,-0.026717443019151688,0.13660037517547607,61.859859466552734,3.7578125
1521128,0.0,0.0,53.67478942871094,-0.03478991240262985,0.12001165002584457,61.82542419433594,3.7578125
1521138,0.0,0.0,53.67325210571289,-0.030873524025082588,0.1303057074546814,61.8227653503418,3.7578125
1521148,0.0,0.0,53.67171859741211,-0.04253571853041649,0.10907766968011856,61.847042083740234,3.7578125
1521158,0.0,0.0,53.66997528076172,-0.033612385392189026,0.1239832192659378,61.909912109375,3.7578125
1521168,0.0,0.0,53.66823959350586,-0.028072422370314598,0.12683695554733276,61.92092514038086,3.7578125
1521178,0.0,0.0,53.66667175292969,-0.028262034058570862,0.12873519957065582,61.90580749511719,3.7578125
1521188,0.0,0.0,53.66510772705078,-0.01623435504734516,0.12928736209869385,61.88290786743164,3.7578125
1521198,0.0,0.0,53.663482666015625,-0.057364627718925476,0.10138872265815735,61.89139938354492,3.7578125
1521208,0.0,0.0,53.661861419677734,-0.036735016852617264,0.12381475418806076,61.93207550048828,3.7578125
1521218,0.0,0.0,53.660099029541016,-0.05309682711958885,0.09893801808357239,61.94671630859375,3.7578125
1521228,0.0,0.0,53.65834045410156,-0.03658049926161766,0.1203518733382225,61.95390701293945,3.7578125
1521238,0.0,0.0,53.656620025634766,-0.07999511063098907,0.07696757465600967,61.9177131652832,3.7578125
1521248,0.0,0.0,53.65491485595703,-0.04133780673146248,0.11040055006742477,61.83597946166992,3.7578125
1521258,0.0,0.0,53.65310287475586,-0.04435032233595848,0.10630147904157639,61.763153076171875,3.7578125
1521268,0.0,0.0,53.65129470825195,-0.05473111942410469,0.09489265829324722,61.751163482666016,3.7578125
1521278,0.0,0.0,53.6494140625,-0.06876102834939957,0.07337383925914764,61.791988372802734,3.7578125
1521288,0.0,0.0,53.64754104614258,-0.09741845726966858,0.049034349620342255,61.850406646728516,3.7578125
1521298,0.0,0.0,53.64591979980469,-0.04763982445001602,0.10554471611976624,61.855587005615234,3.7578125
1521308,0.0,0.0,53.64430236816406,-0.0655873715877533,0.10343059152364731,61.816131591796875,3.7578125
1521318,0.0,0.0,53.64250564575195,-0.06733067333698273,0.09464749693870544,61.764427185058594,3.7578125
1521328,0.0,0.0,53.64071273803711,-0.06499320268630981,0.09014914184808731,61.78987121582031,3.7578125
1521338,0.0,0.0,53.639156341552734,-0.055938947945833206,0.11386463046073914,61.79175567626953,3.7578125
1521348,0.0,0.0,53.637603759765625,-0.0724744200706482,0.09878591448068619,61.81049728393555,3.7578125
1521358,0.0,0.0,53.6362190246582,-0.040534935891628265,0.11945011466741562,61.82672119140625,3.7578125
1521368,0.0,0.0,53.63483810424805,-0.06116025894880295,0.12072604894638062,61.84446716308594,3.7578125
1521378,0.0,0.0,53.63328170776367,-0.04843822866678238,0.11597549915313721,61.866329193115234,3.7578125
1521388,0.0,0.0,53.63173294067383,-0.05558542534708977,0.11131761223077774,61.88289260864258,3.7578125
1521398,0.0,0.0,53.630027770996094,-0.07094182819128036,0.09938712418079376,61.95416259765625,3.7578125
1521408,0.0,0.0,53.628326416015625,-0.06951269507408142,0.09351631999015808,61.99770736694336,3.7578125
1521418,0.0,0.0,53.626800537109375,-0.06688199937343597,0.09721188992261887,62.018592834472656,3.7578125
1521428,0.0,0.0,53.625282287597656,-0.07003028690814972,0.09901053458452225,61.98555374145508,3.7578125
1521438,0.0,0.0,53.623931884765625,-0.08820409327745438,0.0876338928937912,62.01879119873047,3.7578125
1521448,0.0,0.0,53.62258529663086,-0.08251507580280304,0.09466854482889175,62.00653076171875,3.7578125
1521458,0.0,0.0,53.62133026123047,-0.08248341828584671,0.09246203303337097,62.01935958862305,3.7578125
1521468,0.0,0.0,53.620079040527344,-0.11345122009515762,0.05683275684714317,62.00175857543945,3.7578125
1521478,0.0,0.0,53.61869812011719,-0.05965430289506912,0.11972116678953171,61.946598052978516,3.7578125
1521488,0.0,0.0,53.6173210144043,-0.0654369592666626,0.1015264168381691,61.923980712890625,3.7578125
1521498,0.0,0.0,53.61585235595703,-0.06770661473274231,0.10993994772434235,61.937931060791016,3.75390625
1521508,0.0,0.0,53.61438751220703,-0.07203563302755356,0.10289841890335083,61.92926025390625,3.75390625
1521518,0.0,0.0,53.613059997558594,-0.08230925351381302,0.08620560169219971,61.93355178833008,3.75390625
1521528,0.0,0.0,53.61174392700195,-0.0627308338880539,0.10430920124053955,61.9652214050293,3.75390625
1521538,0.0,0.0,53.610496520996094,-0.059783510863780975,0.10983872413635254,61.97202682495117,3.75390625
1521548,0.0,0.0,53.6092529296875,-0.06523183733224869,0.09371703118085861,61.976402282714844,3.75390625
1521558,0.0,0.0,53.607994079589844,-0.07774737477302551,0.081240214407444,62.0549430847168,3.75390625
1521568,0.0,0.0,53.60673904418945,-0.06392095983028412,0.10522560775279999,62.10251998901367,3.75390625
1521578,0.0,0.0,53.605342864990234,-0.07521113753318787,0.09583541750907898,62.05258560180664,3.7578125
1521588,0.0,0.0,53.60395050048828,-0.05837734043598175,0.12229090929031372,61.964500427246094,3.75390625
1521598,0.0,0.0,53.60267639160156,-0.10238800197839737,0.07660812884569168,61.888248443603516,3.75390625
1521608,0.0,0.0,53.60140609741211,-0.06824056059122086,0.0989425852894783,61.90644836425781,3.75390625
1521618,0.0,0.0,53.600040435791016,-0.09960853308439255,0.0866638571023941,62.05051040649414,3.75390625
1521628,0.0,0.0,53.59867858886719,-0.07600408047437668,0.1008715108036995,62.113861083984375,3.75390625
1521638,0.0,0.0,53.59727096557617,-0.06453754752874374,0.11814171075820923,62.01490020751953,3.75390625
1521648,0.0,0.0,53.59587097167969,-0.0734902173280716,0.10867864638566971,61.96564483642578,3.75390625
1521658,0.0,0.0,53.594852447509766,-0.065127432346344,0.10585460066795349,62.05436706542969,3.75390625
1521668,0.0,0.0,53.593833923339844,-0.07862599939107895,0.10598794370889664,62.1445426940918,3.75390625
1521678,0.0,0.0,53.5926513671875,-0.07257509976625443,0.10407213121652603,62.21580123901367,3.75390625
1521688,0.0,0.0,53.59147262573242,-0.06795001775026321,0.10341547429561615,62.196678161621094,3.75390625
1521698,0.0,0.0,53.59049606323242,-0.07036001235246658,0.10999752581119537,62.222999572753906,3.75390625
1521708,0.0,0.0,53.58951950073242,-0.08547655493021011,0.08584409952163696,62.254154205322266,3.7578125
1521718,0.0,0.0,53.58844757080078,-0.10226643830537796,0.07268229126930237,62.25307083129883,3.7578125
1521728,0.0,0.0,53.587379455566406,-0.05954385921359062,0.1294800490140915,62.257850646972656,3.75390625
1521738,0.0,0.0,53.58610153198242,-0.09771423786878586,0.08497965335845947,62.18160629272461,3.75390625
1521748,0.0,0.0,53.5848274230957,-0.1497652381658554,0.03977867588400841,62.11820602416992,3.75390625
1521758,0.0,0.0,53.58347702026367,-0.1399076282978058,0.04689067602157593,62.05992889404297,3.75390625
1521768,0.0,0.0,53.58213806152344,-0.0848851129412651,0.09684344381093979,62.05377960205078,3.75390625
1521778,0.0,0.0,53.58073806762695,-0.09171214699745178,0.09415926784276962,61.98497772216797,3.75390625
1521788,0.0,0.0,53.579341888427734,-0.08984825015068054,0.08666592836380005,61.94493103027344,3.75390625
1521798,0.0,0.0,53.577964782714844,-0.13308626413345337,0.04139949381351471,62.000057220458984,3.75390625
1521808,0.0,0.0,53.57659149169922,-0.11866699159145355,0.05809485912322998,62.077579498291016,3.75390625
1521818,0.0,0.0,53.57510757446289,-0.07700136303901672,0.09616433084011078,62.16816711425781,3.75390625
1521828,0.0,0.0,53.57362747192383,-0.08306896686553955,0.10631854087114334,62.12578201293945,3.75390625
1521838,0.0,0.0,53.57200622558594,-0.08529113233089447,0.1129726693034172,61.99641418457031,3.75390625
1521848,0.0,0.0,53.57038879394531,-0.09146799147129059,0.09271422773599625,61.9637451171875,3.75390625
1521858,0.0,0.0,53.56887435913086,-0.08531780540943146,0.10349554568529129,62.036067962646484,3.75390625
1521868,0.0,0.0,53.56736373901367,-0.12104959040880203,0.0632251501083374,62.13776779174805,3.75390625
1521878,0.0,0.0,53.56615447998047,-0.059980764985084534,0.1373336911201477,62.15315628051758,3.75390625
1521888,0.0,0.0,53.564945220947266,-0.08020465075969696,0.1020224392414093,62.09451675415039,3.75390625
1521898,0.0,0.0,53.563819885253906,-0.09356530010700226,0.08141175657510757,62.09076690673828,3.75390625
1521908,0.0,0.0,53.56269836425781,-0.07654938101768494,0.09761885553598404,62.10560989379883,3.75390625
1521918,0.0,0.0,53.56166458129883,-0.08098535239696503,0.08610906451940536,62.11195373535156,3.75390625
1521928,0.0,0.0,53.56063461303711,-0.053034041076898575,0.11312688142061234,62.10206604003906,3.75390625
1521938,0.0,0.0,53.55963897705078,-0.10653235763311386,0.07249833643436432,62.1058235168457,3.75390625
1521948,0.0,0.0,53.55864715576172,-0.07292544096708298,0.09902986884117126,62.11954879760742,3.75390625
1521958,0.0,0.0,53.55768966674805,-0.10123799741268158,0.06723528355360031,62.14007568359375,3.75390625
1521968,0.0,0.0,53.55674362182617,-0.06547077745199203,0.10498476028442383,62.13560104370117,3.75390625
1521978,0.0,0.0,53.55599594116211,-0.08068594336509705,0.0826447382569313,62.052425384521484,3.75390625
1521988,0.0,0.0,53.55525207519531,-0.14649911224842072,0.020197782665491104,61.9398193359375,3.75390625
1521998,0.0,0.0,53.554508209228516,-0.13345608115196228,0.03531275689601898,61.935211181640625,3.75390625
1522008,0.0,0.0,53.553768157958984,-0.08517961204051971,0.0832638293504715,61.94654846191406,3.75390625
1522018,0.0,0.0,53.5528678894043,-0.1120087057352066,0.07471033185720444,61.8972282409668,3.75390625
1522028,0.0,0.0,53.55196762084961,-0.09728342294692993,0.08718962967395782,61.78152084350586,3.75390625
1522038,0.0,0.0,53.55070877075195,-0.09104003757238388,0.07973289489746094,61.75223922729492,3.75390625
1522048,0.0,0.0,53.54945373535156,-0.05556495487689972,0.12251302599906921,61.72957992553711,3.75390625
1522058,0.0,0.0,53.54813766479492,-0.08070812374353409,0.08473807573318481,61.670711517333984,3.75390625
1522068,0.0,0.0,53.54682540893555,-0.13065305352210999,0.039891377091407776,61.63996887207031,3.75390625
