time.ms,stateEstimate.x,stateEstimate.y,stateEstimate.z,stabilizer.roll,stabilizer.pitch,stabilizer.yaw,pm.vbat
210172,0.0008763670339249074,-0.005358013790100813,0.00015600981714669615,0.266658216714859,0.5266269445419312,3.7132561206817627,1
210182,0.0008861595997586846,-0.0053411684930324554,0.00015445328608620912,0.2668270468711853,0.5250634551048279,3.709362745285034,1
210192,0.001173794618807733,-0.004480123985558748,0.00021549973462242633,0.24863611161708832,0.5151315927505493,3.690403938293457,1
210202,0.0011945858132094145,-0.004434953443706036,0.00021577470761258155,0.24817422032356262,0.5153741836547852,3.685861110687256,1
210212,0.0007954429020173848,-0.005133314523845911,0.00014318805187940598,0.26687613129615784,0.530081033706665,3.7091050148010254,1
210222,0.0011759515618905425,-0.004855888430029154,-0.00012587144738063216,0.257402241230011,0.514167308807373,3.685262441635132,1
210232,0.0011995856184512377,-0.004824802745133638,-0.0001394251303281635,0.2573184072971344,0.514456033706665,3.6816208362579346,1
210242,0.0010522116208449006,-0.005549121182411909,5.901390250073746e-05,0.27137064933776855,0.5172730088233948,3.693918466567993,1
210254,0.0010730865178629756,-0.005539047531783581,5.6853525165934116e-05,0.2708306312561035,0.5153933763504028,3.689310312271118,1
210262,0.001334305154159665,-0.004837090149521828,8.846948912832886e-05,0.2512280344963074,0.5031201243400574,3.6740148067474365,1
210272,0.0010049788979813457,-0.005542814265936613,7.715760875726119e-05,0.27269333600997925,0.5159385800361633,3.6872215270996094,1
210282,0.0010183322010561824,-0.005533129908144474,7.53319836803712e-05,0.2733626663684845,0.515333890914917,3.6830568313598633,1
210292,0.0012148976093158126,-0.0048480466939508915,0.0001568865991430357,0.25932878255844116,0.508362889289856,3.66489839553833,1
210304,0.0012335216160863638,-0.004819121211767197,0.0001599103125045076,0.25862982869148254,0.5071621537208557,3.661367893218994,1
210312,0.0010574484476819634,-0.0052860816940665245,0.00020428950665518641,0.2713259756565094,0.5134405493736267,3.684096574783325,1
210322,0.001137809711508453,-0.004737479612231255,0.0003557679883670062,0.2548932135105133,0.5074303150177002,3.676961660385132,1
210332,0.0011528268223628402,-0.0046982960775494576,0.00037079447065480053,0.2546813488006592,0.5085797309875488,3.674083948135376,1
210342,0.0007459804764948785,-0.005332855507731438,0.0002842856047209352,0.26537439227104187,0.5190470814704895,3.6846225261688232,1
210354,0.000748066115193069,-0.005309632048010826,0.000295482313958928,0.26550617814064026,0.5174350142478943,3.680323362350464,1
210362,0.00103283254429698,-0.004671397618949413,0.0002755377790890634,0.24829445779323578,0.5069104433059692,3.671041250228882,1
210372,0.0009130773250944912,-0.005112070124596357,0.0003817373944912106,0.26226890087127686,0.5129880905151367,3.689854860305786,1
210382,0.0009233182645402849,-0.005081848707050085,0.00039787482819519937,0.2631135582923889,0.5110241174697876,3.685739755630493,1
210392,0.001337454654276371,-0.004514037165790796,0.00023282686015591025,0.2533062994480133,0.4994180202484131,3.6638023853302,1
210404,0.0013646379811689258,-0.004465997684746981,0.000244972703512758,0.2532525062561035,0.4977833032608032,3.661867380142212,1
210412,0.001003169920295477,-0.005109628662467003,0.0001995882048504427,0.2705209255218506,0.5128045678138733,3.6830639839172363,1
210422,0.0012213881127536297,-0.0047763860784471035,0.00012162668281234801,0.2592213749885559,0.5039958953857422,3.661198377609253,1
210432,0.0012423163279891014,-0.004740594420582056,0.0001291319786105305,0.2594573199748993,0.5050178170204163,3.6578197479248047,1
210442,0.0008688681991770864,-0.00535242073237896,4.062416701344773e-05,0.27116313576698303,0.514583945274353,3.693675994873047,1
210454,0.0008757450268603861,-0.005334708373993635,4.768545477418229e-05,0.271951824426651,0.5134803056716919,3.6903762817382812,1
210462,0.001143994857557118,-0.004816408734768629,-1.145359237852972e-05,0.25734224915504456,0.5024975538253784,3.6658754348754883,1
210472,0.001143994857557118,-0.004816408734768629,-1.145359237852972e-05,0.25734224915504456,0.5024975538253784,3.6658754348754883,1
210482,0.0008880436653271317,-0.005364457610994577,2.3856055122450925e-06,0.27483323216438293,0.5146949887275696,3.6824402809143066,1
210492,0.0010180880781263113,-0.004888031631708145,6.458818097598851e-05,0.2658097445964813,0.5116995573043823,3.6756224632263184,1
210502,0.0010288513731211424,-0.004852631129324436,7.388475933112204e-05,0.26613858342170715,0.5110967755317688,3.6721434593200684,1
210512,0.0008655125857330859,-0.005509149748831987,0.0002572518424130976,0.2835681438446045,0.5180184841156006,3.6894147396087646,1
210522,0.0008655125857330859,-0.005509149748831987,0.0002572518424130976,0.2835681438446045,0.5180184841156006,3.6894147396087646,1
210532,0.0011010800953954458,-0.004893832840025425,0.0003072771360166371,0.26717889308929443,0.5091829895973206,3.6618258953094482,1
210542,0.0008095771190710366,-0.005152871832251549,0.00013351751840673387,0.2703520655632019,0.5165995955467224,3.6881017684936523,1
210552,0.0008166020852513611,-0.005122432950884104,0.00014705039211548865,0.27045267820358276,0.5186744928359985,3.6853060722351074,1
210562,0.0010600507957860827,-0.004960112273693085,-3.129504693788476e-05,0.2651805877685547,0.5105816721916199,3.66459059715271,1
210572,0.0009230478899553418,-0.0052755470387637615,-2.758590562734753e-05,0.27137747406959534,0.5143837928771973,3.694040060043335,1
210582,0.0009230478899553418,-0.0052755470387637615,-2.758590562734753e-05,0.27137747406959534,0.5143837928771973,3.694040060043335,1
210592,0.0010706632165238261,-0.0046559846960008144,8.139038254739717e-05,0.25289052724838257,0.5049028992652893,3.6785054206848145,1
210602,0.0010909241391345859,-0.004602538887411356,8.944894216256216e-05,0.2530386447906494,0.5040655732154846,3.674635171890259,1
210612,0.0008454929338768125,-0.005365324672311544,0.0002194706175941974,0.27681171894073486,0.5161905884742737,3.7020559310913086,1
210622,0.0011465433053672314,-0.0047690775245428085,0.00019331097428221256,0.2630119323730469,0.5043883919715881,3.6898651123046875,1
210632,0.0011465433053672314,-0.0047690775245428085,0.00019331097428221256,0.2630119323730469,0.5043883919715881,3.6898651123046875,1
210642,0.0010660617845132947,-0.00517696887254715,0.00031720110564492643,0.2736629545688629,0.5090045928955078,3.7134132385253906,1
210652,0.001080116955563426,-0.005157894920557737,0.0003349856997374445,0.27335843443870544,0.5073689818382263,3.710050106048584,1
210662,0.001401811488904059,-0.0049789962358772755,0.00011181823356309906,0.26880204677581787,0.4949333071708679,3.6915483474731445,1
210672,0.00107475183904171,-0.005489822011440992,-2.2482754502561875e-07,0.27846333384513855,0.505340576171875,3.7089695930480957,1
210682,0.00107475183904171,-0.005489822011440992,-2.2482754502561875e-07,0.27846333384513855,0.505340576171875,3.7089695930480957,1
210692,0.0012028960045427084,-0.004844068083912134,0.0001411175326211378,0.25863394141197205,0.5000916719436646,3.6780519485473633,1
210704,0.0012303879484534264,-0.004806110169738531,0.00014876450586598366,0.25873956084251404,0.5005663633346558,3.673929452896118,1
210712,0.0010393504053354263,-0.005187598522752523,0.00012363720452412963,0.2695672810077667,0.5093081593513489,3.690701484680176,1
210722,0.0012643320951610804,-0.0050323097966611385,7.257731340359896e-07,0.2662935256958008,0.504520058631897,3.669074058532715,1
210732,0.0012643320951610804,-0.0050323097966611385,7.257731340359896e-07,0.2662935256958008,0.504520058631897,3.669074058532715,1
210742,0.001153569552116096,-0.005373192485421896,3.90288550988771e-05,0.27545925974845886,0.5101020336151123,3.6863484382629395,1
210754,0.0011768635595217347,-0.00536049110814929,4.524508403846994e-05,0.2760961353778839,0.5095521211624146,3.682880401611328,1
210762,0.0012164860963821411,-0.0050696684047579765,0.00014445988927036524,0.26633793115615845,0.5087579488754272,3.659882068634033,1
210772,0.0008714343421161175,-0.005465828347951174,-3.8687830965500325e-05,0.2726626992225647,0.5177826881408691,3.697265386581421,1
210782,0.0008868608856573701,-0.005449637304991484,-3.1280556868296117e-05,0.2721138894557953,0.519075334072113,3.6943397521972656,1
210792,0.0011618089629337192,-0.004779402166604996,-2.1300478692865e-05,0.252475380897522,0.5084558129310608,3.6699368953704834,1
210804,0.001191051211208105,-0.004735905677080154,-1.6244794096564874e-05,0.2516258656978607,0.5087088942527771,3.6655433177948,1
210812,0.0010407428489997983,-0.005390601232647896,0.0001454782614018768,0.271529883146286,0.5162255764007568,3.6792023181915283,1
210822,0.0010605409042909741,-0.005376375280320644,0.0001612496271263808,0.2705402970314026,0.515103816986084,3.6756725311279297,1
210832,0.0013380583841353655,-0.004803872667253017,0.00014301412738859653,0.26023560762405396,0.507583737373352,3.656209945678711,1
210842,0.0011301833437755704,-0.005359622184187174,0.00020459131337702274,0.27623799443244934,0.5166948437690735,3.6869611740112305,1
210854,0.001150703988969326,-0.005349904298782349,0.00022406643256545067,0.27553948760032654,0.5160850882530212,3.683701276779175,1
210862,0.0013723758747801185,-0.005081038922071457,0.0001393280253978446,0.26650846004486084,0.5063576102256775,3.6592233180999756,1
210872,0.0014062641421332955,-0.005058751441538334,0.00015282579988706857,0.26651546359062195,0.5053621530532837,3.655771493911743,1
210882,0.0010517649352550507,-0.005462055094540119,-3.8090074667707086e-05,0.27269771695137024,0.5153580904006958,3.6784353256225586,1
210892,0.0012222013901919127,-0.005115201696753502,-4.561546666081995e-05,0.26261407136917114,0.5089667439460754,3.6552958488464355,1
210902,0.0012530829990282655,-0.005088904406875372,-3.5577089875005186e-05,0.2626349925994873,0.5085457563400269,3.6514508724212646,1
210912,0.0011448877630755305,-0.005566837266087532,7.540208753198385e-05,0.27725955843925476,0.5134628415107727,3.666576862335205,1
210922,0.0011709040263667703,-0.005558358505368233,9.308813605457544e-05,0.2769542932510376,0.513854444026947,3.6631951332092285,1
210932,0.0013453528517857194,-0.004867556970566511,0.00022953562438488007,0.26307040452957153,0.5093072652816772,3.637761116027832,1
210942,0.0011202683672308922,-0.005499534774571657,0.0003153918369207531,0.2797127962112427,0.5188394784927368,3.663506269454956,1
210952,0.0011385225225239992,-0.005490907002240419,0.0003459779836703092,0.27980154752731323,0.517289936542511,3.6598281860351562,1
210962,0.001226451713591814,-0.005149092525243759,0.00043362751603126526,0.2690901756286621,0.5115724205970764,3.6535277366638184,1
210972,0.0012463106540963054,-0.005120410118252039,0.0004666754975914955,0.2688136696815491,0.5111169219017029,3.6498959064483643,1
210982,0.0010094849858433008,-0.00523031409829855,0.00028161006048321724,0.26939988136291504,0.5196415781974792,3.674146890640259,1
210992,0.0013556316262111068,-0.0048171584494411945,0.00013268158363644034,0.258040189743042,0.5082177519798279,3.660327672958374,1
211002,0.0013854200951755047,-0.004771633539348841,0.00014946477313060313,0.2579748034477234,0.5071486830711365,3.6561312675476074,1
211012,0.0011810272699221969,-0.005518801510334015,0.0003017252602148801,0.2815316319465637,0.5146881937980652,3.6866097450256348,1
211022,0.0012027461780235171,-0.00550561398267746,0.00032747266232036054,0.2813376784324646,0.5169561505317688,3.681971311569214,1
211032,0.0013645659200847149,-0.004952079150825739,0.0004308228089939803,0.2704516649246216,0.5124913454055786,3.6627249717712402,1
211042,0.001079237787052989,-0.00523925106972456,0.0002795799809973687,0.2795930802822113,0.5210232138633728,3.689634323120117,1
211052,0.0010925715323537588,-0.005220941733568907,0.00030078316922299564,0.27945780754089355,0.5215888619422913,3.6860811710357666,1
211062,0.0012835037196055055,-0.005093697924166918,0.00018647864635568112,0.27609238028526306,0.513643205165863,3.663323163986206,1
211072,0.0013073021546006203,-0.005067653488367796,0.00020108318130951375,0.2754230499267578,0.5146247148513794,3.659794330596924,1
211082,0.001079759793356061,-0.005456201266497374,0.0001557115319883451,0.2814762592315674,0.5210852026939392,3.682546615600586,1
211092,0.0012833172222599387,-0.004868548363447189,0.00020357545872684568,0.265128493309021,0.5128030776977539,3.671527862548828,1
211102,0.0013149782316759229,-0.004821810871362686,0.00021290981385391206,0.2653388977050781,0.511565625667572,3.6693224906921387,1
211112,0.00109805166721344,-0.005193449556827545,0.0001579453091835603,0.27699771523475647,0.5196936726570129,3.6884734630584717,1
211122,0.0011529134353622794,-0.004741526208817959,0.0002949896443169564,0.26620301604270935,0.5189956426620483,3.6793949604034424,1
211132,0.0011743827490136027,-0.004704087972640991,0.00031133610173128545,0.26685380935668945,0.5198256969451904,3.675534248352051,1
211142,0.000959333498030901,-0.005296935793012381,0.00039427229785360396,0.2832980155944824,0.5296674370765686,3.698185682296753,1
211152,0.0009707816643640399,-0.005285697523504496,0.000414043985074386,0.2840387225151062,0.5315660834312439,3.695584535598755,1
211162,0.001291843131184578,-0.005171244032680988,0.00016456951561849564,0.279948353767395,0.5195032358169556,3.6650571823120117,1
211172,0.0013186599826440215,-0.005154215730726719,0.00016927123942878097,0.27874955534935,0.5190647840499878,3.660994052886963,1
211182,0.0009314459166489542,-0.005735240411013365,3.7537891330430284e-05,0.2884365916252136,0.529956579208374,3.6814239025115967,1
211192,0.001088406890630722,-0.004991419147700071,0.00019709111074917018,0.2675310969352722,0.5232986211776733,3.677457332611084,1
211202,0.0011083371937274933,-0.004959851503372192,0.00021108178771100938,0.2668314278125763,0.5237146019935608,3.67462158203125,1
211212,0.0007952195010147989,-0.005342820659279823,6.493948603747413e-05,0.27919304370880127,0.5362635254859924,3.695436477661133,1
211222,0.0007982710376381874,-0.005330040585249662,7.243983418447897e-05,0.27844199538230896,0.5349464416503906,3.69023060798645,1
211232,0.0009155742009170353,-0.004632558673620224,0.00023778624017722905,0.26433202624320984,0.5307402014732361,3.6694488525390625,1
211242,0.0007949702558107674,-0.005077798385173082,0.0003547418746165931,0.2762174904346466,0.5353543758392334,3.689573287963867,1
211252,0.0007967700366862118,-0.00506622577086091,0.00037449836963787675,0.27539587020874023,0.5347355604171753,3.684521436691284,1
211262,0.0010467373067513108,-0.005004499107599258,0.0001628479512874037,0.2755640149116516,0.5273996591567993,3.6646652221679688,1
211272,0.0010565065313130617,-0.004994411487132311,0.00017347399261780083,0.27423229813575745,0.5274162292480469,3.6614272594451904,1
211282,0.0010211344342678785,-0.005268707871437073,0.000268211355432868,0.27982068061828613,0.5286956429481506,3.6858396530151367,1
211292,0.0010578319197520614,-0.0050109210424125195,0.0003500429738778621,0.2712184190750122,0.5249804854393005,3.669804573059082,1
211302,0.0010665807640179992,-0.004999731667339802,0.00036902472493238747,0.27079319953918457,0.5244958996772766,3.6654233932495117,1
211312,0.000991934328339994,-0.00520907249301672,0.0003994643047917634,0.27417176961898804,0.5246831774711609,3.6848340034484863,1
211322,0.00099816860165447,-0.005204153712838888,0.000418419687775895,0.2746763825416565,0.5238382816314697,3.6810529232025146,1
211332,0.0014683888293802738,-0.005041878204792738,4.0720580727793276e-05,0.2695675194263458,0.5091920495033264,3.6597743034362793,1
211342,0.0011844225227832794,-0.005500247236341238,-4.7353623813251033e-05,0.2832598388195038,0.5223735570907593,3.6840872764587402,1
211352,0.0011943620629608631,-0.005503620021045208,-5.2237915951991454e-05,0.2836606502532959,0.5216471552848816,3.6800498962402344,1
211362,0.0013441394548863173,-0.004979276563972235,1.1176378393429331e-05,0.2723606526851654,0.5168321132659912,3.6585006713867188,1
211372,0.001360756577923894,-0.0049656410701572895,8.649787559988908e-06,0.271750271320343,0.5161575078964233,3.655106782913208,1
211382,0.0011879587545990944,-0.005668317433446646,0.00017493042105343193,0.2900272607803345,0.5227273106575012,3.6697640419006348,1
211392,0.0012368212919682264,-0.0051795076578855515,0.0003403732262086123,0.2730652093887329,0.5190237164497375,3.6542563438415527,1
211402,0.001250851433724165,-0.005169955547899008,0.0003530765825416893,0.2729546129703522,0.5185413360595703,3.6505963802337646,1
211412,0.0012146153021603823,-0.00540259899571538,0.00040965096559375525,0.27757659554481506,0.5186002850532532,3.681784152984619,1
211422,0.001228118664585054,-0.00539849977940321,0.0004263807786628604,0.27773600816726685,0.5181391835212708,3.6795051097869873,1
211432,0.0013991777086630464,-0.0050881304778158665,0.0004033996956422925,0.2681724727153778,0.5128076076507568,3.660569667816162,1
211442,0.0011129704071208835,-0.005284176208078861,0.0001992627076106146,0.2725617289543152,0.5245136022567749,3.6778509616851807,1
211452,0.001118918415158987,-0.005272914655506611,0.00020452956960070878,0.27282899618148804,0.523600161075592,3.673818588256836,1
211462,0.0011423135874792933,-0.00500425836071372,0.00028012203983962536,0.2676776647567749,0.5222312211990356,3.660515069961548,1
211472,0.0011492235353216529,-0.004982879851013422,0.00028776394901797175,0.2670557498931885,0.5228749513626099,3.656811475753784,1
211482,0.0009950002422556281,-0.0054514966905117035,0.0003707552677951753,0.2784799337387085,0.5275278091430664,3.6722073554992676,1
211492,0.0014186237240210176,-0.004886436741799116,0.00019299605628475547,0.26018980145454407,0.5101468563079834,3.6591238975524902,1
211502,0.001441732281818986,-0.004855623468756676,0.00019880110630765557,0.25756385922431946,0.5107722282409668,3.654928684234619,1
211512,0.0010340256849303842,-0.005363044328987598,1.5250132491928525e-05,0.2671550214290619,0.521090030670166,3.679109811782837,1
211522,0.0010426617227494717,-0.005345501005649567,1.5827901734155603e-05,0.26676875352859497,0.5198315382003784,3.674624443054199,1
211532,0.0010924156522378325,-0.004672382026910782,0.00023946395958773792,0.2500741481781006,0.5167956352233887,3.6683104038238525,1
211542,0.0009905899642035365,-0.005338584538549185,0.0004825535579584539,0.26986178755760193,0.5225697159767151,3.692690849304199,1
211552,0.0009987989906221628,-0.0053186193108558655,0.000505950185470283,0.268846720457077,0.5221734642982483,3.688643455505371,1
211562,0.0013378772418946028,-0.005122626665979624,0.0002666159416548908,0.2654590904712677,0.5113732218742371,3.6656534671783447,1
211572,0.0013604102423414588,-0.005094773136079311,0.00027836335357278585,0.2656773626804352,0.5125466585159302,3.6622724533081055,1
211582,0.0012114305282011628,-0.005414361134171486,0.00027772574685513973,0.27364641427993774,0.5183942914009094,3.6848459243774414,1
211592,0.0013860188191756606,-0.004858966451138258,0.000344422907801345,0.25577041506767273,0.5104241967201233,3.673322916030884,1
211602,0.0014117563841864467,-0.004817347973585129,0.00036112949601374567,0.253596693277359,0.5102036595344543,3.6696889400482178,1
211612,0.0010879714973270893,-0.005213790573179722,0.00022882000484969467,0.26071569323539734,0.5193027853965759,3.6950950622558594,1
211622,0.0011053172638639808,-0.0051802839152514935,0.00024061147996690124,0.26093652844429016,0.5198583006858826,3.6912786960601807,1
211632,0.0013219744432717562,-0.004958957899361849,0.00011974055087193847,0.2549594044685364,0.5142930746078491,3.674635648727417,1
211642,0.0010006024967879057,-0.00553001556545496,6.464061880251393e-05,0.27234622836112976,0.5291348099708557,3.68927001953125,1
211652,0.001014259527437389,-0.005513221491128206,6.773365748813376e-05,0.27112507820129395,0.5284768342971802,3.6857619285583496,1
211662,0.0013103869277983904,-0.005244450177997351,-0.00010538344940869138,0.2662397623062134,0.5191383361816406,3.662837266921997,1
211672,0.0013350772205740213,-0.005219587124884129,-0.00010867925448110327,0.2673383951187134,0.5209966897964478,3.6578197479248047,1
211682,0.0013401269679889083,-0.005588986445218325,6.08640220889356e-05,0.27670636773109436,0.5220813155174255,3.6825952529907227,1
211692,0.0014242419274523854,-0.0051577030681073666,0.0001607266312930733,0.26266539096832275,0.5174384117126465,3.665832281112671,1
211702,0.0014528442407026887,-0.005123889073729515,0.0001715232792776078,0.2627108693122864,0.5160815715789795,3.661635637283325,1
211712,0.0013251499040052295,-0.005410292185842991,0.00016640649118926376,0.266816109418869,0.519045889377594,3.6964101791381836,1
211722,0.0013502378715202212,-0.005384498275816441,0.00017616232798900455,0.2679278254508972,0.5199632048606873,3.691303014755249,1
211732,0.0014759543118998408,-0.004947836045175791,0.00024365300487261266,0.2555258274078369,0.514648973941803,3.6740882396698,1
211742,0.0011088504688814282,-0.005566725041717291,0.00016826837963890284,0.274710476398468,0.5303112864494324,3.6925089359283447,1
211752,0.0011224329937249422,-0.0055549307726323605,0.00017601744912099093,0.27435943484306335,0.5310250520706177,3.6881985664367676,1
211762,0.0012021003058180213,-0.004893297329545021,0.00037849886575713754,0.25931721925735474,0.5270726680755615,3.6731667518615723,1
211772,0.0008843158720992506,-0.005344307515770197,0.0002633089607115835,0.27179673314094543,0.5385499000549316,3.711000442504883,1
211782,0.00088829908054322,-0.005334357265383005,0.00027341171517036855,0.2721980810165405,0.5388082265853882,3.7074050903320312,1
211792,0.001134041347540915,-0.0048265825025737286,0.0002448997984174639,0.25620517134666443,0.5272746086120605,3.6976165771484375,1
211802,0.0011515914229676127,-0.004795480519533157,0.0002506577002350241,0.2571520507335663,0.5272220969200134,3.6938586235046387,1
211812,0.0008505353471264243,-0.005364860873669386,0.0002217359869973734,0.26747754216194153,0.5344279408454895,3.712575674057007,1
211822,0.0008548356709070504,-0.005348800681531429,0.0002273317804792896,0.26717084646224976,0.533746063709259,3.7085914611816406,1
211832,0.001120418542996049,-0.0051123169250786304,5.8365589211462066e-05,0.26039034128189087,0.5244572758674622,3.68375563621521,1
211842,0.0010896235471591353,-0.005432653706520796,0.0001691103243501857,0.27150705456733704,0.5261517763137817,3.7152533531188965,1
211852,0.0011024174746125937,-0.005420641973614693,0.00017351920541841537,0.27109578251838684,0.5261738300323486,3.711446523666382,1
211862,0.0011818829225376248,-0.0048094987869262695,0.0003436921106185764,0.25922155380249023,0.5237171053886414,3.6879663467407227,1
211872,0.0008775179157964885,-0.0054092430509626865,0.0003345768491271883,0.2752426266670227,0.5343481302261353,3.703798770904541,1
211882,0.0008792204898782074,-0.0054032327607274055,0.0003438628918956965,0.2740403115749359,0.5355614423751831,3.7006120681762695,1
211892,0.0012651983415707946,-0.00494105601683259,0.00014886533608660102,0.25757646560668945,0.5187273621559143,3.6705925464630127,1
211902,0.0012872637016698718,-0.004912379197776318,0.0001457407488487661,0.25697654485702515,0.5187847018241882,3.6685009002685547,1
211912,0.0010447079548612237,-0.005262020509690046,4.413005444803275e-05,0.2628178298473358,0.525233805179596,3.6835968494415283,1
211922,0.0010603769915178418,-0.0052428883500397205,3.7034627894172445e-05,0.262395977973938,0.5255482792854309,3.6790637969970703,1
211932,0.0012873231898993254,-0.004725957754999399,1.390506986354012e-05,0.24775591492652893,0.5165732502937317,3.6614179611206055,1
211942,0.0010785151971504092,-0.005216236226260662,1.4075234503252432e-05,0.2639191150665283,0.5245727300643921,3.6786081790924072,1
211952,0.0010923459194600582,-0.005195094272494316,9.09766458789818e-06,0.26300740242004395,0.5230832695960999,3.675663948059082,1
211962,0.0012316752690821886,-0.004754714667797089,3.343056232552044e-05,0.2525157034397125,0.5201388597488403,3.6524362564086914,1
211972,0.0010967095149680972,-0.005275180097669363,0.00014331252896226943,0.26743534207344055,0.5243032574653625,3.669952630996704,1
211982,0.0011065854923799634,-0.005258066579699516,0.00014603158342652023,0.26843562722206116,0.5239932537078857,3.666398048400879,1
211992,0.001329596620053053,-0.004851007834076881,8.95450939424336e-05,0.25505366921424866,0.5145667791366577,3.6486141681671143,1
212002,0.0013519551139324903,-0.0048141698352992535,8.789438288658857e-05,0.25463631749153137,0.5132523775100708,3.643439531326294,1
212012,0.0011864402331411839,-0.005457933526486158,0.00021797035878989846,0.26776349544525146,0.5174893140792847,3.6777164936065674,1
212022,0.0012083210749551654,-0.0054402402602136135,0.00022465230722445995,0.2676597833633423,0.5168076753616333,3.6750855445861816,1
212032,0.0014832995366305113,-0.004899671766906977,0.0001848068059189245,0.2529904246330261,0.5070095658302307,3.6487507820129395,1
212042,0.0011498496169224381,-0.005292828660458326,4.47123738922528e-06,0.2646830081939697,0.5197311639785767,3.67458176612854,1
212052,0.0011672194814309478,-0.005270661320537329,3.2615075724606868e-06,0.2640548646450043,0.5196390748023987,3.6710541248321533,1
212062,0.0012382162967696786,-0.004852759186178446,9.524306369712576e-05,0.255890429019928,0.51594078540802,3.647304058074951,1
212072,0.001257625175639987,-0.004816329572349787,0.0001008131293929182,0.25586068630218506,0.5143259167671204,3.6447863578796387,1
212082,0.0010109139839187264,-0.005194223485887051,2.35855422943132e-05,0.26510122418403625,0.524348795413971,3.666275978088379,1
212092,0.0011623007012531161,-0.004920454230159521,-1.9153674656990916e-05,0.2571587860584259,0.5166719555854797,3.6373403072357178,1
212102,0.0011776210740208626,-0.004881927277892828,-1.6003185010049492e-05,0.25731876492500305,0.5160205960273743,3.635200262069702,1
212112,0.001046354416757822,-0.005554069299250841,0.0001912923762574792,0.2707775831222534,0.5212595462799072,3.656353235244751,1
212122,0.0010597114451229572,-0.005537046585232019,0.00020297453738749027,0.2706000804901123,0.5210984349250793,3.652778148651123,1
212132,0.001159816631115973,-0.0050485581159591675,0.00031643820693716407,0.25779804587364197,0.5164095759391785,3.646843910217285,1
212142,0.0008978052064776421,-0.005460734944790602,0.0002464177377987653,0.2698647379875183,0.5266389846801758,3.6739654541015625,1
212152,0.0008997662225738168,-0.005441478919237852,0.00025930264382623136,0.27127915620803833,0.5275772213935852,3.669572353363037,1
212162,0.001232210430316627,-0.005002877209335566,0.00010889746044995263,0.2619512975215912,0.5180315375328064,3.6489548683166504,1
212172,0.0012457550037652254,-0.004970056004822254,0.00011489768075989559,0.26147764921188354,0.5176580548286438,3.644141674041748,1
212182,0.001090868259780109,-0.005303017795085907,0.00011987129255430773,0.27045199275016785,0.5229300856590271,3.6647748947143555,1
212192,0.001189814298413694,-0.0048072682693600655,0.00021214976732153445,0.25363802909851074,0.517509400844574,3.646294593811035,1
212202,0.0012017202097922564,-0.004766664933413267,0.00022082981013227254,0.2533642649650574,0.517233669757843,3.643162488937378,1
212212,0.000983160687610507,-0.005397370550781488,0.0003139759646728635,0.26568424701690674,0.5231680274009705,3.6725592613220215,1
212222,0.000989158870652318,-0.005377196706831455,0.00032923894468694925,0.264891117811203,0.5228880047798157,3.6692845821380615,1
212232,0.0010538417845964432,-0.005046086385846138,0.00041030635475181043,0.2553149163722992,0.5199835896492004,3.6510775089263916,1
212242,0.0008455173228867352,-0.005445008631795645,0.0004127014835830778,0.26746463775634766,0.5278792381286621,3.6644816398620605,1
212252,0.0008467966108582914,-0.005428664851933718,0.0004331913951318711,0.26662278175354004,0.52632737159729,3.661414861679077,1
212262,0.0012558591552078724,-0.004828411620110273,0.0002885327849071473,0.2549404501914978,0.5166097283363342,3.659162998199463,1
212273,0.0012745497515425086,-0.004795178305357695,0.0003042056632693857,0.25463584065437317,0.5168007016181946,3.65563702583313,1
212282,0.0008087852620519698,-0.005365849006921053,0.00010569538426352665,0.27006688714027405,0.5341153144836426,3.67724609375,1
212292,0.0010227494640275836,-0.004751627333462238,0.00014703813940286636,0.25141245126724243,0.5247427821159363,3.660963773727417,1
212302,0.001036464818753302,-0.0047165448777377605,0.0001604221179150045,0.25042954087257385,0.5246092677116394,3.6571085453033447,1
212312,0.001051578437909484,-0.005240356549620628,0.00043659526272676885,0.26164987683296204,0.5235226154327393,3.6876296997070312,1
212322,0.0010686061577871442,-0.005222255829721689,0.000460172159364447,0.26291385293006897,0.5234925150871277,3.683035135269165,1
212332,0.001269852858968079,-0.004807678516954184,0.0004572404141072184,0.25185081362724304,0.5146803259849548,3.6632816791534424,1
212342,0.0006546502700075507,-0.005240634083747864,2.1873023797525093e-05,0.26566082239151,0.5382025837898254,3.692081928253174,1
212352,0.000652129587251693,-0.005227386485785246,1.8873175577027723e-05,0.2638748288154602,0.5372814536094666,3.6882874965667725,1
212362,0.0010049225529655814,-0.004707631189376116,-0.00013258916442282498,0.25383779406547546,0.5260661840438843,3.6632885932922363,1
212373,0.001015997026115656,-0.004681809805333614,-0.0001401157642249018,0.2549251317977905,0.5248789191246033,3.658766031265259,1
212382,0.001044732634909451,-0.005462870933115482,0.0002670173707883805,0.27679648995399475,0.5270172357559204,3.690147876739502,1
212392,0.001246643252670765,-0.005191096104681492,0.00019087849068455398,0.266274631023407,0.5180103182792664,3.6645259857177734,1
212402,0.0012715824414044619,-0.0051795002073049545,0.00019677428645081818,0.26604554057121277,0.5187616944313049,3.6588377952575684,1
212412,0.0011465039569884539,-0.005379177164286375,0.00014183999155648053,0.2689242362976074,0.5235339403152466,3.6825766563415527,1
212423,0.001162950647994876,-0.005373521242290735,0.00014377848128788173,0.2690195143222809,0.5230838656425476,3.677973508834839,1
212432,0.0013096091570332646,-0.005120993126183748,0.00011063103011110798,0.2620828151702881,0.5166518688201904,3.655143976211548,1
212442,0.0011170638026669621,-0.00558552285656333,0.00012392233475111425,0.2705109715461731,0.5215619802474976,3.6711132526397705,1
212452,0.0011345322709530592,-0.0055799297988414764,0.00012501244782470167,0.27017998695373535,0.5219672918319702,3.6679205894470215,1
212462,0.0012779872631654143,-0.004796146880835295,0.0003143720969092101,0.24734635651111603,0.5119275450706482,3.660710096359253,1
212473,0.0013042192440479994,-0.004759031347930431,0.0003225811815354973,0.24744440615177155,0.5110719203948975,3.657170057296753,1
212482,0.001058403286151588,-0.00514637865126133,0.00024068843049462885,0.2583271563053131,0.5195283889770508,3.6853110790252686,1
212492,0.001299496740102768,-0.004892756696790457,0.0001095426850952208,0.254474014043808,0.5110543966293335,3.6670045852661133,1
212502,0.0013263445580378175,-0.004870465956628323,0.00010937551269307733,0.25389227271080017,0.5122045874595642,3.663098096847534,1
212512,0.0010700990678742528,-0.005224025808274746,-1.1662767974485178e-05,0.26390203833580017,0.521104633808136,3.681967258453369,1
212522,0.0010861005866900086,-0.005216287449002266,-1.1735876796592493e-05,0.26315808296203613,0.5193765759468079,3.6774072647094727,1
212532,0.0010292863007634878,-0.004939821548759937,0.0001628676982363686,0.25485479831695557,0.5214916467666626,3.6702609062194824,1
212542,0.0007981317467056215,-0.005419287830591202,0.00016498929471708834,0.2639911472797394,0.5281228423118591,3.6831655502319336,1
212552,0.0008027071016840637,-0.005412459839135408,0.00017470601596869528,0.26424214243888855,0.5282785892486572,3.679222822189331,1
212562,0.0008835972403176129,-0.005007212981581688,0.00026451630401425064,0.252776175737381,0.5247071981430054,3.661780834197998,1
212572,0.0008920988184399903,-0.004981107544153929,0.0002741152129601687,0.253024697303772,0.5245586037635803,3.65863037109375,1
212582,0.000987318460829556,-0.005253405775874853,0.0005061686970293522,0.2609970271587372,0.5218482613563538,3.6781442165374756,1
212592,0.0012397177051752806,-0.004813432693481445,0.00046213564928621054,0.25304412841796875,0.51551753282547,3.654468536376953,1
212602,0.0012643265072256327,-0.004785539116710424,0.00048393214819952846,0.2525128126144409,0.5158616900444031,3.6508352756500244,1
212612,0.0010769517393782735,-0.005193543620407581,0.0004946429980918765,0.2618427276611328,0.5229174494743347,3.680384397506714,1
212623,0.0010932200821116567,-0.005180939566344023,0.0005180194275453687,0.26135650277137756,0.5229762196540833,3.677386999130249,1
212632,0.0014966249000281096,-0.0047939373180270195,0.0003028100181836635,0.251010924577713,0.5080570578575134,3.6602041721343994,1
212642,0.0011943448334932327,-0.005288453307002783,0.00023046054411679506,0.2602611482143402,0.5184200406074524,3.671367883682251,1
212652,0.0012175367446616292,-0.005266867112368345,0.000240403285715729,0.2598772346973419,0.5164148211479187,3.667048454284668,1
212662,0.0013625698629766703,-0.005038161762058735,0.00020119921828154474,0.25375330448150635,0.5110874176025391,3.6481010913848877,1
212673,0.0013625698629766703,-0.005038161762058735,0.00020119921828154474,0.25375330448150635,0.5110874176025391,3.6481010913848877,1
212682,0.0012061902089044452,-0.00538761867210269,0.0001968520664377138,0.26644167304039,0.5192259550094604,3.6774961948394775,1
212692,0.0015103452606126666,-0.00508103147149086,4.5865675929235294e-05,0.26083412766456604,0.5100184082984924,3.6593167781829834,1
212702,0.001543142250739038,-0.005060488823801279,4.653337600757368e-05,0.2608676850795746,0.5088724493980408,3.655333995819092,1
212712,0.0013094524620100856,-0.005678656976670027,8.555394015274942e-05,0.27774739265441895,0.517684817314148,3.674110174179077,1
212723,0.0013292374787852168,-0.005684148985892534,8.597943815402687e-05,0.2776954770088196,0.5168101787567139,3.6725447177886963,1
212732,0.0013726064935326576,-0.004965281113982201,0.00034814991522580385,0.26211437582969666,0.5168956518173218,3.664138078689575,1
212742,0.0011027530999854207,-0.005477020051330328,0.00031790503999218345,0.2790383994579315,0.5282505750656128,3.683446168899536,1
212752,0.0011046044528484344,-0.005482902284711599,0.00032683543395251036,0.27982044219970703,0.5265181660652161,3.6798555850982666,1
212762,0.0013307140907272696,-0.004930479917675257,0.00032578283571638167,0.26157984137535095,0.5163185000419617,3.6526198387145996,1
212773,0.0013446771772578359,-0.0049072569236159325,0.00033513098605908453,0.2615809440612793,0.5160768032073975,3.6495535373687744,1
212782,0.001053066924214363,-0.005253639072179794,0.00020962380222044885,0.26748034358024597,0.5241819024085999,3.668383836746216,1
212792,0.0012168522225692868,-0.004750574938952923,0.00024250874412246048,0.25311461091041565,0.5152662992477417,3.6467418670654297,1
212802,0.0012292470782995224,-0.0047135744243860245,0.00024652041611261666,0.25239256024360657,0.5168325901031494,3.64400053024292,1
212812,0.0008971439674496651,-0.005450665485113859,0.00027775438502430916,0.275393545627594,0.5316091179847717,3.6560587882995605,1
212823,0.0008927775779739022,-0.005446662660688162,0.0002830866724252701,0.27543753385543823,0.5305719971656799,3.6526992321014404,1
212832,0.0011346780229359865,-0.004852915648370981,0.00028089963598176837,0.26336240768432617,0.521846354007721,3.6292190551757812,1
212842,0.0009875678224489093,-0.005106032360345125,0.0002499320835340768,0.2699637711048126,0.5257293581962585,3.6408166885375977,1
212852,0.000987459090538323,-0.005094239022582769,0.00025389870279468596,0.2689390182495117,0.5261990427970886,3.6371383666992188,1
212862,0.0010698911501094699,-0.004953681956976652,0.00022322082077153027,0.2636658847332001,0.5226404070854187,3.6247806549072266,1
212873,0.0010756197152659297,-0.004933750722557306,0.00022655192879028618,0.2633543312549591,0.522307276725769,3.621713161468506,1
212882,0.0009899246506392956,-0.0054386029951274395,0.0003794070507865399,0.27392643690109253,0.5241137146949768,3.64528489112854,1
212892,0.0013043828075751662,-0.0049396660178899765,0.00028018988086842,0.258960485458374,0.513293981552124,3.624570369720459,1
212902,0.0013264196459203959,-0.004913755692541599,0.00028451954131014645,0.2573505640029907,0.5136777758598328,3.621323347091675,1
212912,0.0010941715445369482,-0.005199601408094168,0.00016670026525389403,0.26534605026245117,0.5237786769866943,3.6450045108795166,1
212923,0.0011042647529393435,-0.00518772704526782,0.00016508168482687324,0.2662363350391388,0.5249883532524109,3.642691135406494,1
212932,0.0013045535888522863,-0.004904852248728275,7.911846478236839e-05,0.26123926043510437,0.5193053483963013,3.6254448890686035,1
212942,0.0012190149864181876,-0.005334993824362755,0.0001746824273141101,0.2730768620967865,0.5229893922805786,3.6574764251708984,1
212952,0.0012321023968979716,-0.00533073116093874,0.00017580816347617656,0.27427417039871216,0.5216431021690369,3.6537318229675293,1
212962,0.0013880671467632055,-0.004865220282226801,0.00020954821957275271,0.2590256631374359,0.5142756104469299,3.6347110271453857,1
212973,0.0014092111960053444,-0.004837999120354652,0.0002143504098057747,0.2596144676208496,0.513690173625946,3.630584716796875,1
212982,0.001224100822582841,-0.005309154279530048,0.00025177118368446827,0.27025529742240906,0.5158783197402954,3.655322313308716,1
212992,0.001413429738022387,-0.00487156817689538,0.00024863824364729226,0.25842562317848206,0.5072760581970215,3.6355059146881104,1
213002,0.0014391749864444137,-0.00483706034719944,0.000255688646575436,0.25799065828323364,0.508045494556427,3.6315038204193115,1
213012,0.0012767070438712835,-0.005350221414119005,0.00031868807855062187,0.2728690505027771,0.517353355884552,3.6770987510681152,1
213023,0.0012962693581357598,-0.005340352188795805,0.0003294200578238815,0.272570937871933,0.5180593729019165,3.67291522026062,1
213032,0.001313424902036786,-0.004942930303514004,0.000489011756144464,0.2628293037414551,0.5169869661331177,3.6607985496520996,1
213042,0.0008660638704895973,-0.00545155256986618,0.0002773995220195502,0.2764730453491211,0.5327893495559692,3.67488956451416,1
213052,0.0008653250406496227,-0.005452140234410763,0.00028121788636781275,0.2771745026111603,0.5320636034011841,3.672316312789917,1
213062,0.0012569157406687737,-0.004845529329031706,0.00013446436787489802,0.257833331823349,0.5145442485809326,3.6549744606018066,1
213073,0.001277786330319941,-0.004814607091248035,0.00012780704128090292,0.257798969745636,0.5156505107879639,3.6519007682800293,1
213082,0.0009645026875659823,-0.005651539191603661,0.00021667304099537432,0.2742518186569214,0.523958146572113,3.676182746887207,1
213092,0.0010789325460791588,-0.004981451667845249,0.0003747605951502919,0.25570014119148254,0.5169268846511841,3.6672773361206055,1
213102,0.0010965395485982299,-0.004945863503962755,0.00037836882984265685,0.2548501789569855,0.5160011649131775,3.662658452987671,1
213112,0.0007663163123652339,-0.005334016866981983,0.0002129564672941342,0.26782092452049255,0.5271735787391663,3.678790807723999,1
213123,0.0007675150991417468,-0.005314869340509176,0.00020797479373868555,0.26764732599258423,0.526884913444519,3.6757707595825195,1
213132,0.001000079675577581,-0.004648827947676182,0.00023297050211112946,0.25465384125709534,0.5192346572875977,3.65766978263855,1
213142,0.0008186477934941649,-0.005086029414087534,0.0002671547990757972,0.26650819182395935,0.5258374810218811,3.68302059173584,1
213152,0.0008226064965128899,-0.005061191041022539,0.0002701378834899515,0.2664491534233093,0.523227334022522,3.6795434951782227,1
213162,0.001216273638419807,-0.004784045275300741,-1.6220303223235533e-05,0.2615492343902588,0.5125362277030945,3.657851219177246,1
213173,0.0012340653920546174,-0.004750601015985012,-2.271616176585667e-05,0.2590833306312561,0.5111839175224304,3.6541671752929688,1
213182,0.0010984493419528008,-0.005534124094992876,0.00022550362336914986,0.28038254380226135,0.5183327198028564,3.6810154914855957,1
213192,0.001234965049661696,-0.0050357370637357235,0.00028979722992517054,0.2636781632900238,0.5103925466537476,3.6605420112609863,1
213202,0.0012513120891526341,-0.005010672844946384,0.000295168167212978,0.2635376453399658,0.5107904672622681,3.656623601913452,1
213212,0.0010852908017113805,-0.00546419620513916,0.000331554765580222,0.2733960449695587,0.5155631303787231,3.693774700164795,1
213223,0.0010998825309798121,-0.0054521989077329636,0.00034240222885273397,0.2726972997188568,0.5134243369102478,3.6894702911376953,1
213232,0.0013146495912224054,-0.0052135842852294445,0.0002431640459690243,0.2654076814651489,0.5058569312095642,3.6659185886383057,1
213242,0.0011311216512694955,-0.005379580892622471,0.00011402090603951365,0.27084681391716003,0.5139713883399963,3.687892198562622,1
213252,0.0011471265461295843,-0.005362084601074457,0.0001141537941293791,0.26999154686927795,0.5140723586082458,3.6833889484405518,1
213262,0.0011872570030391216,-0.004742124117910862,0.00032481161179021,0.25761187076568604,0.5135441422462463,3.6586434841156006,1
213273,0.0012015131069347262,-0.004704709630459547,0.00033037265529856086,0.25706392526626587,0.5119315385818481,3.655442714691162,1
213282,0.0009542163461446762,-0.005249106790870428,0.00034665517159737647,0.27084997296333313,0.5209619402885437,3.6823790073394775,1
213292,0.0011497396044433117,-0.004748447332531214,0.00035162255517207086,0.2542138695716858,0.5096060633659363,3.668478488922119,1
213302,0.0011641619494184852,-0.0047081233933568,0.0003556855663191527,0.25396278500556946,0.5088235139846802,3.6645376682281494,1
213312,0.0009311197209171951,-0.005403751041740179,0.0004668488691095263,0.2671988308429718,0.5138893723487854,3.681501626968384,1
213324,0.0009383854339830577,-0.005382736213505268,0.00047781775356270373,0.2670571804046631,0.5141520500183105,3.6768605709075928,1
213332,0.0014417917700484395,-0.004881080240011215,0.00018725507834460586,0.2520696520805359,0.49712589383125305,3.6584787368774414,1
213342,0.0011201922316104174,-0.005368464160710573,8.469947351841256e-05,0.2650364935398102,0.5113329887390137,3.6717946529388428,1
213352,0.0011298529570922256,-0.005349867511540651,7.912440196378157e-05,0.2649465799331665,0.5093696117401123,3.667005777359009,1
213362,0.0013261371059343219,-0.004775604233145714,0.00010601191024761647,0.2526702284812927,0.5026666522026062,3.6444759368896484,1
213374,0.0013397476868703961,-0.004739287309348583,0.00010309174831490964,0.25208547711372375,0.5025647282600403,3.641688108444214,1
213382,0.0011258330196142197,-0.0052834185771644115,0.00015161313058342785,0.26614874601364136,0.5129675269126892,3.658165454864502,1
213392,0.0013828418450430036,-0.004948067013174295,2.392081296420656e-05,0.2561483681201935,0.499639093875885,3.6389150619506836,1
213402,0.0014032262843102217,-0.004917286802083254,1.3573528121924028e-05,0.25622665882110596,0.4995310306549072,3.6353108882904053,1
213412,0.001240936922840774,-0.005346684250980616,3.5463323001749814e-05,0.2639869153499603,0.5036532282829285,3.6690382957458496,1
213424,0.0012582128401845694,-0.0053284321911633015,2.603699977044016e-05,0.2633880078792572,0.5041857361793518,3.6655519008636475,1
213432,0.0014142072759568691,-0.004909856244921684,3.4536391467554495e-05,0.2524358630180359,0.49873119592666626,3.6502573490142822,1
213442,0.0009356039809063077,-0.005447025410830975,-0.0002281680062878877,0.2688840627670288,0.5181772112846375,3.668369770050049,1
213452,0.0009373582433909178,-0.005433271173387766,-0.000254462385782972,0.26859593391418457,0.5188215970993042,3.6646029949188232,1
213462,0.001054769498296082,-0.004854387138038874,-0.0001777988363755867,0.2579995095729828,0.5151299834251404,3.6515512466430664,1
213472,0.0010582016548141837,-0.004822195041924715,-0.0002022724220296368,0.2588445842266083,0.5151544213294983,3.6468687057495117,1
213482,0.0010164713021367788,-0.005434637423604727,5.25886207469739e-05,0.27414751052856445,0.51661217212677,3.674964189529419,1
213492,0.0012298418441787362,-0.0049371784552931786,1.1899364835699089e-05,0.25903764367103577,0.5061264634132385,3.655203342437744,1
213502,0.0012401444837450981,-0.0049055591225624084,7.132784958230332e-07,0.259496808052063,0.505332887172699,3.6511855125427246,1
213512,0.001050321850925684,-0.00545874610543251,7.87073076935485e-05,0.27041640877723694,0.5102584958076477,3.6729493141174316,1
213524,0.0010547386482357979,-0.00544304633513093,7.166601426433772e-05,0.2709864377975464,0.5095530152320862,3.670071840286255,1
213532,0.0012958719162270427,-0.004930912051349878,2.6998401153832674e-05,0.25696074962615967,0.4995391368865967,3.650653600692749,1
213542,0.001108321244828403,-0.005532689858227968,0.0001230857305927202,0.2761753499507904,0.5085053443908691,3.6765058040618896,1
213552,0.001112388214096427,-0.005523512605577707,0.00011750981502700597,0.27676481008529663,0.509815514087677,3.6736626625061035,1
213562,0.001263106125406921,-0.0051271067932248116,0.00011319785699015483,0.2683216333389282,0.5057350993156433,3.657299757003784,1
213573,0.0012715733610093594,-0.005105455871671438,0.00010714510426623747,0.2696036398410797,0.5056295394897461,3.6539461612701416,1
213582,0.0010873983846977353,-0.005731555633246899,0.00022837231517769396,0.2860560119152069,0.5138114094734192,3.670044422149658,1
213592,0.001185412285849452,-0.005115422420203686,0.0003719118540175259,0.2660791873931885,0.5054120421409607,3.6483991146087646,1
213602,0.0011920648394152522,-0.005087556317448616,0.00038025202229619026,0.2656216621398926,0.5047551393508911,3.6450281143188477,1
213612,0.0010297546396031976,-0.00537753663957119,0.00036250738776288927,0.2706511914730072,0.5084671974182129,3.665889024734497,1
213623,0.0010340689914301038,-0.005355676170438528,0.00037084679934196174,0.27067458629608154,0.5091969966888428,3.66288161277771,1
213632,0.001257878146134317,-0.0048209489323198795,0.00036510408972389996,0.2552950978279114,0.49871742725372314,3.6430819034576416,1
213642,0.001015203888528049,-0.005300682969391346,0.00036294086021371186,0.2702161371707916,0.5067548155784607,3.6589324474334717,1
213652,0.0010168523294851184,-0.00527655053883791,0.0003687386924866587,0.27057623863220215,0.5066206455230713,3.65486741065979,1
213662,0.001297641545534134,-0.004841925110667944,0.0002645753265824169,0.2618217468261719,0.4995245337486267,3.638103485107422,1
213674,0.00131048948969692,-0.004808020778000355,0.00026612289366312325,0.2625602185726166,0.4984886348247528,3.6337761878967285,1
213682,0.0011163739254698157,-0.005225454922765493,0.0002712409186642617,0.27323487401008606,0.5033655166625977,3.651076078414917,1
213692,0.0014259115559980273,-0.004827120341360569,0.00012358110689092427,0.26109546422958374,0.490818053483963,3.631169080734253,1
213702,0.0014495572540909052,-0.004789475351572037,0.00011867981811519712,0.2616851329803467,0.4897766709327698,3.627765655517578,1
213712,0.001058144262060523,-0.005393687169998884,2.128846062987577e-06,0.2717542350292206,0.49948087334632874,3.6478309631347656,1
213724,0.0010704286396503448,-0.005369964987039566,-5.332444743544329e-06,0.2722969055175781,0.49915632605552673,3.643256425857544,1
213732,0.0012267811689525843,-0.004833025857806206,4.4143984268885106e-05,0.2565840780735016,0.4915790855884552,3.615305185317993,1
213742,0.001039059367030859,-0.005475058685988188,0.00016826228238642216,0.2756030261516571,0.5004140734672546,3.6303703784942627,1
213752,0.0010511503787711263,-0.005458093248307705,0.000168920261785388,0.2739987373352051,0.4988340437412262,3.6256418228149414,1
213762,0.0010842140763998032,-0.005025999620556831,0.0003086674551013857,0.2650302052497864,0.496098130941391,3.611893892288208,1
213772,0.0010988982394337654,-0.0049910214729607105,0.0003129297692794353,0.26436442136764526,0.4978020489215851,3.608665704727173,1
213782,0.0008586411131545901,-0.005208717659115791,0.00015195673040580004,0.26983940601348877,0.5055784583091736,3.634559392929077,1
213792,0.0009705572156235576,-0.004853300750255585,0.0001686420146143064,0.25901955366134644,0.5001343488693237,3.61800217628479,1
213802,0.0009849262423813343,-0.004807263147085905,0.00016712093201931566,0.25807783007621765,0.4997425079345703,3.6157917976379395,1
213812,0.0007532946765422821,-0.0052590882405638695,0.00014735145668964833,0.26732736825942993,0.50575852394104,3.6432268619537354,1
213822,0.0007607401348650455,-0.005225959233939648,0.00014707828813698143,0.26647818088531494,0.504887580871582,3.6396291255950928,1
213832,0.0010972394375130534,-0.0044960761442780495,9.746428986545652e-05,0.24730002880096436,0.49186164140701294,3.620448350906372,1
213842,0.0009928856743499637,-0.005152062047272921,0.0003244474937673658,0.2688031792640686,0.4985699951648712,3.640866279602051,1
213852,0.0010099326027557254,-0.005116885993629694,0.0003338000678922981,0.26863226294517517,0.49813389778137207,3.6365253925323486,1
213862,0.001173985656350851,-0.004798160400241613,0.00030932549270801246,0.262783020734787,0.4940461814403534,3.6118080615997314,1
213872,0.0011993416119366884,-0.004752143751829863,0.00031934623257257044,0.26391515135765076,0.49359801411628723,3.6074841022491455,1
213882,0.0010007565142586827,-0.005199964623898268,0.00033898279070854187,0.2764016389846802,0.5013360977172852,3.6426143646240234,1
213892,0.0012824722798541188,-0.005024747923016548,0.000138747927849181,0.2718883752822876,0.49127766489982605,3.6243770122528076,1
213902,0.001314247609116137,-0.004985055420547724,0.00013766148185823113,0.2718339264392853,0.49076807498931885,3.6211681365966797,1
213912,0.0010700346902012825,-0.005464621819555759,0.00010007710807258263,0.2807360589504242,0.49833258986473083,3.64578914642334,1
213922,0.0010928161209449172,-0.005437564570456743,0.00010077001206809655,0.28007301688194275,0.49704280495643616,3.642788887023926,1
213932,0.0014035591157153249,-0.004822227172553539,5.589953070739284e-05,0.26290735602378845,0.4862126410007477,3.62856388092041,1
213942,0.0012219571508467197,-0.005551786627620459,0.0002233828417956829,0.2847496569156647,0.49326106905937195,3.6429600715637207,1
213952,0.0012486366322264075,-0.0055361222475767136,0.00023218424757942557,0.28431716561317444,0.4920746684074402,3.638822317123413,1
213962,0.001395766157656908,-0.005075848661363125,0.00029784266371279955,0.2752402126789093,0.4868401288986206,3.630571126937866,1
213972,0.0014276105212047696,-0.0050461371429264545,0.00030850316397845745,0.2753719389438629,0.4872969388961792,3.6271183490753174,1
213982,0.001044103759340942,-0.005539257079362869,0.00014750970876775682,0.28868231177330017,0.5008296966552734,3.645048141479492,1
213992,0.001297922688536346,-0.004855345003306866,0.00017569032206665725,0.26772573590278625,0.4902834892272949,3.628723382949829,1
214002,0.0013323550811037421,-0.004807344172149897,0.00018184205691795796,0.2680904269218445,0.4895052909851074,3.6258015632629395,1
214012,0.0009062147582881153,-0.005137949250638485,-0.00012182752834632993,0.27283668518066406,0.5028573870658875,3.656193733215332,1
214024,0.0009246570989489555,-0.005104215815663338,-0.00013089983258396387,0.27264803647994995,0.5021219849586487,3.6551640033721924,1
214032,0.0010118583450093865,-0.004860896151512861,-0.0001292411470785737,0.26578742265701294,0.4997508227825165,3.6347105503082275,1
214042,0.001055892207659781,-0.005582019686698914,0.0002650335372891277,0.28715068101882935,0.49812546372413635,3.6514928340911865,1
214052,0.0010847317753359675,-0.005573762580752373,0.00028311365167610347,0.28719380497932434,0.496393084526062,3.648348808288574,1
214062,0.0014338555047288537,-0.004925331100821495,0.00024194331490434706,0.2742285132408142,0.4862920045852661,3.6293835639953613,1
214074,0.0014729263493791223,-0.004896825645118952,0.0002545817696955055,0.27449703216552734,0.48534339666366577,3.625955104827881,1
214082,0.00115005555562675,-0.005355313420295715,0.0001194455981021747,0.28685131669044495,0.49722498655319214,3.6626083850860596,1
214092,0.0012283213436603546,-0.004797453060746193,0.0002853304613381624,0.27562636137008667,0.49638795852661133,3.64825701713562,1
214102,0.0012486046180129051,-0.004771588370203972,0.00029649503994733095,0.2752085030078888,0.49589982628822327,3.643876314163208,1
214112,0.0008375522447749972,-0.005658534821122885,0.00031523240613751113,0.2998388111591339,0.512117862701416,3.6646549701690674,1
214124,0.0008391154697164893,-0.0056833382695913315,0.00034317185054533184,0.3005637228488922,0.5109590888023376,3.6569342613220215,1
214132,0.0010588457807898521,-0.005042131524533033,0.0003779993858188391,0.279816597700119,0.5001192092895508,3.6354072093963623,1
214142,0.0010726874461397529,-0.005024555139243603,0.00039344042306765914,0.2792948782444,0.4998672604560852,3.632357120513916,1
214152,0.000978234107606113,-0.00522246677428484,0.00038872953155077994,0.28169265389442444,0.5021750926971436,3.660595655441284,1
214162,0.0012159293983131647,-0.004923868924379349,0.000292099139187485,0.2726074159145355,0.49318748712539673,3.646479368209839,1
214174,0.0012572117848321795,-0.004878930747509003,0.00030464777955785394,0.2734444737434387,0.4925273656845093,3.6387908458709717,1
214182,0.0009569108369760215,-0.005345687735825777,0.00022312502551358193,0.28681597113609314,0.5044646859169006,3.6653337478637695,1
214192,0.0009640648495405912,-0.005342164542526007,0.0002261287154396996,0.28692880272865295,0.5032728314399719,3.6617376804351807,1
214202,0.0011380332289263606,-0.0047612302005290985,0.00030020420672371984,0.274940550327301,0.498932421207428,3.648616313934326,1
214212,0.0009487643837928772,-0.005307974759489298,0.0003809081099461764,0.28991493582725525,0.5081530809402466,3.672227144241333,1
214222,0.0009545024367980659,-0.005308578722178936,0.00039120149449445307,0.2898833453655243,0.5095187425613403,3.668992042541504,1
214232,0.0011596281547099352,-0.0050731743685901165,0.00029004219686612487,0.28276243805885315,0.500464141368866,3.6461429595947266,1
214242,0.001175222685560584,-0.005061495117843151,0.0002933155628852546,0.2829678952693939,0.5004804134368896,3.6412949562072754,1
214252,0.0008703934145160019,-0.005516510456800461,0.00018649153935257345,0.29001933336257935,0.5072486400604248,3.6550354957580566,1
214262,0.0011604168685153127,-0.004974423907697201,0.00011841319064842537,0.27383187413215637,0.49335792660713196,3.635923385620117,1
214272,0.0011804449604824185,-0.004951964132487774,0.0001157152364612557,0.2740823030471802,0.49323028326034546,3.6319546699523926,1
214282,0.0011532726930454373,-0.005342662800103426,0.0002608369686640799,0.28605952858924866,0.49716585874557495,3.647603750228882,1
214292,0.0013417239533737302,-0.0047547179274261,0.0003503175394143909,0.2725476920604706,0.4891364872455597,3.6391096115112305,1
214302,0.0013417239533737302,-0.0047547179274261,0.0003503175394143909,0.2725476920604706,0.4891364872455597,3.6391096115112305,1
214312,0.0010680563282221556,-0.005280161276459694,0.0003149711119476706,0.28649836778640747,0.5013608336448669,3.6624181270599365,1
214322,0.0010824206983670592,-0.0052797188982367516,0.0003179405175615102,0.2865988612174988,0.5014203190803528,3.6586978435516357,1
214332,0.0012610758421942592,-0.005109831690788269,0.0002144949248759076,0.2806156575679779,0.4944339990615845,3.6346914768218994,1
214342,0.0010420272592455149,-0.00575224868953228,0.00026536505902186036,0.29233023524284363,0.5007447600364685,3.657435894012451,1
214352,0.0010420272592455149,-0.00575224868953228,0.00026536505902186036,0.29233023524284363,0.5007447600364685,3.657435894012451,1
214362,0.0013947987463325262,-0.005047334358096123,0.00021252197620924562,0.2696053385734558,0.48539024591445923,3.632854461669922,1
214372,0.0014296824811026454,-0.005025086924433708,0.0002089922345476225,0.27103957533836365,0.48550939559936523,3.629854202270508,1
214382,0.0012994772987440228,-0.005576928611844778,0.0002720493357628584,0.28660616278648376,0.4937792718410492,3.6558589935302734,1
214392,0.0013732874067500234,-0.005138871725648642,0.0003966010990552604,0.2760750949382782,0.49243804812431335,3.6398298740386963,1
214402,0.0014031800674274564,-0.005128671880811453,0.0004031473654322326,0.2753196954727173,0.49213308095932007,3.6347217559814453,1
214412,0.0011685293866321445,-0.005549226421862841,0.00032904863473959267,0.28635191917419434,0.4991901218891144,3.667454481124878,1
214424,0.0011898952070623636,-0.005552856717258692,0.00033149219234474003,0.28548020124435425,0.5015751719474792,3.6636250019073486,1
214432,0.001573926187120378,-0.00495570246130228,0.0002159813593607396,0.2669028043746948,0.4872843325138092,3.649073600769043,1
214442,0.001573926187120378,-0.00495570246130228,0.0002159813593607396,0.2669028043746948,0.4872843325138092,3.649073600769043,1
214452,0.0014187870547175407,-0.005606497172266245,0.0003425423346925527,0.2795610725879669,0.4918326735496521,3.6607916355133057,1
214462,0.00149576086550951,-0.005330247804522514,0.00040404783794656396,0.2708144783973694,0.48745638132095337,3.6420490741729736,1
214472,0.001534675364382565,-0.0053095100447535515,0.000408253341447562,0.27116507291793823,0.4863538444042206,3.6399130821228027,1
214482,0.00115674315020442,-0.005618375726044178,0.0001328948128502816,0.2786908447742462,0.5014007091522217,3.6542551517486572,1
214492,0.001177420956082642,-0.0056136604398489,0.00012311662430875003,0.2790904641151428,0.5019821524620056,3.6519601345062256,1
214502,0.001458965241909027,-0.004973857197910547,0.0001121420064009726,0.26628637313842773,0.4941784143447876,3.633964776992798,1
214512,0.0011815004982054234,-0.00558633403852582,9.898161806631833e-05,0.2828214764595032,0.5053315162658691,3.6573128700256348,1
214522,0.0011998658301308751,-0.005588262341916561,8.999141573440284e-05,0.2830948829650879,0.5043400526046753,3.654318332672119,1
214532,0.0013358236756175756,-0.005121852271258831,0.00014004763215780258,0.2677406072616577,0.49651437997817993,3.635822296142578,1
214542,0.0013607920845970511,-0.005102506373077631,0.00013634443166665733,0.26743823289871216,0.4964333772659302,3.632612466812134,1
214552,0.0012257976923137903,-0.005369127262383699,9.185291855828837e-05,0.27338728308677673,0.499485045671463,3.6558666229248047,1
214562,0.0011361916549503803,-0.005115812178701162,0.00028691653278656304,0.2667084336280823,0.5017345547676086,3.638545274734497,1
214572,0.0011540243867784739,-0.005097898188978434,0.0002934761287178844,0.2661115229129791,0.5023797154426575,3.6340889930725098,1
214582,0.0011302703060209751,-0.005355922505259514,0.0003676187479868531,0.2741522789001465,0.505321741104126,3.6720845699310303,1
214592,0.0011477937223389745,-0.005349858198314905,0.0003797343815676868,0.2746109068393707,0.50599604845047,3.668700933456421,1
214602,0.0014075072249397635,-0.005132776685059071,0.00023510285245720297,0.2701760232448578,0.49726080894470215,3.6487035751342773,1
214612,0.0011606543557718396,-0.005494096782058477,0.000131903711007908,0.280029296875,0.5058405995368958,3.6748063564300537,1
214622,0.0011782265501096845,-0.005495969671756029,0.00013302030856721103,0.27837973833084106,0.5054996609687805,3.6719565391540527,1
214632,0.0013621882535517216,-0.005015408154577017,0.00015384613652713597,0.2627522945404053,0.4977564215660095,3.6566290855407715,1
214642,0.001387275056913495,-0.004994173068553209,0.0001586113648954779,0.26225385069847107,0.4952629804611206,3.652564764022827,1
214652,0.0012024383759126067,-0.005569091998040676,0.00023910061281640083,0.27310341596603394,0.5002462863922119,3.682803153991699,1
