time.ms,stateEstimate.x,stateEstimate.y,stateEstimate.z,stabilizer.roll,stabilizer.pitch,stabilizer.yaw,pm.vbat
130180,-0.6677986979484558,-0.713239312171936,-0.10056877136230469,-0.34353092312812805,0.3078881502151489,-175.8848419189453,1
130190,-0.6677964925765991,-0.7132630348205566,-0.10056883841753006,-0.34476423263549805,0.30877089500427246,-175.7716522216797,1
130200,-0.6677729487419128,-0.713310956954956,-0.10047545284032822,-0.3465392291545868,0.3091599941253662,-175.8004608154297,1
130210,-0.6677690148353577,-0.7133384346961975,-0.10046841204166412,-0.34698164463043213,0.3082161247730255,-175.68492126464844,1
130220,-0.6677955985069275,-0.7132367491722107,-0.10043511539697647,-0.344082236289978,0.31057408452033997,-175.81886291503906,1
130230,-0.6677923202514648,-0.7132596969604492,-0.10042836517095566,-0.3441814184188843,0.3096115291118622,-175.70362854003906,1
130240,-0.6678520441055298,-0.713232159614563,-0.10059885680675507,-0.34148678183555603,0.30549517273902893,-175.7303009033203,1
130250,-0.6680059432983398,-0.7129389643669128,-0.10045424103736877,-0.32778501510620117,0.30441996455192566,-175.86468505859375,1
130260,-0.6680105924606323,-0.7129400372505188,-0.10046099126338959,-0.3273616135120392,0.3049830198287964,-175.75006103515625,1
130270,-0.6681474447250366,-0.712931752204895,-0.10036778450012207,-0.3287557363510132,0.2970716953277588,-175.77044677734375,1
130280,-0.6682401299476624,-0.7127169370651245,-0.10028780251741409,-0.3219338059425354,0.29629087448120117,-175.90255737304688,1
130290,-0.6682507991790771,-0.7127071619033813,-0.10028989613056183,-0.3229604661464691,0.2961847186088562,-175.78765869140625,1
130300,-0.6684114933013916,-0.7126666307449341,-0.10030574351549149,-0.32339760661125183,0.2875010669231415,-175.8109130859375,1
130310,-0.6684293746948242,-0.712658166885376,-0.10031551122665405,-0.3235628604888916,0.28830745816230774,-175.69717407226562,1
130320,-0.6683878302574158,-0.712689220905304,-0.10038985311985016,-0.3287203907966614,0.2879558801651001,-175.8300018310547,1
130330,-0.668400764465332,-0.7126849889755249,-0.10040286183357239,-0.3286726474761963,0.2879183292388916,-175.71739196777344,1
130340,-0.6682964563369751,-0.7126697301864624,-0.10054002702236176,-0.32703348994255066,0.2951961159706116,-175.7302703857422,1
130350,-0.6681842803955078,-0.712870180606842,-0.10069317370653152,-0.3376891016960144,0.29759150743484497,-175.87196350097656,1
130360,-0.6681873202323914,-0.712876558303833,-0.10072199255228043,-0.33780232071876526,0.2968387007713318,-175.75706481933594,1
130370,-0.667957067489624,-0.7129568457603455,-0.10063875466585159,-0.33911851048469543,0.3094136416912079,-175.77398681640625,1
130380,-0.6678664684295654,-0.7130546569824219,-0.1007356122136116,-0.3466503322124481,0.3097001612186432,-175.90452575683594,1
130390,-0.6678508520126343,-0.7130711078643799,-0.10075079649686813,-0.34623992443084717,0.31057634949684143,-175.78907775878906,1
130400,-0.6676709055900574,-0.7131454348564148,-0.10062594711780548,-0.3480854332447052,0.3201548457145691,-175.819580078125,1
130410,-0.6676434874534607,-0.7131619453430176,-0.10062334686517715,-0.34869128465652466,0.3192560076713562,-175.70555114746094,1
130420,-0.6677425503730774,-0.71286541223526,-0.10049217939376831,-0.33915823698043823,0.31754085421562195,-175.83653259277344,1
130430,-0.6677181124687195,-0.7128709554672241,-0.10048452019691467,-0.33963632583618164,0.3167800009250641,-175.7218780517578,1
130440,-0.6677626371383667,-0.7128691673278809,-0.10046861320734024,-0.33878642320632935,0.31248903274536133,-175.7476043701172,1
130450,-0.6675730347633362,-0.7131820321083069,-0.1006491407752037,-0.35471242666244507,0.314761757850647,-175.8896026611328,1
130460,-0.6675454378128052,-0.7132099866867065,-0.10065893828868866,-0.3551349639892578,0.3130025863647461,-175.77529907226562,1
130470,-0.6676624417304993,-0.7132391333580017,-0.10051361471414566,-0.35698798298835754,0.3080849051475525,-175.7982177734375,1
130480,-0.6676411032676697,-0.7132734656333923,-0.10051622241735458,-0.3583577871322632,0.30797502398490906,-175.6842803955078,1
130490,-0.6675792336463928,-0.7133298516273499,-0.10056857019662857,-0.36086779832839966,0.3114386796951294,-175.82589721679688,1
130500,-0.6676142811775208,-0.7133176326751709,-0.10078621655702591,-0.35802897810935974,0.30622053146362305,-175.85098266601562,1
130510,-0.6675986051559448,-0.7133520245552063,-0.10081730037927628,-0.35858604311943054,0.3061271011829376,-175.73617553710938,1
130520,-0.6675665378570557,-0.7133491635322571,-0.1008739098906517,-0.3600544333457947,0.30674657225608826,-175.8609619140625,1
130530,-0.6675489544868469,-0.7133891582489014,-0.10091409832239151,-0.3603019714355469,0.3062828481197357,-175.74700927734375,1
130540,-0.6674110293388367,-0.7134147882461548,-0.10111505538225174,-0.35733509063720703,0.3092379570007324,-175.7666778564453,1
130550,-0.6674796938896179,-0.7132625579833984,-0.10107855498790741,-0.3477199673652649,0.30850788950920105,-175.89939880371094,1
130560,-0.6674573421478271,-0.7132934331893921,-0.10113250464200974,-0.3475857675075531,0.31004974246025085,-175.7855682373047,1
130570,-0.6674996018409729,-0.7133412957191467,-0.10102226585149765,-0.35043013095855713,0.30702346563339233,-175.802734375,1
130580,-0.6674783229827881,-0.7133738398551941,-0.10106474161148071,-0.3498785197734833,0.30835992097854614,-175.68765258789062,1
130590,-0.6675312519073486,-0.713198721408844,-0.1010330393910408,-0.3416079580783844,0.307550847530365,-175.81723022460938,1
130600,-0.6676872968673706,-0.7132527232170105,-0.10072579979896545,-0.34916940331459045,0.29892295598983765,-175.83453369140625,1
130610,-0.6676747798919678,-0.7132793068885803,-0.10073810070753098,-0.3493458926677704,0.2977801561355591,-175.7196044921875,1
130620,-0.6678332090377808,-0.7129155397415161,-0.10057669878005981,-0.33503013849258423,0.29511144757270813,-175.8462371826172,1
130630,-0.6678274273872375,-0.7129252552986145,-0.10058194398880005,-0.335776150226593,0.29456305503845215,-175.7324981689453,1
130640,-0.6677678227424622,-0.7129688858985901,-0.100469671189785,-0.3359086811542511,0.2995678782463074,-175.7565460205078,1
130650,-0.6676458716392517,-0.7131816148757935,-0.10058624297380447,-0.3457717299461365,0.3025433123111725,-175.88656616210938,1
130660,-0.6676336526870728,-0.7132052779197693,-0.1005832627415657,-0.345367431640625,0.3025453984737396,-175.77291870117188,1
130670,-0.6676255464553833,-0.7131786942481995,-0.10085376352071762,-0.34187623858451843,0.30094072222709656,-175.787841796875,1
130680,-0.667616069316864,-0.7131965160369873,-0.1008768305182457,-0.34234941005706787,0.2993985116481781,-175.6731719970703,1
130690,-0.6675389409065247,-0.7132936716079712,-0.10098008066415787,-0.347478449344635,0.3005567491054535,-175.80331420898438,1
130700,-0.6677289605140686,-0.7133058309555054,-0.10089297592639923,-0.3498400151729584,0.2897462546825409,-175.82571411132812,1
130710,-0.6677312254905701,-0.713336169719696,-0.1009172573685646,-0.3485693037509918,0.2907423675060272,-175.71177673339844,1
130720,-0.6677544713020325,-0.7132546901702881,-0.10092617571353912,-0.3479671776294708,0.2896331548690796,-175.8342742919922,1
130730,-0.6677588820457458,-0.7132809162139893,-0.10095299780368805,-0.348499596118927,0.28976598381996155,-175.72039794921875,1
130740,-0.6675297617912292,-0.71336430311203,-0.10088241845369339,-0.3484994173049927,0.30189353227615356,-175.73696899414062,1
130750,-0.6675422787666321,-0.7133319973945618,-0.10087697207927704,-0.34702879190444946,0.3028620183467865,-175.8728790283203,1
130760,-0.6675316691398621,-0.7133550047874451,-0.10089122503995895,-0.3480134904384613,0.3028203547000885,-175.7592010498047,1
130770,-0.6676004528999329,-0.7133829593658447,-0.10080177336931229,-0.3487567901611328,0.3010289669036865,-175.7837371826172,1
130780,-0.6675950884819031,-0.7134121060371399,-0.1008097231388092,-0.3497689366340637,0.30039629340171814,-175.66903686523438,1
130790,-0.6677147150039673,-0.7131407856941223,-0.1006903201341629,-0.3393128514289856,0.2999277710914612,-175.81056213378906,1
130800,-0.6677306294441223,-0.7131707072257996,-0.1006096601486206,-0.34043991565704346,0.29816222190856934,-175.835205078125,1
130810,-0.6677306294441223,-0.7131871581077576,-0.10060805827379227,-0.34182679653167725,0.29799970984458923,-175.71994018554688,1
130820,-0.667695164680481,-0.7131991982460022,-0.1006476879119873,-0.3446521461009979,0.3001736104488373,-175.85916137695312,1
130830,-0.6676948666572571,-0.7132183313369751,-0.10064686834812164,-0.34546658396720886,0.29995694756507874,-175.7451629638672,1
130840,-0.6677901744842529,-0.7132007479667664,-0.10075566172599792,-0.3429652452468872,0.2939109206199646,-175.76971435546875,1
130850,-0.667789876461029,-0.7132221460342407,-0.10078246891498566,-0.3435741662979126,0.2956123650074005,-175.9033660888672,1
130860,-0.6677980422973633,-0.7132441997528076,-0.10079614073038101,-0.34311002492904663,0.2946632206439972,-175.78993225097656,1
130870,-0.6677539348602295,-0.7132569551467896,-0.10093377530574799,-0.342120498418808,0.2977510392665863,-175.8123321533203,1
130880,-0.6677619218826294,-0.7132785320281982,-0.10095541179180145,-0.34183481335639954,0.29571962356567383,-175.6974334716797,1
130890,-0.6679369807243347,-0.7129173874855042,-0.10080109536647797,-0.3268948495388031,0.29564693570137024,-175.81858825683594,1
130900,-0.6679176092147827,-0.7129698991775513,-0.10059723258018494,-0.33049947023391724,0.29903778433799744,-175.8396453857422,1
130910,-0.6679267883300781,-0.7129768133163452,-0.10058711469173431,-0.3301123380661011,0.29758259654045105,-175.7246856689453,1
130920,-0.6678504943847656,-0.713075578212738,-0.10067245364189148,-0.3368605673313141,0.29921719431877136,-175.8642120361328,1
130931,-0.6678579449653625,-0.7130921483039856,-0.10066687315702438,-0.3385327160358429,0.2991754114627838,-175.75045776367188,1
130940,-0.6678279638290405,-0.713096559047699,-0.10074193775653839,-0.33647122979164124,0.3008619546890259,-175.76528930664062,1
130950,-0.667816698551178,-0.7131265997886658,-0.10076315701007843,-0.33736899495124817,0.30079469084739685,-175.89866638183594,1
130960,-0.6678187847137451,-0.7131450176239014,-0.10076700896024704,-0.33711424469947815,0.2991642951965332,-175.78292846679688,1
130970,-0.6678167581558228,-0.7131953239440918,-0.10062330216169357,-0.3393630385398865,0.3007422983646393,-175.80934143066406,1
130980,-0.6678173542022705,-0.7132173776626587,-0.10061640292406082,-0.3395785093307495,0.30123382806777954,-175.69642639160156,1
130990,-0.6677903532981873,-0.7132390737533569,-0.10064511746168137,-0.3420394957065582,0.30163589119911194,-175.82810974121094,1
131000,-0.6676763892173767,-0.7132614254951477,-0.1007668748497963,-0.33918580412864685,0.30839985609054565,-175.8533935546875,1
131010,-0.6676696538925171,-0.7132835984230042,-0.10077188163995743,-0.33879953622817993,0.30819740891456604,-175.73861694335938,1
131020,-0.6677783131599426,-0.7130126953125,-0.10066024959087372,-0.3295474648475647,0.3058028519153595,-175.8687744140625,1
131030,-0.6677724719047546,-0.7130231261253357,-0.10066288709640503,-0.32937848567962646,0.30559325218200684,-175.7550811767578,1
131040,-0.6678770184516907,-0.7130646705627441,-0.10045740008354187,-0.3329906761646271,0.30300095677375793,-175.78109741210938,1
131050,-0.667860746383667,-0.7131000757217407,-0.10046636313199997,-0.334011435508728,0.30286118388175964,-175.9132537841797,1
131060,-0.6678563356399536,-0.713120698928833,-0.10045801848173141,-0.3348168134689331,0.3032589256763458,-175.79917907714844,1
131070,-0.6676740050315857,-0.7131643891334534,-0.10054837912321091,-0.33371061086654663,0.31234246492385864,-175.81654357910156,1
131080,-0.6676573753356934,-0.7131831645965576,-0.10054660588502884,-0.3330179750919342,0.3115893304347992,-175.70135498046875,1
131090,-0.667698323726654,-0.7130315899848938,-0.10048753023147583,-0.32896503806114197,0.3121057152748108,-175.8220672607422,1
131100,-0.6677803993225098,-0.7130094766616821,-0.1005672961473465,-0.32890453934669495,0.30541470646858215,-175.84246826171875,1
131110,-0.6677709221839905,-0.7130206823348999,-0.10057462751865387,-0.3283780515193939,0.3057701885700226,-175.7280731201172,1
131120,-0.6677075028419495,-0.7130637168884277,-0.10064366459846497,-0.3325151801109314,0.3074321448802948,-175.84996032714844,1
131130,-0.6676967144012451,-0.7130792737007141,-0.10065479576587677,-0.3330763280391693,0.30832070112228394,-175.73629760742188,1
131140,-0.6675835847854614,-0.713125467300415,-0.10060421377420425,-0.33361658453941345,0.3147648870944977,-175.75804138183594,1
131150,-0.6675042510032654,-0.713238000869751,-0.10067839920520782,-0.3381081521511078,0.3154855966567993,-175.89422607421875,1
131160,-0.6674814224243164,-0.7132585644721985,-0.10069037973880768,-0.336923748254776,0.3146957457065582,-175.7786865234375,1
131170,-0.6676819920539856,-0.7132346034049988,-0.10068567842245102,-0.33702975511550903,0.3031316101551056,-175.80502319335938,1
131180,-0.6676715612411499,-0.7132567763328552,-0.10070298612117767,-0.33729928731918335,0.30118292570114136,-175.69065856933594,1
131190,-0.6676368117332458,-0.7132715582847595,-0.10075341165065765,-0.33988264203071594,0.30135712027549744,-175.8235321044922,1
131200,-0.6675893068313599,-0.7133092284202576,-0.10076574981212616,-0.33837372064590454,0.30430859327316284,-175.84890747070312,1
131210,-0.6675748825073242,-0.7133375406265259,-0.10078910738229752,-0.33849018812179565,0.30389830470085144,-175.7344512939453,1
131220,-0.6675963401794434,-0.7132312059402466,-0.10078173875808716,-0.3354244530200958,0.3036009669303894,-175.86302185058594,1
131230,-0.6675848960876465,-0.7132560610771179,-0.10080417990684509,-0.33503299951553345,0.3055504858493805,-175.74887084960938,1
131240,-0.667614758014679,-0.7132604718208313,-0.10088720917701721,-0.3336247205734253,0.3008224368095398,-175.7628631591797,1
131250,-0.6676117777824402,-0.7132588028907776,-0.1009136214852333,-0.33374035358428955,0.2999875545501709,-175.89291381835938,1
131260,-0.6676027774810791,-0.7132802605628967,-0.10094153881072998,-0.3334222733974457,0.300081342458725,-175.77891540527344,1
131270,-0.6675010919570923,-0.7133477330207825,-0.10082617402076721,-0.33499565720558167,0.30542194843292236,-175.7945556640625,1
131280,-0.6674841046333313,-0.7133699059486389,-0.10083937644958496,-0.33466947078704834,0.30457329750061035,-175.67996215820312,1
131290,-0.667614221572876,-0.7130464315414429,-0.100701704621315,-0.32212790846824646,0.302720308303833,-175.80575561523438,1
131300,-0.667657196521759,-0.7130551934242249,-0.10065319389104843,-0.32288819551467896,0.2991517186164856,-175.8332061767578,1
131310,-0.6676461696624756,-0.7130635380744934,-0.1006646677851677,-0.3235149383544922,0.2983004152774811,-175.71836853027344,1
131320,-0.6675114035606384,-0.7132284641265869,-0.10081153362989426,-0.3331775963306427,0.2999153137207031,-175.84532165527344,1
131331,-0.66749507188797,-0.7132486701011658,-0.10083259642124176,-0.33336928486824036,0.301136314868927,-175.73062133789062,1
131340,-0.6676509380340576,-0.7132890224456787,-0.10064803063869476,-0.3374142646789551,0.2953895330429077,-175.76039123535156,1
131350,-0.6677286028862,-0.7131362557411194,-0.10057123005390167,-0.33107784390449524,0.2941912114620209,-175.90237426757812,1
131360,-0.6677225828170776,-0.7131519317626953,-0.10057679563760757,-0.33107566833496094,0.2953236699104309,-175.78787231445312,1
131370,-0.6678827404975891,-0.7131396532058716,-0.10054533183574677,-0.33260685205459595,0.28733062744140625,-175.8138885498047,1
131381,-0.6678862571716309,-0.7131543755531311,-0.10055310279130936,-0.33261990547180176,0.2859896719455719,-175.6995391845703,1
131390,-0.6680156588554382,-0.7128646373748779,-0.10043174028396606,-0.32223910093307495,0.28430283069610596,-175.83645629882812,1
131400,-0.6680465936660767,-0.7128880023956299,-0.10029960423707962,-0.32443350553512573,0.2821280062198639,-175.8689727783203,1
131410,-0.6680535674095154,-0.7128894925117493,-0.10029202699661255,-0.324655145406723,0.28128987550735474,-175.754638671875,1
131420,-0.6679524183273315,-0.7130164504051208,-0.1004013791680336,-0.33393386006355286,0.2829514145851135,-175.88485717773438,1
131431,-0.6679553389549255,-0.7130267024040222,-0.10039923340082169,-0.3329620659351349,0.28138208389282227,-175.770263671875,1
131440,-0.6678863763809204,-0.7130518555641174,-0.10038048774003983,-0.3338393270969391,0.2862054407596588,-175.7928924560547,1
131450,-0.6678109765052795,-0.713189423084259,-0.10046179592609406,-0.3406457006931305,0.28795701265335083,-175.92454528808594,1
131460,-0.6678085923194885,-0.7132056951522827,-0.1004643440246582,-0.3399977684020996,0.2881494164466858,-175.808837890625,1
131470,-0.6679531335830688,-0.7131972908973694,-0.10042716562747955,-0.3417375683784485,0.2812175154685974,-175.82025146484375,1
131481,-0.6679617762565613,-0.7132126092910767,-0.10043013840913773,-0.3425821363925934,0.28121718764305115,-175.70578002929688,1
131490,-0.6679387092590332,-0.713238000869751,-0.10047350823879242,-0.344281941652298,0.28268441557884216,-175.84776306152344,1
131500,-0.6679421663284302,-0.7132458090782166,-0.1005587950348854,-0.34297019243240356,0.28328555822372437,-175.86944580078125,1
131510,-0.667952835559845,-0.7132657170295715,-0.10057119280099869,-0.34483516216278076,0.2824079096317291,-175.7539520263672,1
131520,-0.6680264472961426,-0.7130988836288452,-0.10052347183227539,-0.3404944837093353,0.2836267948150635,-175.8795166015625,1
131531,-0.6680401563644409,-0.7131120562553406,-0.10053447633981705,-0.3399261236190796,0.2842705547809601,-175.76486206054688,1
131540,-0.6678304672241211,-0.7131162881851196,-0.1007438451051712,-0.3359536826610565,0.2948077619075775,-175.77633666992188,1
131550,-0.6678966879844666,-0.7129856944084167,-0.10070327669382095,-0.3299802541732788,0.2952791750431061,-175.9095001220703,1
131560,-0.667896568775177,-0.7129878997802734,-0.10072754323482513,-0.32991015911102295,0.29572170972824097,-175.79498291015625,1
131570,-0.6678244471549988,-0.7130345702171326,-0.10059279948472977,-0.332821786403656,0.3002868592739105,-175.81631469726562,1
131581,-0.6678162813186646,-0.7130365967750549,-0.10060426592826843,-0.3324768841266632,0.3015090227127075,-175.7019805908203,1
131590,-0.6678704619407654,-0.7128577828407288,-0.10055538266897202,-0.3261740505695343,0.30092567205429077,-175.82992553710938,1
131600,-0.6679962873458862,-0.7128680944442749,-0.10035206377506256,-0.3304665684700012,0.29467180371284485,-175.86688232421875,1
131610,-0.6679962873458862,-0.7128652930259705,-0.10034700483083725,-0.3300342559814453,0.29427656531333923,-175.75230407714844,1
131620,-0.6679277420043945,-0.7129256129264832,-0.1004209890961647,-0.334878534078598,0.2966897785663605,-175.8883514404297,1
131631,-0.6679269671440125,-0.7129306197166443,-0.10042209178209305,-0.3364141583442688,0.2977975308895111,-175.77308654785156,1
131640,-0.6679805517196655,-0.712942898273468,-0.10036233812570572,-0.3371213674545288,0.2968561053276062,-175.8009033203125,1
131650,-0.6679785251617432,-0.7129474878311157,-0.10036950558423996,-0.3363680839538574,0.2982032299041748,-175.93431091308594,1
131660,-0.6679798364639282,-0.7129579782485962,-0.10036846250295639,-0.3371284604072571,0.29772940278053284,-175.82107543945312,1
131670,-0.6680179238319397,-0.712967574596405,-0.1003292053937912,-0.3386928141117096,0.2960314154624939,-175.85079956054688,1
131681,-0.6680190563201904,-0.7129760384559631,-0.1003287062048912,-0.33906883001327515,0.29692813754081726,-175.73497009277344,1
131690,-0.6681133508682251,-0.7127469182014465,-0.1002340316772461,-0.33125314116477966,0.2949845790863037,-175.87054443359375,1
131700,-0.6681451201438904,-0.7127114534378052,-0.10036849230527878,-0.32902005314826965,0.29239213466644287,-175.8962860107422,1
131710,-0.6681528091430664,-0.712704062461853,-0.10037759691476822,-0.32813119888305664,0.29233890771865845,-175.78155517578125,1
131720,-0.6680400371551514,-0.7128544449806213,-0.10051656514406204,-0.33901000022888184,0.2935682535171509,-175.90386962890625,1
131731,-0.6680443286895752,-0.7128594517707825,-0.10052978992462158,-0.3384329080581665,0.2927122712135315,-175.78883361816406,1
131740,-0.6678768992424011,-0.7128952741622925,-0.10052941739559174,-0.33774125576019287,0.2996752858161926,-175.79141235351562,1
131750,-0.6677619218826294,-0.7130946516990662,-0.1006602942943573,-0.34809377789497375,0.3008481562137604,-175.9281005859375,1
131760,-0.6677510738372803,-0.7131131887435913,-0.10067851841449738,-0.349913626909256,0.30079883337020874,-175.81454467773438,1
131770,-0.6676549315452576,-0.7131619453430176,-0.10064348578453064,-0.3496761620044708,0.30653563141822815,-175.83984375,1
131781,-0.6676375865936279,-0.7131817936897278,-0.10065602511167526,-0.3498294949531555,0.30670028924942017,-175.72564697265625,1
131790,-0.6676917672157288,-0.713005006313324,-0.10059640556573868,-0.3426147401332855,0.3070121109485626,-175.8636932373047,1
131800,-0.6678116917610168,-0.7129743695259094,-0.10070201009511948,-0.3429808020591736,0.2996702492237091,-175.8865966796875,1
131810,-0.667803168296814,-0.7129861116409302,-0.10072727501392365,-0.341808944940567,0.29945796728134155,-175.77174377441406,1
131820,-0.6676965951919556,-0.7131105065345764,-0.10086273401975632,-0.34939566254615784,0.3016918897628784,-175.89366149902344,1
131831,-0.6676861643791199,-0.7131330370903015,-0.10089860111474991,-0.3504710793495178,0.3013787269592285,-175.77976989746094,1
131840,-0.6678499579429626,-0.7131480574607849,-0.10085231810808182,-0.3520321846008301,0.2933168411254883,-175.80606079101562,1
131850,-0.6678159236907959,-0.7132290005683899,-0.10093056410551071,-0.35564684867858887,0.29437410831451416,-175.93307495117188,1
131860,-0.6678160429000854,-0.7132612466812134,-0.1009688526391983,-0.35474714636802673,0.29435995221138,-175.81829833984375,1
131870,-0.6676554679870605,-0.7133362293243408,-0.10098504275083542,-0.35519298911094666,0.3058164715766907,-175.8444061279297,1
131881,-0.6676463484764099,-0.7133722901344299,-0.10101809352636337,-0.35563740134239197,0.30495181679725647,-175.73114013671875,1
131890,-0.667864203453064,-0.7129131555557251,-0.10081443935632706,-0.3344733715057373,0.30368733406066895,-175.85643005371094,1
131900,-0.6677056550979614,-0.7130084037780762,-0.10057201981544495,-0.33823031187057495,0.31472089886665344,-175.8863983154297,1
131910,-0.6676923632621765,-0.713026225566864,-0.10056519508361816,-0.3385424017906189,0.31577616930007935,-175.77072143554688,1
131920,-0.667573869228363,-0.7131730914115906,-0.1006733700633049,-0.34649232029914856,0.3163074851036072,-175.89707946777344,1
131931,-0.6675564646720886,-0.7132021188735962,-0.10067402571439743,-0.3466833233833313,0.3163287341594696,-175.78213500976562,1
131940,-0.6675812602043152,-0.7132231593132019,-0.10068458318710327,-0.34747514128685,0.3136231303215027,-175.8029022216797,1
131950,-0.667530357837677,-0.7133062481880188,-0.1007327064871788,-0.350746214389801,0.31299489736557007,-175.9281005859375,1
131960,-0.6675124764442444,-0.7133391499519348,-0.10074291378259659,-0.34937289357185364,0.31264063715934753,-175.81285095214844,1
131970,-0.6674851775169373,-0.7133596539497375,-0.10084585100412369,-0.34726908802986145,0.3112311065196991,-175.8406524658203,1
131981,-0.6674671173095703,-0.7133932113647461,-0.10086815059185028,-0.3482125401496887,0.31072506308555603,-175.7255401611328,1
131990,-0.6674576997756958,-0.7133567929267883,-0.10088671743869781,-0.34822309017181396,0.31133100390434265,-175.86705017089844,1
132000,-0.6675321459770203,-0.7134037017822266,-0.10075031220912933,-0.3510684370994568,0.3085760176181793,-175.8996124267578,1
132010,-0.6675174236297607,-0.7134401202201843,-0.10076092928647995,-0.35145071148872375,0.3083164095878601,-175.78514099121094,1
132020,-0.6675640940666199,-0.7132914066314697,-0.10071190446615219,-0.34665966033935547,0.30722665786743164,-175.91934204101562,1
132032,-0.6675499677658081,-0.7133216261863708,-0.10072113573551178,-0.3470775783061981,0.30819427967071533,-175.8048553466797,1
132040,-0.6675772070884705,-0.713375985622406,-0.1005958840250969,-0.34911152720451355,0.3050770163536072,-175.82846069335938,1
132050,-0.6676497459411621,-0.71323561668396,-0.10050776600837708,-0.340614378452301,0.3047178089618683,-175.97329711914062,1
132060,-0.6676397919654846,-0.7132605910301208,-0.10050167143344879,-0.34152257442474365,0.30340272188186646,-175.85870361328125,1
132070,-0.6676467061042786,-0.7132493853569031,-0.10069770365953445,-0.3382110595703125,0.30179792642593384,-175.8759307861328,1
132081,-0.6676375269889832,-0.7132721543312073,-0.10071401298046112,-0.3395099937915802,0.3002144694328308,-175.7619171142578,1
132090,-0.6678041815757751,-0.712902843952179,-0.10054678469896317,-0.3220248520374298,0.30089738965034485,-175.90423583984375,1
132100,-0.6680575609207153,-0.712872326374054,-0.10047150403261185,-0.32295942306518555,0.2870156466960907,-175.92596435546875,1
132110,-0.668070375919342,-0.7128797769546509,-0.10048402100801468,-0.32329216599464417,0.2870127856731415,-175.81173706054688,1
132120,-0.6681556701660156,-0.7126890420913696,-0.10042733699083328,-0.318075954914093,0.28548774123191833,-175.94618225097656,1
132131,-0.6681731343269348,-0.7126895189285278,-0.10043860226869583,-0.31809407472610474,0.28598299622535706,-175.83131408691406,1
132140,-0.6681779026985168,-0.7126957774162292,-0.10044263303279877,-0.3176996409893036,0.2888314723968506,-175.8481903076172,1
132150,-0.6682347059249878,-0.7126200199127197,-0.1004205271601677,-0.3151432275772095,0.2866387367248535,-175.97552490234375,1
132160,-0.6682587265968323,-0.7126182913780212,-0.10043136030435562,-0.31551170349121094,0.28726208209991455,-175.86026000976562,1
132170,-0.66824871301651,-0.7126172184944153,-0.10048572719097137,-0.3149205148220062,0.2875511944293976,-175.88534545898438,1
132181,-0.6682708263397217,-0.7126126885414124,-0.10050196945667267,-0.3141869008541107,0.287751704454422,-175.77108764648438,1
132190,-0.6683186292648315,-0.712501049041748,-0.10049653798341751,-0.31230175495147705,0.2865322232246399,-175.9094696044922,1
132200,-0.6683054566383362,-0.7125567197799683,-0.10021906346082687,-0.31633079051971436,0.290661096572876,-175.93551635742188,1
132210,-0.6683266758918762,-0.7125534415245056,-0.1002078428864479,-0.31526055932044983,0.2923344373703003,-175.8214569091797,1
132220,-0.6681991219520569,-0.7127591371536255,-0.10035908222198486,-0.328193336725235,0.29335829615592957,-175.95260620117188,1
132231,-0.6682168841362,-0.7127713561058044,-0.10035667568445206,-0.3278915584087372,0.29321521520614624,-175.83856201171875,1
132240,-0.6681092977523804,-0.7128040790557861,-0.1003555878996849,-0.32668039202690125,0.3012867867946625,-175.86619567871094,1
132250,-0.6681991219520569,-0.7126501798629761,-0.10027120262384415,-0.31948035955429077,0.30211499333381653,-176.00401306152344,1
132260,-0.6682093143463135,-0.7126548886299133,-0.10026687383651733,-0.31975993514060974,0.3030907213687897,-175.8900146484375,1
132270,-0.6682224869728088,-0.7126820087432861,-0.1001429334282875,-0.32151129841804504,0.30398669838905334,-175.9145965576172,1
132281,-0.6682313680648804,-0.7126895189285278,-0.10012806206941605,-0.3215857148170471,0.3036075532436371,-175.79962158203125,1
132290,-0.6681659817695618,-0.7127923369407654,-0.10019711405038834,-0.3295688331127167,0.30627918243408203,-175.92124938964844,1
132300,-0.6679879426956177,-0.7128345966339111,-0.1002555787563324,-0.3261871039867401,0.3170608878135681,-175.943115234375,1
132310,-0.6679802536964417,-0.7128512263298035,-0.10024264454841614,-0.32693687081336975,0.3154957890510559,-175.82838439941406,1
132320,-0.6678870916366577,-0.7129573225975037,-0.10032286494970322,-0.3338446021080017,0.31820017099380493,-175.9500274658203,1
132332,-0.6678739190101624,-0.7129790186882019,-0.10031592100858688,-0.3339848220348358,0.3186301589012146,-175.83465576171875,1
132340,-0.6677805781364441,-0.7129929065704346,-0.1003977358341217,-0.3318326771259308,0.321926087141037,-175.8589630126953,1
132350,-0.6676592826843262,-0.7131947875022888,-0.1005101203918457,-0.3414726257324219,0.32261234521865845,-175.9910888671875,1
132360,-0.6676371097564697,-0.7132247686386108,-0.10051508247852325,-0.34098145365715027,0.3218437433242798,-175.8764190673828,1
132370,-0.667515218257904,-0.7132641077041626,-0.10058999061584473,-0.3397722542285919,0.3276714086532593,-175.896484375,1
132380,-0.6674858927726746,-0.7132914662361145,-0.10059987008571625,-0.3398870527744293,0.32488447427749634,-175.78150939941406,1
132390,-0.6675702929496765,-0.7130430936813354,-0.10049285739660263,-0.3285559415817261,0.3246128559112549,-175.90423583984375,1
132400,-0.6678730249404907,-0.7129772901535034,-0.10059376806020737,-0.3284909129142761,0.3057687282562256,-175.93350219726562,1
132410,-0.6678705215454102,-0.7129918932914734,-0.10061754286289215,-0.3285183012485504,0.3062215745449066,-175.81976318359375,1
132420,-0.6678720116615295,-0.7129281163215637,-0.10064221173524857,-0.32772859930992126,0.3075133264064789,-175.9477996826172,1
132432,-0.6678692102432251,-0.7129433155059814,-0.10066812485456467,-0.32846707105636597,0.3069969415664673,-175.83338928222656,1
132440,-0.6678279638290405,-0.7130194306373596,-0.10044858604669571,-0.33124348521232605,0.31127437949180603,-175.8507080078125,1
132450,-0.6677117347717285,-0.7132357954978943,-0.10057347267866135,-0.3412337601184845,0.3117540776729584,-175.9795379638672,1
132460,-0.6676993370056152,-0.7132694125175476,-0.10058474540710449,-0.34094592928886414,0.3110787272453308,-175.8655242919922,1
132470,-0.6676023006439209,-0.7132957577705383,-0.10073673725128174,-0.33891037106513977,0.3159942924976349,-175.87962341308594,1
132480,-0.6675853729248047,-0.7133251428604126,-0.10076186805963516,-0.33911585807800293,0.31681057810783386,-175.7663116455078,1
132490,-0.6676754951477051,-0.7130895853042603,-0.10067763179540634,-0.3296825885772705,0.3156798481941223,-175.90904235839844,1
132500,-0.6676785945892334,-0.7131006121635437,-0.10071149468421936,-0.32862329483032227,0.31567877531051636,-175.93075561523438,1
132510,-0.6676663160324097,-0.7131165862083435,-0.10073678195476532,-0.3278803527355194,0.3161545693874359,-175.81642150878906,1
132520,-0.6677533984184265,-0.712876558303833,-0.10066181421279907,-0.31996607780456543,0.3159777820110321,-175.94044494628906,1
132532,-0.6677423715591431,-0.7128806710243225,-0.10068324208259583,-0.31998008489608765,0.3148922622203827,-175.82530212402344,1
132540,-0.6680272817611694,-0.7128626704216003,-0.10058481246232986,-0.32089826464653015,0.30124977231025696,-175.84422302246094,1
132550,-0.6679742932319641,-0.7129691243171692,-0.10067101567983627,-0.3265622854232788,0.30043578147888184,-175.97720336914062,1
132560,-0.6679773330688477,-0.7129793763160706,-0.10069501399993896,-0.32725924253463745,0.300177663564682,-175.8623504638672,1
132570,-0.6680695414543152,-0.712974488735199,-0.10069920122623444,-0.32679128646850586,0.2964837849140167,-175.8911895751953,1
132580,-0.6680780649185181,-0.7129833698272705,-0.10072462260723114,-0.32698357105255127,0.2950340211391449,-175.7764129638672,1
132590,-0.6680971384048462,-0.7129271030426025,-0.10074447840452194,-0.32515618205070496,0.29404905438423157,-175.9168701171875,1
132600,-0.6681142449378967,-0.7129288911819458,-0.10079547762870789,-0.324605256319046,0.2931617796421051,-175.93804931640625,1
132610,-0.6681236028671265,-0.7129360437393188,-0.10082767903804779,-0.32524368166923523,0.2935492694377899,-175.82315063476562,1
132620,-0.6681572198867798,-0.7128379344940186,-0.10083925724029541,-0.32236912846565247,0.2947545647621155,-175.96742248535156,1
132630,-0.6681682467460632,-0.7128431797027588,-0.10086797922849655,-0.3216343820095062,0.2950369715690613,-175.85195922851562,1
132640,-0.6681376695632935,-0.7129401564598083,-0.10048804432153702,-0.32718178629875183,0.29960596561431885,-175.87986755371094,1
132650,-0.6681322455406189,-0.7129663228988647,-0.1004936695098877,-0.3280051052570343,0.30064859986305237,-176.02520751953125,1
132660,-0.668135404586792,-0.7129788994789124,-0.10048716515302658,-0.3276180028915405,0.3003076910972595,-175.91090393066406,1
132670,-0.6679855585098267,-0.7130309343338013,-0.1004461720585823,-0.3278806507587433,0.3072546124458313,-175.94015502929688,1
132680,-0.6679798364639282,-0.7130414247512817,-0.10043323040008545,-0.3277088403701782,0.3075944781303406,-175.8255615234375,1
132690,-0.6680512428283691,-0.7128536701202393,-0.1003405824303627,-0.3190784752368927,0.3064360022544861,-175.95941162109375,1
132700,-0.6681235432624817,-0.7128639221191406,-0.10019247233867645,-0.3211093842983246,0.30261287093162537,-175.9805450439453,1
132710,-0.6681206822395325,-0.7128680348396301,-0.10016744583845139,-0.3215080797672272,0.3024872839450836,-175.86502075195312,1
132720,-0.6680380702018738,-0.7129612565040588,-0.10023462772369385,-0.3282774090766907,0.3029312789440155,-176.0066680908203,1
132730,-0.6680326461791992,-0.7129719853401184,-0.10021872073411942,-0.32687053084373474,0.30259808897972107,-175.8921661376953,1
132740,-0.6680281162261963,-0.7129831910133362,-0.10019875317811966,-0.3263121247291565,0.304840624332428,-175.9220428466797,1
132750,-0.6679676175117493,-0.7130910754203796,-0.10024291276931763,-0.3301626443862915,0.3070981800556183,-176.06576538085938,1
132760,-0.6679554581642151,-0.7131070494651794,-0.10022945702075958,-0.331072062253952,0.3059186637401581,-175.95066833496094,1
132770,-0.6679283976554871,-0.7131209969520569,-0.10024908930063248,-0.330912321805954,0.30568042397499084,-175.97679138183594,1
132780,-0.6679152250289917,-0.7131358981132507,-0.1002400740981102,-0.3304590880870819,0.3069421648979187,-175.86265563964844,1
132790,-0.6679009795188904,-0.7131119966506958,-0.10023990273475647,-0.33051830530166626,0.307625412940979,-176.00001525878906,1
132800,-0.667783260345459,-0.7131393551826477,-0.10028628259897232,-0.3294003903865814,0.3110372722148895,-176.02108764648438,1
132810,-0.6677650213241577,-0.7131533622741699,-0.10027904063463211,-0.3290384113788605,0.3108786642551422,-175.90579223632812,1
132820,-0.6677321195602417,-0.7131381630897522,-0.1002928838133812,-0.32855698466300964,0.31159770488739014,-176.04393005371094,1
132830,-0.6677131056785583,-0.7131531834602356,-0.10028821229934692,-0.3283429443836212,0.31052666902542114,-175.9303436279297,1
132840,-0.6679765582084656,-0.7130666971206665,-0.10055332630872726,-0.3247808814048767,0.2947659492492676,-175.96466064453125,1
132850,-0.6680673956871033,-0.7129043340682983,-0.1004880890250206,-0.3156302273273468,0.29513615369796753,-176.11776733398438,1
132860,-0.6680687069892883,-0.7129045724868774,-0.10051090270280838,-0.31590697169303894,0.2943112850189209,-176.00299072265625,1
132870,-0.6679477095603943,-0.7129196524620056,-0.1006164476275444,-0.3131848871707916,0.29981669783592224,-176.02281188964844,1
132880,-0.6679424047470093,-0.7129188776016235,-0.10064790397882462,-0.31399041414260864,0.3008453845977783,-175.90843200683594,1
132890,-0.6678605675697327,-0.7130237817764282,-0.10076987743377686,-0.32118186354637146,0.3024022579193115,-176.04013061523438,1
132900,-0.667851984500885,-0.7130319476127625,-0.10080841183662415,-0.321242094039917,0.30333441495895386,-175.92507934570312,1
132910,-0.667959451675415,-0.7130752205848694,-0.10053658485412598,-0.3274179995059967,0.2982008457183838,-175.95074462890625,1
132920,-0.6681168675422668,-0.7127290964126587,-0.10038197040557861,-0.31428301334381104,0.2964614927768707,-176.08157348632812,1
132930,-0.6681159734725952,-0.7127265930175781,-0.1003878265619278,-0.31541773676872253,0.29631173610687256,-175.96658325195312,1
132940,-0.6680680513381958,-0.7127106189727783,-0.10049774497747421,-0.31255608797073364,0.29892271757125854,-175.98306274414062,1
132950,-0.6679190397262573,-0.7129819989204407,-0.10067705065011978,-0.3269678056240082,0.3024057447910309,-176.11563110351562,1
132960,-0.667913019657135,-0.7129938006401062,-0.10070452839136124,-0.32774272561073303,0.30308961868286133,-176.00180053710938,1
132970,-0.6678042411804199,-0.7130225300788879,-0.10076926648616791,-0.32656848430633545,0.30782845616340637,-176.01368713378906,1
132980,-0.6677917838096619,-0.7130329012870789,-0.10079973936080933,-0.3262278735637665,0.3069770336151123,-175.8998565673828,1
132990,-0.6677394509315491,-0.7130751609802246,-0.10087800770998001,-0.3295246362686157,0.30762702226638794,-176.02798461914062,1
133000,-0.6677238345146179,-0.7130907773971558,-0.10091236233711243,-0.32952702045440674,0.3063707947731018,-175.9137725830078,1
133010,-0.6679309010505676,-0.7130953669548035,-0.10078047960996628,-0.33278921246528625,0.2962856590747833,-175.94351196289062,1
133020,-0.667990505695343,-0.7129390239715576,-0.1007465347647667,-0.32718825340270996,0.295917272567749,-176.07327270507812,1
133030,-0.6679911613464355,-0.7129490971565247,-0.10077114403247833,-0.3269338309764862,0.2950327694416046,-175.9586639404297,1
133040,-0.6678928136825562,-0.7130087018013,-0.10063494741916656,-0.3292718827724457,0.3029908239841461,-175.98294067382812,1
133050,-0.6679274439811707,-0.7129441499710083,-0.10060640424489975,-0.32540518045425415,0.3031258285045624,-176.12271118164062,1
133060,-0.667923629283905,-0.7129499316215515,-0.10061556845903397,-0.32643064856529236,0.3034813404083252,-176.00765991210938,1
133070,-0.6678414940834045,-0.7130018472671509,-0.10045520961284637,-0.3283653259277344,0.3086170256137848,-176.03062438964844,1
133080,-0.6678308248519897,-0.7130088806152344,-0.10044795274734497,-0.32982441782951355,0.30999237298965454,-175.91661071777344,1
133090,-0.6679136753082275,-0.7127876281738281,-0.10034458339214325,-0.3199264705181122,0.3098523020744324,-176.0510711669922,1
133100,-0.6679040193557739,-0.7127833366394043,-0.1003343015909195,-0.3209259510040283,0.31086188554763794,-175.93624877929688,1
133110,-0.6679837107658386,-0.7127429842948914,-0.1004326194524765,-0.3193025290966034,0.30598852038383484,-175.9574432373047,1
133120,-0.6678755879402161,-0.7128750681877136,-0.10055005550384521,-0.32835012674331665,0.30832841992378235,-176.08750915527344,1
133130,-0.6678673028945923,-0.712882399559021,-0.10055738687515259,-0.32860705256462097,0.3088884651660919,-175.9729766845703,1
133140,-0.6678621768951416,-0.7128959894180298,-0.1005302369594574,-0.33146560192108154,0.3087776303291321,-175.98858642578125,1
133150,-0.6677072048187256,-0.7131763100624084,-0.10069310665130615,-0.34592217206954956,0.3129906952381134,-176.13006591796875,1
133160,-0.6676930785179138,-0.7132014632225037,-0.10070500522851944,-0.3466137945652008,0.3112379014492035,-176.0150146484375,1
133170,-0.6675713062286377,-0.7132691740989685,-0.10062216222286224,-0.34780576825141907,0.3175615966320038,-176.03805541992188,1
133180,-0.6675502061843872,-0.7132981419563293,-0.10062307864427567,-0.34728574752807617,0.31829163432121277,-175.9230194091797,1
133190,-0.6676262021064758,-0.7130918502807617,-0.10052444040775299,-0.33742648363113403,0.3190934360027313,-176.0633087158203,1
133200,-0.6676058173179626,-0.713108479976654,-0.10052332282066345,-0.3384391665458679,0.3200375735759735,-175.94969177246094,1
133210,-0.6675502061843872,-0.7131255269050598,-0.10054272413253784,-0.33809763193130493,0.3219916522502899,-175.97238159179688,1
133220,-0.6674981713294983,-0.7131359577178955,-0.10057953745126724,-0.34166470170021057,0.32097765803337097,-176.09934997558594,1
133230,-0.6674734950065613,-0.7131505608558655,-0.1005840077996254,-0.3417752981185913,0.31932586431503296,-175.98500061035156,1
133240,-0.667544424533844,-0.7131512761116028,-0.10056784003973007,-0.3418472707271576,0.314471960067749,-175.99569702148438,1
133250,-0.667540967464447,-0.7131330966949463,-0.10056151449680328,-0.3410209119319916,0.31741443276405334,-176.13401794433594,1
133260,-0.6675189733505249,-0.7131451964378357,-0.10056987404823303,-0.34049397706985474,0.31672054529190063,-176.0186309814453,1
133270,-0.6678844094276428,-0.7130772471427917,-0.10052796453237534,-0.3408623933792114,0.2966044247150421,-176.04286193847656,1
133280,-0.6678865551948547,-0.713091254234314,-0.10054458677768707,-0.3414357602596283,0.29642975330352783,-175.9292755126953,1
133290,-0.6678380966186523,-0.7131702899932861,-0.10062218457460403,-0.3454242944717407,0.2978876531124115,-176.0725555419922,1
133300,-0.6678380966186523,-0.7131702899932861,-0.10062218457460403,-0.3454242944717407,0.2978876531124115,-176.0725555419922,1
133310,-0.6677914261817932,-0.7132170796394348,-0.10072604566812515,-0.3426070809364319,0.300315260887146,-175.97781372070312,1
133320,-0.6678948998451233,-0.7129908204078674,-0.10064512491226196,-0.3329813778400421,0.29986584186553955,-176.1217498779297,1
133330,-0.6678938269615173,-0.7130047082901001,-0.10066761076450348,-0.3328515887260437,0.2994122803211212,-176.0079803466797,1
133340,-0.6679201126098633,-0.7130228877067566,-0.10064877569675446,-0.3339639902114868,0.29766732454299927,-176.0303955078125,1
133350,-0.667840838432312,-0.7131909132003784,-0.10076013952493668,-0.34154361486434937,0.29982298612594604,-176.1599578857422,1
133360,-0.6678388714790344,-0.7132154703140259,-0.10078872740268707,-0.34139883518218994,0.2994934916496277,-176.04580688476562,1
133370,-0.6676856875419617,-0.7132774591445923,-0.10081533342599869,-0.34073346853256226,0.3082225024700165,-176.07272338867188,1
133380,-0.6676746606826782,-0.7133034467697144,-0.10084434598684311,-0.3403523862361908,0.3090830147266388,-175.95716857910156,1
133390,-0.6676648259162903,-0.7132888436317444,-0.10087987035512924,-0.34080076217651367,0.3119048476219177,-176.10218811035156,1
133400,-0.6676648259162903,-0.7132888436317444,-0.10087987035512924,-0.34080076217651367,0.3119048476219177,-176.10218811035156,1
133410,-0.6675422787666321,-0.7133698463439941,-0.10089059174060822,-0.3419494330883026,0.31608036160469055,-176.0150146484375,1
133420,-0.6675084829330444,-0.7133700847625732,-0.1009356752038002,-0.3433630168437958,0.3174590766429901,-176.15383911132812,1
133430,-0.6674864292144775,-0.7134028673171997,-0.1009649783372879,-0.3444470465183258,0.316459596157074,-176.0391845703125,1
133440,-0.6673834919929504,-0.7134730815887451,-0.10087879747152328,-0.3460325002670288,0.3205695152282715,-176.05528259277344,1
133450,-0.6674327850341797,-0.7133653163909912,-0.10081669688224792,-0.3375524580478668,0.31959211826324463,-176.19549560546875,1
133460,-0.6674036979675293,-0.7133902311325073,-0.10083279013633728,-0.33756157755851746,0.3189389407634735,-176.08108520507812,1
133470,-0.6675127148628235,-0.7133910059928894,-0.1007840558886528,-0.338898241519928,0.3134414255619049,-176.0988311767578,1
133480,-0.6674919128417969,-0.7134143114089966,-0.10079852491617203,-0.33908069133758545,0.31339287757873535,-175.98480224609375,1
133490,-0.6674611568450928,-0.713420569896698,-0.10083112865686417,-0.3403635025024414,0.3137671649456024,-176.11524963378906,1
133500,-0.6674611568450928,-0.713420569896698,-0.10083112865686417,-0.3403635025024414,0.3137671649456024,-176.11524963378906,1
133510,-0.667344331741333,-0.7134802341461182,-0.10080713033676147,-0.3407275080680847,0.32067155838012695,-176.1409149169922,1
133520,-0.6674345135688782,-0.7132440805435181,-0.10069834440946579,-0.3296993672847748,0.3205482065677643,-176.27078247070312,1
133530,-0.6674100756645203,-0.7132576704025269,-0.10070721805095673,-0.33118656277656555,0.31991368532180786,-176.15615844726562,1
133540,-0.6675407290458679,-0.7132620215415955,-0.10059007257223129,-0.3339405953884125,0.31128594279289246,-176.17926025390625,1
133550,-0.6676074266433716,-0.7130815386772156,-0.10051248967647552,-0.32652103900909424,0.3116599917411804,-176.32229614257812,1
133560,-0.6675955653190613,-0.7130888104438782,-0.1005110815167427,-0.32761871814727783,0.3103843629360199,-176.20753479003906,1
133570,-0.6676907539367676,-0.7130749225616455,-0.10049940645694733,-0.3282599449157715,0.30486223101615906,-176.21188354492188,1
133580,-0.6676843166351318,-0.7130804061889648,-0.10050386935472488,-0.3280477225780487,0.30396318435668945,-176.0969696044922,1
133590,-0.6677497029304504,-0.712956428527832,-0.10043802857398987,-0.3214625418186188,0.30392202734947205,-176.23211669921875,1
133600,-0.6677446961402893,-0.7129524350166321,-0.10044389218091965,-0.32124999165534973,0.3047431707382202,-176.11734008789062,1
133610,-0.6677485108375549,-0.7129521369934082,-0.10040251910686493,-0.32137149572372437,0.30372822284698486,-176.13055419921875,1
133620,-0.6675906181335449,-0.7131933569908142,-0.1005733460187912,-0.3372717797756195,0.30715540051460266,-176.2614288330078,1
133630,-0.6675819158554077,-0.71320641040802,-0.10058560222387314,-0.33796781301498413,0.30627408623695374,-176.14682006835938,1
133640,-0.6676838994026184,-0.7132096886634827,-0.10051990300416946,-0.34024542570114136,0.3019352853298187,-176.16647338867188,1
133650,-0.6677010655403137,-0.7131342887878418,-0.10051200538873672,-0.33879247307777405,0.3028452694416046,-176.30715942382812,1
133660,-0.6677013039588928,-0.7131471037864685,-0.10051832348108292,-0.33837559819221497,0.30431440472602844,-176.1918487548828,1
133670,-0.6678797602653503,-0.7131568789482117,-0.10036490857601166,-0.3415176272392273,0.2935696244239807,-176.2060546875,1
133680,-0.6678905487060547,-0.7131714224815369,-0.10035988688468933,-0.3411860466003418,0.2940883934497833,-176.09205627441406,1
133690,-0.6680048108100891,-0.7129933834075928,-0.10024908930063248,-0.33058589696884155,0.29507628083229065,-176.23829650878906,1
133700,-0.6680163741111755,-0.7129954099655151,-0.10024188458919525,-0.33079907298088074,0.29349806904792786,-176.12318420410156,1
133710,-0.6679338216781616,-0.7129794955253601,-0.10048491507768631,-0.32619860768318176,0.29657793045043945,-176.1429443359375,1
133720,-0.6680309772491455,-0.7127657532691956,-0.10040992498397827,-0.3174096941947937,0.29419034719467163,-176.2793426513672,1
133730,-0.6680403351783752,-0.7127531170845032,-0.1004238873720169,-0.31821170449256897,0.29332855343818665,-176.1652069091797,1
133740,-0.6681239008903503,-0.712763786315918,-0.10022159665822983,-0.322268545627594,0.2890043258666992,-176.1837158203125,1
133750,-0.6681384444236755,-0.7127531170845032,-0.10021835565567017,-0.3232539892196655,0.28873687982559204,-176.06875610351562,1
133760,-0.668033242225647,-0.7129080295562744,-0.10034441202878952,-0.3332059383392334,0.28999271988868713,-176.20115661621094,1
133770,-0.6679145693778992,-0.7129347324371338,-0.10034223645925522,-0.33274900913238525,0.29895201325416565,-176.2115020751953,1
133780,-0.667917013168335,-0.7129354476928711,-0.10034053027629852,-0.33350250124931335,0.29721081256866455,-176.0965576171875,1
133790,-0.6678673028945923,-0.7130369544029236,-0.10040226578712463,-0.33865392208099365,0.29821550846099854,-176.2227325439453,1
133800,-0.667868435382843,-0.7130421996116638,-0.10041017085313797,-0.33952921628952026,0.29970309138298035,-176.10797119140625,1
133810,-0.6677713394165039,-0.7130649089813232,-0.10044916719198227,-0.3390567898750305,0.3021223247051239,-176.13087463378906,1
133820,-0.6676435470581055,-0.7132556438446045,-0.1005968227982521,-0.35003748536109924,0.30292147397994995,-176.2698211669922,1
133830,-0.667635440826416,-0.7132703065872192,-0.10061734914779663,-0.35016223788261414,0.3044421076774597,-176.1554718017578,1
133840,-0.667682409286499,-0.7132083177566528,-0.10099093616008759,-0.3440494239330292,0.30085158348083496,-176.16909790039062,1
133850,-0.6676800847053528,-0.7132129073143005,-0.10104969143867493,-0.34420245885849,0.3001798689365387,-176.05422973632812,1
133860,-0.6676667332649231,-0.7131863236427307,-0.10112529993057251,-0.34485411643981934,0.3016788363456726,-176.19586181640625,1
133870,-0.6675533652305603,-0.7132532596588135,-0.10098998248577118,-0.34851717948913574,0.3090345561504364,-176.20849609375,1
133880,-0.6675422787666321,-0.7132622599601746,-0.10102730244398117,-0.34805041551589966,0.30875101685523987,-176.09361267089844,1
133890,-0.6676093935966492,-0.713128924369812,-0.1009880006313324,-0.34023281931877136,0.3100786805152893,-176.23216247558594,1
133900,-0.6676002740859985,-0.7131305932998657,-0.10102608799934387,-0.33989769220352173,0.312310129404068,-176.11767578125,1
133910,-0.6675581932067871,-0.7131804823875427,-0.10081394016742706,-0.3425605893135071,0.31666141748428345,-176.14349365234375,1
133920,-0.6676923036575317,-0.7128725051879883,-0.10067754238843918,-0.3289130628108978,0.3162381947040558,-176.2773895263672,1
133930,-0.6676838397979736,-0.7128608226776123,-0.10068660974502563,-0.32828864455223083,0.3157879710197449,-176.16259765625,1
133940,-0.6680592894554138,-0.7128086090087891,-0.10047074407339096,-0.3337016701698303,0.29347318410873413,-176.17185974121094,1
133950,-0.6680748462677002,-0.7128025889396667,-0.10047011077404022,-0.33330225944519043,0.2952575087547302,-176.05775451660156,1
133960,-0.667950451374054,-0.713002622127533,-0.10062261670827866,-0.3444114625453949,0.29784247279167175,-176.19850158691406,1
133970,-0.66818767786026,-0.7129840850830078,-0.1005428284406662,-0.3461422324180603,0.2850354313850403,-176.2026824951172,1
133980,-0.6682131290435791,-0.7129930257797241,-0.1005546897649765,-0.3466273546218872,0.28468891978263855,-176.08908081054688,1
133990,-0.6683077812194824,-0.7128758430480957,-0.10049974918365479,-0.3406497538089752,0.2834284007549286,-176.2327423095703,1
134001,-0.6683346629142761,-0.7128782868385315,-0.10051296651363373,-0.3415238857269287,0.2833108603954315,-176.11729431152344,1
134010,-0.6682893633842468,-0.7128768563270569,-0.10065977275371552,-0.33901241421699524,0.28761526942253113,-176.1398162841797,1
134020,-0.6683469414710999,-0.7127718925476074,-0.10065285861492157,-0.33568769693374634,0.28822970390319824,-176.28085327148438,1
134030,-0.6683705449104309,-0.7127686142921448,-0.10067667067050934,-0.3368940055370331,0.2883404791355133,-176.16671752929688,1
134040,-0.6680877804756165,-0.7128559350967407,-0.10055401921272278,-0.3381425440311432,0.3082992732524872,-176.18710327148438,1
134050,-0.6680894494056702,-0.7128536105155945,-0.1005573570728302,-0.3381994664669037,0.3089282512664795,-176.07199096679688,1
134060,-0.6681838631629944,-0.7126248478889465,-0.10046883672475815,-0.3297719657421112,0.3082314729690552,-176.19667053222656,1
134070,-0.6680504679679871,-0.7126744389533997,-0.1003083735704422,-0.3324488699436188,0.3168735206127167,-176.21514892578125,1
134080,-0.6680456399917603,-0.712665855884552,-0.10029032081365585,-0.3339914381504059,0.3147769868373871,-176.1015625,1
134090,-0.6679386496543884,-0.7128550410270691,-0.10038284212350845,-0.34456220269203186,0.31784647703170776,-176.23463439941406,1
134101,-0.667927086353302,-0.7128604054450989,-0.10036925226449966,-0.34457436203956604,0.3181985020637512,-176.11802673339844,1
134110,-0.6682241559028625,-0.712831974029541,-0.10010824352502823,-0.3485884368419647,0.3038981556892395,-176.13389587402344,1
134120,-0.6682416200637817,-0.7127942442893982,-0.10007458925247192,-0.3486401438713074,0.3057909905910492,-176.2779541015625,1
134130,-0.6682475209236145,-0.712807834148407,-0.10004872828722,-0.3489189147949219,0.30658215284347534,-176.1625213623047,1
134140,-0.6680343151092529,-0.7128439545631409,-0.10018561035394669,-0.34540820121765137,0.31748464703559875,-176.17381286621094,1
134150,-0.6680267453193665,-0.7128551006317139,-0.10017424076795578,-0.3458547592163086,0.32004544138908386,-176.0601806640625,1
134160,-0.6679853796958923,-0.7128912806510925,-0.10020596534013748,-0.34910938143730164,0.32156941294670105,-176.20254516601562,1
134170,-0.667991042137146,-0.7128605246543884,-0.10043536871671677,-0.3462527394294739,0.3189947307109833,-176.21864318847656,1
134180,-0.6679840683937073,-0.7128677368164062,-0.10045456141233444,-0.3463815450668335,0.3178480267524719,-176.10287475585938,1
134190,-0.6679861545562744,-0.7128089666366577,-0.10047002881765366,-0.34525200724601746,0.3173583447933197,-176.236572265625,1
134201,-0.6679798364639282,-0.7128155827522278,-0.10049036890268326,-0.3460254669189453,0.3156890571117401,-176.1220245361328,1
134210,-0.6679678559303284,-0.7128066420555115,-0.10058797150850296,-0.34280794858932495,0.3154953420162201,-176.14105224609375,1
134220,-0.6679369807243347,-0.7128611207008362,-0.10064572095870972,-0.34514912962913513,0.31563010811805725,-176.27767944335938,1
134230,-0.6679288744926453,-0.7128673195838928,-0.10067518055438995,-0.3449952304363251,0.31637293100357056,-176.16184997558594,1
134240,-0.6679831147193909,-0.712909996509552,-0.1003868505358696,-0.3501611053943634,0.3165895640850067,-176.17816162109375,1
134250,-0.6679757833480835,-0.7129236459732056,-0.10038676112890244,-0.3499537408351898,0.31509116291999817,-176.06417846679688,1
134260,-0.667873203754425,-0.7130818367004395,-0.10049375891685486,-0.3585290014743805,0.31432121992111206,-176.2045440673828,1
134270,-0.6678563952445984,-0.713126003742218,-0.10041513293981552,-0.36019429564476013,0.3149939179420471,-176.2186737060547,1
134280,-0.6678450107574463,-0.7131560444831848,-0.10041356086730957,-0.3600686490535736,0.31502529978752136,-176.10321044921875,1
134290,-0.6678187847137451,-0.7131617069244385,-0.1004331111907959,-0.3617335557937622,0.3161638677120209,-176.24501037597656,1
134301,-0.6678065657615662,-0.713195264339447,-0.10043496638536453,-0.362250953912735,0.3174324333667755,-176.12945556640625,1
134310,-0.6676765084266663,-0.7131770253181458,-0.10079117864370346,-0.35582518577575684,0.32209405303001404,-176.13441467285156,1
134320,-0.6678091883659363,-0.7129229307174683,-0.10067105293273926,-0.3405912220478058,0.3218729794025421,-176.26795959472656,1
134330,-0.6677932143211365,-0.7129307389259338,-0.10070259124040604,-0.34159091114997864,0.3236287534236908,-176.15371704101562,1
134340,-0.6678336262702942,-0.7129502892494202,-0.1005750298500061,-0.34444481134414673,0.32052987813949585,-176.17367553710938,1
134350,-0.6678189039230347,-0.7129603028297424,-0.1005948930978775,-0.3449259102344513,0.3198235034942627,-176.058837890625,1
134360,-0.6677636504173279,-0.713008463382721,-0.10066299885511398,-0.3485199213027954,0.31981420516967773,-176.19183349609375,1
134370,-0.6676985025405884,-0.7130672335624695,-0.10049732029438019,-0.35128048062324524,0.3232448697090149,-176.2085723876953,1
134380,-0.6676744222640991,-0.7130849361419678,-0.10050242394208908,-0.3521350920200348,0.32273414731025696,-176.09413146972656,1
134390,-0.6675712466239929,-0.7131946682929993,-0.10059474408626556,-0.35935863852500916,0.3244365453720093,-176.23268127441406,1
134401,-0.667543351650238,-0.7132224440574646,-0.10060466080904007,-0.36048468947410583,0.32184964418411255,-176.11825561523438,1
134410,-0.6675349473953247,-0.7132583260536194,-0.10056488960981369,-0.3609951436519623,0.3214258849620819,-176.13868713378906,1
134420,-0.6674689650535583,-0.713367223739624,-0.10061988234519958,-0.365028440952301,0.3215421438217163,-176.26333618164062,1
134430,-0.6674402952194214,-0.7134039402008057,-0.10063353180885315,-0.3634248971939087,0.319663405418396,-176.1482696533203,1
134440,-0.667587399482727,-0.7134124636650085,-0.1005716398358345,-0.3651937246322632,0.3106487989425659,-176.1551971435547,1
134450,-0.6675657033920288,-0.7134541869163513,-0.10058538615703583,-0.3650487959384918,0.30856430530548096,-176.04164123535156,1
134460,-0.6678254008293152,-0.7129112482070923,-0.10030027478933334,-0.33796632289886475,0.3056267201900482,-176.1676788330078,1
134470,-0.6680212616920471,-0.7128397226333618,-0.10052042454481125,-0.3336319625377655,0.2945233881473541,-176.1825408935547,1
134480,-0.6680201292037964,-0.7128487825393677,-0.10055530071258545,-0.33466580510139465,0.29356980323791504,-176.06851196289062,1
134490,-0.6678979396820068,-0.7130293250083923,-0.10072440654039383,-0.3446945548057556,0.29630914330482483,-176.19845581054688,1
134501,-0.6678926944732666,-0.7130512595176697,-0.10076944530010223,-0.34530118107795715,0.29617440700531006,-176.08424377441406,1
134510,-0.6678951382637024,-0.7131219506263733,-0.10057462751865387,-0.3499034345149994,0.29833072423934937,-176.11294555664062,1
134520,-0.6678875088691711,-0.7131587862968445,-0.10060708969831467,-0.3495936393737793,0.2977171540260315,-176.2452392578125,1
134530,-0.6678829789161682,-0.7131885886192322,-0.1006346046924591,-0.3497147858142853,0.29863086342811584,-176.1298828125,1
134540,-0.6679323315620422,-0.7132216691970825,-0.10057444125413895,-0.3497687876224518,0.29793354868888855,-176.13345336914062,1
134550,-0.6679288744926453,-0.7132567763328552,-0.10059948265552521,-0.3498741388320923,0.30068984627723694,-176.01878356933594,1
134560,-0.6679427623748779,-0.7132209539413452,-0.10061392188072205,-0.34809809923171997,0.2998974621295929,-176.1541748046875,1
134570,-0.6679997444152832,-0.7132320404052734,-0.10072612017393112,-0.3464643359184265,0.29626649618148804,-176.17498779296875,1
134580,-0.6680021286010742,-0.7132701873779297,-0.10076741874217987,-0.34588423371315,0.2948038578033447,-176.05970764160156,1
134590,-0.6681177020072937,-0.713050365447998,-0.10069657862186432,-0.3368222713470459,0.29464253783226013,-176.20050048828125,1
134601,-0.6681259274482727,-0.7130798697471619,-0.10073456168174744,-0.33667293190956116,0.2955531179904938,-176.08596801757812,1
134610,-0.6678094267845154,-0.7131837010383606,-0.10067790746688843,-0.3364962041378021,0.313577800989151,-176.10574340820312,1
134620,-0.6677767038345337,-0.7132518291473389,-0.10072450339794159,-0.3384341597557068,0.3142834007740021,-176.24282836914062,1
134630,-0.6677617430686951,-0.713282585144043,-0.10074633359909058,-0.33947011828422546,0.31295832991600037,-176.1275177001953,1
134640,-0.6676137447357178,-0.7133200168609619,-0.1009255051612854,-0.3351665139198303,0.32114171981811523,-176.14065551757812,1
134650,-0.6675900220870972,-0.7133491635322571,-0.10095695406198502,-0.335735946893692,0.3212309181690216,-176.0264434814453,1
134660,-0.6675939559936523,-0.7132838368415833,-0.10096294432878494,-0.33330070972442627,0.3228602111339569,-176.16860961914062,1
134670,-0.6677039861679077,-0.7133108377456665,-0.1008366197347641,-0.3364652693271637,0.31477662920951843,-176.19061279296875,1
134680,-0.6676864624023438,-0.713341236114502,-0.10085495561361313,-0.33722952008247375,0.3155558109283447,-176.0750732421875,1
134690,-0.6677618622779846,-0.713141143321991,-0.1007779911160469,-0.3294808268547058,0.31347566843032837,-176.2205047607422,1
134701,-0.66774582862854,-0.7131625413894653,-0.10079235583543777,-0.3303392231464386,0.31501343846321106,-176.10665893554688,1
134710,-0.667781412601471,-0.7131921052932739,-0.10072893649339676,-0.33101382851600647,0.3133385479450226,-176.11524963378906,1
134720,-0.6678677797317505,-0.7130365371704102,-0.10063812881708145,-0.32198023796081543,0.31050798296928406,-176.24526977539062,1
134730,-0.667856752872467,-0.7130475044250488,-0.10064380615949631,-0.3230428397655487,0.309246301651001,-176.13059997558594,1
134740,-0.6679254174232483,-0.7130701541900635,-0.10044020414352417,-0.32463401556015015,0.3085651993751526,-176.1405487060547,1
134751,-0.6679167151451111,-0.71308434009552,-0.1004282683134079,-0.3256547152996063,0.3082549571990967,-176.02798461914062,1
134760,-0.6679919362068176,-0.7129002809524536,-0.10033193975687027,-0.3168366849422455,0.30526646971702576,-176.15032958984375,1
134770,-0.6677753329277039,-0.7129389047622681,-0.10040359199047089,-0.3158737123012543,0.31660374999046326,-176.16810607910156,1
134780,-0.6677569150924683,-0.7129449248313904,-0.10039050132036209,-0.3168458342552185,0.3171411454677582,-176.0535430908203,1
