time.ms,stateEstimate.x,stateEstimate.y,stateEstimate.z,stabilizer.roll,stabilizer.pitch,stabilizer.yaw,pm.vbat
183148,0.49092423915863037,-1.0240488052368164,0.979905366897583,-0.2713847756385803,0.9181128144264221,68.02798461914062,4.04296875
183159,0.49101996421813965,-1.0180431604385376,0.9809802770614624,-0.2711326479911804,0.9173904061317444,67.96337127685547,4.04296875
183168,0.4923596680164337,-1.0208258628845215,0.9739391207695007,-0.40004923939704895,0.735439658164978,64.91388702392578,4.04296875
183178,0.4904229938983917,-1.0253287553787231,0.9801046848297119,-0.28138378262519836,0.9806146621704102,68.08575439453125,4.04296875
183188,0.49047932028770447,-1.019391655921936,0.9812822937965393,-0.2809613347053528,0.9798356294631958,68.02189636230469,4.04296875
183198,0.4916682839393616,-1.0204591751098633,0.9735509157180786,-0.4326021373271942,0.7425323128700256,64.92731475830078,4.04296875
183208,0.4918837547302246,-1.0141115188598633,0.9744836688041687,-0.43123766779899597,0.74247807264328,64.86618041992188,4.04296875
183218,0.48996639251708984,-1.0190625190734863,0.9814565777778625,-0.30323049426078796,0.9840593338012695,68.01665496826172,4.04296875
183228,0.4920598268508911,-1.0267653465270996,0.973037838935852,-0.36417385935783386,0.8334380388259888,64.91886901855469,4.04296875
183238,0.4922994077205658,-1.0205769538879395,0.9739137887954712,-0.364842027425766,0.8332310914993286,64.85736083984375,4.04296875
183248,0.4916473925113678,-1.0242197513580322,0.9802929162979126,-0.24009421467781067,0.9139517545700073,68.0199203491211,4.04296875
183259,0.49178749322891235,-1.0182130336761475,0.9813847541809082,-0.24055634438991547,0.9137147068977356,67.95480346679688,4.04296875
183268,0.49311932921409607,-1.0206975936889648,0.9741341471672058,-0.3826201558113098,0.6963177919387817,64.84867095947266,4.04296875
183278,0.4911966025829315,-1.0252130031585693,0.9803122878074646,-0.2652600109577179,0.948950469493866,68.00047302246094,4.04296875
183288,0.4912935495376587,-1.019229769706726,0.9814926981925964,-0.2654733657836914,0.9475693702697754,67.93760681152344,4.04296875
183298,0.492511510848999,-1.0209208726882935,0.974089503288269,-0.4040408432483673,0.7398614287376404,64.93154907226562,4.04296875
183308,0.49276527762413025,-1.0145810842514038,0.9750372171401978,-0.40408170223236084,0.738913893699646,64.87017059326172,4.04296875
183318,0.49034205079078674,-1.01945161819458,0.9815295934677124,-0.3010428249835968,0.9925874471664429,67.99954986572266,4.04296875
183328,0.4923439621925354,-1.0267298221588135,0.9732894897460938,-0.36669543385505676,0.8323358297348022,64.9331283569336,4.04296875
183338,0.4925856292247772,-1.020532488822937,0.9741712212562561,-0.365474671125412,0.8304892182350159,64.87167358398438,4.04296875
183348,0.4916360378265381,-1.0240730047225952,0.980263352394104,-0.2539168894290924,0.9170520901679993,67.98888397216797,4.04296875
183359,0.4917627274990082,-1.0180608034133911,0.9813432097434998,-0.25412502884864807,0.9164720773696899,67.9246597290039,4.04296875
183368,0.4930819272994995,-1.0206944942474365,0.9741884469985962,-0.38388463854789734,0.7256842851638794,64.94888305664062,4.04296875
183378,0.49084487557411194,-1.0251963138580322,0.9801061749458313,-0.2827598750591278,0.9831243753433228,68.08563232421875,4.04296875
183388,0.4909071624279022,-1.0192515850067139,0.9812761545181274,-0.28300586342811584,0.9816556572914124,68.02093505859375,4.04296875
183398,0.4920752942562103,-1.0206096172332764,0.9735807180404663,-0.43084976077079773,0.7479599118232727,64.94741821289062,4.04296875
183408,0.4922972321510315,-1.0142630338668823,0.974506676197052,-0.43112900853157043,0.7465900182723999,64.88601684570312,4.04296875
183418,0.49004992842674255,-1.0191504955291748,0.9811630845069885,-0.3209860622882843,0.9940676093101501,68.00777435302734,4.04296875
183428,0.49205195903778076,-1.0265530347824097,0.972827672958374,-0.3864949345588684,0.8344447612762451,64.93538665771484,4.04296875
183438,0.49227648973464966,-1.0203498601913452,0.9736895561218262,-0.3852522373199463,0.8318296074867249,64.8735122680664,4.04296875
183448,0.4914395213127136,-1.0240087509155273,0.979947566986084,-0.26846566796302795,0.9142847061157227,68.01117706298828,4.04296875
183460,0.4915525019168854,-1.0179924964904785,0.9810172915458679,-0.26705577969551086,0.9150040149688721,67.9462890625,4.04296875
183468,0.49283164739608765,-1.0206854343414307,0.9739099740982056,-0.40439096093177795,0.7129299640655518,64.87220001220703,4.04296875
183478,0.49056360125541687,-1.0250383615493774,0.9797502756118774,-0.30289599299430847,0.9648040533065796,68.05658721923828,4.04296875
183488,0.490608274936676,-1.0190693140029907,0.9809108972549438,-0.30201464891433716,0.9638383388519287,67.99304962158203,4.04296875
183498,0.4917699694633484,-1.020385503768921,0.9733081459999084,-0.45053204894065857,0.7341881990432739,64.87390899658203,4.04296875
183508,0.49198219180107117,-1.0140125751495361,0.9742189645767212,-0.45047545433044434,0.7355077862739563,64.81312561035156,4.04296875
183518,0.4897761642932892,-1.0187467336654663,0.9808825850486755,-0.3371346890926361,0.9778836965560913,68.03465270996094,4.04296875
183528,0.4918665587902069,-1.0266382694244385,0.9729912877082825,-0.3745681941509247,0.881802499294281,64.90684509277344,4.04296875
183538,0.49208393692970276,-1.0204999446868896,0.9738418459892273,-0.37445005774497986,0.8811061978340149,64.8456802368164,4.04296875
183548,0.49128082394599915,-1.024056315422058,0.9800696969032288,-0.258386492729187,0.9593350291252136,68.13623809814453,4.04296875
183559,0.49137482047080994,-1.018107533454895,0.9811490178108215,-0.257852166891098,0.9587685465812683,68.07122802734375,4.04296875
183568,0.49271440505981445,-1.0205274820327759,0.9739709496498108,-0.3980795443058014,0.7421029210090637,64.84835052490234,4.04296875
183578,0.4902912378311157,-1.0249828100204468,0.9797660708427429,-0.3000827133655548,0.9951352477073669,68.11451721191406,4.04296875
183588,0.49031856656074524,-1.019057273864746,0.980928361415863,-0.29916924238204956,0.9933071136474609,68.05001831054688,4.04296875
183598,0.4915158450603485,-1.0206388235092163,0.9734005928039551,-0.44570353627204895,0.7688727974891663,64.86752319335938,4.04296875
183608,0.491712749004364,-1.0143123865127563,0.9743063449859619,-0.44524118304252625,0.7678208351135254,64.80496978759766,4.04296875
183618,0.48969876766204834,-1.0191247463226318,0.9811677932739258,-0.3217467963695526,1.003467082977295,68.03486633300781,4.04296875
183628,0.4917745888233185,-1.0264482498168945,0.9728453159332275,-0.3890174329280853,0.8453145623207092,64.86582946777344,4.04296875
183638,0.4919927418231964,-1.0202568769454956,0.9736926555633545,-0.38890212774276733,0.8441135287284851,64.80321502685547,4.04296875
183648,0.4913289546966553,-1.0240219831466675,0.9801273345947266,-0.26201725006103516,0.9223995804786682,67.99710845947266,4.04296875
183659,0.49144425988197327,-1.0180224180221558,0.9811981320381165,-0.26239585876464844,0.922561526298523,67.9319839477539,4.04296875
183668,0.4928306043148041,-1.0207109451293945,0.9738785028457642,-0.3999996781349182,0.7146310210227966,64.8087387084961,4.04296875
183678,0.49071750044822693,-1.0251718759536743,0.9798505306243896,-0.2869753837585449,0.9655434489250183,67.9938735961914,4.04296875
183688,0.49078598618507385,-1.0192056894302368,0.9809998273849487,-0.28725960850715637,0.965578556060791,67.92837524414062,4.04296875
183698,0.4919334650039673,-1.020270586013794,0.9734578132629395,-0.44502583146095276,0.7263777256011963,64.82051086425781,4.04296875
183708,0.49215826392173767,-1.0138909816741943,0.9743658900260925,-0.4455508291721344,0.7245118618011475,64.7590560913086,4.04296875
183718,0.4899819791316986,-1.0188196897506714,0.9810979962348938,-0.3251444399356842,0.9707609415054321,67.9222412109375,4.04296875
183728,0.4919736385345459,-1.0266247987747192,0.9730089902877808,-0.3898071050643921,0.8300179839134216,64.82884979248047,4.04296875
183738,0.4921972155570984,-1.020419716835022,0.973876416683197,-0.3885434567928314,0.8294817209243774,64.76773834228516,4.04296875
183748,0.4914168119430542,-1.023993730545044,0.9801183938980103,-0.2669834792613983,0.9080535173416138,67.90655517578125,4.04296875
183759,0.49153780937194824,-1.0179682970046997,0.9811944365501404,-0.2659566402435303,0.9064575433731079,67.84317016601562,4.04296875
183768,0.49287858605384827,-1.0208525657653809,0.9740487337112427,-0.3942273259162903,0.7210871577262878,64.84476470947266,4.04296875
183778,0.49079832434654236,-1.0252450704574585,0.9800033569335938,-0.2842409312725067,0.9705243706703186,67.97869873046875,4.04296875
183788,0.4908658564090729,-1.0192885398864746,0.981162428855896,-0.2830571234226227,0.9702945947647095,67.91401672363281,4.04296875
183798,0.4920070469379425,-1.0204166173934937,0.9735291600227356,-0.43540066480636597,0.7333176732063293,64.86896514892578,4.04296875
183808,0.492223858833313,-1.0140557289123535,0.9744449853897095,-0.43630313873291016,0.7346764802932739,64.80612182617188,4.04296875
183818,0.4900815188884735,-1.0189626216888428,0.9811974167823792,-0.3196604251861572,0.9821830987930298,67.9532241821289,4.04296875
183828,0.4920218288898468,-1.0265758037567139,0.9730941653251648,-0.38287171721458435,0.8383334875106812,64.88105010986328,4.04296875
183838,0.49223852157592773,-1.0203737020492554,0.9739671945571899,-0.3814050257205963,0.8381505608558655,64.82038879394531,4.04296875
183848,0.4913308620452881,-1.024054765701294,0.9801956415176392,-0.26673179864883423,0.922835111618042,67.94363403320312,4.04296875
183859,0.4914369583129883,-1.018038034439087,0.9812766909599304,-0.266649067401886,0.9216829538345337,67.88102722167969,4.04296875
183868,0.49276185035705566,-1.0204949378967285,0.9738802313804626,-0.4051681160926819,0.708191990852356,64.83087158203125,4.04296875
183878,0.491854190826416,-1.0240240097045898,0.9800087213516235,-0.2849354147911072,0.7896526455879211,67.940673828125,4.04296875
183888,0.49199432134628296,-1.0178242921829224,0.9810316562652588,-0.2849996089935303,0.7898285388946533,67.87494659423828,4.04296875
183898,0.4931781589984894,-1.0205283164978027,0.9742252826690674,-0.43814733624458313,0.5886395573616028,64.83073425292969,4.04296875
183908,0.49348118901252747,-1.0139766931533813,0.9750308394432068,-0.4379446804523468,0.5882596969604492,64.76902770996094,4.04296875
183918,0.49108126759529114,-1.018750548362732,0.9813433289527893,-0.32132768630981445,0.8491941094398499,67.88124084472656,4.04296875
183928,0.4930117726325989,-1.0268718004226685,0.9737259745597839,-0.37957558035850525,0.7513271570205688,64.90650177001953,4.04296875
183938,0.4932846426963806,-1.0205541849136353,0.9745058417320251,-0.378518670797348,0.7504525780677795,64.84510803222656,4.04296875
183948,0.4918949007987976,-1.0239064693450928,0.9800540804862976,-0.2793789207935333,0.8420358896255493,67.9659194946289,4.04296875
183960,0.49202266335487366,-1.0177689790725708,0.9810227751731873,-0.2779351770877838,0.840979814529419,67.90140533447266,4.04296875
183968,0.49332335591316223,-1.0208536386489868,0.9741575717926025,-0.4093873202800751,0.6666330695152283,64.89930725097656,4.04296875
183978,0.491015762090683,-1.0251508951187134,0.9798498153686523,-0.30535888671875,0.9193370342254639,68.08866882324219,4.04296875
183988,0.4910690486431122,-1.019098162651062,0.9809191226959229,-0.3039472997188568,0.9178787469863892,68.02484130859375,4.04296875
183998,0.49215221405029297,-1.0204870700836182,0.9736952781677246,-0.4602965712547302,0.6932908296585083,64.89192199707031,4.04296875
184008,0.4923687279224396,-1.0140340328216553,0.9745362401008606,-0.460983008146286,0.6931426525115967,64.82942199707031,4.04296875
184018,0.49009573459625244,-1.0187835693359375,0.9811397194862366,-0.3428773581981659,0.9373741745948792,68.04080963134766,4.04296875
184028,0.4920748472213745,-1.0265264511108398,0.9730895161628723,-0.40978172421455383,0.7976933121681213,64.83070373535156,4.04296875
184038,0.49229171872138977,-1.0202347040176392,0.9738869667053223,-0.40936145186424255,0.7964168787002563,64.76931762695312,4.04296875
184048,0.4914288818836212,-1.0236984491348267,0.9800682067871094,-0.28828325867652893,0.8737236857414246,68.06983184814453,4.04296875
184060,0.49151352047920227,-1.0175962448120117,0.9810933470726013,-0.28789931535720825,0.872433602809906,68.00540924072266,4.04296875
184068,0.492875337600708,-1.0205886363983154,0.9740172624588013,-0.426532506942749,0.6766229867935181,64.79486083984375,4.04296875
184078,0.4905758202075958,-1.0249751806259155,0.9799229502677917,-0.31546980142593384,0.9254798889160156,68.06110382080078,4.04296875
184088,0.4906047582626343,-1.0189205408096313,0.9810453057289124,-0.3141830563545227,0.9253791570663452,67.99658203125,4.04296875
184098,0.49183398485183716,-1.0203402042388916,0.9734725952148438,-0.4669239819049835,0.7012665271759033,64.83008575439453,4.04296875
184108,0.4920370876789093,-1.0138815641403198,0.9743421077728271,-0.46530768275260925,0.7012750506401062,64.76864624023438,4.04296875
184118,0.48965686559677124,-1.018667459487915,0.9809601306915283,-0.34660691022872925,0.9463142156600952,68.00361633300781,4.04296875
184128,0.491705060005188,-1.0264183282852173,0.9728217720985413,-0.4131254553794861,0.8083279728889465,64.83911895751953,4.04296875
184138,0.49189823865890503,-1.0201269388198853,0.9736420512199402,-0.4123108983039856,0.805454671382904,64.77737426757812,4.04296875
184148,0.4911191463470459,-1.0236953496932983,0.979938805103302,-0.28465428948402405,0.8811203241348267,67.97531127929688,4.04296875
184158,0.4912034869194031,-1.0175896883010864,0.9809758067131042,-0.2846278250217438,0.8812444806098938,67.91008758544922,4.04296875
184168,0.4925988018512726,-1.0203921794891357,0.9736419916152954,-0.42239952087402344,0.6810003519058228,64.7973861694336,4.04296875
184178,0.4908546805381775,-1.0248823165893555,0.9799790978431702,-0.2883729040622711,0.9239877462387085,67.97962188720703,4.04296875
184188,0.49091607332229614,-1.0188204050064087,0.9811146855354309,-0.2883440852165222,0.922637403011322,67.91517639160156,4.04296875
184198,0.4921398460865021,-1.0207598209381104,0.9737610816955566,-0.4267577826976776,0.7255122065544128,64.88703918457031,4.04296875
184208,0.492357462644577,-1.0143485069274902,0.9746658802032471,-0.4270135462284088,0.7237220406532288,64.82481384277344,4.04296875
184218,0.49026915431022644,-1.0191195011138916,0.9813976883888245,-0.3034430742263794,0.9677140712738037,67.9812240600586,4.04296875
184228,0.49229127168655396,-1.026869535446167,0.9733277559280396,-0.3556556701660156,0.8519512414932251,64.96434020996094,4.04296875
184238,0.492510050535202,-1.0206623077392578,0.9741900563240051,-0.3544096350669861,0.8501999378204346,64.90242004394531,4.04296875
184248,0.4917224645614624,-1.024302363395691,0.9804735779762268,-0.2352866679430008,0.9321739077568054,68.06465911865234,4.04296875
184259,0.4918380379676819,-1.0182816982269287,0.9815504550933838,-0.2339075803756714,0.9308031797409058,68.00067901611328,4.04296875
184268,0.49319788813591003,-1.020813226699829,0.9740983843803406,-0.3727370500564575,0.7145139575004578,64.90420532226562,4.04296875
184278,0.4912130832672119,-1.0252488851547241,0.9801735281944275,-0.2576809525489807,0.9651269316673279,68.05464172363281,4.04296875
184288,0.49128901958465576,-1.0192527770996094,0.9813290238380432,-0.2579919397830963,0.9617440700531006,67.9913330078125,4.04296875
184298,0.4923930764198303,-1.0207805633544922,0.9739460945129395,-0.41213440895080566,0.7299743890762329,64.90359497070312,4.04296875
184308,0.49262088537216187,-1.0143859386444092,0.9748691916465759,-0.411225289106369,0.7302653789520264,64.84175872802734,4.04296875
184318,0.4903304874897003,-1.0191240310668945,0.9814019203186035,-0.3005322515964508,0.9798051118850708,67.97623443603516,4.04296875
184328,0.4923023581504822,-1.0266497135162354,0.9731922149658203,-0.3674568235874176,0.8254665732383728,64.89534759521484,4.04296875
184338,0.49252748489379883,-1.0204014778137207,0.9740580916404724,-0.36853504180908203,0.8243087530136108,64.83322143554688,4.04296875
184348,0.4917515814304352,-1.0239648818969727,0.9803315997123718,-0.24794933199882507,0.9063096046447754,67.9817123413086,4.04296875
184360,0.49186915159225464,-1.01790189743042,0.9814116954803467,-0.24859443306922913,0.9054332971572876,67.91738891601562,4.04296875
184368,0.4931849241256714,-1.020764946937561,0.9741557240486145,-0.38669952750205994,0.6990258693695068,64.83589172363281,4.04296875
184378,0.4909355342388153,-1.0250738859176636,0.9799954891204834,-0.2821035087108612,0.953308641910553,68.0036392211914,4.04296875
184388,0.49099013209342957,-1.0190513134002686,0.981159508228302,-0.28162941336631775,0.9537114500999451,67.93878173828125,4.04296875
184398,0.4921064078807831,-1.0207401514053345,0.973910927772522,-0.42191311717033386,0.7493516206741333,64.92316436767578,4.04296875
184408,0.4923129677772522,-1.0143561363220215,0.9748499393463135,-0.4219233989715576,0.749506950378418,64.86139678955078,4.04296875
184418,0.490019291639328,-1.0191959142684937,0.9815077185630798,-0.31289955973625183,0.9983556866645813,68.00332641601562,4.04296875
184428,0.49208545684814453,-1.0266317129135132,0.9729830622673035,-0.37099727988243103,0.8437924385070801,64.92539978027344,4.04296875
184438,0.49229392409324646,-1.0204013586044312,0.9738457798957825,-0.37060344219207764,0.842252790927887,64.86358642578125,4.04296875
184448,0.4914284348487854,-1.0239925384521484,0.9800816774368286,-0.25463902950286865,0.9241489768028259,68.03165435791016,4.04296875
184460,0.49152377247810364,-1.0179494619369507,0.9811586737632751,-0.2540149986743927,0.9244406819343567,67.96723937988281,4.04296875
184468,0.492828905582428,-1.0208386182785034,0.9741241335868835,-0.3795086443424225,0.7412811517715454,64.9102783203125,4.04296875
184478,0.4906589090824127,-1.0252046585083008,0.980070173740387,-0.27632391452789307,0.9939110279083252,68.10364532470703,4.04296875
184488,0.4906984865665436,-1.019239068031311,0.9812422394752502,-0.2760789692401886,0.9937235116958618,68.03933715820312,4.04296875
184498,0.4919368028640747,-1.020608901977539,0.9735205173492432,-0.41071027517318726,0.7791592478752136,64.9557113647461,4.04296875
184508,0.4921419024467468,-1.014268398284912,0.9744341969490051,-0.41021928191185,0.7779291272163391,64.8943862915039,4.04296875
184518,0.4899497926235199,-1.0192078351974487,0.9812396764755249,-0.2981347143650055,1.0266599655151367,68.12660217285156,4.04296875
184528,0.4919534921646118,-1.026451587677002,0.9730255007743835,-0.36174699664115906,0.8670347332954407,64.89908599853516,4.04296875
184538,0.4921687841415405,-1.0202592611312866,0.9738823771476746,-0.36218225955963135,0.8668650984764099,64.83753204345703,4.04296875
184548,0.4912826120853424,-1.0238059759140015,0.980105459690094,-0.24875350296497345,0.9464654326438904,68.16204833984375,4.04296875
184560,0.4913662374019623,-1.017804503440857,0.9811908602714539,-0.24870891869068146,0.9472449421882629,68.09722137451172,4.04296875
184568,0.49276214838027954,-1.0206931829452515,0.9740305542945862,-0.37029311060905457,0.7626200318336487,64.9363021850586,4.04296875
184578,0.4905341863632202,-1.025119662284851,0.9799991846084595,-0.26607632637023926,1.0142539739608765,68.22836303710938,4.04296875
184588,0.49056339263916016,-1.0191950798034668,0.9811797142028809,-0.26570960879325867,1.0118763446807861,68.16471862792969,4.04296875
184598,0.4917503595352173,-1.02046799659729,0.973603367805481,-0.4170439541339874,0.772675633430481,64.95069122314453,4.04296875
184609,0.4919505715370178,-1.0141234397888184,0.9745272397994995,-0.41564759612083435,0.770325243473053,64.89027404785156,4.04296875
184618,0.48971986770629883,-1.0190078020095825,0.9813030958175659,-0.29983803629875183,1.0165073871612549,68.14053344726562,4.04296875
184628,0.48971378803253174,-1.0130655765533447,0.9825849533081055,-0.29865482449531555,1.0158777236938477,68.07588958740234,4.04296875
184638,0.4920606017112732,-1.020423173904419,0.9737436175346375,-0.3557116687297821,0.8660370707511902,64.9045181274414,4.04296875
184648,0.4912674129009247,-1.0239778757095337,0.9799676537513733,-0.23536017537117004,0.9451144337654114,68.11296844482422,4.04296875
184660,0.49137043952941895,-1.0179818868637085,0.9810390472412109,-0.23561251163482666,0.9452388882637024,68.04788208007812,4.04296875
184668,0.4927138388156891,-1.0206294059753418,0.973852813243866,-0.3727712333202362,0.7342620491981506,64.90766906738281,4.04296875
184678,0.490565687417984,-1.025202751159668,0.9798827171325684,-0.26224231719970703,0.9908488988876343,68.10599517822266,4.04296875
184688,0.490618497133255,-1.019242286682129,0.9810426235198975,-0.26168879866600037,0.988867461681366,68.04156494140625,4.04296875
184698,0.4917762875556946,-1.0203744173049927,0.9734533429145813,-0.414222776889801,0.7506520748138428,64.92598724365234,4.04296875
184708,0.49198752641677856,-1.0140042304992676,0.9743695259094238,-0.41374319791793823,0.7509800791740417,64.86402130126953,4.04296875
184718,0.48994648456573486,-1.0190162658691406,0.9812734127044678,-0.2906127870082855,0.9994531869888306,68.03500366210938,4.04296875
184728,0.48996683955192566,-1.0130505561828613,0.9825380444526672,-0.2900952994823456,0.9984428882598877,67.97013854980469,4.04296875
184738,0.49221739172935486,-1.0203760862350464,0.9738181829452515,-0.3504272699356079,0.8487446904182434,64.87372589111328,4.04296875
184748,0.4913460910320282,-1.024003028869629,0.9800092577934265,-0.23481321334838867,0.9336583018302917,68.01728820800781,4.04296875
184758,0.4914588928222656,-1.0179879665374756,0.9810808897018433,-0.2340703308582306,0.9341517686843872,67.9527816772461,4.04296875
184768,0.4927147924900055,-1.020745038986206,0.9740814566612244,-0.3726142942905426,0.7292411923408508,64.88382720947266,4.04296875
184778,0.4907445013523102,-1.0252280235290527,0.9801912903785706,-0.2569863200187683,0.9826532006263733,68.02703857421875,4.04296875
184788,0.49081072211265564,-1.0192620754241943,0.9813610315322876,-0.2566961348056793,0.9810454249382019,67.96245574951172,4.04296875
184798,0.49195343255996704,-1.020531415939331,0.9737498760223389,-0.40798258781433105,0.7440812587738037,64.90245819091797,4.04296875
184808,0.4921727180480957,-1.014169692993164,0.9746793508529663,-0.4084022343158722,0.7429032921791077,64.84030151367188,4.04296875
184818,0.490127831697464,-1.0189940929412842,0.9814395308494568,-0.2886863946914673,0.9896507263183594,67.99278259277344,4.04296875
184828,0.4901564419269562,-1.0130258798599243,0.9827058911323547,-0.28738802671432495,0.9890815615653992,67.92887878417969,4.04296875
184838,0.49235957860946655,-1.020344614982605,0.9740212559700012,-0.3494211733341217,0.8394242525100708,64.851806640625,4.04296875
184848,0.4914979636669159,-1.0239825248718262,0.9802431464195251,-0.23342803120613098,0.9256207942962646,67.9797592163086,4.04296875
184858,0.49161532521247864,-1.017967700958252,0.9813224673271179,-0.23331736028194427,0.9245682954788208,67.91577911376953,4.04296875
184868,0.4929013252258301,-1.020785927772522,0.9741479158401489,-0.3725472092628479,0.7149303555488586,64.84739685058594,4.04296875
184878,0.4908219873905182,-1.0252169370651245,0.9801536798477173,-0.2631775140762329,0.9709530472755432,67.96817779541016,4.04296875
184888,0.4908882975578308,-1.0192372798919678,0.9813202023506165,-0.26372382044792175,0.9698647260665894,67.904052734375,4.04296875
184898,0.4920403063297272,-1.020623803138733,0.9736981391906738,-0.41408899426460266,0.7345062494277954,64.85208892822266,4.04296875
184908,0.49226248264312744,-1.014246940612793,0.9746225476264954,-0.4134804904460907,0.7338531613349915,64.7901840209961,4.04296875
184918,0.4900428354740143,-1.0191025733947754,0.9812817573547363,-0.30051252245903015,0.9854254722595215,67.93283081054688,4.04296875
184928,0.4921349585056305,-1.026573657989502,0.9730339646339417,-0.3538811504840851,0.8475112318992615,64.84871673583984,4.04296875
184938,0.4923616945743561,-1.0203745365142822,0.9738829731941223,-0.35363876819610596,0.8460699915885925,64.78671264648438,4.04296875
184948,0.4915962219238281,-1.0239577293395996,0.9801228046417236,-0.23550331592559814,0.9285660982131958,67.93488311767578,4.04296875
184958,0.49171164631843567,-1.0179429054260254,0.981187641620636,-0.23496735095977783,0.9279313087463379,67.87066650390625,4.04296875
184968,0.4930172562599182,-1.0206652879714966,0.9739968776702881,-0.37402698397636414,0.7178494334220886,64.7713394165039,4.04296875
184978,0.49088314175605774,-1.0251588821411133,0.9800111055374146,-0.26470598578453064,0.973504900932312,67.9847640991211,4.04296875
184988,0.4909384548664093,-1.019181728363037,0.981172502040863,-0.2641555964946747,0.9718336462974548,67.92015075683594,4.04296875
184998,0.4921300709247589,-1.0206331014633179,0.9735707640647888,-0.4121677577495575,0.74143385887146,64.78937530517578,4.04296875
185008,0.49235254526138306,-1.014258861541748,0.9744799733161926,-0.41228947043418884,0.7420555949211121,64.72813415527344,4.04296875
185018,0.4901464879512787,-1.0190834999084473,0.9812362194061279,-0.29599201679229736,0.9884036779403687,67.9847412109375,4.04296875
185028,0.4901522994041443,-1.013107180595398,0.9825065732002258,-0.2958888113498688,0.9880458116531372,67.92108917236328,4.04296875
185038,0.49239838123321533,-1.0202839374542236,0.9739587903022766,-0.36167237162590027,0.833213746547699,64.65335845947266,4.04296875
185048,0.49141085147857666,-1.0238122940063477,0.9801027178764343,-0.24733313918113708,0.9151813983917236,67.98283386230469,4.04296875
185058,0.49149832129478455,-1.0177744626998901,0.981179416179657,-0.24760861694812775,0.9148927927017212,67.91845703125,4.04296875
185068,0.49289458990097046,-1.0204285383224487,0.9739860892295837,-0.38761982321739197,0.7037842869758606,64.67899322509766,4.04296875
185078,0.4907991588115692,-1.024885654449463,0.9801065921783447,-0.269415944814682,0.9540338516235352,67.97095489501953,4.04296875
185088,0.4908430874347687,-1.0188782215118408,0.9812799692153931,-0.26879259943962097,0.9526185989379883,67.90682983398438,4.04296875
185098,0.49209028482437134,-1.0205762386322021,0.9738445281982422,-0.4179067313671112,0.7311608791351318,64.72195434570312,4.04296875
185108,0.49231112003326416,-1.0141724348068237,0.9747629761695862,-0.4179271161556244,0.7311409711837769,64.65913391113281,4.04296875
185118,0.490030437707901,-1.0189553499221802,0.9814603328704834,-0.2985391616821289,0.9769139885902405,67.91800689697266,4.04296875
185128,0.490030437707901,-1.0189553499221802,0.9814603328704834,-0.2985391616821289,0.9769139885902405,67.91800689697266,4.04296875
185138,0.49239999055862427,-1.0204429626464844,0.9740296602249146,-0.35881298780441284,0.8356415629386902,64.69434356689453,4.04296875
185148,0.49137750267982483,-1.0240569114685059,0.9801489114761353,-0.24365241825580597,0.9189860820770264,67.91201782226562,4.04296875
185158,0.4914781153202057,-1.018010139465332,0.9812241196632385,-0.24264894425868988,0.9170286059379578,67.8470687866211,4.04296875
185168,0.4928663671016693,-1.020674705505371,0.9739755392074585,-0.382243275642395,0.7101718783378601,64.7161865234375,4.04296875
185178,0.4909175932407379,-1.0251739025115967,0.9801512360572815,-0.2583860158920288,0.9584712386131287,67.91275024414062,4.04296875
185188,0.490984171628952,-1.0191650390625,0.9813200831413269,-0.25762057304382324,0.957223117351532,67.84993743896484,4.04296875
185198,0.4921734631061554,-1.0206049680709839,0.973853349685669,-0.41065508127212524,0.7292597889900208,64.74857330322266,4.04296875
185208,0.4924001097679138,-1.0141998529434204,0.9747878313064575,-0.4109742045402527,0.7295055985450745,64.68637084960938,4.04296875
185218,0.4901971220970154,-1.019051194190979,0.9814972281455994,-0.2904197573661804,0.9774685502052307,67.85935974121094,4.04296875
185228,0.4901971220970154,-1.019051194190979,0.9814972281455994,-0.2904197573661804,0.9774685502052307,67.85935974121094,4.04296875
185238,0.4924928843975067,-1.0205802917480469,0.974231481552124,-0.34152886271476746,0.8578653931617737,64.7711410522461,4.04296875
185248,0.49171969294548035,-1.0242595672607422,0.9805514812469482,-0.22114481031894684,0.9414899945259094,67.91976928710938,4.04296875
185258,0.4918459951877594,-1.0182441473007202,0.9816468358039856,-0.22057372331619263,0.9421402215957642,67.85591888427734,4.04296875
185268,0.49316802620887756,-1.0208232402801514,0.9743738770484924,-0.3614625334739685,0.7263438701629639,64.78450012207031,4.04296875
185278,0.49110105633735657,-1.0252327919006348,0.9803693294525146,-0.25035548210144043,0.9805896878242493,67.92433166503906,4.04296875
185288,0.49118325114250183,-1.0192453861236572,0.9815422892570496,-0.25025710463523865,0.9799128770828247,67.86128234863281,4.04296875
185298,0.49237874150276184,-1.0205975770950317,0.9738357067108154,-0.4001663625240326,0.7449420094490051,64.8036117553711,4.04296875
185308,0.4926193952560425,-1.0142143964767456,0.9747631549835205,-0.3990585207939148,0.7428295612335205,64.74308776855469,4.04296875
185318,0.49046871066093445,-1.0190305709838867,0.9814265966415405,-0.28178516030311584,0.9938255548477173,67.86650085449219,4.04296875
185328,0.49046871066093445,-1.0190305709838867,0.9814265966415405,-0.28178516030311584,0.9938255548477173,67.86650085449219,4.04296875
185338,0.49273672699928284,-1.0207345485687256,0.9741698503494263,-0.3289130926132202,0.876326322555542,64.81427764892578,4.04296875
185348,0.49164360761642456,-1.024369716644287,0.9801849722862244,-0.22627508640289307,0.9665854573249817,67.95142364501953,4.04296875
185358,0.49176087975502014,-1.018386721611023,0.9812605977058411,-0.22488459944725037,0.9665688276290894,67.88829040527344,4.04296875
185368,0.4930126368999481,-1.0204956531524658,0.9739919900894165,-0.36946985125541687,0.7383248805999756,64.81219482421875,4.04296875
185378,0.49074020981788635,-1.0248851776123047,0.9798212051391602,-0.2700095474720001,0.9969587922096252,67.96898651123047,4.04296875
185388,0.4907931685447693,-1.0189127922058105,0.9809744358062744,-0.2696043848991394,0.996554970741272,67.90556335449219,4.04296875
185398,0.49191412329673767,-1.0205050706863403,0.9734920263290405,-0.41860467195510864,0.7701746225357056,64.8309555053711,4.04296875
185408,0.49212536215782166,-1.0141452550888062,0.9744059443473816,-0.41703319549560547,0.769855260848999,64.76956939697266,4.04296875
185418,0.489990770816803,-1.018959403038025,0.9811199307441711,-0.30202579498291016,1.0153577327728271,67.90853881835938,4.04296875
185428,0.489990770816803,-1.018959403038025,0.9811199307441711,-0.30202579498291016,1.0153577327728271,67.90853881835938,4.04296875
185438,0.49213847517967224,-1.0203351974487305,0.973929762840271,-0.36477532982826233,0.8676095604896545,64.7850112915039,4.04296875
185448,0.4911820590496063,-1.0239213705062866,0.9800817370414734,-0.25498121976852417,0.949552595615387,67.94902038574219,4.04296875
185458,0.49127402901649475,-1.017906665802002,0.9811651110649109,-0.2544327676296234,0.94882732629776,67.8852767944336,4.046875
185468,0.4925632178783417,-1.0205742120742798,0.9739328026771545,-0.3898828327655792,0.7406891584396362,64.79415893554688,4.04296875
185478,0.4902278184890747,-1.0249788761138916,0.9797854423522949,-0.2908153831958771,0.9967961311340332,68.00225067138672,4.04296875
185488,0.4902512729167938,-1.019005537033081,0.9809522032737732,-0.2901517450809479,0.9958822727203369,67.93893432617188,4.04296875
185498,0.4914226830005646,-1.0205076932907104,0.9733282923698425,-0.43722155690193176,0.7678333520889282,64.78900909423828,4.046875
185508,0.49161598086357117,-1.0141347646713257,0.9742417335510254,-0.4364643394947052,0.7662142515182495,64.727783203125,4.046875
185518,0.4895274043083191,-1.0190340280532837,0.981155276298523,-0.31720635294914246,1.0095734596252441,67.99668884277344,4.04296875
185528,0.4895274043083191,-1.0190340280532837,0.981155276298523,-0.31720635294914246,1.0095734596252441,67.99668884277344,4.04296875
185538,0.4919344484806061,-1.02045476436615,0.9736410975456238,-0.36455902457237244,0.8758291602134705,64.66207885742188,4.04296875
185548,0.4911997318267822,-1.0240131616592407,0.9799469113349915,-0.24260251224040985,0.9527764320373535,67.99645233154297,4.04296875
185558,0.49129247665405273,-1.0180156230926514,0.981013834476471,-0.24141573905944824,0.9517865180969238,67.93244171142578,4.04296875
185568,0.49263283610343933,-1.0205304622650146,0.9740191698074341,-0.3820206820964813,0.7411569952964783,64.70335388183594,4.04296875
185578,0.4904923141002655,-1.0249624252319336,0.9800542593002319,-0.26913076639175415,0.989130437374115,68.0062255859375,4.04296875
185588,0.4905330240726471,-1.018996238708496,0.9812266230583191,-0.26940858364105225,0.9887420535087585,67.94188690185547,4.04296875
185598,0.49184682965278625,-1.0205804109573364,0.9736186265945435,-0.4045752286911011,0.7782589197158813,64.82037353515625,4.04296875
185608,0.49205780029296875,-1.0142462253570557,0.9745327830314636,-0.40506595373153687,0.7761772274971008,64.75816345214844,4.04296875
185618,0.4897778630256653,-1.01912522315979,0.9812352657318115,-0.2887793481349945,1.0201085805892944,68.0149917602539,4.04296875
185628,0.4897778630256653,-1.01912522315979,0.9812352657318115,-0.2887793481349945,1.0201085805892944,68.0149917602539,4.04296875
185638,0.4921073019504547,-1.0203994512557983,0.9737628102302551,-0.3492671847343445,0.8646448254585266,64.78123474121094,4.046875
185648,0.49153023958206177,-1.0240685939788818,0.9802021384239197,-0.21959619224071503,0.942045271396637,67.9962387084961,4.04296875
185658,0.491646409034729,-1.0180879831314087,0.9812821745872498,-0.2192298322916031,0.9406691789627075,67.93286895751953,4.04296875
185668,0.4930095374584198,-1.0205721855163574,0.9740242958068848,-0.3612741529941559,0.7232010960578918,64.78388214111328,4.04296875
185678,0.4930095374584198,-1.0205721855163574,0.9740242958068848,-0.3612741529941559,0.7232010960578918,64.78388214111328,4.04296875
185688,0.4909420609474182,-1.0191608667373657,0.9811906218528748,-0.24680279195308685,0.9787626266479492,67.92129516601562,4.04296875
185698,0.49207690358161926,-1.0206960439682007,0.9737891554832458,-0.40238282084465027,0.7469234466552734,64.79925537109375,4.04296875
185708,0.4923029839992523,-1.0143400430679321,0.9747175574302673,-0.4019837975502014,0.7453422546386719,64.73684692382812,4.04296875
185718,0.49012020230293274,-1.0192235708236694,0.9814132452011108,-0.28305336833000183,0.9949142336845398,67.91387939453125,4.04296875
185728,0.49012020230293274,-1.0192235708236694,0.9814132452011108,-0.28305336833000183,0.9949142336845398,67.91387939453125,4.04296875
185738,0.4924115240573883,-1.0204226970672607,0.9739184975624084,-0.3505116105079651,0.8353456854820251,64.74454498291016,4.04296875
185748,0.4916745126247406,-1.0240671634674072,0.9802154898643494,-0.22598952054977417,0.917388379573822,67.89419555664062,4.04296875
185758,0.49180856347084045,-1.0180420875549316,0.9812907576560974,-0.2253599762916565,0.9161811470985413,67.83051300048828,4.04296875
185768,0.49310120940208435,-1.020503282546997,0.9741214513778687,-0.3716699481010437,0.6957305073738098,64.74097442626953,4.04296875
185778,0.49310120940208435,-1.020503282546997,0.9741214513778687,-0.3716699481010437,0.6957305073738098,64.74097442626953,4.04296875
185788,0.49104389548301697,-1.0189805030822754,0.9812504053115845,-0.25988736748695374,0.9522759318351746,67.82444763183594,4.04296875
185798,0.49217769503593445,-1.0205330848693848,0.9738278985023499,-0.41191771626472473,0.7242642641067505,64.7736587524414,4.04296875
185808,0.4924120604991913,-1.0141445398330688,0.9747605919837952,-0.4111481308937073,0.7230823040008545,64.7114028930664,4.04296875
185818,0.4901624917984009,-1.0190343856811523,0.9814106225967407,-0.29670414328575134,0.9769964814186096,67.84318542480469,4.04296875
185829,0.4901624917984009,-1.0190343856811523,0.9814106225967407,-0.29670414328575134,0.9769964814186096,67.84318542480469,4.04296875
185838,0.49240294098854065,-1.0203388929367065,0.9739817380905151,-0.3619934022426605,0.8213594555854797,64.71109008789062,4.04296875
185848,0.49149057269096375,-1.0238525867462158,0.980100691318512,-0.24645249545574188,0.9049850702285767,67.82288360595703,4.04296875
185858,0.49161139130592346,-1.0177971124649048,0.9811745285987854,-0.24665892124176025,0.9024288654327393,67.75829315185547,4.04296875
185868,0.4929249584674835,-1.0207116603851318,0.9739940762519836,-0.38288745284080505,0.704663097858429,64.74295043945312,4.04296875
185878,0.492012619972229,-1.024100661277771,0.9800280928611755,-0.26189708709716797,0.7874447107315063,67.84187316894531,4.04296875
185888,0.4921654462814331,-1.017887830734253,0.9810490608215332,-0.2620607912540436,0.7861038446426392,67.77770233154297,4.04296875
185898,0.49335047602653503,-1.0203912258148193,0.9742228984832764,-0.4182179272174835,0.5768680572509766,64.74491119384766,4.04296875
185908,0.4936642348766327,-1.0138165950775146,0.9750239253044128,-0.41651782393455505,0.5769277215003967,64.68528747558594,4.04296875
185918,0.4911498427391052,-1.0185682773590088,0.9812397360801697,-0.3023761212825775,0.8415032625198364,67.81805419921875,4.04296875
185928,0.4911498427391052,-1.0185682773590088,0.9812397360801697,-0.3023761212825775,0.8415032625198364,67.81805419921875,4.04296875
185938,0.4933244287967682,-1.020592212677002,0.9745001196861267,-0.37410369515419006,0.7261500358581543,64.66715240478516,4.04296875
185948,0.4921828508377075,-1.0239728689193726,0.980287492275238,-0.2624964714050293,0.8157042860984802,67.81941986083984,4.04296875
185958,0.4923316538333893,-1.017783522605896,0.9812641143798828,-0.2635548710823059,0.8153980374336243,67.75556945800781,4.04296875
185968,0.49361735582351685,-1.020508885383606,0.9744317531585693,-0.41424286365509033,0.6162886023521423,64.67942810058594,4.04296875
185978,0.49104371666908264,-1.0247564315795898,0.9799470901489258,-0.31464096903800964,0.8784933090209961,67.89884185791016,4.04296875
185988,0.49110037088394165,-1.0186148881912231,0.9810184836387634,-0.31575560569763184,0.8781425952911377,67.83515167236328,4.04296875
185998,0.4923418164253235,-1.0205512046813965,0.9734727740287781,-0.4654621183872223,0.6660494208335876,64.70262908935547,4.04296875
186008,0.49257221817970276,-1.0140302181243896,0.9742961525917053,-0.46447882056236267,0.6653010249137878,64.6405258178711,4.04296875
186018,0.49038252234458923,-1.0187792778015137,0.9809909462928772,-0.3383360505104065,0.9095728397369385,67.86536407470703,4.04296875
186028,0.49038252234458923,-1.0187792778015137,0.9809909462928772,-0.3383360505104065,0.9095728397369385,67.86536407470703,4.04296875
186038,0.49259427189826965,-1.0202096700668335,0.9739286303520203,-0.41034838557243347,0.7763125896453857,64.59418487548828,4.04296875
186048,0.4916384220123291,-1.0237005949020386,0.9800617694854736,-0.28695055842399597,0.8531046509742737,67.85308074951172,4.04296875
186058,0.4917405843734741,-1.0175392627716064,0.981080174446106,-0.287790447473526,0.851451575756073,67.78935241699219,4.04296875
186068,0.4930821359157562,-1.0203675031661987,0.9741536378860474,-0.4346058964729309,0.6549764275550842,64.62218475341797,4.04296875
186078,0.49082663655281067,-1.0246816873550415,0.9800490140914917,-0.31790170073509216,0.9057632088661194,67.85359954833984,4.04296875
186088,0.49087440967559814,-1.0185601711273193,0.981166660785675,-0.31730014085769653,0.9037397503852844,67.7901611328125,4.04296875
186098,0.4921354055404663,-1.0204272270202637,0.9736625552177429,-0.4688590466976166,0.6894364953041077,64.65996551513672,4.04296875
186108,0.4923497438430786,-1.0139213800430298,0.974533200263977,-0.46760693192481995,0.6892057061195374,64.597412109375,4.04296875
186118,0.49015510082244873,-1.0186876058578491,0.981265664100647,-0.3385675847530365,0.9304119348526001,67.80469512939453,4.04296875
186128,0.49015510082244873,-1.0186876058578491,0.981265664100647,-0.3385675847530365,0.9304119348526001,67.80469512939453,4.04296875
186138,0.49240896105766296,-1.0199294090270996,0.9740086197853088,-0.4111317992210388,0.7891197800636292,64.62074279785156,4.04296875
186148,0.4915699362754822,-1.0235689878463745,0.980309247970581,-0.28437352180480957,0.8676332235336304,67.79766845703125,4.04296875
186158,0.491677463054657,-1.0174132585525513,0.9813545346260071,-0.28372418880462646,0.867729127407074,67.7332534790039,4.04296875
186168,0.4930507242679596,-1.0206726789474487,0.9742270708084106,-0.4207611083984375,0.6835629343986511,64.65586853027344,4.04296875
186178,0.4930507242679596,-1.0206726789474487,0.9742270708084106,-0.4207611083984375,0.6835629343986511,64.65586853027344,4.04296875
186188,0.490972101688385,-1.0190839767456055,0.9814174771308899,-0.2993048131465912,0.9348669648170471,67.75509643554688,4.04296875
186198,0.4921846389770508,-1.0204341411590576,0.9737090468406677,-0.4525078535079956,0.7086434364318848,64.68269348144531,4.04296875
186208,0.4924018085002899,-1.0139529705047607,0.9746028184890747,-0.451679527759552,0.708103358745575,64.62171173095703,4.04296875
186218,0.4903843104839325,-1.018752098083496,0.9814319610595703,-0.3214172422885895,0.9493011832237244,67.76660919189453,4.04296875
186228,0.4903843104839325,-1.018752098083496,0.9814319610595703,-0.3214172422885895,0.9493011832237244,67.76660919189453,4.04296875
186238,0.4926058053970337,-1.0203489065170288,0.9742208123207092,-0.3843415081501007,0.8200556039810181,64.65263366699219,4.04296875
186248,0.49173086881637573,-1.0238040685653687,0.9803649187088013,-0.26469701528549194,0.8984132409095764,67.77986907958984,4.04296875
186258,0.49184679985046387,-1.0176867246627808,0.9814251065254211,-0.2647620141506195,0.8969295024871826,67.71676635742188,4.04296875
186268,0.4931751787662506,-1.020555853843689,0.9741382002830505,-0.40538957715034485,0.6947224736213684,64.65956115722656,4.04296875
186278,0.4931751787662506,-1.020555853843689,0.9741382002830505,-0.40538957715034485,0.6947224736213684,64.65956115722656,4.04296875
186288,0.4909340739250183,-1.01891028881073,0.9811241030693054,-0.29734691977500916,0.9511322975158691,67.71855163574219,4.04296875
186298,0.49206191301345825,-1.0204734802246094,0.9736076593399048,-0.44733673334121704,0.729460597038269,64.67727661132812,4.04296875
186308,0.4922695457935333,-1.014019250869751,0.9745089411735535,-0.4469394087791443,0.7291082143783569,64.61599731445312,4.04296875
186318,0.4901326894760132,-1.018818736076355,0.9812323451042175,-0.3251286745071411,0.9740142822265625,67.7397232055664,4.04296875
186329,0.4901326894760132,-1.018818736076355,0.9812323451042175,-0.3251286745071411,0.9740142822265625,67.7397232055664,4.04296875
186338,0.4923274517059326,-1.0203174352645874,0.9738652110099792,-0.3857838809490204,0.8419408202171326,64.64102935791016,4.04296875
186348,0.4914877414703369,-1.0238810777664185,0.9800913333892822,-0.266083300113678,0.9223154783248901,67.75167083740234,4.04296875
186358,0.4915913939476013,-1.0177874565124512,0.9811449646949768,-0.2660781443119049,0.9225049614906311,67.68706512451172,4.04296875
186368,0.49291202425956726,-1.02048659324646,0.9737515449523926,-0.4009704887866974,0.7180590629577637,64.6683349609375,4.04296875
186378,0.49291202425956726,-1.02048659324646,0.9737515449523926,-0.4009704887866974,0.7180590629577637,64.6683349609375,4.04296875
186388,0.4908028841018677,-1.0189146995544434,0.980883002281189,-0.2927572727203369,0.9703060388565063,67.74046325683594,4.04296875
186398,0.4918288290500641,-1.0202614068984985,0.9736585021018982,-0.4503791928291321,0.7414300441741943,64.66998291015625,4.04296875
186408,0.49203038215637207,-1.01381516456604,0.9745687246322632,-0.4499606788158417,0.7412963509559631,64.60847473144531,4.04296875
186418,0.4897325038909912,-1.0186535120010376,0.9812303781509399,-0.3381979167461395,0.9884794354438782,67.7442626953125,4.04296875
186429,0.4897325038909912,-1.0186535120010376,0.9812303781509399,-0.3381979167461395,0.9884794354438782,67.7442626953125,4.04296875
186438,0.4919546842575073,-1.0204538106918335,0.9738482236862183,-0.37956345081329346,0.8792436122894287,64.6904525756836,4.04296875
186448,0.49121519923210144,-1.0239531993865967,0.9801404476165771,-0.26002347469329834,0.956480860710144,67.8636474609375,4.04296875
186458,0.49130693078041077,-1.0179147720336914,0.9812129139900208,-0.2598266005516052,0.9560738205909729,67.80001831054688,4.04296875
186468,0.49263468384742737,-1.0204641819000244,0.9738890528678894,-0.3941054940223694,0.7496644258499146,64.69224548339844,4.04296875
186478,0.49263468384742737,-1.0204641819000244,0.9738890528678894,-0.3941054940223694,0.7496644258499146,64.69224548339844,4.04296875
186488,0.4904044270515442,-1.0189038515090942,0.980963945388794,-0.2916189730167389,1.0009855031967163,67.82718658447266,4.04296875
186498,0.4915594458580017,-1.020338535308838,0.9733838438987732,-0.439994752407074,0.7707555890083313,64.67777252197266,4.04296875
186508,0.4917623698711395,-1.0139394998550415,0.9742898344993591,-0.44004297256469727,0.7698860764503479,64.61604309082031,4.04296875
186518,0.48964595794677734,-1.018751621246338,0.981126606464386,-0.3223823606967926,1.010956048965454,67.88807678222656,4.04296875
186529,0.48963674902915955,-1.0127544403076172,0.9823965430259705,-0.32169973850250244,1.009708046913147,67.82408142089844,4.04296875
186538,0.49193301796913147,-1.0203933715820312,0.9737111926078796,-0.37493622303009033,0.873147189617157,64.56973266601562,4.04296875
186548,0.49110525846481323,-1.023960828781128,0.9799996018409729,-0.2574605643749237,0.9506524801254272,67.8835678100586,4.04296875
186558,0.4911983907222748,-1.017930507659912,0.9810740947723389,-0.2558123469352722,0.9500629305839539,67.81940460205078,4.04296875
186568,0.4925729036331177,-1.0203742980957031,0.9738721251487732,-0.3950897455215454,0.7368341088294983,64.5987777709961,4.04296875
186578,0.4903789758682251,-1.0247758626937866,0.9798709750175476,-0.28481271862983704,0.9861512184143066,67.88827514648438,4.04296875
186588,0.4904199540615082,-1.0187690258026123,0.9810345768928528,-0.28470003604888916,0.984862744808197,67.82479858398438,4.04296875
186598,0.4917013943195343,-1.0203638076782227,0.9733732342720032,-0.42903077602386475,0.7616304755210876,64.65579223632812,4.04296875
186608,0.49191609025001526,-1.0139621496200562,0.9742761254310608,-0.42915019392967224,0.7608354091644287,64.5946044921875,4.04296875
186618,0.48992422223091125,-1.0189262628555298,0.9813019037246704,-0.3013821244239807,1.0027618408203125,67.84059143066406,4.04296875
186629,0.4899425804615021,-1.0129283666610718,0.9825791120529175,-0.3022254407405853,1.0024893283843994,67.77623748779297,4.04296875
186638,0.49229854345321655,-1.0201261043548584,0.9737748503684998,-0.36508968472480774,0.8478761911392212,64.61416625976562,4.04296875
186648,0.49142131209373474,-1.0236669778823853,0.9799519777297974,-0.24647784233093262,0.9272885322570801,67.8237075805664,4.04296875
186658,0.49154239892959595,-1.0176055431365967,0.98102205991745,-0.24549664556980133,0.9279873371124268,67.7583999633789,4.04296875
186668,0.4928763508796692,-1.0205353498458862,0.974071741104126,-0.38364747166633606,0.7303584218025208,64.64836120605469,4.04296875
186678,0.4931621551513672,-1.014132022857666,0.9749004244804382,-0.3825910687446594,0.7307573556900024,64.5866470336914,4.04296875
186688,0.49082711338996887,-1.0190484523773193,0.9812930226325989,-0.2688167989253998,0.9832454919815063,67.78311920166016,4.04296875
186698,0.4920661449432373,-1.0206623077392578,0.9736517667770386,-0.4136877655982971,0.7574033737182617,64.69595336914062,4.04296875
186708,0.49229496717453003,-1.014267921447754,0.9745732545852661,-0.4128938615322113,0.756321907043457,64.63497924804688,4.04296875
186718,0.4903007447719574,-1.0191105604171753,0.9814165830612183,-0.28798043727874756,0.9999096393585205,67.8067626953125,4.04296875
186729,0.49034449458122253,-1.013113021850586,0.9826809167861938,-0.287713885307312,0.9990538358688354,67.7428207397461,4.04296875
186738,0.4925653040409088,-1.020550012588501,0.9741603136062622,-0.35312339663505554,0.8507821559906006,64.6480484008789,4.04296875
186748,0.4916248917579651,-1.0240713357925415,0.9802567958831787,-0.24135001003742218,0.9335464835166931,67.7938003540039,4.04296875
186758,0.49175310134887695,-1.0180217027664185,0.9813355803489685,-0.24156001210212708,0.9331797957420349,67.72801971435547,4.04296875
186768,0.49308764934539795,-1.0205286741256714,0.974027156829834,-0.3804212212562561,0.7209853529930115,64.66329956054688,4.04296875
186778,0.49308764934539795,-1.0205286741256714,0.974027156829834,-0.3804212212562561,0.7209853529930115,64.66329956054688,4.04296875
186788,0.491026371717453,-1.019054651260376,0.9812101721763611,-0.2691889703273773,0.9781496524810791,67.73674774169922,4.04296875
186798,0.4922280013561249,-1.020857334136963,0.9737256765365601,-0.40514156222343445,0.7713000178337097,64.74386596679688,4.04296875
186808,0.4924560487270355,-1.014487862586975,0.9746532440185547,-0.4033244848251343,0.7700737118721008,64.68262481689453,4.04296875
186818,0.4901922941207886,-1.0193750858306885,0.9812799692153931,-0.2933668792247772,1.0212346315383911,67.80925750732422,4.04296875
186829,0.4901922941207886,-1.0193750858306885,0.9812799692153931,-0.2933668792247772,1.0212346315383911,67.80925750732422,4.04296875
186838,0.4923456013202667,-1.02033269405365,0.9739860892295837,-0.358050137758255,0.8618006706237793,64.71285247802734,4.04296875
186848,0.4914422631263733,-1.023951768875122,0.9801974892616272,-0.24488934874534607,0.9473959803581238,67.8474349975586,4.04296875
186858,0.49154990911483765,-1.0179097652435303,0.9812853932380676,-0.24513259530067444,0.9453630447387695,67.78350067138672,4.04296875
186868,0.49282339215278625,-1.0202275514602661,0.9740304350852966,-0.3858671486377716,0.725766658782959,64.7149429321289,4.04296875
186878,0.49282339215278625,-1.0202275514602661,0.9740304350852966,-0.3858671486377716,0.725766658782959,64.7149429321289,4.04296875
186888,0.4904373288154602,-1.018609881401062,0.980949878692627,-0.2899010181427002,0.9850677847862244,67.78024291992188,4.04296875
186898,0.49165400862693787,-1.0205333232879639,0.973338782787323,-0.4199734330177307,0.7830358147621155,64.79222869873047,4.04296875
186908,0.4918496906757355,-1.0141637325286865,0.9742529988288879,-0.4203585386276245,0.7827816605567932,64.73050689697266,4.04296875
186918,0.4899037182331085,-1.019025444984436,0.9811633825302124,-0.2987361550331116,1.0260355472564697,67.89027404785156,4.04296875
186929,0.4899037182331085,-1.019025444984436,0.9811633825302124,-0.2987361550331116,1.0260355472564697,67.89027404785156,4.04296875
186938,0.4919910132884979,-1.026524305343628,0.9729410409927368,-0.3476768434047699,0.8896937370300293,64.7962875366211,4.04296875
186948,0.4912490248680115,-1.0298978090286255,0.9788844585418701,-0.23527154326438904,0.9718030095100403,67.96114349365234,4.04296875
186958,0.49134448170661926,-1.0238995552062988,0.9799516797065735,-0.2341180294752121,0.9713708758354187,67.89835357666016,4.04296875
186968,0.49247637391090393,-1.0268770456314087,0.9730359315872192,-0.3725804388523102,0.7590728402137756,64.78641510009766,4.04296875
186978,0.49273860454559326,-1.0205188989639282,0.9738497138023376,-0.3718303143978119,0.7581461071968079,64.72496032714844,4.04296875
186988,0.49054473638534546,-1.0189151763916016,0.9808694124221802,-0.27075397968292236,1.008679747581482,67.88741302490234,4.04296875
186998,0.4916779696941376,-1.0204001665115356,0.9734403491020203,-0.41671517491340637,0.7826955318450928,64.73138427734375,4.04296875
187008,0.4918859004974365,-1.0140347480773926,0.9743508696556091,-0.416290283203125,0.783565878868103,64.66925048828125,4.04296875
187018,0.48972222208976746,-1.0188554525375366,0.9811419248580933,-0.3010404109954834,1.025955080986023,67.93382263183594,4.04296875
187029,0.48972222208976746,-1.0188554525375366,0.9811419248580933,-0.3010404109954834,1.025955080986023,67.93382263183594,4.04296875
187038,0.49204596877098083,-1.020520806312561,0.9737507104873657,-0.34230002760887146,0.9087967276573181,64.71563720703125,4.04296875
187048,0.49124619364738464,-1.024113655090332,0.9800185561180115,-0.22748813033103943,0.9877618551254272,67.99513244628906,4.04296875
187058,0.4913449287414551,-1.0181515216827393,0.9810943603515625,-0.22772148251533508,0.9867636561393738,67.93113708496094,4.04296875
187068,0.4926786720752716,-1.020466685295105,0.9739590287208557,-0.3691103756427765,0.7670211791992188,64.73130798339844,4.04296875
187078,0.4926786720752716,-1.020466685295105,0.9739590287208557,-0.3691103756427765,0.7670211791992188,64.73130798339844,4.04296875
187088,0.4905393719673157,-1.0189766883850098,0.9811087846755981,-0.26158198714256287,1.0166232585906982,67.9165267944336,4.04296875
187098,0.4915519058704376,-1.0267499685287476,0.972636342048645,-0.40798550844192505,0.7886343002319336,64.82840728759766,4.04296875
187108,0.4917598068714142,-1.0204068422317505,0.973551332950592,-0.40653616189956665,0.7881727814674377,64.76587677001953,4.04296875
187118,0.489841490983963,-1.024861216545105,0.9799820184707642,-0.2868957221508026,1.031712532043457,67.99238586425781,4.04296875
187129,0.48985081911087036,-1.0189119577407837,0.9812507033348083,-0.287869393825531,1.0314337015151978,67.92747497558594,4.04296875
187138,0.4919101297855377,-1.0265631675720215,0.9730920791625977,-0.3483281135559082,0.88688725233078,64.79810333251953,4.04296875
187148,0.49128395318984985,-1.0299593210220337,0.9791544079780579,-0.2293454110622406,0.9657973647117615,67.9887466430664,4.04296875
187158,0.49139174818992615,-1.0239628553390503,0.9802389740943909,-0.22897754609584808,0.9627690315246582,67.92412567138672,4.04296875
187168,0.49256181716918945,-1.0271157026290894,0.9733376502990723,-0.36836254596710205,0.7544194459915161,64.80451965332031,4.04296875
187178,0.4928320050239563,-1.0207672119140625,0.9741758704185486,-0.3678155541419983,0.7531823515892029,64.74317169189453,4.04296875
187188,0.49066799879074097,-1.0251507759094238,0.9800824522972107,-0.26021847128868103,1.005159616470337,67.91532897949219,4.04296875
187198,0.4916880428791046,-1.0270581245422363,0.9727970361709595,-0.4089510440826416,0.7752396464347839,64.83087921142578,4.04296875
187208,0.49189722537994385,-1.02070951461792,0.973725438117981,-0.4090513288974762,0.7744967937469482,64.76858520507812,4.04296875
187218,0.48991823196411133,-1.025116205215454,0.9800351858139038,-0.2950851023197174,1.0198814868927002,67.92169952392578,4.04296875
187229,0.4899304211139679,-1.0191587209701538,0.981299877166748,-0.29399654269218445,1.0184004306793213,67.85760498046875,4.04296875
187238,0.49197641015052795,-1.026721477508545,0.9729066491127014,-0.35683637857437134,0.8648988604545593,64.77359771728516,4.04296875
187248,0.4913596510887146,-1.0301122665405273,0.9789632558822632,-0.23536886274814606,0.9458083510398865,67.9113998413086,4.04296875
187258,0.49146997928619385,-1.02410089969635,0.9800308346748352,-0.23573628067970276,0.9446294903755188,67.84642028808594,4.04296875
187268,0.49260297417640686,-1.0270682573318481,0.9730997681617737,-0.3759780824184418,0.7335547804832458,64.7940673828125,4.04296875
187278,0.49287259578704834,-1.020703673362732,0.9739253520965576,-0.37476256489753723,0.7326489090919495,64.73239135742188,4.04296875
187288,0.49086034297943115,-1.0251864194869995,0.9799928665161133,-0.2615722417831421,0.9855895042419434,67.8598403930664,4.04296875
187298,0.491891086101532,-1.0268528461456299,0.9726875424385071,-0.4028560221195221,0.7672474980354309,64.87716674804688,4.04296875
187308,0.4921095669269562,-1.020509958267212,0.9736137390136719,-0.4025750756263733,0.7661585211753845,64.8153076171875,4.04296875
187318,0.4900679290294647,-1.0249158143997192,0.9798473119735718,-0.2931819558143616,1.0166877508163452,67.92948150634766,4.04296875
187330,0.4900915324687958,-1.0189577341079712,0.9811010360717773,-0.2934131324291229,1.015633463859558,67.86508178710938,4.04296875
187338,0.492031455039978,-1.0265321731567383,0.9729883074760437,-0.3590889871120453,0.8620599508285522,64.80443572998047,4.046875
187348,0.4912421405315399,-1.0298311710357666,0.9788824915885925,-0.24669545888900757,0.9431866407394409,67.93852233886719,4.04296875
187358,0.4913451075553894,-1.0238124132156372,0.9799627661705017,-0.24518218636512756,0.9421094059944153,67.87439727783203,4.04296875
187368,0.4924542307853699,-1.0268853902816772,0.973074197769165,-0.38543179631233215,0.7317219376564026,64.80928802490234,4.04296875
187378,0.4927193820476532,-1.020511507987976,0.9739091396331787,-0.3840908706188202,0.7310253381729126,64.74819946289062,4.04296875
187388,0.4906653165817261,-1.0250216722488403,0.9800149202346802,-0.2728612422943115,0.9857269525527954,67.8997573852539,4.04296875
187398,0.49186983704566956,-1.0204172134399414,0.9736024141311646,-0.4249415397644043,0.7480713129043579,64.73468017578125,4.04296875
187408,0.49186983704566956,-1.0204172134399414,0.9736024141311646,-0.4249415397644043,0.7480713129043579,64.73468017578125,4.04296875
187418,0.4899291694164276,-1.024855613708496,0.9800142645835876,-0.3078453540802002,0.9964275360107422,67.88532257080078,4.04296875
187430,0.48993828892707825,-1.0188651084899902,0.9812864065170288,-0.30743348598480225,0.9963033199310303,67.82234191894531,4.04296875
187438,0.492030531167984,-1.0267881155014038,0.9729639887809753,-0.349285364151001,0.8818526864051819,64.80622863769531,4.04296875
187448,0.49113044142723083,-1.0301793813705444,0.9788241386413574,-0.24287991225719452,0.9670907855033875,68.00630187988281,4.04296875
187458,0.49121955037117004,-1.0241948366165161,0.9798992276191711,-0.24206151068210602,0.9650898575782776,67.94258880615234,4.04296875
187468,0.4923262596130371,-1.0269392728805542,0.9730812311172485,-0.3833520710468292,0.7492050528526306,64.81576538085938,4.04296875
187479,0.4925876259803772,-1.0205864906311035,0.9739067554473877,-0.38356634974479675,0.7483972311019897,64.75348663330078,4.04296875
187488,0.49031320214271545,-1.024486780166626,0.9800195097923279,-0.27793702483177185,1.0167127847671509,68.01139831542969,4.04296875
187498,0.4914190173149109,-1.026789665222168,0.972628653049469,-0.4177727997303009,0.7886624336242676,64.82779693603516,4.04296875
187508,0.4916171133518219,-1.0204602479934692,0.9735578298568726,-0.41733479499816895,0.7881823778152466,64.76594543457031,4.04296875
187518,0.489657461643219,-1.0250190496444702,0.9800875186920166,-0.3017471134662628,1.0336503982543945,68.06523895263672,4.04296875
187530,0.4896421730518341,-1.0190943479537964,0.9813957214355469,-0.30044713616371155,1.0343668460845947,68.00101470947266,4.04296875
187538,0.4918288290500641,-1.026634931564331,0.9728506207466125,-0.3548969626426697,0.8818055987358093,64.7615737915039,4.04296875
187548,0.4912337064743042,-1.0301090478897095,0.9789971113204956,-0.23265542089939117,0.9594482779502869,68.04590606689453,4.04296875
187558,0.49133041501045227,-1.0241315364837646,0.9800819754600525,-0.23210187256336212,0.9595517516136169,67.98074340820312,4.04296875
187568,0.4925258159637451,-1.0269631147384644,0.9732186198234558,-0.37088435888290405,0.7471987009048462,64.79409790039062,4.04296875
187579,0.4928011894226074,-1.0206215381622314,0.9740445017814636,-0.36958542466163635,0.7472586631774902,64.73345947265625,4.04296875
187588,0.4906073808670044,-1.025130271911621,0.9800524115562439,-0.26003700494766235,0.9986757636070251,67.99175262451172,4.04296875
187598,0.49174848198890686,-1.0269875526428223,0.9726876616477966,-0.39382797479629517,0.7869855761528015,64.90266418457031,4.04296875
