time.ms,stateEstimate.x,stateEstimate.y,stateEstimate.z,stabilizer.roll,stabilizer.pitch,stabilizer.yaw,pm.vbat
343227,-0.004719410557299852,0.004551257006824017,-0.0002874507918022573,0.3193768858909607,0.5080832839012146,1.8863192796707153,4.05859375
343237,-0.004924042150378227,0.0041151526384055614,-0.0002822510141413659,0.33055558800697327,0.5160564184188843,1.9092179536819458,4.05859375
343248,-0.0049245054833590984,0.004129174165427685,-0.00028450589161366224,0.3313196301460266,0.5156452059745789,1.9078344106674194,4.05859375
343257,-0.004970944952219725,0.004361887462437153,-0.00017160072457045317,0.32376861572265625,0.515701413154602,1.8914382457733154,4.05859375
343267,-0.005307324230670929,0.003768885275349021,-0.0002037881058640778,0.3347267210483551,0.523539125919342,1.9108567237854004,4.05859375
343277,-0.00532323494553566,0.0037771733477711678,-0.00019942858489230275,0.3368370234966278,0.5225763320922852,1.9090275764465332,4.05859375
343287,-0.004893642850220203,0.004327918402850628,-0.0004230518243275583,0.31811287999153137,0.5049212574958801,1.8960446119308472,4.05859375
343298,-0.004888863768428564,0.0043606325052678585,-0.0004264567687641829,0.3182167112827301,0.5039263963699341,1.8938273191452026,4.05859375
343307,-0.004963708575814962,0.003910812083631754,-0.00027614220743998885,0.33218029141426086,0.5058843493461609,1.9250426292419434,4.05859375
343317,-0.004792851395905018,0.004221243318170309,-0.00032922238460741937,0.32614025473594666,0.49963483214378357,1.9164543151855469,4.06640625
343327,-0.0047873216681182384,0.004237823188304901,-0.0003266673011239618,0.32688668370246887,0.4992574453353882,1.914629578590393,4.05859375
343337,-0.004939716309309006,0.004074118100106716,-0.00041430609417147934,0.3298279643058777,0.5035268068313599,1.9318751096725464,4.05859375
343348,-0.0049414909444749355,0.0040835184045135975,-0.0004161976103205234,0.3290620744228363,0.5029880404472351,1.9313472509384155,4.05859375
343357,-0.0050111738964915276,0.004423267208039761,-0.00023676687851548195,0.32143452763557434,0.504027247428894,1.9131191968917847,4.05859375
343367,-0.004941712599247694,0.0040963864885270596,-1.61057619152416e-06,0.3292055130004883,0.5027458071708679,1.925586223602295,4.05859375
343377,-0.004941156134009361,0.004103574436157942,1.325816356256837e-05,0.32875901460647583,0.5032569766044617,1.9227771759033203,4.05859375
343387,-0.004674265161156654,0.004396710079163313,-0.0001292892702622339,0.31839480996131897,0.4920904040336609,1.9104595184326172,4.05859375
343398,-0.004658352117985487,0.004419551230967045,-0.000125868697068654,0.31753313541412354,0.4931274652481079,1.9083690643310547,4.05859375
343407,-0.004744078032672405,0.004110075067728758,-8.144223102135584e-05,0.3242894411087036,0.49501585960388184,1.919366717338562,4.05859375
343417,-0.00458412803709507,0.004223106428980827,-0.000186793360626325,0.31988635659217834,0.4897218644618988,1.9075144529342651,4.05859375
343427,-0.00456560542806983,0.004244918469339609,-0.00018409357289783657,0.31894025206565857,0.4875819981098175,1.906002163887024,4.05859375
343437,-0.004598978441208601,0.00399108836427331,-0.00011866047134390101,0.3255065083503723,0.4886598289012909,1.9220693111419678,4.05859375
343448,-0.004585403949022293,0.0040040332823991776,-0.00011160593567183241,0.3264129161834717,0.48642492294311523,1.920465350151062,4.05859375
343457,-0.004639097489416599,0.004282012581825256,5.924418292124756e-05,0.3194454610347748,0.4883964955806732,1.9174895286560059,4.05859375
343467,-0.00496240658685565,0.004155359696596861,-0.00021171376283746213,0.32264280319213867,0.49808064103126526,1.9244667291641235,4.05859375
343477,-0.004967674612998962,0.004168449901044369,-0.00020899901574011892,0.3221110999584198,0.4977518320083618,1.9219685792922974,4.05859375
343487,-0.00479718716815114,0.004356217570602894,-0.0003246073902118951,0.3143346905708313,0.48979049921035767,1.9116727113723755,4.05859375
343498,-0.00479402719065547,0.004384429659694433,-0.00032774286228232086,0.314312219619751,0.49049463868141174,1.908935308456421,4.05859375
343507,-0.0048443907871842384,0.003829507390037179,-9.584612416801974e-05,0.3253841698169708,0.4913274943828583,1.9407374858856201,4.05859375
343517,-0.004617337603121996,0.0042151776142418385,-0.0001562001125421375,0.3143908679485321,0.4827374815940857,1.9391697645187378,4.05859375
343527,-0.004599677864462137,0.004240239039063454,-0.00015091840759851038,0.3148297071456909,0.48168274760246277,1.9372355937957764,4.05859375
343537,-0.004752239212393761,0.004128145053982735,-0.0002658182638697326,0.3151014745235443,0.48370692133903503,1.9422800540924072,4.05859375
343548,-0.0047396267764270306,0.004147742409259081,-0.00026684801559895277,0.31515106558799744,0.48464542627334595,1.939997911453247,4.05859375
343557,-0.004792499355971813,0.0045284912921488285,-6.063745968276635e-05,0.30617380142211914,0.4856090843677521,1.9350996017456055,4.05859375
343567,-0.005119012203067541,0.004071589559316635,-0.000162443655426614,0.3212713897228241,0.49854177236557007,1.9593005180358887,4.05859375
343577,-0.005123544484376907,0.004084774758666754,-0.00015858774713706225,0.32122963666915894,0.4982072710990906,1.9572516679763794,4.05859375
343587,-0.0048655248247087,0.004313983488827944,-0.0003299273375887424,0.31644946336746216,0.49047526717185974,1.9503042697906494,4.05859375
343598,-0.0048608784563839436,0.004332185257226229,-0.00032927459687925875,0.31568825244903564,0.4902224540710449,1.9492409229278564,4.05859375
343607,-0.004909029230475426,0.003915608394891024,-0.0001759037986630574,0.32635819911956787,0.4922231435775757,1.96444571018219,4.05859375
343617,-0.004800544586032629,0.004566277377307415,-1.9566845367080532e-05,0.3057422637939453,0.48753267526626587,1.9545097351074219,4.05859375
343627,-0.00479003693908453,0.004596290178596973,-4.56486850453075e-06,0.30570265650749207,0.4884040653705597,1.9511277675628662,4.05859375
343637,-0.004964820574969053,0.004378002602607012,-7.009908586042002e-05,0.3108590543270111,0.49421149492263794,1.9819786548614502,4.05859375
343648,-0.004957484547048807,0.004401221871376038,-5.6382799812126905e-05,0.3107506334781647,0.4948037564754486,1.9807614088058472,4.05859375
343657,-0.004807508550584316,0.004385156091302633,-0.00020938427769578993,0.3113868236541748,0.49068135023117065,1.9705222845077515,4.05859375
343667,-0.004864650312811136,0.0039027759339660406,-3.337827365612611e-05,0.32535049319267273,0.49269816279411316,1.9934710264205933,4.05859375
343677,-0.00485397269949317,0.0039045766461640596,-1.4342331269290298e-05,0.32486212253570557,0.492755651473999,1.9906704425811768,4.05859375
343687,-0.004744137171655893,0.004272291902452707,4.278706182958558e-05,0.3167606592178345,0.49080488085746765,1.9728565216064453,4.05859375
343698,-0.004730769898742437,0.004286938346922398,6.215723260538653e-05,0.3172101378440857,0.48954641819000244,1.9712786674499512,4.05859375
343707,-0.004940574057400227,0.004060282371938229,-4.393178460304625e-05,0.3230917453765869,0.49600088596343994,1.9785575866699219,4.05859375
343717,-0.004541496280580759,0.004235961940139532,-0.00035428287810646,0.31636160612106323,0.48171308636665344,1.96291983127594,4.05859375
343727,-0.004518437199294567,0.004252925980836153,-0.00035830115666612983,0.3163433074951172,0.4817381203174591,1.961808681488037,4.05859375
343737,-0.0045877136290073395,0.003950494807213545,-0.0003083006013184786,0.3157554268836975,0.4819636940956116,1.9582717418670654,4.05859375
343749,-0.004563809838145971,0.003963079769164324,-0.0003103281487710774,0.31468135118484497,0.48219478130340576,1.9563319683074951,4.05859375
343757,-0.004589936695992947,0.004322676919400692,-0.0001341135211987421,0.30439597368240356,0.48127448558807373,1.9369332790374756,4.05859375
343767,-0.00477957259863615,0.003938762936741114,-0.00015307182911783457,0.3159368932247162,0.48898088932037354,1.9584100246429443,4.05859375
343777,-0.004766136407852173,0.003947948571294546,-0.00014518824173137546,0.31615397334098816,0.48956701159477234,1.9580981731414795,4.05859375
343787,-0.004770281258970499,0.004443226382136345,6.886783376103267e-05,0.3040120303630829,0.49141788482666016,1.9378421306610107,4.05859375
343799,-0.004757250193506479,0.004467442631721497,8.433308539679274e-05,0.30458348989486694,0.489766001701355,1.9360718727111816,4.05859375
343807,-0.005054802633821964,0.004177536349743605,-7.184997957665473e-05,0.3132997155189514,0.498859703540802,1.963910698890686,4.05859375
343817,-0.0049698022194206715,0.00451297452673316,-2.8076465241611004e-05,0.30207332968711853,0.495714396238327,1.952101469039917,4.05859375
343827,-0.004963937681168318,0.004540215712040663,-2.0264822524040937e-05,0.3013650178909302,0.49509721994400024,1.950233817100525,4.05859375
343837,-0.005185390822589397,0.004058036021888256,3.738341774806031e-06,0.31156229972839355,0.5019892454147339,1.9740564823150635,4.05859375
343848,-0.00518361572176218,0.004070774186402559,8.471672117593698e-06,0.3118503987789154,0.4998495876789093,1.9732661247253418,4.05859375
343857,-0.004961387719959021,0.004610941745340824,7.305175586225232e-06,0.29623568058013916,0.48987358808517456,1.9523322582244873,4.05859375
343867,-0.005034538451582193,0.004228651057928801,0.00011335540330037475,0.308806449174881,0.49200570583343506,1.9543310403823853,4.05859375
343877,-0.005025154445320368,0.004249368328601122,0.0001245442545041442,0.3097764849662781,0.4913606345653534,1.951918125152588,4.05859375
343887,-0.004609712865203619,0.004541794303804636,-0.00015810703916940838,0.3037670850753784,0.4797459542751312,1.9409191608428955,4.05859375
343898,-0.004583353642374277,0.00457110395655036,-0.0001610817707842216,0.3038325905799866,0.4808509349822998,1.9394195079803467,4.05859375
343907,-0.0048840041272342205,0.004120616242289543,-0.0002704902726691216,0.31529852747917175,0.48991483449935913,1.9646950960159302,4.05859375
343917,-0.004849573131650686,0.004361886531114578,-0.0002149054198525846,0.3070890009403229,0.4878593683242798,1.9587451219558716,4.05859375
343927,-0.004829554818570614,0.004385076928883791,-0.00022116530453786254,0.30725914239883423,0.4863893687725067,1.9567101001739502,4.05859375
343937,-0.00501085864380002,0.003977637737989426,-0.00022902191267348826,0.31426313519477844,0.491208016872406,1.9866609573364258,4.05859375
343948,-0.004994216840714216,0.003990923520177603,-0.00023797634639777243,0.313621461391449,0.4907512664794922,1.9838422536849976,4.05859375
343957,-0.0048877703957259655,0.004569969605654478,-0.00011085128790000454,0.2971699833869934,0.4854981005191803,1.9717177152633667,4.05859375
343967,-0.004983648657798767,0.004153630696237087,-1.9723847799468786e-05,0.3095490634441376,0.48898518085479736,1.9866750240325928,4.05859375
343977,-0.004964401479810476,0.004170455504208803,-2.0152896468061954e-05,0.3104514181613922,0.4889663755893707,1.984729528427124,4.05859375
343987,-0.004754268564283848,0.004321509972214699,-0.00016691982455085963,0.30799034237861633,0.48356449604034424,1.9734464883804321,4.05859375
343998,-0.0048388889990746975,0.00409755390137434,-0.00018078248831443489,0.30750513076782227,0.4834561347961426,1.9723610877990723,4.05859375
344007,-0.004814467392861843,0.004113820381462574,-0.00018220898346044123,0.3082161247730255,0.4841339588165283,1.9696550369262695,4.05859375
344017,-0.004805983044207096,0.004424045793712139,-5.874743510503322e-05,0.2991718053817749,0.4833228290081024,1.9511936902999878,4.05859375
344027,-0.004780602175742388,0.004454673733562231,-5.038229573983699e-05,0.2994677722454071,0.48359230160713196,1.9497853517532349,4.05859375
344037,-0.005028164945542812,0.004256840329617262,-0.00022039838950149715,0.30147719383239746,0.48990675806999207,1.963553547859192,4.05859375
344048,-0.005007450468838215,0.004285748116672039,-0.00021771361934952438,0.30199795961380005,0.4905908405780792,1.9617290496826172,4.05859375
344057,-0.004917220212519169,0.0045685493387281895,-0.00018612547137308866,0.29376503825187683,0.4882325232028961,1.9368313550949097,4.05859375
344067,-0.0050849090330302715,0.004229946061968803,-0.00019916804740205407,0.30420705676078796,0.493900865316391,1.948752760887146,4.05859375
344077,-0.005065461155027151,0.0042601996101439,-0.0001916416804306209,0.304364413022995,0.4935897886753082,1.9465969800949097,4.05859375
344087,-0.004872425924986601,0.004596942104399204,-0.0002433967893011868,0.2969406843185425,0.4874446392059326,1.9160431623458862,4.05859375
344099,-0.004845848307013512,0.004642536863684654,-0.00023648323258385062,0.2962799668312073,0.4882622957229614,1.9151228666305542,4.05859375
344107,-0.004789980128407478,0.004351555835455656,-4.19055504607968e-05,0.30360057950019836,0.48575833439826965,1.9317607879638672,4.05859375
344117,-0.004590368364006281,0.0044462974183261395,-0.00017982866847887635,0.3008131980895996,0.47856074571609497,1.9190038442611694,4.05859375
344127,-0.004555540159344673,0.004485714249312878,-0.00016816053539514542,0.29993146657943726,0.47756579518318176,1.9181289672851562,4.05859375
344137,-0.004869202617555857,0.003945306409150362,-0.00022488644754048437,0.3108028471469879,0.4853284955024719,1.952206015586853,4.05859375
344149,-0.004846969153732061,0.003968738950788975,-0.00021661083155777305,0.311129629611969,0.48332491517066956,1.9500857591629028,4.05859375
344157,-0.004759523551911116,0.004386084154248238,-0.00012173740833532065,0.29994887113571167,0.4792918562889099,1.932930588722229,4.05859375
344167,-0.004863582085818052,0.004026942886412144,-5.386702105170116e-05,0.31031346321105957,0.48309141397476196,1.9405605792999268,4.05859375
344177,-0.004843222443014383,0.0040504056960344315,-3.77396572730504e-05,0.3102833330631256,0.48245149850845337,1.9390867948532104,4.05859375
344187,-0.004723912104964256,0.004562564194202423,7.258693221956491e-05,0.29825443029403687,0.4789455235004425,1.9200568199157715,4.05859375
344197,-0.004698400851339102,0.004601364489644766,9.137782035395503e-05,0.29876142740249634,0.479413241147995,1.919256567955017,4.05859375
344207,-0.004918304737657309,0.004316067323088646,3.451186785241589e-07,0.30742689967155457,0.4850587248802185,1.9298659563064575,4.05859375
344217,-0.00484376959502697,0.004358448553830385,-4.724657992483117e-05,0.3067787289619446,0.48194101452827454,1.9076606035232544,4.05859375
344227,-0.004821211565285921,0.0043900650925934315,-3.3517546398798004e-05,0.3061516284942627,0.4823272228240967,1.905291199684143,4.05859375
344237,-0.005015099421143532,0.003946161828935146,-1.9360497390152887e-05,0.3147464990615845,0.48762744665145874,1.9271401166915894,4.05859375
344248,-0.004997398238629103,0.0039634923450648785,-8.457212970824912e-06,0.3139955997467041,0.4882097840309143,1.925336480140686,4.05859375
344257,-0.00461973762139678,0.004447361454367638,-0.00017312602722086012,0.29921361804008484,0.47571417689323425,1.9064884185791016,4.05859375
344267,-0.004702729173004627,0.004065672401338816,-0.00010248131002299488,0.3100613057613373,0.4794682562351227,1.917083978652954,4.05859375
344277,-0.004672322887927294,0.004087802488356829,-9.374911314807832e-05,0.3105662167072296,0.48015591502189636,1.9133533239364624,4.05859375
344287,-0.0045435866340994835,0.004378763493150473,-8.520398114342242e-05,0.30359598994255066,0.47847744822502136,1.8910683393478394,4.05859375
344299,-0.004506818018853664,0.004412519279867411,-7.402304618153721e-05,0.30363744497299194,0.47904399037361145,1.8897576332092285,4.05859375
344307,-0.004882862791419029,0.004104285966604948,-0.00034392892848700285,0.31270360946655273,0.49248868227005005,1.9171350002288818,4.05859375
344317,-0.00468198349699378,0.004780151415616274,-0.0002682478225324303,0.2916947305202484,0.48366743326187134,1.9104230403900146,4.05859375
344327,-0.00465039350092411,0.004830561578273773,-0.00026320069446228445,0.29081451892852783,0.48296937346458435,1.9085243940353394,4.05859375
344337,-0.004966833628714085,0.004079562611877918,-0.00021043160813860595,0.30667218565940857,0.4924219250679016,1.9228622913360596,4.05859375
344349,-0.004947876092046499,0.004108845721930265,-0.00020377928740344942,0.3067302107810974,0.4915499985218048,1.920127272605896,4.05859375
344357,-0.004918565042316914,0.0045030610635876656,-6.714621122227982e-05,0.29479336738586426,0.49059462547302246,1.8966081142425537,4.05859375
344367,-0.005036476533859968,0.004284062422811985,-7.969584839884192e-05,0.3004208505153656,0.49554145336151123,1.9161876440048218,4.05859375
344377,-0.005021852441132069,0.004319962579756975,-7.132919563446194e-05,0.3004177510738373,0.4959753751754761,1.9139951467514038,4.05859375
344387,-0.0048622689209878445,0.004740026779472828,-5.921693082200363e-05,0.29150503873825073,0.49160876870155334,1.8944907188415527,4.05859375
344399,-0.004843571223318577,0.0047892737202346325,-5.107234028400853e-05,0.29268866777420044,0.49130433797836304,1.891974687576294,4.05859375
344407,-0.005028037820011377,0.004410807974636555,-5.035402864450589e-05,0.30296847224235535,0.49709057807922363,1.904199481010437,4.05859375
344417,-0.004934648517519236,0.004516002722084522,-0.00010539231880102307,0.30086401104927063,0.49264267086982727,1.8881734609603882,4.05859375
344427,-0.004920073319226503,0.004554998129606247,-9.986125223804265e-05,0.3002035617828369,0.49310874938964844,1.8865408897399902,4.05859375
344437,-0.00506850378587842,0.00413907878100872,-3.963805647799745e-05,0.30792951583862305,0.4973222613334656,1.8936190605163574,4.05859375
344449,-0.005057282280176878,0.004165820777416229,-3.3075026294682175e-05,0.307071715593338,0.495440274477005,1.8929961919784546,4.05859375
344457,-0.0045225489884614944,0.004497601184993982,-0.0004212860658299178,0.2968412935733795,0.4770256280899048,1.876895546913147,4.05859375
344467,-0.004678860306739807,0.004149663727730513,-0.0004403389757499099,0.30744877457618713,0.48548367619514465,1.9120460748672485,4.05859375
344477,-0.004651733208447695,0.004172705579549074,-0.00045118751586414874,0.30782365798950195,0.48766759037971497,1.9105732440948486,4.05859375
344487,-0.004829219076782465,0.004452384542673826,-0.00017562013817951083,0.30040842294692993,0.49604588747024536,1.8918510675430298,4.05859375
344499,-0.004809411708265543,0.0044863480143249035,-0.00017138442490249872,0.29999902844429016,0.4947529435157776,1.890773892402649,4.05859375
344507,-0.004921447020024061,0.004144398961216211,-0.00013181510439608246,0.30877038836479187,0.4981536865234375,1.9017386436462402,4.05859375
344517,-0.004713848233222961,0.004307884722948074,-0.0002690859546419233,0.30352017283439636,0.4916575849056244,1.893829107284546,4.05859375
344527,-0.004689729772508144,0.0043348753824830055,-0.00026825335226021707,0.30331167578697205,0.4900144040584564,1.892388939857483,4.05859375
344537,-0.004863114561885595,0.003963882103562355,-0.0002808795834425837,0.31205007433891296,0.49588721990585327,1.9121867418289185,4.05859375
344547,-0.004840539768338203,0.003978792577981949,-0.0002810702717397362,0.3118099868297577,0.49524226784706116,1.9110569953918457,4.05859375
344557,-0.004897717386484146,0.004399002064019442,-4.3187446863157675e-05,0.30105969309806824,0.49400681257247925,1.8989907503128052,4.05859375
344567,-0.005112278275191784,0.00400985311716795,-7.027106767054647e-05,0.31381741166114807,0.5026979446411133,1.9151288270950317,4.05859375
344577,-0.005100947339087725,0.004026888869702816,-5.801794759463519e-05,0.31306517124176025,0.5006793737411499,1.9130641222000122,4.05859375
344587,-0.0048057083040475845,0.004352168645709753,-0.00021046226902399212,0.3072696924209595,0.49437493085861206,1.9007962942123413,4.05859375
344597,-0.004783532116562128,0.004380607511848211,-0.00020546095038298517,0.307021826505661,0.4945295751094818,1.9002058506011963,4.05859375
344607,-0.005039070267230272,0.003884959267452359,-0.0002286668895976618,0.3188542127609253,0.5038862824440002,1.9176427125930786,4.05859375
344617,-0.0045852055773139,0.004424372687935829,-0.00044892760342918336,0.30135563015937805,0.48395660519599915,1.9165531396865845,4.05859375
344627,-0.004552111960947514,0.004458357580006123,-0.0004580419044941664,0.3009340763092041,0.48327508568763733,1.914825677871704,4.05859375
344637,-0.004677082411944866,0.003950504120439291,-0.00036045131855644286,0.31153613328933716,0.48498764634132385,1.937687873840332,4.05859375
344647,-0.004648128524422646,0.003969206940382719,-0.0003669921716209501,0.3111959993839264,0.4845673143863678,1.9350095987319946,4.05859375
344657,-0.004582174122333527,0.0043239775113761425,-0.0002836115600075573,0.3008854389190674,0.48198747634887695,1.9219521284103394,4.05859375
344667,-0.004614347126334906,0.003812088631093502,-8.3392602391541e-05,0.3166677951812744,0.48383644223213196,1.9298372268676758,4.05859375
344677,-0.004586991388350725,0.0038246691692620516,-7.609114982187748e-05,0.3159049153327942,0.4842565357685089,1.928214430809021,4.05859375
344687,-0.004488165490329266,0.004147919826209545,-2.5854198611341417e-05,0.3093443512916565,0.48155564069747925,1.9240046739578247,4.05859375
344699,-0.004459179472178221,0.004172109998762608,-1.4651610399596393e-05,0.309823602437973,0.48033058643341064,1.9229843616485596,4.05859375
344707,-0.0049539296887815,0.0039136516861617565,-0.0004168317827861756,0.3175255060195923,0.49763011932373047,1.9522453546524048,4.05859375
344717,-0.004954522475600243,0.004568467848002911,-0.00016782732564024627,0.2960372567176819,0.4947270154953003,1.9367318153381348,4.05859375
344727,-0.004948907997459173,0.004611126612871885,-0.00016088344273157418,0.29622599482536316,0.4940895736217499,1.934210181236267,4.05859375
344737,-0.004966690205037594,0.004095898475497961,8.588797936681658e-05,0.30689939856529236,0.4938378632068634,1.948275089263916,4.05859375
344749,-0.004964234307408333,0.004121596459299326,0.00010117732745129615,0.3059835433959961,0.4944919943809509,1.9462776184082031,4.05859375
344757,-0.0047913347370922565,0.004275791347026825,-1.3532422599382699e-05,0.3017871677875519,0.48778480291366577,1.928458333015442,4.05859375
344767,-0.005070312414318323,0.004115861840546131,-0.0002129103959305212,0.3075370788574219,0.4971376359462738,1.9561994075775146,4.05859375
344777,-0.005076742265373468,0.0041451589204370975,-0.0002116790710715577,0.3065606653690338,0.4967968165874481,1.955310344696045,4.05859375
344787,-0.004673308227211237,0.004539191722869873,-0.0004766457714140415,0.29864436388015747,0.48416250944137573,1.9474806785583496,4.05859375
344799,-0.004662960302084684,0.00457916222512722,-0.00048628385411575437,0.29953867197036743,0.4825756251811981,1.9456872940063477,4.05859375
344807,-0.004851631820201874,0.004138184245675802,-0.00046871035010553896,0.3109266757965088,0.489027738571167,1.9617420434951782,4.05859375
344817,-0.004851631820201874,0.004138184245675802,-0.00046871035010553896,0.3109266757965088,0.489027738571167,1.9617420434951782,4.05859375
344827,-0.004736764822155237,0.004581274464726448,-0.00043364663724787533,0.29772305488586426,0.4831187427043915,1.9466396570205688,4.05859375
344837,-0.004931410774588585,0.004142058547586203,-0.00041184964356943965,0.30608493089675903,0.48789408802986145,1.9700031280517578,4.05859375
344849,-0.004922674503177404,0.004173647612333298,-0.00040848134085536003,0.30747345089912415,0.486600786447525,1.9677714109420776,4.05859375
344857,-0.005039169453084469,0.004450738430023193,-0.00018901254225056618,0.3020164966583252,0.4897400140762329,1.964019775390625,4.05859375
344867,-0.005039169453084469,0.004450738430023193,-0.00018901254225056618,0.3020164966583252,0.4897400140762329,1.964019775390625,4.05859375
344877,-0.005132939200848341,0.004086184315383434,-5.527822213480249e-05,0.31346333026885986,0.4933459162712097,1.9810396432876587,4.05859375
344887,-0.004920008592307568,0.004561467096209526,-6.330565520329401e-05,0.30310410261154175,0.4869860112667084,1.9647012948989868,4.05859375
344897,-0.00491062318906188,0.004600869957357645,-4.3106025259476155e-05,0.3025861978530884,0.4873414933681488,1.963153600692749,4.05859375
344907,-0.005063439719378948,0.004341374151408672,-4.9553418648429215e-05,0.3102237582206726,0.49053630232810974,1.9690955877304077,4.05859375
344917,-0.005063439719378948,0.004341374151408672,-4.9553418648429215e-05,0.3102237582206726,0.49053630232810974,1.9690955877304077,4.05859375
344927,-0.004882513545453548,0.004662431310862303,-8.386780973523855e-05,0.3017546534538269,0.48225417733192444,1.9472676515579224,4.05859375
344937,-0.0050080823712050915,0.004176115617156029,4.3503925553523004e-05,0.3122398555278778,0.4858440160751343,1.9729745388031006,4.05859375
344947,-0.004997261334210634,0.004208323545753956,5.995632091071457e-05,0.3115619719028473,0.4845842719078064,1.9719825983047485,4.05859375
344957,-0.004648935981094837,0.0044882651418447495,-0.00016687407332938164,0.301494836807251,0.4723964035511017,1.9558674097061157,4.05859375
344967,-0.004648935981094837,0.0044882651418447495,-0.00016687407332938164,0.301494836807251,0.4723964035511017,1.9558674097061157,4.05859375
344977,-0.0047800783067941666,0.004036910366266966,-9.742497059050947e-05,0.31632015109062195,0.47797662019729614,1.9711592197418213,4.05859375
344987,-0.004622063133865595,0.004360883496701717,-0.00010731018119258806,0.30897846817970276,0.47312018275260925,1.9592859745025635,4.05859375
344997,-0.004594455473124981,0.004395755007863045,-0.00010023835784522817,0.3100089430809021,0.4725947976112366,1.9561628103256226,4.05859375
345007,-0.004794868640601635,0.003988656215369701,-0.00012294718180783093,0.3215940594673157,0.48013192415237427,1.9769420623779297,4.05859375
345017,-0.004794868640601635,0.003988656215369701,-0.00012294718180783093,0.3215940594673157,0.48013192415237427,1.9769420623779297,4.05859375
345027,-0.004741431213915348,0.004228548612445593,-5.625499761663377e-05,0.31550779938697815,0.4802541136741638,1.9638476371765137,4.05859375
345037,-0.004992766305804253,0.0039779492653906345,-0.0002014795900322497,0.3198796510696411,0.4864543080329895,1.9843621253967285,4.05859375
345047,-0.004976664204150438,0.003999876789748669,-0.00020070915343239903,0.3208167552947998,0.4866514801979065,1.983290433883667,4.05859375
345057,-0.004946277942508459,0.004431602079421282,-5.3582731197820976e-05,0.3086247742176056,0.4840293228626251,1.970433235168457,4.05859375
345067,-0.004946277942508459,0.004431602079421282,-5.3582731197820976e-05,0.3086247742176056,0.4840293228626251,1.970433235168457,4.05859375
345077,-0.005074379500001669,0.004306897055357695,-0.00011811182776000351,0.311106413602829,0.48705819249153137,1.9795247316360474,4.05859375
345087,-0.004906660411506891,0.004362764302641153,-0.00027448462788015604,0.3099537193775177,0.48243412375450134,1.9665381908416748,4.05859375
345097,-0.004891046788543463,0.004398074932396412,-0.00027213047724217176,0.31029212474823,0.4849827289581299,1.9640557765960693,4.05859375
345107,-0.005015316419303417,0.004289634991437197,-0.0003605466918088496,0.31166011095046997,0.4879682660102844,1.983520746231079,4.05859375
345117,-0.004913803189992905,0.004567830357700586,-0.00035579060204327106,0.30138078331947327,0.4828866124153137,1.963707685470581,4.05859375
345127,-0.004895980004221201,0.004615020472556353,-0.00035572482738643885,0.30223339796066284,0.4839329719543457,1.9605042934417725,4.05859375
345137,-0.005058049224317074,0.004099484533071518,-0.00025792900123633444,0.313223272562027,0.49008598923683167,1.9721802473068237,4.05859375
345147,-0.005045984406024218,0.004128496162593365,-0.00025161405210383236,0.3123320937156677,0.48906147480010986,1.970035195350647,4.05859375
345157,-0.004942915868014097,0.004701041150838137,-0.000116737573989667,0.2976899743080139,0.4841207265853882,1.9600836038589478,4.05859375
345167,-0.004942915868014097,0.004701041150838137,-0.000116737573989667,0.2976899743080139,0.4841207265853882,1.9600836038589478,4.05859375
345177,-0.0049773817881941795,0.004311241675168276,5.078659887658432e-05,0.30453917384147644,0.48462504148483276,1.9677900075912476,4.05859375
345187,-0.004828859586268663,0.00453044380992651,2.9275563520059222e-06,0.2981353998184204,0.4791158139705658,1.955775260925293,4.05859375
345197,-0.004804777447134256,0.004583066329360008,1.7944550563697703e-05,0.29949814081192017,0.48000916838645935,1.9542958736419678,4.05859375
345207,-0.004960621707141399,0.004207329824566841,4.250005804351531e-05,0.31044691801071167,0.48533421754837036,1.9620428085327148,4.05859375
345217,-0.00494371959939599,0.004244132433086634,5.825512562296353e-05,0.31034132838249207,0.48540008068084717,1.961500883102417,4.05859375
345227,-0.0045906733721494675,0.00450852420181036,-0.00016208042507059872,0.3059089779853821,0.4741498529911041,1.953269600868225,4.05859375
345237,-0.004779118578881025,0.004083932843059301,-0.00015003044973127544,0.3160121738910675,0.48019173741340637,1.9574862718582153,4.05859375
345247,-0.004758614581078291,0.004110530484467745,-0.00013947751722298563,0.31650444865226746,0.48104655742645264,1.9553732872009277,4.05859375
345257,-0.00474715419113636,0.004482747986912727,1.0074123565573245e-05,0.3053130805492401,0.4796948730945587,1.942807912826538,4.05859375
345267,-0.004725887905806303,0.004522908478975296,3.0283066735137254e-05,0.304790198802948,0.4798871576786041,1.9407261610031128,4.05859375
345277,-0.004872483666986227,0.004267026204615831,1.1517497114255093e-05,0.3086787462234497,0.4834739565849304,1.9537911415100098,4.05859375
345287,-0.004629634320735931,0.0044135889038443565,-0.0001504183019278571,0.30449286103248596,0.4749973714351654,1.94759202003479,4.05859375
345297,-0.004601039923727512,0.004450913053005934,-0.00013986775593366474,0.30414655804634094,0.47516849637031555,1.9457828998565674,4.05859375
345307,-0.004677415359765291,0.004008046351373196,-1.584815800015349e-05,0.3182147741317749,0.47880369424819946,1.9626238346099854,4.05859375
345317,-0.004650650545954704,0.004024717956781387,3.214909156668e-06,0.3182985186576843,0.47965240478515625,1.9593799114227295,4.05859375
345327,-0.004478040616959333,0.004179165232926607,-7.715220999671146e-05,0.3146951198577881,0.47652071714401245,1.9475868940353394,4.05859375
345337,-0.004669256508350372,0.004005266819149256,-0.00021358576486818492,0.3187972605228424,0.48217979073524475,1.9498193264007568,4.05859375
345347,-0.004644256550818682,0.004020884167402983,-0.00020548570319078863,0.31857213377952576,0.48211321234703064,1.9486026763916016,4.05859375
345357,-0.004710192326456308,0.004535172134637833,7.890885171946138e-05,0.30251750349998474,0.4832291901111603,1.94688880443573,4.05859375
345367,-0.004690641537308693,0.004572954028844833,9.994096762966365e-05,0.30169346928596497,0.48325470089912415,1.9443327188491821,4.05859375
345377,-0.0050559635274112225,0.004346816800534725,-0.0001538036740384996,0.3060072660446167,0.49326545000076294,1.9688693284988403,4.05859375
345387,-0.004822444170713425,0.004394161514937878,-0.00037318491376936436,0.3035670220851898,0.48809152841567993,1.9577805995941162,4.05859375
345397,-0.004805885720998049,0.004425396677106619,-0.0003688473370857537,0.304273784160614,0.4873300790786743,1.9558964967727661,4.05859375
345407,-0.004868180025368929,0.004111950285732746,-0.00027985466294921935,0.3146727383136749,0.4913107454776764,1.9673612117767334,4.05859375
345417,-0.004854997154325247,0.00412765285000205,-0.0002680266334209591,0.3145311176776886,0.48932528495788574,1.9666333198547363,4.05859375
345427,-0.004800847731530666,0.0043261987157166,-0.00023290861281566322,0.31343528628349304,0.4885927438735962,1.9650346040725708,4.05859375
345437,-0.004871517885476351,0.003905497258529067,-0.00010293190280208364,0.32415997982025146,0.4924154281616211,1.975083351135254,4.05859375
345447,-0.004859834909439087,0.003907253500074148,-8.424526458838955e-05,0.3236413598060608,0.4919627010822296,1.9725830554962158,4.05859375
345457,-0.004686148837208748,0.004226012621074915,-0.00010666056186892092,0.3115513324737549,0.48462605476379395,1.9546196460723877,4.05859375
345467,-0.004665978252887726,0.004245900083333254,-8.787764818407595e-05,0.31245458126068115,0.485097736120224,1.953104019165039,4.05859375
345477,-0.004749391693621874,0.003873995039612055,-3.424607712076977e-06,0.32098326086997986,0.4867236316204071,1.9865092039108276,4.05859375
345487,-0.004586817231029272,0.0045210933312773705,0.00012720926315523684,0.302813857793808,0.47863876819610596,1.9739995002746582,4.05859375
345497,-0.0045576379634439945,0.0045617506839334965,0.00015633771545253694,0.301861435174942,0.4794524610042572,1.9715288877487183,4.05859375
345507,-0.004892416764050722,0.004163294564932585,1.6535916074644774e-05,0.3144281804561615,0.4928220212459564,1.9809528589248657,4.05859375
345517,-0.004878357984125614,0.004187194164842367,3.575201117200777e-05,0.31455373764038086,0.4926452338695526,1.9789718389511108,4.05859375
345527,-0.004645778331905603,0.004351854790002108,-0.00010825751814991236,0.3119959533214569,0.4849341809749603,1.964046597480774,4.05859375
345537,-0.004904904402792454,0.003928851801902056,-0.0001729584764689207,0.3229627311229706,0.4953826665878296,1.9789963960647583,4.05859375
345547,-0.00489296019077301,0.003939824644476175,-0.00016596069326624274,0.3231019675731659,0.49359330534935,1.977290391921997,4.05859375
345557,-0.004576841834932566,0.0044908165000379086,-0.000248128199018538,0.3056999742984772,0.4812868535518646,1.963926076889038,4.05859375
345567,-0.004548921715468168,0.004525391384959221,-0.0002480940893292427,0.30515190958976746,0.48111221194267273,1.9611527919769287,4.05859375
345577,-0.004697407130151987,0.004099779296666384,-0.00020604081510100514,0.31320902705192566,0.48396509885787964,1.9609495401382446,4.05859375
345587,-0.00464168144389987,0.004157285206019878,-0.00023375489399768412,0.31148913502693176,0.48228907585144043,1.9493145942687988,4.05859375
345597,-0.0046140337362885475,0.0041839368641376495,-0.00023207455524243414,0.311491459608078,0.48165246844291687,1.948507308959961,4.05859375
345607,-0.004643282387405634,0.003758493112400174,-7.135468331398442e-05,0.32401522994041443,0.4844604432582855,1.9695395231246948,4.05859375
345617,-0.0046166726388037205,0.00376657722517848,-5.946687451796606e-05,0.3241545259952545,0.48255103826522827,1.9673007726669312,4.05859375
345627,-0.0044754911214113235,0.004059797618538141,-5.8591853303369135e-05,0.3178466558456421,0.47949185967445374,1.956742763519287,4.05859375
345637,-0.004795728251338005,0.00387235963717103,-0.00032241514418274164,0.3232671320438385,0.49110472202301025,1.98466157913208,4.05859375
345647,-0.004779050126671791,0.0038794137071818113,-0.0003225929685868323,0.324512243270874,0.49023231863975525,1.9826637506484985,4.05859375
345657,-0.0048128035850822926,0.00426083616912365,-0.00013906368985772133,0.3118348717689514,0.4907965660095215,1.9647189378738403,4.05859375
345667,-0.004795217886567116,0.004284291993826628,-0.00013047328684478998,0.3117421567440033,0.4905727505683899,1.9632302522659302,4.05859375
345677,-0.00488702766597271,0.004024696070700884,-0.00010276360262650996,0.3163747191429138,0.49095067381858826,1.9782730340957642,4.05859375
345687,-0.00480933953076601,0.004446143284440041,-1.2066022918588715e-06,0.30469968914985657,0.48755189776420593,1.9539532661437988,4.05859375
345697,-0.004788461606949568,0.0044794692657887936,1.0280039532517549e-05,0.30424633622169495,0.4858964681625366,1.9506094455718994,4.05859375
345707,-0.004887967836111784,0.004164638463407755,4.9674679758027196e-05,0.31420207023620605,0.4887140393257141,1.9546217918395996,4.05859375
345717,-0.004867895506322384,0.004184065852314234,6.380295963026583e-05,0.3143916428089142,0.48889338970184326,1.9537938833236694,4.05859375
345727,-0.004620418418198824,0.004470299929380417,-4.996782445232384e-05,0.30993157625198364,0.4836845099925995,1.9508637189865112,4.05859375
345737,-0.0047461786307394505,0.004127581138163805,-3.3350788726238534e-05,0.31912532448768616,0.4888802468776703,1.9583103656768799,4.05859375
345747,-0.004722620826214552,0.004141079727560282,-2.4697754270164296e-05,0.31929391622543335,0.48876717686653137,1.9565331935882568,4.05859375
345757,-0.004671354778110981,0.004520588554441929,9.792534547159448e-05,0.30799293518066406,0.4879375994205475,1.949017882347107,4.05859375
345767,-0.004640413448214531,0.004554151091724634,0.00011241387255722657,0.305880606174469,0.48789331316947937,1.9474135637283325,4.05859375
345777,-0.005049385130405426,0.003910630941390991,1.1159897439938504e-05,0.31748533248901367,0.5002597570419312,1.9572416543960571,4.05859375
345787,-0.004790780134499073,0.004202261101454496,-0.00012306637654546648,0.30898672342300415,0.4916761517524719,1.946386694908142,4.05859375
345797,-0.004765294957906008,0.004227329511195421,-0.00011966093734372407,0.3090316653251648,0.4910871684551239,1.945353627204895,4.05859375
345807,-0.004878233186900616,0.004069780930876732,-0.0001842656929511577,0.31206396222114563,0.4943009912967682,1.9499869346618652,4.05859375
345817,-0.004855802748352289,0.0040928940288722515,-0.0001840361801441759,0.3118797540664673,0.49370118975639343,1.949232816696167,4.05859375
345827,-0.004713479895144701,0.004471696447581053,-0.0001602784323040396,0.3011384904384613,0.48833832144737244,1.929401159286499,4.05859375
345837,-0.004928974434733391,0.004193225875496864,-0.00026525428984314203,0.30841952562332153,0.4967944622039795,1.9440264701843262,4.05859375
345847,-0.004912945441901684,0.00422409363090992,-0.0002727452665567398,0.30783021450042725,0.49517861008644104,1.94231379032135,4.05859375
345857,-0.004957988392561674,0.004474091809242964,-0.0001464548404328525,0.30369287729263306,0.496003657579422,1.925106406211853,4.05859375
345867,-0.004945677705109119,0.004514698870480061,-0.00014842173550277948,0.30341672897338867,0.49624747037887573,1.924584150314331,4.05859375
345877,-0.005022296216338873,0.004087475594133139,-2.089935151161626e-05,0.31591156125068665,0.4993515908718109,1.9458403587341309,4.05859375
345887,-0.004872727207839489,0.004441965837031603,-2.920772021752782e-05,0.3036176860332489,0.49311572313308716,1.9338064193725586,4.05859375
345897,-0.004857831168919802,0.0044792937114834785,-2.164194665965624e-05,0.303254097700119,0.49498501420021057,1.932605504989624,4.05859375
345907,-0.005183565896004438,0.004198591224849224,-0.00021950855443719774,0.3096819519996643,0.5037332773208618,1.956714153289795,4.05859375
345917,-0.005176833365112543,0.004227341152727604,-0.0002188517973991111,0.3102344274520874,0.5044162273406982,1.9556962251663208,4.05859375
345927,-0.005100310314446688,0.004476785659790039,-0.000205091608222574,0.3041988015174866,0.5032658576965332,1.941765308380127,4.05859375
345937,-0.00524957524612546,0.004136173985898495,-0.00019377723219804466,0.3157005310058594,0.510267972946167,1.9721615314483643,4.05859375
345947,-0.005243952386081219,0.004159953910857439,-0.00019297210383228958,0.3152911961078644,0.5107826590538025,1.9708452224731445,4.05859375
345957,-0.005015634931623936,0.004619935993105173,-0.00024115700216498226,0.3048809766769409,0.5035344362258911,1.9403550624847412,4.05859375
345967,-0.0050037032924592495,0.004657228011637926,-0.0002430160966468975,0.30484989285469055,0.5031871795654297,1.938534140586853,4.05859375
345977,-0.005333262030035257,0.0038155969232320786,-0.00016249508189503103,0.3294368088245392,0.5145303606987,1.956566333770752,4.05859375
345987,-0.0049956380389630795,0.004217765759676695,-0.00034804377355612814,0.3162800967693329,0.5013793706893921,1.9512503147125244,4.05859375
345997,-0.0049855769611895084,0.004241740796715021,-0.00035665949690155685,0.3154689073562622,0.501670241355896,1.9507122039794922,4.05859375
346007,-0.004807398654520512,0.00399932311847806,-7.88150864536874e-05,0.3200747072696686,0.49472174048423767,1.9669548273086548,4.05859375
346017,-0.004787540063261986,0.004015900194644928,-7.608671876369044e-05,0.3191183805465698,0.49270734190940857,1.9649008512496948,4.05859375
346027,-0.004610191565006971,0.0044623916037380695,-6.643425876973197e-05,0.3061957359313965,0.4853450655937195,1.9478951692581177,4.05859375
346037,-0.005048742983490229,0.004092649556696415,-0.00034974439768120646,0.3181510865688324,0.5034194588661194,1.9687143564224243,4.05859375
346047,-0.005044125951826572,0.004113060422241688,-0.0003639314090833068,0.3195129632949829,0.5033513307571411,1.9666956663131714,4.05859375
346057,-0.0049607413820922375,0.00475228251889348,-0.0002102662401739508,0.30558550357818604,0.5023969411849976,1.9546751976013184,4.05859375
346067,-0.00495530292391777,0.004794199485331774,-0.00021612722775898874,0.30592459440231323,0.5017628073692322,1.95331871509552,4.05859375
346077,-0.005129283294081688,0.004293639212846756,-0.00013412559928838164,0.3195246458053589,0.5080702900886536,1.9679323434829712,4.05859375
346087,-0.004967734683305025,0.004631783347576857,-0.00017385916726198047,0.30868470668792725,0.5009703040122986,1.95390784740448,4.05859375
346097,-0.0049605220556259155,0.0046677603386342525,-0.0001731482770992443,0.3079182505607605,0.5006226301193237,1.9522901773452759,4.05859375
346107,-0.0050514028407633305,0.004388516303151846,-0.00012390504707582295,0.3128180503845215,0.5024306178092957,1.9660241603851318,4.05859375
346117,-0.005045173689723015,0.004415185656398535,-0.00012459864956326783,0.31207600235939026,0.5016882419586182,1.9646759033203125,4.05859375
346127,-0.004872708581387997,0.004522489383816719,-0.00027322463574819267,0.30823561549186707,0.496677041053772,1.9448866844177246,4.05859375
346137,-0.004919075407087803,0.003969782032072544,-5.563448212342337e-05,0.3242778778076172,0.49998047947883606,1.9654628038406372,4.05859375
346147,-0.004909120034426451,0.003976191394031048,-4.882569919573143e-05,0.3231722116470337,0.5006824135780334,1.9620959758758545,4.05859375
346157,-0.004561806563287973,0.0043209269642829895,-0.00024220887280534953,0.3163009285926819,0.4915342628955841,1.9502406120300293,4.05859375
346167,-0.004540535621345043,0.0043380847200751305,-0.0002430606255074963,0.31579792499542236,0.49113935232162476,1.9484095573425293,4.05859375
346177,-0.004803705494850874,0.00405915779992938,-0.00040425837505608797,0.3218555450439453,0.4983130693435669,1.9657098054885864,4.05859375
346187,-0.004786255769431591,0.004561199806630611,-0.00022672396153211594,0.3061889410018921,0.4967312514781952,1.9515595436096191,4.05859375
346197,-0.004774967674165964,0.004587378352880478,-0.00022429379168897867,0.30592095851898193,0.4967740476131439,1.9503693580627441,4.05859375
346207,-0.0049464767798781395,0.004008046351373196,-0.00010552286403253675,0.3174678683280945,0.5016584992408752,1.9652950763702393,4.05859375
346217,-0.004939571022987366,0.0040162550285458565,-9.895296534523368e-05,0.3161972463130951,0.5003088116645813,1.9633616209030151,4.05859375
346227,-0.004827775526791811,0.004530551843345165,5.235789558355464e-06,0.3016846776008606,0.4948637783527374,1.937438726425171,4.05859375
346237,-0.004982217215001583,0.004069515038281679,8.154273382388055e-05,0.31547343730926514,0.5004506707191467,1.962795376777649,4.05859375
346247,-0.004974706098437309,0.004079604987055063,9.687637793831527e-05,0.31581273674964905,0.49965834617614746,1.9610767364501953,4.05859375
346257,-0.004771665204316378,0.004352552350610495,2.325543755432591e-05,0.31523871421813965,0.4986021816730499,1.9591734409332275,4.05859375
346267,-0.004758046939969063,0.004372508730739355,3.652981104096398e-05,0.31477800011634827,0.4973120093345642,1.9573997259140015,4.05859375
346277,-0.005017113406211138,0.00420983275398612,-0.00015831769269425422,0.318683385848999,0.5045065879821777,1.955174446105957,4.05859375
346287,-0.004903961904346943,0.004660369828343391,-9.478743595536798e-05,0.30201661586761475,0.5006086826324463,1.9319562911987305,4.05859375
346297,-0.0048972745425999165,0.004695652984082699,-8.68188071763143e-05,0.3010740280151367,0.4999307692050934,1.9305768013000488,4.05859375
346307,-0.004868326708674431,0.004292381461709738,0.00015497443382628262,0.3084067404270172,0.497298002243042,1.9491904973983765,4.05859375
346317,-0.004858409520238638,0.004315842874348164,0.00017413808382116258,0.30839720368385315,0.49745866656303406,1.9478520154953003,4.05859375
346327,-0.004485430661588907,0.004496061708778143,-0.0001086009360733442,0.30348461866378784,0.4870072305202484,1.9344596862792969,4.05859375
346337,-0.004751977976411581,0.003902277210727334,-9.400817361893132e-05,0.32174167037010193,0.4982970654964447,1.9535247087478638,4.05859375
346347,-0.004742192570120096,0.003908173181116581,-8.623890607850626e-05,0.3209955394268036,0.4968684911727905,1.9500571489334106,4.05859375
346357,-0.004635303281247616,0.004190155770629644,-7.987299613887444e-05,0.31538712978363037,0.4934411346912384,1.9351187944412231,4.05859375
346368,-0.004623418673872948,0.004204513505101204,-7.290379289770499e-05,0.31553173065185547,0.49432700872421265,1.9337222576141357,4.05859375
346377,-0.004851833451539278,0.0039452556520700455,-0.00018636809545569122,0.32411473989486694,0.5018730163574219,1.9584541320800781,4.05859375
346387,-0.0046873572282493114,0.004415689967572689,-0.00016556424088776112,0.30819395184516907,0.49461624026298523,1.9417756795883179,4.05859375
346397,-0.004675296600908041,0.004440635442733765,-0.0001604757853783667,0.30845144391059875,0.49282917380332947,1.9402179718017578,4.05859375
346407,-0.005011554341763258,0.003980593290179968,-0.0002776270848698914,0.3176417052745819,0.5023642778396606,1.9566906690597534,4.05859375
346418,-0.005011309869587421,0.003991859499365091,-0.0002770038554444909,0.31833943724632263,0.5035349726676941,1.9550162553787231,4.05859375
346427,-0.0049207257106900215,0.004494412336498499,-0.0001727051130728796,0.3045594394207001,0.4994104504585266,1.927454948425293,4.05859375
346437,-0.005012725945562124,0.0040794722735881805,-5.663709816872142e-05,0.31822842359542847,0.5025153160095215,1.967537522315979,4.05859375
346447,-0.0050108954310417175,0.0040931119583547115,-3.9045928133418784e-05,0.31840136647224426,0.5026838779449463,1.9651110172271729,4.05859375
346457,-0.004797781817615032,0.004626895766705275,-2.6133740902878344e-05,0.307474821805954,0.49609464406967163,1.9466372728347778,4.05859375
346468,-0.00478756008669734,0.004656799603253603,-8.322313078679144e-06,0.3090774118900299,0.4959636926651001,1.9449809789657593,4.05859375
346477,-0.0051120282150805,0.004191699903458357,-9.710380982141942e-05,0.32162046432495117,0.5059001445770264,1.9679431915283203,4.05859375
346487,-0.004929852671921253,0.004635623190551996,-0.00010278289119014516,0.306946724653244,0.4994637966156006,1.9437671899795532,4.05859375
346497,-0.004924407694488764,0.004665999673306942,-9.018721902975813e-05,0.306387335062027,0.499299556016922,1.9421309232711792,4.05859375
346507,-0.004952356219291687,0.004278641194105148,7.833094423403963e-05,0.31410935521125793,0.4979238510131836,1.9476571083068848,4.05859375
346518,-0.004946229979395866,0.004296484403312206,9.968401718651876e-05,0.3139975666999817,0.4980878233909607,1.946995735168457,4.05859375
346527,-0.004790017381310463,0.004482381511479616,3.4232383768539876e-05,0.3074224591255188,0.4932817220687866,1.9243155717849731,4.05859375
346537,-0.005012514069676399,0.004169428255409002,-3.0346538551384583e-05,0.3149124085903168,0.5025821328163147,1.9336482286453247,4.05859375
346547,-0.005010420922189951,0.004185855854302645,-1.3426095392787829e-05,0.3166016638278961,0.5024288892745972,1.9319193363189697,4.05859375
346557,-0.004657356534153223,0.004563735332340002,-0.00020712512196041644,0.3095265030860901,0.4947994649410248,1.9299618005752563,4.05859375
346568,-0.004642914980649948,0.004591241013258696,-0.00019693709327839315,0.3088497221469879,0.49456408619880676,1.9278427362442017,4.05859375
346577,-0.0048209368251264095,0.003964021801948547,-6.865825707791373e-05,0.32658258080482483,0.5014101266860962,1.9542982578277588,4.05859375
346587,-0.004520376678556204,0.004449124913662672,-0.00015582308697048575,0.31065621972084045,0.48956793546676636,1.9466453790664673,4.05859375
346597,-0.004498799331486225,0.0044728172942996025,-0.00014299475878942758,0.30970215797424316,0.4900889992713928,1.9451707601547241,4.05859375
346607,-0.004677766002714634,0.00407512579113245,-0.00014305931108538061,0.31694790720939636,0.49552902579307556,1.9451141357421875,4.05859375
346617,-0.00465955538675189,0.004089354071766138,-0.00013092691369820386,0.317008376121521,0.49447670578956604,1.9427748918533325,4.05859375
346627,-0.004627566318958998,0.00442162062972784,-1.1200547305634245e-05,0.3067503273487091,0.49227234721183777,1.9255508184432983,4.05859375
346637,-0.004707806743681431,0.004166389815509319,2.1458057744894177e-05,0.31285956501960754,0.4954310953617096,1.9302418231964111,4.05859375
346647,-0.0046882713213562965,0.004184352699667215,3.959987225243822e-05,0.31338295340538025,0.4932347238063812,1.9288034439086914,4.05859375
346657,-0.004499181639403105,0.0043936423026025295,-4.4785523641621694e-05,0.3081911504268646,0.48841392993927,1.9111461639404297,4.05859375
346668,-0.004471098072826862,0.004417546559125185,-3.112936610705219e-05,0.3077984154224396,0.48733124136924744,1.9090708494186401,4.05859375
346677,-0.004781095311045647,0.004141143057495356,-0.00023329588293563575,0.3137279152870178,0.4971309304237366,1.924864649772644,4.05859375
346687,-0.00481003662571311,0.004376159980893135,-0.00010532276064623147,0.30636319518089294,0.4973064064979553,1.906973123550415,4.05859375
346697,-0.004794097039848566,0.0043997736647725105,-9.330101602245122e-05,0.3061394989490509,0.4962806701660156,1.9048705101013184,4.05859375
346707,-0.004852386191487312,0.00409078411757946,-1.258635165868327e-05,0.3134610950946808,0.49724602699279785,1.927681565284729,4.05859375
346718,-0.0048376391641795635,0.004101356025785208,2.663240593392402e-06,0.3135221600532532,0.49682921171188354,1.9257076978683472,4.05859375
346727,-0.004743607249110937,0.004397121258080006,4.6825065510347486e-05,0.3049110472202301,0.4938111901283264,1.9038935899734497,4.05859375
346737,-0.004897937644273043,0.004220122937113047,-3.239668149035424e-05,0.3074266016483307,0.49761271476745605,1.9114753007888794,4.05859375
346747,-0.004885308910161257,0.004238821566104889,-1.8473176169209182e-05,0.30718305706977844,0.49672308564186096,1.9106450080871582,4.05859375
346757,-0.0048025525175035,0.004586547147482634,5.244789645075798e-05,0.29699406027793884,0.4938570559024811,1.8887704610824585,4.05859375
346768,-0.004784802906215191,0.004621300380676985,6.58002682030201e-05,0.2963658571243286,0.49530646204948425,1.8874485492706299,4.05859375
346777,-0.005034074652940035,0.004078335594385862,8.379826613236219e-05,0.31154000759124756,0.5054633021354675,1.894166350364685,4.05859375
346787,-0.004822235554456711,0.004451873246580362,3.4119617339456454e-05,0.3028770089149475,0.5007071495056152,1.8775330781936646,4.05859375
346797,-0.0048100389540195465,0.004475980531424284,4.183056080364622e-05,0.30258119106292725,0.5013250112533569,1.8736642599105835,4.05859375
346807,-0.005003802012652159,0.003974253311753273,9.07011708477512e-05,0.3166506588459015,0.5081255435943604,1.8887587785720825,4.05859375
346818,-0.005001725163310766,0.003980592824518681,9.961008618120104e-05,0.3159043490886688,0.5075439810752869,1.8876746892929077,4.05859375
346827,-0.004880524706095457,0.004324335604906082,0.00011829774302896112,0.3055155277252197,0.5037294030189514,1.873157262802124,4.05859375
346837,-0.004988000728189945,0.004214130342006683,5.555625102715567e-05,0.3079223036766052,0.5055677890777588,1.8765032291412354,4.05859375
346847,-0.004980395082384348,0.004232898820191622,6.12732328590937e-05,0.3069029450416565,0.5053018927574158,1.8746731281280518,4.05859375
346857,-0.004779845476150513,0.004591007716953754,6.174601367092691e-06,0.2968173623085022,0.49781495332717896,1.859211802482605,4.05859375
346868,-0.00476490193977952,0.0046253930777311325,7.668268153793178e-06,0.2959963083267212,0.4965066909790039,1.8575319051742554,4.05859375
346877,-0.004874942358583212,0.004246292170137167,6.94886184646748e-05,0.30713677406311035,0.49958860874176025,1.8752706050872803,4.05859375
346887,-0.0047471304424107075,0.004446379374712706,2.2843685655971058e-05,0.3016437292098999,0.4962962567806244,1.8544042110443115,4.05859375
346897,-0.004730930086225271,0.004473784472793341,2.5874209313769825e-05,0.3008347749710083,0.4950393736362457,1.8529030084609985,4.05859375
346907,-0.00493875565007329,0.004255441017448902,-0.00010493596346350387,0.3055163323879242,0.5015631914138794,1.8750718832015991,4.05859375
346918,-0.00493104150518775,0.004274742212146521,-0.0001053735104505904,0.30464881658554077,0.5007266998291016,1.8737760782241821,4.05859375
346927,-0.0048432243056595325,0.0045542907901108265,-9.17203797143884e-05,0.29517367482185364,0.4969615340232849,1.8514765501022339,4.05859375
346937,-0.004794123582541943,0.004273711238056421,8.770210115471855e-05,0.30080342292785645,0.4942798316478729,1.8583786487579346,4.05859375
346947,-0.0047777509316802025,0.004294559359550476,9.866155596682802e-05,0.3001300096511841,0.49220922589302063,1.8569945096969604,4.05859375
346957,-0.00465870788320899,0.0042964741587638855,-5.858059012098238e-06,0.29973310232162476,0.49103501439094543,1.8543553352355957,4.05859375
346968,-0.004636985715478659,0.004317191429436207,5.465881258714944e-07,0.29928308725357056,0.4915027320384979,1.8533048629760742,4.05859375
346977,-0.005051522981375456,0.0038103291299194098,-0.00018744585395324975,0.3129502534866333,0.5056782960891724,1.881787896156311,4.05859375
346987,-0.004958422854542732,0.004220628645271063,-0.00012611522106453776,0.30402570962905884,0.5039876103401184,1.8689990043640137,4.05859375
346997,-0.004955520387738943,0.004233547020703554,-0.00012552563566714525,0.3028033673763275,0.5038214921951294,1.8674653768539429,4.05859375
347007,-0.005018116440623999,0.004033135715872049,-9.899027645587921e-05,0.30889272689819336,0.5046764612197876,1.905752420425415,4.05859375
347018,-0.005018116440623999,0.004033135715872049,-9.899027645587921e-05,0.30889272689819336,0.5046764612197876,1.905752420425415,4.06640625
347027,-0.004816689994186163,0.004543031100183725,-9.625365782994777e-05,0.2930833101272583,0.49661698937416077,1.904569149017334,4.06640625
347037,-0.005006085615605116,0.004263979848474264,-0.0001520677178632468,0.298583984375,0.5019940137863159,1.918704628944397,4.05859375
347047,-0.005002233199775219,0.004284912720322609,-0.00014891489990986884,0.2995145916938782,0.5019585490226746,1.9169304370880127,4.05859375
347057,-0.004829500336199999,0.0045593553222715855,-0.00022331181389745325,0.29127219319343567,0.4949384331703186,1.9025980234146118,4.05859375
347068,-0.0048160734586417675,0.004594749305397272,-0.00022367578640114516,0.2909241020679474,0.4951076805591583,1.9007890224456787,4.05859375
347077,-0.005067727994173765,0.004092880059033632,-0.0002357905759708956,0.3068459630012512,0.5060245990753174,1.9346240758895874,4.05859375
347087,-0.004986372776329517,0.004374287091195583,-0.00021574374113697559,0.3017369210720062,0.5014969706535339,1.920072317123413,4.05859375
347097,-0.0049806260503828526,0.004398461431264877,-0.00021131600078660995,0.30114510655403137,0.5010682940483093,1.9174531698226929,4.06640625
347107,-0.005057180300354958,0.0040201833471655846,-9.180874621961266e-05,0.3121989965438843,0.503135621547699,1.9379703998565674,4.05859375
347118,-0.005057180300354958,0.0040201833471655846,-9.180874621961266e-05,0.3121989965438843,0.503135621547699,1.9379703998565674,4.05859375
347127,-0.004747243132442236,0.004314247518777847,-0.0002746101818047464,0.30459532141685486,0.49267101287841797,1.9250327348709106,4.05859375
347137,-0.004729542415589094,0.003993440419435501,-0.00011101725976914167,0.31064078211784363,0.4910372793674469,1.9369685649871826,4.06640625
347147,-0.004710382781922817,0.004012024030089378,-0.00010157522046938539,0.31049978733062744,0.4906747341156006,1.9344191551208496,4.06640625
347157,-0.004652728326618671,0.004292814526706934,-3.585713420761749e-05,0.3031022846698761,0.48954373598098755,1.9292429685592651,4.05859375
347168,-0.004629903938621283,0.004323521628975868,-2.3697961296420544e-05,0.30234163999557495,0.4897386133670807,1.9265403747558594,4.05859375
347177,-0.004873105324804783,0.004110401030629873,-0.00017614710668567568,0.3085554838180542,0.4991508424282074,1.9352917671203613,4.05859375
347187,-0.004698880948126316,0.004291011486202478,-0.0002814692270476371,0.303997278213501,0.49385231733322144,1.9259194135665894,4.05859375
347197,-0.004682615865021944,0.004321230575442314,-0.0002795826003421098,0.3049843907356262,0.49451640248298645,1.9241740703582764,4.05859375
347207,-0.004794823471456766,0.003929252736270428,-0.00020497517834883183,0.3169875144958496,0.500469982624054,1.9441587924957275,4.05859375
347218,-0.004781645257025957,0.00394555414095521,-0.00020152416254859418,0.31725290417671204,0.4989749491214752,1.9413549900054932,4.05859375
347227,-0.004583907313644886,0.004404780454933643,-0.00021402427228167653,0.30283984541893005,0.49123677611351013,1.9339803457260132,4.05859375
347237,-0.004797401372343302,0.0038968082517385483,-0.0001964391121873632,0.31436875462532043,0.4988102316856384,1.9667552709579468,4.05859375
347247,-0.004782596603035927,0.003917216323316097,-0.00019467536185402423,0.3155745565891266,0.49910736083984375,1.9650521278381348,4.05859375
347257,-0.004637941252440214,0.0044865794479846954,-0.00011582505976548418,0.29964908957481384,0.4928430914878845,1.9482824802398682,4.05859375
347269,-0.004618422593921423,0.004531602840870619,-0.00011191827798029408,0.3009740114212036,0.4916890561580658,1.9469501972198486,4.05859375
347277,-0.004828492179512978,0.004135949071496725,-0.00013270309136714786,0.3118724822998047,0.49943867325782776,1.951080083847046,4.05859375
347287,-0.0048280577175319195,0.004410143010318279,-3.4407123166602105e-05,0.3056141436100006,0.49910515546798706,1.9358850717544556,4.05859375
347297,-0.004818278830498457,0.004444228019565344,-2.8987466066610068e-05,0.3048687279224396,0.49719831347465515,1.9338045120239258,4.05859375
347307,-0.004988923203200102,0.004088568035513163,-2.9118584279785864e-05,0.3157745599746704,0.5025953054428101,1.9563357830047607,4.05859375
347319,-0.00498749315738678,0.00410857331007719,-2.4276696422020905e-05,0.3159402906894684,0.5039787888526917,1.9544228315353394,4.05859375
347327,-0.004786927253007889,0.004503912292420864,-7.325180195039138e-05,0.30203500390052795,0.49538707733154297,1.9352704286575317,4.05859375
347337,-0.0049184467643499374,0.004060950130224228,1.7250233213417232e-05,0.3108132481575012,0.49845677614212036,1.953316569328308,4.05859375
347347,-0.0049117086455225945,0.004090602975338697,2.2695559891872108e-05,0.3115285634994507,0.49623867869377136,1.9523556232452393,4.06640625
347357,-0.0047514294274151325,0.004523453302681446,3.3423853892600164e-05,0.2979336380958557,0.4899192452430725,1.9367399215698242,4.05859375
347369,-0.004739041905850172,0.004572239704430103,3.917855428881012e-05,0.2974996864795685,0.4898522198200226,1.9354498386383057,4.05859375
347377,-0.005065008532255888,0.004056036937981844,-3.4968365071108565e-05,0.3144437074661255,0.5014661550521851,1.9388837814331055,4.05859375
347387,-0.004907482769340277,0.0043298304080963135,-9.679234062787145e-05,0.309812068939209,0.49627333879470825,1.9301918745040894,4.05859375
347397,-0.004906871356070042,0.004402318969368935,-9.082966425921768e-05,0.309926301240921,0.49629464745521545,1.926602840423584,4.05859375
347407,-0.005235130898654461,0.004198287148028612,-0.0003266511484980583,0.31696653366088867,0.507499635219574,1.9606103897094727,4.05859375
