time.ms,stateEstimate.x,stateEstimate.y,stateEstimate.z,stabilizer.roll,stabilizer.pitch,stabilizer.yaw,pm.vbat
2232041,-0.5108394026756287,-0.49629446864128113,0.0038918741047382355,-0.2180711179971695,0.8756043910980225,3.087775468826294,3.2890625
2232051,-0.5095328688621521,-0.4932582974433899,0.003589523956179619,-0.2196059226989746,0.9407069683074951,3.1686270236968994,3.298828125
2232061,-0.5095328688621521,-0.4932582974433899,0.003589523956179619,-0.2196059226989746,0.9407069683074951,3.1686270236968994,3.3203125
2232071,-0.5111880302429199,-0.4950433671474457,0.007330636028200388,-0.11861792951822281,1.0959383249282837,3.2002429962158203,3.330078125
2232081,-0.5093890428543091,-0.4918655753135681,0.007987488061189651,-0.1314948946237564,0.9068581461906433,3.2688868045806885,3.330078125
2232091,-0.5095236301422119,-0.4915018081665039,0.009707159362733364,-0.07048722356557846,0.665557324886322,3.287777900695801,3.345703125
2232101,-0.5114150047302246,-0.49384593963623047,0.013251185417175293,0.05905377119779587,0.48227113485336304,3.264493227005005,3.357421875
2232111,-0.5114150047302246,-0.49384593963623047,0.013251185417175293,0.05905377119779587,0.48227113485336304,3.264493227005005,3.3671875
2232121,-0.5106191039085388,-0.4895767867565155,0.015446070581674576,-0.06136590987443924,0.02152509056031704,3.4078009128570557,3.3828125
2232131,-0.5127233862876892,-0.49144425988197327,0.01969408430159092,-0.0396578423678875,-0.026920191943645477,3.4170894622802734,3.388671875
2232141,-0.5129627585411072,-0.49112066626548767,0.02225104346871376,-0.06845463067293167,-0.07757963985204697,3.452411651611328,3.3984375
2232151,-0.5109725594520569,-0.487166166305542,0.02353399433195591,-0.14082953333854675,-0.19220897555351257,3.5366697311401367,3.3984375
2232161,-0.5109725594520569,-0.487166166305542,0.02353399433195591,-0.14082953333854675,-0.19220897555351257,3.5366697311401367,3.404296875
2232171,-0.5121949911117554,-0.48923227190971375,0.029706373810768127,0.17287848889827728,-0.15866181254386902,3.5721423625946045,3.41015625
2232181,-0.510460376739502,-0.4859064817428589,0.03158401697874069,0.2687733471393585,-0.21373538672924042,3.662897825241089,3.416015625
2232191,-0.5105511546134949,-0.48549890518188477,0.03454449027776718,0.42387914657592773,-0.24225395917892456,3.716905117034912,3.416015625
2232201,-0.5122562050819397,-0.4877784848213196,0.03906326740980148,0.641372561454773,-0.22034841775894165,3.7087907791137695,3.416015625
2232211,-0.5122562050819397,-0.4877784848213196,0.03906326740980148,0.641372561454773,-0.22034841775894165,3.7087907791137695,3.419921875
2232221,-0.5112093687057495,-0.4828440845012665,0.04257795959711075,0.7245043516159058,-0.32605525851249695,3.821906328201294,3.42578125
2232231,-0.5132114291191101,-0.484954833984375,0.04748573154211044,0.8396306037902832,-0.2926955223083496,3.801903009414673,3.42578125
2232241,-0.5133340358734131,-0.4846181869506836,0.05058972164988518,0.858788013458252,-0.31101226806640625,3.8088748455047607,3.42578125
2232251,-0.5112583637237549,-0.48028865456581116,0.051899198442697525,0.7519797682762146,-0.40216583013534546,3.876643657684326,3.42578125
2232261,-0.5112583637237549,-0.48028865456581116,0.051899198442697525,0.7519797682762146,-0.40216583013534546,3.876643657684326,3.42578125
2232271,-0.5122946500778198,-0.4833272099494934,0.05837542936205864,0.8780518770217896,-0.34725096821784973,3.8256566524505615,3.42578125
2232281,-0.5101194977760315,-0.4796096682548523,0.06008360907435417,0.8344662189483643,-0.4237167537212372,3.849536657333374,3.42578125
2232291,-0.5100702047348022,-0.4792719781398773,0.0628841370344162,0.8862817883491516,-0.43781930208206177,3.8271260261535645,3.42578125
2232301,-0.5118190050125122,-0.4812903106212616,0.06743480265140533,1.034410834312439,-0.40310025215148926,3.7346725463867188,3.42578125
2232311,-0.5118190050125122,-0.4812903106212616,0.06743480265140533,1.034410834312439,-0.40310025215148926,3.7346725463867188,3.419921875
2232321,-0.510051429271698,-0.47740548849105835,0.06897825002670288,1.0709577798843384,-0.4990544617176056,3.7405314445495605,3.419921875
2232331,-0.5117323398590088,-0.47982877492904663,0.07326332479715347,1.2421948909759521,-0.48378217220306396,3.647313117980957,3.42578125
2232341,-0.511746346950531,-0.47970065474510193,0.07583482563495636,1.2937028408050537,-0.5532459616661072,3.612527847290039,3.419921875
2232351,-0.510617733001709,-0.474793016910553,0.07500186562538147,1.1844958066940308,-0.6816664338111877,3.64719820022583,3.419921875
2232361,-0.5105410814285278,-0.4744941294193268,0.07718948274850845,1.2248955965042114,-0.7559627890586853,3.6175782680511475,3.41015625
2232371,-0.5123172998428345,-0.47682371735572815,0.08108404278755188,1.3039484024047852,-0.7640709280967712,3.569580316543579,3.404296875
2232381,-0.510283887386322,-0.47250810265541077,0.08108551800251007,1.2002928256988525,-0.8518476486206055,3.6095080375671387,3.404296875
2232391,-0.5101315975189209,-0.47218745946884155,0.08293728530406952,1.2039581537246704,-0.807310163974762,3.5989677906036377,3.404296875
2232401,-0.5114321112632751,-0.47515085339546204,0.08594348281621933,1.318900465965271,-0.6674884557723999,3.558306932449341,3.3984375
2232411,-0.5113255381584167,-0.47503095865249634,0.08765880763530731,1.3378697633743286,-0.558860719203949,3.547431468963623,3.39453125
2232421,-0.5090133547782898,-0.47104671597480774,0.08765551447868347,1.292802095413208,-0.49956774711608887,3.585465431213379,3.388671875
2232431,-0.5108324289321899,-0.4739358127117157,0.0911058709025383,1.4146993160247803,-0.3062777817249298,3.509734869003296,3.3828125
2232441,-0.5107060074806213,-0.4739118814468384,0.09257181733846664,1.4272948503494263,-0.2028016299009323,3.4740242958068848,3.3828125
2232451,-0.5088222026824951,-0.4693569839000702,0.0913650169968605,1.303192138671875,-0.21998383104801178,3.493364095687866,3.37890625
2232461,-0.5085892081260681,-0.46918463706970215,0.09252440184354782,1.3151453733444214,-0.1958208531141281,3.465829372406006,3.37890625
2232471,-0.5105746388435364,-0.47171303629875183,0.09586925804615021,1.381879210472107,-0.15622128546237946,3.388143301010132,3.373046875
2232481,-0.5080947875976562,-0.4674578309059143,0.09512552618980408,1.2985126972198486,-0.2925761342048645,3.41583514213562,3.3671875
2232491,-0.5078102350234985,-0.4672674834728241,0.09603522717952728,1.3396862745285034,-0.3617270588874817,3.399130344390869,3.3671875
2232501,-0.5092843770980835,-0.4707358181476593,0.0984393060207367,1.5160138607025146,-0.35871654748916626,3.3377058506011963,3.3671875
2232511,-0.509070634841919,-0.47076526284217834,0.09930448234081268,1.570574164390564,-0.4104307293891907,3.3110129833221436,3.36328125
2232521,-0.5065326690673828,-0.46639007329940796,0.09812839329242706,1.533779263496399,-0.4912331998348236,3.3263027667999268,3.36328125
2232531,-0.5081731081008911,-0.4691240191459656,0.10078959912061691,1.6441714763641357,-0.3976629972457886,3.2347006797790527,3.357421875
2232541,-0.5079343914985657,-0.4692351818084717,0.10154041647911072,1.6422221660614014,-0.33886227011680603,3.1946420669555664,3.3515625
2232551,-0.5057908296585083,-0.4649845361709595,0.09994956105947495,1.4998116493225098,-0.3350245952606201,3.1912941932678223,3.3515625
2232561,-0.5054352283477783,-0.4649655818939209,0.10050266981124878,1.464428186416626,-0.23217521607875824,3.158156394958496,3.3515625
2232571,-0.5071651339530945,-0.46848809719085693,0.10299007594585419,1.486747145652771,-0.09898146241903305,3.0682590007781982,3.345703125
2232581,-0.5045045614242554,-0.4645150303840637,0.10188721120357513,1.3276166915893555,-0.108905129134655,3.076612949371338,3.345703125
2232591,-0.504089891910553,-0.4645201563835144,0.10237478464841843,1.2823491096496582,-0.055939193814992905,3.0439233779907227,3.3515625
2232601,-0.5058411955833435,-0.46769633889198303,0.1050155758857727,1.3423079252243042,0.046021174639463425,2.9740710258483887,3.345703125
2232611,-0.5055238604545593,-0.46790075302124023,0.10559467226266861,1.310491919517517,0.04043915495276451,2.948455572128296,3.3515625
2232621,-0.5025689005851746,-0.4635571241378784,0.10431645065546036,1.2181793451309204,-0.03995262086391449,2.9870176315307617,3.3515625
2232631,-0.50421142578125,-0.4668477475643158,0.1068125069141388,1.321113109588623,0.019322214648127556,2.9422593116760254,3.3515625
2232641,-0.5038859248161316,-0.46714046597480774,0.10739342868328094,1.3464372158050537,0.01768634468317032,2.9355015754699707,3.345703125
2232651,-0.5015090107917786,-0.46301329135894775,0.10575956106185913,1.2783169746398926,-0.049790967255830765,2.974555492401123,3.345703125
2232662,-0.5010717511177063,-0.4631674289703369,0.10625090450048447,1.3519761562347412,0.0068457177840173244,2.96976900100708,3.345703125
2232671,-0.5027846097946167,-0.46620050072669983,0.1089157983660698,1.4800746440887451,0.1289638727903366,2.917280912399292,3.345703125
2232681,-0.49997851252555847,-0.4622003734111786,0.1077437773346901,1.418265700340271,0.13059349358081818,2.947634220123291,3.345703125
2232691,-0.4994944632053375,-0.4623522460460663,0.10827372968196869,1.4312777519226074,0.21972213685512543,2.9342541694641113,3.345703125
2232701,-0.501252293586731,-0.4656292796134949,0.11108998209238052,1.5045642852783203,0.3876819908618927,2.8353476524353027,3.345703125
2232712,-0.5008798837661743,-0.46598491072654724,0.11175487190485,1.4318859577178955,0.4658694565296173,2.8188533782958984,3.345703125
2232721,-0.4981788396835327,-0.4620506465435028,0.11056865751743317,1.258307695388794,0.47272542119026184,2.857067108154297,3.3515625
2232731,-0.49965304136276245,-0.46584218740463257,0.11300995945930481,1.2779854536056519,0.5802898406982422,2.7835934162139893,3.357421875
2232741,-0.4993096888065338,-0.46631941199302673,0.11376042664051056,1.1825153827667236,0.5901938676834106,2.7808837890625,3.357421875
2232751,-0.49703752994537354,-0.46191880106925964,0.11179675906896591,0.9877716302871704,0.5087296366691589,2.82475209236145,3.357421875
2232761,-0.49659979343414307,-0.4622257649898529,0.11242528259754181,0.9693264961242676,0.5170150399208069,2.8246095180511475,3.36328125
2232771,-0.49854910373687744,-0.46515825390815735,0.11555898189544678,1.024957299232483,0.5766310691833496,2.7626712322235107,3.357421875
2232781,-0.49598172307014465,-0.46137839555740356,0.1144198477268219,0.9416669011116028,0.5094006061553955,2.7887861728668213,3.357421875
2232791,-0.4955405592918396,-0.46165668964385986,0.11508813500404358,0.985733151435852,0.543008029460907,2.788069725036621,3.357421875
2232801,-0.4972725510597229,-0.4650413691997528,0.11796046048402786,1.141765832901001,0.6757060885429382,2.7436113357543945,3.357421875
2232811,-0.4969552457332611,-0.46551626920700073,0.11878786981105804,1.187373399734497,0.7338002920150757,2.745100975036621,3.3515625
2232821,-0.49440935254096985,-0.4615282416343689,0.11754309386014938,1.1364315748214722,0.7276530265808105,2.78473162651062,3.357421875
2232831,-0.4959338307380676,-0.46517542004585266,0.12015728652477264,1.2580158710479736,0.8390874862670898,2.71984601020813,3.357421875
2232841,-0.4956550598144531,-0.4657392203807831,0.12103965878486633,1.2445619106292725,0.8757009506225586,2.7091257572174072,3.357421875
2232851,-0.4936104416847229,-0.46156448125839233,0.11919710785150528,1.0550627708435059,0.7978708148002625,2.741215229034424,3.357421875
2232861,-0.49325862526893616,-0.4619699716567993,0.11994814872741699,0.9747157692909241,0.7727608680725098,2.732182741165161,3.357421875
2232871,-0.4949139356613159,-0.46486178040504456,0.12267189472913742,0.9309147000312805,0.7938171625137329,2.6623246669769287,3.357421875
2232881,-0.4923325777053833,-0.4613589644432068,0.12167024612426758,0.7117024660110474,0.6760256290435791,2.6940619945526123,3.357421875
2232891,-0.49197307229042053,-0.46172770857810974,0.12242455780506134,0.6434065103530884,0.6621683239936829,2.7037343978881836,3.357421875
2232901,-0.49386435747146606,-0.4656543731689453,0.1253957748413086,0.7335858345031738,0.7546581029891968,2.6842195987701416,3.357421875
2232911,-0.49363958835601807,-0.4662368893623352,0.1262771487236023,0.7322193384170532,0.7737269401550293,2.7010767459869385,3.357421875
2232921,-0.49110156297683716,-0.46232494711875916,0.1251174807548523,0.6890623569488525,0.743096649646759,2.7637176513671875,3.357421875
2232931,-0.49302154779434204,-0.46595340967178345,0.12819316983222961,0.8553084135055542,0.862982988357544,2.7221474647521973,3.357421875
2232941,-0.4928470253944397,-0.4665977954864502,0.12913717329502106,0.9181368947029114,0.9012387990951538,2.74084210395813,3.357421875
2232951,-0.49054622650146484,-0.4622657001018524,0.1274527609348297,0.8364818692207336,0.8481033444404602,2.7929437160491943,3.3515625
2232961,-0.49028247594833374,-0.46273359656333923,0.12826627492904663,0.8774991035461426,0.8888595700263977,2.807655096054077,3.3515625
2232971,-0.4922335743904114,-0.4670468866825104,0.13114365935325623,0.9742134213447571,0.9748156666755676,2.784822940826416,3.3515625
2232981,-0.4897405803203583,-0.4629726707935333,0.12977944314479828,0.8376479744911194,0.9167771935462952,2.836639404296875,3.3515625
2232991,-0.48947712779045105,-0.46342989802360535,0.13054800033569336,0.7963725328445435,0.9373692274093628,2.8394978046417236,3.3515625
2233001,-0.49105605483055115,-0.46711504459381104,0.13320136070251465,0.8332658410072327,1.0150790214538574,2.8097755908966064,3.3515625
2233012,-0.4909205734729767,-0.4677713215351105,0.13408103585243225,0.735636830329895,0.9941248297691345,2.8089935779571533,3.3515625
2233021,-0.48875293135643005,-0.4640021026134491,0.13274087011814117,0.5497151017189026,0.8948825597763062,2.854440689086914,3.3515625
2233031,-0.4906783401966095,-0.4676584303379059,0.13566944003105164,0.5583269596099854,0.9230830669403076,2.7937471866607666,3.3515625
2233041,-0.4906102120876312,-0.4683738350868225,0.13657531142234802,0.4918648302555084,0.8722392320632935,2.8006231784820557,3.3515625
2233051,-0.4885996878147125,-0.46431973576545715,0.13486024737358093,0.32078564167022705,0.7490174174308777,2.8559300899505615,3.3515625
2233062,-0.48844853043556213,-0.46484890580177307,0.1356128454208374,0.31451600790023804,0.7221751809120178,2.8715858459472656,3.3515625
2233071,-0.4907836318016052,-0.4686415195465088,0.13888895511627197,0.38524746894836426,0.7756165862083435,2.8323276042938232,3.3515625
2233081,-0.4884145259857178,-0.4644775688648224,0.13734331727027893,0.2741938531398773,0.7015695571899414,2.8832480907440186,3.3515625
2233091,-0.48826590180397034,-0.46494168043136597,0.13805443048477173,0.30514463782310486,0.7313600182533264,2.899921417236328,3.3515625
2233101,-0.4903367757797241,-0.46902358531951904,0.14095577597618103,0.46385225653648376,0.8456574082374573,2.874835968017578,3.3515625
2233112,-0.4903232157230377,-0.46968650817871094,0.14178849756717682,0.49610909819602966,0.8599919676780701,2.8985142707824707,3.345703125
2233121,-0.4879533648490906,-0.4659302830696106,0.14066849648952484,0.4528352618217468,0.8118165135383606,2.960538625717163,3.3515625
2233131,-0.48987844586372375,-0.47002387046813965,0.14337873458862305,0.5957591533660889,0.8909448981285095,2.938110113143921,3.3515625
2233141,-0.4899100363254547,-0.47075769305229187,0.1442367136478424,0.5981528162956238,0.875219464302063,2.9548323154449463,3.345703125
2233151,-0.48797088861465454,-0.46636441349983215,0.14215128123760223,0.42522749304771423,0.7674254179000854,3.0338828563690186,3.3515625
2233162,-0.4879193902015686,-0.46690285205841064,0.14284756779670715,0.3831922113895416,0.7446892857551575,3.047022581100464,3.3515625
2233171,-0.4901829659938812,-0.47096309065818787,0.14582288265228271,0.39679259061813354,0.7651610374450684,3.0197396278381348,3.3515625
2233181,-0.488098680973053,-0.46696731448173523,0.1441948413848877,0.21090689301490784,0.6529800295829773,3.0729939937591553,3.345703125
2233191,-0.48805245757102966,-0.4674578905105591,0.1448543220758438,0.1565045416355133,0.6249534487724304,3.0785791873931885,3.3515625
2233201,-0.4899565875530243,-0.4712637960910797,0.14742343127727509,0.23154953122138977,0.6729616522789001,3.067953586578369,3.3515625
2233212,-0.49002769589424133,-0.47193270921707153,0.14817774295806885,0.1851276159286499,0.6326661109924316,3.0677433013916016,3.345703125
2233221,-0.48785221576690674,-0.4683625400066376,0.14703787863254547,0.08256174623966217,0.5433484315872192,3.1184706687927246,3.345703125
2233231,-0.49002721905708313,-0.47239068150520325,0.1499108225107193,0.19737409055233002,0.6111681461334229,3.078073024749756,3.3515625
2233241,-0.49014368653297424,-0.47311630845069885,0.15070827305316925,0.21158373355865479,0.6005728840827942,3.0816831588745117,3.345703125
2233251,-0.48827889561653137,-0.46899721026420593,0.14883950352668762,0.08206108212471008,0.5109478831291199,3.1251728534698486,3.345703125
2233262,-0.48830389976501465,-0.4695259630680084,0.149501234292984,0.09904462099075317,0.5235838890075684,3.1383378505706787,3.3515625
2233271,-0.49070456624031067,-0.4735749363899231,0.1525358110666275,0.18396733701229095,0.5892570614814758,3.108731269836426,3.345703125
2233281,-0.4886302947998047,-0.469341903924942,0.15069225430488586,0.0685185045003891,0.5029537677764893,3.166069507598877,3.345703125
2233291,-0.48864901065826416,-0.469799667596817,0.15128591656684875,0.0956786647439003,0.5014909505844116,3.1863176822662354,3.3515625
2233301,-0.4907131791114807,-0.47403544187545776,0.15386220812797546,0.264588326215744,0.5788984298706055,3.159553289413452,3.3515625
2233312,-0.49085015058517456,-0.474689245223999,0.1545640528202057,0.28925275802612305,0.5700149536132812,3.17002534866333,3.345703125
2233321,-0.48872098326683044,-0.47063472867012024,0.15295150876045227,0.21406538784503937,0.48815855383872986,3.23227858543396,3.345703125
2233331,-0.49087220430374146,-0.4744098484516144,0.15569935739040375,0.31814420223236084,0.5376484394073486,3.1977338790893555,3.345703125
2233341,-0.49104824662208557,-0.47510454058647156,0.15642334520816803,0.3054949939250946,0.5097566246986389,3.1976141929626465,3.345703125
2233351,-0.4891456365585327,-0.4709179401397705,0.15449312329292297,0.1358039826154709,0.3810376524925232,3.2366859912872314,3.341796875
2233362,-0.48921990394592285,-0.4714147448539734,0.1550763100385666,0.08821708709001541,0.3362756371498108,3.2374751567840576,3.345703125
2233371,-0.491813600063324,-0.4759182035923004,0.15814638137817383,0.12380466610193253,0.35444310307502747,3.1659436225891113,3.345703125
2233381,-0.48954230546951294,-0.4717044234275818,0.1564694344997406,-0.055622462183237076,0.21798424422740936,3.203747034072876,3.345703125
2233391,-0.48959216475486755,-0.4721408486366272,0.1570127010345459,-0.07948232442140579,0.1908787190914154,3.2133140563964844,3.3515625
2233401,-0.4918800890445709,-0.4766562879085541,0.15976209938526154,0.05706118419766426,0.2674819529056549,3.194054126739502,3.3515625
2233412,-0.492050439119339,-0.47730332612991333,0.16042478382587433,0.05850472301244736,0.2629818320274353,3.195093870162964,3.345703125
2233421,-0.490213006734848,-0.4731951355934143,0.1584814041852951,-0.022049739956855774,0.2128784954547882,3.2554874420166016,3.3515625
2233431,-0.49240642786026,-0.4770728349685669,0.1611919105052948,0.10274140536785126,0.3074978291988373,3.220715284347534,3.3515625
2233441,-0.4926110506057739,-0.4777502715587616,0.16186143457889557,0.12700001895427704,0.32507866621017456,3.2349205017089844,3.345703125
2233451,-0.4907463490962982,-0.4732925295829773,0.1596248596906662,0.012234516441822052,0.23766650259494781,3.2643795013427734,3.345703125
2233462,-0.4908425211906433,-0.47375473380088806,0.16012707352638245,0.0451919287443161,0.24819819629192352,3.2819416522979736,3.345703125
2233471,-0.49347805976867676,-0.47825613617897034,0.1631649285554886,0.15926705300807953,0.31550732254981995,3.248924970626831,3.341796875
2233481,-0.4916265308856964,-0.47417062520980835,0.16118471324443817,0.06692379713058472,0.2267138957977295,3.2880136966705322,3.341796875
2233491,-0.49171555042266846,-0.47458526492118835,0.16165097057819366,0.10787904262542725,0.2175319641828537,3.281850576400757,3.341796875
2233501,-0.4939762353897095,-0.4788864552974701,0.1642920821905136,0.27045753598213196,0.2789338529109955,3.2234578132629395,3.341796875
2233541,-0.49453774094581604,-0.4802013635635376,0.16627560555934906,0.1785927712917328,0.15138119459152222,3.165736198425293,3.341796875
2233591,-0.4933920204639435,-0.47704142332077026,0.1661657989025116,-0.09858658164739609,-0.08749409019947052,3.1581318378448486,3.341796875
2233641,-0.496494323015213,-0.48333919048309326,0.17111337184906006,0.35637131333351135,0.24063114821910858,3.0864741802215576,3.341796875
2233701,-0.4975658655166626,-0.4840310513973236,0.17336072027683258,-0.07802396267652512,-0.0815117359161377,2.9439990520477295,3.341796875
2233751,-0.49648213386535645,-0.48118895292282104,0.17345982789993286,-0.058422353118658066,-0.06032910943031311,2.8993380069732666,3.341796875
2233801,-0.49927031993865967,-0.48618924617767334,0.17841483652591705,0.02943824976682663,-0.002776358276605606,2.7681844234466553,3.341796875
2233851,-0.49852925539016724,-0.4829062819480896,0.1783580631017685,-0.3390554189682007,-0.1752106249332428,2.694753646850586,3.345703125
2233913,-0.501884400844574,-0.4892577826976776,0.18391190469264984,-0.02933582104742527,-0.05447768419981003,2.5715291500091553,3.341796875
2233963,-0.5004808306694031,-0.48579856753349304,0.1833653599023819,-0.21731530129909515,-0.23963934183120728,2.452258586883545,3.341796875
2234021,-0.5013551712036133,-0.4865606129169464,0.18576912581920624,-0.1296594738960266,-0.18521101772785187,2.301553726196289,3.3359375
2234071,-0.5044124126434326,-0.491746723651886,0.19043929874897003,0.03612947836518288,-0.10934775322675705,2.1625564098358154,3.341796875
2234121,-0.5032610297203064,-0.488543301820755,0.18935327231884003,-0.23680506646633148,-0.29332026839256287,2.107095718383789,3.3359375
2234171,-0.506211519241333,-0.4939684569835663,0.19343945384025574,0.10521470755338669,-0.1494564712047577,2.0002124309539795,3.3359375
2234221,-0.5045498609542847,-0.4900071620941162,0.19165734946727753,-0.2826540470123291,-0.3576197326183319,2.034771203994751,3.3359375
2234271,-0.5070867538452148,-0.49554285407066345,0.19551947712898254,-0.012841304764151573,-0.16425588726997375,1.959398627281189,3.3359375
2234321,-0.5053259134292603,-0.49199023842811584,0.1939261108636856,-0.3908238112926483,-0.3179068863391876,1.9597326517105103,3.3359375
2234381,-0.5078407526016235,-0.4972844123840332,0.19774553179740906,-0.15410052239894867,-0.14746378362178802,1.8974930047988892,3.330078125
2234431,-0.5063067078590393,-0.4929666817188263,0.19576814770698547,-0.5365133285522461,-0.24643246829509735,1.943121075630188,3.330078125
2234481,-0.5087227821350098,-0.49827155470848083,0.19967149198055267,-0.2851240634918213,-0.06571344286203384,1.9351036548614502,3.326171875
2234541,-0.509665846824646,-0.49865129590034485,0.2011324167251587,-0.4797258973121643,-0.3083833158016205,2.0422861576080322,3.3359375
2234691,-0.5073086023330688,-0.4949439764022827,0.20138254761695862,-0.2846997380256653,-0.4698379635810852,2.311321496963501,3.330078125
2234741,-0.5097537636756897,-0.49968528747558594,0.2052251547574997,0.1440240740776062,-0.1889183670282364,2.2722296714782715,3.330078125
2234791,-0.5071612000465393,-0.49534937739372253,0.203647643327713,-0.15142157673835754,-0.5172090530395508,2.3572964668273926,3.330078125
2234831,-0.5066775679588318,-0.49589449167251587,0.20464162528514862,0.31627851724624634,-0.6223362684249878,2.412377119064331,3.3359375
2234881,-0.5079912543296814,-0.5012817978858948,0.20886261761188507,0.6596486568450928,-0.3267628848552704,2.291226387023926,3.3359375
2234941,-0.5069716572761536,-0.5027027726173401,0.2114136815071106,0.007949369959533215,-0.1574704796075821,1.8919382095336914,3.341796875
2234991,-0.503555178642273,-0.49996963143348694,0.21074528992176056,-0.6382489800453186,-0.16476264595985413,1.4886635541915894,3.330078125
2235041,-0.5048283934593201,-0.5051067471504211,0.21457068622112274,-0.22040905058383942,0.12535949051380157,0.9332585334777832,3.330078125
2235101,-0.5026811957359314,-0.5067127346992493,0.21691648662090302,-1.8438446521759033,-1.5678231716156006,0.2990885376930237,3.373046875
2235151,-0.4969988167285919,-0.5018085837364197,0.21495938301086426,-9.637557029724121,-9.345285415649414,-0.794975221157074,3.37890625
2235201,-0.4922870099544525,-0.5020103454589844,0.21537432074546814,-13.569415092468262,-13.801936149597168,-1.9570826292037964,3.373046875
2235251,-0.47950035333633423,-0.48986300826072693,0.20814943313598633,-14.37314510345459,-13.951834678649902,-2.2689647674560547,3.341796875
2235301,-0.4644109606742859,-0.48001185059547424,0.20163270831108093,-17.02265167236328,-16.097944259643555,-3.382824182510376,3.3203125
2235351,-0.4403380751609802,-0.45728376507759094,0.18781962990760803,-17.32213020324707,-15.941633224487305,-3.5292370319366455,3.2890625
2235401,-0.41399943828582764,-0.4353589415550232,0.17664127051830292,-16.641809463500977,-14.024494171142578,-3.0244083404541016,3.2734375
2235511,-0.3306223452091217,-0.35700833797454834,0.14740140736103058,-13.07109260559082,-11.017666816711426,-1.6895298957824707,3.26171875
2235551,-0.2930670380592346,-0.318869411945343,0.13677147030830383,-10.99659252166748,-9.173789024353027,-0.6387087106704712,3.267578125
2235601,-0.2465660572052002,-0.27340999245643616,0.13096700608730316,-10.201992988586426,-7.912121295928955,0.45613232254981995,3.283203125
2235651,-0.1944018304347992,-0.21694426238536835,0.1228586956858635,-5.840994834899902,-4.5476393699646,1.5886306762695312,3.27734375
2235711,-0.13313941657543182,-0.1539819836616516,0.12457002699375153,-3.3419666290283203,-1.588135838508606,2.0808424949645996,3.326171875
2235751,-0.09111612290143967,-0.10388943552970886,0.12402769178152084,-3.0344622135162354,-0.7176414728164673,2.088902473449707,3.3515625
2235811,-0.03247370198369026,-0.039216406643390656,0.13291597366333008,0.2018987387418747,1.0805922746658325,1.7399941682815552,3.37890625
2235861,0.026276730000972748,0.03451839089393616,0.1370229870080948,2.8713021278381348,2.6667826175689697,1.5319522619247437,3.37890625
2235901,0.05780661106109619,0.06939470767974854,0.13910621404647827,5.00077486038208,3.7861855030059814,1.2449060678482056,3.37890625
2235951,0.10378539562225342,0.12567640841007233,0.14186351001262665,6.657312393188477,4.94111442565918,0.9597474932670593,3.36328125
2236001,0.14428870379924774,0.1684504896402359,0.14216136932373047,8.576887130737305,6.059146404266357,0.5665839314460754,3.357421875
2236051,0.18504896759986877,0.21626710891723633,0.1432095468044281,9.808462142944336,6.6970744132995605,0.45737969875335693,3.345703125
2236101,0.22126106917858124,0.25019460916519165,0.1400623470544815,10.578051567077637,7.475272178649902,0.2615298628807068,3.3359375
2236161,0.2627493143081665,0.2940640449523926,0.13954897224903107,10.85621166229248,7.81126070022583,0.44693174958229065,3.330078125
2236211,0.2933498024940491,0.3174647390842438,0.13449126482009888,10.791058540344238,7.947657108306885,0.35812389850616455,3.330078125
2236261,0.32144176959991455,0.3437837064266205,0.13341543078422546,10.074614524841309,8.148608207702637,0.5054912567138672,3.3203125
2236311,0.3416411876678467,0.35516855120658875,0.12890934944152832,9.542407035827637,8.018463134765625,0.47080373764038086,3.314453125
2236361,0.36707526445388794,0.37374332547187805,0.1267176866531372,8.099180221557617,7.7501444816589355,0.6748891472816467,3.314453125
2236411,0.38560137152671814,0.38352397084236145,0.12302608042955399,7.20439338684082,7.653223037719727,0.6080015301704407,3.314453125
2236521,0.42158693075180054,0.4026068150997162,0.1191837415099144,4.422229766845703,6.758730888366699,0.9193298816680908,3.3203125
2236571,0.43315455317497253,0.4064278304576874,0.11701196432113647,3.478440523147583,6.250039577484131,0.8861903548240662,3.3203125
2236621,0.4438760280609131,0.41294077038764954,0.11668765544891357,2.6749491691589355,5.761728286743164,0.9974480867385864,3.330078125
2236671,0.45150724053382874,0.4153933823108673,0.11560235917568207,2.07401967048645,5.324086666107178,0.9252615571022034,3.326171875
2236732,0.45851320028305054,0.4205813705921173,0.11633440107107162,1.4182062149047852,4.755224227905273,0.9692608714103699,3.330078125
2236782,0.46333038806915283,0.4230066239833832,0.11515668779611588,1.2143257856369019,4.256558418273926,0.9018964171409607,3.330078125
2236832,0.4670642018318176,0.42815274000167847,0.11601313948631287,1.0882985591888428,3.755890130996704,0.9571768045425415,3.330078125
2236882,0.4693775475025177,0.42984217405319214,0.11518392711877823,1.0758534669876099,3.302124261856079,0.9589027762413025,3.330078125
2236932,0.4708777666091919,0.4345172047615051,0.11622545123100281,1.3179657459259033,2.960890293121338,0.991561233997345,3.326171875
2236982,0.47131213545799255,0.43645989894866943,0.11576509475708008,1.1710314750671387,2.5229129791259766,0.9491035342216492,3.326171875
2237041,0.4716220498085022,0.44057390093803406,0.11565335094928741,1.340785026550293,2.2888669967651367,1.0008881092071533,3.330078125
2237101,0.4713056683540344,0.4444435238838196,0.11602524667978287,1.7244744300842285,1.9917148351669312,1.0938916206359863,3.330078125
2237151,0.4700221121311188,0.44819504022598267,0.11698315292596817,1.634313702583313,1.7174491882324219,1.1491426229476929,3.330078125
2237201,0.4685966670513153,0.44947364926338196,0.11691757291555405,1.7621856927871704,1.4746867418289185,1.109839916229248,3.330078125
2237251,0.46660393476486206,0.45185041427612305,0.11787315458059311,1.9307069778442383,1.3335903882980347,1.2002846002578735,3.330078125
2237301,0.4641428589820862,0.4517759680747986,0.11743976175785065,2.0227737426757812,1.2520004510879517,1.2310051918029785,3.330078125
2237351,0.46211639046669006,0.4534969925880432,0.11847611516714096,2.0279738903045654,1.0707805156707764,1.1871017217636108,3.326171875
2237411,0.45853039622306824,0.45177921652793884,0.11811434477567673,1.8188090324401855,0.8464237451553345,1.1842446327209473,3.330078125
2237521,0.4526865482330322,0.45030510425567627,0.11874968558549881,1.6682469844818115,0.5876907110214233,1.2317957878112793,3.330078125
2237561,0.45047473907470703,0.44919902086257935,0.11912114918231964,1.3841688632965088,0.38526368141174316,1.219504475593567,3.330078125
2237611,0.4471258223056793,0.44558823108673096,0.11870330572128296,1.2907605171203613,0.48949146270751953,1.2774741649627686,3.330078125
2237661,0.4442630410194397,0.44411519169807434,0.11956609785556793,1.103555679321289,0.5001718997955322,1.3174575567245483,3.330078125
2237711,0.441018670797348,0.4403134882450104,0.11899161338806152,0.7322513461112976,0.2506123185157776,1.267533302307129,3.330078125
2237771,0.43742498755455017,0.43668508529663086,0.11942436546087265,0.5497167706489563,0.22470571100711823,1.355654239654541,3.330078125
2237821,0.434914231300354,0.4343421459197998,0.11969245225191116,0.4133867621421814,0.20092512667179108,1.337365746498108,3.330078125
2237861,0.4326265752315521,0.43219563364982605,0.11996648460626602,0.055043622851371765,-0.025679996237158775,1.3128641843795776,3.330078125
2237921,0.4291846752166748,0.428358793258667,0.119443379342556,-0.10205090790987015,-0.08686947822570801,1.332531452178955,3.330078125
2237971,0.42572298645973206,0.4242238998413086,0.11874927580356598,-0.06567323207855225,-0.042219378054142,1.377970576286316,3.326171875
2238021,0.42357465624809265,0.42273685336112976,0.11863536387681961,-0.3353010416030884,-0.24238498508930206,1.2664217948913574,3.326171875
2238071,0.42050281167030334,0.418805330991745,0.11790196597576141,-0.3362513780593872,-0.27578991651535034,1.243636131286621,3.326171875
2238121,0.41848698258399963,0.41792333126068115,0.11786875873804092,-0.16225968301296234,-0.25085151195526123,1.1902601718902588,3.326171875
2238171,0.41588470339775085,0.4141683280467987,0.11576734483242035,-0.32600340247154236,-0.3778838515281677,1.2570701837539673,3.673828125
2238231,0.41315677762031555,0.4133070409297943,0.10293959081172943,-1.276917576789856,-0.45444878935813904,1.8824983835220337,3.68359375
2238271,0.4134148061275482,0.40859153866767883,0.08286451548337936,-2.1161723136901855,-0.33154240250587463,2.5362789630889893,3.68359375
2238331,0.40823185443878174,0.4086318016052246,0.03530143201351166,-3.832259178161621,0.5318679213523865,3.9718692302703857,3.689453125
2238381,0.4114612340927124,0.4027010202407837,-0.014918753877282143,-0.8218865394592285,-2.4479265213012695,4.934475421905518,3.689453125
2238421,0.4094802737236023,0.40343356132507324,0.0015271282754838467,0.6687323451042175,-3.7179253101348877,2.978919506072998,3.689453125
2238471,0.40385767817497253,0.40663352608680725,-0.005435349885374308,2.761099100112915,-4.969157695770264,0.727632462978363,3.689453125
2238531,0.4046070873737335,0.40693503618240356,-0.008645467460155487,-0.9045299887657166,-2.2182509899139404,-0.84549880027771,3.689453125
2238581,0.40086108446121216,0.40854430198669434,-0.007778087630867958,-0.944704532623291,-2.0555291175842285,-0.9125566482543945,3.689453125
2238631,0.40371203422546387,0.40731972455978394,-0.006143033970147371,-0.896266758441925,-2.134105920791626,-0.9172165393829346,3.689453125
2238681,0.401258260011673,0.40836745500564575,-0.006103319115936756,-0.9001994729042053,-2.0279700756073,-0.9781544208526611,3.689453125
2238731,0.4028823673725128,0.40803834795951843,-0.005175498314201832,-0.8687013387680054,-2.066380023956299,-0.9941880702972412,3.6953125
2238781,0.40125828981399536,0.4086550772190094,-0.005813546013087034,-0.8456217646598816,-1.9937236309051514,-1.0285767316818237,3.6953125
2238831,0.40263161063194275,0.40809693932533264,-0.004110673442482948,-0.8097383379936218,-2.0325927734375,-1.03572416305542,3.6953125
2238881,0.40154770016670227,0.40811726450920105,-0.004808011930435896,-0.7769449949264526,-1.9847397804260254,-1.0879483222961426,3.6953125
2238931,0.40241724252700806,0.40808820724487305,-0.0036990358494222164,-0.7495149970054626,-2.007436990737915,-1.0737862586975098,3.6953125
2238991,0.40248554944992065,0.4079541862010956,-0.003800187027081847,-0.7034326791763306,-1.9969247579574585,-1.0870070457458496,3.6953125
2239041,0.40186652541160583,0.40765541791915894,-0.004142425954341888,-0.6709239482879639,-1.9709213972091675,-1.1253039836883545,3.6953125
2239091,0.4026101529598236,0.4081445634365082,-0.003511640941724181,-0.648552417755127,-1.9918042421340942,-1.0955618619918823,3.6953125
2239151,0.4018409848213196,0.40773236751556396,-0.004139749798923731,-0.6069520711898804,-1.9594846963882446,-1.1280717849731445,3.6953125
2239201,0.40225064754486084,0.40794235467910767,-0.0037112345453351736,-0.5861051678657532,-1.9652092456817627,-1.1201382875442505,3.701171875
2239251,0.40165695548057556,0.4079705476760864,-0.003976827021688223,-0.567075252532959,-1.9466853141784668,-1.1492602825164795,3.701171875
2239301,0.402083158493042,0.408217191696167,-0.003584992839023471,-0.546602725982666,-1.9554553031921387,-1.1195567846298218,3.701171875
2239352,0.40184783935546875,0.4078085720539093,-0.004111150745302439,-0.5201740860939026,-1.9496537446975708,-1.1488642692565918,3.701171875
2239402,0.402389794588089,0.4080163240432739,-0.003523704595863819,-0.4951421618461609,-1.963337779045105,-1.1083205938339233,3.701171875
2239451,0.4018588960170746,0.4076582193374634,-0.004039629362523556,-0.4718764126300812,-1.9420632123947144,-1.125991702079773,3.701171875
2239511,0.4020851254463196,0.4074474573135376,-0.003687093500047922,-0.4407109022140503,-1.9450303316116333,-1.1211215257644653,3.701171875
2239561,0.40220150351524353,0.4082168638706207,-0.0033864995930343866,-0.4407939314842224,-1.9385757446289062,-1.0788837671279907,3.701171875
2239611,0.4019359052181244,0.40740877389907837,-0.004125481005758047,-0.415693074464798,-1.934774398803711,-1.112073540687561,3.701171875
2239661,0.40201181173324585,0.40819504857063293,-0.003645434742793441,-0.418050616979599,-1.9352691173553467,-1.0754340887069702,3.701171875
2239711,0.4018661081790924,0.407595157623291,-0.00376639561727643,-0.40172380208969116,-1.9351813793182373,-1.1004178524017334,3.701171875
2239771,0.40240344405174255,0.4074315130710602,-0.003928561229258776,-0.37481188774108887,-1.9454869031906128,-1.0892409086227417,3.701171875
2239821,0.4024772047996521,0.4076380729675293,-0.003363368334248662,-0.38001224398612976,-1.9500592947006226,-1.069598913192749,3.701171875
2239871,0.4017847180366516,0.407392680644989,-0.0040023741312325,-0.36279356479644775,-1.922516107559204,-1.119369626045227,3.701171875
2239921,0.4023524820804596,0.4080049991607666,-0.0033217263408005238,-0.37723639607429504,-1.9429543018341064,-1.1078134775161743,3.701171875
2239971,0.4021361172199249,0.40730124711990356,-0.0035522296093404293,-0.3508228659629822,-1.9346535205841064,-1.1440825462341309,3.701171875
2240021,0.4020666778087616,0.4078337550163269,-0.003470171708613634,-0.35825133323669434,-1.9333359003067017,-1.087451696395874,3.705078125
2240071,0.4018605947494507,0.407540500164032,-0.0040078009478747845,-0.3410821855068207,-1.9281038045883179,-1.1372894048690796,3.705078125
2240181,0.40165942907333374,0.4074127972126007,-0.003795304335653782,-0.32339492440223694,-1.9227585792541504,-1.114054560661316,3.705078125
2240231,0.4020139276981354,0.4079432189464569,-0.0035365945659577847,-0.32812750339508057,-1.9286038875579834,-1.0868918895721436,3.705078125
2240271,0.4017582833766937,0.40756821632385254,-0.003786788322031498,-0.32100412249565125,-1.9226770401000977,-1.132371187210083,3.705078125
2240321,0.4021831154823303,0.4081667363643646,-0.003394531784579158,-0.33021080493927,-1.9346688985824585,-1.1147547960281372,3.705078125
2240371,0.4020323157310486,0.4072685241699219,-0.0035542864352464676,-0.31324052810668945,-1.9285669326782227,-1.1441479921340942,3.705078125
2240481,0.4017571210861206,0.4073368310928345,-0.004054023418575525,-0.30881592631340027,-1.9215729236602783,-1.1557564735412598,3.705078125
2240531,0.4022876024246216,0.4081002175807953,-0.0032840094063431025,-0.3223358690738678,-1.9316926002502441,-1.1094259023666382,3.705078125
2240581,0.4016859531402588,0.4075126051902771,-0.0037916647270321846,-0.3117636442184448,-1.916083574295044,-1.14326810836792,3.705078125
2240691,0.4026092290878296,0.40804407000541687,-0.003339753719046712,-0.3194482624530792,-1.9431483745574951,-1.1100177764892578,3.705078125
2240741,0.40203341841697693,0.407248318195343,-0.003895294154062867,-0.30633893609046936,-1.922776222229004,-1.14061439037323,3.705078125
2240791,0.40245717763900757,0.4080524742603302,-0.0033412969205528498,-0.31744450330734253,-1.9287259578704834,-1.1132138967514038,3.705078125
2240841,0.40203016996383667,0.4073984622955322,-0.0038102525286376476,-0.30588656663894653,-1.9194973707199097,-1.1619714498519897,3.705078125
2240891,0.4022853374481201,0.407528817653656,-0.003591516287997365,-0.30411556363105774,-1.9250212907791138,-1.1486481428146362,3.705078125
2240952,0.40197446942329407,0.4075731635093689,-0.0038829450495541096,-0.3145444691181183,-1.9202901124954224,-1.1735398769378662,3.705078125
2241003,0.40229901671409607,0.4081951081752777,-0.003616438480094075,-0.32269087433815,-1.9214426279067993,-1.148616075515747,3.705078125
2241053,0.40180259943008423,0.4076188802719116,-0.0036065583117306232,-0.3133155405521393,-1.910351037979126,-1.1748743057250977,3.7109375
2241111,0.40182235836982727,0.4075586795806885,-0.003929745871573687,-0.3061538338661194,-1.9088388681411743,-1.1607307195663452,3.7109375
2241161,0.40216419100761414,0.4080088138580322,-0.0035639696288853884,-0.32261422276496887,-1.9250456094741821,-1.1599762439727783,3.7109375
2241221,0.4022625982761383,0.40796563029289246,-0.003792674746364355,-0.3149321973323822,-1.9211053848266602,-1.15324866771698,3.7109375
2241271,0.401934951543808,0.40732070803642273,-0.0038836966268718243,-0.3017794191837311,-1.9132479429244995,-1.1905925273895264,3.7109375
2241321,0.4023773968219757,0.40804365277290344,-0.0033428103197366,-0.3160671591758728,-1.9277851581573486,-1.1483224630355835,3.7109375
