time.ms,stateEstimate.x,stateEstimate.y,stateEstimate.z,stabilizer.roll,stabilizer.pitch,stabilizer.yaw,pm.vbat
1867798,-0.0517057366669178,0.07045595347881317,-0.0016012166161090136,-0.07738880068063736,0.3893267810344696,5.3361687660217285,3.66796875
1867810,-0.05165287107229233,0.07044512033462524,-0.001619531773030758,-0.07744196057319641,0.3867184817790985,5.329894065856934,3.66796875
1867818,-0.052450332790613174,0.06911975890398026,-0.0015243199886754155,-0.04257367178797722,0.412588894367218,5.320738315582275,3.66796875
1867828,-0.052450332790613174,0.06911975890398026,-0.0015243199886754155,-0.04257367178797722,0.412588894367218,5.320738315582275,3.673828125
1867838,-0.051815684884786606,0.07047595083713531,-0.0017612436786293983,-0.06773491948843002,0.39517223834991455,5.33868408203125,3.673828125
1867848,-0.05256640911102295,0.06912872195243835,-0.0017433208413422108,-0.027717970311641693,0.4236609637737274,5.329659938812256,3.673828125
1867860,-0.05255690589547157,0.06903727352619171,-0.001758713973686099,-0.027939561754465103,0.4242122173309326,5.325088977813721,3.673828125
1867868,-0.05180929973721504,0.07032796740531921,-0.001935264328494668,-0.05354125797748566,0.40469738841056824,5.34126615524292,3.673828125
1867878,-0.052698083221912384,0.06939967721700668,-0.0014845789410173893,-0.026640214025974274,0.43297186493873596,5.315023899078369,3.66796875
1867888,-0.05269952118396759,0.06931883096694946,-0.0014752757269889116,-0.027472548186779022,0.43441158533096313,5.308587074279785,3.66796875
1867898,-0.05223129317164421,0.07064405083656311,-0.0017056569922715425,-0.06326311081647873,0.41714075207710266,5.330886363983154,3.673828125
1867909,-0.05221456661820412,0.07061982154846191,-0.0017154918750748038,-0.06294447928667068,0.41613927483558655,5.326122760772705,3.66796875
1867918,-0.05305783823132515,0.06922244280576706,-0.0016436147270724177,-0.04211569204926491,0.42995885014533997,5.345012664794922,3.66796875
1867928,-0.05305766686797142,0.06916578859090805,-0.0016505850944668055,-0.04361516609787941,0.4289357364177704,5.33860969543457,3.66796875
1867938,-0.052153490483760834,0.07039646804332733,-0.0017630583606660366,-0.06986596435308456,0.402757853269577,5.355212688446045,3.673828125
1867948,-0.05303869768977165,0.06921594589948654,-0.0015020802384242415,-0.03868059813976288,0.43202120065689087,5.359828472137451,3.673828125
1867958,-0.05304161086678505,0.06915412843227386,-0.0014969577314332128,-0.03787073493003845,0.43294328451156616,5.354743003845215,3.673828125
1867968,-0.0523541159927845,0.0704989805817604,-0.001685047522187233,-0.06280522793531418,0.4144490361213684,5.3673415184021,3.66796875
1867978,-0.05304932966828346,0.0692334920167923,-0.0016847975784912705,-0.028035404160618782,0.4384160339832306,5.356929779052734,3.673828125
1867988,-0.0530589297413826,0.06915883719921112,-0.0016879345057532191,-0.027270589023828506,0.43964964151382446,5.350063800811768,3.673828125
1867998,-0.05219554901123047,0.07046237587928772,-0.0018131525721400976,-0.0623292475938797,0.40781885385513306,5.360739707946777,3.66796875
1868008,-0.05216730013489723,0.07044114917516708,-0.0018268806161358953,-0.06224609166383743,0.4088664650917053,5.355660915374756,3.66796875
1868018,-0.05287826806306839,0.06945984065532684,-0.0016311034560203552,-0.048639871180057526,0.41990044713020325,5.314408779144287,3.66796875
1868028,-0.05201585963368416,0.07051167637109756,-0.0016716871177777648,-0.0691894069314003,0.3985981345176697,5.33588981628418,3.673828125
1868038,-0.05197588726878166,0.07050223648548126,-0.0016757540870457888,-0.06953265517950058,0.397177129983902,5.330386161804199,3.673828125
1868048,-0.05262802541255951,0.06953276693820953,-0.001519239624030888,-0.04328544810414314,0.41727522015571594,5.303018569946289,3.66796875
1868058,-0.052612654864788055,0.06948796659708023,-0.001509076333604753,-0.042858995497226715,0.4170271158218384,5.297722339630127,3.673828125
1868068,-0.051909439265728,0.07066579163074493,-0.0016462784260511398,-0.06438077986240387,0.4035981595516205,5.320309162139893,3.673828125
1868078,-0.05257924273610115,0.06946853548288345,-0.00161067140288651,-0.0318293459713459,0.42729583382606506,5.283891677856445,3.673828125
1868088,-0.05256953835487366,0.0694112703204155,-0.0016013763379305601,-0.033045023679733276,0.4257182478904724,5.279531478881836,3.673828125
1868098,-0.05174613371491432,0.07046692818403244,-0.001659100060351193,-0.06005027890205383,0.40085703134536743,5.295970439910889,3.66796875
1868108,-0.05170334503054619,0.0704500749707222,-0.0016561688389629126,-0.06029866263270378,0.4034590721130371,5.289872169494629,3.673828125
1868118,-0.052549466490745544,0.0694122463464737,-0.0013042003847658634,-0.04686582088470459,0.4175739884376526,5.259582996368408,3.673828125
1868128,-0.05162219703197479,0.07067934423685074,-0.001364444149658084,-0.07207924872636795,0.39367544651031494,5.288223743438721,3.673828125
1868138,-0.05156642198562622,0.07068081200122833,-0.0013496286701411009,-0.07252784818410873,0.39313167333602905,5.282747745513916,3.66796875
1868148,-0.052096493542194366,0.06933742761611938,-0.0015340895624831319,-0.05166974291205406,0.4009826183319092,5.267662525177002,3.66796875
1868158,-0.052047085016965866,0.06931082159280777,-0.0015302833635360003,-0.05136650800704956,0.4002014994621277,5.262977123260498,3.66796875
1868168,-0.05137573182582855,0.07059302926063538,-0.001694724545814097,-0.0761980265378952,0.3828500509262085,5.291259288787842,3.66796875
1868178,-0.05203692615032196,0.06940045952796936,-0.0016556712798774242,-0.04397091642022133,0.40857020020484924,5.276994228363037,3.66796875
1868188,-0.05199478566646576,0.069362111389637,-0.001652817940339446,-0.04311229661107063,0.4081801474094391,5.273178577423096,3.66796875
1868198,-0.05145221948623657,0.07042866200208664,-0.0017961239209398627,-0.0600120946764946,0.3957541882991791,5.294613838195801,3.66796875
1868210,-0.05139665678143501,0.07041781395673752,-0.001802416518330574,-0.059712450951337814,0.3936903178691864,5.289676189422607,3.673828125
1868218,-0.052085086703300476,0.06926170736551285,-0.0016999783692881465,-0.027965007349848747,0.41667360067367554,5.256019592285156,3.673828125
1868228,-0.051523759961128235,0.07037238031625748,-0.00184824806638062,-0.05697884410619736,0.3971601724624634,5.285754203796387,3.673828125
1868238,-0.051473964005708694,0.07035867124795914,-0.0018561570905148983,-0.05628708004951477,0.3989774286746979,5.28040075302124,3.673828125
1868248,-0.05239352211356163,0.06898219883441925,-0.0016617383807897568,-0.037444014102220535,0.4156731367111206,5.276622295379639,3.673828125
1868258,-0.05236051231622696,0.06893521547317505,-0.001659985864534974,-0.037370700389146805,0.4158298373222351,5.272087097167969,3.66796875
1868268,-0.051579609513282776,0.07034985721111298,-0.0018533355323597789,-0.06784069538116455,0.3951513171195984,5.289959907531738,3.66796875
1868278,-0.05250757187604904,0.06919887661933899,-0.0014999990817159414,-0.03681988641619682,0.424775093793869,5.288074970245361,3.673828125
1868288,-0.05248337239027023,0.06914710998535156,-0.001483747037127614,-0.03709277883172035,0.42455774545669556,5.283793926239014,3.66796875
1868298,-0.051774729043245316,0.0704846978187561,-0.0016361228190362453,-0.058035653084516525,0.41105514764785767,5.313934326171875,3.673828125
1868308,-0.05172920227050781,0.07046534866094589,-0.0016302275471389294,-0.05942691117525101,0.41010475158691406,5.309033393859863,3.673828125
1868318,-0.05258356034755707,0.06924587488174438,-0.001369160832837224,-0.028172722086310387,0.4360138177871704,5.291654109954834,3.673828125
1868328,-0.0525653176009655,0.06917963176965714,-0.001345770200714469,-0.028659919276833534,0.4363880157470703,5.286529541015625,3.673828125
1868338,-0.05193135514855385,0.07045351713895798,-0.001508715795353055,-0.05942782387137413,0.4174434542655945,5.3115715980529785,3.673828125
1868348,-0.05273554101586342,0.06926000118255615,-0.0013029995607212186,-0.04223167896270752,0.4318729043006897,5.300889015197754,3.66796875
1868358,-0.05270984768867493,0.06921496242284775,-0.001287983264774084,-0.043397098779678345,0.43219900131225586,5.294394493103027,3.673828125
1868368,-0.05228089913725853,0.07055529206991196,-0.001533885020762682,-0.07247348874807358,0.4179234802722931,5.309251308441162,3.673828125
1868378,-0.05303538218140602,0.06942202150821686,-0.001368339522741735,-0.042867064476013184,0.4409698247909546,5.294586658477783,3.673828125
1868388,-0.05302460864186287,0.06936995685100555,-0.0013594066258519888,-0.04208914190530777,0.44192302227020264,5.288327693939209,3.673828125
1868398,-0.05207272246479988,0.07071339339017868,-0.0014805439859628677,-0.06715041399002075,0.41906672716140747,5.307014465332031,3.66796875
1868408,-0.05203341320157051,0.07069633901119232,-0.0014786142855882645,-0.06680119037628174,0.4192953407764435,5.302004337310791,3.673828125
1868418,-0.052633754909038544,0.06921401619911194,-0.0016918557230383158,-0.028144890442490578,0.44090014696121216,5.285955905914307,3.673828125
1868428,-0.05261574313044548,0.06914139539003372,-0.0016979679930955172,-0.02798977680504322,0.4405539929866791,5.280599594116211,3.673828125
1868438,-0.05204994976520538,0.07036551088094711,-0.001897780573926866,-0.05804495885968208,0.4212453365325928,5.30320405960083,3.66796875
1868448,-0.05287248641252518,0.0692751556634903,-0.0016356627456843853,-0.043588656932115555,0.4335990250110626,5.285521984100342,3.673828125
1868458,-0.05285365879535675,0.06922347843647003,-0.0016438593156635761,-0.04415757581591606,0.4330693483352661,5.280063152313232,3.66796875
1868468,-0.05193762853741646,0.07050281763076782,-0.0017739413306117058,-0.07364703714847565,0.40735140442848206,5.2961883544921875,3.673828125
1868478,-0.05277537181973457,0.06916878372430801,-0.0016501550562679768,-0.037822362035512924,0.4363216459751129,5.3008036613464355,3.66796875
1868488,-0.05275527387857437,0.06910757720470428,-0.0016545974649488926,-0.03800353780388832,0.43402406573295593,5.294569492340088,3.66796875
1868498,-0.05189322680234909,0.07034505903720856,-0.001771139563061297,-0.059094659984111786,0.41521960496902466,5.31586217880249,3.673828125
1868508,-0.05184810236096382,0.07031933963298798,-0.0017821252113208175,-0.05902402475476265,0.4154745638370514,5.311228275299072,3.673828125
1868518,-0.052544623613357544,0.06925801187753677,-0.0016099602216854692,-0.031855013221502304,0.4368160665035248,5.289666652679443,3.66796875
1868528,-0.05189011991024017,0.07045826315879822,-0.0017687437357380986,-0.06319805234670639,0.4165958762168884,5.3112030029296875,3.673828125
1868538,-0.0518484003841877,0.0704348161816597,-0.0017767167882993817,-0.06386028975248337,0.41687488555908203,5.305974960327148,3.673828125
1868548,-0.05272991582751274,0.06928972899913788,-0.0014697809237986803,-0.04716138169169426,0.43189552426338196,5.298219680786133,3.673828125
1868558,-0.0527089387178421,0.06924034655094147,-0.0014604713069275022,-0.04814017191529274,0.43072524666786194,5.291731834411621,3.66796875
1868568,-0.05174893140792847,0.07053660601377487,-0.0015645783860236406,-0.0747002512216568,0.40688684582710266,5.309990882873535,3.66796875
1868578,-0.05169818922877312,0.07052718102931976,-0.0015634617302566767,-0.07550642639398575,0.405338317155838,5.305848598480225,3.673828125
1868588,-0.05249369144439697,0.06927744299173355,-0.0014075259678065777,-0.04452843964099884,0.4318297505378723,5.2831645011901855,3.673828125
1868598,-0.051781944930553436,0.07031405717134476,-0.001493025105446577,-0.06206567957997322,0.41664984822273254,5.310813903808594,3.673828125
1868608,-0.05174507573246956,0.07028263807296753,-0.0014876446221023798,-0.06245017051696777,0.41685613989830017,5.3059892654418945,3.673828125
1868618,-0.05270155519247055,0.06903956085443497,-0.0011330780107527971,-0.031680017709732056,0.4458412528038025,5.299193859100342,3.66796875
1868628,-0.05270223319530487,0.06895740330219269,-0.0011047373991459608,-0.0305438544601202,0.44631490111351013,5.294879913330078,3.673828125
1868638,-0.05165185034275055,0.07071203738451004,-0.001273984438739717,-0.07634364068508148,0.40848585963249207,5.313149452209473,3.673828125
1868648,-0.052207984030246735,0.06943874061107635,-0.0013905202504247427,-0.05674387514591217,0.4180859625339508,5.283365249633789,3.66796875
1868658,-0.05217255651950836,0.0693977102637291,-0.001382743939757347,-0.05684831365942955,0.4177638590335846,5.27789831161499,3.66796875
1868668,-0.051453664898872375,0.07054408639669418,-0.001496478682383895,-0.07863155752420425,0.40215063095092773,5.3103251457214355,3.66796875
1868678,-0.052418895065784454,0.06934922188520432,-0.0011205041082575917,-0.04631185531616211,0.435054749250412,5.303307056427002,3.66796875
1868688,-0.052404917776584625,0.069293312728405,-0.001095583662390709,-0.04715410992503166,0.4340275228023529,5.298742294311523,3.66796875
1868698,-0.05170297622680664,0.07065314799547195,-0.001255915965884924,-0.07239466160535812,0.41641807556152344,5.317780494689941,3.66796875
1868708,-0.05167016386985779,0.07063230127096176,-0.0012416813988238573,-0.0731436237692833,0.41723212599754333,5.313917636871338,3.66796875
1868718,-0.05238374322652817,0.06940098851919174,-0.0011560542043298483,-0.041461315006017685,0.44070106744766235,5.283596515655518,3.673828125
1868728,-0.0523776039481163,0.06933202594518661,-0.0011373113375157118,-0.04124685004353523,0.44088512659072876,5.277747631072998,3.673828125
1868738,-0.05189130827784538,0.0707276239991188,-0.0013823946937918663,-0.07700920850038528,0.42330092191696167,5.294978141784668,3.66796875
1868748,-0.052542876452207565,0.06917797774076462,-0.0016146196285262704,-0.05366436019539833,0.43367019295692444,5.284088134765625,3.673828125
1868758,-0.05252983793616295,0.06912552565336227,-0.0016301500145345926,-0.05258385092020035,0.43460503220558167,5.277755260467529,3.66796875
1868768,-0.051772527396678925,0.07042515277862549,-0.0017906676512211561,-0.07954868674278259,0.41456443071365356,5.3016886711120605,3.673828125
1868778,-0.05257614701986313,0.06923361867666245,-0.0016331635415554047,-0.04749050736427307,0.4414774775505066,5.2978081703186035,3.673828125
1868788,-0.05257262662053108,0.06917119026184082,-0.0016414821147918701,-0.04826034978032112,0.4422597885131836,5.292264461517334,3.673828125
1868798,-0.05223768949508667,0.07062280923128128,-0.001962157664820552,-0.07494358718395233,0.43396759033203125,5.317213535308838,3.673828125
1868808,-0.052225951105356216,0.07060056924819946,-0.001990760210901499,-0.07586558163166046,0.4352411925792694,5.310722351074219,3.673828125
1868818,-0.05293906107544899,0.06935831904411316,-0.001986098475754261,-0.043307628482580185,0.4592163860797882,5.2952117919921875,3.673828125
1868828,-0.052953239530324936,0.06928855180740356,-0.0020102104172110558,-0.04378426820039749,0.45830869674682617,5.288957118988037,3.673828125
1868838,-0.051836904138326645,0.07038544118404388,-0.00200909492559731,-0.07097851485013962,0.4203947186470032,5.300650119781494,3.673828125
1868848,-0.052500952035188675,0.06937754899263382,-0.001881865900941193,-0.0566122867166996,0.4306377172470093,5.262495040893555,3.673828125
1868858,-0.05248171463608742,0.06932847201824188,-0.0018969340017065406,-0.05735461041331291,0.430167555809021,5.258108615875244,3.66796875
1868868,-0.051928069442510605,0.07047703862190247,-0.0020725245121866465,-0.07786175608634949,0.4138001799583435,5.2913384437561035,3.673828125
1868878,-0.051891591399908066,0.07046189159154892,-0.002095064613968134,-0.07756801694631577,0.41274046897888184,5.286964416503906,3.673828125
1868888,-0.05265910178422928,0.06947628408670425,-0.0018344959244132042,-0.05112655088305473,0.4351370930671692,5.249753475189209,3.66796875
1868898,-0.05220898240804672,0.07037767767906189,-0.0019603059627115726,-0.06602440774440765,0.4264078438282013,5.268467903137207,3.673828125
1868908,-0.05219583213329315,0.07034676522016525,-0.0019710450433194637,-0.06674611568450928,0.42680567502975464,5.264317512512207,3.673828125
1868918,-0.05315832793712616,0.06948360055685043,-0.0014093804638832808,-0.04560941457748413,0.4555288851261139,5.233860015869141,3.673828125
1868928,-0.053181491792201996,0.06941720843315125,-0.0013836155412718654,-0.046529386192560196,0.4566667973995209,5.229282379150391,3.673828125
1868938,-0.05208499729633331,0.07068388164043427,-0.00137506949249655,-0.07503020763397217,0.42008429765701294,5.260963439941406,3.673828125
1868948,-0.052765876054763794,0.06946637481451035,-0.001325199380517006,-0.05636726692318916,0.43323439359664917,5.240554332733154,3.66796875
1868958,-0.052755117416381836,0.06941621750593185,-0.0013004697393625975,-0.0567810945212841,0.4332546889781952,5.2350640296936035,3.673828125
1868968,-0.05208003893494606,0.07058817893266678,-0.001420208951458335,-0.07965031266212463,0.4160662293434143,5.266119480133057,3.673828125
1868978,-0.05204961821436882,0.0705738216638565,-0.0014038269873708487,-0.07852166146039963,0.4165220856666565,5.2610931396484375,3.673828125
1868988,-0.05270633473992348,0.06922631710767746,-0.0014674996491521597,-0.04290781542658806,0.43675318360328674,5.2602033615112305,3.673828125
1868998,-0.051888637244701385,0.0703544169664383,-0.001535824267193675,-0.062237098813056946,0.41814911365509033,5.286101341247559,3.66796875
1869008,-0.051857490092515945,0.07031603157520294,-0.0015275938203558326,-0.06175098940730095,0.4193868935108185,5.281300067901611,3.673828125
1869018,-0.052687130868434906,0.06921319663524628,-0.0012266011908650398,-0.03383165970444679,0.44388893246650696,5.267740726470947,3.66796875
1869028,-0.052687183022499084,0.06913313269615173,-0.0012008112389594316,-0.03528979420661926,0.4438871741294861,5.262165069580078,3.66796875
1869038,-0.05166257172822952,0.07052067667245865,-0.0012938736472278833,-0.07052924484014511,0.4118335247039795,5.286601543426514,3.673828125
1869048,-0.052317094057798386,0.06901326775550842,-0.0014496942749246955,-0.047525107860565186,0.4227244257926941,5.2899556159973145,3.673828125
1869058,-0.0522889643907547,0.06895481795072556,-0.0014425888657569885,-0.048932645469903946,0.42025336623191833,5.28538703918457,3.673828125
1869068,-0.051434047520160675,0.07032468169927597,-0.0015822516288608313,-0.07711872458457947,0.39840421080589294,5.306046962738037,3.673828125
1869078,-0.05221417173743248,0.0693136677145958,-0.0012869085185229778,-0.0491824634373188,0.4236907660961151,5.273702144622803,3.66796875
1869088,-0.052190180867910385,0.0692625418305397,-0.0012653004378080368,-0.05040477216243744,0.4213387966156006,5.267566680908203,3.66796875
1869098,-0.05160904303193092,0.07056517153978348,-0.0014494915958493948,-0.07360278815031052,0.40656062960624695,5.292834758758545,3.673828125
1869108,-0.05156973376870155,0.07055255770683289,-0.0014409739524126053,-0.07413260638713837,0.4060420095920563,5.287565231323242,3.673828125
1869118,-0.05247534066438675,0.0690402165055275,-0.0013241101987659931,-0.032938797026872635,0.43636354804039,5.29587459564209,3.66796875
1869128,-0.05247534066438675,0.0690402165055275,-0.0013241101987659931,-0.032938797026872635,0.43636354804039,5.29587459564209,3.66796875
1869138,-0.05154342204332352,0.07035162299871445,-0.0014337877510115504,-0.06836016476154327,0.40374070405960083,5.31546688079834,3.673828125
1869148,-0.05212712660431862,0.06911952048540115,-0.0015062413876876235,-0.05035248398780823,0.4142838716506958,5.2914814949035645,3.673828125
1869158,-0.05209292098879814,0.06907903403043747,-0.0015009643975645304,-0.04950979724526405,0.41273462772369385,5.286739349365234,3.66796875
1869168,-0.05145573988556862,0.07039148360490799,-0.0017030913149937987,-0.07630013674497604,0.39555513858795166,5.310103893280029,3.66796875
1869178,-0.05216691642999649,0.06928974390029907,-0.0015675881877541542,-0.046279896050691605,0.4183380603790283,5.27463960647583,3.66796875
1869188,-0.05214381217956543,0.06924644857645035,-0.00156315416097641,-0.04635201394557953,0.41713061928749084,5.269079208374023,3.66796875
1869198,-0.05163062363862991,0.0704444870352745,-0.001750338589772582,-0.06732300668954849,0.4061065912246704,5.289454460144043,3.66796875
1869208,-0.0515933558344841,0.07043135911226273,-0.0017612023511901498,-0.06770948320627213,0.4060167670249939,5.283645153045654,3.66796875
1869218,-0.052430570125579834,0.06900539249181747,-0.0016912904102355242,-0.03215710073709488,0.43040230870246887,5.281210422515869,3.66796875
1869229,-0.05242408439517021,0.06893457472324371,-0.001695315819233656,-0.03333166241645813,0.43159589171409607,5.275700092315674,3.66796875
1869238,-0.05171322077512741,0.07041727751493454,-0.0019344419706612825,-0.06995488703250885,0.41130614280700684,5.310410976409912,3.673828125
1869248,-0.052665237337350845,0.06919030845165253,-0.0016321501461789012,-0.05342879146337509,0.4273468255996704,5.312227249145508,3.66796875
1869258,-0.0526539608836174,0.06914441287517548,-0.0016366895288228989,-0.052954837679862976,0.4263642132282257,5.306599140167236,3.673828125
1869268,-0.05176638811826706,0.07045963406562805,-0.0017590048955753446,-0.08137062937021255,0.40233564376831055,5.3174519538879395,3.673828125
1869278,-0.05176638811826706,0.07045963406562805,-0.0017590048955753446,-0.08137062937021255,0.40233564376831055,5.3174519538879395,3.66796875
1869288,-0.05263115093111992,0.0692833811044693,-0.0014597441768273711,-0.05081748217344284,0.43206286430358887,5.308165550231934,3.66796875
1869298,-0.05225135013461113,0.07031577080488205,-0.0016340407310053706,-0.0687679722905159,0.42392390966415405,5.329977512359619,3.66796875
1869308,-0.05223097652196884,0.0702909529209137,-0.0016382394824177027,-0.06962385773658752,0.42192286252975464,5.325422286987305,3.673828125
1869318,-0.052992843091487885,0.06900501251220703,-0.0015665458049625158,-0.03677593171596527,0.4476742744445801,5.332326889038086,3.673828125
1869329,-0.052992843091487885,0.06900501251220703,-0.0015665458049625158,-0.03677593171596527,0.4476742744445801,5.332326889038086,3.673828125
1869338,-0.0522269643843174,0.07050894945859909,-0.0017862064996734262,-0.07774978131055832,0.4199414551258087,5.346832275390625,3.673828125
1869348,-0.05295281484723091,0.06949252635240555,-0.0016064225928857923,-0.06376686692237854,0.43180790543556213,5.314032554626465,3.673828125
1869358,-0.052945639938116074,0.06946123391389847,-0.001609965693205595,-0.06462268531322479,0.43158116936683655,5.309434413909912,3.66796875
1869368,-0.052046727389097214,0.07066908478736877,-0.0016962632071226835,-0.08786299079656601,0.40915554761886597,5.337130546569824,3.66796875
1869378,-0.052046727389097214,0.07066908478736877,-0.0016962632071226835,-0.08786299079656601,0.40915554761886597,5.337130546569824,3.66796875
1869388,3.1806644074094947e-06,-1.5357089750978048e-06,6.895861588418484e-07,0.00041183692519553006,0.0020960213150829077,0.00028732678038068116,3.66796875
1869398,-0.08653432875871658,0.10711129754781723,0.06967207789421082,-0.00039799234946258366,0.003723240690305829,2.870434284210205,3.673828125
1869408,-0.08651892095804214,0.10710380226373672,0.0696750283241272,-0.0004670665948651731,0.004607648588716984,2.8664941787719727,3.673828125
1869418,-0.05278067663311958,0.06950204074382782,-0.001651523169130087,0.02743440307676792,0.026770032942295074,3.8980114459991455,3.66796875
1869428,-0.05278067663311958,0.06950204074382782,-0.001651523169130087,0.02743440307676792,0.026770032942295074,3.8980114459991455,3.66796875
1869438,-0.05192484334111214,0.07062825560569763,-0.0016428343951702118,-0.00033284196979366243,-0.0004420428304001689,4.362247467041016,3.66796875
1869448,-0.05273790657520294,0.06955336034297943,-0.0013466663658618927,0.030197741463780403,0.02708422765135765,4.478985786437988,3.66796875
1869458,-0.05270249769091606,0.06950407475233078,-0.0013284834567457438,0.030496880412101746,0.02844056859612465,4.474106788635254,3.66796875
1869468,-0.051915984600782394,0.0705733448266983,-0.001409272663295269,-0.011396646499633789,-0.0033297843765467405,4.681715965270996,3.66796875
1869478,-0.051915984600782394,0.0705733448266983,-0.001409272663295269,-0.011396646499633789,-0.0033297843765467405,4.681715965270996,3.673828125
1869488,-0.05253719538450241,0.06891763210296631,-0.0016663775313645601,0.06260655075311661,0.03860468044877052,4.876920223236084,3.673828125
1869498,-0.051653262227773666,0.0704098790884018,-0.001871900400146842,-0.04769565910100937,-0.0384407564997673,4.9836344718933105,3.66796875
1869508,-0.05155742168426514,0.07040207833051682,-0.0018851268105208874,-0.04969074949622154,-0.03738043084740639,4.979629993438721,3.66796875
1869518,-0.05220486968755722,0.06934989243745804,-0.0017297475133091211,0.06416689604520798,0.06208691745996475,4.979715347290039,3.66796875
1869528,-0.05212869495153427,0.06929616630077362,-0.0017329554539173841,0.06306347995996475,0.06215457245707512,4.974997043609619,3.673828125
1869538,-0.05134342983365059,0.07026778906583786,-0.0018234068993479013,0.00068026187364012,0.007778195198625326,5.057243347167969,3.66796875
1869548,-0.05229733884334564,0.069011390209198,-0.0014290850376710296,0.15607689321041107,0.15789806842803955,5.128166198730469,3.66796875
1869558,-0.05223952978849411,0.06891413778066635,-0.001412905752658844,0.15650759637355804,0.15461324155330658,5.122727870941162,3.673828125
1869568,-0.05156305059790611,0.07023810595273972,-0.001631597406230867,-0.011014120653271675,0.07161018997430801,5.185304164886475,3.673828125
1869578,-0.051465995609760284,0.0702110156416893,-0.001631713705137372,-0.010818985290825367,0.07151170074939728,5.180428981781006,3.673828125
1869588,-0.05211123079061508,0.06897469609975815,-0.0015631308779120445,0.07255177199840546,0.13335153460502625,5.201676845550537,3.673828125
1869598,-0.051430318504571915,0.07027953118085861,-0.0017583126900717616,-0.061394624412059784,0.057044047862291336,5.2557477951049805,3.66796875
1869608,-0.0513078048825264,0.07027638703584671,-0.00177086575422436,-0.062118299305438995,0.05934685841202736,5.248579978942871,3.673828125
1869618,-0.05218984931707382,0.06891728192567825,-0.0015264184912666678,0.1191437691450119,0.22011388838291168,5.287546157836914,3.673828125
1869628,-0.05212463438510895,0.06881812959909439,-0.0015210018027573824,0.11966580152511597,0.22046154737472534,5.283773899078369,3.673828125
1869638,-0.05141850933432579,0.07026684284210205,-0.001761431572958827,-0.014031815342605114,0.14943821728229523,5.320457935333252,3.673828125
1869648,-0.05221135541796684,0.06929971277713776,-0.001369987498037517,0.10682840645313263,0.2779650092124939,5.28418493270874,3.673828125
1869658,-0.0521651916205883,0.069198377430439,-0.0013546573463827372,0.10762055218219757,0.27835220098495483,5.277681827545166,3.66796875
1869668,-0.051674604415893555,0.07045484334230423,-0.0015659462660551071,-0.04725199565291405,0.21401984989643097,5.319459915161133,3.66796875
1869679,-0.05159784480929375,0.07043924927711487,-0.0015656447503715754,-0.047913309186697006,0.21157290041446686,5.313473701477051,3.66796875
1869688,-0.05224452167749405,0.06900746375322342,-0.0016462751664221287,0.04725991562008858,0.264545738697052,5.305436134338379,3.66796875
1869698,-0.05166647955775261,0.07041116803884506,-0.0018918709829449654,-0.08643947541713715,0.20260317623615265,5.328403472900391,3.66796875
1869708,-0.05157456174492836,0.07041390240192413,-0.001910667633637786,-0.08684329688549042,0.20204797387123108,5.324143886566162,3.66796875
1869718,-0.052642449736595154,0.06926751881837845,-0.0013788597425445914,0.040862731635570526,0.34684115648269653,5.330749988555908,3.66796875
1869729,-0.05262279883027077,0.06918437778949738,-0.0013584159314632416,0.040658559650182724,0.3458106517791748,5.324946403503418,3.66796875
1869738,-0.051995303481817245,0.07061153650283813,-0.0015569215174764395,-0.05967366695404053,0.29398658871650696,5.367402076721191,3.673828125
1869748,-0.05257931351661682,0.06914223730564117,-0.0017409983556717634,0.08810355514287949,0.3767580986022949,5.381124496459961,3.673828125
1869758,-0.05257171392440796,0.069022536277771,-0.0017414598260074854,0.08832786977291107,0.3758239150047302,5.37571382522583,3.673828125
1869768,-0.05211986228823662,0.07062038779258728,-0.0020797455217689276,-0.08002415299415588,0.31402477622032166,5.391779899597168,3.673828125
1869779,-0.0520809069275856,0.07061149924993515,-0.002106464235112071,-0.07994662970304489,0.3137047588825226,5.387448787689209,3.673828125
1869788,-0.052955880761146545,0.06948750466108322,-0.0018243088852614164,-0.028352413326501846,0.3671121597290039,5.374175071716309,3.66796875
1869798,-0.05208000913262367,0.07054602354764938,-0.0018757235957309604,-0.0995185375213623,0.29393354058265686,5.4074177742004395,3.66796875
1869808,-0.05202242359519005,0.07055140286684036,-0.0018906512996181846,-0.10043927282094955,0.2951188385486603,5.402936935424805,3.66796875
1869818,-0.052934903651475906,0.0693841427564621,-0.0015754239866510034,-0.0004618448147084564,0.38805070519447327,5.397302627563477,3.66796875
1869829,-0.05293724685907364,0.06931013613939285,-0.0015662068035453558,-0.0010417139856144786,0.388801246881485,5.391106605529785,3.673828125
1869838,-0.052147939801216125,0.070670485496521,-0.0017154669621959329,-0.0742102637887001,0.3359955847263336,5.423612117767334,3.673828125
1869848,-0.0527108795940876,0.0696236789226532,-0.001696994062513113,0.006421060301363468,0.39018890261650085,5.379295825958252,3.673828125
1869858,-0.052708856761455536,0.06953828781843185,-0.0017003407701849937,0.00746661052107811,0.3890034854412079,5.374345779418945,3.673828125
1869868,-0.052216917276382446,0.07048476487398148,-0.00183283316437155,-0.06348510086536407,0.3440898358821869,5.395817756652832,3.673828125
1869879,-0.05218392610549927,0.0704566165804863,-0.0018469393253326416,-0.06367205083370209,0.3435189425945282,5.390885829925537,3.673828125
1869888,-0.053030889481306076,0.06950197368860245,-0.0014788841363042593,-0.03243465721607208,0.38315269351005554,5.368050575256348,3.673828125
1869898,-0.05215654522180557,0.07072611153125763,-0.0015661923680454493,-0.1016160175204277,0.32261738181114197,5.387682914733887,3.66796875
1869908,-0.05210530757904053,0.070731021463871,-0.0015645907260477543,-0.10248004645109177,0.32185301184654236,5.382967472076416,3.673828125
1869918,-0.052629876881837845,0.06929565221071243,-0.0018150340765714645,-0.005018837749958038,0.36916059255599976,5.365396976470947,3.673828125
1869928,-0.05260494723916054,0.06921282410621643,-0.0018255214672535658,-0.004878989886492491,0.3700810372829437,5.360229015350342,3.673828125
1869938,-0.05178046599030495,0.07048924267292023,-0.0019897213205695152,-0.0632704645395279,0.3294200897216797,5.379085540771484,3.673828125
1869948,-0.052758101373910904,0.06955134123563766,-0.0014327086973935366,-0.007420968264341354,0.3975440561771393,5.3520026206970215,3.673828125
1869958,-0.052750151604413986,0.06946676224470139,-0.0014126610476523638,-0.00852967519313097,0.39671680331230164,5.347384929656982,3.673828125
1869968,-0.05200523883104324,0.07067935168743134,-0.001530265319161117,-0.08187419176101685,0.34140700101852417,5.368021488189697,3.673828125
1869978,-0.05195271968841553,0.07066579163074493,-0.001521242200396955,-0.08055528253316879,0.341718465089798,5.362940311431885,3.673828125
1869988,-0.052793677896261215,0.06927663087844849,-0.0013862138148397207,-0.038718897849321365,0.37192150950431824,5.369656085968018,3.66796875
1869998,-0.05182288587093353,0.0705990120768547,-0.0014615915715694427,-0.09706315398216248,0.31625157594680786,5.3898091316223145,3.673828125
1870008,-0.05174468085169792,0.07060054689645767,-0.0014528713654726744,-0.09677105396986008,0.3177269697189331,5.383184909820557,3.673828125
1870018,-0.05230037495493889,0.06935527920722961,-0.0015166581142693758,-0.028719397261738777,0.3577401340007782,5.34930419921875,3.673828125
1870029,-0.052250225096940994,0.06928834319114685,-0.0015094656264409423,-0.028408879414200783,0.3562127649784088,5.343390941619873,3.66796875
1870038,-0.051509272307157516,0.07058724761009216,-0.0016659059328958392,-0.07095850259065628,0.3285731375217438,5.368314743041992,3.673828125
1870048,-0.05233350023627281,0.06930243223905563,-0.00146116828545928,-0.0061028869822621346,0.3800140619277954,5.352342128753662,3.673828125
1870058,-0.052301228046417236,0.0692085474729538,-0.0014505323488265276,-0.0056016952730715275,0.3813176453113556,5.346569538116455,3.673828125
1870068,-0.05159919708967209,0.07037563621997833,-0.0015951700042933226,-0.06456699967384338,0.34307003021240234,5.371142387390137,3.673828125
1870079,-0.05228174105286598,0.06903485953807831,-0.0015932518290355802,-0.029110781848430634,0.3651912808418274,5.367079734802246,3.66796875
1870088,-0.0522286519408226,0.06896582990884781,-0.0015949022490531206,-0.02763236314058304,0.3665678799152374,5.360754489898682,3.673828125
1870098,-0.0514574758708477,0.07046112418174744,-0.0018076198175549507,-0.08452323079109192,0.3311222195625305,5.380726337432861,3.673828125
1870108,-0.05136267468333244,0.07045644521713257,-0.0018237928161397576,-0.08418693393468857,0.3307770788669586,5.375770568847656,3.673828125
1870118,-0.052385419607162476,0.06916507333517075,-0.001418386586010456,-0.05370552837848663,0.36484208703041077,5.375161647796631,3.66796875
1870129,-0.05232878401875496,0.06912390887737274,-0.0014077115338295698,-0.053788576275110245,0.36443957686424255,5.370723247528076,3.673828125
1870138,-0.051652781665325165,0.07046415656805038,-0.0015910270158201456,-0.10108070820569992,0.3357890844345093,5.386544227600098,3.673828125
1870148,-0.0522705614566803,0.06908402591943741,-0.0016925286035984755,-0.03851601853966713,0.37231454253196716,5.379583358764648,3.66796875
1870158,-0.05221664160490036,0.06902726739645004,-0.0016926780808717012,-0.03790929168462753,0.37086525559425354,5.374905586242676,3.66796875
1870168,-0.05149344727396965,0.07001017779111862,-0.0017960115801542997,-0.06284856051206589,0.35168343782424927,5.401299476623535,3.66796875
1870179,-0.051419828087091446,0.06998367607593536,-0.0018011655192822218,-0.0631536915898323,0.3518880307674408,5.3971757888793945,3.66796875
1870188,-0.05218766629695892,0.06891496479511261,-0.0015206770040094852,-0.022070540115237236,0.38981881737709045,5.3580322265625,3.66796875
1870198,-0.051583729684352875,0.07026918977499008,-0.0017215547850355506,-0.07367507368326187,0.36398637294769287,5.388749599456787,3.66796875
1870208,-0.051516976207494736,0.07025408744812012,-0.0017194347456097603,-0.07420403510332108,0.36278560757637024,5.382936477661133,3.673828125
1870218,-0.05229487642645836,0.06892262399196625,-0.0016160719096660614,-0.04514037072658539,0.3837062418460846,5.373739719390869,3.673828125
1870229,-0.052247196435928345,0.06887029856443405,-0.0016097716288641095,-0.04541574791073799,0.3828378915786743,5.368383884429932,3.66796875
1870238,-0.051766540855169296,0.07026024162769318,-0.0018934971885755658,-0.089164137840271,0.3672904074192047,5.377692699432373,3.673828125
1870248,-0.05254760757088661,0.0692305788397789,-0.001618157490156591,-0.04978825896978378,0.40338754653930664,5.363097667694092,3.673828125
1870258,-0.05251958966255188,0.06917834281921387,-0.001608417253009975,-0.050087250769138336,0.4044260084629059,5.356329441070557,3.673828125
1870268,-0.05179738253355026,0.07041618227958679,-0.0017550673801451921,-0.08138827234506607,0.3827221989631653,5.3671722412109375,3.673828125
1870279,-0.051743410527706146,0.07040175795555115,-0.0017565861344337463,-0.08293553441762924,0.3856450319290161,5.3605852127075195,3.66796875
1870288,-0.05258569121360779,0.0691455751657486,-0.0015318685909733176,-0.03902062028646469,0.4197423458099365,5.349818229675293,3.66796875
1870298,-0.052016641944646835,0.07034908980131149,-0.001695840386673808,-0.08228268474340439,0.3937106430530548,5.360202312469482,3.673828125
1870308,-0.05197124555706978,0.07033390551805496,-0.0016924873925745487,-0.08170317113399506,0.3931784927845001,5.354491710662842,3.673828125
1870318,-0.05264167860150337,0.0690753161907196,-0.0016837454168125987,-0.05604799464344978,0.4090968370437622,5.355342864990234,3.673828125
1870330,-0.052609920501708984,0.06902987509965897,-0.0016795671544969082,-0.05692274123430252,0.40858614444732666,5.34970235824585,3.66796875
1870338,-0.05195090174674988,0.07047060877084732,-0.0019235953222960234,-0.09812169522047043,0.38893091678619385,5.368664264678955,3.66796875
1870348,-0.05275828018784523,0.06959249824285507,-0.0015439348062500358,-0.0673171877861023,0.42210260033607483,5.329015254974365,3.673828125
1870358,-0.05274008587002754,0.06956096738576889,-0.0015302104875445366,-0.06755916774272919,0.4217086136341095,5.323735237121582,3.673828125
1870368,-0.05211891978979111,0.07050038129091263,-0.0016163740074262023,-0.08726722747087479,0.40574830770492554,5.339345932006836,3.673828125
1870378,-0.05208297073841095,0.07049965858459473,-0.0016060087364166975,-0.08739189058542252,0.40454232692718506,5.333764553070068,3.673828125
1870388,-0.05286229029297829,0.06950560957193375,-0.0013065522070974112,-0.05488603934645653,0.43514934182167053,5.300458908081055,3.66796875
1870398,-0.05217916518449783,0.07079201191663742,-0.0014342429349198937,-0.09720136970281601,0.40493226051330566,5.324211120605469,3.66796875
1870408,-0.05214730650186539,0.07080017030239105,-0.0014174790121614933,-0.0981842428445816,0.40470680594444275,5.319770812988281,3.66796875
1870418,-0.0527813583612442,0.06957820802927017,-0.0014370391145348549,-0.07594769448041916,0.4176661968231201,5.299088954925537,3.66796875
1870429,-0.05276010185480118,0.06955649703741074,-0.0014221039600670338,-0.07717246562242508,0.4170176684856415,5.293819427490234,3.673828125
1870438,-0.05188479647040367,0.07065825909376144,-0.0014629578217864037,-0.10521851480007172,0.38809049129486084,5.305750370025635,3.66796875
1870448,-0.05238960310816765,0.06939949095249176,-0.0016416390426456928,-0.0634334459900856,0.41142770648002625,5.29355525970459,3.66796875
1870458,-0.05236387625336647,0.06936018913984299,-0.0016417228616774082,-0.06352908909320831,0.4123682677745819,5.2882256507873535,3.66796875
1870468,-0.05171455815434456,0.0704754963517189,-0.0017694836715236306,-0.08637243509292603,0.39547914266586304,5.303875923156738,3.673828125
1870479,-0.051671307533979416,0.07047000527381897,-0.0017758761532604694,-0.08649177104234695,0.39515864849090576,5.299141883850098,3.66796875
1870488,-0.05257727950811386,0.06906584650278091,-0.001601438270881772,-0.04435855150222778,0.42766883969306946,5.303874492645264,3.66796875
1870498,-0.051719944924116135,0.07040580362081528,-0.0017245860071852803,-0.08196225762367249,0.39464423060417175,5.32828426361084,3.66796875
1870508,-0.05167622119188309,0.07039694488048553,-0.0017258782172575593,-0.08210195600986481,0.394508957862854,5.324299335479736,3.673828125
1870518,-0.052515909075737,0.0690850242972374,-0.0015761388931423426,-0.06117505207657814,0.4108163118362427,5.3287529945373535,3.673828125
1870529,-0.05249080806970596,0.06904454529285431,-0.0015702329110354185,-0.061040543019771576,0.41034603118896484,5.322543621063232,3.66796875
1870538,-0.051500771194696426,0.07049339264631271,-0.0017165904864668846,-0.09459152817726135,0.38283872604370117,5.344475746154785,3.66796875
1870548,-0.052323926240205765,0.06930076330900192,-0.0015106768114492297,-0.05764763429760933,0.4135218858718872,5.316865921020508,3.66796875
1870558,-0.052301861345767975,0.06925825774669647,-0.0014979337574914098,-0.05710988864302635,0.413238525390625,5.311882972717285,3.673828125
1870568,-0.05143582448363304,0.0704784244298935,-0.0015984446508809924,-0.08315548300743103,0.3933570384979248,5.338839054107666,3.66796875
1870579,-0.051392581313848495,0.07047067582607269,-0.0015917883720248938,-0.08130119740962982,0.3929423987865448,5.333053112030029,3.66796875
1870588,-0.052515000104904175,0.06915841996669769,-0.0011002679821103811,-0.04283016175031662,0.43115848302841187,5.325259208679199,3.66796875
1870598,-0.0518612414598465,0.07053880393505096,-0.0012581140035763383,-0.0838717520236969,0.40372827649116516,5.3447747230529785,3.673828125
1870608,-0.051834382116794586,0.07053244858980179,-0.0012311504688113928,-0.08324253559112549,0.40235263109207153,5.340033054351807,3.673828125
1870618,-0.052587080746889114,0.06930439174175262,-0.0011056860676035285,-0.06386323273181915,0.4163120985031128,5.327380180358887,3.66796875
1870629,-0.05257468298077583,0.06926761567592621,-0.0010719157289713621,-0.06221086531877518,0.41501739621162415,5.322196006774902,3.66796875
1870638,-0.05178011208772659,0.07067113369703293,-0.0012061700690537691,-0.09616480022668839,0.39156848192214966,5.344437599182129,3.66796875
1870648,-0.052544254809617996,0.0692063719034195,-0.0012260512448847294,-0.05069176107645035,0.4200524091720581,5.338889122009277,3.673828125
1870658,-0.052535753697156906,0.06915280222892761,-0.001202101120725274,-0.050781864672899246,0.42056822776794434,5.33269739151001,3.66796875
1870668,-0.05191940441727638,0.07065898925065994,-0.0014486382715404034,-0.08106809109449387,0.40525585412979126,5.35483455657959,3.66796875
1870679,-0.051894232630729675,0.07064756751060486,-0.0014431520830839872,-0.08073451370000839,0.4046901762485504,5.348942756652832,3.66796875
1870688,-0.05253814160823822,0.06915821880102158,-0.0016300978604704142,-0.03919818997383118,0.4276726245880127,5.3348469734191895,3.66796875
1870698,-0.05174785479903221,0.07044492661952972,-0.0017693780828267336,-0.07494208216667175,0.3979485034942627,5.349572658538818,3.66796875
1870708,-0.051714688539505005,0.07042582333087921,-0.0017819864442571998,-0.07407641410827637,0.3978251516819,5.343625068664551,3.66796875
1870718,-0.05243635177612305,0.06939098984003067,-0.0015995302237570286,-0.059288814663887024,0.4094643294811249,5.306239128112793,3.66796875
1870730,-0.05241752043366432,0.06934788078069687,-0.001602990785613656,-0.05980749428272247,0.41011565923690796,5.3004608154296875,3.673828125
1870738,-0.051900770515203476,0.07051827013492584,-0.0017898018704727292,-0.08475091308355331,0.39624568819999695,5.324635028839111,3.673828125
1870748,-0.05275272950530052,0.06948632001876831,-0.0014711905969306827,-0.05526750162243843,0.42439448833465576,5.294253826141357,3.66796875
1870758,-0.05275433883070946,0.06943497061729431,-0.0014590452192351222,-0.0556219220161438,0.42451590299606323,5.288872718811035,3.66796875
1870768,-0.05220728740096092,0.07049152255058289,-0.0015827557072043419,-0.07436348497867584,0.41252830624580383,5.30888557434082,3.66796875
1870779,-0.05219316855072975,0.07047099620103836,-0.0015747954603284597,-0.07330059260129929,0.4123225808143616,5.30346155166626,3.673828125
1870788,-0.05281710997223854,0.06954163312911987,-0.0014216017443686724,-0.04767831787467003,0.4320451319217682,5.26255464553833,3.66796875
1870798,-0.052825357764959335,0.06948573142290115,-0.0014024421107023954,-0.04611431434750557,0.43107765913009644,5.259042739868164,3.66796875
1870808,-0.052096616476774216,0.0706416442990303,-0.001507270848378539,-0.0775260403752327,0.4062221348285675,5.280142307281494,3.66796875
1870818,-0.0529867522418499,0.06923545897006989,-0.0013660110998898745,-0.05506870523095131,0.42125222086906433,5.3000640869140625,3.66796875
1870828,-0.05298105999827385,0.06919200718402863,-0.0013464222429320216,-0.05575010925531387,0.4212704002857208,5.295120716094971,3.66796875
1870838,-0.05202457681298256,0.07047893106937408,-0.0014128517359495163,-0.08323198556900024,0.39560219645500183,5.308772563934326,3.66796875
1870848,-0.05276481807231903,0.0691923275589943,-0.0013430982362478971,-0.04739027097821236,0.42061784863471985,5.310137748718262,3.66796875
1870858,-0.05275152623653412,0.06913387030363083,-0.0013223260175436735,-0.04689222574234009,0.4192608892917633,5.305349349975586,3.673828125
1870868,-0.05197257548570633,0.07053818553686142,-0.001500653219409287,-0.07342634350061417,0.3998928368091583,5.321281433105469,3.66796875
1870879,-0.05264788493514061,0.06919533014297485,-0.0015421033604070544,-0.036313652992248535,0.4228643774986267,5.31433629989624,3.66796875
1870888,-0.052637968212366104,0.069122314453125,-0.0015392163768410683,-0.03625750541687012,0.42272672057151794,5.3078932762146,3.66796875
1870898,-0.05185414105653763,0.07046743482351303,-0.001713446108624339,-0.07298021763563156,0.3959919214248657,5.326549053192139,3.66796875
1870908,-0.05180978775024414,0.07045155018568039,-0.001725623500533402,-0.07205460965633392,0.3947358727455139,5.322092056274414,3.673828125
1870918,-0.05247431620955467,0.06922895461320877,-0.0017180473078042269,-0.05436119809746742,0.40756937861442566,5.298904895782471,3.66796875
1870930,-0.0524398498237133,0.0691835954785347,-0.0017298987368121743,-0.05427614971995354,0.40796467661857605,5.29263973236084,3.673828125
1870938,-0.05164128169417381,0.07041040807962418,-0.0018648424884304404,-0.08033660054206848,0.3863782584667206,5.306441783905029,3.673828125
1870948,-0.05259718745946884,0.06919160485267639,-0.001529294648207724,-0.04685879126191139,0.4182344377040863,5.299082279205322,3.673828125
1870958,-0.05257335305213928,0.0691327303647995,-0.0015244707465171814,-0.04615991190075874,0.416713148355484,5.2936553955078125,3.673828125
1870968,-0.05153554677963257,0.07035905867815018,-0.0015962752513587475,-0.06886926293373108,0.3917677104473114,5.319833755493164,3.673828125
1870979,-0.05148104205727577,0.07033655047416687,-0.0015954524278640747,-0.07101210951805115,0.390832781791687,5.314620494842529,3.66796875
1870988,-0.05237147584557533,0.06907340884208679,-0.0013287216424942017,-0.03776504471898079,0.4202016592025757,5.296103000640869,3.66796875
1870998,-0.05161096155643463,0.07041177153587341,-0.0014926973963156343,-0.07348301261663437,0.3961750566959381,5.321872234344482,3.66796875
1871008,-0.05156361311674118,0.0703909620642662,-0.0014918935485184193,-0.07411517202854156,0.3946189880371094,5.3154449462890625,3.66796875
1871018,-0.052376504987478256,0.06902099400758743,-0.0013971683802083135,-0.05487781763076782,0.40990960597991943,5.31813383102417,3.66796875
1871030,-0.05234469845890999,0.06896858662366867,-0.0013927227118983865,-0.055383726954460144,0.4083307981491089,5.314436912536621,3.673828125
1871038,-0.05161310359835625,0.0704433023929596,-0.001609454513527453,-0.08810979872941971,0.38923677802085876,5.332624435424805,3.673828125
1871048,-0.05231402441859245,0.06940682232379913,-0.0014311181148514152,-0.05976874753832817,0.4130346477031708,5.306600570678711,3.673828125
1871058,-0.052285101264715195,0.06935565918684006,-0.0014241398312151432,-0.060352154076099396,0.41408294439315796,5.302155017852783,3.673828125
1871068,-0.051654938608407974,0.07051283866167068,-0.0015613215509802103,-0.07833980768918991,0.4030660390853882,5.326503753662109,3.66796875
1871079,-0.05160705745220184,0.07048942148685455,-0.001562232617288828,-0.07729174196720123,0.4024795889854431,5.321572780609131,3.673828125
1871088,-0.05251103267073631,0.06931422650814056,-0.0012182239443063736,-0.04640953987836838,0.43008431792259216,5.297985076904297,3.673828125
1871098,-0.05203676596283913,0.07063708454370499,-0.001460734405554831,-0.08338206261396408,0.41433432698249817,5.323119163513184,3.66796875
1871108,-0.052008308470249176,0.07062041759490967,-0.001461958745494485,-0.08205430954694748,0.41359660029411316,5.318117618560791,3.673828125
1871118,-0.052755579352378845,0.0693659633398056,-0.001395216560922563,-0.06380002945661545,0.4267411530017853,5.289988040924072,3.673828125
1871128,-0.052741553634405136,0.06932276487350464,-0.0013924783561378717,-0.0643284022808075,0.42721661925315857,5.285340309143066,3.66796875
1871138,-0.051840491592884064,0.07056615501642227,-0.0014807465486228466,-0.09045466780662537,0.40341562032699585,5.310391426086426,3.66796875
1871148,-0.05269916355609894,0.0692022293806076,-0.0013418897287920117,-0.05240432545542717,0.43238091468811035,5.314990997314453,3.66796875
1871158,-0.05268816277384758,0.06914171576499939,-0.001332428422756493,-0.05280892550945282,0.43262502551078796,5.3120880126953125,3.66796875
1871168,-0.052001770585775375,0.07059986889362335,-0.0015564439818263054,-0.08054856210947037,0.4155782163143158,5.333133220672607,3.66796875
1871178,-0.05197025090456009,0.07058187574148178,-0.0015581956831738353,-0.08121411502361298,0.41581907868385315,5.327944278717041,3.66796875
1871188,-0.05290572717785835,0.06919171661138535,-0.001346349366940558,-0.04389657452702522,0.44568324089050293,5.3230462074279785,3.66796875
1871198,-0.052906833589076996,0.06912010163068771,-0.001334665110334754,-0.04339468106627464,0.4452279508113861,5.317221641540527,3.66796875
1871208,-0.052142489701509476,0.07069160044193268,-0.0015545306960120797,-0.08433070033788681,0.4170383810997009,5.3359551429748535,3.673828125
1871218,-0.052764274179935455,0.06915433704853058,-0.0018075212137773633,-0.059622544795274734,0.4283114969730377,5.332795143127441,3.66796875
1871228,-0.052741639316082,0.0691104382276535,-0.0018249494023621082,-0.05884341150522232,0.4271516501903534,5.325562477111816,3.66796875
1871238,-0.05170779675245285,0.07039684057235718,-0.0019123920938000083,-0.08466066420078278,0.39943626523017883,5.337244033813477,3.66796875
1871248,-0.052664320915937424,0.06936672329902649,-0.0014726206427440047,-0.05583467334508896,0.4304106831550598,5.3155035972595215,3.673828125
1871258,-0.05264534428715706,0.06932464987039566,-0.0014659566804766655,-0.056177809834480286,0.4301305115222931,5.311275959014893,3.673828125
1871268,-0.05191590636968613,0.07057300209999084,-0.0016251695342361927,-0.07953924685716629,0.41277801990509033,5.3297810554504395,3.66796875
1871278,-0.05187618359923363,0.07056425511837006,-0.0016305960016325116,-0.07941412925720215,0.41091951727867126,5.324669361114502,3.673828125
1871288,-0.05271350219845772,0.06916376948356628,-0.0015349705936387181,-0.04339803010225296,0.43650001287460327,5.326583385467529,3.673828125
1871298,-0.05190744623541832,0.07035905867815018,-0.0016393810510635376,-0.07468990236520767,0.4068155288696289,5.33918571472168,3.673828125
1871308,-0.051861826330423355,0.07034499943256378,-0.0016472165007144213,-0.07510925829410553,0.4067482054233551,5.332137107849121,3.673828125
1871318,-0.05252934992313385,0.06915729492902756,-0.0016047615790739655,-0.05718362703919411,0.4189928472042084,5.327359676361084,3.673828125
1871330,-0.0524960495531559,0.06911768764257431,-0.0016101546352729201,-0.05647372826933861,0.41919687390327454,5.32190465927124,3.673828125
1871338,-0.05177709460258484,0.07049252092838287,-0.0018146283691748977,-0.08632297068834305,0.39856380224227905,5.34071159362793,3.673828125
1871348,-0.052467230707407,0.06940236687660217,-0.0016987663693726063,-0.056365013122558594,0.42238351702690125,5.324004650115967,3.66796875
1871358,-0.05243929103016853,0.06936374306678772,-0.0017061600228771567,-0.05497448891401291,0.42178839445114136,5.317763328552246,3.66796875
1871368,-0.0516907162964344,0.0704883560538292,-0.0018195107113569975,-0.07399047166109085,0.40391069650650024,5.334742546081543,3.66796875
1871380,-0.05239482596516609,0.06929932534694672,-0.00173371029086411,-0.0403258390724659,0.42802175879478455,5.320439338684082,3.673828125
1871388,-0.05237308889627457,0.06923656165599823,-0.0017415547044947743,-0.040044404566287994,0.42759451270103455,5.315223693847656,3.66796875
1871398,-0.052351225167512894,0.06917308270931244,-0.0017501789843663573,-0.04137687757611275,0.4260874390602112,5.309669017791748,3.673828125
1871408,-0.05161874741315842,0.07041081041097641,-0.0019240317633375525,-0.07343083620071411,0.4036637544631958,5.330714702606201,3.673828125
1871418,-0.05263418331742287,0.06943032890558243,-0.0013812084216624498,-0.06210717186331749,0.42243364453315735,5.302913665771484,3.673828125
1871430,-0.05260631814599037,0.0693991556763649,-0.0013732907827943563,-0.0606689527630806,0.42203620076179504,5.297751426696777,3.673828125
1871438,-0.051733728498220444,0.07059680670499802,-0.0014614744577556849,-0.08368542790412903,0.40038004517555237,5.318700313568115,3.673828125
1871448,-0.051733728498220444,0.07059680670499802,-0.0014614744577556849,-0.08368542790412903,0.40038004517555237,5.318700313568115,3.66796875
1871458,-0.05230747535824776,0.06917870044708252,-0.0016172043979167938,-0.04669582471251488,0.42038294672966003,5.307577610015869,3.673828125
1871468,-0.051437973976135254,0.07034997642040253,-0.0017333118012174964,-0.06705270707607269,0.40239718556404114,5.334653377532959,3.673828125
1871480,-0.05138365179300308,0.07033267617225647,-0.0017526281299069524,-0.06679867953062057,0.4027162790298462,5.330377101898193,3.673828125
1871488,-0.052340712398290634,0.06920649856328964,-0.0013314180541783571,-0.037681519985198975,0.434608519077301,5.316522121429443,3.673828125
1871498,-0.052340712398290634,0.06920649856328964,-0.0013314180541783571,-0.037681519985198975,0.434608519077301,5.316522121429443,3.673828125
1871508,-0.051503296941518784,0.07037464529275894,-0.0014522082637995481,-0.06583370268344879,0.40918195247650146,5.338830947875977,3.673828125
1871518,-0.052246298640966415,0.06900592148303986,-0.0014312488492578268,-0.045034393668174744,0.42165622115135193,5.3418169021606445,3.673828125
1871530,-0.05221373960375786,0.06895791739225388,-0.0014303391799330711,-0.04535732418298721,0.42019912600517273,5.335031032562256,3.673828125
1871538,-0.05157322809100151,0.07061157375574112,-0.0017209257930517197,-0.07751676440238953,0.4014230966567993,5.357480525970459,3.66796875
1871548,-0.05228285863995552,0.06942151486873627,-0.0016477493336424232,-0.044373612850904465,0.4253835380077362,5.336088180541992,3.673828125
1871558,-0.05225609615445137,0.0693766325712204,-0.001660404959693551,-0.04421381652355194,0.4242246150970459,5.330783367156982,3.673828125
1871568,-0.05155722796916962,0.07035568356513977,-0.001766902394592762,-0.05875210836529732,0.4127143621444702,5.360049247741699,3.673828125
1871578,-0.05151800066232681,0.07033216953277588,-0.0017843055538833141,-0.058772820979356766,0.41318196058273315,5.355019569396973,3.66796875
1871588,-0.052320875227451324,0.06932100653648376,-0.0014793651644140482,-0.032380249351263046,0.43677398562431335,5.323505878448486,3.673828125
1871598,-0.052320875227451324,0.06932100653648376,-0.0014793651644140482,-0.032380249351263046,0.43677398562431335,5.323505878448486,3.673828125
1871608,-0.05175231397151947,0.07049379497766495,-0.0016723978333175182,-0.06263802945613861,0.41863152384757996,5.341914176940918,3.673828125
1871618,-0.05266072601079941,0.06943518668413162,-0.0013114450266584754,-0.049661267548799515,0.4331032931804657,5.30839204788208,3.66796875
1871628,-0.052652522921562195,0.06939046829938889,-0.0013075873721390963,-0.05038021132349968,0.43237054347991943,5.303429126739502,3.673828125
1871638,-0.052098628133535385,0.07068873196840286,-0.0015211798017844558,-0.07676901668310165,0.417013943195343,5.324525356292725,3.673828125
1871648,-0.052877891808748245,0.06927645206451416,-0.001536497613415122,-0.0377807542681694,0.44388794898986816,5.327682018280029,3.673828125
1871658,-0.05288367345929146,0.06921409070491791,-0.0015459562418982387,-0.03814928978681564,0.44341549277305603,5.322646617889404,3.673828125
1871668,-0.051908984780311584,0.07050947099924088,-0.0016313407104462385,-0.05860874429345131,0.42220646142959595,5.3488311767578125,3.66796875
1871678,-0.051885440945625305,0.07048091292381287,-0.0016413964331150055,-0.06001731753349304,0.4211806356906891,5.344209671020508,3.66796875
1871688,-0.05257749184966087,0.06904669106006622,-0.001747672213241458,-0.024234753102064133,0.44518399238586426,5.331935882568359,3.66796875
1871698,-0.052037473767995834,0.07039683312177658,-0.0019956508185714483,-0.06295353919267654,0.4239053428173065,5.347139358520508,3.66796875
1871708,-0.052019521594047546,0.07036419957876205,-0.0020280531607568264,-0.06166893243789673,0.42401033639907837,5.342489719390869,3.66796875
1871718,-0.05301844701170921,0.06931710243225098,-0.0015833680517971516,-0.04728949815034866,0.44316720962524414,5.329319477081299,3.66796875
1871728,-0.05302852764725685,0.06926552206277847,-0.0015849695773795247,-0.04636102169752121,0.44277268648147583,5.323724269866943,3.673828125
1871738,-0.052114058285951614,0.070614293217659,-0.0016995463520288467,-0.07461386173963547,0.4176486134529114,5.344771385192871,3.673828125
1871748,-0.053015775978565216,0.06936582922935486,-0.001478270161896944,-0.057723574340343475,0.4317465126514435,5.33962345123291,3.66796875
1871758,-0.05301591753959656,0.06933135539293289,-0.00147585931699723,-0.057477112859487534,0.431988388299942,5.334626197814941,3.673828125
1871768,-0.05201021581888199,0.07063189893960953,-0.0015571006806567311,-0.08558173477649689,0.4052463471889496,5.350162029266357,3.673828125
1871778,-0.05197244510054588,0.0706402063369751,-0.001559640048071742,-0.08587746322154999,0.4049258530139923,5.344224452972412,3.673828125
1871788,-0.05260523781180382,0.06935954838991165,-0.001636887202039361,-0.05189148709177971,0.4267595410346985,5.309924125671387,3.673828125
1871798,-0.05260523781180382,0.06935954838991165,-0.001636887202039361,-0.05189148709177971,0.4267595410346985,5.309924125671387,3.66796875
1871808,-0.051944755017757416,0.07050053775310516,-0.0017892621690407395,-0.07144996523857117,0.41469740867614746,5.338408470153809,3.673828125
1871818,-0.05287832394242287,0.06928323209285736,-0.0014930912293493748,-0.03627926483750343,0.4440169632434845,5.342122554779053,3.673828125
1871828,-0.05288837477564812,0.06921588629484177,-0.0014860989758744836,-0.03610697761178017,0.44272488355636597,5.336559772491455,3.673828125
1871838,-0.05203690379858017,0.07065677642822266,-0.0016458946047350764,-0.07553105056285858,0.4121575653553009,5.349748611450195,3.66796875
1871848,-0.05278832092881203,0.06967397034168243,-0.0013705193996429443,-0.06179402396082878,0.424367219209671,5.305797100067139,3.673828125
1871858,-0.05278832092881203,0.06967397034168243,-0.0013705193996429443,-0.06179402396082878,0.424367219209671,5.305797100067139,3.673828125
1871868,-0.05192595347762108,0.07070070505142212,-0.0013951205182820559,-0.08185331523418427,0.40164056420326233,5.325718402862549,3.673828125
1871878,-0.05187901109457016,0.07070136815309525,-0.0013893567956984043,-0.08208543807268143,0.40157830715179443,5.32069206237793,3.673828125
1871888,-0.05246603861451149,0.06943739205598831,-0.0014776932075619698,-0.047520171850919724,0.4220541715621948,5.302300930023193,3.673828125
1871898,-0.052442099899053574,0.06938612461090088,-0.0014783095102757215,-0.04673304781317711,0.420028418302536,5.296504497528076,3.673828125
1871908,-0.05165034160017967,0.07060153782367706,-0.001590356114320457,-0.0658038929104805,0.4027537703514099,5.325845241546631,3.673828125
1871918,-0.05244388431310654,0.06919072568416595,-0.001550799235701561,-0.027652597054839134,0.4314463138580322,5.321115493774414,3.66796875
1871928,-0.05243471637368202,0.06911460310220718,-0.0015524206683039665,-0.02718447893857956,0.43066391348838806,5.315372943878174,3.673828125
1871938,-0.05168764665722847,0.07034645229578018,-0.0016914336010813713,-0.059774722903966904,0.40539485216140747,5.336481094360352,3.673828125
1871948,-0.05241859331727028,0.06893527507781982,-0.0016851280815899372,-0.03954247012734413,0.41798534989356995,5.327904224395752,3.673828125
1871958,-0.05241859331727028,0.06893527507781982,-0.0016851280815899372,-0.03954247012734413,0.41798534989356995,5.327904224395752,3.673828125
1871968,-0.051428765058517456,0.07027819007635117,-0.0018157648155465722,-0.06918802112340927,0.39169979095458984,5.340597629547119,3.673828125
