time.ms,stateEstimate.x,stateEstimate.y,stateEstimate.z,stabilizer.roll,stabilizer.pitch,stabilizer.yaw,pm.vbat
1009238,-0.4902961254119873,-0.4747748076915741,0.0029436906334012747,0.42986539006233215,0.41963714361190796,7.221311092376709,3.806640625
1009248,-0.48915237188339233,-0.4726691246032715,0.002035966143012047,0.3895682096481323,0.3803669214248657,7.273128032684326,3.36328125
1009258,-0.48910462856292725,-0.4727169871330261,0.0020469091832637787,0.39077189564704895,0.37932753562927246,7.271462440490723,3.220703125
1009268,-0.490183562040329,-0.4749319553375244,0.002983976388350129,0.4514838457107544,0.422013521194458,7.221317768096924,3.109375
1009278,-0.4892544150352478,-0.47269493341445923,0.0017685092752799392,0.3850340247154236,0.3701249063014984,7.281682014465332,3.056640625
1009288,-0.4892182946205139,-0.47275838255882263,0.0017596462275832891,0.3832995295524597,0.3719411790370941,7.270701885223389,3.056640625
1009298,-0.49028217792510986,-0.47466883063316345,0.0026772695127874613,0.4198666512966156,0.3971922695636749,7.240444183349609,3.0625
1009308,-0.4902920722961426,-0.4748059809207916,0.0027046636678278446,0.41830697655677795,0.3972875475883484,7.235509395599365,3.09765625
1009318,-0.4890300929546356,-0.47281625866889954,0.0019268207252025604,0.36367204785346985,0.34519821405410767,7.290954113006592,3.134765625
1009328,-0.49014320969581604,-0.4744407534599304,0.0030025774613022804,0.4146878123283386,0.3819853365421295,7.215218544006348,3.18359375
1009338,-0.49016520380973816,-0.4745975732803345,0.003110999707132578,0.4388066232204437,0.3811928331851959,7.1364054679870605,3.23046875
1009348,-0.48948395252227783,-0.4724682569503784,0.0018488718196749687,0.2927229702472687,0.3777449131011963,7.056278705596924,3.23046875
1009358,-0.48948973417282104,-0.47257453203201294,0.0018794285133481026,0.3847641944885254,0.2704707384109497,6.944331169128418,3.2734375
1009368,-0.49039924144744873,-0.4749206006526947,0.0025358989369124174,0.5617403388023376,0.4455811381340027,6.831443786621094,3.298828125
1009378,-0.49039924144744873,-0.4749206006526947,0.0025358989369124174,0.5617403388023376,0.4455811381340027,6.831443786621094,3.3203125
1009388,-0.489141047000885,-0.4730483591556549,0.0019595203921198845,0.019662708044052124,0.5821584463119507,6.7102227210998535,3.345703125
1009398,-0.4904394745826721,-0.4750553071498871,0.0033314183820039034,-0.25760558247566223,0.7914323806762695,6.590611934661865,3.3671875
1009408,-0.49049749970436096,-0.47524797916412354,0.003702591173350811,-0.49242597818374634,1.0488426685333252,6.489805698394775,3.3671875
1009418,-0.4888576567173004,-0.47291120886802673,0.003443719819188118,-0.6185505986213684,1.3740105628967285,6.414340019226074,3.37890625
1009428,-0.4888576567173004,-0.47291120886802673,0.003443719819188118,-0.6185505986213684,1.3740105628967285,6.414340019226074,3.388671875
1009438,-0.490396648645401,-0.4745563566684723,0.006294473074376583,-0.33171311020851135,2.226168394088745,6.159873962402344,3.404296875
1009448,-0.4891895055770874,-0.47231730818748474,0.006410183385014534,-0.1301051825284958,2.4782230854034424,6.1088972091674805,3.41015625
1009458,-0.489352822303772,-0.47239550948143005,0.007568474393337965,0.10475296527147293,2.604581594467163,6.037514686584473,3.42578125
1009468,-0.49096977710723877,-0.47424694895744324,0.010237984359264374,0.40042299032211304,2.643127679824829,5.909327030181885,3.42578125
1009478,-0.49096977710723877,-0.47424694895744324,0.010237984359264374,0.40042299032211304,2.643127679824829,5.909327030181885,3.435546875
1009488,-0.490433931350708,-0.4713625907897949,0.011829854920506477,0.6181365847587585,2.2510054111480713,5.867794513702393,3.447265625
1009498,-0.49239635467529297,-0.4731580913066864,0.01528649590909481,0.5981183052062988,2.0780060291290283,5.78718900680542,3.45703125
1009508,-0.49285146594047546,-0.4733090400695801,0.017440570518374443,0.3625694513320923,1.8639910221099854,5.73568868637085,3.462890625
1009518,-0.4913611114025116,-0.4703771770000458,0.018703483045101166,-0.09393347799777985,1.5389759540557861,5.724339485168457,3.47265625
1009528,-0.4913611114025116,-0.4703771770000458,0.018703483045101166,-0.09393347799777985,1.5389759540557861,5.724339485168457,3.47265625
1009538,-0.4930085241794586,-0.47305598855018616,0.024088513106107712,-0.6514211893081665,1.101121187210083,5.575969696044922,3.478515625
1009548,-0.4914584159851074,-0.4705207049846649,0.026184987276792526,-0.813938558101654,0.839435875415802,5.566286563873291,3.484375
1009558,-0.4919159412384033,-0.47059202194213867,0.028971359133720398,-0.7451062798500061,0.6587743759155273,5.503215789794922,3.494140625
1009568,-0.49367257952690125,-0.47262465953826904,0.033024828881025314,-0.44870781898498535,0.5508337616920471,5.389321327209473,3.5
1009578,-0.49367257952690125,-0.47262465953826904,0.033024828881025314,-0.44870781898498535,0.5508337616920471,5.389321327209473,3.5
1009588,-0.49363383650779724,-0.468902587890625,0.036586519330739975,0.16062119603157043,0.2599148452281952,5.297296524047852,3.5
1009598,-0.4960154592990875,-0.47098326683044434,0.04168536141514778,0.5989173054695129,0.23097950220108032,5.190035820007324,3.505859375
1009608,-0.49657148122787476,-0.47102785110473633,0.04477160796523094,0.9056533575057983,0.19869357347488403,5.132187843322754,3.505859375
1009618,-0.4952452480792999,-0.467115581035614,0.0459294393658638,1.0250240564346313,0.09206897020339966,5.127243995666504,3.509765625
1009628,-0.4952452480792999,-0.467115581035614,0.0459294393658638,1.0250240564346313,0.09206897020339966,5.127243995666504,3.509765625
1009638,-0.4967375695705414,-0.47053223848342896,0.051915641874074936,1.2875884771347046,0.03534548729658127,4.945497989654541,3.515625
1009648,-0.49494266510009766,-0.4675513207912445,0.05407211184501648,1.1544677019119263,-0.07859132438898087,4.936529636383057,3.515625
1009658,-0.49534082412719727,-0.46760499477386475,0.056959811598062515,1.0027967691421509,-0.11071841418743134,4.8794426918029785,3.515625
1009668,-0.49701085686683655,-0.4699877202510834,0.060946233570575714,0.8831238746643066,-0.08145022392272949,4.764269828796387,3.509765625
1009678,-0.49701085686683655,-0.4699877202510834,0.060946233570575714,0.8831238746643066,-0.08145022392272949,4.764269828796387,3.509765625
1009688,-0.49683845043182373,-0.4659748375415802,0.06365551799535751,0.44018837809562683,-0.14386968314647675,4.685962200164795,3.509765625
1009698,-0.49927181005477905,-0.46850213408470154,0.06828618794679642,0.39493346214294434,-0.10730225592851639,4.5896382331848145,3.509765625
1009708,-0.4997190535068512,-0.46861550211906433,0.07089981436729431,0.35446423292160034,-0.13757720589637756,4.5434980392456055,3.509765625
1009718,-0.4979414939880371,-0.46479731798171997,0.07178288698196411,0.2879510521888733,-0.25677281618118286,4.562658786773682,3.505859375
1009728,-0.4979414939880371,-0.46479731798171997,0.07178288698196411,0.2879510521888733,-0.25677281618118286,4.562658786773682,3.505859375
1009738,-0.5002387762069702,-0.46749937534332275,0.07621247321367264,0.4577213525772095,-0.265277236700058,4.476879119873047,3.5
1009748,-0.49858537316322327,-0.4637630879878998,0.0769188404083252,0.524052083492279,-0.4111480414867401,4.45515251159668,3.5
1009758,-0.4988677501678467,-0.46367600560188293,0.0791073814034462,0.7339206337928772,-0.4784544110298157,4.406676292419434,3.5
1009768,-0.4996695816516876,-0.4674156904220581,0.08115115761756897,1.0701444149017334,-0.5348716974258423,4.308660984039307,3.5
1009778,-0.4999663531780243,-0.46753403544425964,0.08315805345773697,1.2509090900421143,-0.6239315867424011,4.260096073150635,3.494140625
1009788,-0.4983474016189575,-0.46434009075164795,0.08375149965286255,1.3319305181503296,-0.756210207939148,4.248011112213135,3.494140625
1009798,-0.5002081990242004,-0.46697500348091125,0.08714252710342407,1.5046042203903198,-0.7620558142662048,4.135375499725342,3.494140625
1009808,-0.5004706978797913,-0.4671756625175476,0.08893333375453949,1.5465272665023804,-0.7994802594184875,4.07895565032959,3.48828125
1009818,-0.4992236793041229,-0.46327105164527893,0.088255375623703,1.4064017534255981,-0.8836895227432251,4.070254325866699,3.484375
1009828,-0.4993739128112793,-0.46334418654441833,0.08976027369499207,1.316347360610962,-0.8468302488327026,4.023745536804199,3.484375
1009838,-0.5013746619224548,-0.4664042592048645,0.09291669726371765,1.25673508644104,-0.724889874458313,3.9374945163726807,3.478515625
1009848,-0.4999767541885376,-0.4629381000995636,0.09238749742507935,1.0493053197860718,-0.6981651782989502,3.90846586227417,3.47265625
1009858,-0.5000655055046082,-0.46302178502082825,0.09362876415252686,0.9888876676559448,-0.5823197364807129,3.8497073650360107,3.47265625
1009868,-0.5015727877616882,-0.466448575258255,0.09599266201257706,1.0537999868392944,-0.41427943110466003,3.767970085144043,3.47265625
1009878,-0.5017103552818298,-0.4667273461818695,0.09716297686100006,1.0332984924316406,-0.3236770033836365,3.714292526245117,3.46875
1009888,-0.4998873174190521,-0.46355095505714417,0.09695043414831161,0.9815301299095154,-0.3277955651283264,3.6705613136291504,3.46875
1009898,-0.5013789534568787,-0.46648579835891724,0.0992492064833641,1.1044857501983643,-0.2640347480773926,3.558042526245117,3.46875
1009908,-0.5014904141426086,-0.4668431282043457,0.10024320334196091,1.1751703023910522,-0.28293922543525696,3.5100207328796387,3.46875
1009918,-0.5001048445701599,-0.4632485508918762,0.09898592531681061,1.139327883720398,-0.4189471900463104,3.4896442890167236,3.462890625
1009928,-0.5001152157783508,-0.4634692966938019,0.09974544495344162,1.197840929031372,-0.4936310350894928,3.443697690963745,3.462890625
1009938,-0.5020754337310791,-0.4668746590614319,0.10230951756238937,1.2875628471374512,-0.5307298302650452,3.3621022701263428,3.45703125
1009948,-0.5001195669174194,-0.4634937345981598,0.10140909254550934,1.1893420219421387,-0.6991420984268188,3.3318774700164795,3.45703125
1009958,-0.5000648498535156,-0.46372905373573303,0.10203805565834045,1.1439751386642456,-0.7692257761955261,3.271730422973633,3.453125
1009968,-0.5014867186546326,-0.4670575261116028,0.10395553708076477,1.1617200374603271,-0.7640127539634705,3.1790292263031006,3.453125
1009978,-0.5014777183532715,-0.46748071908950806,0.10459204763174057,1.058686375617981,-0.7816227674484253,3.117496967315674,3.453125
1009988,-0.4995436668395996,-0.46433308720588684,0.10362765938043594,0.87873375415802,-0.8175815343856812,3.090892791748047,3.453125
1009998,-0.501194179058075,-0.4672773480415344,0.10590990632772446,0.8394033312797546,-0.7079585790634155,2.9948511123657227,3.447265625
1010008,-0.5011506080627441,-0.4677671492099762,0.10650894790887833,0.7333365082740784,-0.6371166706085205,2.934293508529663,3.447265625
1010018,-0.4995622932910919,-0.46463510394096375,0.10517776757478714,0.5575880408287048,-0.6075757741928101,2.9045474529266357,3.447265625
1010028,-0.49941033124923706,-0.4649960696697235,0.10567302256822586,0.5253076553344727,-0.495455801486969,2.8539440631866455,3.447265625
1010038,-0.5010964870452881,-0.4682809114456177,0.10791368037462234,0.5822147727012634,-0.3508050739765167,2.7543063163757324,3.447265625
1010048,-0.49905604124069214,-0.4651615023612976,0.10688023269176483,0.5190417170524597,-0.3338828384876251,2.7398605346679688,3.447265625
1010058,-0.49884581565856934,-0.46550115942955017,0.10735618323087692,0.5708819627761841,-0.2616117596626282,2.6926746368408203,3.447265625
1010068,-0.5000826120376587,-0.46894943714141846,0.10910685360431671,0.7318115830421448,-0.14589233696460724,2.6122641563415527,3.447265625
1010078,-0.4999336004257202,-0.46946194767951965,0.10964980721473694,0.7702017426490784,-0.11496889591217041,2.5672168731689453,3.447265625
1010088,-0.4978179633617401,-0.46634501218795776,0.1086319088935852,0.7364906668663025,-0.1417023241519928,2.5466976165771484,3.447265625
1010098,-0.4991857409477234,-0.4693402945995331,0.11069803684949875,0.8283398747444153,-0.0648202896118164,2.4584903717041016,3.447265625
1010108,-0.4990283250808716,-0.4699117839336395,0.11129111796617508,0.8020616173744202,-0.04695485904812813,2.3968167304992676,3.447265625
1010118,-0.497232586145401,-0.4665845036506653,0.10980576276779175,0.6330516338348389,-0.11553087085485458,2.35203218460083,3.447265625
1010128,-0.4969812035560608,-0.4670180678367615,0.1103113442659378,0.5513660907745361,-0.10985637456178665,2.29006028175354,3.447265625
1010138,-0.49873343110084534,-0.4706151485443115,0.1127447858452797,0.5142202377319336,-0.060530032962560654,2.183021068572998,3.447265625
1010148,-0.49654117226600647,-0.46728023886680603,0.11153994500637054,0.30942294001579285,-0.12510748207569122,2.1672935485839844,3.44140625
1010158,-0.4962502419948578,-0.46768879890441895,0.11206750571727753,0.20231987535953522,-0.09038640558719635,2.128833770751953,3.447265625
1010168,-0.49785032868385315,-0.47081074118614197,0.11452274769544601,0.20396000146865845,0.03222014009952545,2.0303540229797363,3.447265625
1010178,-0.49764737486839294,-0.47136190533638,0.1151803657412529,0.1383177638053894,0.10516193509101868,1.995285153388977,3.447265625
1010188,-0.4959430694580078,-0.4684114158153534,0.11401985585689545,0.03795978054404259,0.1376170814037323,1.9887579679489136,3.447265625
1010198,-0.49703770875930786,-0.47125720977783203,0.11587414145469666,0.12249375134706497,0.24960003793239594,1.872341275215149,3.447265625
1010208,-0.4968510568141937,-0.4718374013900757,0.11657191812992096,0.15223269164562225,0.30003437399864197,1.8482166528701782,3.447265625
1010218,-0.4950816333293915,-0.4688563346862793,0.11526341736316681,0.0826648697257042,0.27359461784362793,1.852913498878479,3.447265625
1010228,-0.4948127865791321,-0.4692709147930145,0.1158771812915802,0.13704079389572144,0.30839264392852783,1.8395992517471313,3.447265625
1010238,-0.4968460500240326,-0.47264477610588074,0.11885055899620056,0.2519381642341614,0.39761704206466675,1.8049275875091553,3.44140625
1010248,-0.4947739541530609,-0.46926215291023254,0.11767703294754028,0.1923585683107376,0.35061606764793396,1.8214861154556274,3.44140625
1010258,-0.49450722336769104,-0.46963492035865784,0.11835987865924835,0.24144087731838226,0.36633729934692383,1.8047235012054443,3.447265625
1010268,-0.4961126148700714,-0.47275862097740173,0.12094119191169739,0.3751716911792755,0.45294374227523804,1.7270469665527344,3.447265625
1010278,-0.4959520399570465,-0.473284512758255,0.12175736576318741,0.3906925320625305,0.46954256296157837,1.7003523111343384,3.447265625
1010288,-0.494198203086853,-0.4701751470565796,0.12068741768598557,0.3346286118030548,0.4303969740867615,1.7073558568954468,3.447265625
1010298,-0.4957024157047272,-0.473600298166275,0.12310821563005447,0.4277394115924835,0.4905744791030884,1.5851541757583618,3.447265625
1010308,-0.4955843389034271,-0.47418078780174255,0.12400009483098984,0.40185755491256714,0.4760327935218811,1.5643709897994995,3.447265625
1010318,-0.493824303150177,-0.47055360674858093,0.12251818925142288,0.24417628347873688,0.3859732747077942,1.5914853811264038,3.447265625
1010328,-0.49362748861312866,-0.47096967697143555,0.12331512570381165,0.19713346660137177,0.3682786226272583,1.5846706628799438,3.453125
1010338,-0.49519845843315125,-0.47453051805496216,0.1257554292678833,0.22562503814697266,0.39670199155807495,1.519277572631836,3.447265625
1010348,-0.49331915378570557,-0.4711373448371887,0.12457481771707535,0.0836118683218956,0.3082897961139679,1.5369564294815063,3.447265625
1010358,-0.49310752749443054,-0.47151193022727966,0.12537555396556854,0.07146807760000229,0.292723685503006,1.5262441635131836,3.453125
1010368,-0.49484318494796753,-0.4748650789260864,0.12814180552959442,0.18242061138153076,0.3538232147693634,1.4975448846817017,3.453125
1010378,-0.49473780393600464,-0.4753986597061157,0.12907753884792328,0.19171567261219025,0.34362295269966125,1.484736442565918,3.453125
1010388,-0.4928191006183624,-0.47200849652290344,0.1280534714460373,0.13541820645332336,0.289316862821579,1.5104501247406006,3.453125
1010398,-0.4943084418773651,-0.47564324736595154,0.13048870861530304,0.24457168579101562,0.35330694913864136,1.4563783407211304,3.453125
1010408,-0.49422958493232727,-0.47622382640838623,0.1314670592546463,0.2307596355676651,0.36860552430152893,1.4510736465454102,3.447265625
1010418,-0.49263647198677063,-0.47249478101730347,0.12986770272254944,0.07449524849653244,0.31792378425598145,1.4693832397460938,3.453125
1010428,-0.49248138070106506,-0.47290071845054626,0.13071024417877197,0.04912892356514931,0.33308640122413635,1.466302752494812,3.453125
1010438,-0.49451032280921936,-0.47626233100891113,0.13376034796237946,0.07686784118413925,0.3989912271499634,1.417030930519104,3.453125
1010448,-0.4925548732280731,-0.47275930643081665,0.13265453279018402,-0.060212090611457825,0.33280178904533386,1.4513258934020996,3.447265625
1010458,-0.49239689111709595,-0.4731057286262512,0.13348105549812317,-0.07914230972528458,0.3403359353542328,1.4495972394943237,3.453125
1010468,-0.493801087141037,-0.476810485124588,0.135702446103096,0.022904444485902786,0.40957126021385193,1.4311145544052124,3.453125
1010478,-0.49373364448547363,-0.47732579708099365,0.13659624755382538,0.01125322375446558,0.4200749099254608,1.435542345046997,3.453125
1010488,-0.4921235740184784,-0.47383904457092285,0.13519801199436188,-0.07285226136445999,0.3998229503631592,1.4815611839294434,3.453125
1010498,-0.4939546287059784,-0.4769592583179474,0.13802656531333923,0.011431483551859856,0.4953727722167969,1.4405313730239868,3.453125
1010508,-0.49393925070762634,-0.4774918854236603,0.13892817497253418,0.011312931776046753,0.5103715062141418,1.4490575790405273,3.453125
1010518,-0.49247458577156067,-0.47362327575683594,0.13709157705307007,-0.11492806673049927,0.45008426904678345,1.4890196323394775,3.453125
1010529,-0.4923914074897766,-0.47397005558013916,0.13783393800258636,-0.09732560813426971,0.44500502943992615,1.496588110923767,3.453125
1010538,-0.49453654885292053,-0.47770074009895325,0.14075827598571777,-0.004948847461491823,0.49246925115585327,1.4226113557815552,3.453125
1010548,-0.49249032139778137,-0.4739849269390106,0.13949626684188843,-0.1033795103430748,0.41602206230163574,1.472424864768982,3.453125
1010558,-0.49240076541900635,-0.4742739796638489,0.14018061757087708,-0.08268501609563828,0.42549481987953186,1.489707350730896,3.447265625
1010568,-0.49379831552505493,-0.47751230001449585,0.14223690330982208,0.04668702930212021,0.4893791973590851,1.47211492061615,3.453125
1010579,-0.49379855394363403,-0.4779508113861084,0.14299307763576508,0.06362868845462799,0.48722755908966064,1.4807705879211426,3.447265625
1010588,-0.49194812774658203,-0.4747978746891022,0.1420721858739853,0.015799731016159058,0.43625497817993164,1.5372896194458008,3.447265625
1010598,-0.49394795298576355,-0.478035569190979,0.14491364359855652,0.1353127360343933,0.5018816590309143,1.4834566116333008,3.447265625
1010608,-0.493996262550354,-0.47851720452308655,0.1457103043794632,0.1583026647567749,0.5057023763656616,1.4891693592071533,3.447265625
1010618,-0.49269434809684753,-0.4747075140476227,0.14376389980316162,0.056524574756622314,0.4532870948314667,1.5503945350646973,3.44140625
1010628,-0.4926780164241791,-0.4750109612941742,0.14442899823188782,0.08447607606649399,0.46513110399246216,1.5733222961425781,3.447265625
1010638,-0.4947803020477295,-0.4786447584629059,0.14718376100063324,0.1917424499988556,0.5267048478126526,1.5288869142532349,3.44140625
1010648,-0.4927087426185608,-0.47516781091690063,0.14618052542209625,0.11804769933223724,0.44684433937072754,1.588466763496399,3.44140625
1010658,-0.49268198013305664,-0.47543397545814514,0.1468292474746704,0.15619084239006042,0.4402216374874115,1.6110934019088745,3.44140625
1010668,-0.4945441484451294,-0.4789028465747833,0.1493566483259201,0.31327542662620544,0.5010884404182434,1.5363686084747314,3.44140625
1010678,-0.49462610483169556,-0.47933754324913025,0.1501198559999466,0.3510342836380005,0.48946285247802734,1.5522713661193848,3.44140625
1010688,-0.4927593767642975,-0.47582122683525085,0.1489521563053131,0.305245578289032,0.41214850544929504,1.6270759105682373,3.44140625
1010698,-0.4946686923503876,-0.47934457659721375,0.1515386551618576,0.42569008469581604,0.4549860954284668,1.6301947832107544,3.447265625
1010708,-0.4947887361049652,-0.47984227538108826,0.1523410975933075,0.41837891936302185,0.4296419322490692,1.6433820724487305,3.44140625
1010718,-0.49321362376213074,-0.4760279357433319,0.1506797820329666,0.27196434140205383,0.33558598160743713,1.6870986223220825,3.44140625
1010729,-0.4932520389556885,-0.47635674476623535,0.15136848390102386,0.250425785779953,0.32467180490493774,1.6929434537887573,3.44140625
1010738,-0.49545449018478394,-0.47988131642341614,0.15424059331417084,0.2907997667789459,0.3576503098011017,1.6536190509796143,3.44140625
1010748,-0.49382346868515015,-0.47599273920059204,0.15253570675849915,0.14351893961429596,0.2665788233280182,1.6828080415725708,3.44140625
1010758,-0.4938589036464691,-0.47627145051956177,0.1531943380832672,0.12347573786973953,0.25416818261146545,1.6748141050338745,3.44140625
1010768,-0.4959302246570587,-0.47994884848594666,0.1558961421251297,0.23307901620864868,0.3247470557689667,1.6118191480636597,3.44140625
1010779,-0.49607402086257935,-0.4804033041000366,0.15666742622852325,0.220577672123909,0.317467600107193,1.5978596210479736,3.435546875
1010788,-0.49414190649986267,-0.4768504202365875,0.15555039048194885,0.1446884423494339,0.25591063499450684,1.6486091613769531,3.435546875
1010798,-0.49627870321273804,-0.48052817583084106,0.15836086869239807,0.2664276957511902,0.31433209776878357,1.6050312519073486,3.44140625
1010808,-0.49645382165908813,-0.481039434671402,0.15917113423347473,0.28443261981010437,0.2921787202358246,1.587377905845642,3.44140625
1010818,-0.49485528469085693,-0.476921945810318,0.15731236338615417,0.15423613786697388,0.1693454384803772,1.6085307598114014,3.44140625
1010829,-0.4949348270893097,-0.47723841667175293,0.15799225866794586,0.16914324462413788,0.12823577225208282,1.592903733253479,3.44140625
1010838,-0.49736496806144714,-0.4808613955974579,0.16110382974147797,0.24574150145053864,0.14998161792755127,1.537243127822876,3.44140625
1010848,-0.4956522285938263,-0.4769027531147003,0.1594451516866684,0.12705309689044952,0.048384878784418106,1.5615909099578857,3.44140625
1010858,-0.4957200586795807,-0.4771653711795807,0.16013094782829285,0.11087807267904282,0.0283356960862875,1.552274465560913,3.44140625
1010868,-0.49764153361320496,-0.4806908667087555,0.16266955435276031,0.20262841880321503,0.08623436838388443,1.4640928506851196,3.44140625
1010879,-0.4978027939796448,-0.48112234473228455,0.1634565144777298,0.16969557106494904,0.06893334537744522,1.4463837146759033,3.44140625
1010888,-0.4963195323944092,-0.4775398075580597,0.16196836531162262,0.07037034630775452,0.015324580483138561,1.469294548034668,3.44140625
1010898,-0.49825605750083923,-0.48093223571777344,0.16456356644630432,0.14936980605125427,0.057754602283239365,1.4488130807876587,3.44140625
1010908,-0.4984439015388489,-0.48140838742256165,0.16536720097064972,0.12597842514514923,0.028336962684988976,1.4362818002700806,3.44140625
1010918,-0.4968467056751251,-0.4773852527141571,0.16355536878108978,-0.030224239453673363,-0.06737392395734787,1.4775668382644653,3.44140625
1010929,-0.4969322979450226,-0.47767144441604614,0.16420182585716248,-0.05298709496855736,-0.07788978517055511,1.472267746925354,3.44140625
1010938,-0.4991980195045471,-0.48169106245040894,0.16700780391693115,0.007484974805265665,-0.03222392499446869,1.4235801696777344,3.44140625
1010948,-0.49758583307266235,-0.47781312465667725,0.16524574160575867,-0.12013653665781021,-0.10543092340230942,1.4476069211959839,3.435546875
1010958,-0.49764716625213623,-0.47805023193359375,0.16582001745700836,-0.1119556799530983,-0.1032799482345581,1.443045735359192,3.44140625
1010968,-0.49923884868621826,-0.48122638463974,0.1678466945886612,0.018869537860155106,-0.03850620612502098,1.3489724397659302,3.44140625
1010979,-0.4993768036365509,-0.48162567615509033,0.16849718987941742,0.03102431818842888,-0.03590218722820282,1.3412035703659058,3.44140625
1010988,-0.4976787567138672,-0.4783588945865631,0.16716083884239197,-0.03765704855322838,-0.09063506871461868,1.3718515634536743,3.435546875
1010998,-0.5000346302986145,-0.4819082021713257,0.17018301784992218,0.09653721749782562,-0.01591518707573414,1.3546861410140991,3.44140625
1011008,-0.5002043843269348,-0.48235228657722473,0.1708751618862152,0.11532274633646011,-0.03573974221944809,1.3579310178756714,3.435546875
1011018,-0.49896326661109924,-0.47822290658950806,0.1685580611228943,0.008623668923974037,-0.12032974511384964,1.3930366039276123,3.44140625
1011029,-0.4990484118461609,-0.47847673296928406,0.16910462081432343,0.03369574993848801,-0.14016775786876678,1.397375464439392,3.44140625
1011038,-0.5014368295669556,-0.4824995696544647,0.17198298871517181,0.13186559081077576,-0.1034318134188652,1.3466930389404297,3.435546875
1011048,-0.49958866834640503,-0.47850272059440613,0.17024734616279602,0.01963960938155651,-0.20187455415725708,1.3956464529037476,3.435546875
1011058,-0.4996410608291626,-0.47871190309524536,0.17074346542358398,0.037365950644016266,-0.2134242057800293,1.4125335216522217,3.435546875
1011068,-0.5017191767692566,-0.4823538362979889,0.17332370579242706,0.17588137090206146,-0.14898590743541718,1.4533119201660156,3.435546875
1011079,-0.5018638968467712,-0.48274269700050354,0.17390915751457214,0.20121018588542938,-0.15297184884548187,1.4715287685394287,3.435546875
1011088,-0.5002120137214661,-0.4788966178894043,0.1721319556236267,0.16449013352394104,-0.19476085901260376,1.5161253213882446,3.431640625
1011098,-0.5020670890808105,-0.4817337691783905,0.17450226843357086,0.30205175280570984,-0.11721774190664291,1.5246297121047974,3.435546875
1011108,-0.5022194981575012,-0.4821503460407257,0.17510196566581726,0.3317260146141052,-0.10594731569290161,1.5322988033294678,3.435546875
1011118,-0.5008533596992493,-0.4786413311958313,0.17315633594989777,0.22745241224765778,-0.161335289478302,1.5809434652328491,3.435546875
1011129,-0.5009150505065918,-0.47888416051864624,0.17361728847026825,0.2378307282924652,-0.149625763297081,1.5914629697799683,3.44140625
1011138,-0.5032652020454407,-0.48234036564826965,0.17647624015808105,0.3039156496524811,-0.0879063531756401,1.566394567489624,3.435546875
1011148,-0.5015268325805664,-0.47857266664505005,0.1747428923845291,0.18024012446403503,-0.1613623946905136,1.6200569868087769,3.435546875
1011158,-0.5015647411346436,-0.4787766933441162,0.17516031861305237,0.1752508580684662,-0.1584606021642685,1.618127703666687,3.435546875
1011168,-0.5037036538124084,-0.4823792576789856,0.1777927726507187,0.2995486855506897,-0.07184655219316483,1.5970938205718994,3.431640625
1011179,-0.503838300704956,-0.48276057839393616,0.17831584811210632,0.320995569229126,-0.049949582666158676,1.5987025499343872,3.431640625
1011188,-0.502219557762146,-0.4791327714920044,0.17662851512432098,0.28044718503952026,-0.07330087572336197,1.6354234218597412,3.435546875
1011198,-0.5044416189193726,-0.48286715149879456,0.17939001321792603,0.4387924373149872,0.034981001168489456,1.6111032962799072,3.435546875
1011208,-0.5046098828315735,-0.4833223223686218,0.1799353063106537,0.46834075450897217,0.05495733022689819,1.6002352237701416,3.435546875
1011218,-0.5028462409973145,-0.4792729318141937,0.17794640362262726,0.3607059419155121,-0.02236911468207836,1.638379693031311,3.431640625
1011229,-0.5029053688049316,-0.47955143451690674,0.17835462093353271,0.36644256114959717,-0.025143655017018318,1.6367568969726562,3.435546875
1011238,-0.5053030252456665,-0.4832789897918701,0.18121686577796936,0.41529548168182373,0.009822582826018333,1.5934088230133057,3.431640625
1011248,-0.5034164786338806,-0.4792332649230957,0.17930229008197784,0.2476603239774704,-0.10879140347242355,1.6194831132888794,3.431640625
1011258,-0.5034475922584534,-0.4794691205024719,0.1796901822090149,0.19940687716007233,-0.14799389243125916,1.6232470273971558,3.431640625
1011268,-0.5058099031448364,-0.4832330346107483,0.18253009021282196,0.2203594446182251,-0.15256594121456146,1.580356240272522,3.431640625
1011279,-0.505908191204071,-0.4835854470729828,0.18299569189548492,0.16825683414936066,-0.20407605171203613,1.5807417631149292,3.431640625
1011288,-0.5039085745811462,-0.47928667068481445,0.1808510422706604,-0.01226353645324707,-0.3250747621059418,1.6086467504501343,3.431640625
1011298,-0.5060421824455261,-0.4835260212421417,0.1833818256855011,0.10405649244785309,-0.2524811029434204,1.61710786819458,3.435546875
1011308,-0.506130039691925,-0.48391202092170715,0.18385498225688934,0.0816861018538475,-0.25703364610671997,1.6272165775299072,3.42578125
1011318,-0.504146158695221,-0.47998958826065063,0.1821136474609375,0.0026879245415329933,-0.3003029525279999,1.6701351404190063,3.42578125
1011329,-0.5041475892066956,-0.48025792837142944,0.18251068890094757,0.013408125378191471,-0.2758253514766693,1.6801475286483765,3.431640625
1011338,-0.506374716758728,-0.48399919271469116,0.18530608713626862,0.13406863808631897,-0.1583729237318039,1.6728044748306274,3.431640625
1011348,-0.5047863125801086,-0.47973158955574036,0.18288345634937286,0.01269273366779089,-0.1995907723903656,1.7045577764511108,3.42578125
1011358,-0.5047776699066162,-0.4799642562866211,0.1832299381494522,0.04034896939992905,-0.1639653593301773,1.7177352905273438,3.431640625
1011368,-0.5071418285369873,-0.4836690127849579,0.186085507273674,0.13597799837589264,-0.09355001151561737,1.7193557024002075,3.42578125
1011379,-0.5072043538093567,-0.4840167462825775,0.1865023374557495,0.15070587396621704,-0.0869961827993393,1.7371209859848022,3.42578125
1011388,-0.5052347183227539,-0.47999417781829834,0.1845240294933319,0.052715003490448,-0.1690939962863922,1.7773228883743286,3.42578125
1011398,-0.5074899792671204,-0.4838031232357025,0.18729311227798462,0.18591506779193878,-0.08632615208625793,1.7537752389907837,3.42578125
1011408,-0.5075596570968628,-0.4841746687889099,0.187720388174057,0.17030668258666992,-0.10171467810869217,1.780310869216919,3.42578125
1011418,-0.5058128833770752,-0.48008057475090027,0.1855420172214508,0.053030773997306824,-0.1710823029279709,1.850332260131836,3.42578125
1011429,-0.5058121085166931,-0.480333536863327,0.18586134910583496,0.02581944689154625,-0.19514106214046478,1.87883722782135,3.431640625
1011438,-0.508034348487854,-0.48450109362602234,0.1885128617286682,0.12168493866920471,-0.13977764546871185,1.8736602067947388,3.431640625
1011448,-0.5060222744941711,-0.48022663593292236,0.18638157844543457,-0.049391716718673706,-0.24836485087871552,1.930650234222412,3.42578125
1011458,-0.5059910416603088,-0.48045700788497925,0.18668583035469055,-0.050617765635252,-0.25255581736564636,1.97103750705719,3.42578125
1011468,-0.5083459615707397,-0.4843282997608185,0.18950650095939636,0.04904351383447647,-0.19330890476703644,2.008711338043213,3.42578125
1011480,-0.5083835124969482,-0.4846770167350769,0.1899120956659317,0.08828312158584595,-0.1852385252714157,2.058431625366211,3.42578125
1011488,-0.5062165260314941,-0.4804093837738037,0.18783479928970337,0.009664185345172882,-0.24452412128448486,2.140848398208618,3.431640625
1011498,-0.5082094669342041,-0.48408612608909607,0.19029974937438965,0.1660781055688858,-0.12472102046012878,2.1753439903259277,3.431640625
1011508,-0.5082325339317322,-0.4844430685043335,0.19070552289485931,0.18758238852024078,-0.08401910960674286,2.237185478210449,3.431640625
1011518,-0.5067822933197021,-0.48076850175857544,0.1886301040649414,0.14744597673416138,-0.07366856932640076,2.3342745304107666,3.42578125
1011529,-0.5067472457885742,-0.48101717233657837,0.18893851339817047,0.17871351540088654,-0.04188665747642517,2.396639585494995,3.431640625
1011538,-0.5090256929397583,-0.4845697581768036,0.19180269539356232,0.30722174048423767,0.05703149735927582,2.4246270656585693,3.431640625
1011548,-0.5070536732673645,-0.4802797734737396,0.18958744406700134,0.18076710402965546,-0.03465389087796211,2.520678997039795,3.42578125
1011558,-0.5070063471794128,-0.48049822449684143,0.18988612294197083,0.18900364637374878,-0.049603067338466644,2.570739507675171,3.42578125
1011568,-0.5091647505760193,-0.48473095893859863,0.19242137670516968,0.27555161714553833,-0.02642063982784748,2.5865232944488525,3.431640625
1011579,-0.5091853737831116,-0.4850870966911316,0.19278289377689362,0.27058330178260803,-0.04941071569919586,2.6202919483184814,3.42578125
1011588,-0.5069711208343506,-0.480789452791214,0.19062083959579468,0.14242471754550934,-0.14772967994213104,2.6841583251953125,3.42578125
1011598,-0.509215772151947,-0.48470234870910645,0.1933647096157074,0.2669336199760437,-0.053576454520225525,2.6653056144714355,3.42578125
1011608,-0.509236752986908,-0.48508137464523315,0.19374574720859528,0.25045865774154663,-0.04708785563707352,2.6879453659057617,3.419921875
1011618,-0.5075478553771973,-0.48098164796829224,0.19143123924732208,0.15651096403598785,-0.09229359030723572,2.722623348236084,3.419921875
1011629,-0.5075034499168396,-0.4812434911727905,0.19173146784305573,0.1514284908771515,-0.09910567849874496,2.740117073059082,3.42578125
1011638,-0.509657084941864,-0.48526495695114136,0.19436174631118774,0.27963143587112427,-0.03981822729110718,2.754894256591797,3.42578125
1011648,-0.5078229308128357,-0.4808768033981323,0.1918751746416092,0.1624317616224289,-0.1420474797487259,2.7840805053710938,3.42578125
1011658,-0.5077637434005737,-0.4811178147792816,0.19213004410266876,0.18200775980949402,-0.15210747718811035,2.7831380367279053,3.42578125
1011668,-0.5101848840713501,-0.4853680729866028,0.1949552446603775,0.285491019487381,-0.09336677193641663,2.7840871810913086,3.419921875
1011680,-0.5101994276046753,-0.48574724793434143,0.1952795535326004,0.2923661470413208,-0.10302664339542389,2.78082013130188,3.419921875
1011688,-0.5081329941749573,-0.48149266839027405,0.19296181201934814,0.17670224606990814,-0.2037423700094223,2.8018693923950195,3.419921875
1011698,-0.5098897218704224,-0.48535552620887756,0.19502735137939453,0.3137008845806122,-0.15062673389911652,2.81288743019104,3.419921875
1011708,-0.509887158870697,-0.4857598543167114,0.19529317319393158,0.32866451144218445,-0.1720755398273468,2.808284282684326,3.419921875
1011718,-0.5077823400497437,-0.48164552450180054,0.1931421011686325,0.2579994201660156,-0.25487279891967773,2.818763256072998,3.419921875
1011730,-0.5076945424079895,-0.4819353222846985,0.19332580268383026,0.25716397166252136,-0.2808271050453186,2.8078842163085938,3.419921875
1011738,-0.509943425655365,-0.48539093136787415,0.19612890481948853,0.33822041749954224,-0.23306655883789062,2.773850202560425,3.419921875
1011748,-0.5083672404289246,-0.48132413625717163,0.19357061386108398,0.18118855357170105,-0.34187084436416626,2.7892608642578125,3.416015625
1011758,-0.5082723498344421,-0.4815843105316162,0.19374939799308777,0.17181719839572906,-0.3819391429424286,2.7768821716308594,3.416015625
1011768,-0.5102707743644714,-0.48552316427230835,0.19608917832374573,0.2628729045391083,-0.3752433955669403,2.739335060119629,3.416015625
1011780,-0.5102286338806152,-0.48590975999832153,0.1963600218296051,0.2929646968841553,-0.42208999395370483,2.7137231826782227,3.416015625
1011788,-0.508285641670227,-0.48183006048202515,0.1939922720193863,0.22410506010055542,-0.5296065807342529,2.7211079597473145,3.416015625
1011798,-0.5103933215141296,-0.4855235815048218,0.19661608338356018,0.39077720046043396,-0.4731842279434204,2.6667075157165527,3.416015625
1011808,-0.5103428959846497,-0.4859330654144287,0.19695310294628143,0.44162672758102417,-0.5123170614242554,2.6322808265686035,3.416015625
1011818,-0.5082436203956604,-0.4823152422904968,0.19530299305915833,0.4419041574001312,-0.6030455827713013,2.628053665161133,3.419921875
1011828,-0.5080965757369995,-0.48262688517570496,0.19562777876853943,0.5130314230918884,-0.6157138347625732,2.5939133167266846,3.419921875
1011838,-0.5101104378700256,-0.4872666299343109,0.19820842146873474,0.6947945356369019,-0.5496295094490051,2.530421018600464,3.42578125
1011848,-0.5100396275520325,-0.4877920150756836,0.19869978725910187,0.7210214138031006,-0.5561028718948364,2.501909017562866,3.42578125
1011858,-0.5081480145454407,-0.4837118983268738,0.1963832527399063,0.6120609045028687,-0.6330899596214294,2.5145559310913086,3.42578125
1011868,-0.5100435614585876,-0.4877770245075226,0.19891317188739777,0.6921431422233582,-0.5856722593307495,2.4651732444763184,3.42578125
1011880,-0.5099062323570251,-0.48826542496681213,0.19941113889217377,0.6908206343650818,-0.5840604901313782,2.440192937850952,3.42578125
1011888,-0.5074272751808167,-0.48428505659103394,0.197657972574234,0.5762262344360352,-0.6524818539619446,2.456841230392456,3.42578125
1011898,-0.5094308853149414,-0.48857688903808594,0.2005406767129898,0.6943938732147217,-0.540734589099884,2.3976309299468994,3.42578125
1011908,-0.5092611312866211,-0.4891279339790344,0.20112992823123932,0.6491189002990723,-0.5047715902328491,2.386178970336914,3.419921875
1011918,-0.5074007511138916,-0.4853679835796356,0.19912752509117126,0.4997166097164154,-0.5225745439529419,2.4098196029663086,3.419921875
1011928,-0.5071481466293335,-0.4858173131942749,0.19964857399463654,0.43560153245925903,-0.5003616213798523,2.399629592895508,3.42578125
1011938,-0.509121835231781,-0.4899543821811676,0.20262078940868378,0.4748472571372986,-0.40275847911834717,2.3641488552093506,3.42578125
1011948,-0.5072780251502991,-0.4860100746154785,0.20042119920253754,0.2661285102367401,-0.47442346811294556,2.3708505630493164,3.42578125
1011958,-0.5070034265518188,-0.4864572286605835,0.20094558596611023,0.19053997099399567,-0.47388046979904175,2.348557472229004,3.431640625
1011968,-0.5089008212089539,-0.4907242953777313,0.20370756089687347,0.18721257150173187,-0.4150044322013855,2.301950693130493,3.431640625
1011978,-0.5086797475814819,-0.4913037121295929,0.20431123673915863,0.10081078857183456,-0.3938628137111664,2.2716546058654785,3.431640625
1011988,-0.5065681338310242,-0.48762786388397217,0.2024591863155365,-0.1036805659532547,-0.4369802474975586,2.2720799446105957,3.42578125
1011998,-0.5082950592041016,-0.491424024105072,0.20513901114463806,-0.07588938623666763,-0.3251534402370453,2.205568552017212,3.431640625
1012008,-0.5080617666244507,-0.4920145273208618,0.20571279525756836,-0.1766638159751892,-0.2835344970226288,2.1665902137756348,3.431640625
1012018,-0.5062004923820496,-0.4886520802974701,0.20397157967090607,-0.33471396565437317,-0.28905799984931946,2.1563239097595215,3.431640625
1012030,-0.5058972835540771,-0.48912569880485535,0.20445115864276886,-0.3851957321166992,-0.24909065663814545,2.120628595352173,3.431640625
1012038,-0.507858395576477,-0.4936785399913788,0.2073323130607605,-0.27161291241645813,-0.1463364064693451,2.0526676177978516,3.431640625
1012048,-0.5059887170791626,-0.4895057678222656,0.20478825271129608,-0.39449748396873474,-0.22399844229221344,2.054664134979248,3.42578125
1012058,-0.5056800246238708,-0.4899437725543976,0.20520412921905518,-0.35974663496017456,-0.24940072000026703,2.039172410964966,3.42578125
1012068,-0.5077391862869263,-0.49465373158454895,0.20804129540920258,-0.2215133160352707,-0.23463624715805054,1.9927189350128174,3.42578125
1012080,-0.5074968338012695,-0.4952171742916107,0.20850318670272827,-0.1765606701374054,-0.27730193734169006,1.9830684661865234,3.42578125
1012088,-0.5054897665977478,-0.4911784529685974,0.2060515135526657,-0.26039212942123413,-0.3744032680988312,2.0145015716552734,3.431640625
1012098,-0.5072512626647949,-0.4956047534942627,0.20857134461402893,-0.10546393692493439,-0.31240737438201904,1.9780775308609009,3.431640625
1012108,-0.5070081949234009,-0.49618595838546753,0.20901180803775787,-0.10911417007446289,-0.30928558111190796,1.979530692100525,3.431640625
1012118,-0.5049721002578735,-0.49223771691322327,0.20671792328357697,-0.22962233424186707,-0.33542874455451965,2.0140795707702637,3.42578125
1012130,-0.504652202129364,-0.49268829822540283,0.20705156028270721,-0.3024474084377289,-0.27878305315971375,2.0250768661499023,3.431640625
1012138,-0.5067910552024841,-0.49703457951545715,0.210096538066864,-0.28026992082595825,-0.12381351739168167,1.9837610721588135,3.431640625
1012148,-0.5047834515571594,-0.49288272857666016,0.20756138861179352,-0.5198028683662415,-0.13952824473381042,2.0264759063720703,3.42578125
1012158,-0.5044583082199097,-0.4932910203933716,0.20784519612789154,-0.6055909991264343,-0.07880690693855286,2.0329110622406006,3.42578125
1012168,-0.5064350366592407,-0.4974130392074585,0.21066151559352875,-0.6009286046028137,0.037351857870817184,1.9940733909606934,3.42578125
1012180,-0.5061835646629333,-0.49791938066482544,0.21104490756988525,-0.6473987698554993,0.07973679900169373,1.981423258781433,3.42578125
1012188,-0.504118800163269,-0.49408355355262756,0.20878943800926208,-0.7842743396759033,0.023812521249055862,2.0165631771087646,3.42578125
1012198,-0.5059509873390198,-0.4980984628200531,0.21142005920410156,-0.6696754693984985,0.11066287010908127,1.9809406995773315,3.42578125
1012208,-0.5057199001312256,-0.4985939562320709,0.21182210743427277,-0.7246877551078796,0.07872722297906876,1.959846019744873,3.42578125
1012218,-0.5038579106330872,-0.49494174122810364,0.20972037315368652,-0.8883797526359558,2.7268943085800856e-05,1.9729734659194946,3.42578125
1012230,-0.503568708896637,-0.4952951669692993,0.21002255380153656,-1.00755774974823,-0.027438446879386902,1.9564318656921387,3.431640625
1012238,-0.5056270360946655,-0.4995829463005066,0.21290145814418793,-1.0133920907974243,0.02913108840584755,1.8876503705978394,3.42578125
1012248,-0.5054436326026917,-0.5000863075256348,0.21331128478050232,-1.125072717666626,0.018367605283856392,1.8546404838562012,3.453125
1012258,-0.5036807060241699,-0.49577000737190247,0.21045976877212524,-1.3456584215164185,-0.030324960127472878,1.8558177947998047,3.478515625
1012268,-0.505784273147583,-0.4996623396873474,0.21321584284305573,-1.3224929571151733,0.08765041828155518,1.7630901336669922,3.484375
1012280,-0.5055909752845764,-0.5000260472297668,0.21347713470458984,-1.3662018775939941,0.16961674392223358,1.7143747806549072,3.484375
1012288,-0.503484308719635,-0.49560678005218506,0.2107403725385666,-1.5242952108383179,0.19461511075496674,1.68187415599823,3.48828125
1012298,-0.505566418170929,-0.49925267696380615,0.21338611841201782,-1.4215537309646606,0.37603995203971863,1.5470805168151855,3.48828125
1012308,-0.5054019689559937,-0.49954715371131897,0.21346421539783478,-1.4219177961349487,0.45565342903137207,1.453425407409668,3.48828125
1012318,-0.503728985786438,-0.4952646493911743,0.21047523617744446,-1.4840936660766602,0.4710138142108917,1.3777940273284912,3.484375
1012328,-0.5035242438316345,-0.4953884482383728,0.21028780937194824,-1.4306871891021729,0.49339064955711365,1.2615500688552856,3.484375
1012338,-0.5049681663513184,-0.4990706741809845,0.21159546077251434,-1.2373136281967163,0.5498476028442383,1.0617225170135498,3.484375
1012348,-0.5034291744232178,-0.49562323093414307,0.20880942046642303,-1.2622900009155273,0.4589489996433258,0.9570906758308411,3.478515625
1012358,-0.5032441020011902,-0.49568459391593933,0.2082667499780655,-1.160068392753601,0.4118574559688568,0.8379051089286804,3.47265625
1012368,-0.5054291486740112,-0.499358594417572,0.2101449966430664,-0.9797971844673157,0.4139658212661743,0.6627638936042786,3.46875
1012378,-0.5053359866142273,-0.49950504302978516,0.2095024287700653,-0.9040796756744385,0.3621259331703186,0.5483466386795044,3.462890625
1012388,-0.5037904381752014,-0.49545231461524963,0.20594076812267303,-0.9533314108848572,0.2572687268257141,0.48714572191238403,3.45703125
1012398,-0.5059467554092407,-0.4985213875770569,0.207577183842659,-0.8141297101974487,0.30442386865615845,0.35243722796440125,3.45703125
1012408,-0.5059065222740173,-0.4986269176006317,0.20667986571788788,-0.8151009678840637,0.30172812938690186,0.25023022294044495,3.45703125
1012418,-0.5045242309570312,-0.4941660165786743,0.2025497555732727,-0.9062184691429138,0.32187169790267944,0.19267000257968903,3.447265625
1012428,-0.5044475793838501,-0.4941239655017853,0.20138809084892273,-0.9164167642593384,0.3890394866466522,0.08468662947416306,3.447265625
1012438,-0.5065656900405884,-0.49803227186203003,0.20247572660446167,-0.7795024514198303,0.5516242980957031,-0.04934587702155113,3.44140625
1012448,-0.5047610998153687,-0.4937383830547333,0.19857481122016907,-0.8604952692985535,0.5859845280647278,-0.14594705402851105,3.431640625
1012458,-0.504696786403656,-0.49364128708839417,0.19717976450920105,-0.7747479677200317,0.6685691475868225,-0.2609313130378723,3.431640625
1012468,-0.5065241456031799,-0.49706321954727173,0.19761110842227936,-0.5643227100372314,0.7490149140357971,-0.40784525871276855,3.431640625
1012478,-0.5065392255783081,-0.4970536530017853,0.19617050886154175,-0.39494746923446655,0.7637253403663635,-0.5004104375839233,3.419921875
1012488,-0.5051003694534302,-0.4931619465351105,0.19221602380275726,-0.31545504927635193,0.6954801082611084,-0.5580379962921143,3.419921875
1012498,-0.5073033571243286,-0.49604031443595886,0.19304721057415009,-0.023510493338108063,0.7341018319129944,-0.65911865234375,3.419921875
1012508,-0.5073882341384888,-0.4960259795188904,0.19149717688560486,0.13512413203716278,0.6727890372276306,-0.729640781879425,3.416015625
1012518,-0.5062587857246399,-0.4914367198944092,0.18666647374629974,0.15743669867515564,0.5727232098579407,-0.7663112282752991,3.416015625
1012530,-0.5063221454620361,-0.4913003146648407,0.18492786586284637,0.20776215195655823,0.5012304186820984,-0.8212195634841919,3.416015625
1012538,-0.5083756446838379,-0.49523723125457764,0.18516656756401062,0.33942925930023193,0.4941156506538391,-0.8836085796356201,3.41015625
1012548,-0.5083756446838379,-0.49523723125457764,0.18516656756401062,0.33942925930023193,0.4941156506538391,-0.8836085796356201,3.41015625
1012558,-0.5063955187797546,-0.49137845635414124,0.1800452619791031,0.13571321964263916,0.2793332040309906,-0.9277930855751038,3.41015625
1012568,-0.508131206035614,-0.49437955021858215,0.17992064356803894,0.1167335957288742,0.274604469537735,-0.9813182950019836,3.404296875
1012578,-0.508249044418335,-0.49437591433525085,0.1781938523054123,0.030829384922981262,0.2700037658214569,-1.0022059679031372,3.404296875
1012588,-0.5070163607597351,-0.49049827456474304,0.1739443838596344,-0.12262966483831406,0.23897187411785126,-0.9885662198066711,3.404296875
1012598,-0.5070163607597351,-0.49049827456474304,0.1739443838596344,-0.12262966483831406,0.23897187411785126,-0.9885662198066711,3.404296875
1012608,-0.509630024433136,-0.493729829788208,0.1730872392654419,0.03282554820179939,0.37551599740982056,-1.0205976963043213,3.3984375
1012618,-0.5083917379379272,-0.4892597496509552,0.1685025990009308,0.04389425367116928,0.3570497930049896,-0.9794304966926575,3.3984375
1012628,-0.5085307955741882,-0.4891570806503296,0.16680586338043213,0.18148353695869446,0.3583601415157318,-0.9641076326370239,3.3984375
1012638,-0.510805606842041,-0.49268877506256104,0.16734938323497772,0.4417245388031006,0.40991371870040894,-0.9573424458503723,3.3984375
1012648,-0.510805606842041,-0.49268877506256104,0.16734938323497772,0.4417245388031006,0.40991371870040894,-0.9573424458503723,3.3984375
1012658,-0.5090469121932983,-0.48868125677108765,0.16239947080612183,0.603271484375,0.2629980444908142,-0.8998004198074341,3.3984375
1012668,-0.5108033418655396,-0.49219098687171936,0.16234636306762695,0.7995811104774475,0.24647580087184906,-0.9012683629989624,3.404296875
1012678,-0.5109971165657043,-0.4922356903553009,0.16091890633106232,0.8950744867324829,0.18191029131412506,-0.8910570740699768,3.3984375
1012688,-0.5097046494483948,-0.4884979724884033,0.15720228850841522,0.860946536064148,0.06494490057229996,-0.8142600059509277,3.404296875
1012698,-0.5097046494483948,-0.4884979724884033,0.15720228850841522,0.860946536064148,0.06494490057229996,-0.8142600059509277,3.404296875
1012708,-0.5122546553611755,-0.4913063049316406,0.15691280364990234,1.0079504251480103,0.012086882255971432,-0.8025573492050171,3.3984375
1012718,-0.5111799836158752,-0.4874874949455261,0.15320348739624023,0.9024608135223389,-0.09284469485282898,-0.7713738083839417,3.3984375
1012728,-0.5113678574562073,-0.48751139640808105,0.15200568735599518,0.8275020718574524,-0.19059820473194122,-0.7964537739753723,3.404296875
1012738,-0.5135077834129333,-0.4909868538379669,0.15284599363803864,0.8283213973045349,-0.25127077102661133,-0.8484918475151062,3.404296875
1012748,-0.5135077834129333,-0.4909868538379669,0.15284599363803864,0.8283213973045349,-0.25127077102661133,-0.8484918475151062,3.41015625
1012758,-0.5118765234947205,-0.4873911142349243,0.14892449975013733,0.4722626805305481,-0.5960686206817627,-0.8670012354850769,3.41015625
1012768,-0.5136440992355347,-0.4912673532962799,0.1493157595396042,0.4389502704143524,-0.7371476888656616,-0.9102862477302551,3.41015625
1012778,-0.5138214826583862,-0.49146580696105957,0.14836108684539795,0.3508700132369995,-0.9349591732025146,-0.9487190842628479,3.41015625
1012788,-0.5122178196907043,-0.48779189586639404,0.14527751505374908,0.2346964329481125,-1.1903311014175415,-0.9369502663612366,3.416015625
1012798,-0.5142512917518616,-0.4904954433441162,0.1463971883058548,0.36984750628471375,-1.3072614669799805,-0.9584782719612122,3.416015625
1012808,-0.5143837332725525,-0.49070030450820923,0.14553694427013397,0.4741726815700531,-1.4750224351882935,-0.9690669775009155,3.41015625
1012818,-0.5131818652153015,-0.48714369535446167,0.142350435256958,0.5574597716331482,-1.6590451002120972,-0.9528587460517883,3.41015625
1012828,-0.5132126212120056,-0.48725777864456177,0.14145973324775696,0.7415947318077087,-1.7592182159423828,-0.973540723323822,3.416015625
1012838,-0.5146777629852295,-0.4911028742790222,0.14190270006656647,1.0494437217712402,-1.77555513381958,-1.0019153356552124,3.416015625
1012848,-0.5128294825553894,-0.48772957921028137,0.1393532007932663,1.1131174564361572,-1.8732422590255737,-0.994338870048523,3.416015625
1012858,-0.5127310156822205,-0.48789823055267334,0.13852468132972717,1.2308365106582642,-1.8592534065246582,-1.0113897323608398,3.416015625
1012868,-0.5142583847045898,-0.4914340674877167,0.1392650008201599,1.3485478162765503,-1.7905538082122803,-1.0329862833023071,3.416015625
1012878,-0.5141472816467285,-0.4917569160461426,0.138545960187912,1.3203696012496948,-1.735781192779541,-1.0437151193618774,3.416015625
1012888,-0.5122613906860352,-0.48801079392433167,0.13551203906536102,1.141422986984253,-1.735808253288269,-1.0237698554992676,3.416015625
1012898,-0.5122613906860352,-0.48801079392433167,0.13551203906536102,1.141422986984253,-1.735808253288269,-1.0237698554992676,3.416015625
1012908,-0.513737678527832,-0.4915274381637573,0.1361522376537323,1.1109880208969116,-1.5256904363632202,-1.0308067798614502,3.416015625
1012918,-0.5119897127151489,-0.4882187247276306,0.13349591195583344,1.020745038986206,-1.495842456817627,-1.0141456127166748,3.416015625
1012928,-0.5116852521896362,-0.4885390102863312,0.13291862607002258,1.042137622833252,-1.4319318532943726,-1.0258668661117554,3.416015625
1012938,-0.5132349729537964,-0.4922333061695099,0.13426336646080017,1.2027136087417603,-1.3140673637390137,-1.0648730993270874,3.416015625
1012948,-0.5132349729537964,-0.4922333061695099,0.13426336646080017,1.2027136087417603,-1.3140673637390137,-1.0648730993270874,3.416015625
1012958,-0.5109733939170837,-0.48943889141082764,0.13142532110214233,1.1954679489135742,-1.26318359375,-1.091424822807312,3.419921875
1012968,-0.5122641921043396,-0.493027001619339,0.13265268504619598,1.2892972230911255,-1.183791995048523,-1.1047837734222412,3.419921875
1012978,-0.5118882656097412,-0.4935508668422699,0.1323574036359787,1.288548469543457,-1.137062668800354,-1.1327826976776123,3.419921875
1012988,-0.5099272131919861,-0.4902922213077545,0.12990689277648926,1.1548874378204346,-1.1347031593322754,-1.1489616632461548,3.419921875
1012998,-0.5099272131919861,-0.4902922213077545,0.12990689277648926,1.1548874378204346,-1.1347031593322754,-1.1489616632461548,3.419921875
1013008,-0.5109395384788513,-0.4944494962692261,0.13140788674354553,1.1035653352737427,-0.8740970492362976,-1.1581695079803467,3.416015625
1013018,-0.5089561939239502,-0.49152055382728577,0.1293625831604004,0.8919335603713989,-0.8035329580307007,-1.1018489599227905,3.416015625
1013028,-0.50844806432724,-0.4920608103275299,0.12921154499053955,0.7341866493225098,-0.6948662996292114,-1.059958577156067,3.419921875
1013038,-0.5096524953842163,-0.4956786036491394,0.13081614673137665,0.6746854782104492,-0.5471651554107666,-1.0259455442428589,3.419921875
1013048,-0.5096524953842163,-0.4956786036491394,0.13081614673137665,0.6746854782104492,-0.5471651554107666,-1.0259455442428589,3.42578125
1013058,-0.5070438385009766,-0.49334484338760376,0.1288418024778366,0.34477588534355164,-0.4881412088871002,-0.862881600856781,3.42578125
1013068,-0.5080770254135132,-0.4972083270549774,0.1303001493215561,0.3666568398475647,-0.4073367118835449,-0.7921539545059204,3.42578125
1013078,-0.507554829120636,-0.49789294600486755,0.13035030663013458,0.32559049129486084,-0.36953896284103394,-0.7338200807571411,3.42578125
1013088,-0.5053302049636841,-0.49504297971725464,0.12855938076972961,0.20170052349567413,-0.38590916991233826,-0.6581224203109741,3.42578125
1013098,-0.5053302049636841,-0.49504297971725464,0.12855938076972961,0.20170052349567413,-0.38590916991233826,-0.6581224203109741,3.431640625
1013108,-0.5057858824729919,-0.49949851632118225,0.13023927807807922,0.2820185422897339,-0.2490316927433014,-0.5734342336654663,3.42578125
1013118,-0.5038211345672607,-0.49702131748199463,0.12864361703395844,0.1956523060798645,-0.25803449749946594,-0.479155033826828,3.42578125
1013128,-0.5032138228416443,-0.4976600110530853,0.12869936227798462,0.1567734032869339,-0.22762809693813324,-0.3968464434146881,3.431640625
1013138,-0.5040351748466492,-0.501340389251709,0.1301032155752182,0.19982203841209412,-0.15512782335281372,-0.33710673451423645,3.431640625
1013148,-0.5034864544868469,-0.5021210312843323,0.1302221268415451,0.1407848298549652,-0.1308583766222,-0.24568872153759003,3.431640625
1013158,-0.5018312931060791,-0.49939632415771484,0.12802597880363464,-0.02477140910923481,-0.14498387277126312,-0.13607661426067352,3.431640625
1013168,-0.5029016733169556,-0.5029921531677246,0.1296621859073639,-0.020137088373303413,-0.059563636779785156,-0.04997394233942032,3.431640625
1013178,-0.5023360252380371,-0.5037264823913574,0.12972058355808258,-0.08182671666145325,0.029040873050689697,0.04775773361325264,3.431640625
1013188,-0.5000728964805603,-0.501076877117157,0.12806162238121033,-0.23895500600337982,0.07652097195386887,0.1602213829755783,3.42578125
1013198,-0.49942466616630554,-0.5016756653785706,0.12802822887897491,-0.30416882038116455,0.19308361411094666,0.256359726190567,3.42578125
1013208,-0.5006834864616394,-0.5053790807723999,0.1299407035112381,-0.27329617738723755,0.38640332221984863,0.3243565857410431,3.42578125
1013218,-0.4987758994102478,-0.5029361844062805,0.1282329559326172,-0.4192132353782654,0.4626774787902832,0.44880881905555725,3.419921875
1013228,-0.49818217754364014,-0.5035859942436218,0.1282268762588501,-0.503164529800415,0.5572400093078613,0.5549044609069824,3.42578125
1013238,-0.49930182099342346,-0.5072418451309204,0.12991437315940857,-0.5024456977844238,0.6698315739631653,0.6144641637802124,3.42578125
1013248,-0.49880293011665344,-0.5080106258392334,0.12996213138103485,-0.6185036301612854,0.6954543590545654,0.7205787301063538,3.419921875
1013258,-0.49702632427215576,-0.5051759481430054,0.1277448832988739,-0.8698003888130188,0.6378178596496582,0.8672628402709961,3.42578125
1013268,-0.4976758658885956,-0.508813202381134,0.12861669063568115,-0.9697450995445251,0.6528169512748718,0.9463324546813965,3.42578125
1013278,-0.49717462062835693,-0.5094957947731018,0.12850841879844666,-1.138127088546753,0.634678304195404,1.0764704942703247,3.419921875
1013288,-0.49563151597976685,-0.5072777271270752,0.12656167149543762,-1.3589926958084106,0.578621506690979,1.2511855363845825,3.419921875
1013298,-0.49563151597976685,-0.5072777271270752,0.12656167149543762,-1.3589926958084106,0.578621506690979,1.2511855363845825,3.419921875
1013308,-0.49648115038871765,-0.5109294056892395,0.1281278431415558,-1.4783222675323486,0.6798000335693359,1.5163476467132568,3.419921875
1013318,-0.49503013491630554,-0.5085596442222595,0.12610845267772675,-1.5877522230148315,0.6898228526115417,1.6953845024108887,3.416015625
1013328,-0.4945801794528961,-0.5090693235397339,0.12587425112724304,-1.5930806398391724,0.7536908388137817,1.8450013399124146,3.419921875
1013338,-0.4957553446292877,-0.5127367377281189,0.12715093791484833,-1.4880123138427734,0.8905586004257202,1.9092252254486084,3.419921875
1013348,-0.4957553446292877,-0.5127367377281189,0.12715093791484833,-1.4880123138427734,0.8905586004257202,1.9092252254486084,3.419921875
1013358,-0.49388831853866577,-0.5104337334632874,0.1245376467704773,-1.578427791595459,1.0546984672546387,2.1741716861724854,3.419921875
1013368,-0.49494653940200806,-0.5139000415802002,0.12549740076065063,-1.5084036588668823,1.1981090307235718,2.229862689971924,3.419921875
1013378,-0.4946298897266388,-0.5143800973892212,0.1251968890428543,-1.5205880403518677,1.2957669496536255,2.327000617980957,3.416015625
1013388,-0.49295228719711304,-0.5116129517555237,0.12305497378110886,-1.635479211807251,1.313557744026184,2.4541773796081543,3.416015625
1013398,-0.49403059482574463,-0.5140324831008911,0.12409508228302002,-1.5709640979766846,1.4065669775009155,2.454399347305298,3.416015625
1013408,-0.4937879145145416,-0.5144339203834534,0.12381168454885483,-1.5834640264511108,1.402884602546692,2.5145418643951416,3.416015625
1013418,-0.4924052655696869,-0.5123651027679443,0.12214932590723038,-1.647352695465088,1.3369909524917603,2.5953643321990967,3.416015625
1013428,-0.4921656847000122,-0.5126323103904724,0.12182542681694031,-1.6539536714553833,1.2844988107681274,2.633361339569092,3.416015625
1013438,-0.4937766492366791,-0.5164292454719543,0.1232704445719719,-1.537848949432373,1.297494649887085,2.6148571968078613,3.416015625
1013448,-0.4936686158180237,-0.516811192035675,0.12302102148532867,-1.5362775325775146,1.2479712963104248,2.621786594390869,3.416015625
1013458,-0.49218565225601196,-0.5137891173362732,0.12078352272510529,-1.6409176588058472,1.1327848434448242,2.6589841842651367,3.416015625
1013468,-0.493643194437027,-0.5171393156051636,0.12190506607294083,-1.5655088424682617,1.1260446310043335,2.6044392585754395,3.416015625
1013478,-0.49357372522354126,-0.5174077153205872,0.12162501364946365,-1.5487051010131836,1.1052172183990479,2.5737438201904297,3.416015625
1013488,-0.4921211004257202,-0.5142048001289368,0.11931288987398148,-1.618620753288269,1.0471932888031006,2.574390411376953,3.41015625
1013498,-0.4920208752155304,-0.5142909288406372,0.11896266788244247,-1.5963166952133179,1.0574840307235718,2.529592752456665,3.416015625
1013508,-0.4931623935699463,-0.5171163082122803,0.1196875125169754,-1.4786697626113892,1.1308237314224243,2.3282582759857178,3.41015625
1013518,-0.4920174777507782,-0.5148673057556152,0.11801852285861969,-1.5152943134307861,1.132952332496643,2.3129916191101074,3.41015625
1013528,-0.49199336767196655,-0.5149401426315308,0.1177009642124176,-1.5014396905899048,1.1684870719909668,2.2445240020751953,3.41015625
1013538,-0.4933803975582123,-0.5173636078834534,0.11874818801879883,-1.4064555168151855,1.256466031074524,2.106515884399414,3.41015625
