time.ms,stateEstimate.x,stateEstimate.y,stateEstimate.z,stabilizer.roll,stabilizer.pitch,stabilizer.yaw,pm.vbat
1461861,0.17287728190422058,-0.14044907689094543,0.009256355464458466,2.1848573684692383,0.14827024936676025,-4.39987325668335,3.6953125
1461871,0.17282621562480927,-0.14036843180656433,0.009190604090690613,2.181992530822754,0.1490308940410614,-4.395090579986572,3.6953125
1461881,0.17333300411701202,-0.13932736217975616,0.008900875225663185,2.1488590240478516,0.1311984360218048,-4.3511762619018555,3.6953125
1461891,0.1733066886663437,-0.13919755816459656,0.008816562592983246,2.146244764328003,0.13079269230365753,-4.347923755645752,3.6953125
1461901,0.17274989187717438,-0.14015167951583862,0.008978336118161678,2.164491891860962,0.14306773245334625,-4.394189357757568,3.6953125
1461911,0.17319229245185852,-0.13921017944812775,0.0087019307538867,2.1371166706085205,0.13169240951538086,-4.355506420135498,3.6953125
1461921,0.17316755652427673,-0.13906046748161316,0.00860949233174324,2.1342406272888184,0.1313719004392624,-4.352182388305664,3.6953125
1461931,0.17268534004688263,-0.1403358280658722,0.00901317410171032,2.1733429431915283,0.1475268453359604,-4.390892505645752,3.6953125
1461942,0.17263594269752502,-0.14023621380329132,0.008941425010561943,2.1705973148345947,0.14810509979724884,-4.386782646179199,3.6953125
1461951,0.17317773401737213,-0.13884508609771729,0.008749851956963539,2.142503023147583,0.13726560771465302,-4.350518226623535,3.689453125
1461961,0.17232710123062134,-0.1401224136352539,0.008884805254638195,2.180102586746216,0.16344815492630005,-4.388955593109131,3.6953125
1461971,0.1722576767206192,-0.14002589881420135,0.008810197003185749,2.1772537231445312,0.16525308787822723,-4.387080192565918,3.689453125
1461981,0.1727011650800705,-0.13910464942455292,0.008506543934345245,2.149043321609497,0.15012840926647186,-4.344441890716553,3.689453125
1461992,0.17265480756759644,-0.13896360993385315,0.00841347873210907,2.1448209285736084,0.1495743989944458,-4.340467929840088,3.689453125
1462001,0.17218415439128876,-0.14031781256198883,0.008889606222510338,2.171267509460449,0.1568310409784317,-4.387321949005127,3.689453125
1462011,0.17268678545951843,-0.13908390700817108,0.008642756380140781,2.136199951171875,0.1416228860616684,-4.352213382720947,3.6953125
1462021,0.17264921963214874,-0.1389254331588745,0.008551643230021,2.133805513381958,0.14079846441745758,-4.348569869995117,3.689453125
1462031,0.172071173787117,-0.14021611213684082,0.008906276896595955,2.174589157104492,0.15739992260932922,-4.387971878051758,3.6953125
1462041,0.17200231552124023,-0.1401100605726242,0.008829045109450817,2.1720263957977295,0.15647882223129272,-4.384125709533691,3.689453125
1462051,0.17267878353595734,-0.13898703455924988,0.008358089253306389,2.1512489318847656,0.14345529675483704,-4.344720840454102,3.689453125
1462061,0.17224523425102234,-0.14022520184516907,0.008788252249360085,2.184680700302124,0.15524907410144806,-4.382802963256836,3.689453125
1462071,0.1721768081188202,-0.14013174176216125,0.00871314387768507,2.181046485900879,0.1563759446144104,-4.3780035972595215,3.6953125
1462081,0.17274998128414154,-0.13873128592967987,0.008447467349469662,2.137575149536133,0.13743987679481506,-4.3516435623168945,3.6953125
1462092,0.1727096140384674,-0.13857318460941315,0.008355320431292057,2.134143114089966,0.13657107949256897,-4.347448348999023,3.6953125
1462101,0.1723758429288864,-0.14009393751621246,0.009038564749062061,2.1632750034332275,0.13906553387641907,-4.389368057250977,3.689453125
1462111,0.1730571985244751,-0.1387505829334259,0.008652020245790482,2.12307071685791,0.11974364519119263,-4.347815036773682,3.689453125
1462121,0.17304033041000366,-0.13857726752758026,0.008559201844036579,2.1201555728912354,0.11958763003349304,-4.344297409057617,3.6953125
1462131,0.17260834574699402,-0.13995933532714844,0.009071249514818192,2.1643993854522705,0.13630354404449463,-4.375986099243164,3.689453125
1462142,0.17256873846054077,-0.13984160125255585,0.009002993814647198,2.160350799560547,0.13580520451068878,-4.372889995574951,3.689453125
1462151,0.17319948971271515,-0.13886719942092896,0.008537406101822853,2.142664909362793,0.12356515973806381,-4.342710971832275,3.689453125
1462161,0.17274197936058044,-0.1403154879808426,0.009060653857886791,2.1831886768341064,0.1371905654668808,-4.3838324546813965,3.6953125
1462171,0.17270328104496002,-0.14022473990917206,0.008995250798761845,2.179623603820801,0.13882949948310852,-4.379169940948486,3.6953125
1462181,0.17315569519996643,-0.13889692723751068,0.008875490166246891,2.137784957885742,0.12484274804592133,-4.343076705932617,3.6953125
1462191,0.1731407344341278,-0.1387464702129364,0.008796196430921555,2.1344704627990723,0.1255258321762085,-4.338057041168213,3.689453125
1462201,0.1729608178138733,-0.1399250477552414,0.009385024197399616,2.158414363861084,0.12886393070220947,-4.379324913024902,3.689453125
1462211,0.1736951619386673,-0.13897791504859924,0.008819968439638615,2.1308603286743164,0.10744568705558777,-4.337340831756592,3.689453125
1462221,0.17370499670505524,-0.13882015645503998,0.008727092295885086,2.1278653144836426,0.10748754441738129,-4.332479953765869,3.689453125
1462231,0.1732087880373001,-0.14016051590442657,0.009135776199400425,2.1705901622772217,0.12575644254684448,-4.367003917694092,3.689453125
1462242,0.17318837344646454,-0.14005960524082184,0.00906427763402462,2.1674370765686035,0.12403780221939087,-4.325992107391357,3.689453125
1462251,0.17384426295757294,-0.1389831006526947,0.008654968813061714,2.146754264831543,0.11155305057764053,-4.325992107391357,3.689453125
1462261,0.1731652319431305,-0.14045588672161102,0.008999059908092022,2.187669277191162,0.13329462707042694,-4.367089748382568,3.689453125
1462271,0.17313344776630402,-0.14037905633449554,0.008927893824875355,2.184373617172241,0.13470421731472015,-4.362804889678955,3.689453125
1462281,0.17361998558044434,-0.13903893530368805,0.008787577040493488,2.142664909362793,0.11913292855024338,-4.329902648925781,3.689453125
1462291,0.1736152023077011,-0.13889966905117035,0.008705276995897293,2.140181064605713,0.11966489255428314,-4.3254804611206055,3.689453125
1462301,0.1729755401611328,-0.14040641486644745,0.009115424938499928,2.1701483726501465,0.13297560811042786,-4.368024826049805,3.689453125
1462311,0.1734640896320343,-0.1393921822309494,0.008842909708619118,2.1397545337677,0.1187019869685173,-4.342902183532715,3.689453125
1462321,0.17346148192882538,-0.13924895226955414,0.008761070668697357,2.137357473373413,0.11922357231378555,-4.339009761810303,3.689453125
1462331,0.17297591269016266,-0.1403147280216217,0.00902857631444931,2.1704554557800293,0.13629835844039917,-4.375674724578857,3.6953125
1462341,0.17294633388519287,-0.14021360874176025,0.008960765786468983,2.1673333644866943,0.13794422149658203,-4.371739387512207,3.6953125
1462351,0.17333979904651642,-0.13911478221416473,0.008841605857014656,2.1466522216796875,0.1302255392074585,-4.339209079742432,3.6953125
1462361,0.17271918058395386,-0.14042453467845917,0.009167525917291641,2.182748556137085,0.14811190962791443,-4.37870979309082,3.689453125
1462371,0.17267003655433655,-0.14034321904182434,0.009112313389778137,2.179792642593384,0.1487221121788025,-4.374621868133545,3.6953125
1462381,0.17317388951778412,-0.1391194462776184,0.008903001435101032,2.1411373615264893,0.13404250144958496,-4.343657493591309,3.6953125
1462393,0.17315366864204407,-0.13898247480392456,0.008832218125462532,2.139242172241211,0.13250528275966644,-4.341346740722656,3.689453125
1462401,0.17258355021476746,-0.14030668139457703,0.009212280623614788,2.1650824546813965,0.1454751044511795,-4.384822368621826,3.689453125
1462411,0.1731344759464264,-0.13909152150154114,0.008946577087044716,2.130082607269287,0.1284760683774948,-4.3496623039245605,3.689453125
1462421,0.17311793565750122,-0.13893334567546844,0.008868418633937836,2.1267716884613037,0.1286395788192749,-4.346156597137451,3.6953125
1462431,0.17221955955028534,-0.14022478461265564,0.008973252028226852,2.168455123901367,0.158485546708107,-4.384113788604736,3.6953125
1462442,0.17215539515018463,-0.14011786878108978,0.0088967802003026,2.164682388305664,0.15843471884727478,-4.380052089691162,3.689453125
1462451,0.1727149933576584,-0.13881509006023407,0.008625509217381477,2.140751838684082,0.1486140638589859,-4.345676898956299,3.6953125
1462461,0.17242370545864105,-0.1400001496076584,0.009142465889453888,2.1722989082336426,0.15631937980651855,-4.386416435241699,3.6953125
1462471,0.1723605841398239,-0.13990306854248047,0.00907575711607933,2.169532299041748,0.1574300080537796,-4.383378028869629,3.6953125
1462481,0.17304851114749908,-0.1389806866645813,0.008505514822900295,2.1394777297973633,0.1361725926399231,-4.355593681335449,3.6953125
1462492,0.17301718890666962,-0.13883990049362183,0.008406871929764748,2.1372599601745605,0.13620616495609283,-4.3514018058776855,3.689453125
1462501,0.17236612737178802,-0.14015497267246246,0.008704031817615032,2.1630406379699707,0.15089760720729828,-4.395461082458496,3.6953125
1462511,0.1727897673845291,-0.13892406225204468,0.008535093627870083,2.1279947757720947,0.13821034133434296,-4.365508079528809,3.689453125
1462521,0.1727551817893982,-0.13876529037952423,0.00843577180057764,2.124720335006714,0.13752833008766174,-4.3608832359313965,3.689453125
1462531,0.1725466102361679,-0.14015911519527435,0.00912593211978674,2.1669514179229736,0.14526353776454926,-4.398509979248047,3.689453125
1462543,0.1724993884563446,-0.14005860686302185,0.00906096026301384,2.164632558822632,0.14621300995349884,-4.394120216369629,3.689453125
1462551,0.17298439145088196,-0.1390734761953354,0.008784685283899307,2.145378589630127,0.1367800235748291,-4.363241195678711,3.689453125
1462561,0.17244978249073029,-0.14038123190402985,0.009178598411381245,2.1793391704559326,0.15112240612506866,-4.411413669586182,3.6953125
1462571,0.17239202558994293,-0.14030244946479797,0.009122437797486782,2.1758475303649902,0.15101076662540436,-4.407377243041992,3.689453125
1462581,0.17303238809108734,-0.13894814252853394,0.008809383027255535,2.1334142684936523,0.1316218078136444,-4.370760917663574,3.6953125
1462592,0.1730089783668518,-0.13880635797977448,0.008735177107155323,2.1294190883636475,0.13062889873981476,-4.367788314819336,3.6953125
1462601,0.1725277155637741,-0.14013999700546265,0.009193267673254013,2.1556005477905273,0.14003068208694458,-4.408124923706055,3.689453125
1462611,0.17302873730659485,-0.13916362822055817,0.008888238109648228,2.1272644996643066,0.12721404433250427,-4.3637285232543945,3.689453125
1462621,0.17300929129123688,-0.13901174068450928,0.008813627064228058,2.1255123615264893,0.1281164586544037,-4.36029052734375,3.689453125
1462631,0.1727297306060791,-0.14009571075439453,0.009277223609387875,2.1589481830596924,0.1392839252948761,-4.396636009216309,3.6953125
1462642,0.17269431054592133,-0.1399836540222168,0.00922426674515009,2.155324697494507,0.13843852281570435,-4.392939567565918,3.6953125
1462651,0.17328698933124542,-0.13891379535198212,0.008881844580173492,2.135366678237915,0.12628647685050964,-4.354413986206055,3.6953125
1462661,0.1727680116891861,-0.14047738909721375,0.009442925453186035,2.1770637035369873,0.14078128337860107,-4.403264045715332,3.6953125
1462671,0.17272703349590302,-0.14039455354213715,0.009399423375725746,2.1750638484954834,0.1416429728269577,-4.398287773132324,3.6953125
1462681,0.1732131838798523,-0.13933418691158295,0.0091688958927989,2.1411826610565186,0.12462545186281204,-4.353201866149902,3.6953125
1462693,0.17319685220718384,-0.13920417428016663,0.009106989949941635,2.13913631439209,0.12528954446315765,-4.349749565124512,3.689453125
1462701,0.1728091984987259,-0.13998422026634216,0.009307592175900936,2.154658079147339,0.13453178107738495,-4.39481782913208,3.689453125
1462711,0.1735132932662964,-0.13885965943336487,0.008845058269798756,2.1220459938049316,0.11475533246994019,-4.36498498916626,3.689453125
1462721,0.17351719737052917,-0.13870039582252502,0.008761348202824593,2.1205906867980957,0.11659644544124603,-4.36071252822876,3.689453125
1462731,0.17322573065757751,-0.14018486440181732,0.009426286444067955,2.168198347091675,0.12734229862689972,-4.398473739624023,3.689453125
1462742,0.17320986092090607,-0.14008763432502747,0.009374897927045822,2.165109872817993,0.12580567598342896,-4.39359188079834,3.689453125
1462751,0.17362698912620544,-0.1390727311372757,0.009235705249011517,2.144909381866455,0.11898337304592133,-4.365854263305664,3.689453125
1462761,0.17284263670444489,-0.14026735723018646,0.009363329038023949,2.1793127059936523,0.14459547400474548,-4.409409999847412,3.689453125
1462771,0.1728047877550125,-0.14018569886684418,0.00931231863796711,2.1763415336608887,0.1441919207572937,-4.405095100402832,3.689453125
1462781,0.1733970046043396,-0.13901834189891815,0.009002833627164364,2.1395950317382812,0.12761221826076508,-4.362720966339111,3.689453125
1462792,0.17338833212852478,-0.1388823688030243,0.008932298980653286,2.136298894882202,0.1280922144651413,-4.360243320465088,3.689453125
1462801,0.1727530062198639,-0.14000524580478668,0.00913696363568306,2.158975124359131,0.14217448234558105,-4.397533416748047,3.6953125
1462811,0.17329499125480652,-0.1391809582710266,0.008736509829759598,2.1354308128356934,0.1268908530473709,-4.362761974334717,3.6953125
1462821,0.173286572098732,-0.13903866708278656,0.008652342483401299,2.1320838928222656,0.12671741843223572,-4.358317852020264,3.689453125
1462831,0.17282481491565704,-0.14036960899829865,0.009098369628190994,2.172394275665283,0.14209866523742676,-4.402117729187012,3.689453125
1462843,0.17278814315795898,-0.140281081199646,0.009035603143274784,2.1694326400756836,0.14257954061031342,-4.397855281829834,3.6953125
1462851,0.17328959703445435,-0.13910351693630219,0.008816646412014961,2.146481513977051,0.13517923653125763,-4.3575239181518555,3.6953125
1462861,0.17231708765029907,-0.14015507698059082,0.008706911467015743,2.1759676933288574,0.16215135157108307,-4.400710582733154,3.689453125
1462871,0.17225363850593567,-0.14007039368152618,0.008625036105513573,2.172283172607422,0.16196584701538086,-4.397739887237549,3.689453125
1462881,0.17282946407794952,-0.13894018530845642,0.008251656778156757,2.1352574825286865,0.1429983526468277,-4.371472358703613,3.6953125
1462892,0.17279790341854095,-0.1387990117073059,0.008148102089762688,2.1332383155822754,0.14126752316951752,-4.3666863441467285,3.6953125
1462901,0.17263641953468323,-0.14019523561000824,0.008864384144544601,2.161893606185913,0.1423671543598175,-4.408694744110107,3.6953125
1462911,0.17328479886054993,-0.13883483409881592,0.008530101738870144,2.122555732727051,0.12326379120349884,-4.376013278961182,3.6953125
1462921,0.1732810139656067,-0.13867045938968658,0.008436337113380432,2.1195342540740967,0.12418524920940399,-4.372258186340332,3.689453125
1462931,0.1725856512784958,-0.140123188495636,0.008772969245910645,2.16576886177063,0.14653784036636353,-4.410933971405029,3.689453125
1462942,0.17254109680652618,-0.14001964032649994,0.008698671124875546,2.1629741191864014,0.1459914892911911,-4.4071197509765625,3.689453125
1462951,0.1730901449918747,-0.1387345790863037,0.008447108790278435,2.1372649669647217,0.1359131783246994,-4.379133701324463,3.689453125
1462961,0.17239917814731598,-0.14021360874176025,0.00881601870059967,2.1779441833496094,0.1561070680618286,-4.419001579284668,3.6953125
1462971,0.1723366230726242,-0.14013078808784485,0.008748047053813934,2.174609899520874,0.15603142976760864,-4.415920734405518,3.6953125
1462981,0.17270074784755707,-0.1387491673231125,0.008720314130187035,2.1320712566375732,0.14521677792072296,-4.381832122802734,3.6953125
1462992,0.1726585179567337,-0.13860195875167847,0.00864543579518795,2.1300103664398193,0.14661288261413574,-4.379062652587891,3.6953125
1463001,0.17240996658802032,-0.13990572094917297,0.009280502796173096,2.1548776626586914,0.15042059123516083,-4.414896011352539,3.6953125
1463011,0.1730571836233139,-0.13888224959373474,0.008823482319712639,2.1248538494110107,0.1307971030473709,-4.372550964355469,3.6953125
1463021,0.17303669452667236,-0.13872481882572174,0.008745105005800724,2.1216208934783936,0.13056404888629913,-4.36899471282959,3.6953125
1463031,0.17249929904937744,-0.14007799327373505,0.009169507771730423,2.1645760536193848,0.14947432279586792,-4.416018962860107,3.6953125
1463042,0.17244979739189148,-0.1399744153022766,0.009114273823797703,2.1614325046539307,0.14846929907798767,-4.411734104156494,3.6953125
1463051,0.17312687635421753,-0.13893865048885345,0.008646776899695396,2.1413238048553467,0.13441622257232666,-4.389196872711182,3.689453125
1463061,0.17267632484436035,-0.14039413630962372,0.00918810348957777,2.1819257736206055,0.14742876589298248,-4.430872440338135,3.6953125
1463071,0.17262804508209229,-0.1403179168701172,0.009132394567131996,2.178860664367676,0.14687375724315643,-4.427327632904053,3.6953125
1463081,0.17317244410514832,-0.13904109597206116,0.008900469169020653,2.140063524246216,0.12906910479068756,-4.387747764587402,3.6953125
1463093,0.17315305769443512,-0.13890594244003296,0.008824309334158897,2.138500452041626,0.12892013788223267,-4.3836846351623535,3.6953125
1463101,0.17295579612255096,-0.14019469916820526,0.00946845393627882,2.1649796962738037,0.13151219487190247,-4.419070720672607,3.6953125
1463111,0.17364360392093658,-0.13939478993415833,0.008916166611015797,2.138744831085205,0.11354988813400269,-4.376112461090088,3.6953125
1463121,0.17364628612995148,-0.13925598561763763,0.008833597414195538,2.1364939212799072,0.11391621083021164,-4.3716349601745605,3.6953125
1463131,0.17330028116703033,-0.14047588407993317,0.009292768314480782,2.175438165664673,0.12760865688323975,-4.408057689666748,3.6953125
1463142,0.17328007519245148,-0.14038872718811035,0.009231668896973133,2.1730713844299316,0.12966080009937286,-4.404278755187988,3.6953125
1463151,0.17376619577407837,-0.13909226655960083,0.009117393754422665,2.1480929851531982,0.12167605012655258,-4.370022773742676,3.6953125
1463161,0.17315764725208282,-0.1402912139892578,0.009373973123729229,2.183133602142334,0.14111444354057312,-4.417471885681152,3.6953125
1463171,0.17312584817409515,-0.1402105838060379,0.009320143610239029,2.1804184913635254,0.14211887121200562,-4.415422439575195,3.689453125
1463181,0.1734650731086731,-0.13941577076911926,0.009149945341050625,2.156010389328003,0.13151733577251434,-4.380683422088623,3.6953125
1463192,0.1734510362148285,-0.13929413259029388,0.009083469398319721,2.152933120727539,0.13310196995735168,-4.377220630645752,3.6953125
1463201,0.17306743562221527,-0.1404498964548111,0.009499633684754372,2.1765620708465576,0.14192785322666168,-4.408349990844727,3.689453125
1463211,0.17380964756011963,-0.13932867348194122,0.009009343571960926,2.141287088394165,0.11948464065790176,-4.381634712219238,3.689453125
1463221,0.17381154000759125,-0.139186292886734,0.008929559029638767,2.1390228271484375,0.12213270366191864,-4.376793384552002,3.689453125
1463231,0.173207089304924,-0.14057636260986328,0.00929515901952982,2.181735038757324,0.14230561256408691,-4.417823314666748,3.689453125
1463242,0.1731727570295334,-0.14049088954925537,0.009233491495251656,2.179633378982544,0.141365185379982,-4.412569046020508,3.689453125
1463251,0.1738356500864029,-0.13921105861663818,0.008887599222362041,2.1536221504211426,0.12919674813747406,-4.381536483764648,3.689453125
1463261,0.17308850586414337,-0.14035934209823608,0.009005099534988403,2.18768048286438,0.15221291780471802,-4.409912109375,3.689453125
1463271,0.17303861677646637,-0.14028219878673553,0.008934611454606056,2.184558868408203,0.155011385679245,-4.405727863311768,3.6953125
1463281,0.17342115938663483,-0.13940343260765076,0.008710113354027271,2.1564273834228516,0.14179958403110504,-4.376557350158691,3.689453125
1463293,0.17338867485523224,-0.13928645849227905,0.008626004680991173,2.1539204120635986,0.14429780840873718,-4.372735500335693,3.6953125
1463301,0.17273245751857758,-0.14038006961345673,0.00878698006272316,2.1759755611419678,0.15896035730838776,-4.4192633628845215,3.689453125
1463311,0.17307958006858826,-0.13919144868850708,0.008704953826963902,2.1421263217926025,0.1485033631324768,-4.384092330932617,3.689453125
1463321,0.17304059863090515,-0.13905149698257446,0.008616680279374123,2.1392006874084473,0.14940504729747772,-4.379995822906494,3.689453125
1463331,0.17271627485752106,-0.14024129509925842,0.009102310054004192,2.1753623485565186,0.15945345163345337,-4.41725492477417,3.6953125
1463343,0.17265890538692474,-0.14014701545238495,0.009037806652486324,2.1727516651153564,0.16115795075893402,-4.413841247558594,3.689453125
1463351,0.17312952876091003,-0.13898521661758423,0.008826225064694881,2.1506588459014893,0.15253274142742157,-4.38145112991333,3.6953125
1463361,0.17227739095687866,-0.1403530389070511,0.009023531340062618,2.190674304962158,0.17861519753932953,-4.419419765472412,3.689453125
1463371,0.17219498753547668,-0.14027263224124908,0.008959098719060421,2.189089775085449,0.17967578768730164,-4.415128707885742,3.689453125
1463381,0.1727588176727295,-0.13920725882053375,0.008580433204770088,2.153681993484497,0.158681720495224,-4.383481025695801,3.6953125
1463393,0.17270664870738983,-0.13907665014266968,0.008493205532431602,2.1525826454162598,0.15977510809898376,-4.380095958709717,3.689453125
1463401,0.17228001356124878,-0.14009256660938263,0.00880680326372385,2.1711502075195312,0.16776084899902344,-4.424363136291504,3.6953125
1463411,0.17286916077136993,-0.13871711492538452,0.008509675040841103,2.131424903869629,0.15043137967586517,-4.386408805847168,3.689453125
1463421,0.1728283017873764,-0.13855311274528503,0.008412841707468033,2.1285204887390137,0.15064294636249542,-4.382828235626221,3.689453125
1463431,0.17244850099086761,-0.1400282382965088,0.00903000682592392,2.1725738048553467,0.16142725944519043,-4.4192352294921875,3.689453125
1463441,0.17238400876522064,-0.1399245411157608,0.008964079432189465,2.169755697250366,0.16209176182746887,-4.414509296417236,3.689453125
1463451,0.17294663190841675,-0.1387946754693985,0.008635297417640686,2.1476781368255615,0.15076105296611786,-4.3820929527282715,3.6953125
1463461,0.17228004336357117,-0.13984033465385437,0.008779001422226429,2.1782617568969727,0.1680484265089035,-4.420780181884766,3.6953125
1463471,0.1722041666507721,-0.13974465429782867,0.00870136171579361,2.1747217178344727,0.17009739577770233,-4.4173126220703125,3.689453125
1463481,0.17256101965904236,-0.13892461359500885,0.008445165120065212,2.149904489517212,0.15666517615318298,-4.377456188201904,3.6953125
1463491,0.1725064218044281,-0.1387888640165329,0.008349563926458359,2.1453094482421875,0.15716788172721863,-4.373715877532959,3.6953125
1463501,0.17228692770004272,-0.14007696509361267,0.008980332873761654,2.1708242893218994,0.16037920117378235,-4.417147159576416,3.689453125
1463511,0.17284254729747772,-0.1386999487876892,0.008740694262087345,2.1301462650299072,0.14309819042682648,-4.375564098358154,3.689453125
1463521,0.17280936241149902,-0.13853944838047028,0.008652249351143837,2.1277644634246826,0.1426268219947815,-4.370997428894043,3.689453125
1463531,0.1723107248544693,-0.14012129604816437,0.009242489002645016,2.177525520324707,0.15900619328022003,-4.419496059417725,3.6953125
1463541,0.17224694788455963,-0.1400269716978073,0.00918632559478283,2.173238515853882,0.15872760117053986,-4.416456699371338,3.6953125
1463551,0.17301692068576813,-0.13919274508953094,0.008523893542587757,2.1571526527404785,0.13882552087306976,-4.389740943908691,3.6953125
1463561,0.17280445992946625,-0.1403493732213974,0.009071242064237595,2.1887059211730957,0.14514176547527313,-4.4223713874816895,3.689453125
1463571,0.17275406420230865,-0.14027619361877441,0.009013875387609005,2.185917377471924,0.1445864588022232,-4.4193525314331055,3.6953125
1463581,0.1733803153038025,-0.13900455832481384,0.008682734332978725,2.1443042755126953,0.12588301301002502,-4.389394283294678,3.6953125
1463591,0.17336277663707733,-0.13887153565883636,0.008603708818554878,2.143200159072876,0.12651684880256653,-4.385921955108643,3.6953125
1463601,0.17309093475341797,-0.14027629792690277,0.009249750524759293,2.1713273525238037,0.13203364610671997,-4.422501087188721,3.6953125
1463611,0.17349956929683685,-0.13936512172222137,0.009042656049132347,2.1440727710723877,0.11830679327249527,-4.386153221130371,3.6953125
1463621,0.17349007725715637,-0.13923169672489166,0.008969606831669807,2.140775203704834,0.11764058470726013,-4.382326126098633,3.6953125
1463631,0.17304332554340363,-0.14049281179904938,0.009390262886881828,2.181771755218506,0.13582202792167664,-4.422996520996094,3.6953125
1463641,0.17300789058208466,-0.14040954411029816,0.009338431060314178,2.179126739501953,0.1348855197429657,-4.419276237487793,3.6953125
1463651,0.17369362711906433,-0.13925574719905853,0.008934101089835167,2.154498815536499,0.1197429895401001,-4.386048316955566,3.6953125
1463661,0.17307186126708984,-0.14062412083148956,0.009282819926738739,2.1923153400421143,0.13890880346298218,-4.435762882232666,3.6953125
1463671,0.17302975058555603,-0.14055795967578888,0.009230728261172771,2.1898770332336426,0.13830295205116272,-4.430299282073975,3.6953125
1463681,0.1734473705291748,-0.13946254551410675,0.009081952273845673,2.1554906368255615,0.12505218386650085,-4.400869846343994,3.689453125
1463691,0.17342685163021088,-0.13934576511383057,0.009017394855618477,2.1524839401245117,0.12764368951320648,-4.396984100341797,3.689453125
1463701,0.17304809391498566,-0.140319362282753,0.00932931900024414,2.1722540855407715,0.135472372174263,-4.439272880554199,3.689453125
1463711,0.17357784509658813,-0.13908228278160095,0.00910498108714819,2.1369025707244873,0.11999302357435226,-4.401456832885742,3.689453125
1463721,0.17356838285923004,-0.13893558084964752,0.009032242931425571,2.1353092193603516,0.1185869500041008,-4.39645528793335,3.689453125
1463731,0.1729634702205658,-0.14025114476680756,0.009372228756546974,2.177110195159912,0.14030541479587555,-4.434288024902344,3.689453125
1463741,0.1729186475276947,-0.140155628323555,0.0093160942196846,2.1738133430480957,0.14036287367343903,-4.43014669418335,3.689453125
1463751,0.1736154705286026,-0.13921861350536346,0.00880089309066534,2.1560609340667725,0.12838134169578552,-4.3977155685424805,3.6953125
1463761,0.17359381914138794,-0.1390932947397232,0.008722865954041481,2.1525721549987793,0.12789060175418854,-4.39412260055542,3.6953125
1463771,0.1729590892791748,-0.14022263884544373,0.008929888717830181,2.1830506324768066,0.1465037316083908,-4.422787666320801,3.6953125
1463781,0.17315930128097534,-0.13920427858829498,0.008957653306424618,2.152772903442383,0.1409892588853836,-4.386505603790283,3.6953125
1463791,0.17311935126781464,-0.13906949758529663,0.008888722397387028,2.150580406188965,0.1414622664451599,-4.382972240447998,3.6953125
1463801,0.17241354286670685,-0.1400551199913025,0.00897936336696148,2.1704325675964355,0.1573748141527176,-4.42240571975708,3.6953125
1463811,0.17234846949577332,-0.13993902504444122,0.008911686949431896,2.167069911956787,0.15844696760177612,-4.418648719787598,3.6953125
1463821,0.17306406795978546,-0.13907673954963684,0.00828708615154028,2.140890598297119,0.13919597864151,-4.380014419555664,3.6953125
1463831,0.17255808413028717,-0.1401161551475525,0.00853707455098629,2.174025297164917,0.15541580319404602,-4.417788505554199,3.6953125
1463841,0.172498881816864,-0.14000669121742249,0.008452972397208214,2.1715164184570312,0.1551070511341095,-4.414380073547363,3.6953125
1463851,0.17283421754837036,-0.13887210190296173,0.00835544802248478,2.1485908031463623,0.14847053587436676,-4.3758344650268555,3.6953125
1463861,0.17278526723384857,-0.13872890174388885,0.008263107389211655,2.1474363803863525,0.1481744349002838,-4.370667934417725,3.6953125
1463871,0.1724061518907547,-0.14012734591960907,0.008846703916788101,2.184819459915161,0.15781717002391815,-4.414632320404053,3.6953125
1463881,0.17278845608234406,-0.13901405036449432,0.008690879680216312,2.1494717597961426,0.1455618143081665,-4.377192974090576,3.6953125
1463891,0.17274075746536255,-0.13887478411197662,0.008614021353423595,2.1459949016571045,0.14563311636447906,-4.373692989349365,3.689453125
1463901,0.17230123281478882,-0.13994146883487701,0.008958321996033192,2.165949583053589,0.1536874622106552,-4.411492347717285,3.689453125
1463911,0.17298346757888794,-0.1386294662952423,0.008554034866392612,2.126990795135498,0.13255853950977325,-4.3707966804504395,3.689453125
1463921,0.17295436561107635,-0.13846181333065033,0.00846671499311924,2.1237361431121826,0.132592111825943,-4.3668131828308105,3.689453125
1463931,0.1723080426454544,-0.14009825885295868,0.008976101875305176,2.1759443283081055,0.15452125668525696,-4.406974792480469,3.6953125
1463941,0.17224439978599548,-0.1400027573108673,0.008917578496038914,2.174360513687134,0.15524020791053772,-4.402220726013184,3.6953125
1463951,0.17279331386089325,-0.1387050300836563,0.008677064441144466,2.1488053798675537,0.1456248015165329,-4.364932537078857,3.6953125
1463961,0.172747403383255,-0.13857108354568481,0.00860597938299179,2.145683765411377,0.14782005548477173,-4.361494541168213,3.6953125
1463971,0.17235250771045685,-0.13984039425849915,0.009115015156567097,2.179323673248291,0.15742185711860657,-4.404396057128906,3.6953125
1463981,0.17303985357284546,-0.13910557329654694,0.008500204421579838,2.1542351245880127,0.1356625109910965,-4.374157428741455,3.6953125
1463991,0.17300692200660706,-0.13897985219955444,0.008411898277699947,2.1519389152526855,0.13557374477386475,-4.370234489440918,3.6953125
1464001,0.17266879975795746,-0.14007049798965454,0.00882011093199253,2.1739072799682617,0.14190274477005005,-4.41847038269043,3.689453125
1464011,0.17262379825115204,-0.13996930420398712,0.008746743202209473,2.1711466312408447,0.1422690600156784,-4.415035247802734,3.689453125
1464021,0.1729907989501953,-0.13865040242671967,0.008710207417607307,2.134620428085327,0.13121888041496277,-4.377782821655273,3.689453125
1464031,0.1724899411201477,-0.13991929590702057,0.00911585334688425,2.174546003341675,0.1485811173915863,-4.424261093139648,3.6953125
1464041,0.17243675887584686,-0.1398169994354248,0.009061389602720737,2.171476364135742,0.1488185077905655,-4.420793056488037,3.6953125
1464051,0.17293183505535126,-0.13891886174678802,0.008737388998270035,2.1540634632110596,0.1368521749973297,-4.3785624504089355,3.689453125
1464061,0.17289672791957855,-0.13878880441188812,0.008665028028190136,2.1515915393829346,0.1380627304315567,-4.37587308883667,3.6953125
1464071,0.1726687252521515,-0.1400335282087326,0.009278533048927784,2.182302713394165,0.1440858542919159,-4.41168212890625,3.6953125
1464081,0.1734333336353302,-0.13902132213115692,0.008702690713107586,2.1481480598449707,0.11805132776498795,-4.385733604431152,3.689453125
1464091,0.1734212189912796,-0.13888750970363617,0.008622968569397926,2.1474993228912354,0.11806754022836685,-4.381140232086182,3.6953125
1464101,0.17304202914237976,-0.14010754227638245,0.009073630906641483,2.171989917755127,0.12610989809036255,-4.424474239349365,3.6953125
1464111,0.17301742732524872,-0.1400027722120285,0.009009274654090405,2.169250249862671,0.1265207827091217,-4.419471740722656,3.6953125
1464121,0.17342138290405273,-0.13901974260807037,0.008825949393212795,2.141771078109741,0.11523836851119995,-4.382234573364258,3.6953125
1464131,0.1729409247636795,-0.14053142070770264,0.009367905557155609,2.1886980533599854,0.13203689455986023,-4.434657573699951,3.6953125
1464141,0.17290735244750977,-0.14044950902462006,0.009318307042121887,2.184966564178467,0.1313977688550949,-4.429351806640625,3.6953125
1464151,0.17359189689159393,-0.1394059956073761,0.008881673216819763,2.165954351425171,0.11841186136007309,-4.4036078453063965,3.6953125
1464161,0.17358101904392242,-0.13928993046283722,0.008810706436634064,2.1630783081054688,0.11765722930431366,-4.398173809051514,3.6953125
1464171,0.17312316596508026,-0.1403159499168396,0.009085333906114101,2.190566301345825,0.13114029169082642,-4.438846111297607,3.689453125
1464181,0.1734418272972107,-0.13928459584712982,0.009020683355629444,2.1591885089874268,0.12055747210979462,-4.398358345031738,3.6953125
1464191,0.17342394590377808,-0.13915885984897614,0.008953509852290154,2.1568362712860107,0.11854764074087143,-4.394064426422119,3.6953125
1464201,0.17285048961639404,-0.14027747511863708,0.009204878471791744,2.17936110496521,0.13201576471328735,-4.432221412658691,3.689453125
1464211,0.17281071841716766,-0.1401815265417099,0.009145890362560749,2.1776962280273438,0.13149788975715637,-4.427130222320557,3.689453125
1464221,0.17344588041305542,-0.13922829926013947,0.008677790872752666,2.150075674057007,0.11388938128948212,-4.395786285400391,3.689453125
1464231,0.17295755445957184,-0.14078959822654724,0.009235742501914501,2.200503349304199,0.132833331823349,-4.433318614959717,3.689453125
1464241,0.1729150265455246,-0.14072208106517792,0.00918377935886383,2.198503017425537,0.13459175825119019,-4.428433895111084,3.689453125
1464251,0.1736048310995102,-0.1392849236726761,0.008875151164829731,2.1700141429901123,0.1225566416978836,-4.396284103393555,3.689453125
1464261,0.17358139157295227,-0.13917642831802368,0.008810192346572876,2.1669609546661377,0.12102087587118149,-4.391613483428955,3.6953125
1464271,0.17305095493793488,-0.14048287272453308,0.009208470582962036,2.2017812728881836,0.13889576494693756,-4.431191921234131,3.6953125
1464281,0.17358607053756714,-0.139494851231575,0.00888126902282238,2.1685359477996826,0.12110550701618195,-4.407072067260742,3.6953125
1464291,0.1735636591911316,-0.13938617706298828,0.008811279200017452,2.1666386127471924,0.11896871030330658,-4.4034810066223145,3.6953125
1464301,0.1727534532546997,-0.14064107835292816,0.00895113218575716,2.191899061203003,0.1377367079257965,-4.440155506134033,3.689453125
1464311,0.17269892990589142,-0.1405600756406784,0.00887903943657875,2.1891136169433594,0.13825927674770355,-4.437021732330322,3.689453125
1464321,0.17321373522281647,-0.13915248215198517,0.0086992671713233,2.148998260498047,0.12568974494934082,-4.397311210632324,3.6953125
1464331,0.17275191843509674,-0.140300914645195,0.009047434665262699,2.184601306915283,0.14094622433185577,-4.437271595001221,3.689453125
1464341,0.17269642651081085,-0.14021378755569458,0.008978856727480888,2.1817595958709717,0.14083176851272583,-4.434018135070801,3.689453125
1464351,0.17315639555454254,-0.13920557498931885,0.008729500696063042,2.161702871322632,0.13327933847904205,-4.3955230712890625,3.689453125
1464361,0.17311589419841766,-0.13908953964710236,0.008646028116345406,2.1591076850891113,0.1343226581811905,-4.392718315124512,3.689453125
1464371,0.17249684035778046,-0.14049775898456573,0.009034977294504642,2.1957931518554688,0.1512448638677597,-4.429762840270996,3.689453125
1464381,0.17306412756443024,-0.1392972618341446,0.008720073848962784,2.156634569168091,0.13344408571720123,-4.390383243560791,3.6953125
1464391,0.17302480340003967,-0.13917715847492218,0.008629770018160343,2.15303111076355,0.13560351729393005,-4.387463092803955,3.689453125
1464401,0.17255538702011108,-0.1401713639497757,0.008875989355146885,2.172605514526367,0.1453094780445099,-4.424082279205322,3.689453125
1464411,0.17249788343906403,-0.14007607102394104,0.00879165343940258,2.1685264110565186,0.1427338570356369,-4.419241428375244,3.6953125
1464421,0.17298591136932373,-0.13861387968063354,0.008639160543680191,2.1272132396698,0.12933005392551422,-4.374610424041748,3.689453125
1464431,0.17246884107589722,-0.1401994526386261,0.00920937955379486,2.1767334938049316,0.14540068805217743,-4.420327663421631,3.689453125
1464441,0.1724042147397995,-0.14010995626449585,0.009144991636276245,2.1744987964630127,0.14645665884017944,-4.4154372215271,3.689453125
1464451,0.17299692332744598,-0.13872452080249786,0.008888987824320793,2.1480653285980225,0.13578496873378754,-4.373389720916748,3.689453125
1464461,0.17295166850090027,-0.13859523832798004,0.008812080137431622,2.144442319869995,0.13622750341892242,-4.370311737060547,3.689453125
1464471,0.17222344875335693,-0.13993646204471588,0.009094356559216976,2.18050217628479,0.15519152581691742,-4.418005466461182,3.689453125
1464481,0.17291973531246185,-0.13878373801708221,0.008607600815594196,2.143130302429199,0.13229328393936157,-4.3767991065979,3.6953125
1464491,0.17287981510162354,-0.1386488378047943,0.00851006992161274,2.140383243560791,0.13258738815784454,-4.3727335929870605,3.689453125
1464501,0.17265000939369202,-0.13994240760803223,0.009121106006205082,2.166834592819214,0.13525673747062683,-4.410970211029053,3.689453125
1464511,0.1726042628288269,-0.13984116911888123,0.009047041647136211,2.1654489040374756,0.13720276951789856,-4.40692138671875,3.689453125
1464521,0.1733158826828003,-0.13871964812278748,0.00854103360325098,2.1337838172912598,0.11624465137720108,-4.377106189727783,3.689453125
1464531,0.17282284796237946,-0.1402178406715393,0.009049123153090477,2.181645631790161,0.13560964167118073,-4.41396427154541,3.6953125
1464541,0.17278297245502472,-0.14013342559337616,0.008974541909992695,2.178713798522949,0.13359884917736053,-4.410677909851074,3.6953125
1464551,0.1732495129108429,-0.13918423652648926,0.008704532869160175,2.158294439315796,0.12480872124433517,-4.374070644378662,3.6953125
1464561,0.17322520911693573,-0.13906735181808472,0.008616195991635323,2.156028985977173,0.12443084269762039,-4.369453430175781,3.6953125
1464571,0.17268677055835724,-0.14049497246742249,0.00906309112906456,2.194951057434082,0.14050675928592682,-4.406154155731201,3.6953125
1464581,0.17322707176208496,-0.13938966393470764,0.008761320263147354,2.1596426963806152,0.12396533787250519,-4.368806838989258,3.6953125
1464591,0.1732046902179718,-0.13927260041236877,0.008674888871610165,2.1573431491851807,0.12546762824058533,-4.364950180053711,3.6953125
1464601,0.17300911247730255,-0.1403607577085495,0.009180820547044277,2.177635431289673,0.12706802785396576,-4.41524600982666,3.6953125
1464611,0.1729792207479477,-0.14026877284049988,0.009113842621445656,2.1746180057525635,0.127108633518219,-4.41089391708374,3.6953125
1464621,0.17346389591693878,-0.13903319835662842,0.008931140415370464,2.1398367881774902,0.11421028524637222,-4.375096321105957,3.6953125
1464631,0.17312006652355194,-0.14027629792690277,0.00941644050180912,2.177961826324463,0.12595613300800323,-4.424565315246582,3.6953125
1464641,0.17308953404426575,-0.1401851624250412,0.009357389993965626,2.175708770751953,0.12788458168506622,-4.421986103057861,3.6953125
1464651,0.17347140610218048,-0.13926751911640167,0.009192613884806633,2.1578121185302734,0.12163113802671432,-4.377621650695801,3.6953125
1464661,0.1734536588191986,-0.13915060460567474,0.009124625474214554,2.154067277908325,0.12332818657159805,-4.373993873596191,3.6953125
1464671,0.17277197539806366,-0.14038345217704773,0.009357859380543232,2.1885826587677,0.14309415221214294,-4.409691333770752,3.689453125
1464681,0.17333532869815826,-0.1391712725162506,0.009081521071493626,2.1493117809295654,0.1257402002811432,-4.373836040496826,3.689453125
1464691,0.17331640422344208,-0.13904261589050293,0.009003260172903538,2.1463122367858887,0.12534016370773315,-4.370113372802734,3.6953125
1464701,0.17290592193603516,-0.140149787068367,0.009364544413983822,2.168919801712036,0.13561585545539856,-4.4073309898376465,3.6953125
1464711,0.17340625822544098,-0.13937267661094666,0.008995076641440392,2.144473075866699,0.12093110382556915,-4.370232105255127,3.689453125
1464721,0.17339587211608887,-0.13923929631710052,0.008910097181797028,2.1422441005706787,0.12083666026592255,-4.3667755126953125,3.689453125
1464731,0.17272831499576569,-0.14032040536403656,0.009040284901857376,2.1779022216796875,0.1428890973329544,-4.417126655578613,3.689453125
1464741,0.17268167436122894,-0.14023049175739288,0.00895759928971529,2.1756231784820557,0.14488624036312103,-4.412651538848877,3.689453125
1464751,0.1733109951019287,-0.13915887475013733,0.008531056344509125,2.1548080444335938,0.13194654881954193,-4.387742519378662,3.689453125
1464761,0.1732824444770813,-0.13903532922267914,0.008426591753959656,2.1523427963256836,0.13264279067516327,-4.384027481079102,3.689453125
1464771,0.17290225625038147,-0.14034855365753174,0.008917233906686306,2.1874189376831055,0.14359691739082336,-4.422764301300049,3.689453125
1464781,0.1734360307455063,-0.1388673186302185,0.008745444007217884,2.1391685009002686,0.12572450935840607,-4.3813886642456055,3.689453125
1464791,0.173419788479805,-0.13872212171554565,0.008643652312457561,2.136397361755371,0.1256689429283142,-4.378039836883545,3.6953125
1464801,0.17261233925819397,-0.14005069434642792,0.008812679909169674,2.164271354675293,0.14473533630371094,-4.416251182556152,3.6953125
1464811,0.17256328463554382,-0.13993684947490692,0.008714300580322742,2.1618380546569824,0.1461508423089981,-4.411524295806885,3.689453125
1464821,0.17300182580947876,-0.13867948949337006,0.00853249616920948,2.1272993087768555,0.13381482660770416,-4.365058898925781,3.689453125
1464831,0.17234574258327484,-0.14019590616226196,0.008939304389059544,2.1761293411254883,0.15648262202739716,-4.409436225891113,3.6953125
1464841,0.17228464782238007,-0.14009800553321838,0.008856397122144699,2.1730222702026367,0.15538547933101654,-4.405362129211426,3.689453125
1464851,0.17298807203769684,-0.1385425180196762,0.008525826968252659,2.1412105560302734,0.14159642159938812,-4.368931293487549,3.689453125
1464861,0.172951340675354,-0.13839863240718842,0.008427987806499004,2.138329029083252,0.14153584837913513,-4.36553430557251,3.689453125
1464871,0.17245924472808838,-0.13999177515506744,0.009027404710650444,2.1819589138031006,0.15540261566638947,-4.408441066741943,3.689453125
1464881,0.1728716343641281,-0.1391250193119049,0.00875231996178627,2.1549315452575684,0.1430922895669937,-4.373763561248779,3.689453125
1464891,0.17283187806606293,-0.1390012502670288,0.008663243614137173,2.1508629322052,0.14366358518600464,-4.369559288024902,3.6953125
1464901,0.17247699201107025,-0.14025528728961945,0.009162028320133686,2.1758570671081543,0.150845468044281,-4.403317451477051,3.689453125
1464911,0.17303818464279175,-0.13922134041786194,0.008795528672635555,2.142380714416504,0.13410623371601105,-4.363746166229248,3.689453125
1464921,0.17301225662231445,-0.13908244669437408,0.008705491200089455,2.1394548416137695,0.1344212144613266,-4.359824180603027,3.689453125
1464931,0.17265361547470093,-0.1402907818555832,0.009165319614112377,2.176345109939575,0.14777781069278717,-4.398289680480957,3.689453125
1464941,0.17260600626468658,-0.1401997059583664,0.009100766852498055,2.175314426422119,0.14788542687892914,-4.393516540527344,3.689453125
1464951,0.1732104867696762,-0.1391870081424713,0.008710039779543877,2.154998540878296,0.13425463438034058,-4.355258464813232,3.689453125
1464961,0.1731841117143631,-0.1390659660100937,0.008628582581877708,2.1515753269195557,0.1346948891878128,-4.351675033569336,3.689453125
1464971,0.17279522120952606,-0.14020106196403503,0.009032784961163998,2.181575298309326,0.14913204312324524,-4.392316818237305,3.689453125
1464981,0.1733507513999939,-0.1390749216079712,0.008724951185286045,2.1448440551757812,0.13055002689361572,-4.361331939697266,3.689453125
1464991,0.17333170771598816,-0.13893967866897583,0.008643160574138165,2.1424977779388428,0.13251110911369324,-4.357532978057861,3.6953125
1465001,0.17282846570014954,-0.14014236629009247,0.00899216067045927,2.1663808822631836,0.14500467479228973,-4.394171237945557,3.6953125
1465011,0.17320984601974487,-0.13918136060237885,0.008794140070676804,2.1377365589141846,0.13344478607177734,-4.362475872039795,3.6953125
1465021,0.17319051921367645,-0.13903865218162537,0.008712400682270527,2.133981943130493,0.13312168419361115,-4.359172344207764,3.6953125
1465031,0.17291425168514252,-0.1404516100883484,0.009359988383948803,2.1783077716827393,0.14322246611118317,-4.408476829528809,3.689453125
1465041,0.1728803813457489,-0.14036841690540314,0.009312956593930721,2.175103187561035,0.14569108188152313,-4.403977870941162,3.6953125
1465051,0.17346139252185822,-0.1392674297094345,0.00900008250027895,2.150991678237915,0.13298910856246948,-4.3756632804870605,3.6953125
1465061,0.17344757914543152,-0.13915082812309265,0.00893692672252655,2.1484055519104004,0.13300417363643646,-4.371824741363525,3.6953125
1465071,0.17289277911186218,-0.14048272371292114,0.009330647066235542,2.183729648590088,0.14852218329906464,-4.414183139801025,3.689453125
1465081,0.17346526682376862,-0.1394481509923935,0.008995436131954193,2.1486270427703857,0.13017012178897858,-4.376802444458008,3.6953125
1465091,0.1734534502029419,-0.1393340677022934,0.00892694666981697,2.146599292755127,0.1315888911485672,-4.372585773468018,3.6953125
1465101,0.17291970551013947,-0.14041674137115479,0.009172476828098297,2.1683928966522217,0.14565402269363403,-4.411908149719238,3.6953125
1465112,0.17288847267627716,-0.1403285712003708,0.009110493585467339,2.1648106575012207,0.1460612714290619,-4.4078264236450195,3.689453125
1465121,0.1735306829214096,-0.1388639211654663,0.008830837905406952,2.122297763824463,0.1276288777589798,-4.381663799285889,3.689453125
1465131,0.1729411780834198,-0.1402530074119568,0.009215928614139557,2.1672425270080566,0.15007945895195007,-4.423999309539795,3.689453125
1465141,0.17290225625038147,-0.14016364514827728,0.009156509302556515,2.1630918979644775,0.14940284192562103,-4.420297145843506,3.6953125
1465151,0.17336371541023254,-0.13889434933662415,0.009031889028847218,2.138805627822876,0.14182205498218536,-4.375377178192139,3.689453125
1465161,0.17334043979644775,-0.13876253366470337,0.008964743465185165,2.1363723278045654,0.14112593233585358,-4.372921466827393,3.689453125
1465171,0.17246685922145844,-0.14013652503490448,0.009145769290626049,2.1769161224365234,0.1678183227777481,-4.415584087371826,3.689453125
1465181,0.1730189323425293,-0.1390066146850586,0.008827023208141327,2.1392383575439453,0.1483328938484192,-4.382775783538818,3.689453125
1465191,0.17298631370067596,-0.13887076079845428,0.00874592550098896,2.1361732482910156,0.14703238010406494,-4.37853479385376,3.689453125
1465201,0.17268571257591248,-0.14005827903747559,0.009253563359379768,2.159151792526245,0.15150193870067596,-4.429736614227295,3.689453125
1465211,0.1726418137550354,-0.13994905352592468,0.009189367294311523,2.155991792678833,0.14981475472450256,-4.426097393035889,3.689453125
1465221,0.17307119071483612,-0.13906779885292053,0.008911694400012493,2.1310513019561768,0.1378914713859558,-4.388841152191162,3.689453125
1465231,0.1725110411643982,-0.1402350217103958,0.009199799969792366,2.1693413257598877,0.15704357624053955,-4.428007125854492,3.689453125
1465241,0.17245516180992126,-0.1401342749595642,0.00913249235600233,2.1652989387512207,0.15743422508239746,-4.423570156097412,3.689453125
1465251,0.17296616733074188,-0.13909611105918884,0.008834878914058208,2.1460299491882324,0.14696797728538513,-4.383857727050781,3.689453125
1465262,0.17292720079421997,-0.138962060213089,0.008752058260142803,2.1426217555999756,0.14850445091724396,-4.380007743835449,3.689453125
1465271,0.17225384712219238,-0.1400660127401352,0.008924711495637894,2.1737725734710693,0.16620807349681854,-4.420394420623779,3.689453125
1465281,0.17298968136310577,-0.13923050463199615,0.008258289657533169,2.1451737880706787,0.14044952392578125,-4.391640663146973,3.689453125
1465291,0.1729578673839569,-0.139095276594162,0.008141186088323593,2.143026828765869,0.14254489541053772,-4.388055324554443,3.6953125
1465301,0.17287904024124146,-0.140264630317688,0.008771583437919617,2.165595054626465,0.14040808379650116,-4.418226718902588,3.6953125
1465312,0.17284710705280304,-0.14015896618366241,0.008681302890181541,2.1640090942382812,0.1409580558538437,-4.4139018058776855,3.689453125
1465321,0.17313311994075775,-0.1388511061668396,0.008725794032216072,2.126339912414551,0.13351938128471375,-4.3777875900268555,3.689453125
1465331,0.17256778478622437,-0.14011603593826294,0.009056461974978447,2.1671142578125,0.15382114052772522,-4.431088924407959,3.689453125
1465341,0.17252217233181,-0.14001159369945526,0.008982348255813122,2.1646831035614014,0.15296824276447296,-4.425700664520264,3.6953125
1465351,0.17302349209785461,-0.13903380930423737,0.008671834133565426,2.145375967025757,0.14389431476593018,-4.385178089141846,3.689453125
1465363,0.17299562692642212,-0.13889721035957336,0.008580868132412434,2.1429247856140137,0.14429135620594025,-4.383358001708984,3.689453125
1465371,0.17258282005786896,-0.14033158123493195,0.009143001399934292,2.1827266216278076,0.15656782686710358,-4.42108678817749,3.689453125
1465381,0.1732618361711502,-0.13917742669582367,0.008698554709553719,2.1442759037017822,0.13494151830673218,-4.383459568023682,3.6953125
1465391,0.17324590682983398,-0.1390376091003418,0.008600695058703423,2.141055107116699,0.13734754920005798,-4.380258083343506,3.6953125
1465401,0.17267552018165588,-0.14014971256256104,0.008825856260955334,2.164668321609497,0.15252402424812317,-4.4276628494262695,3.6953125
1465411,0.17263467609882355,-0.14003907144069672,0.008733803406357765,2.1616225242614746,0.15325061976909637,-4.424014091491699,3.689453125
1465421,0.17321939766407013,-0.13873150944709778,0.008417697623372078,2.122598886489868,0.13668876886367798,-4.385260581970215,3.689453125
1465431,0.17290152609348297,-0.14018550515174866,0.009038414806127548,2.1701314449310303,0.14798897504806519,-4.424450874328613,3.6953125
1465441,0.17286641895771027,-0.14008374512195587,0.008962421678006649,2.168882369995117,0.14888571202754974,-4.420009613037109,3.6953125
1465451,0.17346295714378357,-0.13891147077083588,0.008631178177893162,2.146200656890869,0.13708046078681946,-4.388312339782715,3.6953125
1465462,0.17344839870929718,-0.13877558708190918,0.008541593328118324,2.143449306488037,0.1380418986082077,-4.384753704071045,3.6953125
1465471,0.17285996675491333,-0.14015740156173706,0.00892545748502016,2.182387590408325,0.15684722363948822,-4.420344352722168,3.6953125
1465481,0.1731809824705124,-0.13890187442302704,0.008914122357964516,2.1423449516296387,0.14587841928005219,-4.383854866027832,3.6953125
1465491,0.17315730452537537,-0.13876017928123474,0.008838080801069736,2.140577554702759,0.14717452228069305,-4.379384517669678,3.6953125
1465501,0.17269562184810638,-0.14001287519931793,0.009260769002139568,2.1669368743896484,0.1593208760023117,-4.418270111083984,3.689453125
1465512,0.17265215516090393,-0.13990162312984467,0.009197834879159927,2.1643753051757812,0.158563494682312,-4.415271759033203,3.6953125
1465521,0.17336882650852203,-0.13895106315612793,0.00862977746874094,2.1349751949310303,0.13841453194618225,-4.379280090332031,3.6953125
1465531,0.17307037115097046,-0.14052674174308777,0.009350555948913097,2.1860663890838623,0.1482507884502411,-4.422922134399414,3.689453125
1465541,0.1730339676141739,-0.1404399275779724,0.00929835345596075,2.1836016178131104,0.14900943636894226,-4.418131351470947,3.689453125
1465551,0.17357265949249268,-0.13912810385227203,0.009116251952946186,2.1572365760803223,0.1387241631746292,-4.38006067276001,3.6953125
1465562,8.780061762081459e-07,2.046263216470834e-05,-9.10833477973938e-07,-0.0006362848216667771,0.0013436004519462585,0.0005391562008298934,3.6953125
1465571,0.1751459538936615,-0.1446017324924469,0.006469566375017166,-0.0028879824094474316,0.0011404786491766572,-2.9735209941864014,3.689453125
1465581,0.16546353697776794,-0.13455520570278168,0.0027120725717395544,-0.0032587742898613214,0.003528526984155178,-2.958155393600464,3.689453125
1465591,0.1654781699180603,-0.13441434502601624,0.002704756334424019,-0.0034724893048405647,0.003656890708953142,-2.9545018672943115,3.6953125
1465601,0.173016756772995,-0.14008648693561554,0.009001914411783218,0.018135394901037216,0.01826639100909233,-3.6683218479156494,3.6953125
1465612,0.17303097248077393,-0.13988104462623596,0.008994345553219318,0.017464758828282356,0.018971264362335205,-3.664396286010742,3.689453125
1465621,0.17356719076633453,-0.13878734409809113,0.00874963216483593,-0.02963552623987198,-0.008576015941798687,-3.5222134590148926,3.689453125
1465631,0.1728534698486328,-0.140443816781044,0.009308649227023125,0.10347701609134674,0.05999021604657173,-3.954760789871216,3.689453125
1465641,0.17286089062690735,-0.14015460014343262,0.009305835701525211,0.10103581100702286,0.06023121997714043,-3.951057195663452,3.6953125
1465651,0.17365415394306183,-0.13858887553215027,0.00893819984048605,0.03142055124044418,0.013821223750710487,-3.800936460494995,3.6953125
1465662,0.1736934781074524,-0.13818666338920593,0.00892054382711649,0.030868228524923325,0.014751551672816277,-3.797837257385254,3.6953125
1465671,0.1726868748664856,-0.13969604671001434,0.009270915761590004,0.21202774345874786,0.12992501258850098,-4.063449859619141,3.689453125
1465681,0.17318189144134521,-0.13886024057865143,0.008894780650734901,0.14818927645683289,0.0645173043012619,-3.9115517139434814,3.6953125
1465691,0.17320366203784943,-0.13839595019817352,0.008863404393196106,0.1472836285829544,0.06388948857784271,-3.9071624279022217,3.6953125
1465701,0.1723371297121048,-0.13958114385604858,0.009150960482656956,0.28498196601867676,0.15381649136543274,-4.1286115646362305,3.689453125
1465712,0.17232286930084229,-0.13910213112831116,0.009127355180680752,0.28393054008483887,0.15528908371925354,-4.123805522918701,3.689453125
1465721,0.1729414314031601,-0.13832181692123413,0.008539852686226368,0.23060670495033264,0.07650851458311081,-4.0081634521484375,3.689453125
1465731,0.1723901629447937,-0.13997402787208557,0.009348292835056782,0.5379218459129333,0.17698971927165985,-4.171131134033203,3.689453125
1465741,0.17236743867397308,-0.13950215280056,0.00934192817658186,0.5372417569160461,0.17813658714294434,-4.165927410125732,3.689453125
1465751,0.1732296645641327,-0.13857802748680115,0.008579723536968231,0.49469029903411865,0.0792822614312172,-4.083082675933838,3.689453125
1465763,0.17325939238071442,-0.13802757859230042,0.008538451045751572,0.4932001829147339,0.07935364544391632,-4.079578399658203,3.689453125
1465771,0.17220671474933624,-0.13953150808811188,0.008903195150196552,0.7577354907989502,0.23067276179790497,-4.201845169067383,3.689453125
1465781,0.1725894808769226,-0.13861127197742462,0.008551289327442646,0.6872397065162659,0.16435283422470093,-4.126291275024414,3.689453125
1465791,0.17257831990718842,-0.13806071877479553,0.008499759249389172,0.686091423034668,0.16574911773204803,-4.1225972175598145,3.6953125
1465801,0.17203500866889954,-0.1393030434846878,0.009094290435314178,0.8602268695831299,0.21856383979320526,-4.23227596282959,3.689453125
1465813,0.17199167609214783,-0.1387840360403061,0.009063491597771645,0.859626054763794,0.22003161907196045,-4.228536128997803,3.6953125
1465821,0.17259183526039124,-0.13804979622364044,0.008439085446298122,0.8178573250770569,0.13985218107700348,-4.163788318634033,3.6953125
1465831,0.1722770482301712,-0.13969126343727112,0.009405924007296562,1.1166819334030151,0.1881212294101715,-4.255258083343506,3.689453125
1465841,0.1722417175769806,-0.13923980295658112,0.009396841749548912,1.1143125295639038,0.1886059194803238,-4.252201557159424,3.689453125
1465851,0.17309843003749847,-0.1383116990327835,0.008630393072962761,1.0719964504241943,0.09673234820365906,-4.217401504516602,3.6953125
1465863,0.17311915755271912,-0.13779641687870026,0.008589198812842369,1.069946527481079,0.09706956148147583,-4.213989734649658,3.6953125
1465871,0.17227999866008759,-0.13952024281024933,0.009194416925311089,1.3159672021865845,0.19399048388004303,-4.311512470245361,3.6953125
1465881,0.17280331254005432,-0.13879086077213287,0.00870110560208559,1.2652360200881958,0.12293446063995361,-4.2509636878967285,3.689453125
1465891,0.17280012369155884,-0.1383301168680191,0.008653798140585423,1.2629921436309814,0.12241584807634354,-4.248161315917969,3.6953125
1465901,0.1722661405801773,-0.1394304782152176,0.009114833548665047,1.3851478099822998,0.1658698469400406,-4.319887161254883,3.6953125
1465913,0.1722305864095688,-0.1390087753534317,0.00908036157488823,1.3830997943878174,0.16528567671775818,-4.316655158996582,3.689453125
1465921,0.17289143800735474,-0.13779644668102264,0.008602621965110302,1.2937517166137695,0.09795556962490082,-4.259315490722656,3.689453125
1465931,0.1725117564201355,-0.1395585536956787,0.00953606702387333,1.5386590957641602,0.14492063224315643,-4.320707321166992,3.6953125
1465941,0.17248184978961945,-0.13919597864151,0.009526204317808151,1.536205768585205,0.14408215880393982,-4.3174262046813965,3.6953125
1465951,0.17328985035419464,-0.1383470892906189,0.008832165971398354,1.5051580667495728,0.07865184545516968,-4.268095970153809,3.6953125
1465963,0.17330731451511383,-0.1379387229681015,0.008787628263235092,1.5042157173156738,0.07989455759525299,-4.264785289764404,3.6953125
1465971,0.1726503223180771,-0.1396365761756897,0.009446770884096622,1.6842372417449951,0.14000780880451202,-4.3335862159729,3.689453125
1465981,0.173294797539711,-0.13897483050823212,0.0088583342730999,1.638940453529358,0.07471998035907745,-4.27962064743042,3.6953125
1465991,0.17331206798553467,-0.13862527906894684,0.008803986944258213,1.6368485689163208,0.07576972246170044,-4.275341033935547,3.689453125
1466001,0.1728624403476715,-0.13998937606811523,0.009387729689478874,1.7403564453125,0.10261105000972748,-4.333428859710693,3.689453125
1466013,0.1728561520576477,-0.13969412446022034,0.009351564571261406,1.7376487255096436,0.10459602624177933,-4.329188823699951,3.689453125
1466021,0.1735442578792572,-0.1388959139585495,0.008780657313764095,1.6891870498657227,0.052809033542871475,-4.280316352844238,3.689453125
1466031,0.17311520874500275,-0.1402105838060379,0.00931665301322937,1.829349160194397,0.09588100016117096,-4.336087703704834,3.6953125
1466041,0.1731191873550415,-0.13995808362960815,0.00927701871842146,1.8278015851974487,0.0960632711648941,-4.333219051361084,3.6953125
1466051,0.1736363172531128,-0.13861145079135895,0.009112199768424034,1.7696460485458374,0.07262331992387772,-4.296165943145752,3.6953125
1466063,0.17366628348827362,-0.13829468190670013,0.009062408469617367,1.7675905227661133,0.07355447858572006,-4.292448997497559,3.6953125
1466071,0.17283694446086884,-0.14002840220928192,0.009555624797940254,1.9053112268447876,0.13229204714298248,-4.3537211418151855,3.6953125
1466081,0.17358142137527466,-0.13900573551654816,0.008998519740998745,1.835133671760559,0.07719084620475769,-4.317091464996338,3.6953125
1466091,0.17360615730285645,-0.13871994614601135,0.008933816105127335,1.8339362144470215,0.07957775890827179,-4.313345909118652,3.6953125
1466101,0.17289499938488007,-0.13976985216140747,0.009098725393414497,1.8962160348892212,0.11987556517124176,-4.3690690994262695,3.689453125
1466113,0.1728813648223877,-0.139519602060318,0.009035334922373295,1.8937020301818848,0.12036105245351791,-4.36515474319458,3.6953125
1466121,0.17339788377285004,-0.13851487636566162,0.008692133240401745,1.8417044878005981,0.08906932175159454,-4.318912029266357,3.6953125
1466131,0.17252476513385773,-0.1402658224105835,0.009120416827499866,1.9823628664016724,0.15262863039970398,-4.3831892013549805,3.6953125
1466141,0.17247949540615082,-0.14007405936717987,0.009057550691068172,1.9797980785369873,0.15310867130756378,-4.379797458648682,3.6953125
1466151,0.1730337291955948,-0.13868598639965057,0.008817159570753574,1.927149772644043,0.13215583562850952,-4.33352518081665,3.6953125
1466163,0.17301145195960999,-0.13843458890914917,0.008743379265069962,1.9251023530960083,0.13155770301818848,-4.328333854675293,3.6953125
