,time.ms,stateEstimate.x,stateEstimate.y,stateEstimate.z,stabilizer.roll,stabilizer.pitch,stabilizer.yaw,pm.vbat,drone_id,node_name,wind_speed,global_wind_direction,relative_wind_direction,travel_dist,waiting_time
0,0,0.7812893986701965,-0.7981777787208557,0.0,-6.4882025718688965,6.468019485473633,7.449903011322021,4.12109375,2,G1,7.6,0,450.0,0.0,[6200|0|0|0]
1,100,0.7843016386032104,-0.8001173138618469,0.0,-4.868746757507324,4.84901762008667,7.050832271575928,4.12109375,2,G1,7.6,0,450.0,0.0035826506914829,[6300|0|0|0]
2,200,0.7865399718284607,-0.8019999265670776,0.0001942104427143,-3.5744612216949463,3.578875064849853,6.759653091430664,4.12109375,2,G1,7.6,0,450.0,0.0065138763602458,[6400|0|0|0]
3,300,0.7886248826980591,-0.8033894300460815,0.0025079182814806,-2.598451852798462,2.615311622619629,6.533774375915527,4.12109375,2,G1,7.6,0,450.0,0.0099242747556686,[6500|0|0|0]
4,400,0.7903702259063721,-0.8047969937324524,0.0042077237740159,-1.8259681463241573,1.8789533376693728,6.34464168548584,4.12109375,2,G1,7.6,0,450.0,0.0127379551139267,[6600|0|0|0]
5,500,0.791356086730957,-0.8054801225662231,0.0053206412121653,-1.2165910005569458,1.3094584941864014,6.184202194213867,4.12109375,2,G1,7.6,0,450.0,0.0143741616391298,[6700|0|0|0]
6,600,0.7921615242958069,-0.8062636256217957,0.0064431298524141,-0.7670527696609497,0.8912667036056519,6.058023929595947,4.12109375,2,G1,7.6,0,450.0,0.015962427188857,[6800|0|0|0]
7,700,0.7932597994804382,-0.8069706559181213,0.0072978883981704,-0.4159657061100006,0.5645402073860168,5.940003395080566,4.12109375,2,G1,7.6,0,450.0,0.0175234244318536,[6900|0|0|0]
8,800,0.7945382595062256,-0.8084189891815186,0.007739411201328,-0.1447619497776031,0.3234283924102783,5.860235214233398,4.12109375,2,G1,7.6,0,450.0,0.0195051084796037,[7000|0|0|0]
9,900,0.7949438691139221,-0.8086405396461487,0.0083413822576403,0.0466871373355388,0.152079626917839,5.776937961578369,4.12109375,2,G1,7.6,0,450.0,0.020264037273939,[7100|0|0|0]
10,1000,0.7949528098106384,-0.8086873292922974,0.0081191072240471,0.1864241808652877,0.0333912409842014,5.713867664337158,4.12109375,2,G1,7.6,0,450.0,0.020491359506911,[7200|0|0|0]
11,1100,0.7951680421829224,-0.808904767036438,0.0086052734404802,0.2957969605922699,-0.0624636970460414,5.664981842041016,4.12109375,2,G1,7.6,0,450.0,0.0210657824666339,[7300|0|0|0]
12,1200,0.795549750328064,-0.8090709447860718,0.0089373290538787,0.3752659559249878,-0.1354492455720901,5.593481063842773,4.12109375,2,G1,7.6,0,450.0,0.0215983020277114,[7400|0|0|0]
13,1300,0.7952659130096436,-0.8090389966964722,0.0086815347895026,0.4238136410713196,-0.1673111468553543,5.551198482513428,4.12109375,2,G1,7.6,0,450.0,0.0219817273913024,[7500|0|0|0]
14,1400,0.7952351570129395,-0.8088611364364624,0.00855830963701,0.4524804353713989,-0.2034404426813125,5.538597583770752,4.12109375,2,G1,7.6,0,450.0,0.0222002786247257,[7600|0|0|0]
15,1500,0.7954666018486023,-0.8091956973075867,0.0088089536875486,0.4803754389286041,-0.2191899865865707,5.517412185668945,4.12109375,2,G1,7.6,0,450.0,0.0226781071802901,[7700|0|0|0]
16,1600,0.7957092523574829,-0.8093178868293762,0.008880466222763,0.4951095581054687,-0.2373312711715698,5.5058207511901855,4.12109375,2,G1,7.6,0,450.0,0.0229590406090379,[7800|0|0|0]
17,1700,0.7955897450447083,-0.8094178438186646,0.0091184796765446,0.4939601719379425,-0.2361752092838287,5.4765625,4.12109375,2,G1,7.6,0,450.0,0.0232435117001794,[7900|0|0|0]
18,1800,0.7955661416053772,-0.809072732925415,0.0086432406678795,0.485658586025238,-0.2426106035709381,5.4843058586120605,4.12109375,2,G1,7.6,0,450.0,0.0238313133387827,[8000|0|0|0]
19,1900,0.7954511642456055,-0.8090440034866333,0.0089112548157572,0.4794220626354217,-0.2379055321216583,5.491912364959717,4.12109375,2,G1,7.6,0,450.0,0.0241243607024893,[8100|0|0|0]
20,2000,0.795632541179657,-0.8090726733207703,0.0091320965439081,0.4701544046401977,-0.240284577012062,5.491397857666016,4.12109375,2,G1,7.6,0,450.0,0.0244115725067176,[8200|0|0|0]
21,2100,0.7956103086471558,-0.8091515898704529,0.0086229052394628,0.4649705588817596,-0.2323374897241592,5.469489097595215,4.12109375,2,G1,7.6,0,450.0,0.0249273223412672,[8300|0|0|0]
22,2200,0.7955957651138306,-0.8091451525688171,0.0090196020901203,0.458690196275711,-0.2233756631612777,5.45761251449585,4.12109375,2,G1,7.6,0,450.0,0.0253243378882367,[8400|0|0|0]
23,2300,0.7956909537315369,-0.8091986775398254,0.0092090144753456,0.4534393846988678,-0.2246697545051574,5.451852798461914,4.12109375,2,G1,7.6,0,450.0,0.0255429765104859,[8500|0|0|0]
24,2400,0.7957375645637512,-0.8092200756072998,0.0090939877554774,0.4430790543556213,-0.225004106760025,5.466071128845215,4.12109375,2,G1,7.6,0,450.0,0.0256689193278872,[8600|0|0|0]
25,2500,0.795511782169342,-0.8089967966079712,0.0085557699203491,0.4293704032897949,-0.2203089147806167,5.44877815246582,4.12109375,2,G1,7.6,0,450.0,0.0262938270324457,[8700|0|0|0]
26,2600,0.7956604957580566,-0.8089619874954224,0.0087662488222122,0.4275432825088501,-0.2210209816694259,5.449540615081787,4.12109375,2,G1,7.6,0,450.0,0.0265538823610092,[8800|0|0|0]
27,2700,0.7955068945884705,-0.8089502453804016,0.0088377688080072,0.4246779680252075,-0.2165646106004715,5.44681453704834,4.12109375,2,G1,7.6,0,450.0,0.0267237243609136,[8900|0|0|0]
28,2800,0.7956356406211853,-0.8091418743133545,0.0088086277246475,0.4256060719490051,-0.2183151245117187,5.447362422943115,4.12109375,2,G1,7.6,0,450.0,0.0269564181331205,[9000|0|0|0]
29,2900,0.7957013845443726,-0.809221625328064,0.0089477375149726,0.4238382279872894,-0.2217304408550262,5.441245079040527,4.12109375,2,G1,7.6,0,450.0,0.027129721397797,[9100|0|0|0]
30,3000,0.7957249879837036,-0.809287965297699,0.0090122409164905,0.4200637638568878,-0.2234400957822799,5.416959762573242,4.12109375,2,G1,7.6,0,450.0,0.0272252138201498,[9200|0|0|0]
31,3100,0.7954988479614258,-0.8090977072715759,0.0089399628341197,0.4152966737747192,-0.2192311584949493,5.434511184692383,4.12109375,2,G1,7.6,0,450.0,0.0275294531130941,[9300|0|0|0]
32,3200,0.7958274483680725,-0.8092465400695801,0.0090437335893511,0.4127329289913177,-0.2224694341421127,5.449775218963623,4.12109375,2,G1,7.6,0,450.0,0.0279048166683994,[9400|0|0|0]
33,3300,0.7957577109336853,-0.8092058300971985,0.0090105039998888,0.4088709652423858,-0.2249161899089813,5.454391479492188,4.12109375,2,G1,7.6,0,450.0,0.0279921368677925,[9500|0|0|0]
34,3400,0.7957844734191895,-0.8093476891517639,0.0086983768269419,0.4041949212551117,-0.2275120466947555,5.464452743530273,4.12109375,2,G1,7.6,0,450.0,0.0283360316105328,[9600|0|0|0]
35,3500,0.7954879999160767,-0.8092057704925537,0.0087679475545883,0.3990229368209839,-0.2223782986402511,5.463306903839111,4.12109375,2,G1,7.6,0,450.0,0.028672004124327,[9700|0|0|0]
36,3600,0.7956224083900452,-0.8093034625053406,0.0090920459479093,0.4050763845443725,-0.2295433282852172,5.449243068695068,4.12109375,2,G1,7.6,0,450.0,0.0290362144149424,[9800|0|0|0]
37,3700,0.7957205772399902,-0.8092483282089233,0.0090152919292449,0.4046979546546936,-0.2279216051101684,5.473573207855225,4.12109375,2,G1,7.6,0,450.0,0.0291724792054134,[9900|0|0|0]
38,3800,0.7954182624816895,-0.8091519474983215,0.0088165663182735,0.4016572833061218,-0.2193111926317215,5.46514892578125,4.12109375,2,G1,7.6,0,450.0,0.0295468791558922,[10000|0|0|0]
39,3900,0.7956529259681702,-0.8093927502632141,0.0090602599084377,0.4094114601612091,-0.2299687713384628,5.461383819580078,4.12109375,2,G1,7.6,0,450.0,0.0299621374963916,[10100|0|0|0]
40,4000,0.7956262230873108,-0.809272289276123,0.0091033820062875,0.404777467250824,-0.2202761620283126,5.455836772918701,4.12109375,2,G1,7.6,0,450.0,0.0300928410104228,[10200|0|0|0]
41,4100,0.7955649495124817,-0.809258222579956,0.0087666865438222,0.4016347229480743,-0.2160981148481369,5.443964958190918,4.12109375,2,G1,7.6,0,450.0,0.030435355473414,[10300|0|0|0]
42,4200,0.7954683899879456,-0.8091405034065247,0.0086430311203002,0.3972496390342712,-0.214564636349678,5.436447143554688,4.12109375,2,G1,7.6,0,450.0,0.0306314988121701,[10400|0|0|0]
43,4300,0.7958123683929443,-0.8092015385627747,0.0091851502656936,0.392871618270874,-0.2177777886390686,5.442711353302002,4.12109375,2,G1,7.6,0,450.0,0.031276432608157,[10500|0|0|0]
44,4400,0.7955604791641235,-0.8091701865196228,0.0089434208348393,0.3883847594261169,-0.2067091166973114,5.421724796295166,4.12109375,2,G1,7.6,0,450.0,0.0316269525818345,[10600|0|0|0]
45,4500,0.7956078052520752,-0.8090230822563171,0.0092003159224987,0.3848258852958679,-0.2006432563066482,5.421924114227295,4.12109375,2,G1,7.6,0,450.0,0.0319267433571213,[10700|0|0|0]
46,4600,0.7954334616661072,-0.8090620636940002,0.008786934427917,0.3822388350963592,-0.1967958807945251,5.420557498931885,4.12109375,2,G1,7.6,0,450.0,0.0323770760102952,[10800|0|0|0]
47,4700,0.7955979704856873,-0.8092159032821655,0.008877370506525,0.3877632021903991,-0.2016571462154388,5.447277069091797,4.12109375,2,G1,7.6,0,450.0,0.0326197866506068,[10900|0|0|0]
48,4800,0.7956871390342712,-0.8092840313911438,0.0089755542576313,0.3844595849514007,-0.209079697728157,5.4296064376831055,4.12109375,2,G1,7.6,0,450.0,0.0327688923791045,[11000|0|0|0]
49,4900,0.7953376173973083,-0.8092105388641357,0.0087764682248234,0.3792920410633087,-0.2054108381271362,5.435547351837158,4.12109375,2,G1,7.6,0,450.0,0.0331777955151776,[11100|0|0|0]
50,5000,0.7957668304443359,-0.8091707825660706,0.0092018526047468,0.376311719417572,-0.214912474155426,5.438805103302002,4.12109375,2,G1,7.6,0,450.0,0.0337833995720146,[11200|0|0|0]
51,5100,0.7955158352851868,-0.8090201020240784,0.0088125532492995,0.3765393495559692,-0.2028567790985107,5.429242134094238,4.12109375,2,G1,7.6,0,450.0,0.0342704901013857,[11300|0|0|0]
52,5200,0.7959707379341125,-0.8093788027763367,0.0089403623715043,0.388978511095047,-0.2136201858520507,5.440019130706787,4.12109375,2,G1,7.6,0,450.0,0.0348637335770255,[11400|0|0|0]
53,5300,0.7954593300819397,-0.8090709447860718,0.008821272291243,0.3796995878219604,-0.1926660686731338,5.420259952545166,4.12109375,2,G1,7.6,0,450.0,0.0354724182085471,[11500|0|0|0]
54,5400,0.7954156398773193,-0.8089666962623596,0.0089006526395678,0.3824173808097839,-0.1912755519151687,5.428606033325195,4.12109375,2,G1,7.6,0,450.0,0.0356105407207459,[11600|0|0|0]
55,5500,0.7956848740577698,-0.8093385696411133,0.0091208228841423,0.3998062908649444,-0.1950829029083252,5.418263912200928,4.12109375,2,G1,7.6,0,450.0,0.0361197084635817,[11700|0|0|0]
56,5600,0.7954136729240417,-0.8090695142745972,0.0087005952373147,0.3929654061794281,-0.1885455697774887,5.419411659240723,4.12109375,2,G1,7.6,0,450.0,0.0366876275778442,[11800|0|0|0]
57,5700,0.7957441210746765,-0.8093551993370056,0.0088402917608618,0.4039927124977112,-0.1975062042474746,5.423621654510498,4.1171875,2,G1,7.6,0,450.0,0.0371462418534968,[11900|0|0|0]
58,5800,0.7953815460205078,-0.8089351058006287,0.0087784901261329,0.3999580442905426,-0.1875662952661514,5.41576099395752,4.12109375,2,G1,7.6,0,450.0,0.0377045954074985,[12000|0|0|0]
59,5900,0.7958793640136719,-0.809372067451477,0.0092230066657066,0.4138746261596679,-0.2096888124942779,5.412052631378174,4.12109375,2,G1,7.6,0,450.0,0.0385023128967042,[12100|0|0|0]
60,6000,0.7955673933029175,-0.8093073964118958,0.0087560592219233,0.4119094908237457,-0.2008795589208603,5.411237716674805,4.12109375,2,G1,7.6,0,450.0,0.0390675986500935,[12200|0|0|0]
61,6100,0.7956265211105347,-0.8093785047531128,0.0090305190533399,0.4151929318904876,-0.1962855458259582,5.424151420593262,4.12109375,2,G1,7.6,0,450.0,0.0393572202875543,[12300|0|0|0]
62,6200,0.795676589012146,-0.8091678023338318,0.0092466222122311,0.4071404933929443,-0.1981320977210998,5.437503814697266,4.12109375,2,G1,7.6,0,450.0,0.0396631661643779,[12400|0|0|0]
63,6300,0.7955593466758728,-0.809322714805603,0.0089150881394743,0.4106271862983703,-0.1942081898450851,5.452417850494385,4.12109375,2,G1,7.6,0,450.0,0.0400474297207085,[12500|0|0|0]
64,6400,0.7955451607704163,-0.8089991211891174,0.0086147421970963,0.4022242128849029,-0.199506863951683,5.432197093963623,4.12109375,2,G1,7.6,0,450.0,0.0404891556013706,[12600|0|0|0]
65,6500,0.7956817746162415,-0.8092072010040283,0.0090898098424077,0.407358855009079,-0.2006298303604126,5.439475059509277,4.12109375,2,G1,7.6,0,450.0,0.0410254855556583,[12700|0|0|0]
66,6600,0.7955871820449829,-0.8090976476669312,0.0086699854582548,0.397960215806961,-0.2004151493310928,5.433487892150879,4.12109375,2,G1,7.6,0,450.0,0.0414695601009047,[12800|0|0|0]
67,6700,0.7954949140548706,-0.8092030882835388,0.0086756870150566,0.3977302312850952,-0.1955996453762054,5.432069778442383,4.12109375,2,G1,7.6,0,450.0,0.0416097871075045,[12900|0|0|0]
68,6800,0.7956648468971252,-0.809269905090332,0.0091190719977021,0.4004860818386078,-0.1971314996480941,5.427493572235107,4.12109375,2,G1,7.6,0,450.0,0.0420892992547774,[13000|0|0|0]
69,6900,0.7956253886222839,-0.8091620802879333,0.0090874386951327,0.3920455276966095,-0.1948530822992324,5.42411994934082,4.12109375,2,G1,7.6,0,450.0,0.0422083950536001,[13100|0|0|0]
70,7000,0.7957892417907715,-0.8092813491821289,0.0092833647504448,0.3938338756561279,-0.1913332045078277,5.4276227951049805,4.12109375,2,G1,7.6,0,450.0,0.0424902814652914,[13200|0|0|0]
71,7100,0.7955896258354187,-0.8091956973075867,0.0090468516573309,0.3913277089595794,-0.1899060010910034,5.420860290527344,4.12109375,2,G1,7.6,0,450.0,0.0428114063887376,[13300|0|0|0]
72,7200,0.7955838441848755,-0.8091764450073242,0.0088087050244212,0.3917682766914367,-0.1954235285520553,5.450334072113037,4.12109375,2,G1,7.6,0,450.0,0.0430503998976759,[13400|0|0|0]
73,7300,0.7956400513648987,-0.8090029954910278,0.008856245316565,0.3865535855293274,-0.1981569230556488,5.447842597961426,4.12109375,2,G1,7.6,0,450.0,0.0432388251113993,[13500|0|0|0]
74,7400,0.7954314947128296,-0.8092221617698669,0.0087480787187814,0.3919602036476135,-0.1942153424024582,5.449395179748535,4.12109375,2,G1,7.6,0,450.0,0.0435601189765423,[13600|0|0|0]
75,7500,0.795632004737854,-0.8088753819465637,0.008926355279982,0.3810266256332397,-0.2015799134969711,5.464924812316895,4.12109375,2,G1,7.6,0,450.0,0.0439985742744451,[13700|0|0|0]
76,7600,0.7957778573036194,-0.8090581893920898,0.0088905151933431,0.3843937814235687,-0.2090439796447754,5.490380764007568,4.12109375,2,G1,7.6,0,450.0,0.0442351668459482,[13800|0|0|0]
77,7700,0.7956418395042419,-0.8086973428726196,0.0091576259583234,0.3805539906024933,-0.2023778557777404,5.548248767852783,4.12109375,2,G1,7.6,0,450.0,0.044704271539092,[13900|0|0|0]
78,7800,0.7956399917602539,-0.80888831615448,0.0093061039224267,0.3858878314495086,-0.1969394087791443,5.5264410972595215,4.12109375,2,G1,7.6,0,450.0,0.0449461804359243,[14000|0|0|0]
79,7900,0.7955630421638489,-0.8092405796051025,0.0089692836627364,0.386100172996521,-0.1992218643426895,5.470935344696045,4.12109375,2,G1,7.6,0,450.0,0.0454395957441275,[14100|0|0|0]
80,8000,0.7955507040023804,-0.8093718886375427,0.0090115554630756,0.3930458128452301,-0.1988330483436584,5.459418773651123,4.12109375,2,G1,7.6,0,450.0,0.0455780919438325,[14200|0|0|0]
81,8100,0.7957611083984375,-0.8088798522949219,0.0092252800241112,0.3899593353271484,-0.2063786685466766,5.498332500457764,4.12109375,2,G1,7.6,0,450.0,0.0461543279721488,[14300|0|0|0]
82,8200,0.7952342629432678,-0.8087068200111389,0.0089596873149275,0.38738813996315,-0.1973902881145477,5.510107040405273,4.12109375,2,G1,7.6,0,450.0,0.0467691822573543,[14400|0|0|0]
83,8300,0.7955565452575684,-0.8092694282531738,0.008859658613801,0.3950833678245544,-0.2074262648820877,5.461908340454102,4.12109375,2,G1,7.6,0,450.0,0.0474252307808384,[14500|0|0|0]
84,8400,0.7953072786331177,-0.8086740374565125,0.0086168060079216,0.3854336738586426,-0.2032345980405807,5.510891914367676,4.12109375,2,G1,7.6,0,450.0,0.0481148694101193,[14600|0|0|0]
85,8500,0.7956939339637756,-0.8089929819107056,0.0090845189988613,0.3939869403839111,-0.2139902263879776,5.495059013366699,4.12109375,2,G1,7.6,0,450.0,0.0488004227278711,[14700|0|0|0]
86,8600,0.7956754565238953,-0.808945894241333,0.0092314481735229,0.3887986838817596,-0.2059952318668365,5.49738883972168,4.12109375,2,G1,7.6,0,450.0,0.04895581528483,[14800|0|0|0]
87,8700,0.7958107590675354,-0.8090463280677795,0.0092299291864037,0.3965135514736175,-0.209456518292427,5.472280025482178,4.12109375,2,G1,7.6,0,450.0,0.0491243265281702,[14900|0|0|0]
88,8800,0.7956530451774597,-0.8090278506278992,0.0090870736166834,0.3932627737522125,-0.2039294093847274,5.474580764770508,4.12109375,2,G1,7.6,0,450.0,0.0493379214735866,[15000|0|0|0]
89,8900,0.7954227924346924,-0.8086481094360352,0.0087389200925827,0.3873264491558075,-0.197185143828392,5.45955228805542,4.12109375,2,G1,7.6,0,450.0,0.0499022180044052,[15100|0|0|0]
90,9000,0.7955318093299866,-0.8089131712913513,0.0089799556881189,0.3988855481147766,-0.1977655291557312,5.466489791870117,4.12109375,2,G1,7.6,0,450.0,0.0502767051589496,[15200|0|0|0]
91,9100,0.7955629825592041,-0.808996856212616,0.0091501139104366,0.4009737968444824,-0.2000992447137832,5.482175827026367,4.12109375,2,G1,7.6,0,450.0,0.0504688737226878,[15300|0|0|0]
92,9200,0.7956066727638245,-0.80878746509552,0.0089961513876914,0.3978672623634338,-0.1963859796524047,5.502852916717529,4.12109375,2,G1,7.6,0,450.0,0.0507324224512155,[15400|0|0|0]
93,9300,0.7956696152687073,-0.8091135025024414,0.0090071968734264,0.4029411077499389,-0.1998545080423355,5.506982803344727,4.12109375,2,G1,7.6,0,450.0,0.0510646635570228,[15500|0|0|0]
94,9400,0.7956727147102356,-0.8088515400886536,0.0089842062443494,0.391592800617218,-0.2029294669628143,5.52711296081543,4.12109375,2,G1,7.6,0,450.0,0.0513276511647169,[15600|0|0|0]
95,9501,0.795487642288208,-0.8089869022369385,0.0090470239520072,0.3921407163143158,-0.1963707655668258,5.517809867858887,4.12109375,2,G1,7.6,0,450.0,0.0515653921518833,[15700|0|0|0]
96,9601,0.7956963181495667,-0.8090816140174866,0.0092777553945779,0.3962515890598297,-0.1953033208847046,5.512427806854248,4.12109375,2,G1,7.6,0,450.0,0.051890588915519,[15800|0|0|0]
97,9700,0.7954832911491394,-0.8088533282279968,0.0092630535364151,0.3881678283214569,-0.1906144171953201,5.515615463256836,4.12109375,2,G1,7.6,0,450.0,0.0522031765819862,[15900|0|0|0]
98,9800,0.7955764532089233,-0.8089655637741089,0.009154250845313,0.3841261565685272,-0.1946074664592743,5.49535083770752,4.12109375,2,G1,7.6,0,450.0,0.0523851491425148,[16000|0|0|0]
99,9901,0.7957268357276917,-0.8087278008460999,0.0088923033326864,0.3828522264957428,-0.1956071555614471,5.498473644256592,4.12109375,2,G1,7.6,0,450.0,0.0527695481686033,[16100|0|0|0]
100,10001,0.7956592440605164,-0.8091287612915039,0.0090523231774568,0.3935761451721191,-0.1928770542144775,5.498867034912109,4.12109375,2,G1,7.6,0,450.0,0.0532065198644492,[16200|0|0|0]
101,10101,0.795602023601532,-0.8090150356292725,0.009249915368855,0.3896210193634033,-0.195901945233345,5.511761665344238,4.12109375,2,G1,7.6,0,450.0,0.0534415738609647,[16300|0|0|0]
102,10201,0.7954028248786926,-0.808777928352356,0.0089007103815674,0.3836123645305633,-0.1947466433048248,5.542442798614502,4.1171875,2,G1,7.6,0,450.0,0.0539083115979157,[16400|0|0|0]
103,10301,0.7954137921333313,-0.8089258670806885,0.0090098651126027,0.3828111588954925,-0.1928987503051757,5.55849552154541,4.12109375,2,G1,7.6,0,450.0,0.0540924878811944,[16500|0|0|0]
104,10401,0.7954519987106323,-0.8088687062263489,0.0091542834416031,0.3761724233627319,-0.1964277923107147,5.539297580718994,4.12109375,2,G1,7.6,0,450.0,0.0542524371217964,[16600|0|0|0]
105,10502,0.7955830097198486,-0.8089661002159119,0.0092879626899957,0.3796755373477936,-0.2023081183433532,5.511634826660156,4.12109375,2,G1,7.6,0,450.0,0.0544634338402298,[16700|0|0|0]
106,10601,0.7953720688819885,-0.808966875076294,0.0088463919237256,0.3794120550155639,-0.1907484680414199,5.516252040863037,4.12109375,2,G1,7.6,0,450.0,0.0549528021872958,[16800|0|0|0]
107,10702,0.7955242395401001,-0.8091537356376648,0.0090583767741918,0.3824488222599029,-0.1916198283433914,5.511875629425049,4.12109375,2,G1,7.6,0,450.0,0.0552737544507449,[16900|0|0|0]
108,10802,0.7954992055892944,-0.8089824318885803,0.0088194999843835,0.3745693862438202,-0.1896999627351761,5.508136749267578,4.12109375,2,G1,7.6,0,450.0,0.0555687693552031,[17000|0|0|0]
109,10900,0.7957425713539124,-0.808981716632843,0.0091888448223471,0.377970814704895,-0.1960452795028686,5.512717247009277,4.12109375,2,G1,7.6,0,450.0,0.0560110848718981,[17100|0|0|0]
110,11002,0.7954277992248535,-0.808851420879364,0.0088560637086629,0.3805993497371673,-0.1841519027948379,5.490535736083984,4.12109375,2,G1,7.6,0,450.0,0.0564873219412573,[17200|0|0|0]
111,11102,0.7956874370574951,-0.8088986873626709,0.0090373754501342,0.3838414847850799,-0.1905499398708343,5.474536418914795,4.12109375,2,G1,7.6,0,450.0,0.0568075091867534,[17300|0|0|0]
112,11202,0.7953250408172607,-0.8086221814155579,0.0086597250774502,0.3755713105201721,-0.188594102859497,5.481226444244385,4.1171875,2,G1,7.6,0,450.0,0.0573994605172809,[17400|0|0|0]
113,11300,0.7954664826393127,-0.808926522731781,0.0088567975908517,0.3861196041107178,-0.194815918803215,5.492387294769287,4.12109375,2,G1,7.6,0,450.0,0.0577886481344069,[17500|0|0|0]
114,11400,0.7954365611076355,-0.8091220259666443,0.0090314792469143,0.390544593334198,-0.1928453743457794,5.494277000427246,4.12109375,2,G1,7.6,0,450.0,0.0580525240405914,[17600|0|0|0]
115,11500,0.7953935265541077,-0.8088208436965942,0.0086928773671388,0.3820795714855194,-0.1948609352111816,5.502105236053467,4.12109375,2,G1,7.6,0,450.0,0.0585077316477085,[17700|0|0|0]
116,11600,0.7953760027885437,-0.8088890314102173,0.0088522639125585,0.382615327835083,-0.1939840465784073,5.51939868927002,4.12109375,2,G1,7.6,0,450.0,0.058681974918768,[17800|0|0|0]
117,11700,0.7952885627746582,-0.8087018132209778,0.0089700790122151,0.3795275092124939,-0.1945416331291198,5.519346237182617,4.1171875,2,G1,7.6,0,450.0,0.0589198337090565,[17900|0|0|0]
118,11800,0.7955753803253174,-0.8089089393615723,0.0088937617838382,0.3804786503314972,-0.2034008651971817,5.527787685394287,4.12109375,2,G1,7.6,0,450.0,0.0592817589289996,[18000|0|0|0]
119,11900,0.7957017421722412,-0.8090085387229919,0.0090001570060849,0.3798883855342865,-0.2060512751340866,5.503046989440918,4.12109375,2,G1,7.6,0,450.0,0.0594746508481412,[18100|0|0|0]
120,12000,0.7956706285476685,-0.8089821934700012,0.0092673115432262,0.3793800771236419,-0.2010606527328491,5.514368534088135,4.12109375,2,G1,7.6,0,450.0,0.0597448982842148,[18200|0|0|0]
121,12100,0.7955446839332581,-0.8089906573295593,0.0091347293928265,0.3817594349384308,-0.1967843025922775,5.513895511627197,4.12109375,2,G1,7.6,0,450.0,0.0599279603213012,[18300|0|0|0]
122,12200,0.795616865158081,-0.809014081954956,0.0091511737555265,0.383781224489212,-0.2028332501649856,5.519856452941895,4.1171875,2,G1,7.6,0,450.0,0.0600056086268625,[18400|0|0|0]
123,12300,0.7954409718513489,-0.8089624643325806,0.0089068729430437,0.3827646374702453,-0.2043250352144241,5.512516975402832,4.12109375,2,G1,7.6,0,450.0,0.0603110357397268,[18500|0|0|0]
124,12400,0.7954984307289124,-0.8088764548301697,0.0091861765831708,0.3782295286655426,-0.2067984789609909,5.498244285583496,4.12109375,2,G1,7.6,0,450.0,0.0606088774434959,[18600|0|0|0]
125,12500,0.7955191135406494,-0.8087618350982666,0.0089833624660968,0.3737167119979858,-0.2104169428348541,5.497743129730225,4.12109375,2,G1,7.6,0,450.0,0.0608427556761884,[18700|0|0|0]
126,12600,0.7955155968666077,-0.808705747127533,0.0090893814340233,0.3777550756931305,-0.2098674029111862,5.485440731048584,4.12109375,2,G1,7.6,0,450.0,0.0609627483802063,[18800|0|0|0]
127,12700,0.7955196499824524,-0.8090124726295471,0.0091830007731914,0.3902088701725006,-0.2105322331190109,5.482963562011719,4.1171875,2,G1,7.6,0,450.0,0.0612834687287971,[18900|0|0|0]
128,12800,0.7956204414367676,-0.809015691280365,0.0088787730783224,0.3887510895729065,-0.2153572887182235,5.483155727386475,4.12109375,2,G1,7.6,0,450.0,0.0616039742159597,[19000|0|0|0]
129,12900,0.7957742810249329,-0.8090622425079346,0.0091879032552242,0.3914291560649872,-0.2187885046005249,5.46810245513916,4.12109375,2,G1,7.6,0,450.0,0.0619523922148439,[19100|0|0|0]
130,13000,0.7956779599189758,-0.8090254664421082,0.0091045508161187,0.3879396915435791,-0.2138739228248596,5.488187313079834,4.12109375,2,G1,7.6,0,450.0,0.0620849737504184,[19200|0|0|0]
131,13100,0.7956682443618774,-0.8091017603874207,0.0091650523245334,0.3888625502586365,-0.2108216732740402,5.520407676696777,4.12109375,2,G1,7.6,0,450.0,0.0621828286974652,[19300|0|0|0]
132,13200,0.7956283688545227,-0.8089504837989807,0.0090692359954118,0.3842254877090454,-0.2141249924898147,5.517482280731201,4.1171875,2,G1,7.6,0,450.0,0.0623662828640114,[19400|0|0|0]
133,13300,0.7958027124404907,-0.809147834777832,0.008855627849698,0.3866414725780487,-0.2174864560365677,5.501682281494141,4.12109375,2,G1,7.6,0,450.0,0.0627053573908297,[19500|0|0|0]
134,13400,0.7955924272537231,-0.8090547919273376,0.0092307077720761,0.3826020658016205,-0.2152478545904159,5.504456996917725,4.12109375,2,G1,7.6,0,450.0,0.0631453139568372,[19600|0|0|0]
135,13500,0.7956724762916565,-0.8089278340339661,0.0091121681034564,0.3771553635597229,-0.2190920263528823,5.506468296051025,4.12109375,2,G1,7.6,0,450.0,0.0633365672135412,[19700|0|0|0]
136,13600,0.7955288290977478,-0.8088005185127258,0.0091846641153097,0.3670994341373443,-0.2157990634441375,5.506531715393066,4.12109375,2,G1,7.6,0,450.0,0.0635417486698211,[19800|0|0|0]
137,13700,0.7955578565597534,-0.8088849186897278,0.0090385153889656,0.3667217195034027,-0.2213223129510879,5.507869720458984,4.1171875,2,G1,7.6,0,450.0,0.0637129953738491,[19900|0|0|0]
138,13800,0.7955413460731506,-0.8089033961296082,0.0090792644768953,0.3674724102020263,-0.212257981300354,5.493174076080322,4.12109375,2,G1,7.6,0,450.0,0.0637606870934605,[20000|0|0|0]
139,13900,0.795726478099823,-0.8090465664863586,0.0092032616958022,0.3718591630458832,-0.2128984928131103,5.489692687988281,4.12109375,2,G1,7.6,0,450.0,0.0640255397480603,[20100|0|0|0]
140,14000,0.795504629611969,-0.8089529275894165,0.0091859176754951,0.3667456209659576,-0.2085068523883819,5.468896865844727,4.12109375,2,G1,7.6,0,450.0,0.0642669642903588,[20200|0|0|0]
141,14100,0.7955380082130432,-0.8090296387672424,0.0090028084814548,0.3622439503669739,-0.2069001197814941,5.46324634552002,4.12109375,2,G1,7.6,0,450.0,0.0644682792494533,[20300|0|0|0]
142,14200,0.7953757643699646,-0.8085936903953552,0.0087578035891056,0.353367418050766,-0.1952469199895858,5.49366569519043,4.1171875,2,G1,7.6,0,450.0,0.0649940182006858,[20400|0|0|0]
143,14300,0.7954285144805908,-0.8087490797042847,0.0089421812444925,0.3610460162162781,-0.1963143795728683,5.4989519119262695,4.12109375,2,G1,7.6,0,450.0,0.0652408451264994,[20500|0|0|0]
144,14400,0.7955595850944519,-0.8088470101356506,0.0089523624628782,0.3673562109470367,-0.1997426152229309,5.497360706329346,4.12109375,2,G1,7.6,0,450.0,0.0654047766134483,[20600|0|0|0]
145,14500,0.7956516146659851,-0.8089829683303833,0.0092641096562147,0.3767560422420501,-0.2061935365200042,5.48906135559082,4.12109375,2,G1,7.6,0,450.0,0.0657571122280329,[20700|0|0|0]
146,14600,0.7956041693687439,-0.8089712262153625,0.0094472309574484,0.3791149258613586,-0.2100235372781753,5.484370708465576,4.12109375,2,G1,7.6,0,450.0,0.065946644136853,[20800|0|0|0]
147,14700,0.7958588004112244,-0.808739423751831,0.0093133561313152,0.3705623149871826,-0.2222915291786193,5.483481407165527,4.1171875,2,G1,7.6,0,450.0,0.0663160921290876,[20900|0|0|0]
148,14800,0.7953084111213684,-0.8089195489883423,0.0085351401939988,0.3758540451526642,-0.2040027827024459,5.493618965148926,4.12109375,2,G1,7.6,0,450.0,0.0672861403321732,[21000|0|0|0]
149,14900,0.7952502965927124,-0.808880627155304,0.0087343603372573,0.3802395761013031,-0.1977307796478271,5.470076084136963,4.12109375,2,G1,7.6,0,450.0,0.0674972821636702,[21100|0|0|0]
150,15000,0.7954803705215454,-0.8088946342468262,0.0089985765516757,0.3797664940357208,-0.2015110403299331,5.477888107299805,4.12109375,2,G1,7.6,0,450.0,0.0678479107696098,[21200|0|0|0]
151,15100,0.7955464720726013,-0.808835506439209,0.0089848861098289,0.3795773983001709,-0.1992285102605819,5.491281986236572,4.12109375,2,G1,7.6,0,450.0,0.0679376489492413,[21300|0|0|0]
152,15200,0.7958131432533264,-0.8087093234062195,0.00918844435364,0.3775817155838012,-0.2073589712381363,5.519406318664551,4.1171875,2,G1,7.6,0,450.0,0.0682960783496359,[21400|0|0|0]
153,15300,0.7956397533416748,-0.8090746402740479,0.0093424404039978,0.388323038816452,-0.1993225365877151,5.505124092102051,4.1171875,2,G1,7.6,0,450.0,0.0687287852468634,[21500|0|0|0]
154,15400,0.795661985874176,-0.8088218569755554,0.0087790908291935,0.3830801844596863,-0.2034750133752823,5.490877151489258,4.12109375,2,G1,7.6,0,450.0,0.069346649653453,[21600|0|0|0]
155,15500,0.79536372423172,-0.8089379072189331,0.0086575699970126,0.3888499438762665,-0.1928543746471405,5.487178802490234,4.12109375,2,G1,7.6,0,450.0,0.0696889871755019,[21700|0|0|0]
156,15600,0.7954935431480408,-0.8087300062179565,0.0090437727048993,0.3856058716773987,-0.1959065049886703,5.501619338989258,4.12109375,2,G1,7.6,0,450.0,0.0701464019859538,[21800|0|0|0]
157,15700,0.795485258102417,-0.8086480498313904,0.0088336523622274,0.3850599527359009,-0.1990935653448104,5.491097450256348,4.1171875,2,G1,7.6,0,450.0,0.070372092148975,[21900|0|0|0]
158,15800,0.7954615354537964,-0.8090683817863464,0.0090406937524676,0.3981911540031433,-0.1954832673072815,5.505061149597168,4.12109375,2,G1,7.6,0,450.0,0.0708412486832867,[22000|0|0|0]
159,15900,0.7954908013343811,-0.8088247179985046,0.0092242732644081,0.3870922029018402,-0.1967120170593261,5.5224289894104,4.1171875,2,G1,7.6,0,450.0,0.0711477286507823,[22100|0|0|0]
160,16000,0.7954431772232056,-0.8088374733924866,0.0091285733506083,0.3812059462070465,-0.1970311850309372,5.535131931304932,4.12109375,2,G1,7.6,0,450.0,0.0712553819347182,[22200|0|0|0]
161,16100,0.7954109907150269,-0.8088966608047485,0.0088491477072238,0.3784405291080475,-0.2018956243991851,5.531502723693848,4.12109375,2,G1,7.6,0,450.0,0.0715428150769615,[22300|0|0|0]
162,16200,0.7953567504882812,-0.8088399171829224,0.0086811622604727,0.3754597306251526,-0.199934646487236,5.516983985900879,4.1171875,2,G1,7.6,0,450.0,0.0717282360874634,[22400|0|0|0]
163,16300,0.7956681847572327,-0.8089020252227783,0.0091700730845332,0.3808000683784485,-0.208239197731018,5.50231409072876,4.12109375,2,G1,7.6,0,450.0,0.0723112305182906,[22500|0|0|0]
164,16400,0.7955560088157654,-0.8090276718139648,0.0091259600594639,0.3858944475650787,-0.2055437862873077,5.489348888397217,4.12109375,2,G1,7.6,0,450.0,0.0724853467630859,[22600|0|0|0]
165,16500,0.7954469323158264,-0.8089272379875183,0.0089841429144144,0.3832466006278991,-0.2062834203243255,5.514660358428955,4.12109375,2,G1,7.6,0,450.0,0.0726905216615595,[22700|0|0|0]
166,16600,0.7957238554954529,-0.8089549541473389,0.0091527299955487,0.3798565864562988,-0.209700658917427,5.488613128662109,4.12109375,2,G1,7.6,0,450.0,0.0730159079502304,[22800|0|0|0]
167,16700,0.7953596711158752,-0.8088511824607849,0.0089295748621225,0.3760405778884887,-0.1951500475406646,5.50465202331543,4.1171875,2,G1,7.6,0,450.0,0.0734554498012901,[22900|0|0|0]
168,16800,0.7955106496810913,-0.8090207576751709,0.0090114502236247,0.3809016346931457,-0.1979178339242935,5.516772747039795,4.12109375,2,G1,7.6,0,450.0,0.0736968081558376,[23000|0|0|0]
169,16900,0.7958106398582458,-0.809066653251648,0.0092063816264271,0.3870140314102173,-0.2090547084808349,5.511209487915039,4.12109375,2,G1,7.6,0,450.0,0.0740575002158111,[23100|0|0|0]
170,17000,0.7955216765403748,-0.8090437650680542,0.0091045703738927,0.3841088414192199,-0.1940420717000961,5.502721786499023,4.12109375,2,G1,7.6,0,450.0,0.0743647284683627,[23200|0|0|0]
171,17100,0.7955150604248047,-0.8086504340171814,0.0089309783652424,0.3755113184452057,-0.1973613053560257,5.502917289733887,4.12109375,2,G1,7.6,0,450.0,0.0747947136704722,[23300|0|0|0]
172,17200,0.7954084873199463,-0.8087226748466492,0.0087756952270865,0.3770329356193542,-0.1838189214468002,5.487334728240967,4.1171875,2,G1,7.6,0,450.0,0.0749964298500833,[23400|0|0|0]
173,17300,0.7955324053764343,-0.8088990449905396,0.0091290147975087,0.3861347138881683,-0.1839342564344406,5.480946063995361,4.12109375,2,G1,7.6,0,450.0,0.0754103100636996,[23500|0|0|0]
174,17400,0.7957290410995483,-0.8091280460357666,0.009200781583786,0.3905054926872253,-0.1872526854276657,5.494516372680664,4.12109375,2,G1,7.6,0,450.0,0.0757205640853209,[23600|0|0|0]
175,17500,0.7956784963607788,-0.8088670969009399,0.0090286824852228,0.3779945969581604,-0.188353031873703,5.480633735656738,4.12109375,2,G1,7.6,0,450.0,0.0760372142413454,[23700|0|0|0]
176,17600,0.7954502105712891,-0.8090124726295471,0.0090483641251921,0.3843240141868591,-0.1858434975147247,5.48829460144043,4.12109375,2,G1,7.6,0,450.0,0.0763085735439368,[23800|0|0|0]
177,17700,0.7954601049423218,-0.808871865272522,0.008763987571001,0.384292721748352,-0.1887007802724838,5.497485637664795,4.1171875,2,G1,7.6,0,450.0,0.0766259665999436,[23900|0|0|0]
178,17800,0.7954371571540833,-0.8090702891349792,0.0092858066782355,0.3902967870235443,-0.196503683924675,5.506354808807373,4.12109375,2,G1,7.6,0,450.0,0.0771847096633032,[24000|0|0|0]
179,17900,0.795318603515625,-0.8087875247001648,0.0087812058627605,0.3828836679458618,-0.1911463886499405,5.49758243560791,4.12109375,2,G1,7.6,0,450.0,0.077775160909187,[24100|0|0|0]
180,18000,0.7955640554428101,-0.8091146945953369,0.0090541196987032,0.3910041153430938,-0.1962882131338119,5.477667331695557,4.12109375,2,G1,7.6,0,450.0,0.0782668607675506,[24200|0|0|0]
181,18100,0.7954869270324707,-0.8089103698730469,0.0089211296290159,0.3831913471221924,-0.1970683187246322,5.505207061767578,4.12109375,2,G1,7.6,0,450.0,0.0785225632166116,[24300|0|0|0]
182,18200,0.7955710291862488,-0.809118390083313,0.0090728886425495,0.3901668787002563,-0.2022058516740799,5.519093990325928,4.1171875,2,G1,7.6,0,450.0,0.0787934439622137,[24400|0|0|0]
183,18300,0.7956454753875732,-0.8089805245399475,0.0090207690373063,0.3911713659763336,-0.2031759917736053,5.5421977043151855,4.12109375,2,G1,7.6,0,450.0,0.0789585669412015,[24500|0|0|0]
184,18400,0.795413613319397,-0.8089799284934998,0.0089981537312269,0.3890337347984314,-0.1949868351221084,5.534256458282471,4.12109375,2,G1,7.6,0,450.0,0.0791915300842079,[24600|0|0|0]
185,18500,0.7956481575965881,-0.8088984489440918,0.0090151885524392,0.38919398188591,-0.2030783891677856,5.531429767608643,4.12109375,2,G1,7.6,0,450.0,0.0794404078053253,[24700|0|0|0]
186,18600,0.7955405712127686,-0.8091001510620117,0.0092489346861839,0.3967478275299072,-0.199601948261261,5.527860164642334,4.1171875,2,G1,7.6,0,450.0,0.0797673570818153,[24800|0|0|0]
187,18700,0.7955195307731628,-0.8090202808380127,0.0090311309322714,0.3911611139774322,-0.1964916437864303,5.518040657043457,4.1171875,2,G1,7.6,0,450.0,0.0800002957604387,[24900|0|0|0]
188,18800,0.7955803275108337,-0.8090362548828125,0.0088856145739555,0.3890891075134277,-0.2025106996297836,5.5126776695251465,4.1171875,2,G1,7.6,0,450.0,0.0801588089269462,[25000|0|0|0]
189,18900,0.7954031825065613,-0.8088508248329163,0.0086815608665347,0.3833440244197845,-0.200324535369873,5.520719528198242,4.1171875,2,G1,7.6,0,450.0,0.0804865322423441,[25100|0|0|0]
190,19000,0.7957049012184143,-0.808933436870575,0.0091743702068924,0.3861280083656311,-0.2090480178594589,5.515244483947754,4.1171875,2,G1,7.6,0,450.0,0.0810702444794885,[25200|0|0|0]
191,19100,0.7956053614616394,-0.8089984655380249,0.0090365149080753,0.3860602676868438,-0.2049085199832916,5.504101276397705,4.12109375,2,G1,7.6,0,450.0,0.0812522911058815,[25300|0|0|0]
192,19200,0.7955604195594788,-0.8087340593338013,0.0087414644658565,0.3814893960952759,-0.2059603482484817,5.519585609436035,4.1171875,2,G1,7.6,0,450.0,0.0816510205615971,[25400|0|0|0]
193,19300,0.7957096099853516,-0.8090056777000427,0.0091442009434103,0.3955633342266083,-0.2116332948207855,5.516345024108887,4.1171875,2,G1,7.6,0,450.0,0.0821591848956508,[25500|0|0|0]
194,19400,0.7953370809555054,-0.8088525533676147,0.0086223995313048,0.3849256634712219,-0.2032972574234008,5.507098197937012,4.12109375,2,G1,7.6,0,450.0,0.0828183522893643,[25600|0|0|0]
195,19500,0.7952702045440674,-0.80878746509552,0.0088497530668973,0.3761456608772278,-0.197404146194458,5.487759113311768,4.1171875,2,G1,7.6,0,450.0,0.0830641134899585,[25700|0|0|0]
196,19600,0.7951565384864807,-0.8088264465332031,0.008779757656157,0.376029759645462,-0.1965040564537048,5.471617221832275,4.12109375,2,G1,7.6,0,450.0,0.0832031778011812,[25800|0|0|0]
197,19700,0.7953445911407471,-0.8085871338844299,0.0088922586292028,0.3708854913711548,-0.2042181491851806,5.468214988708496,4.1171875,2,G1,7.6,0,450.0,0.0835276632609104,[25900|0|0|0]
198,19800,0.7957056164741516,-0.8088740706443787,0.0091748712584376,0.3788451254367828,-0.2122454792261123,5.467591285705566,4.1171875,2,G1,7.6,0,450.0,0.0840685346816499,[26000|0|0|0]
199,19900,0.7956130504608154,-0.8090595602989197,0.0092302821576595,0.3831762075424194,-0.2105847746133804,5.47430419921875,4.1171875,2,G1,7.6,0,450.0,0.0842831162431115,[26100|0|0|0]
200,20000,0.795595645904541,-0.8090900778770447,0.0088428845629096,0.3814900517463684,-0.2116515189409256,5.483692646026611,4.12109375,2,G1,7.6,0,450.0,0.0846721035662619,[26200|0|0|0]
201,20100,0.7954016923904419,-0.8089020848274231,0.0086525557562708,0.373863935470581,-0.2053707242012024,5.482635021209717,4.1171875,2,G1,7.6,0,450.0,0.0850025342049351,[26300|0|0|0]
202,20200,0.7953569889068604,-0.8088865280151367,0.0085230572149157,0.3706640899181366,-0.1964253634214401,5.488939762115479,4.1171875,2,G1,7.6,0,450.0,0.085140412006143,[26400|0|0|0]
203,20300,0.7953510880470276,-0.8090149760246277,0.0088438112288713,0.3744636476039886,-0.1942856460809707,5.518411636352539,4.1171875,2,G1,7.6,0,450.0,0.0854859794362599,[26500|0|0|0]
204,20400,0.795465350151062,-0.8087866902351379,0.0089924791827797,0.3676572144031524,-0.1953578144311905,5.536719799041748,4.1171875,2,G1,7.6,0,450.0,0.0857813984448234,[26600|0|0|0]
205,20500,0.7956927418708801,-0.8089757561683655,0.0088781230151653,0.3757046163082123,-0.1999017298221588,5.543086528778076,4.1171875,2,G1,7.6,0,450.0,0.0860984635082102,[26700|0|0|0]
206,20600,0.7955229878425598,-0.808959424495697,0.0089957443997263,0.3759704232215881,-0.1933149248361587,5.528220653533936,4.12109375,2,G1,7.6,0,450.0,0.0863056299721207,[26800|0|0|0]
207,20700,0.7956720590591431,-0.8089924454689026,0.0090157706290483,0.3787179887294769,-0.1990210711956024,5.501899242401123,4.1171875,2,G1,7.6,0,450.0,0.0864596223814983,[26900|0|0|0]
208,20800,0.795753002166748,-0.8090248107910156,0.0091133257374167,0.3836479187011719,-0.1936378628015518,5.510179042816162,4.1171875,2,G1,7.6,0,450.0,0.0865904516592346,[27000|0|0|0]
209,20900,0.7955611348152161,-0.8091709613800049,0.0092204818502068,0.3866204023361206,-0.1884835958480835,5.493120193481445,4.1171875,2,G1,7.6,0,450.0,0.0868543749582328,[27100|0|0|0]
210,21000,0.7953776717185974,-0.8087104558944702,0.0087893242016434,0.3802359700202942,-0.1843750178813934,5.516425132751465,4.12109375,2,G1,7.6,0,450.0,0.0875113535940674,[27200|0|0|0]
211,21100,0.7955787181854248,-0.8091268539428711,0.0089899795129895,0.3919571042060852,-0.1880964636802673,5.488996505737305,4.1171875,2,G1,7.6,0,450.0,0.0880154067366102,[27300|0|0|0]
212,21200,0.795403242111206,-0.8088158965110779,0.0088459821417927,0.3828214406967163,-0.1808121800422668,5.510624885559082,4.1171875,2,G1,7.6,0,450.0,0.0884004023468738,[27400|0|0|0]
213,21300,0.7956960797309875,-0.8090806603431702,0.0092612234875559,0.3949679136276245,-0.185989037156105,5.5041022300720215,4.1171875,2,G1,7.6,0,450.0,0.0889733588317614,[27500|0|0|0]
214,21400,0.7954878211021423,-0.8087339997291565,0.0087932040914893,0.3837663233280182,-0.1779191941022873,5.509252071380615,4.1171875,2,G1,7.6,0,450.0,0.0895918953245339,[27600|0|0|0]
215,21500,0.7954677939414978,-0.8088123202323914,0.0085397129878401,0.3930034935474396,-0.1796293705701828,5.514422416687012,4.1171875,2,G1,7.6,0,450.0,0.0898579647290503,[27700|0|0|0]
216,21600,0.7954608798027039,-0.8089995384216309,0.008766459301114,0.3963277339935303,-0.1832166463136673,5.499226093292236,4.1171875,2,G1,7.6,0,450.0,0.0901520945410054,[27800|0|0|0]
217,21700,0.7955409288406372,-0.8090119957923889,0.0087493117898702,0.3959207832813263,-0.1841720193624496,5.497300148010254,4.1171875,2,G1,7.6,0,450.0,0.090234901978486,[27900|0|0|0]
218,21800,0.7956280708312988,-0.8091198801994324,0.0089268060401082,0.4009985029697418,-0.1841343343257904,5.487985610961914,4.1171875,2,G1,7.6,0,450.0,0.0904601506869998,[28000|0|0|0]
219,21900,0.795564591884613,-0.8090617656707764,0.0091163832694292,0.397483617067337,-0.1784242987632751,5.499141693115234,4.1171875,2,G1,7.6,0,450.0,0.0906683486720772,[28100|0|0|0]
220,22000,0.7954918146133423,-0.8088733553886414,0.0089990813285112,0.390478104352951,-0.1817991733551025,5.504765510559082,4.1171875,2,G1,7.6,0,450.0,0.090901918171308,[28200|0|0|0]
221,22100,0.795543909072876,-0.8089585304260254,0.0093053942546248,0.3901698887348175,-0.1849875599145889,5.491482257843018,4.1171875,2,G1,7.6,0,450.0,0.0912240923918964,[28300|0|0|0]
222,22200,0.7954888343811035,-0.8091561794281006,0.0092269191518425,0.3961676657199859,-0.1853020936250686,5.488580703735352,4.1171875,2,G1,7.6,0,450.0,0.0914437664491992,[28400|0|0|0]
223,22300,0.7956055402755737,-0.8090794086456299,0.0090461410582065,0.39822918176651,-0.1988831013441085,5.501737117767334,4.12109375,2,G1,7.6,0,450.0,0.0916722281264755,[28500|0|0|0]
224,22400,0.7952788472175598,-0.8089478611946106,0.0090490393340587,0.3950046598911285,-0.1964135318994522,5.509963035583496,4.1171875,2,G1,7.6,0,450.0,0.0920244233649826,[28600|0|0|0]
225,22500,0.7952353358268738,-0.8086352348327637,0.0087759969756007,0.3873633742332458,-0.2006621360778808,5.49749755859375,4.1171875,2,G1,7.6,0,450.0,0.0924417728740915,[28700|0|0|0]
226,22600,0.7953549027442932,-0.8087289929389954,0.0087116500362753,0.390952467918396,-0.2070710211992263,5.512619972229004,4.1171875,2,G1,7.6,0,450.0,0.0926067800218939,[28800|0|0|0]
227,22700,0.795454204082489,-0.8088211417198181,0.0088907266035676,0.3979887366294861,-0.2141780257225036,5.524183750152588,4.1171875,2,G1,7.6,0,450.0,0.0928313252746332,[28900|0|0|0]
228,22800,0.7954920530319214,-0.8088122606277466,0.0090789142996072,0.3923120200634002,-0.217193141579628,5.528099536895752,4.1171875,2,G1,7.6,0,450.0,0.0930234867320335,[29000|0|0|0]
229,22900,0.795672595500946,-0.8089639544487,0.008998324163258,0.3937258124351501,-0.2163457721471786,5.514259338378906,4.1171875,2,G1,7.6,0,450.0,0.0932726881937342,[29100|0|0|0]
230,23000,0.7956287264823914,-0.8091626167297363,0.0091685568913817,0.3941479325294494,-0.2106961607933044,5.50080680847168,4.1171875,2,G1,7.6,0,450.0,0.0935379623432851,[29200|0|0|0]
231,23100,0.7955027222633362,-0.809067964553833,0.0091258464381098,0.3910594582557678,-0.2063546925783157,5.507083415985107,4.1171875,2,G1,7.6,0,450.0,0.0937012421045589,[29300|0|0|0]
232,23200,0.7956454753875732,-0.8087105751037598,0.0088320849463343,0.3837315440177917,-0.2074114829301834,5.493874549865723,4.1171875,2,G1,7.6,0,450.0,0.0941853923782893,[29400|0|0|0]
233,23300,0.795719563961029,-0.8090451955795288,0.0089163463562726,0.3959776759147644,-0.2101934105157852,5.505824089050293,4.1171875,2,G1,7.6,0,450.0,0.094538322916392,[29500|0|0|0]
234,23400,0.7957510948181152,-0.8090823888778687,0.0089928638190031,0.3905509114265442,-0.2117438912391662,5.506181240081787,4.1171875,2,G1,7.6,0,450.0,0.0946290558128116,[29600|0|0|0]
235,23500,0.7954889535903931,-0.8090581893920898,0.009342991746962,0.3848866820335388,-0.2087983936071396,5.497472763061523,4.1171875,2,G1,7.6,0,450.0,0.0950671119785261,[29700|0|0|0]
236,23600,0.7956766486167908,-0.8091337084770203,0.0090877870097756,0.3877392113208771,-0.2147783935070037,5.499497413635254,4.1171875,2,G1,7.6,0,450.0,0.0953927836122394,[29800|0|0|0]
237,23700,0.7956870198249817,-0.8091213703155518,0.0091979959979653,0.3860360085964203,-0.2134390026330948,5.482077598571777,4.1171875,2,G1,7.6,0,450.0,0.0955041649987704,[29900|0|0|0]
238,23800,0.7956287860870361,-0.8091136813163757,0.009033914655447,0.3835746347904205,-0.2195524722337722,5.467419147491455,4.1171875,2,G1,7.6,0,450.0,0.0956784434423773,[30000|0|0|0]
239,23900,0.7955957055091858,-0.8090139031410217,0.0090029956772923,0.3794440329074859,-0.2225371152162552,5.4892754554748535,4.1171875,2,G1,7.6,0,450.0,0.0957880153006166,[30100|0|0|0]
240,24000,0.795844554901123,-0.8091394305229187,0.0092092538252472,0.3851611912250519,-0.2308209985494613,5.484923362731934,4.1171875,2,G1,7.6,0,450.0,0.096134750887298,[30200|0|0|0]
241,24100,0.7957060933113098,-0.8086950182914734,0.0088649615645408,0.3686497807502746,-0.2213721722364425,5.499332904815674,4.1171875,2,G1,7.6,0,450.0,0.0967137249835183,[30300|0|0|0]
242,24200,0.7954599261283875,-0.8089717626571655,0.0087939733639359,0.3766033351421356,-0.2101824432611465,5.501241207122803,4.1171875,2,G1,7.6,0,450.0,0.0970908523499549,[30400|0|0|0]
243,24300,0.7953858375549316,-0.8089895844459534,0.0090289507061243,0.3725664317607879,-0.2063395380973816,5.493961811065674,4.1171875,2,G1,7.6,0,450.0,0.0973378768107158,[30500|0|0|0]
244,24400,0.7955717444419861,-0.8091809153556824,0.0090866684913635,0.3807414472103119,-0.2159130275249481,5.5005621910095215,4.1171875,2,G1,7.6,0,450.0,0.0976108241140638,[30600|0|0|0]
245,24500,0.7953992486000061,-0.8088924884796143,0.0088151069357991,0.3736529350280761,-0.2129087895154953,5.490989685058594,4.1171875,2,G1,7.6,0,450.0,0.0980429011405294,[30700|0|0|0]
246,24600,0.7955847978591919,-0.8089168667793274,0.00887240935117,0.3754688203334808,-0.2178917080163955,5.481354713439941,4.1171875,2,G1,7.6,0,450.0,0.0982386213384872,[30800|0|0|0]
247,24700,0.7955054640769958,-0.8090182542800903,0.008927627466619,0.3778400123119354,-0.2124961763620376,5.488410949707031,4.1171875,2,G1,7.6,0,450.0,0.0983787010107534,[30900|0|0|0]
248,24800,0.7955594658851624,-0.808934211730957,0.0090164197608828,0.3735333681106567,-0.2129655629396438,5.484580993652344,4.1171875,2,G1,7.6,0,450.0,0.0985123551048572,[31000|0|0|0]
249,24900,0.7956480383872986,-0.8088744878768921,0.0089200921356678,0.3782196640968323,-0.210336685180664,5.490630626678467,4.1171875,2,G1,7.6,0,450.0,0.0986561989029808,[31100|0|0|0]
250,25000,0.7954252362251282,-0.8090710043907166,0.0088353129103779,0.3860589861869812,-0.2040296494960785,5.514866352081299,4.1171875,2,G1,7.6,0,450.0,0.0989651439801616,[31200|0|0|0]
251,25100,0.7954062223434448,-0.8090938925743103,0.0088912667706608,0.3880959451198578,-0.2095432430505752,5.507956981658936,4.1171875,2,G1,7.6,0,450.0,0.09902851772177,[31300|0|0|0]
252,25200,0.7956440448760986,-0.8091807961463928,0.0091166123747825,0.3851369023323059,-0.2200095951557159,5.506752967834473,4.1171875,2,G1,7.6,0,450.0,0.0993674755792915,[31400|0|0|0]
253,25300,0.7956615090370178,-0.8089823722839355,0.00872085057199,0.3816238343715668,-0.2198544591665268,5.435503482818604,4.1171875,2,G1,7.6,0,450.0,0.0998105381376945,[31500|0|0|0]
254,25400,0.7956523895263672,-0.8091654777526855,0.0090114269405603,0.3822913467884063,-0.2106564193964004,5.49393892288208,4.1171875,2,G1,7.6,0,450.0,0.1001541155003542,[31600|0|0|0]
255,25500,0.7957819700241089,-0.809124767780304,0.0092052156105637,0.3810203075408935,-0.2145013660192489,5.470564365386963,4.1171875,2,G1,7.6,0,450.0,0.1003907638805895,[31700|0|0|0]
256,25600,0.7955825924873352,-0.8091311454772949,0.0091229351237416,0.3809119462966919,-0.2021470516920089,5.418057441711426,4.1171875,2,G1,7.6,0,450.0,0.1006065465390691,[31800|0|0|0]
257,25700,0.7957636117935181,-0.8088585138320923,0.0087460735812783,0.368435263633728,-0.2083795070648193,5.428594589233398,4.1171875,2,G1,7.6,0,450.0,0.1011056663897709,[31900|0|0|0]
258,25800,0.7955002188682556,-0.8088876605033875,0.008858541958034,0.3682718873023987,-0.1988493949174881,5.506764888763428,4.1171875,2,G1,7.6,0,450.0,0.101393545700066,[32000|0|0|0]
259,25900,0.7956166863441467,-0.8090380430221558,0.0088859936222434,0.3710280358791351,-0.2036617547273636,5.416688442230225,4.1171875,2,G1,7.6,0,450.0,0.1015857257426287,[32100|0|0|0]
260,26000,0.7955636978149414,-0.8090845346450806,0.0090007437393069,0.3723147511482239,-0.1945727318525314,5.434136390686035,4.1171875,2,G1,7.6,0,450.0,0.1017203988453464,[32200|0|0|0]
261,26100,0.7955389022827148,-0.8089384436607361,0.0092947576195001,0.3720813393592834,-0.1998713612556457,5.422107219696045,4.1171875,2,G1,7.6,0,450.0,0.1020496427608124,[32300|0|0|0]
262,26201,0.7954122424125671,-0.8090075254440308,0.0086966194212436,0.3784309923648834,-0.1951880753040313,5.43356990814209,4.1171875,2,G1,7.6,0,450.0,0.1026649348213028,[32400|0|0|0]
263,26300,0.7954097390174866,-0.8088129758834839,0.0086817387491464,0.3753863275051117,-0.191990241408348,5.43790864944458,4.1171875,2,G1,7.6,0,450.0,0.1028600687058488,[32500|0|0|0]
264,26400,0.7954030632972717,-0.8089175820350647,0.008793762885034,0.3804777264595032,-0.1888237744569778,5.428877830505371,4.1171875,2,G1,7.6,0,450.0,0.1030134845433959,[32600|0|0|0]
265,26500,0.7957377433776855,-0.8091217875480652,0.0090137729421257,0.3894363939762115,-0.1947848796844482,5.432278156280518,4.1171875,2,G1,7.6,0,450.0,0.1034630566432721,[32700|0|0|0]
266,26600,0.7956297993659973,-0.8089766502380371,0.0088649112731218,0.3850359618663788,-0.1891402751207351,5.4705586433410645,4.1171875,2,G1,7.6,0,450.0,0.1036973140762815,[32800|0|0|0]
267,26701,0.79533851146698,-0.8088496327400208,0.0087883230298757,0.3795940279960632,-0.184319719672203,5.461540699005127,4.1171875,2,G1,7.6,0,450.0,0.1040241899608613,[32900|0|0|0]
268,26800,0.7956644892692566,-0.8092004060745239,0.0092093106359243,0.3898728191852569,-0.1945629119873047,5.462414741516113,4.1171875,2,G1,7.6,0,450.0,0.1046617901680617,[33000|0|0|0]
269,26900,0.7957587838172913,-0.8091700077056885,0.0091577358543872,0.3931354284286499,-0.1959638595581054,5.468125820159912,4.1171875,2,G1,7.6,0,450.0,0.1047734838595019,[33100|0|0|0]
270,27001,0.7957706451416016,-0.8093099594116211,0.0092293713241815,0.3945397138595581,-0.1996855437755584,5.474418640136719,4.1171875,2,G1,7.6,0,450.0,0.1049311506332384,[33200|0|0|0]
271,27101,0.7953952550888062,-0.8090077042579651,0.008950799703598,0.3909873366355896,-0.1937975436449051,5.466822147369385,4.1171875,2,G1,7.6,0,450.0,0.105487817515174,[33300|0|0|0]
272,27201,0.7956294417381287,-0.8092111349105835,0.0089473845437169,0.396721601486206,-0.2045955657958984,5.457149028778076,4.1171875,2,G1,7.6,0,450.0,0.1057980417573967,[33400|0|0|0]
273,27301,0.7955642342567444,-0.8089463710784912,0.008890138939023,0.3919851779937744,-0.2003244012594223,5.431766033172607,4.1171875,2,G1,7.6,0,450.0,0.1060766615012582,[33500|0|0|0]
274,27401,0.7955533266067505,-0.8089101314544678,0.0087417084723711,0.3925719559192657,-0.2048863023519516,5.43245792388916,4.1171875,2,G1,7.6,0,450.0,0.1062298407772986,[33600|0|0|0]
275,27500,0.7956560850143433,-0.8093623518943787,0.0091878101229667,0.39603191614151,-0.2074554115533828,5.445782661437988,4.1171875,2,G1,7.6,0,450.0,0.1068733229443151,[33700|0|0|0]
276,27600,0.7954844236373901,-0.8091453313827515,0.0091392891481518,0.3902588486671448,-0.1967172771692276,5.4550604820251465,4.1171875,2,G1,7.6,0,450.0,0.1071542496532649,[33800|0|0|0]
277,27701,0.7953993678092957,-0.8088805675506592,0.0087827118113636,0.3792364299297333,-0.1936160326004028,5.473962783813477,4.1171875,2,G1,7.6,0,450.0,0.1076064462673478,[33900|0|0|0]
278,27801,0.7956396341323853,-0.809190034866333,0.0090257562696933,0.3841982781887054,-0.2017530053853988,5.462947845458984,4.1171875,2,G1,7.6,0,450.0,0.1080674978200034,[34000|0|0|0]
279,27900,0.7956280708312988,-0.8091834783554077,0.0091787781566381,0.3797944486141205,-0.2018734067678451,5.441141128540039,4.1171875,2,G1,7.6,0,450.0,0.108221095982921,[34100|0|0|0]
280,28000,0.7959324717521667,-0.8089939951896667,0.0089281154796481,0.3763555288314819,-0.2185347080230713,5.459743022918701,4.1171875,2,G1,7.6,0,450.0,0.1086585837751624,[34200|0|0|0]
281,28100,0.795573353767395,-0.8090137839317322,0.0089437700808048,0.3783427476882934,-0.2022760063409805,5.455395698547363,4.1171875,2,G1,7.6,0,450.0,0.1090185870915866,[34300|0|0|0]
282,28200,0.7958899140357971,-0.8092390894889832,0.0090379267930984,0.3829423785209656,-0.2126435488462448,5.464573383331299,4.1171875,2,G1,7.6,0,450.0,0.1094183851457701,[34400|0|0|0]
283,28300,0.7955485582351685,-0.8092191815376282,0.0090187992900609,0.379715234041214,-0.2047881633043289,5.487102508544922,4.1171875,2,G1,7.6,0,450.0,0.1097608555394138,[34500|0|0|0]
284,28400,0.7954885363578796,-0.8089175224304199,0.0086849629878997,0.3716231286525726,-0.2039787769317627,5.479536056518555,4.1171875,2,G1,7.6,0,450.0,0.1102147801139365,[34600|0|0|0]
285,28500,0.7954623103141785,-0.8089498281478882,0.0087562398985028,0.3750701248645782,-0.2070045173168182,5.4818878173828125,4.1171875,2,G1,7.6,0,450.0,0.1102973141234991,[34700|0|0|0]
286,28600,0.795665979385376,-0.8092037439346313,0.0091872103512287,0.3865474760532379,-0.2072298675775528,5.483777523040772,4.1171875,2,G1,7.6,0,450.0,0.1108373973100941,[34800|0|0|0]
287,28700,0.7955209016799927,-0.8089428544044495,0.008814095519483,0.3771912753582001,-0.2038631588220596,5.485164642333984,4.1171875,2,G1,7.6,0,450.0,0.1113152315546041,[34900|0|0|0]
288,28800,0.7957639694213867,-0.8091986775398254,0.0091829663142561,0.3776189684867859,-0.2086207121610641,5.460572242736816,4.1171875,2,G1,7.6,0,450.0,0.1118257147244897,[35000|0|0|0]
289,28900,0.7954253554344177,-0.8090536594390869,0.0087852329015731,0.369700163602829,-0.2060150951147079,5.428651809692383,4.1171875,2,G1,7.6,0,450.0,0.1123678231539366,[35100|0|0|0]
290,29000,0.7956348061561584,-0.8090692162513733,0.0091471429914236,0.370790421962738,-0.2158437669277191,5.4331560134887695,4.1171875,2,G1,7.6,0,450.0,0.1127862613601054,[35200|0|0|0]
291,29100,0.7955896854400635,-0.8092528581619263,0.0090547483414411,0.3794571459293365,-0.2160399854183197,5.436806678771973,4.1171875,2,G1,7.6,0,450.0,0.1129967298890542,[35300|0|0|0]
292,29200,0.7955790758132935,-0.8089902997016907,0.0089959586039185,0.3704009354114532,-0.2157631814479828,5.450107097625732,4.1171875,2,G1,7.6,0,450.0,0.1132659987926793,[35400|0|0|0]
293,29300,0.7956801056861877,-0.8091175556182861,0.0090888263657689,0.3706647753715515,-0.2213067561388015,5.462114810943604,4.1171875,2,G1,7.6,0,450.0,0.1134531498672599,[35500|0|0|0]
294,29400,0.7956767082214355,-0.8090210556983948,0.0090061966329813,0.3679554760456085,-0.2283876985311508,5.464256763458252,4.1171875,2,G1,7.6,0,450.0,0.1135802382225343,[35600|0|0|0]
295,29500,0.7956340909004211,-0.8091062903404236,0.0091336201876401,0.3696922361850738,-0.225578024983406,5.444952011108398,4.1171875,2,G1,7.6,0,450.0,0.1137393543516165,[35700|0|0|0]
296,29600,0.7956591844558716,-0.8090668320655823,0.0090617947280406,0.3673919439315796,-0.224329873919487,5.43683385848999,4.1171875,2,G1,7.6,0,450.0,0.1138250604693986,[35800|0|0|0]
297,29700,0.7957358956336975,-0.8090466260910034,0.0092536257579922,0.3704647421836853,-0.2320530712604522,5.447754859924316,4.1171875,2,G1,7.6,0,450.0,0.1140326466689987,[35900|0|0|0]
298,29800,0.7957762479782104,-0.8090062141418457,0.0090931709855794,0.3717249631881714,-0.2305037230253219,5.451189041137695,4.1171875,2,G1,7.6,0,450.0,0.1142029615871135,[36000|0|0|0]
299,29900,0.795651376247406,-0.8090341687202454,0.0089736208319664,0.374485045671463,-0.2244485914707183,5.450384616851807,4.1171875,2,G1,7.6,0,450.0,0.1143780805376485,[36100|0|0|0]
300,30000,0.795582115650177,-0.808976948261261,0.0089646112173795,0.3776764273643493,-0.2171129733324051,5.443722248077393,4.1171875,2,G1,7.6,0,450.0,0.1144683710931342,[36200|0|0|0]
301,30100,0.7954670786857605,-0.8090162873268127,0.0087281037122011,0.3785314261913299,-0.2189626395702362,5.456245422363281,4.1171875,2,G1,7.6,0,450.0,0.1147342975214304,[36300|0|0|0]
302,30200,0.7956559062004089,-0.8093152642250061,0.0092820068821311,0.3839475512504577,-0.2194108814001083,5.44967794418335,4.1171875,2,G1,7.6,0,450.0,0.1153914517937288,[36400|0|0|0]
303,30300,0.7952921390533447,-0.8091058135032654,0.008811704814434,0.3793348968029022,-0.2089171260595321,5.463897228240967,4.1171875,2,G1,7.6,0,450.0,0.1160218327713932,[36500|0|0|0]
304,30400,0.79571932554245,-0.8091199398040771,0.0086553236469626,0.3787022531032562,-0.2262851744890213,5.446802139282227,4.1171875,2,G1,7.6,0,450.0,0.1164769623335933,[36600|0|0|0]
305,30500,0.7954350113868713,-0.8091017007827759,0.0086707174777984,0.3792481422424316,-0.2141961902379989,5.431130409240723,4.1171875,2,G1,7.6,0,450.0,0.1167622764955064,[36700|0|0|0]
306,30600,0.7954374551773071,-0.8089887499809265,0.008594355545938,0.3773050904273987,-0.2110161483287811,5.439567565917969,4.1171875,2,G1,7.6,0,450.0,0.1168986399817759,[36800|0|0|0]
307,30700,0.7955426573753357,-0.8089771270751953,0.0087263695895671,0.3762506544589996,-0.2135981172323227,5.458995819091797,4.1171875,2,G1,7.6,0,450.0,0.1170678448934155,[36900|0|0|0]
308,30800,0.7953168749809265,-0.8089503049850464,0.0087285051122307,0.3751075863838196,-0.2117837369441986,5.447196960449219,4.1171875,2,G1,7.6,0,450.0,0.1172952249158497,[37000|0|0|0]
309,30900,0.7954723238945007,-0.8089549541473389,0.0086827808991074,0.3780579566955566,-0.2187422960996627,5.440701007843018,4.1171875,2,G1,7.6,0,450.0,0.1174573257582508,[37100|0|0|0]
310,31000,0.7956234216690063,-0.8091585040092468,0.0089806411415338,0.3892272412776947,-0.2193278223276138,5.44220495223999,4.1171875,2,G1,7.6,0,450.0,0.1178484572038821,[37200|0|0|0]
311,31100,0.7955527901649475,-0.8091753125190735,0.009279865771532,0.3872164785861969,-0.2197866439819336,5.44476842880249,4.1171875,2,G1,7.6,0,450.0,0.1181563641940037,[37300|0|0|0]
312,31200,0.7956045866012573,-0.8090176582336426,0.0091992681846022,0.3829091489315033,-0.2214147299528122,5.4446702003479,4.1171875,2,G1,7.6,0,450.0,0.1183408464846119,[37400|0|0|0]
313,31300,0.7959379553794861,-0.8090552091598511,0.0092370864003896,0.3859681189060211,-0.2280902564525604,5.437600612640381,4.1171875,2,G1,7.6,0,450.0,0.1186784483681999,[37500|0|0|0]
314,31400,0.7957181930541992,-0.8087158203125,0.0086196577176451,0.3721568882465362,-0.223573699593544,5.416933536529541,4.1171875,2,G1,7.6,0,450.0,0.1194164852558942,[37600|0|0|0]
315,31500,0.7956739664077759,-0.8089938163757324,0.0090294992551207,0.3850547075271606,-0.2115508764982223,5.424469470977783,4.1171875,2,G1,7.6,0,450.0,0.1199136853094611,[37700|0|0|0]
316,31600,0.7955461740493774,-0.8092483878135681,0.0089176725596189,0.3877713084220886,-0.2020882964134216,5.4074788093566895,4.1171875,2,G1,7.6,0,450.0,0.1202196962792867,[37800|0|0|0]
317,31700,0.7954185605049133,-0.8088763356208801,0.0087901623919606,0.3764724731445312,-0.1992916166782379,5.418200969696045,4.1171875,2,G1,7.6,0,450.0,0.1206331777101526,[37900|0|0|0]
318,31800,0.7956029772758484,-0.8091447353363037,0.0089339297264814,0.3856642544269562,-0.2025220245122909,5.424316883087158,4.1171875,2,G1,7.6,0,450.0,0.1209891510225185,[38000|0|0|0]
319,31900,0.7953073382377625,-0.808938205242157,0.0088286837562918,0.380481481552124,-0.1914699077606201,5.4290924072265625,4.1171875,2,G1,7.6,0,450.0,0.1213648288563999,[38100|0|0|0]
320,32000,0.7955537438392639,-0.8089824914932251,0.0089568058028817,0.3813553154468536,-0.2072744369506836,5.432862758636475,4.1171875,2,G1,7.6,0,450.0,0.1216460623026814,[38200|0|0|0]
321,32100,0.7956820726394653,-0.8091421127319336,0.008976761251688,0.3807888925075531,-0.2140332609415054,5.4291510581970215,4.1171875,2,G1,7.6,0,450.0,0.1218518423812726,[38300|0|0|0]
322,32200,0.7954950928688049,-0.8092424869537354,0.008896354585886,0.3828369677066803,-0.2143400162458419,5.42450475692749,4.1171875,2,G1,7.6,0,450.0,0.1220787821330657,[38400|0|0|0]
323,32300,0.7955175638198853,-0.809057891368866,0.0089874882251024,0.3725178241729736,-0.212310329079628,5.444159984588623,4.1171875,2,G1,7.6,0,450.0,0.1222858710361788,[38500|0|0|0]
324,32400,0.7956745624542236,-0.8092743158340454,0.009124687872827,0.3753098845481872,-0.2163416743278503,5.440854549407959,4.1171875,2,G1,7.6,0,450.0,0.1225863903594312,[38600|0|0|0]
