time.ms,stateEstimate.x,stateEstimate.y,stateEstimate.z,stabilizer.roll,stabilizer.pitch,stabilizer.yaw,pm.vbat,drone_id,node_name,wind_speed,global_wind_direction,relative_wind_direction,travel_dist,waiting_time
0,1.2525354623794556,1.074278712272644,-0.03387542814016342,0.10636921226978302,1.0652732849121094,0.17152374982833862,4.12109375,2,"['A1', 'B2', 'F2']",7.6,180,0,0.08454977728024696,[100|0|0]
100,1.2524898052215576,1.0747137069702148,-0.03380132466554642,0.09072373062372208,1.0659757852554321,0.18074098229408264,4.12109375,2,"['A1', 'B2', 'F2']",7.6,180,0,0.08499339455666025,[200|0|0]
200,1.2523376941680908,1.0740998983383179,-0.03415384888648987,0.10242084413766861,1.068286418914795,0.18198087811470032,4.12109375,2,"['A1', 'B2', 'F2']",7.6,180,0,0.08571739188782232,[300|0|0]
300,1.2524635791778564,1.0744086503982544,-0.03380735591053963,0.0933321863412857,1.059934377670288,0.1582360416650772,4.12109375,2,"['A1', 'B2', 'F2']",7.6,180,0,0.08619825803612306,[400|0|0]
400,1.252217411994934,1.0744190216064453,-0.0338793583214283,0.09352441132068634,1.0768085718154907,0.17264635860919952,4.12109375,2,"['A1', 'B2', 'F2']",7.6,180,0,0.08645494888341032,[500|0|0]
500,1.2524850368499756,1.0742368698120117,-0.03406625986099243,0.09837684035301208,1.0686224699020386,0.1441105455160141,4.12109375,2,"['A1', 'B2', 'F2']",7.6,180,0,0.0868287596975166,[600|0|0]
600,1.2523664236068726,1.0743621587753296,-0.03387116640806198,0.09523063153028488,1.0760090351104736,0.1117376759648323,4.12109375,2,"['A1', 'B2', 'F2']",7.6,180,0,0.08708919756178563,[700|0|0]
700,1.2521133422851562,1.0741286277770996,-0.03397112339735031,0.09816482663154602,1.085595965385437,0.11212396621704102,4.12109375,2,"['A1', 'B2', 'F2']",7.6,180,0,0.08744777570144775,[800|0|0]
800,1.2527105808258057,1.074495553970337,-0.03390651196241379,0.088777557015419,1.0700922012329102,0.09929439425468445,4.1171875,2,"['A1', 'B2', 'F2']",7.6,180,0,0.08815169568500072,[900|0|0]
900,1.2523059844970703,1.0743151903152466,-0.03383730724453926,0.10346852242946625,1.079667329788208,0.12496303766965866,4.12109375,2,"['A1', 'B2', 'F2']",7.6,180,0,0.08860004658583595,[1000|0|0]
1000,1.2522332668304443,1.074532389640808,-0.033928003162145615,0.10439340025186539,1.0777432918548584,0.11053020507097244,4.12109375,2,"['A1', 'B2', 'F2']",7.6,180,0,0.08884639827658389,[1100|0|0]
1100,1.2521332502365112,1.0744496583938599,-0.033884480595588684,0.11193850636482239,1.0743955373764038,0.10763288289308548,4.1171875,2,"['A1', 'B2', 'F2']",7.6,180,0,0.08898329967205995,[1200|0|0]
1200,1.2525463104248047,1.0745744705200195,-0.03402537479996681,0.1115514487028122,1.062034010887146,0.0958036333322525,4.12109375,2,"['A1', 'B2', 'F2']",7.6,180,0,0.089437224735057,[1300|0|0]
1300,1.2525075674057007,1.0743213891983032,-0.03384872153401375,0.12134022265672684,1.0653282403945923,0.11950541287660599,4.12109375,2,"['A1', 'B2', 'F2']",7.6,180,0,0.08974828349687355,[1400|0|0]
1400,1.252657413482666,1.074401617050171,-0.03423062339425087,0.11594013124704361,1.067740797996521,0.09687838703393936,4.1171875,2,"['A1', 'B2', 'F2']",7.6,180,0,0.09016630190059494,[1500|0|0]
1500,1.2523351907730103,1.0748825073242188,-0.03405745327472687,0.10068126767873764,1.0712401866912842,0.11079490929841995,4.12109375,2,"['A1', 'B2', 'F2']",7.6,180,0,0.09077051280796725,[1600|0|0]
1600,1.2520939111709595,1.0745666027069092,-0.03401618078351021,0.11111819744110107,1.0758121013641357,0.12381605803966522,4.12109375,2,"['A1', 'B2', 'F2']",7.6,180,0,0.0911701563893426,[1700|0|0]
1700,1.2523385286331177,1.074701189994812,-0.03429882228374481,0.10837160795927048,1.0716524124145508,0.1346026360988617,4.12109375,2,"['A1', 'B2', 'F2']",7.6,180,0,0.09156744426798054,[1800|0|0]
1800,1.252251148223877,1.0741826295852661,-0.033794891089200974,0.11772877722978592,1.0655577182769775,0.14207708835601807,4.12109375,2,"['A1', 'B2', 'F2']",7.6,180,0,0.09229578957283385,[1900|0|0]
1900,1.2522013187408447,1.074404001235962,-0.034323301166296005,0.10844101011753082,1.068962574005127,0.1317184418439865,4.12109375,2,"['A1', 'B2', 'F2']",7.6,180,0,0.09287085965089967,[2000|0|0]
2000,1.2521759271621704,1.0747170448303223,-0.03391725942492485,0.10360614210367203,1.0721087455749512,0.12535732984542847,4.12109375,2,"['A1', 'B2', 'F2']",7.6,180,0,0.09338419279805982,[2100|0|0]
2100,1.2523033618927002,1.074446439743042,-0.0339568667113781,0.10892666131258011,1.0758949518203735,0.13482488691806793,4.12109375,2,"['A1', 'B2', 'F2']",7.6,180,0,0.09368591363086284,[2200|0|0]
2200,1.2522810697555542,1.0742230415344238,-0.033897072076797485,0.11477698385715485,1.075859785079956,0.09724989533424377,4.12109375,2,"['A1', 'B2', 'F2']",7.6,180,0,0.09391824765186918,[2300|0|0]
2300,1.2522799968719482,1.074617624282837,-0.03404177352786064,0.1044444665312767,1.0793732404708862,0.11638066917657852,4.12109375,2,"['A1', 'B2', 'F2']",7.6,180,0,0.09433852756616945,[2400|0|0]
2400,1.252058744430542,1.0740323066711426,-0.03403288125991821,0.12264276295900345,1.0769003629684448,0.14237485826015472,4.12109375,2,"['A1', 'B2', 'F2']",7.6,180,0,0.09496432978877412,[2500|0|0]
2500,1.2521674633026123,1.074517846107483,-0.03387242928147316,0.1072906032204628,1.0773375034332275,0.15743568539619446,4.12109375,2,"['A1', 'B2', 'F2']",7.6,180,0,0.0954871234141875,[2600|0|0]
2600,1.25225031375885,1.0743049383163452,-0.033676497638225555,0.11130873113870621,1.0687185525894165,0.17859433591365814,4.1171875,2,"['A1', 'B2', 'F2']",7.6,180,0,0.09578809373573374,[2700|0|0]
2700,1.252432107925415,1.0743190050125122,-0.03385794162750244,0.11566387116909027,1.055848240852356,0.18844054639339447,4.1171875,2,"['A1', 'B2', 'F2']",7.6,180,0,0.09604532692212851,[2800|0|0]
2800,1.2522715330123901,1.0744560956954956,-0.034112799912691116,0.115742526948452,1.058642029762268,0.17268213629722595,4.1171875,2,"['A1', 'B2', 'F2']",7.6,180,0,0.09637628145614055,[2900|0|0]
2900,1.2523114681243896,1.0741267204284668,-0.03390108048915863,0.11689344048500061,1.05612313747406,0.19270549714565277,4.1171875,2,"['A1', 'B2', 'F2']",7.6,180,0,0.09676986498476141,[3000|0|0]
3000,1.2524775266647339,1.0742741823196411,-0.03418603911995888,0.11108537018299103,1.0544650554656982,0.18307112157344818,4.1171875,2,"['A1', 'B2', 'F2']",7.6,180,0,0.09713114309015601,[3100|0|0]
3100,1.2528841495513916,1.0742912292480469,-0.034049175679683685,0.1020210012793541,1.0430552959442139,0.1639883667230606,4.1171875,2,"['A1', 'B2', 'F2']",7.6,180,0,0.09756051981403131,[3200|0|0]
3200,1.2524635791778564,1.0742645263671875,-0.03398139774799347,0.10084517300128937,1.0625662803649902,0.1479281485080719,4.1171875,2,"['A1', 'B2', 'F2']",7.6,180,0,0.09798735272157932,[3300|0|0]
3300,1.252156376838684,1.074270486831665,-0.034279003739356995,0.10513561218976974,1.067877173423767,0.15965086221694946,4.12109375,2,"['A1', 'B2', 'F2']",7.6,180,0,0.09841511215213022,[3400|0|0]
3400,1.2521886825561523,1.0742381811141968,-0.033949125558137894,0.1084289401769638,1.067315936088562,0.12549322843551636,4.1171875,2,"['A1', 'B2', 'F2']",7.6,180,0,0.09874813907777844,[3500|0|0]
3500,1.2521833181381226,1.0742640495300293,-0.0338686928153038,0.1084265261888504,1.0672767162322998,0.13871286809444427,4.1171875,2,"['A1', 'B2', 'F2']",7.6,180,0,0.09883279944653676,[3600|0|0]
3600,1.2523173093795776,1.0744421482086182,-0.03408275544643402,0.10433875769376755,1.060810923576355,0.14104273915290833,4.1171875,2,"['A1', 'B2', 'F2']",7.6,180,0,0.09914182307370492,[3700|0|0]
3700,1.2521518468856812,1.0745794773101807,-0.03413081169128418,0.09902187436819077,1.068408489227295,0.16793151199817657,4.1171875,2,"['A1', 'B2', 'F2']",7.6,180,0,0.09936215582590374,[3800|0|0]
3800,1.2522237300872803,1.0741634368896484,-0.03409066051244736,0.10982879251241684,1.0672547817230225,0.1476910412311554,4.12109375,2,"['A1', 'B2', 'F2']",7.6,180,0,0.09978626541474932,[3900|0|0]
3900,1.252485752105713,1.0742851495742798,-0.033923421055078506,0.10216284543275833,1.066314458847046,0.1375214159488678,4.1171875,2,"['A1', 'B2', 'F2']",7.6,180,0,0.10012008954785641,[4000|0|0]
4000,1.252363681793213,1.0743615627288818,-0.03439771384000778,0.10312630236148834,1.0720335245132446,0.1806611567735672,4.12109375,2,"['A1', 'B2', 'F2']",7.6,180,0,0.1006157646200822,[4100|0|0]
4100,1.2525582313537598,1.074487566947937,-0.034029584378004074,0.10462424904108047,1.0645864009857178,0.16064931452274323,4.1171875,2,"['A1', 'B2', 'F2']",7.6,180,0,0.10105078863726266,[4200|0|0]
4200,1.252347469329834,1.0746548175811768,-0.03385336697101593,0.10198631882667542,1.073548674583435,0.1573028564453125,4.12109375,2,"['A1', 'B2', 'F2']",7.6,180,0,0.10137241882796934,[4300|0|0]
4300,1.2524968385696411,1.0745999813079834,-0.03398369252681732,-0.04547109082341194,-0.026110490784049034,0.4581979215145111,4.12109375,2,"['A1', 'B2', 'F2']",7.6,180,0,0.10157809560632129,[4400|0|0]
4400,1.2531641721725464,1.0743836164474487,-0.03401406854391098,0.08013036102056503,0.20737263560295105,0.46897441148757935,4.1171875,2,"['A1', 'B2', 'F2']",7.6,180,0,0.10228028546159919,[4500|0|0]
4500,1.2529666423797607,1.0739868879318237,-0.03408440575003624,0.20299284160137177,0.570200502872467,0.44900059700012207,4.1171875,2,"['A1', 'B2', 'F2']",7.6,180,0,0.10272901573326967,[4600|0|0]
4600,1.2527166604995728,1.0742369890213013,-0.033908501267433167,0.1615879237651825,0.7887164354324341,0.39926502108573914,4.1171875,2,"['A1', 'B2', 'F2']",7.6,180,0,0.10312396368221995,[4700|0|0]
4700,1.2528237104415894,1.074246883392334,-0.03406956419348717,0.16156482696533203,0.896104633808136,0.3863546848297119,4.1171875,2,"['A1', 'B2', 'F2']",7.6,180,0,0.10331760989264754,[4800|0|0]
4800,1.252347469329834,1.0742087364196777,-0.03404644876718521,0.16395047307014465,0.9982763528823853,0.3457369804382324,4.1171875,2,"['A1', 'B2', 'F2']",7.6,180,0,0.10379593521184145,[4900|0|0]
4900,1.2526779174804688,1.0742864608764648,-0.03407398611307144,0.16067324578762054,1.0132756233215332,0.3036375045776367,4.1171875,2,"['A1', 'B2', 'F2']",7.6,180,0,0.10413651615208804,[5000|0|0]
5000,1.2522767782211304,1.0744842290878296,-0.033869192004203796,0.14202648401260376,1.0582380294799805,0.2273305058479309,4.1171875,2,"['A1', 'B2', 'F2']",7.6,180,0,0.10462841613972358,[5100|0|0]
5100,1.2523671388626099,1.0744571685791016,-0.03387792408466339,0.13805639743804932,1.0653914213180542,0.21303895115852356,4.1171875,2,"['A1', 'B2', 'F2']",7.6,180,0,0.10472314504708748,[5200|0|0]
5200,1.2522720098495483,1.0744366645812988,-0.03409434109926224,0.12683044373989105,1.084691047668457,0.20298007130622864,4.1171875,2,"['A1', 'B2', 'F2']",7.6,180,0,0.10496043446374956,[5300|0|0]
5300,1.252233624458313,1.0746512413024902,-0.033840011805295944,0.11943264305591583,1.0894666910171509,0.1749282330274582,4.1171875,2,"['A1', 'B2', 'F2']",7.6,180,0,0.1052953971442185,[5400|0|0]
5400,1.2523016929626465,1.0743522644042969,-0.03393055871129036,0.11804177612066269,1.0921300649642944,0.1605660319328308,4.1171875,2,"['A1', 'B2', 'F2']",7.6,180,0,0.10561511459622994,[5500|0|0]
5500,1.2522876262664795,1.0746797323226929,-0.03399541974067688,0.10465490072965622,1.0918691158294678,0.15883862972259521,4.1171875,2,"['A1', 'B2', 'F2']",7.6,180,0,0.10594924041482638,[5600|0|0]
5600,1.2522270679473877,1.0743300914764404,-0.03418822959065437,0.1196519285440445,1.084101915359497,0.16694164276123047,4.1171875,2,"['A1', 'B2', 'F2']",7.6,180,0,0.1063530865112885,[5700|0|0]
5700,1.252272367477417,1.0747835636138916,-0.034012142568826675,0.10223545879125595,1.0862312316894531,0.15309077501296997,4.1171875,2,"['A1', 'B2', 'F2']",7.6,180,0,0.10684165141600593,[5800|0|0]
5800,1.2521312236785889,1.0741561651229858,-0.034457795321941376,0.11968453228473663,1.0834715366363525,0.1637253761291504,4.1171875,2,"['A1', 'B2', 'F2']",7.6,180,0,0.10762405592436282,[5900|0|0]
5900,1.2521623373031616,1.0744128227233887,-0.03390807658433914,0.11716720461845398,1.077846884727478,0.13892079889774323,4.1171875,2,"['A1', 'B2', 'F2']",7.6,180,0,0.10823153585979245,[6000|0|0]
6000,1.2523006200790405,1.0741981267929077,-0.033822737634181976,0.11678104847669601,1.0720547437667847,0.1485593169927597,4.1171875,2,"['A1', 'B2', 'F2']",7.6,180,0,0.10850079262402278,[6100|0|0]
6100,1.252266764640808,1.0744587182998657,-0.03409331291913986,0.10274617373943329,1.0732066631317139,0.13878214359283447,4.1171875,2,"['A1', 'B2', 'F2']",7.6,180,0,0.10887797309677633,[6200|0|0]
6200,1.2522178888320923,1.0742506980895996,-0.03397974371910095,0.10590104013681412,1.0778859853744507,0.16525860130786896,4.1171875,2,"['A1', 'B2', 'F2']",7.6,180,0,0.1091199632117692,[6300|0|0]
6300,1.2519792318344116,1.074416995048523,-0.03408890962600708,0.09535835683345795,1.0914605855941772,0.14141684770584106,4.1171875,2,"['A1', 'B2', 'F2']",7.6,180,0,0.10943065443520453,[6400|0|0]
6400,1.2523798942565918,1.0741798877716064,-0.03392975777387619,0.0998772606253624,1.0849567651748657,0.16337445378303528,4.1171875,2,"['A1', 'B2', 'F2']",7.6,180,0,0.10992267023713648,[6500|0|0]
6500,1.2525221109390259,1.0743438005447388,-0.034221503883600235,0.0916520208120346,1.083831787109375,0.1292015165090561,4.1171875,2,"['A1', 'B2', 'F2']",7.6,180,0,0.11028627548255739,[6600|0|0]
6600,1.2520166635513306,1.074432373046875,-0.03392765298485756,0.08772270381450653,1.0970726013183594,0.11062299460172653,4.1171875,2,"['A1', 'B2', 'F2']",7.6,180,0,0.11087760491743659,[6700|0|0]
6700,1.252579927444458,1.074360966682434,-0.03405417129397392,0.08850826323032379,1.0789912939071655,0.11148014664649963,4.1171875,2,"['A1', 'B2', 'F2']",7.6,180,0,0.11145930240301256,[6800|0|0]
6800,1.2520676851272583,1.0740201473236084,-0.03431611880660057,0.10057055205106735,1.0945701599121094,0.11678743362426758,4.1171875,2,"['A1', 'B2', 'F2']",7.6,180,0,0.11212800751459147,[6900|0|0]
6900,1.2526047229766846,1.0742696523666382,-0.034182336181402206,0.10060804337263107,1.075624942779541,0.11882104724645615,4.1171875,2,"['A1', 'B2', 'F2']",7.6,180,0,0.11273509911313213,[7000|0|0]
7000,1.2522493600845337,1.0744984149932861,-0.03416585922241211,0.09211328625679016,1.0792616605758667,0.12379097938537598,4.1171875,2,"['A1', 'B2', 'F2']",7.6,180,0,0.11315804900927383,[7100|0|0]
7100,1.2524651288986206,1.074235200881958,-0.03417455032467842,0.10533609241247177,1.0637617111206055,0.125703364610672,4.1171875,2,"['A1', 'B2', 'F2']",7.6,180,0,0.1134985095573456,[7200|0|0]
7200,1.2525019645690918,1.0744218826293945,-0.033565323799848557,0.09890882670879364,1.051859736442566,0.14344874024391174,4.1171875,2,"['A1', 'B2', 'F2']",7.6,180,0,0.11413676021343715,[7300|0|0]
7300,1.2524336576461792,1.0745362043380737,-0.03407348319888115,0.09391984343528748,1.0607938766479492,0.14795993268489838,4.1171875,2,"['A1', 'B2', 'F2']",7.6,180,0,0.11466208036688481,[7400|0|0]
7400,1.251990795135498,1.0744494199752808,-0.033979687839746475,0.10164636373519897,1.0742682218551636,0.12645094096660614,4.1171875,2,"['A1', 'B2', 'F2']",7.6,180,0,0.11512301018625799,[7500|0|0]
7500,1.2522062063217163,1.0746979713439941,-0.03415568545460701,0.09888521581888199,1.0667272806167603,0.11039900779724121,4.1171875,2,"['A1', 'B2', 'F2']",7.6,180,0,0.11549604493326401,[7600|0|0]
7600,1.2525124549865723,1.0742400884628296,-0.03400080278515816,0.1133037731051445,1.0555037260055542,0.14236946403980255,4.1171875,2,"['A1', 'B2', 'F2']",7.6,180,0,0.11606826308998854,[7700|0|0]
7700,1.25258207321167,1.0745075941085815,-0.03394627943634987,0.10085483640432358,1.0589936971664429,0.11934465169906616,4.1171875,2,"['A1', 'B2', 'F2']",7.6,180,0,0.11635000546049781,[7800|0|0]
7800,1.252373456954956,1.0743519067764282,-0.03381935879588127,0.10558611899614334,1.0593756437301636,0.08238202333450317,4.1171875,2,"['A1', 'B2', 'F2']",7.6,180,0,0.11663960542067613,[7900|0|0]
7900,1.252256155014038,1.0745420455932617,-0.03404918685555458,0.10181822627782822,1.0630924701690674,0.10719756036996841,4.1171875,2,"['A1', 'B2', 'F2']",7.6,180,0,0.11696012601599437,[8000|0|0]
8000,1.2527483701705933,1.074232578277588,-0.03405144065618515,0.10835254937410355,1.052843689918518,0.11730561405420303,4.1171875,2,"['A1', 'B2', 'F2']",7.6,180,0,0.11754154742893878,[8100|0|0]
8100,1.25203275680542,1.0744541883468628,-0.03416061028838158,0.10881481319665909,1.0792012214660645,0.1315324753522873,4.1171875,2,"['A1', 'B2', 'F2']",7.6,180,0,0.11829860193147651,[8200|0|0]
8200,1.2524462938308716,1.0743305683135986,-0.03383755311369896,0.11521819978952408,1.065659999847412,0.13923309743404388,4.1171875,2,"['A1', 'B2', 'F2']",7.6,180,0,0.11883773152828747,[8300|0|0]
8300,1.252307653427124,1.0744906663894653,-0.03389118239283562,0.11262379586696625,1.0617557764053345,0.14546041190624237,4.1171875,2,"['A1', 'B2', 'F2']",7.6,180,0,0.11905620041629723,[8400|0|0]
8400,1.2524555921554565,1.0741963386535645,-0.03401570022106171,0.11657987534999847,1.0583913326263428,0.15751375257968903,4.1171875,2,"['A1', 'B2', 'F2']",7.6,180,0,0.11940836426027802,[8500|0|0]
8500,1.2522534132003784,1.0744776725769043,-0.03400867432355881,0.10918272286653519,1.059218406677246,0.14164704084396362,4.1171875,2,"['A1', 'B2', 'F2']",7.6,180,0,0.11975488189263458,[8600|0|0]
8600,1.2524060010910034,1.0743769407272339,-0.03369469940662384,0.11112099885940552,1.0542142391204834,0.1464444100856781,4.1171875,2,"['A1', 'B2', 'F2']",7.6,180,0,0.1201182139974199,[8700|0|0]
8700,1.2522469758987427,1.0742123126983643,-0.03391537442803383,0.1180977001786232,1.057286024093628,0.12200406193733215,4.1171875,2,"['A1', 'B2', 'F2']",7.6,180,0,0.12043615874849682,[8800|0|0]
8800,1.2523618936538696,1.0744740962982178,-0.03373219072818756,0.11518770456314087,1.0545011758804321,0.1385406106710434,4.1171875,2,"['A1', 'B2', 'F2']",7.6,180,0,0.1207757069946785,[8900|0|0]
8900,1.2523314952850342,1.0743757486343384,-0.033729974180459976,0.11330942064523697,1.0528130531311035,0.15257541835308075,4.1171875,2,"['A1', 'B2', 'F2']",7.6,180,0,0.12087866930284134,[9000|0|0]
9000,1.252076506614685,1.074524164199829,-0.03411763161420822,0.10497646778821945,1.0647660493850708,0.15381206572055817,4.1171875,2,"['A1', 'B2', 'F2']",7.6,180,0,0.12136582912058766,[9100|0|0]
9100,1.2524962425231934,1.0746442079544067,-0.03402281925082207,0.10981209576129913,1.0559325218200684,0.12461797893047333,4.1171875,2,"['A1', 'B2', 'F2']",7.6,180,0,0.12181257079108108,[9200|0|0]
9200,1.252023458480835,1.0743048191070557,-0.034284330904483795,0.12608937919139862,1.0711756944656372,0.14508655667304993,4.1171875,2,"['A1', 'B2', 'F2']",7.6,180,0,0.12245061301963334,[9300|0|0]
9300,1.2521950006484985,1.0742292404174805,-0.03438502922654152,0.12399186193943024,1.0645500421524048,0.14629967510700226,4.1171875,2,"['A1', 'B2', 'F2']",7.6,180,0,0.12266340166047175,[9400|0|0]
9400,1.2522879838943481,1.0746550559997559,-0.03372674062848091,0.11249186098575592,1.0586886405944824,0.14146718382835388,4.1171875,2,"['A1', 'B2', 'F2']",7.6,180,0,0.12345290066139186,[9500|0|0]
9500,1.252198576927185,1.0744338035583496,-0.033986784517765045,0.11588354408740997,1.0625665187835693,0.16957877576351166,4.1171875,2,"['A1', 'B2', 'F2']",7.6,180,0,0.12380584410297925,[9600|0|0]
9600,1.2521883249282837,1.0743290185928345,-0.033901989459991455,0.11461792886257172,1.0626260042190552,0.1729380041360855,4.1171875,2,"['A1', 'B2', 'F2']",7.6,180,0,0.12394102987997635,[9700|0|0]
9700,1.252289891242981,1.0741134881973267,-0.03405352681875229,0.11511044204235077,1.058011770248413,0.1854604035615921,4.1171875,2,"['A1', 'B2', 'F2']",7.6,180,0,0.12422339956455518,[9800|0|0]
9800,1.252239465713501,1.0745114088058472,-0.03426984325051308,0.09896998107433319,1.0677886009216309,0.186554953455925,4.1171875,2,"['A1', 'B2', 'F2']",7.6,180,0,0.12467911476438769,[9900|0|0]
9900,1.2521307468414307,1.074314832687378,-0.03428879380226135,0.10828593373298645,1.0697405338287354,0.16160200536251068,4.1171875,2,"['A1', 'B2', 'F2']",7.6,180,0,0.12490455009193915,[10000|0|0]
10000,1.252239465713501,1.0740171670913696,-0.03382902592420578,0.11157135665416718,1.0616490840911865,0.17329056560993195,4.1171875,2,"['A1', 'B2', 'F2']",7.6,180,0,0.12546295057714932,[10100|0|0]
10100,1.2524666786193848,1.0743675231933594,-0.03368255868554115,0.10050477832555771,1.061792254447937,0.16628943383693695,4.1171875,2,"['A1', 'B2', 'F2']",7.6,180,0,0.12590547487569534,[10200|0|0]
10200,1.2525067329406738,1.0743918418884277,-0.034139957278966904,0.10357721149921417,1.0666694641113281,0.12594279646873474,4.1171875,2,"['A1', 'B2', 'F2']",7.6,180,0,0.12636526746029367,[10300|0|0]
10300,1.2524442672729492,1.074463963508606,-0.03362693265080452,0.10061556100845337,1.0788713693618774,0.12788772583007812,4.1171875,2,"['A1', 'B2', 'F2']",7.6,180,0,0.12688708903597118,[10400|0|0]
10400,1.2522491216659546,1.0740619897842407,-0.03410875052213669,0.10756481438875198,1.08738112449646,0.11401493102312088,4.1171875,2,"['A1', 'B2', 'F2']",7.6,180,0,0.1275442139435378,[10500|0|0]
10500,1.252112627029419,1.0746243000030518,-0.03417068347334862,0.09237367659807205,1.090498447418213,0.1258390098810196,4.1171875,2,"['A1', 'B2', 'F2']",7.6,180,0,0.12812615832097274,[10600|0|0]
10600,1.2521417140960693,1.074416995048523,-0.03400617837905884,0.09916773438453674,1.0903013944625854,0.12444960325956345,4.1171875,2,"['A1', 'B2', 'F2']",7.6,180,0,0.12839239755111323,[10700|0|0]
10700,1.2522385120391846,1.0744746923446655,-0.033973969519138336,0.09481438994407654,1.0826951265335083,0.08922705799341202,4.1171875,2,"['A1', 'B2', 'F2']",7.6,180,0,0.12850959921676217,[10800|0|0]
10800,1.2525743246078491,1.0742359161376953,-0.03386632353067398,0.10140251368284225,1.0773483514785767,0.059908099472522736,4.1171875,2,"['A1', 'B2', 'F2']",7.6,180,0,0.12893547691883242,[10900|0|0]
10900,1.2524125576019287,1.074283242225647,-0.033840153366327286,0.09766896069049835,1.0835678577423096,0.05360701307654381,4.1171875,2,"['A1', 'B2', 'F2']",7.6,180,0,0.12910604420850777,[11000|0|0]
11000,1.2522836923599243,1.0745035409927368,-0.03389782831072807,0.0960259810090065,1.084990382194519,0.06014357507228851,4.1171875,2,"['A1', 'B2', 'F2']",7.6,180,0,0.12936770084723453,[11100|0|0]
11100,1.2520264387130737,1.0748189687728882,-0.03403931483626366,0.09000085294246674,1.10081946849823,0.06682337820529938,4.1171875,2,"['A1', 'B2', 'F2']",7.6,180,0,0.1297986214434205,[11200|0|0]
11200,1.2525451183319092,1.0746506452560425,-0.03412972390651703,0.09546355158090591,1.0887349843978882,0.05928477644920349,4.1171875,2,"['A1', 'B2', 'F2']",7.6,180,0,0.1303513737869729,[11300|0|0]
11300,1.2522172927856445,1.0746163129806519,-0.0338275320827961,0.09505075961351395,1.101294755935669,0.06129602715373039,4.1171875,2,"['A1', 'B2', 'F2']",7.6,180,0,0.13079855181890312,[11400|0|0]
11400,1.2522326707839966,1.0744959115982056,-0.03375992178916931,0.09409034252166748,1.094319224357605,0.050267621874809265,4.1171875,2,"['A1', 'B2', 'F2']",7.6,180,0,0.13093749111331832,[11500|0|0]
11500,1.2521995306015015,1.074591875076294,-0.03414688631892204,0.09279510378837585,1.0945019721984863,0.08363921195268631,4.1171875,2,"['A1', 'B2', 'F2']",7.6,180,0,0.13133755211880296,[11600|0|0]
11600,1.2526355981826782,1.0746320486068726,-0.033594947308301926,0.09395613521337509,1.0812422037124634,0.08244413137435913,4.1171875,2,"['A1', 'B2', 'F2']",7.6,180,0,0.13204211263384535,[11700|0|0]
11700,1.2523502111434937,1.0747604370117188,-0.034102849662303925,0.09865839034318924,1.0845460891723633,0.11085885018110275,4.1171875,2,"['A1', 'B2', 'F2']",7.6,180,0,0.13263868127686496,[11800|0|0]
11800,1.2526123523712158,1.0742639303207397,-0.03385944291949272,0.10980544984340668,1.0774047374725342,0.1032181829214096,4.1171875,2,"['A1', 'B2', 'F2']",7.6,180,0,0.13325063205912163,[11900|0|0]
11900,1.252239465713501,1.074662208557129,-0.0339403972029686,0.09903745353221893,1.0881679058074951,0.09080195426940918,4.1171875,2,"['A1', 'B2', 'F2']",7.6,180,0,0.1338021967507908,[12000|0|0]
12000,1.25229811668396,1.074491024017334,-0.03391138091683388,0.10591521859169006,1.0873206853866577,0.10822219401597977,4.1171875,2,"['A1', 'B2', 'F2']",7.6,180,0,0.13398546166249414,[12100|0|0]
12101,1.252328872680664,1.0747833251953125,-0.03391421586275101,0.09976356476545334,1.0813387632369995,0.10427428781986237,4.1171875,2,"['A1', 'B2', 'F2']",7.6,180,0,0.1342793901349143,[12200|0|0]
12200,1.2521361112594604,1.0743154287338257,-0.03380179405212402,0.11276903003454208,1.0810706615447998,0.11217380315065384,4.1171875,2,"['A1', 'B2', 'F2']",7.6,180,0,0.13479777486431996,[12300|0|0]
12301,1.2522262334823608,1.0741842985153198,-0.03384126350283623,0.11172021180391312,1.0802081823349,0.10661973059177399,4.1171875,2,"['A1', 'B2', 'F2']",7.6,180,0,0.1349617107871844,[12400|0|0]
12401,1.2523530721664429,1.0745155811309814,-0.0340215265750885,0.10467617958784103,1.0791072845458984,0.10102810710668564,4.1171875,2,"['A1', 'B2', 'F2']",7.6,180,0,0.13535961906610947,[12500|0|0]
12501,1.2523082494735718,1.074527382850647,-0.033816393464803696,0.10636696219444275,1.0812900066375732,0.10108114778995514,4.1171875,2,"['A1', 'B2', 'F2']",7.6,180,0,0.13556992348194136,[12600|0|0]
12601,1.2520720958709717,1.074661374092102,-0.034059636294841766,0.10692194104194641,1.08814537525177,0.07484637200832367,4.1171875,2,"['A1', 'B2', 'F2']",7.6,180,0,0.13593446326190042,[12700|0|0]
12701,1.2521753311157227,1.0743310451507568,-0.03366813063621521,0.11791065335273743,1.0904765129089355,0.08275342732667923,4.1171875,2,"['A1', 'B2', 'F2']",7.6,180,0,0.13645700647158326,[12800|0|0]
12801,1.2523891925811768,1.074762225151062,-0.03420862555503845,0.10766361653804779,1.0801714658737183,0.07055120915174484,4.1171875,2,"['A1', 'B2', 'F2']",7.6,180,0,0.13718073824257518,[12900|0|0]
12901,1.2522242069244385,1.074553370475769,-0.034009773284196854,0.11326028406620026,1.0793439149856567,0.06075441464781761,4.1171875,2,"['A1', 'B2', 'F2']",7.6,180,0,0.13751297726487682,[13000|0|0]
13002,1.2522802352905273,1.0744060277938843,-0.03416096046566963,0.11962299048900604,1.0810091495513916,0.0811176598072052,4.1171875,2,"['A1', 'B2', 'F2']",7.6,180,0,0.13773139568798545,[13100|0|0]
13101,1.2525542974472046,1.0745024681091309,-0.03368183970451355,0.10939687490463257,1.0648354291915894,0.07220527529716492,4.1171875,2,"['A1', 'B2', 'F2']",7.6,180,0,0.1382917237203899,[13200|0|0]
13202,1.2524391412734985,1.0743577480316162,-0.03428533673286438,0.11159349232912064,1.0676414966583252,0.06835562735795975,4.1171875,2,"['A1', 'B2', 'F2']",7.6,180,0,0.13892292377457774,[13300|0|0]
13302,1.2524691820144653,1.0744578838348389,-0.03404092788696289,0.10939197987318039,1.0729628801345825,0.08383313566446304,4.1171875,2,"['A1', 'B2', 'F2']",7.6,180,0,0.13918875324841345,[13400|0|0]
13402,1.2522881031036377,1.0749047994613647,-0.03399300575256348,0.09175701439380646,1.0778065919876099,0.08531496673822403,4.1171875,2,"['A1', 'B2', 'F2']",7.6,180,0,0.13967333521273417,[13500|0|0]
13500,1.252537727355957,1.0744447708129883,-0.03388219326734543,0.10353945940732956,1.064713478088379,0.08897393941879272,4.1171875,2,"['A1', 'B2', 'F2']",7.6,180,0,0.1402083287001275,[13600|0|0]
13602,1.25239098072052,1.0744630098342896,-0.03393783047795296,0.10481872409582138,1.0678412914276123,0.10936165601015091,4.1171875,2,"['A1', 'B2', 'F2']",7.6,180,0,0.14036632470043858,[13700|0|0]
13702,1.2527825832366943,1.0747146606445312,-0.03382880240678787,0.09325528144836426,1.0599453449249268,0.1003991961479187,4.1171875,2,"['A1', 'B2', 'F2']",7.6,180,0,0.1408444123297194,[13800|0|0]
13800,1.2522567510604858,1.074892282485962,-0.0340597927570343,0.0896577537059784,1.0691969394683838,0.13514824211597443,4.1171875,2,"['A1', 'B2', 'F2']",7.6,180,0,0.14144558247035877,[13900|0|0]
13900,1.2522987127304077,1.0743240118026733,-0.03388947620987892,0.10362620651721954,1.0660476684570312,0.11443039774894714,4.1171875,2,"['A1', 'B2', 'F2']",7.6,180,0,0.14204030936353143,[14000|0|0]
14002,1.252160668373108,1.0745288133621216,-0.03388267382979393,0.09670250862836838,1.0750470161437988,0.08764670044183731,4.1171875,2,"['A1', 'B2', 'F2']",7.6,180,0,0.14228738464701718,[14100|0|0]
14100,1.252224326133728,1.074774980545044,-0.03399006649851799,0.08830495923757553,1.071841835975647,0.08823069930076599,4.1171875,2,"['A1', 'B2', 'F2']",7.6,180,0,0.14256339873674953,[14200|0|0]
14200,1.2525850534439087,1.0744436979293823,-0.03371333330869675,0.09898751974105835,1.0583034753799438,0.10005834698677063,4.1171875,2,"['A1', 'B2', 'F2']",7.6,180,0,0.14312594084370547,[14300|0|0]
14300,1.2521871328353882,1.0743886232376099,-0.03386611491441727,0.1013055369257927,1.0673056840896606,0.12120244652032852,4.1171875,2,"['A1', 'B2', 'F2']",7.6,180,0,0.14355572712944026,[14400|0|0]
14400,1.2522557973861694,1.0743255615234375,-0.03368530794978142,0.09580006450414658,1.068810224533081,0.11012290418148041,4.1171875,2,"['A1', 'B2', 'F2']",7.6,180,0,0.14375915465655784,[14500|0|0]
14500,1.252089262008667,1.0746569633483887,-0.03389183431863785,0.08805493265390396,1.0749216079711914,0.0759567841887474,4.1171875,2,"['A1', 'B2', 'F2']",7.6,180,0,0.14418367125526024,[14600|0|0]
14600,1.2522804737091064,1.074583649635315,-0.03422977402806282,0.08975176513195038,1.0700805187225342,0.07972460985183716,4.1171875,2,"['A1', 'B2', 'F2']",7.6,180,0,0.14457881687666563,[14700|0|0]
14700,1.2522687911987305,1.0747017860412598,-0.03393568843603134,0.09056167304515839,1.0720044374465942,0.06879960000514984,4.1171875,2,"['A1', 'B2', 'F2']",7.6,180,0,0.14489595884313924,[14800|0|0]
14800,1.2525413036346436,1.0745714902877808,-0.033541128039360046,0.10404805094003677,1.0645321607589722,0.08756256848573685,4.1171875,2,"['A1', 'B2', 'F2']",7.6,180,0,0.1453928672026215,[14900|0|0]
14900,1.2523974180221558,1.074397087097168,-0.033826254308223724,0.11088268458843231,1.0656449794769287,0.10177205502986908,4.1171875,2,"['A1', 'B2', 'F2']",7.6,180,0,0.14575675802632146,[15000|0|0]
15000,1.252244234085083,1.0743796825408936,-0.03365977853536606,0.10937094688415527,1.0744680166244507,0.09391605108976364,4.1171875,2,"['A1', 'B2', 'F2']",7.6,180,0,0.14598365540423663,[15100|0|0]
15100,1.2525334358215332,1.074191927909851,-0.03391898795962334,0.11465691030025482,1.065415382385254,0.11570204049348831,4.1171875,2,"['A1', 'B2', 'F2']",7.6,180,0,0.1464150241229304,[15200|0|0]
15200,1.2524408102035522,1.0744246244430542,-0.033704180270433426,0.10290410369634628,1.0619863271713257,0.10128302127122879,4.1171875,2,"['A1', 'B2', 'F2']",7.6,180,0,0.14674497794546654,[15300|0|0]
15300,1.2526010274887085,1.0744035243988037,-0.033887829631567,0.10246532410383224,1.058180809020996,0.10776302963495255,4.1171875,2,"['A1', 'B2', 'F2']",7.6,180,0,0.14698960394198976,[15400|0|0]
15400,1.2524044513702393,1.0743299722671509,-0.03379664570093155,0.10744278877973557,1.06731116771698,0.13011756539344788,4.1171875,2,"['A1', 'B2', 'F2']",7.6,180,0,0.14721844142936724,[15500|0|0]
15500,1.2521131038665771,1.0744234323501587,-0.03384413570165634,0.10583369433879852,1.0891644954681396,0.13803549110889435,4.1171875,2,"['A1', 'B2', 'F2']",7.6,180,0,0.1475280758188895,[15600|0|0]
15600,1.252358317375183,1.0744011402130127,-0.03383632376790047,0.10437513142824173,1.0856667757034302,0.1140795350074768,4.1171875,2,"['A1', 'B2', 'F2']",7.6,180,0,0.1477744244143602,[15700|0|0]
15700,1.252441644668579,1.074506402015686,-0.03402592986822128,0.09666526317596436,1.0880093574523926,0.08971821516752243,4.1171875,2,"['A1', 'B2', 'F2']",7.6,180,0,0.14800674737535546,[15800|0|0]
15800,1.2524621486663818,1.074409008026123,-0.033911027014255524,0.09923834353685379,1.0836715698242188,0.07750503718852997,4.1171875,2,"['A1', 'B2', 'F2']",7.6,180,0,0.14815876273306108,[15900|0|0]
15900,1.2523672580718994,1.0747225284576416,-0.033664703369140625,0.09160561114549637,1.0734107494354248,0.13414956629276276,4.1171875,2,"['A1', 'B2', 'F2']",7.6,180,0,0.14856860980703318,[16000|0|0]
16000,1.2526823282241821,1.0745435953140259,-0.033910222351551056,0.09104777127504349,1.0549876689910889,0.13556569814682007,4.1171875,2,"['A1', 'B2', 'F2']",7.6,180,0,0.1490062921592791,[16100|0|0]
16100,1.2522605657577515,1.074326515197754,-0.033749550580978394,0.09441997110843658,1.0707130432128906,0.1115608885884285,4.1171875,2,"['A1', 'B2', 'F2']",7.6,180,0,0.14950711425626492,[16200|0|0]
16200,1.2524950504302979,1.0745060443878174,-0.03385419398546219,0.09229166805744171,1.0638219118118286,0.09062310308218002,4.1171875,2,"['A1', 'B2', 'F2']",7.6,180,0,0.1498204256570246,[16300|0|0]
16300,1.2523415088653564,1.0741060972213745,-0.03402434661984444,0.10449119657278061,1.063271164894104,0.08208104968070984,4.1171875,2,"['A1', 'B2', 'F2']",7.6,180,0,0.1502813862487215,[16400|0|0]
16400,1.2521730661392212,1.074786901473999,-0.03392847627401352,0.09036235511302948,1.0711967945098877,0.07422881573438644,4.1171875,2,"['A1', 'B2', 'F2']",7.6,180,0,0.1509892411106736,[16500|0|0]
16500,1.2523212432861328,1.074436902999878,-0.034040194004774094,0.09541220963001251,1.070314645767212,0.08838221430778503,4.1171875,2,"['A1', 'B2', 'F2']",7.6,180,0,0.1513853929125378,[16600|0|0]
16600,1.2525744438171387,1.0746402740478516,-0.03395600616931915,0.08440389484167099,1.065648078918457,0.100181445479393,4.1171875,2,"['A1', 'B2', 'F2']",7.6,180,0,0.15172088938598294,[16700|0|0]
16700,1.25234854221344,1.0740272998809814,-0.03369646519422531,0.10000890493392944,1.0767865180969238,0.11012300103902817,4.1171875,2,"['A1', 'B2', 'F2']",7.6,180,0,0.1524238334673695,[16800|0|0]
16800,1.2522258758544922,1.0745198726654053,-0.03420212119817734,0.0880466103553772,1.0789140462875366,0.12151400744915009,4.1171875,2,"['A1', 'B2', 'F2']",7.6,180,0,0.15314032699693225,[16900|0|0]
16900,1.252063512802124,1.0745468139648438,-0.03400673717260361,0.08753755688667297,1.08012056350708,0.14027634263038635,4.1171875,2,"['A1', 'B2', 'F2']",7.6,180,0,0.15339579228193032,[17000|0|0]
17000,1.2521861791610718,1.0746684074401855,-0.03386913612484932,0.08783456683158875,1.0762377977371216,0.1334661990404129,4.1171875,2,"['A1', 'B2', 'F2']",7.6,180,0,0.15361662266300655,[17100|0|0]
17100,1.252299427986145,1.0744224786758423,-0.034000661224126816,0.09190026670694351,1.0797723531723022,0.1175648495554924,4.1171875,2,"['A1', 'B2', 'F2']",7.6,180,0,0.1539176294822845,[17200|0|0]
17200,1.2522084712982178,1.0743263959884644,-0.03356873616576195,0.09002603590488434,1.0916588306427002,0.1332813948392868,4.1171875,2,"['A1', 'B2', 'F2']",7.6,180,0,0.15436936420303987,[17300|0|0]
17300,1.2524477243423462,1.0742175579071045,-0.03382986783981323,0.08653844147920609,1.084025502204895,0.14586974680423737,4.1171875,2,"['A1', 'B2', 'F2']",7.6,180,0,0.15473987398465386,[17400|0|0]
17400,1.2522265911102295,1.0745089054107666,-0.033732131123542786,0.07930093258619308,1.0886025428771973,0.14342743158340454,4.1171875,2,"['A1', 'B2', 'F2']",7.6,180,0,0.15511847105271415,[17500|0|0]
17500,1.2524820566177368,1.0744649171829224,-0.033674392849206924,0.0751708596944809,1.079765796661377,0.12486609816551208,4.1171875,2,"['A1', 'B2', 'F2']",7.6,180,0,0.1553840483447369,[17600|0|0]
17600,1.2524502277374268,1.0745757818222046,-0.03395175188779831,0.07393157482147217,1.0804599523544312,0.11222144216299057,4.1171875,2,"['A1', 'B2', 'F2']",7.6,180,0,0.15568443489928505,[17700|0|0]
17700,1.252070665359497,1.0743659734725952,-0.03363848850131035,0.07935524731874466,1.0846266746520996,0.1329943686723709,4.1171875,2,"['A1', 'B2', 'F2']",7.6,180,0,0.1562194312465804,[17800|0|0]
17800,1.2521328926086426,1.0747742652893066,-0.03393274173140526,0.06927330791950226,1.084926962852478,0.1263308823108673,4.1171875,2,"['A1', 'B2', 'F2']",7.6,180,0,0.15672654011216156,[17900|0|0]
17900,1.2525180578231812,1.074323296546936,-0.033763546496629715,0.09332367777824402,1.0763115882873535,0.13542209565639496,4.1171875,2,"['A1', 'B2', 'F2']",7.6,180,0,0.15734326701813908,[18000|0|0]
18000,1.2523759603500366,1.074460506439209,-0.033852238208055496,0.08823320269584656,1.0740303993225098,0.12266805768013,4.1171875,2,"['A1', 'B2', 'F2']",7.6,180,0,0.15755979522897373,[18100|0|0]
18100,1.252066969871521,1.0747625827789307,-0.034098461270332336,0.0901242047548294,1.072885274887085,0.12418422847986221,4.1171875,2,"['A1', 'B2', 'F2']",7.6,180,0,0.15805713920172293,[18200|0|0]
18200,1.2522157430648804,1.074441909790039,-0.03383835032582283,0.10045094043016434,1.0713298320770264,0.09884943068027496,4.1171875,2,"['A1', 'B2', 'F2']",7.6,180,0,0.15849602680956879,[18300|0|0]
18300,1.2521488666534424,1.0746139287948608,-0.034004416316747665,0.0919060930609703,1.0722004175186157,0.03649438917636871,4.1171875,2,"['A1', 'B2', 'F2']",7.6,180,0,0.1587443026758316,[18400|0|0]
18400,1.251789927482605,1.0743271112442017,-0.034017644822597504,0.10468965768814087,1.092993974685669,-0.016192952170968056,4.1171875,2,"['A1', 'B2', 'F2']",7.6,180,0,0.15920395105132593,[18500|0|0]
18500,1.252064824104309,1.074436068534851,-0.03403661772608757,0.10234364867210388,1.090101718902588,0.08912276476621628,4.1171875,2,"['A1', 'B2', 'F2']",7.6,180,0,0.15950026138674614,[18600|0|0]
18600,1.2507531642913818,1.0751941204071045,-0.03266988322138786,0.07947812974452972,1.1196905374526978,0.17518344521522522,4.11328125,2,"['A1', 'B2', 'F2']",7.6,180,0,0.16154061853984752,[18700|0|0]
18700,1.2506861686706543,1.074516773223877,-0.032774198800325394,0.09882619231939316,1.1081193685531616,0.2779998779296875,4.1171875,2,"['A1', 'B2', 'F2']",7.6,180,0,0.16222921810405885,[18800|0|0]
18800,1.250461220741272,1.074717402458191,-0.03304124251008034,0.08249560743570328,1.100730538368225,0.3740534782409668,4.1171875,2,"['A1', 'B2', 'F2']",7.6,180,0,0.16263191650673073,[18900|0|0]
18900,1.2504444122314453,1.0748414993286133,-0.032679419964551926,0.08097022026777267,1.0875403881072998,0.4405708909034729,4.1171875,2,"['A1', 'B2', 'F2']",7.6,180,0,0.16301479783782938,[19000|0|0]
19000,1.2501400709152222,1.0749890804290771,-0.03299165889620781,0.08031509071588516,1.0845379829406738,0.4673693776130676,4.1171875,2,"['A1', 'B2', 'F2']",7.6,180,0,0.16347512051641058,[19100|0|0]
19100,1.2501099109649658,1.0745820999145508,-0.032643623650074005,0.10242590308189392,1.0734877586364746,0.708078920841217,4.1171875,2,"['A1', 'B2', 'F2']",7.6,180,0,0.1640114704901731,[19200|0|0]
19200,1.2494916915893555,1.0747730731964111,-0.032735612243413925,0.09566942602396011,1.0792901515960693,0.759074330329895,4.1171875,2,"['A1', 'B2', 'F2']",7.6,180,0,0.1646650207117087,[19300|0|0]
19300,1.2526578903198242,1.0743300914764404,-0.03386038914322853,0.09231656789779663,1.0260318517684937,1.5215030908584595,4.1171875,2,"['A1', 'B2', 'F2']",7.6,180,0,0.1680541460088033,[19400|0|0]
19400,1.2525365352630615,1.0744571685791016,-0.033968303352594376,0.07375988364219666,1.0450897216796875,1.7378110885620117,4.1171875,2,"['A1', 'B2', 'F2']",7.6,180,0,0.16826035249853066,[19500|0|0]
19500,1.2521467208862305,1.0737892389297485,-0.03407875448465347,0.08216792345046997,1.0595241785049438,1.3249880075454712,4.1171875,2,"['A1', 'B2', 'F2']",7.6,180,0,0.16904155971652227,[19600|0|0]
19600,1.2523385286331177,1.0743387937545776,-0.03380675986409187,0.06363879889249802,1.0501476526260376,1.0372521877288818,4.11328125,2,"['A1', 'B2', 'F2']",7.6,180,0,0.1696840406819005,[19700|0|0]
19700,1.252232551574707,1.0747653245925903,-0.03397855535149574,0.04718665033578873,1.0522096157073975,0.8162945508956909,4.1171875,2,"['A1', 'B2', 'F2']",7.6,180,0,0.17015592348745448,[19800|0|0]
19800,1.2523094415664673,1.0743297338485718,-0.0336625874042511,0.059216976165771484,1.042863368988037,0.6644431948661804,4.1171875,2,"['A1', 'B2', 'F2']",7.6,180,0,0.17069951074888867,[19900|0|0]
19900,1.252077579498291,1.0745062828063965,-0.033820830285549164,0.061441391706466675,1.051551342010498,0.5022101402282715,4.1171875,2,"['A1', 'B2', 'F2']",7.6,180,0,0.17103112854492725,[20000|0|0]
20000,1.25236177444458,1.0746136903762817,-0.03396819904446602,0.06853947043418884,1.0446856021881104,0.37969622015953064,4.1171875,2,"['A1', 'B2', 'F2']",7.6,180,0,0.17136879806482738,[20100|0|0]
20100,1.2525568008422852,1.0745518207550049,-0.034101348370313644,0.07999185472726822,1.0462117195129395,0.2926176190376282,4.11328125,2,"['A1', 'B2', 'F2']",7.6,180,0,0.1716129125642174,[20200|0|0]
20200,1.2524065971374512,1.0748164653778076,-0.03395086154341698,0.07827752083539963,1.0570284128189087,0.25212210416793823,4.1171875,2,"['A1', 'B2', 'F2']",7.6,180,0,0.17195238894689177,[20300|0|0]
20300,1.252309799194336,1.0746992826461792,-0.03378063440322876,0.09510913491249084,1.0593130588531494,0.244770348072052,4.1171875,2,"['A1', 'B2', 'F2']",7.6,180,0,0.17218059699591698,[20400|0|0]
20400,1.252236008644104,1.074407935142517,-0.034069836139678955,0.10578308254480362,1.0564773082733154,0.22665314376354218,4.1171875,2,"['A1', 'B2', 'F2']",7.6,180,0,0.17259768938083844,[20500|0|0]
20500,1.2523192167282104,1.074464201927185,-0.03390781953930855,0.10684584826231003,1.0477890968322754,0.19428637623786926,4.1171875,2,"['A1', 'B2', 'F2']",7.6,180,0,0.17278831706800146,[20600|0|0]
20600,1.2523722648620605,1.074458360671997,-0.033763132989406586,0.09948725253343582,1.0592210292816162,0.1492113620042801,4.1171875,2,"['A1', 'B2', 'F2']",7.6,180,0,0.17294253257464617,[20700|0|0]
20700,1.2521731853485107,1.0744208097457886,-0.03385905548930168,0.10110623389482498,1.0682507753372192,0.16498301923274994,4.1171875,2,"['A1', 'B2', 'F2']",7.6,180,0,0.17316668397607046,[20800|0|0]
20800,1.2521823644638062,1.0744584798812866,-0.034172430634498596,0.09938287734985352,1.068471908569336,0.13527169823646545,4.1171875,2,"['A1', 'B2', 'F2']",7.6,180,0,0.1734824485670132,[20900|0|0]
20900,1.2524253129959106,1.074427843093872,-0.034046292304992676,0.09943248331546783,1.0647293329238892,0.14249390363693237,4.1171875,2,"['A1', 'B2', 'F2']",7.6,180,0,0.17375789997863667,[21000|0|0]
21000,1.2522714138031006,1.0742255449295044,-0.03387635573744774,0.11032101511955261,1.07245934009552,0.10302306711673737,4.1171875,2,"['A1', 'B2', 'F2']",7.6,180,0,0.1740636579643755,[21100|0|0]
21100,1.2522683143615723,1.0745089054107666,-0.0342203788459301,0.09688513725996017,1.0701465606689453,0.08460939675569534,4.11328125,2,"['A1', 'B2', 'F2']",7.6,180,0,0.17450936489504723,[21200|0|0]
21200,1.252410888671875,1.0745444297790527,-0.034191325306892395,0.09155938029289246,1.0662790536880493,0.09700071066617966,4.1171875,2,"['A1', 'B2', 'F2']",7.6,180,0,0.1746591431405672,[21300|0|0]
21300,1.2524302005767822,1.074916958808899,-0.03395448252558708,0.08177541941404343,1.0679361820220947,0.13915911316871643,4.1171875,2,"['A1', 'B2', 'F2']",7.6,180,0,0.17510100887900562,[21400|0|0]
21400,1.2522704601287842,1.0741941928863525,-0.033713407814502716,0.1023809090256691,1.0730522871017456,0.11610320210456848,4.1171875,2,"['A1', 'B2', 'F2']",7.6,180,0,0.17587948470126688,[21500|0|0]
21500,1.2524471282958984,1.0747427940368652,-0.03382164612412453,0.08305839449167252,1.0587221384048462,0.09178904443979263,4.1171875,2,"['A1', 'B2', 'F2']",7.6,180,0,0.17646590638852372,[21600|0|0]
21600,1.2523890733718872,1.0742594003677368,-0.03407600522041321,0.09482049196958542,1.0740859508514404,0.10635950416326523,4.11328125,2,"['A1', 'B2', 'F2']",7.6,180,0,0.17701521355525301,[21700|0|0]
21700,1.252257227897644,1.0743184089660645,-0.033816806972026825,0.08578040450811386,1.0825212001800537,0.12854354083538055,4.1171875,2,"['A1', 'B2', 'F2']",7.6,180,0,0.17731194403181647,[21800|0|0]
21800,1.2521450519561768,1.0747272968292236,-0.03394037112593651,0.08396071940660477,1.0806716680526733,0.13506075739860535,4.1171875,2,"['A1', 'B2', 'F2']",7.6,180,0,0.17775357829975133,[21900|0|0]
21900,1.252402663230896,1.0747133493423462,-0.034122735261917114,0.08708897233009338,1.0703388452529907,0.14623317122459412,4.1171875,2,"['A1', 'B2', 'F2']",7.6,180,0,0.17806951307046298,[22000|0|0]
22000,1.2524460554122925,1.0743157863616943,-0.03401173651218414,0.09945201128721237,1.0768040418624878,0.1272798478603363,4.1171875,2,"['A1', 'B2', 'F2']",7.6,180,0,0.17848455514957476,[22100|0|0]
22100,1.252500057220459,1.0747002363204956,-0.033730052411556244,0.08715634047985077,1.0812737941741943,0.11019182205200195,4.11328125,2,"['A1', 'B2', 'F2']",7.6,180,0,0.17896420491623174,[22200|0|0]
22200,1.2521469593048096,1.0744972229003906,-0.03420361503958702,0.09330753982067108,1.093321681022644,0.12243807315826416,4.1171875,2,"['A1', 'B2', 'F2']",7.6,180,0,0.17958882812220964,[22300|0|0]
22300,1.252318263053894,1.0742124319076538,-0.0338660329580307,0.09409298747777939,1.0918365716934204,0.14263677597045898,4.1171875,2,"['A1', 'B2', 'F2']",7.6,180,0,0.18006255013540126,[22400|0|0]
22400,1.2522934675216675,1.074519157409668,-0.034171175211668015,0.08485715836286545,1.0933597087860107,0.1422104835510254,4.1171875,2,"['A1', 'B2', 'F2']",7.6,180,0,0.18049591735492657,[22500|0|0]
22500,1.2523642778396606,1.0741965770721436,-0.03371066227555275,0.09568897634744644,1.088475227355957,0.1585046499967575,4.1171875,2,"['A1', 'B2', 'F2']",7.6,180,0,0.18106261334010837,[22600|0|0]
22600,1.2521847486495972,1.0743464231491089,-0.03364698588848114,0.08997183293104172,1.097310185432434,0.16026875376701355,4.11328125,2,"['A1', 'B2', 'F2']",7.6,180,0,0.1813049751752583,[22700|0|0]
22700,1.2521286010742188,1.0745769739151,-0.03398088738322258,0.08565990626811981,1.0930346250534058,0.15418024361133575,4.1171875,2,"['A1', 'B2', 'F2']",7.6,180,0,0.1817146047812569,[22800|0|0]
22800,1.2520517110824585,1.0743656158447266,-0.03414478898048401,0.09139376133680344,1.094929575920105,0.14554588496685028,4.1171875,2,"['A1', 'B2', 'F2']",7.6,180,0,0.18199289965783524,[22900|0|0]
22900,1.2520948648452759,1.0743052959442139,-0.03401757404208183,0.09059974551200867,1.0934494733810425,0.13535833358764648,4.1171875,2,"['A1', 'B2', 'F2']",7.6,180,0,0.18214015582305704,[23000|0|0]
23000,1.252485990524292,1.074614405632019,-0.03384988009929657,0.0828571617603302,1.0832983255386353,0.13538718223571777,4.1171875,2,"['A1', 'B2', 'F2']",7.6,180,0,0.18266613049386135,[23100|0|0]
23100,1.252272605895996,1.0742950439453125,-0.03442976251244545,0.09635420143604279,1.093054175376892,0.11935996264219284,4.11328125,2,"['A1', 'B2', 'F2']",7.6,180,0,0.1833616795572698,[23200|0|0]
23200,1.2520434856414795,1.0745906829833984,-0.034074511379003525,0.08424901217222214,1.0950021743774414,0.1596517264842987,4.1171875,2,"['A1', 'B2', 'F2']",7.6,180,0,0.18387753021364422,[23300|0|0]
23300,1.2524300813674927,1.0743110179901123,-0.0338905043900013,0.08730441331863403,1.0760749578475952,0.14756537973880768,4.1171875,2,"['A1', 'B2', 'F2']",7.6,180,0,0.1843889276479779,[23400|0|0]
23400,1.2525548934936523,1.074567437171936,-0.033905599266290665,0.07337363809347153,1.0711305141448975,0.1187361627817154,4.1171875,2,"['A1', 'B2', 'F2']",7.6,180,0,0.18467450901805277,[23500|0|0]
23500,1.2523741722106934,1.074491024017334,-0.03367876634001732,0.07489655166864395,1.0759057998657227,0.12570369243621826,4.1171875,2,"['A1', 'B2', 'F2']",7.6,180,0,0.18497442955544943,[23600|0|0]
23600,1.2521754503250122,1.074607014656067,-0.03373534977436066,0.07657146453857422,1.0815311670303345,0.14153511822223663,4.11328125,2,"['A1', 'B2', 'F2']",7.6,180,0,0.1852113808187177,[23700|0|0]
23700,1.252339243888855,1.0748406648635864,-0.034094199538230896,0.07236365973949432,1.073136806488037,0.11205849051475525,4.1171875,2,"['A1', 'B2', 'F2']",7.6,180,0,0.18566984990607255,[23800|0|0]
23800,1.2524839639663696,1.0742930173873901,-0.03389165177941322,0.08883485943078995,1.0673866271972656,0.11300230026245117,4.1171875,2,"['A1', 'B2', 'F2']",7.6,180,0,0.1862714205616252,[23900|0|0]
23900,1.2523895502090454,1.0742243528366089,-0.03392574191093445,0.09286753088235855,1.068497657775879,0.11460345983505249,4.1171875,2,"['A1', 'B2', 'F2']",7.6,180,0,0.18639303846809133,[24000|0|0]
24000,1.2522374391555786,1.074607014656067,-0.03391217812895775,0.0886278823018074,1.0727589130401611,0.10870872437953949,4.1171875,2,"['A1', 'B2', 'F2']",7.6,180,0,0.18680504795443745,[24100|0|0]
24100,1.251990556716919,1.0745620727539062,-0.03399788588285446,0.09098981320858002,1.0744099617004395,0.1022752970457077,4.11328125,2,"['A1', 'B2', 'F2']",7.6,180,0,0.18707022060039924,[24200|0|0]
24200,1.2521252632141113,1.0742336511611938,-0.0338856540620327,0.09343653917312622,1.0709513425827026,0.14054733514785767,4.1171875,2,"['A1', 'B2', 'F2']",7.6,180,0,0.1874425142540526,[24300|0|0]
24300,1.252402663230896,1.0744487047195435,-0.0335761196911335,0.08508390933275223,1.0617283582687378,0.1343667060136795,4.1171875,2,"['A1', 'B2', 'F2']",7.6,180,0,0.18791049964809703,[24400|0|0]
24400,1.2523270845413208,1.0742868185043335,-0.03408319130539894,0.09336045384407043,1.060590386390686,0.15536779165267944,4.1171875,2,"['A1', 'B2', 'F2']",7.6,180,0,0.18844812489581766,[24500|0|0]
24500,1.2521510124206543,1.074628233909607,-0.03403877094388008,0.08658020943403244,1.0638200044631958,0.1624191850423813,4.1171875,2,"['A1', 'B2', 'F2']",7.6,180,0,0.18883482767464332,[24600|0|0]
24600,1.2522176504135132,1.0743814706802368,-0.034065838903188705,0.09157092869281769,1.0716429948806763,0.1469113677740097,4.11328125,2,"['A1', 'B2', 'F2']",7.6,180,0,0.1890918595557059,[24700|0|0]
24700,1.252232313156128,1.0744585990905762,-0.03381236642599106,0.08719485253095627,1.0763540267944336,0.1161709874868393,4.1171875,2,"['A1', 'B2', 'F2']",7.6,180,0,0.18935721231035368,[24800|0|0]
24800,1.2521847486495972,1.0745781660079956,-0.03410869464278221,0.08142472803592682,1.0802574157714844,0.11406423151493073,4.1171875,2,"['A1', 'B2', 'F2']",7.6,180,0,0.1896802742890657,[24900|0|0]
24900,1.2521626949310303,1.074615240097046,-0.0342455692589283,0.08694985508918762,1.0805498361587524,0.11891830712556839,4.1171875,2,"['A1', 'B2', 'F2']",7.6,180,0,0.18982378566536276,[25000|0|0]
25000,1.2523459196090698,1.0748310089111328,-0.033977609127759933,0.07944706082344055,1.0740630626678467,0.1014186218380928,4.1171875,2,"['A1', 'B2', 'F2']",7.6,180,0,0.19021356777843484,[25100|0|0]
25100,1.2524303197860718,1.0745549201965332,-0.033871911466121674,0.09241762012243271,1.068795919418335,0.09898487478494644,4.11328125,2,"['A1', 'B2', 'F2']",7.6,180,0,0.19052100942148767,[25200|0|0]
25200,1.2524380683898926,1.0742201805114746,-0.03381165862083435,0.09725765883922577,1.072121024131775,0.08941426873207092,4.1171875,2,"['A1', 'B2', 'F2']",7.6,180,0,0.19086121686258722,[25300|0|0]
25300,1.2521871328353882,1.0743560791015625,-0.033806707710027695,0.09437302500009537,1.0813249349594116,0.09434953331947327,4.1171875,2,"['A1', 'B2', 'F2']",7.6,180,0,0.19114663163238746,[25400|0|0]
25400,1.2522755861282349,1.0747708082199097,-0.03421591967344284,0.08319200575351715,1.0748480558395386,0.10230440646409988,4.1171875,2,"['A1', 'B2', 'F2']",7.6,180,0,0.1917359351684557,[25500|0|0]
25500,1.2523696422576904,1.074454426765442,-0.03387085348367691,0.0983780175447464,1.0749387741088867,0.12298668920993805,4.1171875,2,"['A/E1', 'B2', 'C1']",7.6,180,0,0.1922134437605657,[25500|0|0]
25600,1.2518492937088013,1.0745035409927368,-0.033518292009830475,0.14664436876773834,1.1073929071426392,0.29972773790359497,3.18359375,2,"['A/E1', 'B2', 'C1']",7.6,180,0,0.19284389947867334,[25500|0|0]
25700,1.2488077878952026,1.08030366897583,-0.022281551733613014,-4.604447364807129,4.340561389923096,1.6900880336761475,3.546875,2,"['A/E1', 'B2', 'C1']",7.6,180,0,0.2058499201717825,[25500|0|0]
25800,1.237918496131897,1.1018638610839844,0.015221096575260162,-8.089424133300781,6.296060085296631,4.68175745010376,3.546875,2,"['A/E1', 'B2', 'C1']",7.6,180,0,0.2504578475953464,[25500|0|0]
25900,1.2228448390960693,1.1343692541122437,0.06218969449400902,1.0001287460327148,-0.513500988483429,5.930339813232422,3.541015625,2,"['A/E1', 'B2', 'C1']",7.6,180,0,0.3095329261209689,[25500|0|0]
26000,1.2050549983978271,1.1734414100646973,0.12378976494073868,2.343761444091797,-1.2919511795043945,7.0489182472229,3.59375,2,"['A/E1', 'B2', 'C1']",7.6,180,0,0.3846174150776352,[25500|0|0]
26100,1.1915743350982666,1.2122925519943237,0.18991953134536743,8.247373580932617,-1.9886329174041748,6.460360050201416,3.525390625,2,"['A/E1', 'B2', 'C1']",7.6,180,0,0.4624909376444413,[25500|0|0]
26200,1.1828359365463257,1.2425634860992432,0.26321983337402344,7.106443881988525,-2.576042652130127,5.288924217224121,3.578125,2,"['A/E1', 'B2', 'C1']",7.6,180,0,0.542275794217159,[25500|0|0]
26300,1.1797807216644287,1.2665784358978271,0.338768869638443,7.518655776977539,-1.1751505136489868,6.158815860748291,3.53125,2,"['A/E1', 'B2', 'C1']",7.6,180,0,0.6216086942794008,[25500|0|0]
26400,1.1808170080184937,1.2786824703216553,0.4208168089389801,11.690519332885742,-2.292198896408081,5.814324378967285,3.525390625,2,"['A/E1', 'B2', 'C1']",7.6,180,0,0.7045511193838397,[25500|0|0]
26500,1.1875052452087402,1.2753386497497559,0.5069849491119385,8.846919059753418,-0.9989268779754639,4.867478847503662,3.59375,2,"['A/E1', 'B2', 'C1']",7.6,180,0,0.7910430960845526,[25500|0|0]
26600,1.1965819597244263,1.259068489074707,0.5958216786384583,5.943426609039307,0.6586354374885559,5.398432731628418,3.63671875,2,"['A/E1', 'B2', 'C1']",7.6,180,0,0.8818124157237303,[25500|0|0]
26700,1.2058544158935547,1.2349382638931274,0.682070255279541,2.319526195526123,2.0180935859680176,6.252324104309082,3.658203125,2,"['A/E1', 'B2', 'C1']",7.6,180,0,0.9718516470805942,[25500|0|0]
26800,1.2123197317123413,1.2094167470932007,0.7547723650932312,0.09910565614700317,2.1079182624816895,6.436324119567871,3.65234375,2,"['A/E1', 'B2', 'C1']",7.6,180,0,1.0491739911977216,[25500|0|0]
26900,1.2154289484024048,1.1821414232254028,0.811165452003479,-1.135583758354187,2.043651819229126,5.573281288146973,3.658203125,2,"['A/E1', 'B2', 'C1']",7.6,180,0,1.1118939303860356,[25500|0|0]
27000,1.2143172025680542,1.1574052572250366,0.8532417416572571,-2.3771562576293945,1.0329896211624146,4.386263370513916,3.642578125,2,"['A/E1', 'B2', 'C1']",7.6,180,0,1.1607153195328686,[25500|0|0]
27100,1.2123384475708008,1.1351944208145142,0.8778920769691467,-2.9408273696899414,0.5169596672058105,3.454231023788452,3.626953125,2,"['A/E1', 'B2', 'C1']",7.6,180,0,1.1939549909569778,[25500|0|0]
27200,1.2081928253173828,1.1119771003723145,0.8992356061935425,-3.747436046600342,0.22996872663497925,2.5033955574035645,3.62109375,2,"['A/E1', 'B2', 'C1']",7.6,180,0,1.2257634236775072,[25500|0|0]
27300,1.2039977312088013,1.0936342477798462,0.9088336825370789,-3.706695318222046,-0.05038733407855034,2.005079507827759,3.62109375,2,"['A/E1', 'B2', 'C1']",7.6,180,0,1.2468864472609156,[25500|0|0]
27400,1.200284481048584,1.0820070505142212,0.9234374761581421,-3.4632275104522705,-0.04856424033641815,1.4588406085968018,3.62109375,2,"['A/E1', 'B2', 'C1']",7.6,180,0,1.2659193327786902,[25500|0|0]
27500,1.1964844465255737,1.0678602457046509,0.9302826523780823,-3.0939137935638428,-0.2836228013038635,0.31871309876441956,3.642578125,2,"['A/E1', 'B2', 'C1']",7.6,180,0,1.2820880923531963,[25500|0|0]
27600,1.1948020458221436,1.061939001083374,0.9394241571426392,-2.974379777908325,-0.4893648326396942,-0.7456830739974976,3.626953125,2,"['A/E1', 'B2', 'C1']",7.6,180,0,1.2931089235084368,[25500|0|0]
27700,1.193543791770935,1.0552865266799927,0.9438620209693909,-2.7155184745788574,-0.3884819447994232,-1.2787326574325562,3.62109375,2,"['A/E1', 'B2', 'C1']",7.6,180,0,1.301204184732747,[25500|0|0]
27800,1.192855954170227,1.0481621026992798,0.9451574683189392,-2.6738951206207275,-0.24438300728797913,-1.5417300462722778,3.62109375,2,"['A/E1', 'B2', 'C1']",7.6,180,0,1.3084780228844628,[25500|0|0]
27900,1.1942576169967651,1.0455809831619263,0.9470220804214478,-3.1211352348327637,0.295505166053772,-1.5210996866226196,3.615234375,2,"['A/E1', 'B2', 'C1']",7.6,180,0,1.311957047897053,[25500|0|0]
28000,1.1959543228149414,1.045376181602478,0.9475509524345398,-2.3711538314819336,0.22244951128959656,-1.4543899297714233,3.615234375,2,"['A/E1', 'B2', 'C1']",7.6,180,0,1.31374603082554,[25500|0|0]
28100,1.197898030281067,1.0474731922149658,0.9453765749931335,-2.702695369720459,0.6306589841842651,-1.1535344123840332,3.60546875,2,"['A/E1', 'B2', 'C1']",7.6,180,0,1.3173381568645948,[25500|0|0]
28200,1.1978909969329834,1.0525354146957397,0.9427558183670044,-2.125868558883667,0.764225423336029,-1.0584940910339355,3.611328125,2,"['A/E1', 'B2', 'C1']",7.6,180,0,1.323038552570705,[25500|0|0]
28300,1.197641134262085,1.0585854053497314,0.9392748475074768,-1.4032162427902222,0.38351449370384216,-1.295977234840393,3.615234375,2,"['A/E1', 'B2', 'C1']",7.6,180,0,1.3300229620942492,[25500|0|0]
28400,1.196509599685669,1.0656099319458008,0.937566876411438,-1.1670079231262207,0.4728148579597473,-1.5815578699111938,3.630859375,2,"['A/E1', 'B2', 'C1']",7.6,180,0,1.3373401685052653,[25500|0|0]
28500,1.1942249536514282,1.074557900428772,0.9368059635162354,0.06985653936862946,0.7947146892547607,-1.3527268171310425,3.626953125,2,"['A/E1', 'B2', 'C1']",7.6,180,257.19573393471325,1.3466064911797735,[25500|0|0]
28600,1.1903424263000488,1.0817911624908447,0.9389845728874207,3.684189796447754,0.4042584002017975,-0.18163324892520905,3.431640625,2,"['A/E1', 'B2', 'C1']",7.6,180,257.19573393471325,1.355100043880796,[25500|0|0]
28701,1.1906886100769043,1.0777173042297363,0.9518246650695801,16.090091705322266,-6.094332218170166,2.6436500549316406,3.525390625,2,"['A/E1', 'B2', 'C1']",7.6,180,257.19573393471325,1.368575359520339,[25500|0|0]
28801,1.2019695043563843,1.0431164503097534,0.9765817523002625,18.97542381286621,-3.7898366451263428,6.955838203430176,3.537109375,2,"['A/E1', 'B2', 'C1']",7.6,180,257.19573393471325,1.4125911639079043,[25500|0|0]
28900,1.2248544692993164,0.9764367938041687,1.0110756158828735,13.467159271240234,-2.29205060005188,3.736111640930176,3.583984375,2,"['A/E1', 'B2', 'C1']",7.6,180,257.19573393471325,1.4910750784190816,[25500|0|0]
29000,1.2538551092147827,0.8891069293022156,1.05414617061615,7.257424831390381,0.2681973874568939,1.2683000564575195,3.630859375,2,"['A/E1', 'B2', 'C1']",7.6,180,257.19573393471325,1.5926753492576389,[25500|0|0]
29101,1.281096339225769,0.7942814230918884,1.0999563932418823,-0.6493330001831055,1.7920820713043213,-0.05079388990998268,3.642578125,2,"['A/E1', 'B2', 'C1']",7.6,180,257.19573393471325,1.7014528181451591,[25500|0|0]
29201,1.3052983283996582,0.7043406367301941,1.141839861869812,-6.443536281585693,3.705172061920166,-0.9820124506950378,3.642578125,2,"['A/E1', 'B2', 'C1']",7.6,180,257.19573393471325,1.8035767931737476,[25500|0|0]
29300,1.323099970817566,0.6278263330459595,1.1761369705200195,-9.218635559082031,4.252950191497803,-1.6118967533111572,3.630859375,2,"['A/E1', 'B2', 'C1']",7.6,180,257.19573393471325,1.8892951039528483,[25500|0|0]
29401,1.3351001739501953,0.5682953596115112,1.1990790367126465,-10.460455894470215,4.291258811950684,-1.405502200126648,3.611328125,2,"['A/E1', 'B2', 'C1']",7.6,180,257.19573393471325,1.9542125906144885,[25500|0|0]
29501,1.340807557106018,0.526549220085144,1.2135330438613892,-9.379125595092773,3.640056848526001,-1.2243293523788452,3.59375,2,"['A/E1', 'B2', 'C1']",7.6,180,257.19573393471325,1.99875731769299,[25500|0|0]
29601,1.3421763181686401,0.49796998500823975,1.2204104661941528,-7.614104270935059,2.4006197452545166,-0.9653847813606262,3.568359375,2,"['A/E1', 'B2', 'C1']",7.6,180,257.19573393471325,2.0281842632084643,[25500|0|0]
29702,1.3393733501434326,0.4848425090312958,1.2227076292037964,-5.600551128387451,1.7027369737625122,-0.2580493688583374,3.55859375,2,"['A/E1', 'B2', 'C1']",7.6,180,257.19573393471325,2.041802787841054,[25500|0|0]
29801,1.3352011442184448,0.4808236062526703,1.22458815574646,-2.9164295196533203,0.7896710634231567,0.30489492416381836,3.578125,2,"['A/E1', 'B2', 'C1']",7.6,180,257.19573393471325,2.0478933758177775,[25500|0|0]
29901,1.3297595977783203,0.48094263672828674,1.2256395816802979,-0.8348290324211121,0.11470253765583038,1.3613168001174927,3.57421875,2,"['A/E1', 'B2', 'C1']",7.6,180,257.19573393471325,2.0534368487732904,[25500|0|0]
