time.ms,stateEstimate.x,stateEstimate.y,stateEstimate.z,stabilizer.roll,stabilizer.pitch,stabilizer.yaw,pm.vbat,drone_id,node_name,wind_speed,global_wind_direction,relative_wind_direction,travel_dist,waiting_time
0,1.6887811422348022,1.1424503326416016,-0.028602369129657745,-0.3656880557537079,0.9401537179946899,4.886603355407715,4.1484375,0,"['A1', 'B2', 'F2']",7.6,180,0,0.07506022066266174,[100|0|0]
100,1.6888692378997803,1.1426286697387695,-0.028196636587381363,-0.11856954544782639,0.10802099853754044,4.740666389465332,4.1484375,0,"['A1', 'B2', 'F2']",7.6,180,0,0.0755120877474071,[200|0|0]
200,1.6890007257461548,1.1420128345489502,-0.028667764738202095,-0.2524719834327698,0.2709406912326813,5.025455951690674,4.1484375,0,"['A1', 'B2', 'F2']",7.6,180,0,0.07629853785342769,[300|0|0]
300,1.6891825199127197,1.1423324346542358,-0.02836696058511734,-0.40466055274009705,0.4612277150154114,5.063481330871582,4.1484375,0,"['A1', 'B2', 'F2']",7.6,180,0,0.07677359204487186,[400|0|0]
400,1.6888548135757446,1.1426966190338135,-0.028515975922346115,-0.48801225423812866,0.673172652721405,5.102820873260498,4.1484375,0,"['A1', 'B2', 'F2']",7.6,180,0,0.0772856733629761,[500|0|0]
500,1.6890156269073486,1.1423600912094116,-0.028800219297409058,-0.4703426957130432,0.7744516134262085,5.080865383148193,4.1484375,0,"['A1', 'B2', 'F2']",7.6,180,0,0.0777546149376796,[600|0|0]
600,1.6888412237167358,1.142269492149353,-0.02853109873831272,-0.47150611877441406,0.8559678196907043,5.09587287902832,4.1484375,0,"['A1', 'B2', 'F2']",7.6,180,0,0.07808785739882125,[700|0|0]
700,1.6886022090911865,1.1423349380493164,-0.028573257848620415,-0.4665025770664215,0.904069185256958,5.058800220489502,4.1484375,0,"['A1', 'B2', 'F2']",7.6,180,0,0.07833923072204874,[800|0|0]
800,1.6891037225723267,1.142651081085205,-0.028681671246886253,-0.45619988441467285,0.9109587073326111,5.048007488250732,4.1484375,0,"['A1', 'B2', 'F2']",7.6,180,0,0.0789419044777655,[900|0|0]
900,1.6887987852096558,1.1424330472946167,-0.028610695153474808,-0.4399629533290863,0.931672990322113,5.0147809982299805,4.1484375,0,"['A1', 'B2', 'F2']",7.6,180,0,0.07932343184877179,[1000|0|0]
1000,1.6886910200119019,1.1427994966506958,-0.028579479083418846,-0.4378817081451416,0.9428985714912415,4.9933929443359375,4.1484375,0,"['A1', 'B2', 'F2']",7.6,180,0,0.0797066718668381,[1100|0|0]
1100,1.6885390281677246,1.1426925659179688,-0.02851921133697033,-0.4397207200527191,0.9430186748504639,4.952178001403809,4.1484375,0,"['A1', 'B2', 'F2']",7.6,180,0,0.07990203794260338,[1200|0|0]
1200,1.6888927221298218,1.1426596641540527,-0.028556110337376595,-0.4248245656490326,0.948732316493988,4.967026710510254,4.1484375,0,"['A1', 'B2', 'F2']",7.6,180,0,0.0802591702445921,[1300|0|0]
1300,1.6888662576675415,1.1425187587738037,-0.028517337515950203,-0.41194602847099304,0.9589501023292542,4.946474075317383,4.1484375,0,"['A1', 'B2', 'F2']",7.6,180,0,0.0804076896898788,[1400|0|0]
1400,1.6889859437942505,1.1425819396972656,-0.028969334438443184,-0.40844520926475525,0.9674142599105835,4.943777561187744,4.1484375,0,"['A1', 'B2', 'F2']",7.6,180,0,0.08087951361462109,[1500|0|0]
1500,1.6887081861495972,1.1426937580108643,-0.028768446296453476,-0.41405147314071655,0.9739189743995667,4.928127288818359,4.1484375,0,"['A1', 'B2', 'F2']",7.6,180,0,0.08124008079284378,[1600|0|0]
1600,1.6885161399841309,1.1426620483398438,-0.02867019921541214,-0.40436896681785583,0.982377827167511,4.909549713134766,4.1484375,0,"['A1', 'B2', 'F2']",7.6,180,0,0.08145811684912733,[1700|0|0]
1700,1.6886568069458008,1.142716646194458,-0.029027825221419334,-0.39671334624290466,0.9735347628593445,4.908669471740723,4.1484375,0,"['A1', 'B2', 'F2']",7.6,180,0,0.0818462720758171,[1800|0|0]
1800,1.6886701583862305,1.1422027349472046,-0.028406988829374313,-0.37835514545440674,0.9789471626281738,4.908735275268555,4.1484375,0,"['A1', 'B2', 'F2']",7.6,180,0,0.08265232471473256,[1900|0|0]
1900,1.6886194944381714,1.1423964500427246,-0.028895212337374687,-0.38531625270843506,0.9782240986824036,4.896509647369385,4.1484375,0,"['A1', 'B2', 'F2']",7.6,180,0,0.08318001266004632,[2000|0|0]
2000,1.6885546445846558,1.1426888704299927,-0.0285187941044569,-0.4070948660373688,0.9665627479553223,4.899497032165527,4.1484375,0,"['A1', 'B2', 'F2']",7.6,180,0,0.08366105930275776,[2100|0|0]
2100,1.6885313987731934,1.1425687074661255,-0.02858268842101097,-0.3951263427734375,0.9636682271957397,4.908527851104736,4.1484375,0,"['A1', 'B2', 'F2']",7.6,180,0,0.0837991244660822,[2200|0|0]
2200,1.6886601448059082,1.1424567699432373,-0.028611332178115845,-0.38393649458885193,0.9557426571846008,4.93699312210083,4.1484375,0,"['A1', 'B2', 'F2']",7.6,180,0,0.08397211583809606,[2300|0|0]
2300,1.6887578964233398,1.1426975727081299,-0.028601132333278656,-0.38966578245162964,0.9457240700721741,4.939255237579346,4.1484375,0,"['A1', 'B2', 'F2']",7.6,180,0,0.0842322031063833,[2400|0|0]
2400,1.6884605884552002,1.1422168016433716,-0.02871696837246418,-0.37227699160575867,0.9514294862747192,4.929043292999268,4.1484375,0,"['A1', 'B2', 'F2']",7.6,180,0,0.0848092220251393,[2500|0|0]
2500,1.6884244680404663,1.1423989534378052,-0.0286541897803545,-0.3708868622779846,0.9505907893180847,4.946373462677002,4.1484375,0,"['A1', 'B2', 'F2']",7.6,180,0,0.08500524526917734,[2600|0|0]
2600,1.6885610818862915,1.1423468589782715,-0.028323989361524582,-0.36391589045524597,0.941902220249176,4.916035175323486,4.1484375,0,"['A1', 'B2', 'F2']",7.6,180,0,0.08536636781372518,[2700|0|0]
2700,1.6887344121932983,1.1424007415771484,-0.028579143807291985,-0.36444371938705444,0.9329279065132141,4.908712387084961,4.1484375,0,"['A1', 'B2', 'F2']",7.6,180,0,0.08567949801185959,[2800|0|0]
2800,1.688750147819519,1.142552137374878,-0.028677428141236305,-0.3674599230289459,0.933491051197052,4.897434711456299,4.1484375,0,"['A1', 'B2', 'F2']",7.6,180,0,0.08586068329769038,[2900|0|0]
2900,1.688533902168274,1.1422055959701538,-0.02868392877280712,-0.35601311922073364,0.938060462474823,4.92609167098999,4.1484375,0,"['A1', 'B2', 'F2']",7.6,180,0,0.08626921161382209,[3000|0|0]
3000,1.688833475112915,1.1423593759536743,-0.028827616944909096,-0.3518219292163849,0.9269129633903503,4.9283623695373535,4.1484375,0,"['A1', 'B2', 'F2']",7.6,180,0,0.08663532433320578,[3100|0|0]
3100,1.6891275644302368,1.1425704956054688,-0.028731973841786385,-0.35735762119293213,0.9217832684516907,4.948314666748047,4.1484375,0,"['A1', 'B2', 'F2']",7.6,180,0,0.0870097674358416,[3200|0|0]
3200,1.6887117624282837,1.142298936843872,-0.028737200424075127,-0.3496904969215393,0.9376937747001648,4.934078693389893,4.1484375,0,"['A1', 'B2', 'F2']",7.6,180,0,0.08750641900685549,[3300|0|0]
3300,1.68853759765625,1.142202615737915,-0.02892153710126877,-0.3483978509902954,0.9426472783088684,4.922260284423828,4.1484375,0,"['A1', 'B2', 'F2']",7.6,180,0,0.08777769586511865,[3400|0|0]
3400,1.6885654926300049,1.1421815156936646,-0.028602689504623413,-0.3489014804363251,0.9454628229141235,4.91463565826416,4.1484375,0,"['A1', 'B2', 'F2']",7.6,180,0,0.08809845610472866,[3500|0|0]
3500,1.6887061595916748,1.142282247543335,-0.028538543730974197,-0.35499855875968933,0.9415001273155212,4.888455390930176,4.1484375,0,"['A1', 'B2', 'F2']",7.6,180,0,0.08828297921959649,[3600|0|0]
3600,1.6888078451156616,1.1425069570541382,-0.028821798041462898,-0.3657756745815277,0.9408479332923889,4.895248889923096,4.1484375,0,"['A1', 'B2', 'F2']",7.6,180,0,0.08865856850917266,[3700|0|0]
3700,1.6886069774627686,1.1427322626113892,-0.028779353946447372,-0.3728449046611786,0.95073401927948,4.880202770233154,4.1484375,0,"['A1', 'B2', 'F2']",7.6,180,0,0.08896338305821622,[3800|0|0]
3800,1.6886857748031616,1.1423317193984985,-0.028899403288960457,-0.3577158749103546,0.9513046145439148,4.894711971282959,4.1484375,0,"['A1', 'B2', 'F2']",7.6,180,0,0.08938888949868873,[3900|0|0]
3900,1.6889607906341553,1.1425137519836426,-0.0286873709410429,-0.36223307251930237,0.9488353133201599,4.913478851318359,4.1484375,0,"['A1', 'B2', 'F2']",7.6,180,0,0.08978097021220928,[4000|0|0]
4000,1.6886929273605347,1.1423536539077759,-0.029099922627210617,-0.3622419238090515,0.958511471748352,4.924525737762451,4.1484375,0,"['A1', 'B2', 'F2']",7.6,180,0,0.09029825255388624,[4100|0|0]
4100,1.6890332698822021,1.142629623413086,-0.02874836139380932,-0.36932286620140076,0.9533069729804993,4.934271335601807,4.1484375,0,"['A1', 'B2', 'F2']",7.6,180,0,0.09086002430535359,[4200|0|0]
4200,1.6887993812561035,1.1425920724868774,-0.028580766171216965,-0.37156152725219727,0.9654520153999329,4.960011959075928,4.1484375,0,"['A1', 'B2', 'F2']",7.6,180,0,0.09115020032109783,[4300|0|0]
4300,1.6886976957321167,1.1425645351409912,-0.028610747307538986,-0.37219932675361633,0.9667860269546509,4.950309753417969,4.1484375,0,"['A1', 'B2', 'F2']",7.6,180,0,0.09125973168529133,[4400|0|0]
4400,1.6888201236724854,1.1424601078033447,-0.028590764850378036,-0.370806485414505,0.9592663049697876,4.93411111831665,4.1484375,0,"['A1', 'B2', 'F2']",7.6,180,0,0.0914218827507366,[4500|0|0]
4500,1.6888548135757446,1.1421325206756592,-0.028547698631882668,-0.36512354016304016,0.9498925805091858,4.907646656036377,4.1484375,0,"['A1', 'B2', 'F2']",7.6,180,0,0.0917541046867807,[4600|0|0]
4600,1.6886605024337769,1.1422648429870605,-0.02854992263019085,-0.37192922830581665,0.9609305262565613,4.895443439483643,4.1484375,0,"['A1', 'B2', 'F2']",7.6,180,0,0.09198920245400935,[4700|0|0]
4700,1.6889241933822632,1.1423901319503784,-0.028760962188243866,-0.3728907108306885,0.9591311812400818,4.907964706420898,4.1484375,0,"['A1', 'B2', 'F2']",7.6,180,0,0.0923494356225351,[4800|0|0]
4800,1.6884278059005737,1.1422574520111084,-0.028714358806610107,-0.37114718556404114,0.9739108681678772,4.923908233642578,4.1484375,0,"['A1', 'B2', 'F2']",7.6,180,0,0.0928653584592485,[4900|0|0]
4900,1.688899040222168,1.1424193382263184,-0.02876891754567623,-0.38572096824645996,0.9479522109031677,4.915393829345703,4.1484375,0,"['A1', 'B2', 'F2']",7.6,180,0,0.09336660250014263,[5000|0|0]
5000,1.6886097192764282,1.1424506902694702,-0.02842227928340435,-0.38135090470314026,0.96497642993927,4.924023151397705,4.1484375,0,"['A1', 'B2', 'F2']",7.6,180,0,0.09381920347796349,[5100|0|0]
5100,1.688834309577942,1.1425530910491943,-0.028505491092801094,-0.38596343994140625,0.958781361579895,4.9213032722473145,4.1484375,0,"['A1', 'B2', 'F2']",7.6,180,0,0.09407968558568913,[5200|0|0]
5200,1.6886234283447266,1.1424301862716675,-0.02869926020503044,-0.3821054995059967,0.9672515392303467,4.9195404052734375,4.1484375,0,"['A1', 'B2', 'F2']",7.6,180,0,0.09439133113389334,[5300|0|0]
5300,1.688755989074707,1.142491102218628,-0.02842133492231369,-0.38363179564476013,0.9636080265045166,4.9502272605896,4.1484375,0,"['A1', 'B2', 'F2']",7.6,180,0,0.09470521895223012,[5400|0|0]
5400,1.6887667179107666,1.1424492597579956,-0.02862696349620819,-0.3809131383895874,0.9682320952415466,4.906803131103516,4.1484375,0,"['A1', 'B2', 'F2']",7.6,180,0,0.09491533560991544,[5500|0|0]
5500,1.6887400150299072,1.1427005529403687,-0.028579236939549446,-0.3843301832675934,0.9628598093986511,4.920204162597656,4.1484375,0,"['A1', 'B2', 'F2']",7.6,180,0,0.09517251090337082,[5600|0|0]
5600,1.6886130571365356,1.142462134361267,-0.028816495090723038,-0.3734370172023773,0.9634068012237549,4.9244465827941895,4.1484375,0,"['A1', 'B2', 'F2']",7.6,180,0,0.09553202885264245,[5700|0|0]
5700,1.6885712146759033,1.1429115533828735,-0.028580090031027794,-0.3925034999847412,0.9543527364730835,4.939661502838135,4.1484375,0,"['A1', 'B2', 'F2']",7.6,180,0,0.09604155373009493,[5800|0|0]
5800,1.688550353050232,1.141890048980713,-0.028988471254706383,-0.36311689019203186,0.9642406105995178,4.945548057556152,4.1484375,0,"['A1', 'B2', 'F2']",7.6,180,0,0.09714186353869997,[5900|0|0]
5900,1.6886115074157715,1.142211675643921,-0.028551580384373665,-0.3653828501701355,0.9580099582672119,4.924635410308838,4.1484375,0,"['A1', 'B2', 'F2']",7.6,180,0,0.0976878096894245,[6000|0|0]
6000,1.6886885166168213,1.1421921253204346,-0.028437091037631035,-0.3656851649284363,0.9559450149536133,4.911277770996094,4.1484375,0,"['A1', 'B2', 'F2']",7.6,180,0,0.0978271669379346,[6100|0|0]
6100,1.6886674165725708,1.1424509286880493,-0.028675753623247147,-0.3660377562046051,0.953487753868103,4.881040096282959,4.1484375,0,"['A1', 'B2', 'F2']",7.6,180,0,0.09817984841565787,[6200|0|0]
6200,1.6886918544769287,1.142348289489746,-0.02864735946059227,-0.36325058341026306,0.9487457871437073,4.879992961883545,4.1484375,0,"['A1', 'B2', 'F2']",7.6,180,0,0.09828911069034867,[6300|0|0]
6300,1.6883686780929565,1.1421947479248047,-0.028727656230330467,-0.3658994734287262,0.9587182998657227,4.848926544189453,4.1484375,0,"['A1', 'B2', 'F2']",7.6,180,0,0.09865580614785036,[6400|0|0]
6400,1.6887309551239014,1.142150640487671,-0.028682570904493332,-0.36678987741470337,0.9547942280769348,4.871055603027344,4.1484375,0,"['A1', 'B2', 'F2']",7.6,180,0,0.09902353267635564,[6500|0|0]
6500,1.6889160871505737,1.142298698425293,-0.028856022283434868,-0.36918193101882935,0.9492680430412292,4.8904829025268555,4.1484375,0,"['A1', 'B2', 'F2']",7.6,180,0,0.09931726793309108,[6600|0|0]
6600,1.6884647607803345,1.1424211263656616,-0.028558185324072838,-0.3683714270591736,0.9580078125,4.880725860595703,4.1484375,0,"['A1', 'B2', 'F2']",7.6,180,0,0.09987169642029053,[6700|0|0]
6700,1.6889864206314087,1.1426548957824707,-0.028768064454197884,-0.3740566074848175,0.9353708624839783,4.914205551147461,4.1484375,0,"['A1', 'B2', 'F2']",7.6,180,0,0.10048065158261374,[6800|0|0]
6800,1.6885358095169067,1.142195463180542,-0.02903234399855137,-0.36142152547836304,0.9519713521003723,4.901844024658203,4.1484375,0,"['A1', 'B2', 'F2']",7.6,180,0,0.10117633280975111,[6900|0|0]
6900,1.6890053749084473,1.14240562915802,-0.028889473527669907,-0.36118653416633606,0.9403836131095886,4.919217586517334,4.1484375,0,"['A1', 'B2', 'F2']",7.6,180,0,0.10171025543192758,[7000|0|0]
7000,1.6887388229370117,1.1425145864486694,-0.028674578294157982,-0.38412678241729736,0.9375344514846802,4.918193817138672,4.1484375,0,"['A1', 'B2', 'F2']",7.6,180,0,0.10206956255132264,[7100|0|0]
7100,1.688801646232605,1.1421794891357422,-0.02878705784678459,-0.36699816584587097,0.9395490288734436,4.915340900421143,4.1484375,0,"['A1', 'B2', 'F2']",7.6,180,0,0.10242857317144319,[7200|0|0]
7200,1.6888610124588013,1.1423556804656982,-0.028240015730261803,-0.36463308334350586,0.9370359778404236,4.931856155395508,4.1484375,0,"['A1', 'B2', 'F2']",7.6,180,0,0.10300634718506288,[7300|0|0]
7300,1.6889064311981201,1.1425795555114746,-0.028812024742364883,-0.3739750385284424,0.9362789988517761,4.937953948974609,4.1484375,0,"['A1', 'B2', 'F2']",7.6,180,0,0.10362228322714016,[7400|0|0]
7400,1.6884698867797852,1.1422781944274902,-0.02856830693781376,-0.37275466322898865,0.9479244351387024,4.922291278839111,4.1484375,0,"['A1', 'B2', 'F2']",7.6,180,0,0.10420605364466307,[7500|0|0]
7500,1.6886967420578003,1.1425167322158813,-0.028802841901779175,-0.3813498914241791,0.942141592502594,4.9108171463012695,4.1484375,0,"['A1', 'B2', 'F2']",7.6,180,0,0.10461024449435675,[7600|0|0]
7600,1.6889592409133911,1.142330288887024,-0.02867833338677883,-0.3713364601135254,0.9366016983985901,4.901989936828613,4.1484375,0,"['A1', 'B2', 'F2']",7.6,180,0,0.10495545332154621,[7700|0|0]
7700,1.6888079643249512,1.1423927545547485,-0.028591837733983994,-0.3773413598537445,0.9452010989189148,4.902680397033691,4.1484375,0,"['A1', 'B2', 'F2']",7.6,180,0,0.10514056967362434,[7800|0|0]
7800,1.6888599395751953,1.1424721479415894,-0.028484540060162544,-0.3790484666824341,0.9465970396995544,4.930251598358154,4.1484375,0,"['A1', 'B2', 'F2']",7.6,180,0,0.10528380907923429,[7900|0|0]
7900,1.6886208057403564,1.142606496810913,-0.028726568445563316,-0.3801833689212799,0.9518013000488281,4.928039073944092,4.1484375,0,"['A1', 'B2', 'F2']",7.6,180,0,0.10564961278204908,[8000|0|0]
8000,1.6891242265701294,1.1423293352127075,-0.028618725016713142,-0.36726492643356323,0.9336384534835815,4.948482990264893,4.1484375,0,"['A1', 'B2', 'F2']",7.6,180,0,0.10623431893775065,[8100|0|0]
8100,1.6885484457015991,1.1423910856246948,-0.028910798951983452,-0.36620792746543884,0.9508655667304993,4.972566604614258,4.1484375,0,"['A1', 'B2', 'F2']",7.6,180,0,0.10688288960129501,[8200|0|0]
8200,1.6880435943603516,1.1416987180709839,-0.02971109002828598,-0.33570387959480286,0.9608364105224609,4.962728977203369,4.1484375,0,"['A1', 'B2', 'F2']",7.6,180,0,0.10805537137642014,[8300|0|0]
8300,1.6887314319610596,1.1424663066864014,-0.028649594634771347,-0.36400339007377625,0.9391194581985474,4.967621803283691,4.1484375,0,"['A1', 'B2', 'F2']",7.6,180,0,0.10953492716040365,[8400|0|0]
8400,1.6889276504516602,1.1421645879745483,-0.02866092137992382,-0.3590487539768219,0.9372234344482422,4.94516658782959,4.1484375,0,"['A1', 'B2', 'F2']",7.6,180,0,0.10989501627755602,[8500|0|0]
8500,1.6888306140899658,1.142478108406067,-0.028680168092250824,-0.3704960346221924,0.9431862235069275,4.935558319091797,4.1484375,0,"['A1', 'B2', 'F2']",7.6,180,0,0.11022377386667885,[8600|0|0]
8600,1.6889410018920898,1.142564058303833,-0.028392545878887177,-0.3699072599411011,0.9391935467720032,4.949881553649902,4.1484375,0,"['A1', 'B2', 'F2']",7.6,180,0,0.11054361662398934,[8700|0|0]
8700,1.6879770755767822,1.141912579536438,-0.029913978651165962,-0.3468901216983795,0.9661535620689392,4.892216682434082,4.1484375,0,"['A1', 'B2', 'F2']",7.6,180,0,0.11245890673420057,[8800|0|0]
8800,1.6880892515182495,1.1421114206314087,-0.029589859768748283,-0.3509555160999298,0.968590259552002,4.865508079528809,4.1484375,0,"['A1', 'B2', 'F2']",7.6,180,0,0.11285535884080729,[8900|0|0]
8900,1.688178300857544,1.1416620016098022,-0.029402032494544983,-0.33645695447921753,0.9686034917831421,4.859457492828369,4.1484375,0,"['A1', 'B2', 'F2']",7.6,180,0,0.11335052177030132,[9000|0|0]
9000,1.687955617904663,1.1417378187179565,-0.02960565686225891,-0.34451189637184143,0.9661573171615601,4.872332572937012,4.1484375,0,"['A1', 'B2', 'F2']",7.6,180,0,0.11366164684887828,[9100|0|0]
9100,1.688207983970642,1.1420261859893799,-0.029818866401910782,-0.34877118468284607,0.9633846879005432,4.8695478439331055,4.1484375,0,"['A1', 'B2', 'F2']",7.6,180,0,0.11410017007777776,[9200|0|0]
9200,1.6881349086761475,1.1423473358154297,-0.029854360967874527,-0.3539552092552185,0.9746730923652649,4.882106304168701,4.1484375,0,"['A1', 'B2', 'F2']",7.6,180,0,0.11443143594328498,[9300|0|0]
9300,1.6882045269012451,1.1418708562850952,-0.029930725693702698,-0.3435421586036682,0.9843482375144958,4.913549900054932,4.1484375,0,"['A1', 'B2', 'F2']",7.6,180,0,0.1149189921056338,[9400|0|0]
9400,1.6880369186401367,1.141969084739685,-0.029486820101737976,-0.34743964672088623,0.9866145849227905,4.9264936447143555,4.1484375,0,"['A1', 'B2', 'F2']",7.6,180,0,0.11540354709019225,[9500|0|0]
9500,1.6881062984466553,1.1418490409851074,-0.029528606683015823,-0.3431588113307953,0.9881301522254944,4.965755939483643,4.1484375,0,"['A1', 'B2', 'F2']",7.6,180,0,0.11554835792866969,[9600|0|0]
9600,1.6881170272827148,1.141867995262146,-0.029447074979543686,-0.3422805070877075,0.9867349863052368,4.953108787536621,4.1484375,0,"['A1', 'B2', 'F2']",7.6,180,0,0.11563274863439205,[9700|0|0]
9700,1.6880786418914795,1.141827940940857,-0.029751546680927277,-0.3379656970500946,0.9873772263526917,4.961003303527832,4.1484375,0,"['A1', 'B2', 'F2']",7.6,180,0,0.11594223337368889,[9800|0|0]
9800,1.6879907846450806,1.141843318939209,-0.029935134574770927,-0.33936700224876404,0.9915199279785156,4.911068439483643,4.1484375,0,"['A1', 'B2', 'F2']",7.6,180,0,0.11614634092706226,[9900|0|0]
9901,1.687948226928711,1.14187753200531,-0.029948830604553223,-0.34170767664909363,0.9964544177055359,4.902968883514404,4.1484375,0,"['A1', 'B2', 'F2']",7.6,180,0,0.11620263723552411,[10000|0|0]
10001,1.6880780458450317,1.1418439149856567,-0.02950221486389637,-0.34005945920944214,0.990425705909729,4.9250335693359375,4.1484375,0,"['A1', 'B2', 'F2']",7.6,180,0,0.11666895115859263,[10100|0|0]
10101,1.6879031658172607,1.142019510269165,-0.029885707423090935,-0.34251493215560913,0.9957931637763977,4.914444446563721,4.1484375,0,"['A1', 'B2', 'F2']",7.6,180,0,0.1171255508417519,[10200|0|0]
10201,1.6883866786956787,1.1419581174850464,-0.029871411621570587,-0.342958003282547,0.9837521910667419,4.947363376617432,4.1484375,0,"['A1', 'B2', 'F2']",7.6,180,0,0.1176131553407867,[10300|0|0]
10301,1.6880223751068115,1.1418720483779907,-0.029674064368009567,-0.3437390923500061,0.992825984954834,4.932854652404785,4.1484375,0,"['A1', 'B2', 'F2']",7.6,180,0,0.11803632307885159,[10400|0|0]
10401,1.6881459951400757,1.1414506435394287,-0.029638217762112617,-0.3425971567630768,0.9936540722846985,4.913480281829834,4.1484375,0,"['A1', 'B2', 'F2']",7.6,180,0,0.11847694642110894,[10500|0|0]
10501,1.6880995035171509,1.142148733139038,-0.029684966430068016,-0.3576911687850952,0.9954419732093811,4.922943592071533,4.1484375,0,"['A1', 'B2', 'F2']",7.6,180,0,0.11917814254063654,[10600|0|0]
10601,1.6879582405090332,1.141559362411499,-0.029403019696474075,-0.3519463539123535,0.988728404045105,4.903124809265137,4.1484375,0,"['A1', 'B2', 'F2']",7.6,180,0,0.11984657881473203,[10700|0|0]
10701,1.6880433559417725,1.1416661739349365,-0.02964269369840622,-0.34931889176368713,0.984738290309906,4.889330863952637,4.1484375,0,"['A1', 'B2', 'F2']",7.6,180,0,0.12012243559937145,[10800|0|0]
10801,1.6882826089859009,1.1415966749191284,-0.0295735951513052,-0.34968504309654236,0.9804065823554993,4.90390157699585,4.1484375,0,"['A1', 'B2', 'F2']",7.6,180,0,0.12038098296743867,[10900|0|0]
10902,1.6881155967712402,1.14154851436615,-0.029623670503497124,-0.3447245955467224,0.9898808002471924,4.875807762145996,4.1484375,0,"['A1', 'B2', 'F2']",7.6,180,0,0.12056186983707325,[11000|0|0]
11002,1.6879980564117432,1.1417157649993896,-0.029665132984519005,-0.35490748286247253,0.9872576594352722,4.862696647644043,4.1484375,0,"['A1', 'B2', 'F2']",7.6,180,0,0.1207704547065204,[11100|0|0]
11101,1.6877211332321167,1.1420143842697144,-0.02979338727891445,-0.37184441089630127,0.9892539381980896,4.863523483276367,4.1484375,0,"['A1', 'B2', 'F2']",7.6,180,0,0.12119743138042023,[11200|0|0]
11202,1.6882730722427368,1.1419398784637451,-0.029822472482919693,-0.3659316599369049,0.9693314433097839,4.885698318481445,4.1484375,0,"['A1', 'B2', 'F2']",7.6,180,0,0.12175513536611467,[11300|0|0]
11302,1.6877537965774536,1.1420682668685913,-0.02975597232580185,-0.36841297149658203,0.9763936400413513,4.860673427581787,4.1484375,0,"['A1', 'B2', 'F2']",7.6,180,0,0.1222941651147844,[11400|0|0]
11402,1.6880145072937012,1.1418131589889526,-0.029623229056596756,-0.35738465189933777,0.963426411151886,4.8932414054870605,4.1484375,0,"['A1', 'B2', 'F2']",7.6,180,0,0.12268232858980402,[11500|0|0]
11502,1.6879057884216309,1.141887903213501,-0.029966119676828384,-0.36018744111061096,0.9657643437385559,4.885249614715576,4.1484375,0,"['A1', 'B2', 'F2']",7.6,180,0,0.12304972547287518,[11600|0|0]
11600,1.6882237195968628,1.141946792602539,-0.029418310150504112,-0.3626384139060974,0.9604886770248413,4.9159040451049805,4.1484375,0,"['A1', 'B2', 'F2']",7.6,180,0,0.12368584139741823,[11700|0|0]
11700,1.6881284713745117,1.1419342756271362,-0.029735544696450233,-0.3646691143512726,0.9620001912117004,4.920989036560059,4.1484375,0,"['A1', 'B2', 'F2']",7.6,180,0,0.12401730279136317,[11800|0|0]
11800,1.6882529258728027,1.1415386199951172,-0.029631013050675392,-0.35481080412864685,0.9556323885917664,4.919097423553467,4.1484375,0,"['A1', 'B2', 'F2']",7.6,180,0,0.12444504005448348,[11900|0|0]
11900,1.6878902912139893,1.1418426036834717,-0.029760470613837242,-0.3647819459438324,0.9656807780265808,4.920770645141602,4.1484375,0,"['A1', 'B2', 'F2']",7.6,180,0,0.12493562056695638,[12000|0|0]
12000,1.68798828125,1.1419355869293213,-0.029812732711434364,-0.3678690493106842,0.9574229121208191,4.920177936553955,4.1484375,0,"['A1', 'B2', 'F2']",7.6,180,0,0.12508046275007775,[12100|0|0]
12100,1.6881543397903442,1.1421960592269897,-0.029782582074403763,-0.3681998550891876,0.9549976587295532,4.9139885902404785,4.1484375,0,"['A1', 'B2', 'F2']",7.6,180,0,0.12539083400774717,[12200|0|0]
12200,1.6879125833511353,1.1415752172470093,-0.02969808131456375,-0.34801214933395386,0.964291512966156,4.906546115875244,4.1484375,0,"['A1', 'B2', 'F2']",7.6,180,0,0.1260624226604347,[12300|0|0]
12300,1.687973141670227,1.1415797472000122,-0.02977016195654869,-0.3475024402141571,0.963115930557251,4.910438537597656,4.1484375,0,"['A1', 'B2', 'F2']",7.6,180,0,0.12615667471311467,[12400|0|0]
12400,1.6881033182144165,1.141756534576416,-0.02980058267712593,-0.35109853744506836,0.9607691764831543,4.9273810386657715,4.1484375,0,"['A1', 'B2', 'F2']",7.6,180,0,0.12637831660751483,[12500|0|0]
12500,1.688069224357605,1.1417890787124634,-0.029667146503925323,-0.34783753752708435,0.9587541222572327,4.904557704925537,4.1484375,0,"['A1', 'B2', 'F2']",7.6,180,0,0.1265198324164613,[12600|0|0]
12600,1.68798828125,1.141999363899231,-0.029808424413204193,-0.36265918612480164,0.9557560086250305,4.912709712982178,4.1484375,0,"['A1', 'B2', 'F2']",7.6,180,0,0.12678578559672588,[12700|0|0]
12700,1.6879184246063232,1.141772747039795,-0.02943519875407219,-0.3546992838382721,0.9616765975952148,4.892849922180176,4.1484375,0,"['A1', 'B2', 'F2']",7.6,180,0,0.1272279762165732,[12800|0|0]
12800,1.6882132291793823,1.1420607566833496,-0.029882315546274185,-0.3535737991333008,0.9506164193153381,4.906157493591309,4.1484375,0,"['A1', 'B2', 'F2']",7.6,180,0,0.12783606561538396,[12900|0|0]
12900,1.6879690885543823,1.1419543027877808,-0.02986523136496544,-0.34432199597358704,0.9625175595283508,4.900238990783691,4.1484375,0,"['A1', 'B2', 'F2']",7.6,180,0,0.1281029531308435,[13000|0|0]
13000,1.6880340576171875,1.141615629196167,-0.029783744364976883,-0.3343770205974579,0.9565988779067993,4.888593673706055,4.1484375,0,"['A1', 'B2', 'F2']",7.6,180,0,0.1284572988828224,[13100|0|0]
13100,1.6883480548858643,1.1417222023010254,-0.029522616416215897,-0.33892232179641724,0.9466329216957092,4.882551193237305,4.1484375,0,"['A1', 'B2', 'F2']",7.6,180,0,0.12887936513003928,[13200|0|0]
13200,1.6881177425384521,1.141654372215271,-0.02985508367419243,-0.3445046842098236,0.9586289525032043,4.881410598754883,4.1484375,0,"['A1', 'B2', 'F2']",7.6,180,0,0.1292894616741973,[13300|0|0]
13300,1.6882632970809937,1.1418622732162476,-0.029835296794772148,-0.3565157651901245,0.9569715857505798,4.87708044052124,4.1484375,0,"['A1', 'B2', 'F2']",7.6,180,0,0.12954402104184798,[13400|0|0]
13400,1.6880937814712524,1.142207145690918,-0.029802728444337845,-0.3632386326789856,0.9669403433799744,4.859440803527832,4.1484375,0,"['A1', 'B2', 'F2']",7.6,180,0,0.12992968055901466,[13500|0|0]
13500,1.6882492303848267,1.1417545080184937,-0.029660554602742195,-0.35466131567955017,0.9580994844436646,4.893152713775635,4.1484375,0,"['A1', 'B2', 'F2']",7.6,180,0,0.1304289386370296,[13600|0|0]
13600,1.6880394220352173,1.1418534517288208,-0.029872367158532143,-0.34871959686279297,0.9617584347724915,4.904068946838379,4.1484375,0,"['A1', 'B2', 'F2']",7.6,180,0,0.13074306275289685,[13700|0|0]
13700,1.6883666515350342,1.1419401168823242,-0.02949916012585163,-0.3515641391277313,0.9587419629096985,4.899543285369873,4.1484375,0,"['A1', 'B2', 'F2']",7.6,180,0,0.13124692134776686,[13800|0|0]
13800,1.688032627105713,1.1421939134597778,-0.029837245121598244,-0.35653814673423767,0.974199652671814,4.88707971572876,4.1484375,0,"['A1', 'B2', 'F2']",7.6,180,0,0.13178570375881937,[13900|0|0]
13900,1.6880549192428589,1.141622543334961,-0.02963884174823761,-0.34696730971336365,0.9790624976158142,4.874426364898682,4.1484375,0,"['A1', 'B2', 'F2']",7.6,180,0,0.1323909513589573,[14000|0|0]
14000,1.6879886388778687,1.1417582035064697,-0.029591059312224388,-0.3495456278324127,0.9824882745742798,4.872410297393799,4.1484375,0,"['A1', 'B2', 'F2']",7.6,180,0,0.13254931780145188,[14100|0|0]
14100,1.6880557537078857,1.142146348953247,-0.029722386971116066,-0.3533342778682709,0.9776479601860046,4.891894340515137,4.1484375,0,"['A1', 'B2', 'F2']",7.6,180,0,0.1329645385165567,[14200|0|0]
14200,1.6883059740066528,1.1417551040649414,-0.029596686363220215,-0.3454993963241577,0.9665020108222961,4.870558261871338,4.1484375,0,"['A1', 'B2', 'F2']",7.6,180,0,0.133445665738158,[14300|0|0]
14300,1.6879445314407349,1.1416651010513306,-0.029749171808362007,-0.3439508378505707,0.9741583466529846,4.877880573272705,4.1484375,0,"['A1', 'B2', 'F2']",7.6,180,0,0.13384814937993303,[14400|0|0]
14400,1.6879554986953735,1.141648530960083,-0.02955704741179943,-0.34671419858932495,0.977294385433197,4.868956089019775,4.1484375,0,"['A1', 'B2', 'F2']",7.6,180,0,0.13404129862883862,[14500|0|0]
14500,1.6878703832626343,1.1420531272888184,-0.029722152277827263,-0.35557833313941956,0.9768401384353638,4.904974937438965,4.1484375,0,"['A1', 'B2', 'F2']",7.6,180,0,0.13448649795824352,[14600|0|0]
14600,1.6881093978881836,1.141875982284546,-0.029859308153390884,-0.3597641885280609,0.9681617617607117,4.91160774230957,4.1484375,0,"['A1', 'B2', 'F2']",7.6,180,0,0.1348140953910277,[14700|0|0]
14700,1.6880435943603516,1.1418424844741821,-0.02970314770936966,-0.35741958022117615,0.9790176749229431,4.932514667510986,4.1484375,0,"['A1', 'B2', 'F2']",7.6,180,0,0.1349868330298075,[14800|0|0]
14800,1.688219666481018,1.1418964862823486,-0.02945645898580551,-0.3565124273300171,0.9766160249710083,4.946699619293213,4.1484375,0,"['A1', 'B2', 'F2']",7.6,180,0,0.13529468512626772,[14900|0|0]
14900,1.6880735158920288,1.1416985988616943,-0.029727669432759285,-0.35140934586524963,0.9809041023254395,4.931692600250244,4.1484375,0,"['A1', 'B2', 'F2']",7.6,180,0,0.13566084702004147,[15000|0|0]
15000,1.6879465579986572,1.1416479349136353,-0.029487762600183487,-0.35804206132888794,0.9772042632102966,4.905221939086914,4.1484375,0,"['A1', 'B2', 'F2']",7.6,180,0,0.13593696371754244,[15100|0|0]
15100,1.6883740425109863,1.1415563821792603,-0.02959979884326458,-0.35111695528030396,0.968961238861084,4.875295162200928,4.1484375,0,"['A1', 'B2', 'F2']",7.6,180,0,0.1363882696350934,[15200|0|0]
15200,1.6882139444351196,1.1418030261993408,-0.029560090973973274,-0.3552154004573822,0.970604419708252,4.879660129547119,4.1484375,0,"['A1', 'B2', 'F2']",7.6,180,0,0.13668498731475098,[15300|0|0]
15300,1.6883162260055542,1.141646146774292,-0.029715944081544876,-0.3478279411792755,0.9695690870285034,4.915889739990234,4.1484375,0,"['A1', 'B2', 'F2']",7.6,180,0,0.13692863227118132,[15400|0|0]
15400,1.688236951828003,1.1415398120880127,-0.02949434146285057,-0.3478085398674011,0.974913477897644,4.8986496925354,4.1484375,0,"['A1', 'B2', 'F2']",7.6,180,0,0.13718689411765642,[15500|0|0]
15500,1.6878948211669922,1.1417322158813477,-0.02968861162662506,-0.3562358021736145,0.9870975017547607,4.860088348388672,4.1484375,0,"['A1', 'B2', 'F2']",7.6,180,0,0.13762485930511575,[15600|0|0]
15600,1.6881697177886963,1.1416512727737427,-0.02957857772707939,-0.3568788170814514,0.98236083984375,4.895218849182129,4.1484375,0,"['A1', 'B2', 'F2']",7.6,180,0,0.1379318241212467,[15700|0|0]
15700,1.6882823705673218,1.1419146060943604,-0.029817014932632446,-0.3610774874687195,0.9828875660896301,4.911258220672607,4.1484375,0,"['A1', 'B2', 'F2']",7.6,180,0,0.1383045001028601,[15800|0|0]
15800,1.6882306337356567,1.1417070627212524,-0.02968592755496502,-0.3487190902233124,0.9880298376083374,4.920140266418457,4.1484375,0,"['A1', 'B2', 'F2']",7.6,180,0,0.13855536829944043,[15900|0|0]
15900,1.688117265701294,1.1419250965118408,-0.02933475933969021,-0.36082643270492554,0.9867053031921387,4.882895469665527,4.1484375,0,"['A1', 'B2', 'F2']",7.6,180,0,0.1389839825321403,[16000|0|0]
16000,1.6884963512420654,1.1417063474655151,-0.02965961955487728,-0.3560484051704407,0.9772934913635254,4.86552619934082,4.1484375,0,"['A1', 'B2', 'F2']",7.6,180,0,0.13952904321857973,[16100|0|0]
16100,1.6880799531936646,1.1416504383087158,-0.029543887823820114,-0.3514203429222107,0.9934024810791016,4.875845432281494,4.1484375,0,"['A1', 'B2', 'F2']",7.6,180,0,0.13996482642396924,[16200|0|0]
16200,1.6882665157318115,1.1417641639709473,-0.029684878885746002,-0.35348522663116455,0.9909436702728271,4.8779401779174805,4.1484375,0,"['A1', 'B2', 'F2']",7.6,180,0,0.140224860241833,[16300|0|0]
16300,1.6880183219909668,1.141377568244934,-0.029771942645311356,-0.34170499444007874,0.9973914623260498,4.8661370277404785,4.1484375,0,"['A1', 'B2', 'F2']",7.6,180,0,0.14069244604849934,[16400|0|0]
16400,1.6879256963729858,1.1418993473052979,-0.02952529676258564,-0.3629996180534363,0.9904925227165222,4.863694667816162,4.1484375,0,"['A1', 'B2', 'F2']",7.6,180,0,0.14127696900305803,[16500|0|0]
16500,1.6880065202713013,1.1416131258010864,-0.02977612614631653,-0.355324387550354,0.9846820831298828,4.830294609069824,4.1484375,0,"['A1', 'B2', 'F2']",7.6,180,0,0.14166603279185722,[16600|0|0]
16600,1.68834388256073,1.1419239044189453,-0.029706908389925957,-0.3657912015914917,0.9687349796295166,4.86182975769043,4.1484375,0,"['A1', 'B2', 'F2']",7.6,180,0,0.14212991614082182,[16700|0|0]
16700,1.688049554824829,1.1412396430969238,-0.02941276691854,-0.34834808111190796,0.9815918207168579,4.876165390014648,4.1484375,0,"['A1', 'B2', 'F2']",7.6,180,0,0.1429307666750192,[16800|0|0]
16800,1.6880168914794922,1.1417042016983032,-0.029936229810118675,-0.36151421070098877,0.9798495173454285,4.887374401092529,4.1484375,0,"['A1', 'B2', 'F2']",7.6,180,0,0.1436314056598781,[16900|0|0]
16900,1.6878565549850464,1.1417310237884521,-0.02973964251577854,-0.36491742730140686,0.9788405299186707,4.866421222686768,4.1484375,0,"['A1', 'B2', 'F2']",7.6,180,0,0.1438865012895292,[17000|0|0]
17000,1.6880950927734375,1.1420384645462036,-0.029678992927074432,-0.3702687621116638,0.9674656987190247,4.861231803894043,4.1484375,0,"['A1', 'B2', 'F2']",7.6,180,0,0.1442803267186565,[17100|0|0]
17100,1.6880106925964355,1.1417590379714966,-0.029752790927886963,-0.360578328371048,0.9751981496810913,4.876889705657959,4.1484375,0,"['A1', 'B2', 'F2']",7.6,180,0,0.1445814060195963,[17200|0|0]
17200,1.6880240440368652,1.1416701078414917,-0.02944217436015606,-0.3577456474304199,0.9752418994903564,4.885890007019043,4.1484375,0,"['A1', 'B2', 'F2']",7.6,180,0,0.14490477806714086,[17300|0|0]
17300,1.6882554292678833,1.1415212154388428,-0.02964596450328827,-0.3581324815750122,0.9766957759857178,4.876981258392334,4.1484375,0,"['A1', 'B2', 'F2']",7.6,180,0,0.14524717914064633,[17400|0|0]
17400,1.6879538297653198,1.1418137550354004,-0.029612738639116287,-0.36658796668052673,0.9843663573265076,4.889796733856201,4.1484375,0,"['A1', 'B2', 'F2']",7.6,180,0,0.1456686594290948,[17500|0|0]
17500,1.688271403312683,1.1417686939239502,-0.029575785622000694,-0.36523789167404175,0.968945324420929,4.910043239593506,4.1484375,0,"['A1', 'B2', 'F2']",7.6,180,0,0.1459915355465516,[17600|0|0]
17600,1.6882569789886475,1.1419997215270996,-0.029841169714927673,-0.3688172399997711,0.9703531861305237,4.884651184082031,4.1484375,0,"['A1', 'B2', 'F2']",7.6,180,0,0.14634368683693616,[17700|0|0]
17700,1.6878986358642578,1.1417405605316162,-0.02951578050851822,-0.3651062548160553,0.9751254320144653,4.846636772155762,4.1484375,0,"['A1', 'B2', 'F2']",7.6,180,0,0.14689273360363736,[17800|0|0]
17800,1.6880302429199219,1.1421867609024048,-0.029737824574112892,-0.37516137957572937,0.9752820134162903,4.847836017608643,4.1484375,0,"['A1', 'B2', 'F2']",7.6,180,0,0.14740821275458163,[17900|0|0]
17900,1.6893137693405151,1.1420507431030273,-0.029263772070407867,-0.35045212507247925,0.9106994867324829,4.807714462280273,4.1484375,0,"['A1', 'B2', 'F2']",7.6,180,0,0.1487832279146353,[18000|0|0]
18000,1.6897310018539429,1.142496109008789,-0.02914697304368019,-0.33518531918525696,0.9067539572715759,4.818759441375732,4.1484375,0,"['A1', 'B2', 'F2']",7.6,180,0,0.14940457787473888,[18100|0|0]
18100,1.690487265586853,1.143112063407898,-0.02913580648601055,-0.3469725549221039,0.8910918235778809,4.845670223236084,4.1484375,0,"['A1', 'B2', 'F2']",7.6,180,0,0.15038000565141277,[18200|0|0]
18200,1.6913777589797974,1.142788052558899,-0.029317911714315414,-0.32883596420288086,0.8835968971252441,4.845388889312744,4.1484375,0,"['A1', 'B2', 'F2']",7.6,180,0,0.15134495322891248,[18300|0|0]
18300,1.692302942276001,1.1428813934326172,-0.02971736341714859,-0.33280321955680847,0.8781527876853943,4.841887950897217,4.1484375,0,"['A1', 'B2', 'F2']",7.6,180,0,0.15235699982525922,[18400|0|0]
18400,1.692905306816101,1.1423457860946655,-0.03054841421544552,-0.2975127398967743,0.8978656530380249,4.859822750091553,4.1484375,0,"['A1', 'B2', 'F2']",7.6,180,0,0.15351474059459733,[18500|0|0]
18500,1.6937752962112427,1.142202615737915,-0.030863575637340546,-0.29027262330055237,0.8971152305603027,4.871316909790039,4.1484375,0,"['A1', 'B2', 'F2']",7.6,180,0,0.1544510664035772,[18600|0|0]
18600,1.694133996963501,1.1423370838165283,-0.03087376430630684,-0.2993732988834381,0.8987889289855957,4.916280269622803,4.1484375,0,"['A1', 'B2', 'F2']",7.6,180,0,0.1548342787504711,[18700|0|0]
18700,1.6939319372177124,1.1421165466308594,-0.030583394691348076,-0.29094237089157104,0.9026516079902649,4.9203996658325195,4.1484375,0,"['A1', 'B2', 'F2']",7.6,180,0,0.15525114720025138,[18800|0|0]
18800,1.6928507089614868,1.1423834562301636,-0.030298087745904922,-0.3207278549671173,0.9122791886329651,4.925931930541992,4.1484375,0,"['A1', 'B2', 'F2']",7.6,180,0,0.15640079729022635,[18900|0|0]
18900,1.6906919479370117,1.1427937746047974,-0.028813472017645836,-0.3364870846271515,0.9254956245422363,4.930047988891602,4.1484375,0,"['A1', 'B2', 'F2']",7.6,180,0,0.1590527200247624,[19000|0|0]
19000,1.6863681077957153,1.1434296369552612,-0.026792410761117935,-0.3508707582950592,0.9516341686248779,4.934628009796143,4.14453125,0,"['A1', 'B2', 'F2']",7.6,180,0,0.16386775928720476,[19100|0|0]
19100,1.6814377307891846,1.1438710689544678,-0.02377117983996868,-0.35003405809402466,0.9708226323127747,4.976675510406494,4.1484375,0,"['A1', 'B2', 'F2']",7.6,180,0,0.16966701061089812,[19200|0|0]
19200,1.673146367073059,1.145078420639038,-0.01950005255639553,-0.36573082208633423,1.005278468132019,4.9781813621521,4.1484375,0,"['A1', 'B2', 'F2']",7.6,180,0,0.17907163386947683,[19300|0|0]
19300,1.665488600730896,1.1460473537445068,-0.014513316564261913,-0.36237087845802307,1.0072849988937378,4.9642653465271,4.1484375,0,"['A1', 'B2', 'F2']",7.6,180,0,0.18826117969989087,[19400|0|0]
19400,1.6520072221755981,1.148357629776001,-0.006825657561421394,-0.402007520198822,1.0360558032989502,4.958615303039551,4.1484375,0,"['A1', 'B2', 'F2']",7.6,180,0,0.20395146472078504,[19500|0|0]
19500,1.6358957290649414,1.1502981185913086,0.002199765993282199,-0.380747526884079,1.0791921615600586,4.982281684875488,4.1484375,0,"['A1', 'B2', 'F2']",7.6,180,0,0.22252036284207571,[19600|0|0]
19600,1.6190214157104492,1.152606725692749,0.011686943471431732,-0.38143783807754517,1.1047797203063965,4.9936842918396,4.1484375,0,"['A1', 'B2', 'F2']",7.6,180,0,0.24201596887103316,[19700|0|0]
19700,1.5989933013916016,1.1554161310195923,0.023058120161294937,-0.3905920088291168,1.1278212070465088,5.006626129150391,4.1484375,0,"['A1', 'B2', 'F2']",7.6,180,0,0.26521773132071386,[19800|0|0]
19800,1.5798847675323486,1.1582412719726562,0.03463515639305115,-0.39357975125312805,1.1302087306976318,5.009435176849365,4.1484375,0,"['A1', 'B2', 'F2']",7.6,180,0,0.2877376171012033,[19900|0|0]
19900,1.689871072769165,1.14243483543396,-0.028954362496733665,-0.3154172897338867,0.8463271260261536,4.897204399108887,4.1484375,0,"['A1', 'B2', 'F2']",7.6,180,0,0.41576283996112373,[20000|0|0]
20000,1.6884315013885498,1.141434907913208,-0.029516836628317833,-0.3470798432826996,0.9941630363464355,4.897974967956543,4.1484375,0,"['A1', 'B2', 'F2']",7.6,180,0,0.4176036544426359,[20100|0|0]
20100,1.688425064086914,1.1414990425109863,-0.02969272807240486,-0.3683210611343384,1.0066027641296387,4.903193473815918,4.1484375,0,"['A1', 'B2', 'F2']",7.6,180,0,0.4177909843270312,[20200|0|0]
20200,1.6882758140563965,1.1417841911315918,-0.029527531936764717,-0.39664426445961,1.0181832313537598,4.885565757751465,4.1484375,0,"['A1', 'B2', 'F2']",7.6,180,0,0.41815275092398724,[20300|0|0]
20300,1.6881303787231445,1.141664981842041,-0.029354486614465714,-0.4059688448905945,1.0242714881896973,4.8978376388549805,4.1484375,0,"['A1', 'B2', 'F2']",7.6,180,0,0.4184083032169585,[20400|0|0]
20400,1.6880797147750854,1.1415876150131226,-0.029719388112425804,-0.4183051288127899,1.0236057043075562,4.877602577209473,4.14453125,0,"['A1', 'B2', 'F2']",7.6,180,0,0.41878474121326514,[20500|0|0]
20500,1.6880772113800049,1.1417416334152222,-0.029625507071614265,-0.426634281873703,1.0198112726211548,4.852544784545898,4.1484375,0,"['A1', 'B2', 'F2']",7.6,180,0,0.4189651340761952,[20600|0|0]
20600,1.6882286071777344,1.1417205333709717,-0.029538748785853386,-0.42102140188217163,1.0130048990249634,4.861150741577148,4.1484375,0,"['A1', 'B2', 'F2']",7.6,180,0,0.41914089783692443,[20700|0|0]
20700,1.6879539489746094,1.1417738199234009,-0.029494374990463257,-0.41735950112342834,1.0107383728027344,4.868204593658447,4.1484375,0,"['A1', 'B2', 'F2']",7.6,180,0,0.419424174413667,[20800|0|0]
20800,1.6880450248718262,1.141735315322876,-0.029729673638939857,-0.41031113266944885,1.0020405054092407,4.881089210510254,4.1484375,0,"['A1', 'B2', 'F2']",7.6,180,0,0.41967940544095467,[20900|0|0]
20900,1.6883519887924194,1.1416106224060059,-0.02973025105893612,-0.40573129057884216,0.9919142723083496,4.897355079650879,4.1484375,0,"['A1', 'B2', 'F2']",7.6,180,0,0.4200107293089108,[21000|0|0]
21000,1.6880137920379639,1.1415823698043823,-0.029740354046225548,-0.4022967517375946,0.9956128001213074,4.893059253692627,4.1484375,0,"['A1', 'B2', 'F2']",7.6,180,0,0.420350254454629,[21100|0|0]
21100,1.6880366802215576,1.141782522201538,-0.02994820475578308,-0.403790682554245,0.9863814115524292,4.875880241394043,4.1484375,0,"['A1', 'B2', 'F2']",7.6,180,0,0.4206397138965185,[21200|0|0]
21200,1.6882432699203491,1.1418956518173218,-0.029918231070041656,-0.3994181156158447,0.9742710590362549,4.878695011138916,4.1484375,0,"['A1', 'B2', 'F2']",7.6,180,0,0.4208771502784212,[21300|0|0]
21300,1.688269019126892,1.1421070098876953,-0.029672393575310707,-0.39380306005477905,0.9732744693756104,4.869801998138428,4.1484375,0,"['A1', 'B2', 'F2']",7.6,180,0,0.4212023753226063,[21400|0|0]
21400,1.688130259513855,1.141465187072754,-0.029436318203806877,-0.37295880913734436,0.981313169002533,4.888473987579346,4.1484375,0,"['A1', 'B2', 'F2']",7.6,180,0,0.4219001735291246,[21500|0|0]
21500,1.688319444656372,1.1419742107391357,-0.02949291095137596,-0.38809511065483093,0.9681686162948608,4.893045425415039,4.1484375,0,"['A1', 'B2', 'F2']",7.6,180,0,0.4224461578239202,[21600|0|0]
21600,1.688314437866211,1.1416065692901611,-0.029783539474010468,-0.3707163631916046,0.972369372844696,4.912386417388916,4.14453125,0,"['A1', 'B2', 'F2']",7.6,180,0,0.42291482640737826,[21700|0|0]
21700,1.6881874799728394,1.1415785551071167,-0.02952258288860321,-0.36885663866996765,0.976791501045227,4.90892219543457,4.14453125,0,"['A1', 'B2', 'F2']",7.6,180,0,0.4232063764727331,[21800|0|0]
21800,1.688110113143921,1.1420315504074097,-0.029532894492149353,-0.3723296523094177,0.9719020128250122,4.893107891082764,4.14453125,0,"['A1', 'B2', 'F2']",7.6,180,0,0.4236660466778499,[21900|0|0]
21900,1.6882996559143066,1.1418966054916382,-0.029730267822742462,-0.3649139404296875,0.9693453907966614,4.876267433166504,4.1484375,0,"['A1', 'B2', 'F2']",7.6,180,0,0.42397115784402956,[22000|0|0]
22000,1.688297152519226,1.141547441482544,-0.029662709683179855,-0.3504556119441986,0.9670795202255249,4.910446643829346,4.1484375,0,"['A1', 'B2', 'F2']",7.6,180,0,0.4243268063706044,[22100|0|0]
22100,1.6883326768875122,1.1420077085494995,-0.029413674026727676,-0.3619046211242676,0.9663053154945374,4.8992533683776855,4.1484375,0,"['A1', 'B2', 'F2']",7.6,180,0,0.42485133140513615,[22200|0|0]
22200,1.6880942583084106,1.141664743423462,-0.029792796820402145,-0.354269415140152,0.9667236804962158,4.889188766479492,4.1484375,0,"['A1', 'B2', 'F2']",7.6,180,0,0.425415425891213,[22300|0|0]
22300,1.6881005764007568,1.14156174659729,-0.02971949800848961,-0.352643221616745,0.969100832939148,4.8597636222839355,4.14453125,0,"['A1', 'B2', 'F2']",7.6,180,0,0.4255419999024482,[22400|0|0]
22400,1.6880472898483276,1.141636610031128,-0.029802629724144936,-0.36691004037857056,0.9582138061523438,4.883683681488037,4.1484375,0,"['A1', 'B2', 'F2']",7.6,180,0,0.42566591468180714,[22500|0|0]
22500,1.6881812810897827,1.1414154767990112,-0.029515013098716736,-0.3518337905406952,0.9587460160255432,4.906976222991943,4.14453125,0,"['A1', 'B2', 'F2']",7.6,180,0,0.42605266638814565,[22600|0|0]
22600,1.6880123615264893,1.1414955854415894,-0.029324723407626152,-0.35552969574928284,0.9674134254455566,4.8855156898498535,4.14453125,0,"['A1', 'B2', 'F2']",7.6,180,0,0.4263194272923545,[22700|0|0]
22700,1.6880265474319458,1.1417001485824585,-0.02957182563841343,-0.3626920282840729,0.9671346545219421,4.872459888458252,4.1484375,0,"['A1', 'B2', 'F2']",7.6,180,0,0.42664052981644285,[22800|0|0]
22800,1.6879757642745972,1.1416378021240234,-0.02985658496618271,-0.3619840741157532,0.9611015915870667,4.840474605560303,4.14453125,0,"['A1', 'B2', 'F2']",7.6,180,0,0.42693642487334865,[22900|0|0]
22900,1.6879669427871704,1.1415780782699585,-0.029749343171715736,-0.36607125401496887,0.9665438532829285,4.8404154777526855,4.14453125,0,"['A1', 'B2', 'F2']",7.6,180,0,0.4270594921714635,[23000|0|0]
23000,1.688437819480896,1.1419363021850586,-0.029663924127817154,-0.36900976300239563,0.964930534362793,4.84433126449585,4.1484375,0,"['A1', 'B2', 'F2']",7.6,180,0,0.4276572761183073,[23100|0|0]
23100,1.6881040334701538,1.141443133354187,-0.02994980663061142,-0.35689595341682434,0.973818838596344,4.872700214385986,4.1484375,0,"['A1', 'B2', 'F2']",7.6,180,0,0.4283178496585845,[23200|0|0]
23200,1.6879477500915527,1.1418440341949463,-0.029796365648508072,-0.3671053946018219,0.9720133543014526,4.856618881225586,4.14453125,0,"['A1', 'B2', 'F2']",7.6,180,0,0.428774675789117,[23300|0|0]
23300,1.688417911529541,1.1416404247283936,-0.029602641239762306,-0.35747185349464417,0.9623713493347168,4.884283065795898,4.1484375,0,"['A1', 'B2', 'F2']",7.6,180,0,0.42932243279654364,[23400|0|0]
23400,1.6884621381759644,1.1417901515960693,-0.029562504962086678,-0.35712218284606934,0.9647361040115356,4.894196510314941,4.1484375,0,"['A1', 'B2', 'F2']",7.6,180,0,0.42948363159289,[23500|0|0]
23500,1.6882541179656982,1.1417723894119263,-0.02934389002621174,-0.3720564842224121,0.9656394124031067,4.904585361480713,4.14453125,0,"['A1', 'B2', 'F2']",7.6,180,0,0.4297859234936288,[23600|0|0]
23600,1.6880806684494019,1.1417909860610962,-0.0294296033680439,-0.365039199590683,0.9745524525642395,4.901437282562256,4.1484375,0,"['A1', 'B2', 'F2']",7.6,180,0,0.42998028744870237,[23700|0|0]
23700,1.6882779598236084,1.142111897468567,-0.029802102595567703,-0.3698691427707672,0.9650499820709229,4.898331165313721,4.1484375,0,"['A1', 'B2', 'F2']",7.6,180,0,0.4305100644699924,[23800|0|0]
23800,1.688300609588623,1.1415151357650757,-0.029575802385807037,-0.36293989419937134,0.9607964754104614,4.895652770996094,4.14453125,0,"['A1', 'B2', 'F2']",7.6,180,0,0.43114869529257044,[23900|0|0]
23900,1.6883379220962524,1.1415870189666748,-0.029687494039535522,-0.3559648394584656,0.9652283191680908,4.894960880279541,4.1484375,0,"['A1', 'B2', 'F2']",7.6,180,0,0.4312866606629006,[24000|0|0]
24000,1.688055396080017,1.1418852806091309,-0.02956189215183258,-0.3700176179409027,0.9764094352722168,4.905153274536133,4.1484375,0,"['A1', 'B2', 'F2']",7.6,180,0,0.43171626139777536,[24100|0|0]
24100,1.6878588199615479,1.1417820453643799,-0.029528498649597168,-0.3651815354824066,0.9870004057884216,4.870415687561035,4.1484375,0,"['A1', 'B2', 'F2']",7.6,180,0,0.4319407938277332,[24200|0|0]
24200,1.688088059425354,1.141460657119751,-0.029543982818722725,-0.35396549105644226,0.9811121225357056,4.861782550811768,4.14453125,0,"['A1', 'B2', 'F2']",7.6,180,0,0.4323358645746195,[24300|0|0]
24300,1.6883732080459595,1.1416600942611694,-0.029451243579387665,-0.35953572392463684,0.9722327589988708,4.882725715637207,4.14453125,0,"['A1', 'B2', 'F2']",7.6,180,0,0.43269598327133324,[24400|0|0]
24400,1.6883010864257812,1.141562581062317,-0.029775867238640785,-0.3543696701526642,0.9813775420188904,4.874935626983643,4.14453125,0,"['A1', 'B2', 'F2']",7.6,180,0,0.43304252457073994,[24500|0|0]
24500,1.6880275011062622,1.14189875125885,-0.029816966503858566,-0.3601069748401642,0.9838922023773193,4.896377086639404,4.14453125,0,"['A1', 'B2', 'F2']",7.6,180,0,0.4334778962254155,[24600|0|0]
24600,1.6881097555160522,1.1416513919830322,-0.02979116700589657,-0.35547110438346863,0.9811235070228577,4.924218654632568,4.1484375,0,"['A1', 'B2', 'F2']",7.6,180,0,0.433739846627893,[24700|0|0]
24700,1.6880754232406616,1.1416833400726318,-0.029463693499565125,-0.35691341757774353,0.9769302010536194,4.927631855010986,4.1484375,0,"['A1', 'B2', 'F2']",7.6,180,0,0.4340706612027103,[24800|0|0]
24800,1.6881803274154663,1.1416958570480347,-0.029652241617441177,-0.35827988386154175,0.9796345829963684,4.903072357177734,4.1484375,0,"['A1', 'B2', 'F2']",7.6,180,0,0.43428679068547305,[24900|0|0]
24900,1.6881290674209595,1.1416606903076172,-0.029840193688869476,-0.3675497770309448,0.9832624793052673,4.897735595703125,4.14453125,0,"['A1', 'B2', 'F2']",7.6,180,0,0.43448475600522024,[25000|0|0]
25000,1.6883761882781982,1.1418499946594238,-0.02952607348561287,-0.37280896306037903,0.9848349094390869,4.90956449508667,4.14453125,0,"['A1', 'B2', 'F2']",7.6,180,0,0.4349269961637194,[25100|0|0]
25100,1.6884822845458984,1.141622543334961,-0.029504844918847084,-0.36669600009918213,0.9777345657348633,4.891226291656494,4.14453125,0,"['A1', 'B2', 'F2']",7.6,180,0,0.4351788714802289,[25200|0|0]
25200,1.6882054805755615,1.141316533088684,-0.02946009486913681,-0.35573258996009827,0.9839239120483398,4.884810924530029,4.14453125,0,"['A1', 'B2', 'F2']",7.6,180,0,0.4355939200024161,[25300|0|0]
25300,1.6880831718444824,1.1415468454360962,-0.029378119856119156,-0.3638194799423218,0.9796610474586487,4.8989081382751465,4.14453125,0,"['A1', 'B2', 'F2']",7.6,180,0,0.43586727527642394,[25400|0|0]
25400,1.6882553100585938,1.1418851613998413,-0.029788358137011528,-0.3722717761993408,0.9758661985397339,4.883875846862793,4.1484375,0,"['A1', 'B2', 'F2']",7.6,180,0,0.43642618913668485,[25500|0|0]
25500,1.6882705688476562,1.141554832458496,-0.029560884460806847,-0.36110302805900574,0.9709126949310303,4.877434730529785,4.14453125,0,"['A1', 'B2', 'F2']",7.6,180,0,0.43682755469761403,[25600|0|0]
25600,1.687991738319397,1.1414278745651245,-0.029303906485438347,-0.3521118760108948,0.9749085903167725,4.8794403076171875,4.14453125,0,"['A1', 'B2', 'F2']",7.6,180,0,0.4372274327415264,[25700|0|0]
25700,1.6879973411560059,1.14162015914917,-0.029312189668416977,-0.35095736384391785,0.9687874913215637,4.89102029800415,4.1484375,0,"['A1', 'B2', 'F2']",7.6,180,0,0.4374199771887583,[25800|0|0]
25800,1.6880792379379272,1.1414744853973389,-0.02939007058739662,-0.3543863594532013,0.970648467540741,4.884060859680176,4.14453125,0,"['A1', 'B2', 'F2']",7.6,180,0,0.43760435007831294,[25900|0|0]
25900,1.688362717628479,1.1414743661880493,-0.02951163239777088,-0.3638171851634979,0.9675407409667969,4.876953125,4.14453125,0,"['A1', 'B2', 'F2']",7.6,180,0,0.43791279459991717,[26000|0|0]
26000,1.6888426542282104,1.1423074007034302,-0.02885633334517479,-0.3762912154197693,0.9542901515960693,4.879948139190674,4.14453125,0,"['A1', 'B2', 'F2']",7.6,180,0,0.43907628181166936,[26100|0|0]
26100,1.6887589693069458,1.1422083377838135,-0.029000338166952133,-0.37035274505615234,0.9557149410247803,4.898236274719238,4.14453125,0,"['A1', 'B2', 'F2']",7.6,180,0,0.4392700703995304,[26200|0|0]
26200,1.6877213716506958,1.141769289970398,-0.030038002878427505,-0.34414932131767273,0.9916127920150757,4.86660623550415,4.1484375,0,"['A1', 'B2', 'F2']",7.6,180,0,0.4408017753098058,[26300|0|0]
26300,1.6880885362625122,1.1416049003601074,-0.029675742611289024,-0.33513107895851135,0.9587085843086243,4.85188102722168,4.14453125,0,"['A1', 'B2', 'F2']",7.6,180,0,0.4413431312899972,[26400|0|0]
26400,1.6880582571029663,1.1415698528289795,-0.02928805723786354,-0.34759727120399475,0.969011127948761,4.877265453338623,4.14453125,0,"['A1', 'B2', 'F2']",7.6,180,0,0.44173357348252895,[26500|0|0]
26500,1.6886581182479858,1.1425704956054688,-0.0287841334939003,-0.3661779463291168,0.9587485790252686,4.9006123542785645,4.14453125,0,"['A1', 'B2', 'F2']",7.6,180,0,0.44300442300122667,[26600|0|0]
26600,1.6887542009353638,1.1422511339187622,-0.028695113956928253,-0.3658965229988098,0.9621537327766418,4.9046244621276855,4.14453125,0,"['A1', 'B2', 'F2']",7.6,180,0,0.4433496015748846,[26700|0|0]
26700,1.688783884048462,1.1422216892242432,-0.02877809852361679,-0.3735039532184601,0.9624429941177368,4.895841121673584,4.14453125,0,"['A1', 'B2', 'F2']",7.6,180,0,0.4434425236688505,[26800|0|0]
26800,1.688582181930542,1.14218008518219,-0.02864951454102993,-0.3758702278137207,0.9615929126739502,4.890130043029785,4.14453125,0,"['A1', 'B2', 'F2']",7.6,180,0,0.4436853167520849,[26900|0|0]
26900,1.6889511346817017,1.1424788236618042,-0.028804654255509377,-0.3821616470813751,0.9502654075622559,4.900050640106201,4.14453125,0,"['A1', 'B2', 'F2']",7.6,180,0,0.44418475557997006,[27000|0|0]
27000,1.688868522644043,1.1426922082901,-0.02882702276110649,-0.3852657675743103,0.9588268399238586,4.918577671051025,4.14453125,0,"['A1', 'B2', 'F2']",7.6,180,0,0.44441466447149397,[27100|0|0]
27100,1.6886484622955322,1.1426563262939453,-0.029095763340592384,-0.3814036250114441,0.9712276458740234,4.916630268096924,4.14453125,0,"['A1', 'B2', 'F2']",7.6,180,0,0.4447638572172622,[27200|0|0]
27200,1.688677191734314,1.1423161029815674,-0.028815442696213722,-0.37334761023521423,0.9730129837989807,4.910983562469482,4.1484375,0,"['A1', 'B2', 'F2']",7.6,180,0,0.44520562293187005,[27300|0|0]
27300,1.688501238822937,1.1422622203826904,-0.028637070208787918,-0.3705897033214569,0.9816191792488098,4.916245937347412,4.14453125,0,"['A1', 'B2', 'F2']",7.6,180,0,0.44546190306327754,[27400|0|0]
27400,1.6885814666748047,1.1427477598190308,-0.02905302308499813,-0.3859969973564148,0.9790452122688293,4.904367446899414,4.14453125,0,"['A1', 'B2', 'F2']",7.6,180,0,0.44610626464475533,[27500|0|0]
27500,1.6881563663482666,1.1417042016983032,-0.029648222029209137,-0.35630249977111816,0.9976522922515869,4.905643463134766,4.14453125,0,"['A1', 'B2', 'F2']",7.6,180,0,0.44738062158931563,[27600|0|0]
27600,1.6885184049606323,1.142841100692749,-0.028720274567604065,-0.3785306215286255,0.9797952771186829,4.895366668701172,4.14453125,0,"['A1', 'B2', 'F2']",7.6,180,0,0.4488921432636276,[27700|0|0]
27700,1.688431739807129,1.1417410373687744,-0.029517514631152153,-0.3550626039505005,0.9895282983779907,4.915719509124756,4.14453125,0,"['A1', 'B2', 'F2']",7.6,180,0,0.4502534815333137,[27800|0|0]
27801,1.688241958618164,1.1415053606033325,-0.029647549614310265,-0.34861546754837036,0.996476411819458,4.91571044921875,4.14453125,0,"['A1', 'B2', 'F2']",7.6,180,0,0.4505828286667443,[27900|0|0]
27901,1.6882723569869995,1.1415950059890747,-0.029723122715950012,-0.3614884912967682,0.9861867427825928,4.930021286010742,4.14453125,0,"['A1', 'B2', 'F2']",7.6,180,0,0.4507039552522001,[28000|0|0]
28001,1.6883670091629028,1.141796350479126,-0.029796052724123,-0.3661559522151947,0.9792060852050781,4.937260627746582,4.14453125,0,"['A1', 'B2', 'F2']",7.6,180,0,0.4509380864636379,[28100|0|0]
28101,1.6889266967773438,1.1422830820083618,-0.02867545746266842,-0.3872647285461426,0.9590215682983398,4.926740646362305,4.14453125,0,"['A1', 'B2', 'F2']",7.6,180,0,0.452281921106481,[28200|0|0]
28201,1.6888864040374756,1.1424134969711304,-0.028473930433392525,-0.39081141352653503,0.9559912085533142,4.92498254776001,4.14453125,0,"['A1', 'B2', 'F2']",7.6,180,0,0.4525253234707439,[28300|0|0]
28301,1.6889820098876953,1.1425076723098755,-0.028619155287742615,-0.392976313829422,0.9579781889915466,4.914414882659912,4.14453125,0,"['A1', 'B2', 'F2']",7.6,180,0,0.45272305999075224,[28400|0|0]
28401,1.6888880729675293,1.1426327228546143,-0.02889404445886612,-0.391473650932312,0.9569661021232605,4.934903144836426,4.14453125,0,"['A1', 'B2', 'F2']",7.6,180,0,0.4530393286109325,[28500|0|0]
28501,1.6886224746704102,1.142359733581543,-0.029193304479122162,-0.38452887535095215,0.9609289169311523,4.937185287475586,4.14453125,0,"['A1', 'B2', 'F2']",7.6,180,0,0.4535237067260123,[28600|0|0]
28601,1.6885251998901367,1.1424490213394165,-0.02852829173207283,-0.38533827662467957,0.9596871137619019,4.915755271911621,4.14453125,0,"['A1', 'B2', 'F2']",7.6,180,0,0.45420170129849896,[28700|0|0]
28701,1.688952088356018,1.1423847675323486,-0.02888868935406208,-0.3795519769191742,0.9469788074493408,4.908061504364014,4.14453125,0,"['A1', 'B2', 'F2']",7.6,180,0,0.45476406128992863,[28800|0|0]
28802,1.6888381242752075,1.142421841621399,-0.028753643855452538,-0.3840503692626953,0.9532990455627441,4.904862880706787,4.14453125,0,"['A1', 'B2', 'F2']",7.6,180,0,0.4549446148456638,[28900|0|0]
28902,1.6886987686157227,1.142439365386963,-0.028733598068356514,-0.3801988363265991,0.9560633897781372,4.901680946350098,4.14453125,0,"['A1', 'B2', 'F2']",7.6,180,0,0.4550864912558605,[29000|0|0]
29000,1.6888254880905151,1.1427147388458252,-0.0286782905459404,-0.37658101320266724,0.9437523484230042,4.902141094207764,4.14453125,0,"['A1', 'B2', 'F2']",7.6,180,0,0.45539462643589235,[29100|0|0]
29100,1.688749074935913,1.1422936916351318,-0.02870911732316017,-0.3653844892978668,0.9408187866210938,4.897234916687012,4.14453125,0,"['A1', 'B2', 'F2']",7.6,180,0,0.4558236602504369,[29200|0|0]
29202,1.6885559558868408,1.1425968408584595,-0.028430424630641937,-0.3748176097869873,0.9438531994819641,4.902616024017334,4.14453125,0,"['A1', 'B2', 'F2']",7.6,180,0,0.4562784833320651,[29300|0|0]
29302,1.6886491775512695,1.1422110795974731,-0.028473541140556335,-0.36461207270622253,0.9515335559844971,4.901023864746094,4.14453125,0,"['A1', 'B2', 'F2']",7.6,180,0,0.4566776838614032,[29400|0|0]
29402,1.6887437105178833,1.1424651145935059,-0.02851356565952301,-0.36535441875457764,0.9469549655914307,4.928920269012451,4.14453125,0,"['A1', 'B2', 'F2']",7.6,180,0,0.45695167696917177,[29500|0|0]
29502,1.6884411573410034,1.1425753831863403,-0.028492355719208717,-0.3696182668209076,0.9600023627281189,4.923050880432129,4.14453125,0,"['A1', 'B2', 'F2']",7.6,180,0,0.4572743958080609,[29600|0|0]
29602,1.6891474723815918,1.1427000761032104,-0.028636811301112175,-0.36788859963417053,0.9373060464859009,4.892002582550049,4.14453125,0,"['A1', 'B2', 'F2']",7.6,180,0,0.4580060355248765,[29700|0|0]
29700,1.6886078119277954,1.1425824165344238,-0.028776073828339577,-0.3629752993583679,0.9510692358016968,4.889217376708984,4.14453125,0,"['A1', 'B2', 'F2']",7.6,180,0,0.45857565928755545,[29800|0|0]
29800,1.688718318939209,1.1425204277038574,-0.028496989980340004,-0.37967243790626526,0.9359502792358398,4.8933939933776855,4.14453125,0,"['A1', 'B2', 'F2']",7.6,180,0,0.45888215922050946,[29900|0|0]
29900,1.689024806022644,1.142573595046997,-0.02879132144153118,-0.37397700548171997,0.9293752312660217,4.921749591827393,4.14453125,0,"['A1', 'B2', 'F2']",7.6,180,0,0.459310402268014,[30000|0|0]
30000,1.688582420349121,1.1426864862442017,-0.028825581073760986,-0.3759099841117859,0.9468270540237427,4.896364688873291,4.14453125,0,"['A1', 'B2', 'F2']",7.6,180,0,0.4597682485620311,[30100|0|0]
30100,1.6887749433517456,1.1423977613449097,-0.02846178226172924,-0.3630430996417999,0.9447194933891296,4.893303394317627,4.14453125,0,"['A1', 'B2', 'F2']",7.6,180,0,0.4602710176438633,[30200|0|0]
