time.ms,stateEstimate.x,stateEstimate.y,stateEstimate.z,stabilizer.roll,stabilizer.pitch,stabilizer.yaw,pm.vbat,drone_id,node_name,wind_speed,global_wind_direction,relative_wind_direction,travel_dist,waiting_time
0,1.826576590538025,-0.17657434940338135,-0.01580186001956463,-0.1373051106929779,0.6261924505233765,-5.070758819580078,4.08984375,0,B1,7.6,90,0,0.0490917541703863,[100|0|0|0]
100,1.826951503753662,-0.17664441466331482,-0.01562904193997383,-0.13902609050273895,0.6082905530929565,-5.073561191558838,4.08984375,0,B1,7.6,90,0,0.049510484571172325,[200|0|0|0]
200,1.8350962400436401,-0.16688752174377441,-0.015643207356333733,-0.4017481803894043,-1.3851103782653809,-4.539333820343018,4.08984375,0,B1,7.6,90,0,0.06222008288644899,[300|0|0|0]
300,1.832768201828003,-0.17487017810344696,-0.013407731428742409,1.2504595518112183,0.9587218165397644,-4.7284440994262695,4.08984375,0,B1,7.6,90,0,0.070830536829937,[400|0|0|0]
400,1.828800916671753,-0.17646870017051697,-0.01459336094558239,1.6554455757141113,2.9439303874969482,-4.737578392028809,4.0859375,0,B1,7.6,90,0,0.07526904352263371,[500|0|0|0]
500,1.8263195753097534,-0.17736314237117767,-0.01503110583871603,1.5385046005249023,3.4929540157318115,-4.78501558303833,4.08984375,0,B1,7.6,90,0,0.07794274926496156,[600|0|0|0]
600,1.8254021406173706,-0.17780858278274536,-0.015268097631633282,1.2759654521942139,3.334613561630249,-4.833154678344727,4.0859375,0,B1,7.6,90,0,0.07898977776741757,[700|0|0|0]
700,1.824573278427124,-0.17758837342262268,-0.015254031866788864,0.9946109056472778,3.0197646617889404,-4.855790138244629,4.0859375,0,B1,7.6,90,0,0.07984750880827284,[800|0|0|0]
800,1.8245972394943237,-0.17758312821388245,-0.015092345885932446,0.7949371933937073,2.652388572692871,-4.875502586364746,4.08984375,0,B1,7.6,90,0,0.08001104474120985,[900|0|0|0]
900,1.8246326446533203,-0.17723146080970764,-0.015969054773449898,0.6227586269378662,2.339207172393799,-4.90842866897583,4.0859375,0,B1,7.6,90,0,0.08095631822644822,[1000|0|0|0]
1000,1.824722409248352,-0.17696644365787506,-0.015539065934717655,0.4869941174983978,2.0697989463806152,-4.915732383728027,4.08984375,0,B1,7.6,90,0,0.08146933106714616,[1100|0|0|0]
1100,1.8251466751098633,-0.17710232734680176,-0.015116659924387932,0.3856242895126343,1.824826717376709,-4.925212860107422,4.08984375,0,B1,7.6,90,0,0.08208324696995603,[1200|0|0|0]
1200,1.8251292705535889,-0.17730502784252167,-0.01536252349615097,0.2976956367492676,1.6292229890823364,-4.969210624694824,4.08984375,0,B1,7.6,90,0,0.08240236968219113,[1300|0|0|0]
1300,1.8250906467437744,-0.17721571028232574,-0.015405331738293171,0.2212308645248413,1.4616670608520508,-4.9888834953308105,4.08984375,0,B1,7.6,90,0,0.08250868040996232,[1400|0|0|0]
1400,1.8259754180908203,-0.1768718808889389,-0.015483418479561806,0.1527148187160492,1.3101613521575928,-4.98859977722168,4.0859375,0,B1,7.6,90,0,0.08346111756141754,[1500|0|0|0]
1500,1.8259336948394775,-0.1769343614578247,-0.015516852028667927,0.10678088665008545,1.1861993074417114,-4.984714984893799,4.08984375,0,B1,7.6,90,0,0.08354335169907787,[1600|0|0|0]
1600,1.825979471206665,-0.17664358019828796,-0.015525290742516518,0.0624447725713253,1.0823577642440796,-4.971802711486816,4.08984375,0,B1,7.6,90,0,0.08383783502387246,[1700|0|0|0]
1700,1.8260526657104492,-0.17691457271575928,-0.015681825578212738,0.0292595773935318,0.9989213943481445,-4.994969367980957,4.08984375,0,B1,7.6,90,0,0.08415923436222911,[1800|0|0|0]
1800,1.8264390230178833,-0.17653906345367432,-0.015395225025713444,-0.008711629547178745,0.914942741394043,-4.998705863952637,4.08984375,0,B1,7.6,90,0,0.08476949582390943,[1900|0|0|0]
1900,1.8260481357574463,-0.17655883729457855,-0.015696894377470016,-0.03027745895087719,0.8641721606254578,-5.0119476318359375,4.0859375,0,B1,7.6,90,0,0.08526364990205236,[2000|0|0|0]
2000,1.8262807130813599,-0.1766676902770996,-0.015909023582935333,-0.04735837131738663,0.8140771985054016,-5.0396857261657715,4.08984375,0,B1,7.6,90,0,0.0855967264446276,[2100|0|0|0]
2100,1.826507329940796,-0.1767062097787857,-0.01551546435803175,-0.0638042613863945,0.7707237005233765,-5.057271480560303,4.08984375,0,B1,7.6,90,0,0.08605249811607889,[2200|0|0|0]
2200,1.8265031576156616,-0.17670555412769318,-0.015352536924183369,-0.0767403170466423,0.7375426292419434,-5.050284385681152,4.08984375,0,B1,7.6,90,0,0.08621548028343409,[2300|0|0|0]
2300,1.8265092372894287,-0.17641137540340424,-0.015459825284779072,-0.09498940408229828,0.7144597172737122,-5.054195880889893,4.08984375,0,B1,7.6,90,0,0.08652867172101932,[2400|0|0|0]
2400,1.8266308307647705,-0.17647358775138855,-0.015778612345457077,-0.11177785694599152,0.695583701133728,-5.062088489532471,4.0859375,0,B1,7.6,90,0,0.0868754865701004,[2500|0|0|0]
2500,1.8265057802200317,-0.17680302262306213,-0.015636498108506203,-0.11255023628473282,0.6800941824913025,-5.061947822570801,4.08984375,0,B1,7.6,90,0,0.08725543581639282,[2600|0|0|0]
2600,1.8267035484313965,-0.1765662580728531,-0.015505814924836159,-0.12161435186862946,0.6625977158546448,-5.06956148147583,4.08984375,0,B1,7.6,90,0,0.08759046986265714,[2700|0|0|0]
2700,1.8266395330429077,-0.17686282098293304,-0.015366394072771072,-0.11750731617212296,0.650263786315918,-5.057291030883789,4.08984375,0,B1,7.6,90,0,0.08792436461192556,[2800|0|0|0]
2800,1.8266270160675049,-0.17678625881671906,-0.015506601892411709,-0.12316811084747314,0.639863133430481,-5.056861877441406,4.08984375,0,B1,7.6,90,0,0.08808460403484325,[2900|0|0|0]
2900,1.8268376588821411,-0.1766091287136078,-0.015162165276706219,-0.13181518018245697,0.6159015893936157,-5.0535383224487305,4.0859375,0,B1,7.6,90,0,0.08852549183352307,[3000|0|0|0]
3000,1.8266993761062622,-0.1767604649066925,-0.015479272231459618,-0.13399085402488708,0.6163835525512695,-5.066401481628418,4.08984375,0,B1,7.6,90,0,0.08890309160867545,[3100|0|0|0]
3100,1.8266113996505737,-0.17673251032829285,-0.015383853577077389,-0.1347043365240097,0.6121808290481567,-5.056154727935791,4.08984375,0,B1,7.6,90,0,0.08903585468642346,[3200|0|0|0]
3200,1.8266234397888184,-0.17666199803352356,-0.015711652114987373,-0.13636820018291473,0.6079926490783691,-5.0639848709106445,4.08984375,0,B1,7.6,90,0,0.08937136747321184,[3300|0|0|0]
3300,1.8265806436538696,-0.17652824521064758,-0.015455740503966808,-0.1394599825143814,0.6049500703811646,-5.075155735015869,4.08984375,0,B1,7.6,90,0,0.08966327855462017,[3400|0|0|0]
3400,1.8267967700958252,-0.1767810434103012,-0.015332757495343685,-0.13215358555316925,0.5924918055534363,-5.101711273193359,4.0859375,0,B1,7.6,90,0,0.09001788028765384,[3500|0|0|0]
3500,1.8266699314117432,-0.17654886841773987,-0.015743739902973175,-0.13711926341056824,0.5915316939353943,-5.095466613769531,4.08984375,0,B1,7.6,90,0,0.09050665407820674,[3600|0|0|0]
3600,1.8267600536346436,-0.176714688539505,-0.015476163476705551,-0.13858632743358612,0.5881683826446533,-5.079156875610352,4.08984375,0,B1,7.6,90,0,0.0908340918153979,[3700|0|0|0]
3700,1.8269991874694824,-0.17654699087142944,-0.015547671355307102,-0.1455519050359726,0.5826040506362915,-5.072115421295166,4.08984375,0,B1,7.6,90,0,0.09113479245647606,[3800|0|0|0]
3800,1.8268533945083618,-0.17635971307754517,-0.015654318034648895,-0.15625834465026855,0.5849652886390686,-5.072126388549805,4.08984375,0,B1,7.6,90,0,0.09139498867821863,[3900|0|0|0]
3900,1.826781988143921,-0.17682604491710663,-0.015336696989834309,-0.13996417820453644,0.5864752531051636,-5.107295513153076,4.0859375,0,B1,7.6,90,0,0.0919637130240845,[4000|0|0|0]
4000,1.8267396688461304,-0.17664317786693573,-0.015729714184999466,-0.1443595290184021,0.5888221263885498,-5.097903728485107,4.08984375,0,B1,7.6,90,0,0.09239925153753559,[4100|0|0|0]
4100,1.8269009590148926,-0.17655536532402039,-0.01575290970504284,-0.1467895805835724,0.5940646529197693,-5.086655139923096,4.08984375,0,B1,7.6,90,0,0.09258435581458688,[4200|0|0|0]
4200,1.82687509059906,-0.17682099342346191,-0.015423154458403587,-0.14099782705307007,0.6084004640579224,-5.061682224273682,4.08984375,0,B1,7.6,90,0,0.0930085797941504,[4300|0|0|0]
4300,1.826716423034668,-0.17683233320713043,-0.015619694255292416,-0.13856761157512665,0.61369788646698,-5.068373203277588,4.08984375,0,B1,7.6,90,0,0.09326142733407292,[4400|0|0|0]
4400,1.8266842365264893,-0.1764708310365677,-0.015902360901236534,-0.15066911280155182,0.6181876063346863,-5.080499649047852,4.0859375,0,B1,7.6,90,0,0.09372144931546034,[4500|0|0|0]
4500,1.8266258239746094,-0.17683517932891846,-0.015260625630617142,-0.14280307292938232,0.6145099401473999,-5.0941643714904785,4.08984375,0,B1,7.6,90,0,0.09446170998705716,[4600|0|0|0]
4600,1.8266351222991943,-0.1765306144952774,-0.015268392860889435,-0.14672133326530457,0.6106889843940735,-5.08872127532959,4.08984375,0,B1,7.6,90,0,0.09476651570648675,[4700|0|0|0]
4700,1.8265411853790283,-0.17657865583896637,-0.015561798587441444,-0.13605983555316925,0.6134901642799377,-5.098722457885742,4.08984375,0,B1,7.6,90,0,0.09507831537942954,[4800|0|0|0]
4800,1.8269696235656738,-0.17659121751785278,-0.015606358647346497,-0.13704611361026764,0.6063376069068909,-5.088958263397217,4.08984375,0,B1,7.6,90,0,0.09550924771111431,[4900|0|0|0]
4900,1.8268088102340698,-0.17628790438175201,-0.01555816363543272,-0.1474941372871399,0.6084753274917603,-5.080126762390137,4.0859375,0,B1,7.6,90,0,0.0958559212539846,[5000|0|0|0]
5000,1.8268224000930786,-0.17613548040390015,-0.015602372586727142,-0.15406125783920288,0.6111649870872498,-5.082420349121094,4.08984375,0,B1,7.6,90,0,0.09601520774012394,[5100|0|0|0]
5100,1.8267041444778442,-0.1768922358751297,-0.01546673197299242,-0.13184113800525665,0.6156564950942993,-5.076001167297363,4.0859375,0,B1,7.6,90,0,0.09679306480274191,[5200|0|0|0]
5200,1.8267040252685547,-0.1770170032978058,-0.015554960817098618,-0.13300246000289917,0.6120401620864868,-5.065468788146973,4.08984375,0,B1,7.6,90,0,0.09694587597021473,[5300|0|0|0]
5300,1.8267736434936523,-0.17647092044353485,-0.015463666059076786,-0.14871573448181152,0.6050956845283508,-5.055034160614014,4.08984375,0,B1,7.6,90,0,0.0975038973979724,[5400|0|0|0]
5400,1.8265588283538818,-0.17669253051280975,-0.015291690826416016,-0.14218886196613312,0.6147688031196594,-5.053589820861816,4.0859375,0,B1,7.6,90,0,0.09785721318834607,[5500|0|0|0]
5500,1.8265793323516846,-0.1764909327030182,-0.015881715342402458,-0.14265422523021698,0.6226366758346558,-5.083480358123779,4.0859375,0,B1,7.6,90,0,0.09848106494982767,[5600|0|0|0]
5600,1.8267295360565186,-0.17625266313552856,-0.01572979800403118,-0.15185847878456116,0.6201052665710449,-5.074474811553955,4.08984375,0,B1,7.6,90,0,0.09880108435148226,[5700|0|0|0]
5700,1.8268566131591797,-0.1767081618309021,-0.015588780865073204,-0.13480716943740845,0.6171010732650757,-5.075970649719238,4.08984375,0,B1,7.6,90,0,0.09929455520673881,[5800|0|0|0]
5800,1.826837420463562,-0.17686209082603455,-0.015477585606276989,-0.1325269341468811,0.6171128153800964,-5.084038734436035,4.08984375,0,B1,7.6,90,0,0.09948541348056082,[5900|0|0|0]
5900,1.8268568515777588,-0.17656968533992767,-0.015078337863087654,-0.14632630348205566,0.6193563938140869,-5.107092380523682,4.0859375,0,B1,7.6,90,0,0.09998066826039248,[6000|0|0|0]
6000,1.8267155885696411,-0.17643176019191742,-0.015569409355521202,-0.14839686453342438,0.6219289302825928,-5.0893964767456055,4.08984375,0,B1,7.6,90,0,0.10050994115276184,[6100|0|0|0]
6100,1.8264808654785156,-0.1767202615737915,-0.015153707936406136,-0.13440284132957458,0.6272003650665283,-5.098976135253906,4.0859375,0,B1,7.6,90,0,0.10106773649758378,[6200|0|0|0]
6200,1.8265268802642822,-0.17671476304531097,-0.0156242735683918,-0.13183394074440002,0.628394603729248,-5.135777950286865,4.08984375,0,B1,7.6,90,0,0.10154057855190073,[6300|0|0|0]
6300,1.826633095741272,-0.17666679620742798,-0.015641769394278526,-0.13319826126098633,0.6226353645324707,-5.114049911499023,4.08984375,0,B1,7.6,90,0,0.10165842866438311,[6400|0|0|0]
6400,1.8264808654785156,-0.17648692429065704,-0.01566033624112606,-0.139924556016922,0.6245612502098083,-5.1195969581604,4.0859375,0,B1,7.6,90,0,0.10189480270513966,[6500|0|0|0]
6500,1.8266957998275757,-0.17684990167617798,-0.015624537132680416,-0.12956838309764862,0.6134582757949829,-5.1305012702941895,4.08984375,0,B1,7.6,90,0,0.10231815944947119,[6600|0|0|0]
6600,1.8266347646713257,-0.1766551285982132,-0.015482033602893353,-0.13205820322036743,0.6165791153907776,-5.068443775177002,4.08984375,0,B1,7.6,90,0,0.10256709538138964,[6700|0|0|0]
6700,1.8268216848373413,-0.17675860226154327,-0.015536531805992126,-0.12712188065052032,0.6102002859115601,-5.121906280517578,4.08984375,0,B1,7.6,90,0,0.10278758574763554,[6800|0|0|0]
6800,1.826520323753357,-0.17665085196495056,-0.015449614264070988,-0.1320832371711731,0.6147864460945129,-5.1135640144348145,4.08984375,0,B1,7.6,90,0,0.10311922303210408,[6900|0|0|0]
6900,1.8266316652297974,-0.17619244754314423,-0.015706725418567657,-0.1424523890018463,0.6104620099067688,-5.111308574676514,4.0859375,0,B1,7.6,90,0,0.10365647314524892,[7000|0|0|0]
7000,1.826828122138977,-0.1763395369052887,-0.015507153235375881,-0.13414016366004944,0.6053550243377686,-5.104043483734131,4.08984375,0,B1,7.6,90,0,0.10397279521833969,[7100|0|0|0]
7100,1.8269251585006714,-0.17663848400115967,-0.015647374093532562,-0.12293336540460587,0.6022555232048035,-5.113550662994385,4.08984375,0,B1,7.6,90,0,0.10431695696909471,[7200|0|0|0]
7200,1.8267942667007446,-0.17661888897418976,-0.01589111052453518,-0.1238580197095871,0.6162246465682983,-5.120673656463623,4.08984375,0,B1,7.6,90,0,0.10459430886861572,[7300|0|0|0]
7300,1.8267384767532349,-0.177000030875206,-0.01527015957981348,-0.11450102180242538,0.6196750402450562,-5.118643283843994,4.08984375,0,B1,7.6,90,0,0.10532503572778006,[7400|0|0|0]
7400,1.826663851737976,-0.17660784721374512,-0.015759842470288277,-0.12796926498413086,0.6148011088371277,-5.127502918243408,4.0859375,0,B1,7.6,90,0,0.10595683177908378,[7500|0|0|0]
7500,1.8266493082046509,-0.17664118111133575,-0.015383262187242508,-0.1216382160782814,0.6214156746864319,-5.107522487640381,4.08984375,0,B1,7.6,90,0,0.10633516413650117,[7600|0|0|0]
7601,1.8265901803970337,-0.1766946017742157,-0.015391752123832703,-0.11899317800998688,0.6189069151878357,-5.124633312225342,4.0859375,0,B1,7.6,90,0,0.10641530116838689,[7700|0|0|0]
7701,1.8268243074417114,-0.17678657174110413,-0.015587558969855309,-0.11839483678340912,0.6165337562561035,-5.10917854309082,4.08984375,0,B1,7.6,90,0,0.10673407109922779,[7800|0|0|0]
7800,1.8266810178756714,-0.17652134597301483,-0.015219651162624359,-0.12700790166854858,0.6243041157722473,-5.1351776123046875,4.0859375,0,B1,7.6,90,0,0.10720971041889762,[7900|0|0|0]
7901,1.8266502618789673,-0.17632614076137543,-0.01558108814060688,-0.13166208565235138,0.6264322400093079,-5.140156269073486,4.0859375,0,B1,7.6,90,0,0.10762164208196516,[8000|0|0|0]
8001,1.8266726732254028,-0.17689214646816254,-0.015275775454938412,-0.11836999654769897,0.6226475834846497,-5.153983116149902,4.08984375,0,B1,7.6,90,0,0.10826513300233212,[8100|0|0|0]
8101,1.8268038034439087,-0.17666831612586975,-0.01555150281637907,-0.12807761132717133,0.6150407195091248,-5.149707794189453,4.08984375,0,B1,7.6,90,0,0.1086437102522869,[8200|0|0|0]
8201,1.8265575170516968,-0.17671290040016174,-0.015566299669444561,-0.12233353406190872,0.6163099408149719,-5.113899230957031,4.0859375,0,B1,7.6,90,0,0.10889443657991037,[8300|0|0|0]
8301,1.8266627788543701,-0.17658881843090057,-0.01567832939326763,-0.12719379365444183,0.6065683960914612,-5.117822647094727,4.08984375,0,B1,7.6,90,0,0.10909198920889222,[8400|0|0|0]
8401,1.8270422220230103,-0.17654886841773987,-0.015533186495304108,-0.12983697652816772,0.5988486409187317,-5.10698127746582,4.0859375,0,B1,7.6,90,0,0.10950020432694697,[8500|0|0|0]
8500,1.8264739513397217,-0.1766727864742279,-0.015375589951872826,-0.13603703677654266,0.6182093024253845,-5.144983291625977,4.0859375,0,B1,7.6,90,0,0.11010280197439552,[8600|0|0|0]
8600,1.8268775939941406,-0.1767500787973404,-0.015406298451125622,-0.13866066932678223,0.6048826575279236,-5.140948295593262,4.08984375,0,B1,7.6,90,0,0.1105149239315937,[8700|0|0|0]
8700,1.8265398740768433,-0.17655737698078156,-0.015658902004361153,-0.15218092501163483,0.614145040512085,-5.149762153625488,4.08984375,0,B1,7.6,90,0,0.11097860193166663,[8800|0|0|0]
8800,1.8265920877456665,-0.17643500864505768,-0.01587704010307789,-0.1566525101661682,0.6126174926757812,-5.126372814178467,4.0859375,0,B1,7.6,90,0,0.11123411026208184,[8900|0|0|0]
8900,1.8265423774719238,-0.17677856981754303,-0.015369316563010216,-0.1464748978614807,0.6029636859893799,-5.133568286895752,4.0859375,0,B1,7.6,90,0,0.11184916195396954,[9000|0|0|0]
9002,1.8266491889953613,-0.17676681280136108,-0.015447545796632767,-0.15034295618534088,0.5986452102661133,-5.077054023742676,4.08984375,0,B1,7.6,90,0,0.1119820782507947,[9100|0|0|0]
9100,1.82662034034729,-0.17675508558750153,-0.01567087322473526,-0.14986111223697662,0.5949867963790894,-5.10618257522583,4.0859375,0,B1,7.6,90,0,0.1122075664149704,[9200|0|0|0]
9200,1.8265529870986938,-0.17654550075531006,-0.015864137560129166,-0.15305036306381226,0.5932308435440063,-5.088367462158203,4.08984375,0,B1,7.6,90,0,0.11250050559861853,[9300|0|0|0]
9300,1.8266398906707764,-0.17669594287872314,-0.01521739736199379,-0.14428667724132538,0.5933206677436829,-5.104925155639648,4.08984375,0,B1,7.6,90,0,0.11317017562723107,[9400|0|0|0]
9400,1.826735258102417,-0.1766243427991867,-0.015819229185581207,-0.1415674239397049,0.6013675928115845,-5.123492240905762,4.0859375,0,B1,7.6,90,0,0.11378370888817942,[9500|0|0|0]
9500,1.8268616199493408,-0.17689329385757446,-0.015306349843740463,-0.13082554936408997,0.6016557216644287,-5.098258972167969,4.08984375,0,B1,7.6,90,0,0.11437645437104106,[9600|0|0|0]
9600,1.8265397548675537,-0.17634016275405884,-0.015885524451732635,-0.14693377912044525,0.6100633144378662,-5.090484619140625,4.08984375,0,B1,7.6,90,0,0.11523958493769544,[9700|0|0|0]
9700,1.8265596628189087,-0.17681162059307098,-0.015429921448230743,-0.13464605808258057,0.6028422117233276,-5.091434478759766,4.0859375,0,B1,7.6,90,0,0.11589551398667337,[9800|0|0|0]
9800,1.8266425132751465,-0.17659513652324677,-0.01585949957370758,-0.13740704953670502,0.5970559120178223,-5.083857536315918,4.08984375,0,B1,7.6,90,0,0.11638363990943784,[9900|0|0|0]
9900,1.8268060684204102,-0.1769491285085678,-0.015318138524889946,-0.12605133652687073,0.5899580121040344,-5.097786903381348,4.0859375,0,B1,7.6,90,0,0.11705082234055446,[10000|0|0|0]
10000,1.8266032934188843,-0.17660249769687653,-0.015600856393575668,-0.1411687731742859,0.6001652479171753,-5.094333648681641,4.0859375,0,B1,7.6,90,0,0.11754194352125406,[10100|0|0|0]
10100,1.826474666595459,-0.17651186883449554,-0.015677431598305702,-0.14161230623722076,0.6025111675262451,-5.094799518585205,4.08984375,0,B1,7.6,90,0,0.11771693555644538,[10200|0|0|0]
10200,1.826744794845581,-0.17675745487213135,-0.015652243047952652,-0.13517282903194427,0.6039375066757202,-5.10793924331665,4.08984375,0,B1,7.6,90,0,0.11808288123064382,[10300|0|0|0]
10300,1.8266109228134155,-0.17656965553760529,-0.01578228734433651,-0.1433328539133072,0.6058908104896545,-5.116192817687988,4.0859375,0,B1,7.6,90,0,0.11834764873255169,[10400|0|0|0]
10400,1.826704502105713,-0.17621451616287231,-0.015797514468431473,-0.15052944421768188,0.6059854626655579,-5.107179641723633,4.0859375,0,B1,7.6,90,0,0.11871522583295487,[10500|0|0|0]
10500,1.8265671730041504,-0.17670504748821259,-0.015460190363228321,-0.13535912334918976,0.6056005954742432,-5.135703086853027,4.0859375,0,B1,7.6,90,0,0.11932618230867728,[10600|0|0|0]
10600,1.8266243934631348,-0.17665068805217743,-0.015877792611718178,-0.13319343328475952,0.6141763925552368,-5.124562740325928,4.0859375,0,B1,7.6,90,0,0.1197511773288319,[10700|0|0|0]
10700,1.826798439025879,-0.1766887605190277,-0.015411379747092724,-0.13484999537467957,0.608993649482727,-5.13332462310791,4.08984375,0,B1,7.6,90,0,0.12025045914397353,[10800|0|0|0]
10800,1.826612114906311,-0.17666444182395935,-0.015756672248244286,-0.13729071617126465,0.6165720820426941,-5.12830924987793,4.0859375,0,B1,7.6,90,0,0.1206435685280056,[10900|0|0|0]
10900,1.8267043828964233,-0.17700552940368652,-0.015203683637082577,-0.13241927325725555,0.6175999641418457,-5.133072376251221,4.0859375,0,B1,7.6,90,0,0.12129980821220496,[11000|0|0|0]
11000,1.8266551494598389,-0.17650163173675537,-0.015520680695772171,-0.14482499659061432,0.6176462769508362,-5.129615783691406,4.08984375,0,B1,7.6,90,0,0.12189715561969446,[11100|0|0|0]
11100,1.826690912246704,-0.17638660967350006,-0.015780160203576088,-0.14630261063575745,0.6124753355979919,-5.116127014160156,4.08984375,0,B1,7.6,90,0,0.12218323020250467,[11200|0|0|0]
11200,1.8267583847045898,-0.17663079500198364,-0.01576741226017475,-0.13444960117340088,0.6029366850852966,-5.11618185043335,4.0859375,0,B1,7.6,90,0,0.12243688650004278,[11300|0|0|0]
11300,1.8266959190368652,-0.1768927127122879,-0.015350126661360264,-0.12170553207397461,0.6067876815795898,-5.135740756988525,4.08984375,0,B1,7.6,90,0,0.12293350518434017,[11400|0|0|0]
11400,1.8266005516052246,-0.17641428112983704,-0.015566932037472725,-0.135426327586174,0.6089858412742615,-5.125766754150391,4.0859375,0,B1,7.6,90,0,0.12346735562895499,[11500|0|0|0]
11500,1.8266371488571167,-0.1766895055770874,-0.015802090987563133,-0.12743604183197021,0.6080177426338196,-5.097634792327881,4.0859375,0,B1,7.6,90,0,0.12383120667954842,[11600|0|0|0]
11600,1.8268150091171265,-0.17655010521411896,-0.01588483713567257,-0.13581036031246185,0.6044350266456604,-5.108557224273682,4.08984375,0,B1,7.6,90,0,0.12407185924719195,[11700|0|0|0]
11700,1.8266034126281738,-0.17687390744686127,-0.015230026096105576,-0.12663386762142181,0.612644374370575,-5.125300884246826,4.0859375,0,B1,7.6,90,0,0.12483238436683285,[11800|0|0|0]
11800,1.8265773057937622,-0.1767178177833557,-0.01529167965054512,-0.12947195768356323,0.6126294732093811,-5.11474084854126,4.0859375,0,B1,7.6,90,0,0.12500222756107773,[11900|0|0|0]
11900,1.8264659643173218,-0.17669257521629333,-0.015444312244653702,-0.1315024346113205,0.616827666759491,-5.119807720184326,4.0859375,0,B1,7.6,90,0,0.1251928340151976,[12000|0|0|0]
12000,1.826662302017212,-0.1767464131116867,-0.015303730964660645,-0.13021457195281982,0.6105508804321289,-5.120166778564453,4.08984375,0,B1,7.6,90,0,0.1254402407807943,[12100|0|0|0]
12100,1.8264966011047363,-0.17672555148601532,-0.015523386187851429,-0.136951744556427,0.6118601560592651,-5.125674724578857,4.0859375,0,B1,7.6,90,0,0.12571617631111956,[12200|0|0|0]
12200,1.8265506029129028,-0.1768099069595337,-0.01543444860726595,-0.13969844579696655,0.6132421493530273,-5.1192803382873535,4.0859375,0,B1,7.6,90,0,0.1258501238173978,[12300|0|0|0]
12300,1.8264899253845215,-0.17670893669128418,-0.015607377514243126,-0.1410737782716751,0.6168835759162903,-5.123484134674072,4.0859375,0,B1,7.6,90,0,0.12605936330790848,[12400|0|0|0]
12400,1.826500654220581,-0.17674073576927185,-0.01522102765738964,-0.13844060897827148,0.6190994381904602,-5.147996425628662,4.0859375,0,B1,7.6,90,0,0.1264471680283217,[12500|0|0|0]
12500,1.8267492055892944,-0.17685626447200775,-0.015603370033204556,-0.13105502724647522,0.6137269139289856,-5.161983013153076,4.0859375,0,B1,7.6,90,0,0.12691760437512,[12600|0|0|0]
12600,1.8266245126724243,-0.17635777592658997,-0.015652231872081757,-0.14038431644439697,0.6052840948104858,-5.1260504722595215,4.0859375,0,B1,7.6,90,0,0.12743376969042972,[12700|0|0|0]
12700,1.826767921447754,-0.176555335521698,-0.015712056308984756,-0.13495011627674103,0.6054714918136597,-5.1172566413879395,4.0859375,0,B1,7.6,90,0,0.12768511573418523,[12800|0|0|0]
12800,1.8266321420669556,-0.17651087045669556,-0.01581379398703575,-0.13324475288391113,0.6047182083129883,-5.108297824859619,4.0859375,0,B1,7.6,90,0,0.12786051167881013,[12900|0|0|0]
12900,1.8269084692001343,-0.17639382183551788,-0.015445400960743427,-0.13422919809818268,0.5943393111228943,-5.109567642211914,4.0859375,0,B1,7.6,90,0,0.1283356647973637,[13000|0|0|0]
13000,1.8265066146850586,-0.17651987075805664,-0.015709036961197853,-0.12247411906719208,0.6116628050804138,-5.125033378601074,4.0859375,0,B1,7.6,90,0,0.128832534320373,[13100|0|0|0]
13100,1.8265992403030396,-0.1768726408481598,-0.015293637290596962,-0.11240776628255844,0.610528826713562,-5.1159281730651855,4.0859375,0,B1,7.6,90,0,0.12938533005833872,[13200|0|0|0]
13200,1.8266716003417969,-0.1765041947364807,-0.015533282421529293,-0.12308845669031143,0.6038771271705627,-5.136891841888428,4.08984375,0,B1,7.6,90,0,0.1298307717505948,[13300|0|0|0]
13300,1.8267109394073486,-0.1767338067293167,-0.015510697849094868,-0.11405543982982635,0.6037173271179199,-5.1239848136901855,4.0859375,0,B1,7.6,90,0,0.13006482151505666,[13400|0|0|0]
13400,1.8266645669937134,-0.17638374865055084,-0.01560570765286684,-0.12157978862524033,0.5958020091056824,-5.102964878082275,4.0859375,0,B1,7.6,90,0,0.13043049612733976,[13500|0|0|0]
13500,1.8265557289123535,-0.17687071859836578,-0.01528923399746418,-0.10709278285503387,0.595678448677063,-5.09974479675293,4.0859375,0,B1,7.6,90,0,0.13102137769973216,[13600|0|0|0]
13600,1.8265783786773682,-0.1763773262500763,-0.015659116208553314,-0.11957541108131409,0.5949298739433289,-5.107430934906006,4.0859375,0,B1,7.6,90,0,0.13163843674981246,[13700|0|0|0]
13700,1.8265397548675537,-0.17657539248466492,-0.015606840141117573,-0.11640812456607819,0.5941883325576782,-5.114770889282227,4.0859375,0,B1,7.6,90,0,0.13184689494513047,[13800|0|0|0]
13800,1.8265985250473022,-0.17705412209033966,-0.015232068486511707,-0.10564366728067398,0.5939902067184448,-5.114047050476074,4.0859375,0,B1,7.6,90,0,0.13245770568707366,[13900|0|0|0]
13900,1.8266545534133911,-0.1769673377275467,-0.01550800446420908,-0.11231179535388947,0.5951679348945618,-5.098359107971191,4.0859375,0,B1,7.6,90,0,0.1327523433751242,[14000|0|0|0]
14000,1.8267173767089844,-0.17687614262104034,-0.01547613088041544,-0.11409160494804382,0.5984877347946167,-5.1049065589904785,4.08984375,0,B1,7.6,90,0,0.13286757895671145,[14100|0|0|0]
14100,1.8268413543701172,-0.17664697766304016,-0.0155903035774827,-0.12387626618146896,0.5934524536132812,-5.104428768157959,4.0859375,0,B1,7.6,90,0,0.13315204766007052,[14200|0|0|0]
14200,1.8266150951385498,-0.17647676169872284,-0.01575738750398159,-0.12849164009094238,0.5980395674705505,-5.082019329071045,4.0859375,0,B1,7.6,90,0,0.133480808595816,[14300|0|0|0]
14300,1.8267452716827393,-0.17678941786289215,-0.01549553219228983,-0.12242158502340317,0.5893164277076721,-5.105081558227539,4.08984375,0,B1,7.6,90,0,0.13390890673165795,[14400|0|0|0]
14400,1.8264620304107666,-0.17651575803756714,-0.015579421073198318,-0.13024522364139557,0.600752592086792,-5.103214740753174,4.0859375,0,B1,7.6,90,0,0.13431158856944764,[14500|0|0|0]
14500,1.826798677444458,-0.1767081618309021,-0.01530740037560463,-0.1267305463552475,0.5942769050598145,-5.098927974700928,4.0859375,0,B1,7.6,90,0,0.13478524002875317,[14600|0|0|0]
14600,1.826547622680664,-0.1766853779554367,-0.015544445253908634,-0.1232299730181694,0.5968071222305298,-5.094490051269531,4.08984375,0,B1,7.6,90,0,0.1351312716367531,[14700|0|0|0]
14700,1.8267791271209717,-0.17654874920845032,-0.015713389962911606,-0.13005131483078003,0.5944623947143555,-5.111701965332031,4.0859375,0,B1,7.6,90,0,0.13544876814867932,[14800|0|0|0]
14800,1.8266713619232178,-0.17690613865852356,-0.01554173044860363,-0.12176007777452469,0.5952813029289246,-5.126592636108398,4.0859375,0,B1,7.6,90,0,0.13585963010326144,[14900|0|0|0]
14900,1.82667875289917,-0.1768183708190918,-0.015414628200232983,-0.1301933228969574,0.5945583581924438,-5.153225421905518,4.0859375,0,B1,7.6,90,0,0.13601426774972866,[15000|0|0|0]
15000,1.8267244100570679,-0.1766272783279419,-0.015571230091154575,-0.14086540043354034,0.5923250913619995,-5.149367332458496,4.08984375,0,B1,7.6,90,0,0.13626551477653975,[15100|0|0|0]
15100,1.8267467021942139,-0.17676180601119995,-0.015610631555318832,-0.13812914490699768,0.5936062932014465,-5.154010772705078,4.0859375,0,B1,7.6,90,0,0.13640745530042073,[15200|0|0|0]
15200,1.8266173601150513,-0.1768096685409546,-0.015696289017796516,-0.1339666247367859,0.6093178987503052,-5.135883331298828,4.08984375,0,B1,7.6,90,0,0.13656980491106002,[15300|0|0|0]
15300,1.8265786170959473,-0.17670154571533203,-0.0152914859354496,-0.13573728501796722,0.6080687642097473,-5.139989852905273,4.0859375,0,B1,7.6,90,0,0.13699058644871046,[15400|0|0|0]
15400,1.8266326189041138,-0.17681363224983215,-0.015531422570347786,-0.128219872713089,0.6041491031646729,-5.138185024261475,4.0859375,0,B1,7.6,90,0,0.13726086255802789,[15500|0|0|0]
15500,1.8265745639801025,-0.1769288033246994,-0.015507685951888561,-0.12201643735170364,0.6001691222190857,-5.147404670715332,4.0859375,0,B1,7.6,90,0,0.13739200438104368,[15600|0|0|0]
15600,1.826490044593811,-0.17653734982013702,-0.0158003568649292,-0.13575617969036102,0.6044489741325378,-5.142044544219971,4.0859375,0,B1,7.6,90,0,0.13788802417523874,[15700|0|0|0]
15700,1.8265347480773926,-0.17658410966396332,-0.015496017411351204,-0.1272115558385849,0.6064315438270569,-5.156972885131836,4.0859375,0,B1,7.6,90,0,0.1381991630308051,[15800|0|0|0]
15800,1.8268449306488037,-0.17686975002288818,-0.015314274467527866,-0.12005390971899033,0.6110155582427979,-5.159512042999268,4.0859375,0,B1,7.6,90,0,0.13865832981954695,[15900|0|0|0]
15900,1.8266555070877075,-0.17666471004486084,-0.01514345407485962,-0.1273394525051117,0.6108599901199341,-5.154690742492676,4.0859375,0,B1,7.6,90,0,0.13898559467350954,[16000|0|0|0]
16000,1.826715350151062,-0.1768876612186432,-0.015386020764708519,-0.12071167677640915,0.6081295609474182,-5.139846324920654,4.0859375,0,B1,7.6,90,0,0.1393204483985102,[16100|0|0|0]
16100,1.8265482187271118,-0.17654356360435486,-0.015928229317069054,-0.1290677934885025,0.6133430600166321,-5.135806560516357,4.0859375,0,B1,7.6,90,0,0.13998401918997366,[16200|0|0|0]
16200,1.826772928237915,-0.17652194201946259,-0.01587703637778759,-0.1347452998161316,0.6062161326408386,-5.138991355895996,4.0859375,0,B1,7.6,90,0,0.14021549829099783,[16300|0|0|0]
16300,1.8266156911849976,-0.17672643065452576,-0.01576671190559864,-0.12730979919433594,0.6095949411392212,-5.119933605194092,4.0859375,0,B1,7.6,90,0,0.140496052353246,[16400|0|0|0]
16400,1.8269023895263672,-0.17653606832027435,-0.015840228646993637,-0.13341139256954193,0.6049800515174866,-5.114895343780518,4.0859375,0,B1,7.6,90,0,0.1408479592564336,[16500|0|0|0]
16500,1.8267121315002441,-0.17667081952095032,-0.015217392705380917,-0.1287941038608551,0.6069589853286743,-5.138554096221924,4.08984375,0,B1,7.6,90,0,0.14151300106921866,[16600|0|0|0]
16600,1.8267194032669067,-0.17656415700912476,-0.015592117793858051,-0.13026279211044312,0.6074608564376831,-5.128384590148926,4.0859375,0,B1,7.6,90,0,0.14190267870772713,[16700|0|0|0]
16700,1.8265185356140137,-0.17650248110294342,-0.01576102524995804,-0.12904764711856842,0.6087368130683899,-5.12558126449585,4.0859375,0,B1,7.6,90,0,0.14217227370046295,[16800|0|0|0]
16800,1.82681143283844,-0.17679345607757568,-0.015602036379277706,-0.1201528012752533,0.5975254774093628,-5.094810962677002,4.0859375,0,B1,7.6,90,0,0.1426146905637707,[16900|0|0|0]
16900,1.8267111778259277,-0.1769264191389084,-0.015233846381306648,-0.12069626897573471,0.6026414036750793,-5.101678848266602,4.0859375,0,B1,7.6,90,0,0.14301878723267397,[17000|0|0|0]
17000,1.8266271352767944,-0.17663227021694183,-0.015758950263261795,-0.13075119256973267,0.606529712677002,-5.111837863922119,4.0859375,0,B1,7.6,90,0,0.14362650495102952,[17100|0|0|0]
17100,1.8266589641571045,-0.17657217383384705,-0.015535209327936172,-0.13376156985759735,0.610559344291687,-5.121580123901367,4.0859375,0,B1,7.6,90,0,0.1438603524633602,[17200|0|0|0]
17200,1.8265929222106934,-0.1769643872976303,-0.015502304770052433,-0.128118634223938,0.6136749386787415,-5.11416482925415,4.0859375,0,B1,7.6,90,0,0.14425944599849722,[17300|0|0|0]
17300,1.8265438079833984,-0.17686615884304047,-0.015325202606618404,-0.13181619346141815,0.6112362146377563,-5.139192581176758,4.0859375,0,B1,7.6,90,0,0.14446783556855028,[17400|0|0|0]
17400,1.8267897367477417,-0.1766178458929062,-0.015779538080096245,-0.14466826617717743,0.6050808429718018,-5.1150407791137695,4.0859375,0,B1,7.6,90,0,0.1450410379767763,[17500|0|0|0]
17500,1.8265390396118164,-0.1768515408039093,-0.015282693319022655,-0.13944698870182037,0.6145602464675903,-5.120303153991699,4.0859375,0,B1,7.6,90,0,0.14564462482387966,[17600|0|0|0]
17600,1.8265089988708496,-0.1769678294658661,-0.015433551743626595,-0.1341065615415573,0.609510600566864,-5.116862773895264,4.0859375,0,B1,7.6,90,0,0.14583745574279963,[17700|0|0|0]
17700,1.8265933990478516,-0.1767735779285431,-0.015763593837618828,-0.13799701631069183,0.6126254796981812,-5.117763042449951,4.0859375,0,B1,7.6,90,0,0.1462296098367947,[17800|0|0|0]
17800,1.8264586925506592,-0.1767873764038086,-0.015443033538758755,-0.13857702910900116,0.6073079705238342,-5.113649368286133,4.0859375,0,B1,7.6,90,0,0.14657759711172116,[17900|0|0|0]
17900,1.8266658782958984,-0.1765410155057907,-0.01567099615931511,-0.1432114839553833,0.5931971073150635,-5.103853702545166,4.0859375,0,B1,7.6,90,0,0.14697204176116319,[18000|0|0|0]
18000,1.8266419172286987,-0.17675010859966278,-0.01597241871058941,-0.1356847882270813,0.5963962078094482,-5.112148284912109,4.0859375,0,B1,7.6,90,0,0.14733966875835333,[18100|0|0|0]
18100,1.8264334201812744,-0.1762753278017044,-0.01620566099882126,-0.13637609779834747,0.6057583689689636,-5.206076145172119,4.0859375,0,B1,7.6,90,0,0.14790825453896544,[18200|0|0|0]
18200,1.8264232873916626,-0.1759415715932846,-0.01655091717839241,-0.1291993111371994,0.6116765141487122,-5.217796325683594,4.08984375,0,B1,7.6,90,0,0.14838856455303567,[18300|0|0|0]
18300,1.8265477418899536,-0.1767287701368332,-0.015390538610517979,-0.11716680973768234,0.6029393672943115,-5.183104515075684,4.08984375,0,B1,7.6,90,0,0.14979627506656187,[18400|0|0|0]
18400,1.8265235424041748,-0.17705689370632172,-0.015056513249874115,-0.11831841617822647,0.5998219847679138,-5.186200141906738,4.0859375,0,B1,7.6,90,0,0.150265128597549,[18500|0|0|0]
18500,1.8266695737838745,-0.17688754200935364,-0.015357636846601963,-0.12831233441829681,0.5992977619171143,-5.187748432159424,4.0859375,0,B1,7.6,90,0,0.15064020269906667,[18600|0|0|0]
18600,1.82658851146698,-0.17690575122833252,-0.015511258505284786,-0.12806226313114166,0.5978572368621826,-5.155979156494141,4.0859375,0,B1,7.6,90,0,0.1508148517439899,[18700|0|0|0]
18700,1.8266417980194092,-0.17663080990314484,-0.015462381765246391,-0.14052215218544006,0.588440477848053,-5.146552085876465,4.08984375,0,B1,7.6,90,0,0.15109914230781946,[18800|0|0|0]
18800,1.8265272378921509,-0.17679385840892792,-0.01552220806479454,-0.13674210011959076,0.5939517617225647,-5.14635705947876,4.0859375,0,B1,7.6,90,0,0.15130720005007664,[18900|0|0|0]
18900,1.826643466949463,-0.17694686353206635,-0.015410363674163818,-0.13374903798103333,0.5879729390144348,-5.139533519744873,4.0859375,0,B1,7.6,90,0,0.15152952622754073,[19000|0|0|0]
19000,1.8266974687576294,-0.1767309457063675,-0.015077222138643265,-0.14520752429962158,0.5880807638168335,-5.132320404052734,4.0859375,0,B1,7.6,90,0,0.15193017568208766,[19100|0|0|0]
19100,1.8265012502670288,-0.17689353227615356,-0.0154104670509696,-0.1366928666830063,0.5950756072998047,-5.117879867553711,4.0859375,0,B1,7.6,90,0,0.15234968522944,[19200|0|0|0]
19200,1.82636296749115,-0.17652766406536102,-0.01583929918706417,-0.14131620526313782,0.6022622585296631,-5.11269474029541,4.08984375,0,B1,7.6,90,0,0.15293009773337213,[19300|0|0|0]
19300,1.8265981674194336,-0.1769564002752304,-0.015561584383249283,-0.13084293901920319,0.5976346135139465,-5.114222049713135,4.0859375,0,B1,7.6,90,0,0.15349246705701608,[19400|0|0|0]
19400,1.8266078233718872,-0.17630761861801147,-0.015621320344507694,-0.1510157287120819,0.5909913182258606,-5.128624439239502,4.0859375,0,B1,7.6,90,0,0.15414406452572588,[19500|0|0|0]
19500,1.826623797416687,-0.17661842703819275,-0.01584593765437603,-0.14372491836547852,0.5910139679908752,-5.1308064460754395,4.0859375,0,B1,7.6,90,0,0.15452787434849666,[19600|0|0|0]
19600,1.826554536819458,-0.176799938082695,-0.01521396916359663,-0.14251331984996796,0.5950836539268494,-5.122996807098389,4.08984375,0,B1,7.6,90,0,0.15518903050474328,[19700|0|0|0]
19700,1.8265551328659058,-0.17671766877174377,-0.015663079917430878,-0.1467130035161972,0.594904899597168,-5.121499538421631,4.0859375,0,B1,7.6,90,0,0.15564561463062299,[19800|0|0|0]
19800,1.82660973072052,-0.1766156703233719,-0.015680449083447456,-0.14603814482688904,0.5957547426223755,-5.104298114776611,4.0859375,0,B1,7.6,90,0,0.15576260307931286,[19900|0|0|0]
19900,1.8265397548675537,-0.17671458423137665,-0.015603097155690193,-0.1425601840019226,0.5980387926101685,-5.084619045257568,4.0859375,0,B1,7.6,90,0,0.15590635252078275,[20000|0|0|0]
20000,1.8267172574996948,-0.17701703310012817,-0.015725119039416313,-0.13579118251800537,0.5917208790779114,-5.085288047790527,4.0859375,0,B1,7.6,90,0,0.1562776634992552,[20100|0|0|0]
20100,1.8265272378921509,-0.17673847079277039,-0.015774738043546677,-0.14255818724632263,0.5962606072425842,-5.0849409103393555,4.08984375,0,B1,7.6,90,0,0.15661849550465162,[20200|0|0|0]
20200,1.8265482187271118,-0.1768217533826828,-0.01562519744038582,-0.13948418200016022,0.5965480208396912,-5.100754261016846,4.0859375,0,B1,7.6,90,0,0.15679094427157064,[20300|0|0|0]
20300,1.8265869617462158,-0.1766938865184784,-0.015351868234574795,-0.14209876954555511,0.6056936979293823,-5.15129280090332,4.0859375,0,B1,7.6,90,0,0.15709518071126852,[20400|0|0|0]
20400,1.8265056610107422,-0.17673669755458832,-0.015367180109024048,-0.14185099303722382,0.6060947179794312,-5.130653381347656,4.0859375,0,B1,7.6,90,0,0.1571883313843767,[20500|0|0|0]
20500,1.8265875577926636,-0.17646312713623047,-0.01594018004834652,-0.13715186715126038,0.6098325252532959,-5.1382832527160645,4.08984375,0,B1,7.6,90,0,0.1578285475878214,[20600|0|0|0]
20600,1.8266760110855103,-0.17611008882522583,-0.01623479463160038,-0.1402166783809662,0.6187334060668945,-5.242298603057861,4.08984375,0,B1,7.6,90,0,0.15829679729334,[20700|0|0|0]
20700,1.8266452550888062,-0.17681100964546204,-0.015266534872353077,-0.1161944791674614,0.6142657995223999,-5.2660088539123535,4.08984375,0,B1,7.6,90,0,0.1594925242224302,[20800|0|0|0]
20800,1.8264645338058472,-0.17686305940151215,-0.015393007546663284,-0.12676206231117249,0.6157213449478149,-5.240907669067383,4.08984375,0,B1,7.6,90,0,0.15971916203164657,[20900|0|0|0]
20900,1.8266304731369019,-0.1767871230840683,-0.015430648811161518,-0.1432264745235443,0.6164681315422058,-5.254736423492432,4.0859375,0,B1,7.6,90,0,0.15990549251946548,[21000|0|0|0]
21000,1.826465129852295,-0.1765126883983612,-0.015953918918967247,-0.1509111523628235,0.6247455477714539,-5.214069843292236,4.0859375,0,B1,7.6,90,0,0.160519059471156,[21100|0|0|0]
21100,1.8266371488571167,-0.17698852717876434,-0.015555336140096188,-0.1420276015996933,0.6236391663551331,-5.186873912811279,4.0859375,0,B1,7.6,90,0,0.1611631722831447,[21200|0|0|0]
21200,1.8265575170516968,-0.17676112055778503,-0.01584155298769474,-0.1503865271806717,0.6364386677742004,-5.186302661895752,4.0859375,0,B1,7.6,90,0,0.1615373047189865,[21300|0|0|0]
21300,1.8264636993408203,-0.17659251391887665,-0.015750089660286903,-0.15440188348293304,0.6417725682258606,-5.15716028213501,4.0859375,0,B1,7.6,90,0,0.16175083575143517,[21400|0|0|0]
21400,1.8268548250198364,-0.17678101360797882,-0.015554499812424183,-0.14999669790267944,0.6254258155822754,-5.162613391876221,4.0859375,0,B1,7.6,90,0,0.16222703614849968,[21500|0|0|0]
21500,1.8264743089675903,-0.17670543491840363,-0.015585609711706638,-0.14593975245952606,0.6310100555419922,-5.159838676452637,4.0859375,0,B1,7.6,90,0,0.1626162307401479,[21600|0|0|0]
21600,1.8266761302947998,-0.1767692267894745,-0.015588485635817051,-0.14882247149944305,0.6326814889907837,-5.1617326736450195,4.08984375,0,B1,7.6,90,0,0.1628279133371435,[21700|0|0|0]
21700,1.8267321586608887,-0.17691615223884583,-0.015669219195842743,-0.14405564963817596,0.6284566521644592,-5.159580230712891,4.08984375,0,B1,7.6,90,0,0.16300467355097562,[21800|0|0|0]
21800,1.826917052268982,-0.17666283249855042,-0.015456447377800941,-0.15291553735733032,0.6227629780769348,-5.155273914337158,4.0859375,0,B1,7.6,90,0,0.16338365690640153,[21900|0|0|0]
21900,1.8267788887023926,-0.17674902081489563,-0.0152592109516263,-0.14976797997951508,0.6271728277206421,-5.161381721496582,4.0859375,0,B1,7.6,90,0,0.16363942986200328,[22000|0|0|0]
22000,1.826570749282837,-0.17677906155586243,-0.01539479661732912,-0.14124539494514465,0.63277268409729,-5.138068675994873,4.0859375,0,B1,7.6,90,0,0.16388964564255054,[22100|0|0|0]
22100,1.8265752792358398,-0.17663252353668213,-0.015842631459236145,-0.14451546967029572,0.6356711387634277,-5.130698204040527,4.0859375,0,B1,7.6,90,0,0.16436086741323327,[22200|0|0|0]
22200,1.8268615007400513,-0.17658361792564392,-0.015565967187285423,-0.14488238096237183,0.6290669441223145,-5.12893533706665,4.08984375,0,B1,7.6,90,0,0.1647619380150456,[22300|0|0|0]
22300,1.8267788887023926,-0.1765318214893341,-0.01564856246113777,-0.14218661189079285,0.6285877823829651,-5.1270856857299805,4.0859375,0,B1,7.6,90,0,0.16488972533383453,[22400|0|0|0]
22400,1.826560139656067,-0.17642496526241302,-0.01565900444984436,-0.14879319071769714,0.6316578984260559,-5.120577335357666,4.0859375,0,B1,7.6,90,0,0.16513340223800962,[22500|0|0|0]
22500,1.8268285989761353,-0.1764988750219345,-0.015763498842716217,-0.1429411917924881,0.6224707365036011,-5.099708557128906,4.0859375,0,B1,7.6,90,0,0.1654308112782652,[22600|0|0|0]
22600,1.8265511989593506,-0.17676624655723572,-0.015378979966044426,-0.13381445407867432,0.6363176703453064,-5.1166276931762695,4.0859375,0,B1,7.6,90,0,0.16597513937208216,[22700|0|0|0]
22700,1.8267468214035034,-0.17667856812477112,-0.0157308392226696,-0.13920122385025024,0.6392701268196106,-5.127554416656494,4.0859375,0,B1,7.6,90,0,0.16638715949859129,[22800|0|0|0]
22800,1.8267701864242554,-0.17675496637821198,-0.01577511988580227,-0.13851520419120789,0.6367853879928589,-5.126418590545654,4.08984375,0,B1,7.6,90,0,0.16647850168189682,[22900|0|0|0]
22900,1.8263870477676392,-0.1766606718301773,-0.015646403655409813,-0.14040996134281158,0.6424575448036194,-5.111653804779053,4.0859375,0,B1,7.6,90,0,0.1668935372947654,[23000|0|0|0]
23000,1.8269293308258057,-0.17681168019771576,-0.015235353261232376,-0.13729633390903473,0.6259251236915588,-5.149599075317383,4.0859375,0,B1,7.6,90,0,0.1675905572864403,[23100|0|0|0]
23100,1.8264505863189697,-0.17666593194007874,-0.015658285468816757,-0.1471351832151413,0.6356860399246216,-5.1492204666137695,4.08984375,0,B1,7.6,90,0,0.16824577519648398,[23200|0|0|0]
23200,1.8265718221664429,-0.17679594457149506,-0.01586865819990635,-0.14033102989196777,0.6231909394264221,-5.144050121307373,4.08984375,0,B1,7.6,90,0,0.16852119869044632,[23300|0|0|0]
23300,1.8264597654342651,-0.1765839159488678,-0.015446037985384464,-0.15211987495422363,0.6294859647750854,-5.16003942489624,4.0859375,0,B1,7.6,90,0,0.16900712120871655,[23400|0|0|0]
23400,1.8267093896865845,-0.17655044794082642,-0.01592138409614563,-0.14906327426433563,0.6216331720352173,-5.11030387878418,4.0859375,0,B1,7.6,90,0,0.16954506758143786,[23500|0|0|0]
23500,1.8268167972564697,-0.17661261558532715,-0.015648825094103813,-0.14578129351139069,0.6160073280334473,-5.1112542152404785,4.0859375,0,B1,7.6,90,0,0.1698445498207868,[23600|0|0|0]
23600,1.826858639717102,-0.17646244168281555,-0.015753479674458504,-0.1467234194278717,0.6076161861419678,-5.089209079742432,4.0859375,0,B1,7.6,90,0,0.17003231449716805,[23700|0|0|0]
23700,1.8265178203582764,-0.17677995562553406,-0.015606735832989216,-0.13953517377376556,0.6151867508888245,-5.140172004699707,4.0859375,0,B1,7.6,90,0,0.17052068596867326,[23800|0|0|0]
23800,1.8267110586166382,-0.17670220136642456,-0.01570536196231842,-0.1457095444202423,0.6004420518875122,-5.1318864822387695,4.0859375,0,B1,7.6,90,0,0.17075115041862343,[23900|0|0|0]
23900,1.826504111289978,-0.17670978605747223,-0.0159060787409544,-0.14427421987056732,0.6057911515235901,-5.112648963928223,4.0859375,0,B1,7.6,90,0,0.17103954589150067,[24000|0|0|0]
24000,1.826462984085083,-0.176821768283844,-0.015349139459431171,-0.14337563514709473,0.6074746251106262,-5.103253364562988,4.0859375,0,B1,7.6,90,0,0.17160911838847473,[24100|0|0|0]
24100,1.82672917842865,-0.17658640444278717,-0.015168319456279278,-0.1491643190383911,0.5934052467346191,-5.082265377044678,4.0859375,0,B1,7.6,90,0,0.172007805533695,[24200|0|0|0]
24200,1.8268911838531494,-0.17629359662532806,-0.015764372423291206,-0.1588507741689682,0.585669755935669,-5.070509433746338,4.0859375,0,B1,7.6,90,0,0.17269137068422283,[24300|0|0|0]
24300,1.826645851135254,-0.1766667366027832,-0.01540345884859562,-0.14941398799419403,0.5832594633102417,-5.069308757781982,4.08984375,0,B1,7.6,90,0,0.1732655485257012,[24400|0|0|0]
24400,1.8269035816192627,-0.17674928903579712,-0.015324192121624947,-0.14687925577163696,0.5738120079040527,-5.064273357391357,4.0859375,0,B1,7.6,90,0,0.17354754696645674,[24500|0|0|0]
24500,1.8267171382904053,-0.17653262615203857,-0.01571648195385933,-0.15036511421203613,0.5766342282295227,-5.061573028564453,4.0859375,0,B1,7.6,90,0,0.17403292849942692,[24600|0|0|0]
24600,1.8267911672592163,-0.1767636388540268,-0.015822647139430046,-0.1409229189157486,0.579291820526123,-5.065629005432129,4.0859375,0,B1,7.6,90,0,0.174297726919608,[24700|0|0|0]
24700,1.826686143875122,-0.17637939751148224,-0.015570219606161118,-0.14754322171211243,0.5814304947853088,-5.0666117668151855,4.0859375,0,B1,7.6,90,0,0.17476931040116697,[24800|0|0|0]
24800,1.8268136978149414,-0.17669445276260376,-0.015617654658854008,-0.13584662973880768,0.5791493058204651,-5.050313472747803,4.0859375,0,B1,7.6,90,0,0.17511250116888466,[24900|0|0|0]
24900,1.8270889520645142,-0.17676375806331635,-0.015618919394910336,-0.13474029302597046,0.5800415873527527,-5.068129062652588,4.0859375,0,B1,7.6,90,0,0.1753963492377032,[25000|0|0|0]
25000,1.8268243074417114,-0.176563560962677,-0.015564139932394028,-0.13760966062545776,0.5818306803703308,-5.062647819519043,4.0859375,0,B1,7.6,90,0,0.17573267712087137,[25100|0|0|0]
25100,1.826760172843933,-0.1766093373298645,-0.015649203211069107,-0.13627561926841736,0.5943709015846252,-5.064140796661377,4.0859375,0,B1,7.6,90,0,0.17584862747147034,[25200|0|0|0]
25200,1.8267751932144165,-0.17677167057991028,-0.015557794831693172,-0.1345643550157547,0.5942959785461426,-5.062132835388184,4.0859375,0,B1,7.6,90,0,0.17603553169137995,[25300|0|0|0]
25300,1.8269991874694824,-0.17644573748111725,-0.01569228246808052,-0.14341628551483154,0.5840631127357483,-5.077743053436279,4.0859375,0,B1,7.6,90,0,0.17645325496764358,[25400|0|0|0]
25400,1.8268197774887085,-0.17666597664356232,-0.015556832775473595,-0.13410159945487976,0.5934919118881226,-5.0891828536987305,4.0859375,0,B1,7.6,90,0,0.17676796094010536,[25500|0|0|0]
25501,1.8268673419952393,-0.17658601701259613,-0.015180886723101139,-0.13308577239513397,0.6029656529426575,-5.09678840637207,4.08984375,0,B1,7.6,90,0,0.17715524811928923,[25600|0|0|0]
25601,1.8266782760620117,-0.1765138804912567,-0.015569298528134823,-0.1383339911699295,0.6132509112358093,-5.089956283569336,4.0859375,0,B1,7.6,90,0,0.17759321311230544,[25700|0|0|0]
25701,1.8266493082046509,-0.17666372656822205,-0.015209300443530083,-0.13406161963939667,0.6228261590003967,-5.0801615715026855,4.0859375,0,B1,7.6,90,0,0.17798422667276217,[25800|0|0|0]
25801,1.8266886472702026,-0.17631961405277252,-0.015713172033429146,-0.14358359575271606,0.6240271329879761,-5.058507919311523,4.0859375,0,B1,7.6,90,0,0.17859565742474878,[25900|0|0|0]
25901,1.8268754482269287,-0.17676156759262085,-0.015560025349259377,-0.12510912120342255,0.6150829792022705,-5.077935218811035,4.0859375,0,B1,7.6,90,0,0.17909931547907776,[26000|0|0|0]
26001,1.8268232345581055,-0.17655113339424133,-0.015497319400310516,-0.13412679731845856,0.6173064708709717,-5.0669050216674805,4.0859375,0,B1,7.6,90,0,0.17932501628787823,[26100|0|0|0]
26101,1.8267730474472046,-0.17666016519069672,-0.015584485605359077,-0.1257144659757614,0.6193031668663025,-5.076561450958252,4.0859375,0,B1,7.6,90,0,0.17947335585118293,[26200|0|0|0]
26201,1.8268288373947144,-0.17643916606903076,-0.01581362634897232,-0.12964029610157013,0.6208137273788452,-5.078929901123047,4.08984375,0,B1,7.6,90,0,0.17979655642420825,[26300|0|0|0]
26301,1.8269575834274292,-0.17626629769802094,-0.01553537230938673,-0.1368633210659027,0.6150124073028564,-5.088437080383301,4.0859375,0,B1,7.6,90,0,0.18014852847591278,[26400|0|0|0]
26401,1.8268134593963623,-0.1767754703760147,-0.015268553979694843,-0.11975543200969696,0.6228927373886108,-5.081361770629883,4.0859375,0,B1,7.6,90,0,0.18074116712923022,[26500|0|0|0]
26501,1.8266522884368896,-0.17659549415111542,-0.015616971999406815,-0.13202819228172302,0.6242641806602478,-5.0700297355651855,4.0859375,0,B1,7.6,90,0,0.18116515136969955,[26600|0|0|0]
26601,1.8267028331756592,-0.17680013179779053,-0.015303592197597027,-0.13004246354103088,0.6163049936294556,-5.085388660430908,4.0859375,0,B1,7.6,90,0,0.1815428261467715,[26700|0|0|0]
26702,1.8267292976379395,-0.1765124797821045,-0.015548622235655785,-0.14321662485599518,0.6125555038452148,-5.064466953277588,4.08984375,0,B1,7.6,90,0,0.18192161866180195,[26800|0|0|0]
26802,1.826643943786621,-0.1766316294670105,-0.01563802734017372,-0.1438102126121521,0.6172024607658386,-5.070772171020508,4.08984375,0,B1,7.6,90,0,0.1820933020915846,[26900|0|0|0]
26902,1.8269151449203491,-0.17651531100273132,-0.015480272471904755,-0.1504194289445877,0.6085209250450134,-5.086080074310303,4.0859375,0,B1,7.6,90,0,0.18242791625525703,[27000|0|0|0]
27000,1.8266184329986572,-0.1766483634710312,-0.01567596197128296,-0.1432611048221588,0.6168324947357178,-5.075730800628662,4.0859375,0,B1,7.6,90,0,0.18280743608868036,[27100|0|0|0]
27100,1.8268946409225464,-0.1766013652086258,-0.01522028911858797,-0.14509184658527374,0.609521210193634,-5.093078136444092,4.0859375,0,B1,7.6,90,0,0.18334235421566006,[27200|0|0|0]
27200,1.826959490776062,-0.1761341243982315,-0.01553927268832922,-0.15303397178649902,0.6103183031082153,-5.085931301116943,4.0859375,0,B1,7.6,90,0,0.1839118013125565,[27300|0|0|0]
27302,1.8268460035324097,-0.17640209197998047,-0.015868084505200386,-0.1416061520576477,0.6120902299880981,-5.0753021240234375,4.0859375,0,B1,7.6,90,0,0.18435089491334603,[27400|0|0|0]
27402,1.8268663883209229,-0.1766664683818817,-0.015402230434119701,-0.1362030804157257,0.608823835849762,-5.093649387359619,4.0859375,0,B1,7.6,90,0,0.1848869270364762,[27500|0|0|0]
27502,1.826783299446106,-0.17650188505649567,-0.015643902122974396,-0.1396203637123108,0.6083876490592957,-5.084117412567139,4.0859375,0,B1,7.6,90,0,0.18519089518827395,[27600|0|0|0]
27602,1.8271032571792603,-0.1767847239971161,-0.015539710409939289,-0.13352328538894653,0.5941368937492371,-5.067446231842041,4.0859375,0,B1,7.6,90,0,0.1856304708136238,[27700|0|0|0]
27702,1.826696753501892,-0.17661695182323456,-0.015564775094389915,-0.13936734199523926,0.6058741807937622,-5.0551838874816895,4.0859375,0,B1,7.6,90,0,0.1860709489407191,[27800|0|0|0]
27800,1.826801061630249,-0.17657332122325897,-0.015219737775623798,-0.14186638593673706,0.6035325527191162,-5.07291841506958,4.0859375,0,B1,7.6,90,0,0.1864340392411085,[27900|0|0|0]
27900,1.8269660472869873,-0.17678973078727722,-0.015304536558687687,-0.13800084590911865,0.6043654084205627,-5.080540657043457,4.0859375,0,B1,7.6,90,0,0.18671907292321824,[28000|0|0|0]
28000,1.8267898559570312,-0.17650173604488373,-0.015197668224573135,-0.14777208864688873,0.6068421006202698,-5.073782920837402,4.0859375,0,B1,7.6,90,0,0.18707319888560225,[28100|0|0|0]
28100,1.8267205953598022,-0.1762578785419464,-0.015562674030661583,-0.1538485437631607,0.6064257025718689,-5.0730109214782715,4.0859375,0,B1,7.6,90,0,0.18751760045011978,[28200|0|0|0]
28200,1.8266316652297974,-0.17677956819534302,-0.015370958484709263,-0.1402462273836136,0.6074439883232117,-5.09699010848999,4.08984375,0,B1,7.6,90,0,0.18808047122840157,[28300|0|0|0]
28300,1.826842188835144,-0.1764596551656723,-0.015342063270509243,-0.14871536195278168,0.5925724506378174,-5.118072509765625,4.0859375,0,B1,7.6,90,0,0.18846452782366446,[28400|0|0|0]
28400,1.8268311023712158,-0.17683447897434235,-0.01575363054871559,-0.13808989524841309,0.6032056212425232,-5.094448089599609,4.0859375,0,B1,7.6,90,0,0.18902130733273292,[28500|0|0|0]
28500,1.8270962238311768,-0.1765117198228836,-0.015327343717217445,-0.1466810554265976,0.6009089946746826,-5.091190814971924,4.08984375,0,B1,7.6,90,0,0.18961811829199132,[28600|0|0|0]
28600,1.826826810836792,-0.17638997733592987,-0.01541404239833355,-0.14694610238075256,0.6087365746498108,-5.095003128051758,4.0859375,0,B1,7.6,90,0,0.18992621122599065,[28700|0|0|0]
28700,1.8265979290008545,-0.17641086876392365,-0.015552559867501259,-0.14713424444198608,0.6126976013183594,-5.098851203918457,4.0859375,0,B1,7.6,90,0,0.19019455882864506,[28800|0|0|0]
28800,1.8265926837921143,-0.1765463948249817,-0.015474201180040836,-0.14663910865783691,0.6154428720474243,-5.1022844314575195,4.08984375,0,B1,7.6,90,0,0.19035119506117495,[28900|0|0|0]
28900,1.8268624544143677,-0.1761498898267746,-0.015536990948021412,-0.15535840392112732,0.6102392077445984,-5.091277599334717,4.0859375,0,B1,7.6,90,0,0.1908348632916773,[29000|0|0|0]
29000,1.8266377449035645,-0.1766393780708313,-0.015649212524294853,-0.1419523060321808,0.6083797812461853,-5.094067573547363,4.0859375,0,B1,7.6,90,0,0.19138503307228727,[29100|0|0|0]
29100,1.8268084526062012,-0.17644214630126953,-0.015467837452888489,-0.14769747853279114,0.6042501330375671,-5.073101997375488,4.0859375,0,B1,7.6,90,0,0.19170274112568164,[29200|0|0|0]
29200,1.82673180103302,-0.17674386501312256,-0.015517431311309338,-0.13771963119506836,0.6111405491828918,-5.075327396392822,4.0859375,0,B1,7.6,90,0,0.192017969924408,[29300|0|0|0]
29300,1.8268153667449951,-0.17639464139938354,-0.01573745533823967,-0.1458355337381363,0.6051136255264282,-5.068454265594482,4.0859375,0,B1,7.6,90,0,0.1924391004659714,[29400|0|0|0]
29400,1.8267158269882202,-0.1766251176595688,-0.015607819892466068,-0.14307992160320282,0.6032021045684814,-5.063490390777588,4.0859375,0,B1,7.6,90,0,0.19272164748593215,[29500|0|0|0]
29500,1.8267035484313965,-0.17665165662765503,-0.015498579479753971,-0.14480829238891602,0.6078159809112549,-5.0672287940979,4.0859375,0,B1,7.6,90,0,0.192834733946458,[29600|0|0|0]
29600,1.826808214187622,-0.17659857869148254,-0.01536604668945074,-0.149651437997818,0.6001539826393127,-5.0560150146484375,4.0859375,0,B1,7.6,90,0,0.19301175690638175,[29700|0|0|0]
29700,1.8266578912734985,-0.17651522159576416,-0.0154695650562644,-0.14934536814689636,0.5999505519866943,-5.057923316955566,4.0859375,0,B1,7.6,90,0,0.19321240943236875,[29800|0|0|0]
29800,1.826939582824707,-0.1767532229423523,-0.015387644059956074,-0.14296983182430267,0.5902489423751831,-5.068089962005615,4.0859375,0,B1,7.6,90,0,0.19359017367185705,[29900|0|0|0]
29900,1.8266916275024414,-0.1766471564769745,-0.015601838007569313,-0.13956718146800995,0.5990033149719238,-5.043725490570068,4.0859375,0,B1,7.6,90,0,0.19393457312614196,[30000|0|0|0]
30000,1.826725959777832,-0.1767411082983017,-0.015679115429520607,-0.13805851340293884,0.6004053950309753,-5.041290760040283,4.0859375,0,B1,7.6,90,0,0.19406097506365733,[30100|0|0|0]
30100,1.8269622325897217,-0.17675980925559998,-0.015607400797307491,-0.1413230299949646,0.5955300331115723,-5.069518089294434,4.0859375,0,B1,7.6,90,0,0.19430859888301963,[30200|0|0|0]
30200,1.8269944190979004,-0.17655101418495178,-0.015489572659134865,-0.14808064699172974,0.601728081703186,-5.062163829803467,4.0859375,0,B1,7.6,90,0,0.19455049725626952,[30300|0|0|0]
30300,1.8268013000488281,-0.1766335517168045,-0.015044612810015678,-0.14069810509681702,0.6092215180397034,-5.0836310386657715,4.0859375,0,B1,7.6,90,0,0.1950425304651153,[30400|0|0|0]
30400,1.8268790245056152,-0.17644844949245453,-0.015321672894060612,-0.14522355794906616,0.6051023006439209,-5.090107440948486,4.0859375,0,B1,7.6,90,0,0.19538467986934266,[30500|0|0|0]
30500,1.8267251253128052,-0.17635571956634521,-0.015532460063695908,-0.14206521213054657,0.6000534892082214,-5.09211540222168,4.0859375,0,B1,7.6,90,0,0.19566165465452479,[30600|0|0|0]
30600,1.8268152475357056,-0.1767149120569229,-0.015679312869906425,-0.12929587066173553,0.6014513373374939,-5.092811584472656,4.0859375,0,B1,7.6,90,0,0.19606003513476927,[30700|0|0|0]
30700,1.8265712261199951,-0.17652247846126556,-0.015496039763092995,-0.1382879614830017,0.6158103346824646,-5.096648693084717,4.0859375,0,B1,7.6,90,0,0.19642082062747096,[30800|0|0|0]
30800,1.8266254663467407,-0.17650066316127777,-0.015548530034720898,-0.13854989409446716,0.6143503189086914,-5.08267068862915,4.0859375,0,B1,7.6,90,0,0.1964993899479882,[30900|0|0|0]
30900,1.8269500732421875,-0.17660130560398102,-0.015608745627105236,-0.13552749156951904,0.6129337549209595,-5.0837554931640625,4.0859375,0,B1,7.6,90,0,0.19684453405616778,[31000|0|0|0]
31000,1.8269307613372803,-0.17645615339279175,-0.015480815432965755,-0.1436108946800232,0.6197100281715393,-5.072193145751953,4.0859375,0,B1,7.6,90,0,0.19703897748921925,[31100|0|0|0]
31100,1.8269519805908203,-0.17675422132015228,-0.015427229925990105,-0.1342727541923523,0.6241056323051453,-5.08535099029541,4.0859375,0,B1,7.6,90,0,0.19734256627787858,[31200|0|0|0]
31200,1.8268033266067505,-0.17639853060245514,-0.015743345022201538,-0.14574117958545685,0.6274823546409607,-5.0642781257629395,4.0859375,0,B1,7.6,90,0,0.1978411067954782,[31300|0|0|0]
31300,1.82705819606781,-0.17669080197811127,-0.015374318696558475,-0.13352075219154358,0.6258043050765991,-5.045264720916748,4.0859375,0,B1,7.6,90,0,0.19837642112204376,[31400|0|0|0]
31400,1.8267149925231934,-0.17676806449890137,-0.015304637141525745,-0.130270853638649,0.6313797235488892,-5.050958633422852,4.0859375,0,B1,7.6,90,0,0.19873504862972838,[31500|0|0|0]
31500,1.827101707458496,-0.17668281495571136,-0.01525683794170618,-0.13217106461524963,0.6251289248466492,-5.053173065185547,4.0859375,0,B1,7.6,90,0,0.19913392290729426,[31600|0|0|0]
31600,1.8265143632888794,-0.1764870584011078,-0.015532214194536209,-0.13484340906143188,0.6408661603927612,-5.057162761688232,4.0859375,0,B1,7.6,90,0,0.19981151119148732,[31700|0|0|0]
31700,1.8268331289291382,-0.17661994695663452,-0.015540600754320621,-0.1363697350025177,0.626228392124176,-5.067348480224609,4.0859375,0,B1,7.6,90,0,0.20015696920049073,[31800|0|0|0]
31800,1.8266777992248535,-0.17670580744743347,-0.01553418394178152,-0.13202275335788727,0.6275083422660828,-5.061178684234619,4.0859375,0,B1,7.6,90,0,0.2003345656993204,[31900|0|0|0]
31900,1.826773762702942,-0.17665773630142212,-0.015464932657778263,-0.13626685738563538,0.6248664855957031,-5.083853244781494,4.0859375,0,B1,7.6,90,0,0.20046229809357402,[32000|0|0|0]
32000,1.8266764879226685,-0.1763720065355301,-0.015584447421133518,-0.1435537040233612,0.6273302435874939,-5.079777717590332,4.0859375,0,B1,7.6,90,0,0.20078693275077164,[32100|0|0|0]
32100,1.8268507719039917,-0.17664361000061035,-0.015573511831462383,-0.13513150811195374,0.6138924360275269,-5.0859551429748535,4.0859375,0,B1,7.6,90,0,0.2011098304675659,[32200|0|0|0]
32200,1.8268780708312988,-0.1763719916343689,-0.015883971005678177,-0.14575158059597015,0.6172003149986267,-5.0704193115234375,4.0859375,0,B1,7.6,90,0,0.20152323906346897,[32300|0|0|0]
32300,1.826659917831421,-0.17668189108371735,-0.01548005547374487,-0.1355195790529251,0.6276770830154419,-5.062209606170654,4.0859375,0,B1,7.6,90,0,0.20207711283699428,[32400|0|0|0]
