time.ms,stateEstimate.x,stateEstimate.y,stateEstimate.z,stabilizer.roll,stabilizer.pitch,stabilizer.yaw,pm.vbat,drone_id,node_name,wind_speed,global_wind_direction,relative_wind_direction,travel_dist,waiting_time
0,-0.3298535645008087,-0.3620345890522003,0.015238415449857712,0.4568614661693573,0.04776284471154213,-4.817605495452881,3.96875,2,K1,7.6,90,0,0.0382592847457017,[100|0|0|0]
100,-0.32971757650375366,-0.3620947301387787,0.01527938712388277,0.46061474084854126,0.041639506816864014,-4.812262535095215,3.96484375,2,K1,7.6,90,0,0.03841351951386468,[200|0|0|0]
200,-0.3299175798892975,-0.3620988726615906,0.01559906080365181,0.46069344878196716,0.04731170833110809,-4.823955535888672,3.96875,2,K1,7.6,90,0,0.03879062662896769,[300|0|0|0]
300,-0.3298836946487427,-0.3619541823863983,0.01577700488269329,0.4536967873573303,0.04622850567102432,-4.836341857910156,3.96875,2,K1,7.6,90,0,0.039022461873330125,[400|0|0|0]
400,-0.32982972264289856,-0.3617349863052368,0.015573177486658096,0.4425804615020752,0.04537977650761604,-4.8302226066589355,3.96875,2,K1,7.6,90,0,0.039326609052810525,[500|0|0|0]
500,-0.3300987482070923,-0.3619559407234192,0.015578269958496094,0.4431050419807434,0.04925932362675667,-4.840415000915527,3.96484375,2,K1,7.6,90,0,0.03967477789457194,[600|0|0|0]
600,-0.3294578492641449,-0.36192694306373596,0.015356121584773064,0.29968225955963135,-0.04930529743432999,-4.858334541320801,3.96484375,2,K1,7.6,90,0,0.04035370515082696,[700|0|0|0]
700,-0.32983824610710144,-0.3615831434726715,0.015376342460513115,0.30739524960517883,-0.025564640760421753,-4.869503498077393,3.96484375,2,K1,7.6,90,0,0.040866841390789686,[800|0|0|0]
800,-0.32967662811279297,-0.3617004156112671,0.01564165949821472,0.3346322774887085,-0.01856943964958191,-4.872304916381836,3.96484375,2,K1,7.6,90,0,0.0411989050308797,[900|0|0|0]
900,-0.32968100905418396,-0.3617386519908905,0.015105091966688633,0.3514445722103119,-0.008127618581056595,-4.855177402496338,3.96875,2,K1,7.6,90,0,0.0417368510590853,[1000|0|0|0]
1000,-0.32998546957969666,-0.36171454191207886,0.015585600398480892,0.36476320028305054,0.01422927062958479,-4.830224990844727,3.96484375,2,K1,7.6,90,0,0.042306206712889864,[1100|0|0|0]
1100,-0.329788476228714,-0.36182039976119995,0.015530088916420937,0.37549981474876404,0.01419899333268404,-4.815409183502197,3.96484375,2,K1,7.6,90,0,0.042536627608627246,[1200|0|0|0]
1200,-0.32988470792770386,-0.3619954288005829,0.015403308905661106,0.38447412848472595,0.018000666052103043,-4.841940402984619,3.96484375,2,K1,7.6,90,0,0.042773205028610754,[1300|0|0|0]
1300,-0.3300103545188904,-0.3618730306625366,0.015461930073797703,0.3801576793193817,0.017817750573158264,-4.8324432373046875,3.96875,2,K1,7.6,90,0,0.04295815045685294,[1400|0|0|0]
1400,-0.3297327160835266,-0.36192333698272705,0.015412574633955956,0.37890350818634033,0.012695088051259518,-4.827314376831055,3.96875,2,K1,7.6,90,0,0.04324459379520158,[1500|0|0|0]
1500,-0.3299451768398285,-0.3619687259197235,0.015469478443264961,0.37394022941589355,0.022817838937044144,-4.828869342803955,3.96875,2,K1,7.6,90,0,0.04346917734776924,[1600|0|0|0]
1600,-0.3302139937877655,-0.3616485893726349,0.015508056618273258,0.3673386871814728,0.02602524682879448,-4.820981979370117,3.96484375,2,K1,7.6,90,0,0.04388898472725056,[1700|0|0|0]
1700,-0.3300674259662628,-0.36191365122795105,0.015147151425480843,0.3780917823314667,0.02858319878578186,-4.831424713134766,3.96875,2,K1,7.6,90,0,0.04436014549771879,[1800|0|0|0]
1800,-0.3299699127674103,-0.36184078454971313,0.015492377802729607,0.37227556109428406,0.019989237189292908,-4.829067707061768,3.96484375,2,K1,7.6,90,0,0.04472620509436419,[1900|0|0|0]
1900,-0.3299787640571594,-0.36179423332214355,0.015367967076599598,0.36495116353034973,0.01933184452354908,-4.822882652282715,3.96484375,2,K1,7.6,90,0,0.044859334320662,[2000|0|0|0]
2000,-0.32991209626197815,-0.3619386851787567,0.015039524994790554,0.35554394125938416,0.012481498531997204,-4.822297096252441,3.96484375,2,K1,7.6,90,0,0.045224279706845165,[2100|0|0|0]
2100,-0.330033540725708,-0.3620213270187378,0.015484046190977097,0.470121830701828,0.08508498221635818,-4.817822456359863,3.96875,2,K1,7.6,90,0,0.04569244370091691,[2200|0|0|0]
2200,-0.3299714922904968,-0.36211076378822327,0.015553740784525871,0.4614144265651703,0.07727445662021637,-4.84187650680542,3.96484375,2,K1,7.6,90,0,0.045821696478133035,[2300|0|0|0]
2300,-0.3300322890281677,-0.36191636323928833,0.015487924218177795,0.44929200410842896,0.07400363683700562,-4.834407329559326,3.96875,2,K1,7.6,90,0,0.04603575169797941,[2400|0|0|0]
2400,-0.32993122935295105,-0.3619925379753113,0.015324357897043228,0.44211897253990173,0.06954443454742432,-4.799990177154541,3.96484375,2,K1,7.6,90,0,0.046242559796884075,[2500|0|0|0]
2500,-0.33000612258911133,-0.36218398809432983,0.015322093851864338,0.4375559985637665,0.06263262778520584,-4.819519996643066,3.96484375,2,K1,7.6,90,0,0.04644814985207973,[2600|0|0|0]
2600,-0.32985439896583557,-0.3619382977485657,0.01546486932784319,0.4208274185657501,0.047698017209768295,-4.800961971282959,3.96484375,2,K1,7.6,90,0,0.04677028125446488,[2700|0|0|0]
2700,-0.3299486041069031,-0.3622184991836548,0.015490547753870487,0.42710790038108826,0.05544438585639,-4.806941032409668,3.96875,2,K1,7.6,90,0,0.047067008122801374,[2800|0|0|0]
2800,-0.3299241065979004,-0.36202648282051086,0.015556761994957924,0.427322655916214,0.05713621526956558,-4.793193340301514,3.96875,2,K1,7.6,90,0,0.04727159242665956,[2900|0|0|0]
2900,-0.3300192654132843,-0.36212795972824097,0.015625691041350365,0.42608585953712463,0.05637006089091301,-4.803153038024902,3.96484375,2,K1,7.6,90,0,0.04742684698016542,[3000|0|0|0]
3000,-0.32991957664489746,-0.3621916174888611,0.01538549643009901,0.42864206433296204,0.061258647590875626,-4.815722942352295,3.96484375,2,K1,7.6,90,0,0.04769458493471024,[3100|0|0|0]
3100,-0.3300732374191284,-0.3620699942111969,0.015540019609034061,0.42760974168777466,0.06546952575445175,-4.819092750549316,3.96484375,2,K1,7.6,90,0,0.0479441470873601,[3200|0|0|0]
3200,-0.32988598942756653,-0.3619633913040161,0.01541967038065195,0.42082053422927856,0.061765655875205994,-4.826326370239258,3.96875,2,K1,7.6,90,0,0.04819094645311197,[3300|0|0|0]
3300,-0.3300652503967285,-0.36173734068870544,0.015498633496463299,0.41850095987319946,0.06667984277009964,-4.831204891204834,3.96484375,2,K1,7.6,90,0,0.048490059390655406,[3400|0|0|0]
3400,-0.3300788998603821,-0.362039715051651,0.015565567649900913,0.4330306351184845,0.06946833431720734,-4.8245849609375,3.96484375,2,K1,7.6,90,0,0.04880005413919346,[3500|0|0|0]
3500,-0.32985490560531616,-0.3618806004524231,0.015244539827108383,0.43256986141204834,0.06293913722038269,-4.819025993347168,3.96484375,2,K1,7.6,90,0,0.04922260560942745,[3600|0|0|0]
3600,-0.32978665828704834,-0.36183297634124756,0.015544905327260494,0.3974841833114624,0.04533447325229645,-4.827813148498535,3.96484375,2,K1,7.6,90,0,0.049534286834556004,[3700|0|0|0]
3700,-0.3299447000026703,-0.3618897497653961,0.01529769878834486,0.42012807726860046,0.06588609516620636,-4.8133697509765625,3.96484375,2,K1,7.6,90,0,0.04983313709547094,[3800|0|0|0]
3800,-0.32999950647354126,-0.36170879006385803,0.01525763887912035,0.43361976742744446,0.083144411444664,-4.811315536499023,3.96875,2,K1,7.6,90,0,0.050026411406120755,[3900|0|0|0]
3900,-0.3298036754131317,-0.3619470000267029,0.015581742860376835,0.45104753971099854,0.08148953318595886,-4.811770439147949,3.96484375,2,K1,7.6,90,0,0.05047377834867013,[4000|0|0|0]
4000,-0.329817533493042,-0.3617700934410095,0.015359378419816494,0.458868145942688,0.08906564861536026,-4.801723003387451,3.96484375,2,K1,7.6,90,0,0.05075826724277005,[4100|0|0|0]
4100,-0.32982826232910156,-0.3617587983608246,0.015385538339614868,0.4661805033683777,0.08783365786075592,-4.797388076782227,3.96875,2,K1,7.6,90,0,0.05078871437996609,[4200|0|0|0]
4200,-0.329722136259079,-0.3619460463523865,0.015428579412400723,0.46230021119117737,0.08921921998262405,-4.793192386627197,3.96484375,2,K1,7.6,90,0,0.05100820717490241,[4300|0|0|0]
4300,-0.329772412776947,-0.36198723316192627,0.01529441773891449,0.46453869342803955,0.09033101052045822,-4.802972316741943,3.96484375,2,K1,7.6,90,0,0.05115728244502334,[4400|0|0|0]
4400,-0.33009690046310425,-0.3616093695163727,0.015331477858126163,-0.22477969527244568,-0.14734363555908203,-3.964933156967163,3.96484375,2,K1,7.6,90,0,0.05165672878401754,[4500|0|0|0]
4500,-0.32988810539245605,-0.3614470660686493,0.015678973868489265,-0.12787258625030518,-0.22985514998435974,-4.424717903137207,3.96484375,2,K1,7.6,90,0,0.05209341089710228,[4600|0|0|0]
4600,-0.33016568422317505,-0.3615148961544037,0.015646010637283325,0.15480147302150726,-0.13334839046001434,-4.5308403968811035,3.96484375,2,K1,7.6,90,0,0.052381052170928394,[4700|0|0|0]
4700,-0.33015158772468567,-0.3616267442703247,0.015597590245306492,0.39119139313697815,-0.053328827023506165,-4.606348514556885,3.96875,2,K1,7.6,90,0,0.05250374384409301,[4800|0|0|0]
4800,-0.32972463965415955,-0.36200371384620667,0.015127708204090595,0.3998029828071594,-0.09742975980043411,-4.611912727355957,3.96484375,2,K1,7.6,90,0,0.05324210679598308,[4900|0|0|0]
4900,-0.3302552103996277,-0.36173269152641296,0.015361848287284374,0.40268662571907043,-0.04007088392972946,-4.640169620513916,3.96484375,2,K1,7.6,90,0,0.053882247399546834,[5000|0|0|0]
5000,-0.3298853635787964,-0.36150527000427246,0.015362875536084175,0.39846259355545044,-0.04875896871089935,-4.673460006713867,3.96484375,2,K1,7.6,90,0,0.05431642279596149,[5100|0|0|0]
5100,-0.3298824727535248,-0.3621491491794586,0.015422170050442219,0.4249712824821472,-0.03656938672065735,-4.707188606262207,3.96484375,2,K1,7.6,90,0,0.054963032870536666,[5200|0|0|0]
5200,-0.32958048582077026,-0.36216816306114197,0.015338095836341381,0.4203565716743469,-0.034840356558561325,-4.730462074279785,3.96484375,2,K1,7.6,90,0,0.05527708081071113,[5300|0|0|0]
5300,-0.3297743499279022,-0.36180299520492554,0.01544925943017006,0.4053746461868286,-0.008072173222899437,-4.744126796722412,3.96484375,2,K1,7.6,90,0,0.055705202522191265,[5400|0|0|0]
5400,-0.3299736976623535,-0.3619956374168396,0.015558093786239624,0.40807321667671204,1.7200276261064573e-06,-4.738493919372559,3.96484375,2,K1,7.6,90,0,0.05600302034923169,[5500|0|0|0]
5500,-0.33001649379730225,-0.3616367280483246,0.015018771402537823,0.3916732370853424,0.007164147682487965,-4.747703552246094,3.96484375,2,K1,7.6,90,0,0.05665226304463626,[5600|0|0|0]
5600,-0.3300388753414154,-0.3617420196533203,0.015336671844124794,0.39004576206207275,0.00899379514157772,-4.7338690757751465,3.96484375,2,K1,7.6,90,0,0.056987893714213186,[5700|0|0|0]
5700,-0.3297381103038788,-0.36196771264076233,0.015147129073739052,0.3853147625923157,-0.001545717939734459,-4.771996974945068,3.96875,2,K1,7.6,90,0,0.05740899155817633,[5800|0|0|0]
5800,-0.32974207401275635,-0.362074613571167,0.015389491803944111,0.3874645531177521,0.0013448016252368689,-4.7594404220581055,3.96484375,2,K1,7.6,90,0,0.05767391270286263,[5900|0|0|0]
5900,-0.329816997051239,-0.36185282468795776,0.01563536748290062,0.3784602880477905,0.008199379779398441,-4.785897731781006,3.96484375,2,K1,7.6,90,0,0.05801341030213691,[6000|0|0|0]
6000,-0.3300657868385315,-0.3617370128631592,0.015336830168962479,0.3737073838710785,0.023011116310954094,-4.791767597198486,3.96484375,2,K1,7.6,90,0,0.058418914019552196,[6100|0|0|0]
6100,-0.32987791299819946,-0.3617981970310211,0.015801740810275078,0.37544041872024536,0.018682928755879402,-4.8234758377075195,3.96484375,2,K1,7.6,90,0,0.058924069427999694,[6200|0|0|0]
6200,-0.3297564685344696,-0.36198484897613525,0.015453151427209377,0.3746987283229828,0.01977783441543579,-4.835569381713867,3.96484375,2,K1,7.6,90,0,0.059337714522702444,[6300|0|0|0]
6300,-0.3299294412136078,-0.3619825839996338,0.015281252562999725,0.36554205417633057,0.02075834386050701,-4.819100856781006,3.96484375,2,K1,7.6,90,0,0.05958158722999738,[6400|0|0|0]
6400,-0.330171674489975,-0.3617589473724365,0.015385864302515984,0.36699432134628296,0.02745295688509941,-4.799345016479492,3.96484375,2,K1,7.6,90,0,0.05992746859296504,[6500|0|0|0]
6500,-0.33043330907821655,-0.36208197474479675,0.015914520248770714,0.3053644299507141,-0.0185659509152174,-4.860002517700195,2.740234375,2,J2,7.6,90,0,0.06059998361180758,[6500|0|0|0]
6600,-0.3292410969734192,-0.36173340678215027,0.017313025891780853,-0.32736724615097046,-0.12146160751581192,-5.374157428741455,3.0625,2,J2,7.6,90,0,0.062470461454750416,[6500|0|0|0]
6700,-0.3259638845920563,-0.35764482617378235,0.04263225197792053,-1.4315038919448853,-0.7376790046691895,-5.577578067779541,3.283203125,2,J2,7.6,90,0,0.08832621172397943,[6500|0|0|0]
6800,-0.3193032741546631,-0.3500362038612366,0.10587022453546524,0.6504825949668884,2.508117198944092,-3.9382152557373047,3.435546875,2,J2,7.6,90,0,0.15236757365580017,[6500|0|0|0]
6900,-0.31112274527549744,-0.3417179584503174,0.18466894328594208,1.3645288944244385,1.223442792892456,-3.153095006942749,3.453125,2,J2,7.6,90,0,0.2320252935338879,[6500|0|0|0]
7000,-0.30179235339164734,-0.33674028515815735,0.26590174436569214,2.529165029525757,1.6386401653289795,-3.5731077194213867,3.435546875,2,J2,7.6,90,0,0.3139435541072908,[6500|0|0|0]
7100,-0.29247045516967773,-0.3343401849269867,0.34984129667282104,-0.13482607901096344,2.644442081451416,-4.658394813537598,3.435546875,2,J2,7.6,90,0,0.3984332381468329,[6500|0|0|0]
7200,-0.2858528792858124,-0.32967376708984375,0.4354285001754761,2.8338024616241455,4.886807441711426,-3.7830567359924316,3.42578125,2,J2,7.6,90,0,0.4844026348494643,[6500|0|0|0]
7300,-0.28330501914024353,-0.3261493146419525,0.5271912217140198,2.8916494846343994,2.796124219894409,-2.607464551925659,3.416015625,2,J2,7.6,90,0,0.5762683543564661,[6500|0|0|0]
7400,-0.286416620016098,-0.3239506185054779,0.617386519908905,2.278266429901123,1.9524303674697876,-2.2794344425201416,3.42578125,2,J2,7.6,90,0,0.6665440883118067,[6500|0|0|0]
7500,-0.2914842963218689,-0.32363611459732056,0.71260005235672,2.1138861179351807,1.8570369482040405,-3.728414297103882,3.42578125,2,J2,7.6,90,0,0.761892905908248,[6500|0|0|0]
7600,-0.2977885901927948,-0.32380443811416626,0.8057272434234619,1.4606003761291504,1.0948090553283691,-5.101489067077637,3.419921875,2,J2,7.6,90,0,0.8552333910687547,[6500|0|0|0]
7700,-0.3059177100658417,-0.3259422779083252,0.8989251255989075,2.11184024810791,1.3260819911956787,-5.281482219696045,3.41015625,2,J2,7.6,90,0,0.9488095535829554,[6500|0|0|0]
7800,-0.316209077835083,-0.3301250636577606,0.9947128891944885,1.9250799417495728,1.1003681421279907,-4.792385101318359,3.41015625,2,J2,7.6,90,0,1.0452393394472328,[6500|0|0|0]
7900,-0.33023446798324585,-0.33738699555397034,1.0934419631958008,0.9530493021011353,0.3591369688510895,-3.548199415206909,3.419921875,2,J2,7.6,90,0,1.1452237246122672,[6500|0|0|0]
8000,-0.3469673991203308,-0.3448384404182434,1.1944130659103394,0.22620539367198944,-0.4014306962490082,-2.3255019187927246,3.419921875,2,J2,7.6,90,0,1.2478428193188258,[6500|0|0|0]
8100,-0.3640561103820801,-0.35110509395599365,1.2970106601715088,0.056248739361763,-1.7050144672393799,-1.4412086009979248,3.42578125,2,J2,7.6,90,0,1.3520424419060941,[6500|0|0|0]
8200,-0.3799537420272827,-0.35597988963127136,1.4004194736480713,-0.08165422827005386,-2.448744297027588,-1.1008884906768799,3.431640625,2,J2,7.6,90,0,1.456779641741839,[6500|0|0|0]
8300,-0.3926607072353363,-0.35967740416526794,1.5042574405670166,0.10081066936254501,-3.0609261989593506,-1.0236746072769165,3.494140625,2,J2,7.6,90,0,1.5614575379395932,[6500|0|0|0]
8400,-0.4025561213493347,-0.36273670196533203,1.6020337343215942,0.4172893166542053,-3.1497442722320557,-0.9214285612106323,3.53125,2,J2,7.6,90,0,1.6597808929672693,[6500|0|0|0]
8500,-0.406289279460907,-0.3679925501346588,1.682680606842041,1.0070464611053467,-3.02175235748291,-0.9433138370513916,3.53125,2,J2,7.6,90,0,1.7406850242387575,[6500|0|0|0]
8600,-0.4103057384490967,-0.36916273832321167,1.7422326803207397,0.7192867994308472,-2.3078839778900146,-0.980873167514801,3.521484375,2,J2,7.6,90,0,1.8003838578857625,[6500|0|0|0]
8700,-0.41079026460647583,-0.37550073862075806,1.7899270057678223,0.557375431060791,-2.156292200088501,2.8844985961914062,3.5,2,J2,7.6,90,0,1.8484999019170532,[6500|0|0|0]
8800,-0.4088270962238312,-0.38350728154182434,1.8231840133666992,-0.1506250500679016,-1.587507963180542,6.536929130554199,3.484375,2,J2,7.6,90,0,1.8827634001925833,[6500|0|0|0]
8900,-0.40201127529144287,-0.391909658908844,1.8421728610992432,-0.8064849972724915,-1.4092382192611694,7.960020065307617,3.47265625,2,J2,7.6,90,0,1.9046181868218306,[6500|0|0|0]
9000,-0.3938125967979431,-0.39893069863319397,1.8503090143203735,-1.0504075288772583,-0.7170615792274475,12.49155330657959,3.45703125,2,J2,7.6,90,0,1.9181352248512358,[6500|0|0|0]
9100,-0.38758978247642517,-0.40360772609710693,1.8545570373535156,-1.5497007369995117,0.12788769602775574,15.210760116577148,3.447265625,2,J2,7.6,90,0,1.9270033533837048,[6500|0|0|0]
9200,-0.37971821427345276,-0.40723752975463867,1.8527978658676147,-1.613968849182129,0.4062348008155823,12.848197937011719,3.435546875,2,J2,7.6,90,0,1.93584822448978,[6500|0|0|0]
9300,-0.36906570196151733,-0.4060709476470947,1.8490418195724487,-1.3949062824249268,0.6560370326042175,6.350109100341797,3.42578125,2,J2,7.6,90,0,1.9472036115875855,[6500|0|0|0]
9400,-0.36009326577186584,-0.40442803502082825,1.840828537940979,-0.6463860869407654,1.1805552244186401,1.6540350914001465,3.431640625,2,J2,7.6,90,0,1.9594780471441702,[6500|0|0|0]
9500,-0.3526366055011749,-0.3996967673301697,1.8343197107315063,-0.6496497988700867,0.20681355893611908,-6.707137107849121,3.525390625,2,J2,7.6,90,23.72839107595253,1.9704485306337864,[6500|0|0|0]
9600,-0.3431725800037384,-0.3875174820423126,1.8150486946105957,-15.131168365478516,-9.304224014282227,-15.695401191711426,3.494140625,2,J2,7.6,90,23.72839107595253,1.9951320237227221,[6500|0|0|0]
9700,-0.31604722142219543,-0.3713275194168091,1.786078929901123,-15.493484497070312,-7.275382041931152,-13.445508003234863,3.416015625,2,J2,7.6,90,23.72839107595253,2.0379939792930726,[6500|0|0|0]
9800,-0.265148788690567,-0.34544163942337036,1.7477154731750488,-16.2735652923584,-5.7388739585876465,-12.798567771911621,3.373046875,2,J2,7.6,90,23.72839107595253,2.106787031627914,[6500|0|0|0]
9900,-0.1960761547088623,-0.3021225929260254,1.7057766914367676,-13.60427474975586,-0.8388524651527405,-10.78758430480957,3.36328125,2,J2,7.6,90,23.72839107595253,2.1984736171696433,[6500|0|0|0]
10000,-0.11886322498321533,-0.24145103991031647,1.6692378520965576,-11.19751262664795,2.808680534362793,-1.265120267868042,3.3671875,2,J2,7.6,90,23.72839107595253,2.303249380791224,[6500|0|0|0]
10100,-0.04545260965824127,-0.17137104272842407,1.6423503160476685,-8.468644142150879,6.879276275634766,2.2380356788635254,3.37890625,2,J2,7.6,90,23.72839107595253,2.4082411140000137,[6500|0|0|0]
10200,0.016631606966257095,-0.0904804989695549,1.6241413354873657,-5.597229480743408,9.38488483428955,2.597452402114868,3.404296875,2,J2,7.6,90,23.72839107595253,2.5118234339032126,[6500|0|0|0]
10300,0.06145323067903519,-0.007913630455732346,1.6111904382705688,-3.8997089862823486,10.039743423461914,3.097799301147461,3.416015625,2,J2,7.6,90,23.72839107595253,2.6066600906723583,[6500|0|0|0]
10400,0.09078766405582428,0.07221833616495132,1.601333498954773,-1.994994044303894,8.76833438873291,1.2095566987991333,3.416015625,2,J2,7.6,90,23.72839107595253,2.6925600342620424,[6500|0|0|0]
10500,0.1075330376625061,0.15964670479297638,1.5899381637573242,0.39212867617607117,7.077817916870117,1.1516419649124146,3.404296875,2,J2,7.6,90,23.72839107595253,2.782304008112365,[6500|0|0|0]
10600,0.11371918767690659,0.22491267323493958,1.580989956855774,3.001026153564453,5.182107448577881,-0.5537738800048828,3.41015625,2,J2,7.6,90,23.72839107595253,2.8484703552642285,[6500|0|0|0]
10700,0.11558205634355545,0.29471176862716675,1.5732059478759766,4.788508415222168,3.1479203701019287,-3.310966968536377,3.41015625,2,J2,7.6,90,23.72839107595253,2.918726848153071,[6500|0|0|0]
10800,0.11311985552310944,0.3493407070636749,1.565433144569397,5.417185306549072,1.371428370475769,-5.794763088226318,3.3984375,2,J2,7.6,90,23.72839107595253,2.9739608939837248,[6500|0|0|0]
10900,0.1095411628484726,0.3974130153656006,1.558418869972229,5.187320709228516,0.8085582852363586,-6.977741241455078,3.404296875,2,J2,7.6,90,23.72839107595253,3.0226738687939267,[6500|0|0|0]
11000,0.10519453138113022,0.4381309151649475,1.5522328615188599,4.624703407287598,0.4126160144805908,-6.495974063873291,3.39453125,2,J2,7.6,90,23.72839107595253,3.064087722391095,[6500|0|0|0]
11100,0.10036224871873856,0.46949559450149536,1.5462937355041504,4.16454553604126,0.5018354654312134,-5.103355407714844,3.3984375,2,J2,7.6,90,23.72839107595253,3.0963734356933026,[6500|0|0|0]
11200,0.09694033116102219,0.49633607268333435,1.542239785194397,3.3870937824249268,0.5717045664787292,-1.9462989568710327,3.3984375,2,J2,7.6,90,23.72839107595253,3.1237331743966514,[6500|0|0|0]
11300,0.09386780858039856,0.5175290703773499,1.5413429737091064,2.68074631690979,0.6392988562583923,0.11280430108308792,3.41015625,2,J2,7.6,90,23.72839107595253,3.145166508647466,[6500|0|0|0]
11400,0.08891313523054123,0.5333037972450256,1.5371230840682983,2.110623359680176,0.7585298418998718,1.456969141960144,3.416015625,2,J2,7.6,90,23.72839107595253,3.162231040997758,[6500|0|0|0]
11500,0.0836707204580307,0.5469102263450623,1.5345587730407715,1.7941341400146484,0.6504908800125122,1.445261836051941,3.41015625,2,J2,7.6,90,23.72839107595253,3.177036226459185,[6500|0|0|0]
11600,0.07779129594564438,0.5585201978683472,1.5315678119659424,1.6256462335586548,0.545535147190094,1.3827816247940063,3.404296875,2,J2,7.6,90,23.72839107595253,3.1903893129757726,[6500|0|0|0]
11700,0.07177692651748657,0.5687918066978455,1.5314662456512451,1.5844916105270386,0.14814700186252594,0.797534167766571,3.404296875,2,J2,7.6,90,23.72839107595253,3.2022926277779975,[6500|0|0|0]
11800,0.06472375988960266,0.5769599080085754,1.5288939476013184,1.5117552280426025,-0.2161821871995926,0.14118824899196625,3.41015625,2,J2,7.6,90,23.72839107595253,3.2133868495064783,[6500|0|0|0]
11900,0.0558612085878849,0.5818699598312378,1.5224453210830688,1.5544321537017822,-0.4499192237854004,-0.522064745426178,3.404296875,2,J2,7.6,90,23.72839107595253,3.225396770757206,[6500|0|0|0]
12000,0.05150120332837105,0.5875898003578186,1.523446798324585,1.3512812852859497,-0.6847568154335022,-1.144201397895813,3.41015625,2,J2,7.6,90,23.72839107595253,3.232658256705535,[6500|0|0|0]
12100,0.04519355669617653,0.5912036299705505,1.519997477531433,1.2033743858337402,-0.7945759892463684,-1.8407832384109497,3.404296875,2,J2,7.6,90,23.72839107595253,3.2407046213778923,[6500|0|0|0]
12200,0.03917837515473366,0.5914254188537598,1.5120503902435303,1.1785900592803955,-0.7825911045074463,-2.3207149505615234,3.3984375,2,J2,7.6,90,23.72839107595253,3.250673964167002,[6500|0|0|0]
12300,0.036226797848939896,0.5929361581802368,1.5106704235076904,0.9918046593666077,-0.8312041163444519,-2.3975484371185303,3.404296875,2,J2,7.6,90,23.72839107595253,3.2542654053953486,[6500|0|0|0]
12400,0.03230047971010208,0.5917133688926697,1.5040268898010254,0.8860055804252625,-0.8249239325523376,-2.4141039848327637,3.404296875,2,J2,7.6,90,23.72839107595253,3.26207870993829,[6500|0|0|0]
12500,0.032975904643535614,0.5913798809051514,1.5029418468475342,0.782581627368927,-0.6245385408401489,-2.1440703868865967,3.720703125,2,J2,7.6,90,0,3.263399592707291,[6500|0|0|0]
12600,0.03196395933628082,0.5892657041549683,1.4823740720748901,0.7946017980575562,-0.40818464756011963,-2.050546169281006,3.689453125,2,J2,7.6,90,0,3.2841004896862653,[6500|0|0|0]
12700,0.030244069173932076,0.5854795575141907,1.422925591468811,0.2729633152484894,-0.023847073316574097,1.0180059671401978,3.546875,2,J2,7.6,90,0,3.3436942374701344,[6500|0|0|0]
12800,0.02065076120197773,0.5886447429656982,1.324243187904358,0.6605910062789917,-0.49325239658355713,0.015393218025565147,3.435546875,2,J2,7.6,90,0,3.442892356051309,[6500|0|0|0]
12900,0.017790764570236206,0.5849069356918335,1.2083649635314941,0.2086266428232193,-0.6104022264480591,-0.33791884779930115,3.3828125,2,J2,7.6,90,0,3.5588661188934188,[6500|0|0|0]
13000,0.014939543791115284,0.579662024974823,1.0857975482940674,0.18470926582813263,-0.773537278175354,-0.5934937596321106,3.373046875,2,J2,7.6,90,0,3.6815788314636513,[6500|0|0|0]
13100,0.015203229151666164,0.5736314654350281,0.9747713208198547,-0.20068849623203278,-0.5853744745254517,-0.8945152759552002,3.39453125,2,J2,7.6,90,0,3.7927690305168413,[6500|0|0|0]
13200,0.01739540882408619,0.5662916898727417,0.8538017868995667,0.2555938959121704,-0.5250560641288757,-0.9089649319648743,3.3984375,2,J2,7.6,90,0,3.9139808537599254,[6500|0|0|0]
13301,0.02077682875096798,0.5579898953437805,0.7322744727134705,-0.9474072456359863,0.5517019629478455,-1.5288501977920532,3.39453125,2,J2,7.6,90,0,4.035838319212023,[6500|0|0|0]
13401,0.024726811796426773,0.5446134209632874,0.6042474508285522,-0.8325786590576172,-0.10873328894376755,-1.7962011098861694,3.3984375,2,J2,7.6,90,0,4.164622832122671,[6500|0|0|0]
13500,0.027071891352534294,0.5437268018722534,0.4966423213481903,-1.4023724794387817,0.6280664205551147,-1.3008720874786377,3.341796875,2,J2,7.6,90,0,4.272257163922625,[6500|0|0|0]
13601,0.029688244685530663,0.5387377142906189,0.38325929641723633,-0.5804380774497986,0.1622970700263977,-0.2079341560602188,3.2734375,2,J2,7.6,90,0,4.385780054311099,[6500|0|0|0]
13701,0.034434132277965546,0.5335835814476013,0.28332722187042236,-1.1771749258041382,0.5140063762664795,2.0203375816345215,3.251953125,2,J2,7.6,90,0,4.485957437275686,[6500|0|0|0]
13801,0.038150012493133545,0.5306510329246521,0.2044554501771927,-0.029377534985542297,-0.4770439565181732,4.782684326171875,3.2890625,2,J2,7.6,90,0,4.56497113214336,[6500|0|0|0]
13901,0.04308990389108658,0.5288000702857971,0.1435907483100891,-0.8213399052619934,-0.06195492297410965,6.371116638183594,3.29296875,2,J2,7.6,90,0,4.6260640165333236,[6500|0|0|0]
14001,0.04927082732319832,0.5284597873687744,0.10062558948993683,-0.5081969499588013,0.43533453345298767,6.419507026672363,3.314453125,2,J2,7.6,90,0,4.669472823005952,[6500|0|0|0]
14101,0.05513213202357292,0.5286042094230652,0.07236948609352112,-0.25288787484169006,1.5094316005706787,5.418826103210449,3.341796875,2,J2,7.6,90,0,4.6983308050849075,[6500|0|0|0]
14201,0.05753553658723831,0.5295542478561401,0.058254510164260864,-0.5603413581848145,1.591051697731018,3.4021425247192383,3.36328125,2,J2,7.6,90,0,4.7126804208290505,[6500|0|0|0]
14301,0.05815351754426956,0.5301157236099243,0.052294109016656876,-0.4046036899089813,0.7224010825157166,0.9982204437255859,3.3828125,2,J2,7.6,90,0,4.718699020111749,[6500|0|0|0]
14401,0.05743120610713959,0.5311612486839294,0.04946666583418846,0.32421278953552246,1.0293865203857422,-0.5901510715484619,3.388671875,2,J2,7.6,90,0,4.721798905826201,[6500|0|0|0]
14502,0.056560903787612915,0.5320313572883606,0.04765426740050316,0.0973864272236824,0.7029033303260803,-1.2749607563018799,3.3828125,2,J2,7.6,90,0,4.723989637026806,[6500|0|0|0]
14602,0.05383140966296196,0.5315845608711243,0.04690288379788399,-0.08257812261581421,1.0395946502685547,-1.3418047428131104,3.37890625,2,J2,7.6,90,0,4.726855704460284,[6500|0|0|0]
14700,0.051171716302633286,0.5311042070388794,0.04740206152200699,-0.13818086683750153,0.31671836972236633,-1.3331159353256226,3.37890625,2,J2,7.6,90,0,4.7296041380096705,[6500|0|0|0]
14802,0.04718702659010887,0.5300895571708679,0.050205670297145844,-0.6526109576225281,-0.040411677211523056,-1.0205731391906738,3.388671875,2,J2,7.6,90,0,4.73458083255764,[6500|0|0|0]
14902,0.043195631355047226,0.5302515625953674,0.05387645587325096,-0.5598331093788147,-0.47617483139038086,-0.8238621950149536,3.39453125,2,J2,7.6,90,0,4.740005972963729,[6500|0|0|0]
15000,0.03943201154470444,0.5311821103096008,0.0567307211458683,-0.49353647232055664,-0.5474145412445068,-0.34719333052635193,3.3828125,2,J2,7.6,90,0,4.744820283233304,[6500|0|0|0]
15100,0.03630085289478302,0.5328335762023926,0.05838451907038689,-0.9423993825912476,-0.8617920279502869,0.5386595726013184,3.373046875,2,J2,7.6,90,0,4.7487275254399215,[6500|0|0|0]
15200,0.03385229408740997,0.5358484983444214,0.05915104225277901,-0.0850900262594223,-0.49674174189567566,2.0714733600616455,3.373046875,2,J2,7.6,90,0,4.752686408305681,[6500|0|0|0]
15302,0.032297804951667786,0.5395143032073975,0.06019610911607742,0.553236186504364,0.3037503957748413,3.9124302864074707,3.37890625,2,J2,7.6,90,0,4.756803048503138,[6500|0|0|0]
15400,0.029929853975772858,0.5421479940414429,0.061101384460926056,0.9560754299163818,-0.38362157344818115,5.582461833953857,3.37890625,2,J2,7.6,90,0,4.760458598076536,[6500|0|0|0]
15500,0.027428774163126945,0.5432530045509338,0.06154663488268852,1.3589025735855103,-0.2378358691930771,6.527304172515869,3.3671875,2,J1,7.6,90,0,4.763228922316293,[6500|100|0|0]
15600,0.02419028803706169,0.5427383184432983,0.061907779425382614,0.8622684478759766,-0.32222095131874084,7.174158096313477,3.373046875,2,J1,7.6,90,0,4.76652787966049,[6500|200|0|0]
15700,0.020952139049768448,0.5402385592460632,0.06266166269779205,0.7512545585632324,-0.2063753753900528,6.902761936187744,3.373046875,2,J1,7.6,90,0,4.770687536484855,[6500|300|0|0]
15800,0.017513655126094818,0.5353295207023621,0.06367649137973785,0.25021398067474365,-0.6954181790351868,5.970883369445801,3.373046875,2,J1,7.6,90,0,4.776766328171581,[6500|400|0|0]
15900,0.013804957270622253,0.530102014541626,0.06568273156881332,-0.783109188079834,-0.8774550557136536,4.561379432678223,3.373046875,2,J1,7.6,90,0,4.78348244759726,[6500|500|0|0]
16000,0.01178013440221548,0.5249477624893188,0.06788330525159836,-0.5241696834564209,-0.5579428672790527,3.1781506538391113,3.373046875,2,J1,7.6,90,0,4.789441369177588,[6500|600|0|0]
16100,0.0111134834587574,0.5202008485794067,0.06967300921678543,-0.12419544160366058,-0.6885331273078918,2.438854694366455,3.373046875,2,J1,7.6,90,0,4.794558072748398,[6500|700|0|0]
16200,0.011576736345887184,0.5151439309120178,0.07054799050092697,-0.23055003583431244,-0.1996222734451294,2.2839183807373047,3.373046875,2,J1,7.6,90,0,4.799710995392857,[6500|800|0|0]
16300,0.012499545700848103,0.5098994970321655,0.07157677412033081,-0.46381351351737976,-0.08633958548307419,2.269394874572754,3.373046875,2,J1,7.6,90,0,4.805134468409412,[6500|900|0|0]
16400,0.013516641221940517,0.5058801770210266,0.07208863645792007,-0.4985775351524353,0.5431287884712219,2.8945913314819336,3.3671875,2,J1,7.6,90,0,4.809311958050765,[6500|1000|0|0]
16500,0.012982926331460476,0.5020104646682739,0.07352177798748016,-0.349263995885849,0.18899224698543549,3.6787362098693848,3.36328125,2,J1,7.6,90,0,4.813472897838976,[6500|1100|0|0]
16600,0.012344220653176308,0.49929219484329224,0.07513707131147385,-0.12565606832504272,-0.18286244571208954,4.287238121032715,3.3671875,2,J1,7.6,90,0,4.816698747852137,[6500|1200|0|0]
16700,0.01217805314809084,0.49651387333869934,0.07712820172309875,-0.29027509689331055,0.036420390009880066,4.927212715148926,3.373046875,2,J1,7.6,90,0,4.820120922940984,[6500|1300|0|0]
16800,0.012151622213423252,0.4947350025177002,0.07935547083616257,-0.3782254159450531,0.2860660254955292,5.555865287780762,3.3671875,2,J1,7.6,90,0,4.822971503179132,[6500|1400|0|0]
16900,0.01101246103644371,0.49391883611679077,0.08152453601360321,-0.37079745531082153,0.07634156197309494,5.972424030303955,3.373046875,2,J1,7.6,90,0,4.825553877963143,[6500|1500|0|0]
17000,0.00867838691920042,0.49424585700035095,0.08155372738838196,-0.4237183630466461,0.22299712896347046,6.442413330078125,3.357421875,2,J1,7.6,90,0,4.827910930525016,[6500|1600|0|0]
17100,0.005442856345325708,0.4961282014846802,0.08026625216007233,-0.5908001065254211,0.2702171504497528,6.7283430099487305,3.3515625,2,J1,7.6,90,0,4.831869398829256,[6500|1700|0|0]
17200,0.0010507798288017511,0.49881887435913086,0.07880154997110367,-0.2501598000526428,0.21654388308525085,6.602460861206055,3.345703125,2,J1,7.6,90,0,4.837224341326302,[6500|1800|0|0]
17300,-0.004167013801634312,0.5025516748428345,0.07932108640670776,-0.20528286695480347,-0.44805771112442017,5.379642009735107,3.3515625,2,J1,7.6,90,0,4.843660884492388,[6500|1900|0|0]
17400,-0.009204610250890255,0.5069839358329773,0.08093389868736267,-0.3607958257198334,0.306820273399353,4.059197902679443,3.7578125,2,J1,7.6,90,0,4.8505618611568115,[6500|2000|0|0]
17500,-0.015573627315461636,0.5109055042266846,0.0670279711484909,2.7102713584899902,1.7486894130706787,2.9086291790008545,3.869140625,2,J1,7.6,90,0,4.866351664757606,[6500|2100|0|0]
17600,-0.023750003427267075,0.5107710957527161,-0.004102896898984909,9.964479446411133,2.7262279987335205,2.4369237422943115,3.875,2,J1,7.6,90,0,4.937951047304853,[6500|2200|0|0]
17700,-0.02948787622153759,0.514566957950592,-0.037536777555942535,-1.3159595727920532,-0.7501661777496338,3.433100938796997,3.875,2,J1,7.6,90,0,4.9720854307006634,[6500|2300|0|0]
17800,-0.02881975658237934,0.5137460827827454,-0.0346301831305027,-1.1469380855560303,-0.7487853169441223,3.5322787761688232,3.87890625,2,J1,7.6,90,0,4.975178731695945,[6500|2400|0|0]
17900,-0.028317766264081,0.5135139226913452,-0.03383368253707886,-1.0040531158447266,-0.7200314402580261,3.5753114223480225,3.87890625,2,J1,7.6,90,0,4.976148425350162,[6500|2500|0|0]
18000,-0.027959255501627922,0.5130032300949097,-0.033395618200302124,-0.85370272397995,-0.6721101403236389,3.605647325515747,3.87890625,2,J1,7.6,90,0,4.9769108145276855,[6500|2600|0|0]
18100,-0.028046470135450363,0.5131112933158875,-0.03262269124388695,-0.7338777184486389,-0.5942968130111694,3.64285945892334,3.884765625,2,J1,7.6,90,0,4.9776961171012415,[6500|2700|0|0]
18200,-0.02784450352191925,0.5136348009109497,-0.032459285110235214,-0.6343414187431335,-0.5558046698570251,3.6287994384765625,3.884765625,2,J1,7.6,90,0,4.978280541843688,[6500|2800|0|0]
18300,-0.02744625136256218,0.5158239603042603,-0.03253968805074692,-0.47881197929382324,-0.44699326157569885,3.8705408573150635,3.884765625,2,J1,7.6,90,0,4.980507083616168,[6500|2900|0|0]
18400,-0.02130630798637867,0.5179625153541565,-0.032717015594244,-0.2343222200870514,-0.438726007938385,1.476131796836853,3.884765625,2,J1,7.6,90,0,4.987011218256676,[6500|3000|0|0]
18500,-0.007641485892236233,0.5153970718383789,-0.022712329402565956,-6.386536121368408,3.026721715927124,-10.110420227050781,3.884765625,2,J1,7.6,90,0,5.004140217325248,[6500|3100|0|0]
18600,0.06089518591761589,0.4703816771507263,0.017441121861338615,-13.25605297088623,8.938616752624512,-11.065838813781738,3.890625,2,J1,7.6,90,0,5.095441700281766,[6500|3200|0|0]
18700,0.139767587184906,0.43749263882637024,0.02183060720562935,-10.72263240814209,7.63659143447876,-2.2258243560791016,3.890625,2,J1,7.6,90,0,5.181009288217602,[6500|3300|0|0]
18800,0.16601471602916718,0.4179413318634033,-0.00024224072694778442,-11.360160827636719,2.63653302192688,-1.9030166864395142,3.890625,2,J1,7.6,90,0,5.2204855594749295,[6500|3400|0|0]
18900,0.16631194949150085,0.4118182063102722,-0.01282004825770855,-2.4283690452575684,-8.560340881347656,-0.1109285056591034,3.890625,2,J1,7.6,90,0,5.23447778076218,[6500|3500|0|0]
19000,0.16004210710525513,0.4144032299518585,-0.014966961927711964,3.0975730419158936,-9.186481475830078,0.7772267460823059,3.890625,2,J1,7.6,90,0,5.2415913248213934,[6500|3600|0|0]
19100,0.15542934834957123,0.41901299357414246,-0.014854654669761658,-1.4897490739822388,-6.707859039306641,-5.950649261474609,3.896484375,2,J1,7.6,90,0,5.24811360026112,[6500|3700|0|0]
19200,0.15353554487228394,0.4194163680076599,-0.013305874541401863,-1.5809009075164795,-6.507370471954346,-6.192854881286621,3.896484375,2,J1,7.6,90,0,5.250593100700765,[6500|3800|0|0]
19300,0.1785716861486435,0.402091383934021,-0.01272626407444477,-0.5031599998474121,-6.819557189941406,0.8748559355735779,3.896484375,2,J1,7.6,90,0,5.281044691651898,[6500|3900|0|0]
19400,0.18198277056217194,0.39271169900894165,-0.011093692854046822,-0.45735862851142883,-6.9606499671936035,0.8741441965103149,3.896484375,2,J1,7.6,90,0,5.291158013309971,[6500|4000|0|0]
19500,0.16179440915584564,0.4187607765197754,-0.01889268308877945,-2.745727062225342,-6.643697261810303,-20.46923828125,3.896484375,2,J1,7.6,90,0,5.325024643259219,[6500|4100|0|0]
19600,0.16305997967720032,0.41650375723838806,-0.0167589969933033,-2.5820212364196777,-6.4620041847229,-28.0981388092041,3.900390625,2,J1,7.6,90,0,5.328378509853928,[6500|4200|0|0]
19700,0.16318103671073914,0.4143050014972687,-0.015736276283860207,-2.237962007522583,-6.441150188446045,-28.721866607666016,3.900390625,2,J1,7.6,90,0,5.33080650064139,[6500|4300|0|0]
19800,0.16191589832305908,0.4170115292072296,-0.017787832766771317,-1.6626255512237549,-6.445461750030518,-22.141292572021484,3.900390625,2,J1,7.6,90,0,5.334430690397369,[6500|4400|0|0]
19900,0.16107428073883057,0.416507363319397,-0.01790468394756317,-1.2316629886627197,-6.448310852050781,-17.76140594482422,3.990234375,2,J1,7.6,90,0,5.335418697279424,[6500|4500|0|0]
20000,0.1614130288362503,0.41572555899620056,-0.01811893656849861,-0.9636945128440857,-6.4852294921875,-14.734675407409668,3.990234375,2,J1,7.6,90,0,5.33629726000277,[6500|4600|0|0]
20100,0.1603192389011383,0.41454052925109863,-0.01797669753432274,-0.931942343711853,-6.522655487060547,-12.947518348693848,3.99609375,2,J1,7.6,90,0,5.337916180588151,[6500|4700|0|0]
20200,0.16071023046970367,0.41569632291793823,-0.01828845404088497,-0.993930459022522,-6.5900115966796875,-11.535082817077637,3.99609375,2,J1,7.6,90,0,5.339175515939192,[6500|4800|0|0]
20300,0.1616554856300354,0.4160897731781006,-0.017258403822779655,-0.9583134651184082,-6.601463794708252,-10.39357852935791,3.99609375,2,J1,7.6,90,0,5.340627863651406,[6500|4900|0|0]
20400,0.1610034704208374,0.4163132309913635,-0.01779324933886528,-0.877988874912262,-6.567285060882568,-9.351030349731445,3.99609375,2,J1,7.6,90,0,5.341500283821628,[6500|5000|0|0]
20500,0.1609230488538742,0.41584616899490356,-0.01810348778963089,-0.8402026295661926,-6.571794509887695,-8.561922073364258,3.99609375,2,J1,7.6,90,0,5.342066731024202,[6500|5100|0|0]
20600,0.161177858710289,0.4159054756164551,-0.017889950424432755,-0.8608752489089966,-6.578655242919922,-7.988080978393555,3.99609375,2,J1,7.6,90,0,5.342404434362388,[6500|5200|0|0]
20700,0.16105961799621582,0.41597673296928406,-0.017680976539850235,-0.8452975153923035,-6.417470932006836,-7.558335781097412,4.0,2,J1,7.6,90,0,5.342654891067697,[6500|5300|0|0]
20800,0.16086576879024506,0.41576215624809265,-0.017693066969513893,-0.8091168403625488,-6.292985916137695,-7.296291828155518,4.0,2,J1,7.6,90,0,5.342944316122629,[6500|5400|0|0]
20900,0.16099682450294495,0.4156217873096466,-0.017594460397958755,-0.8561252951622009,-6.272367477416992,-7.098932266235352,4.0,2,J1,7.6,90,0,5.343160191768929,[6500|5500|0|0]
21000,0.16088789701461792,0.4161573350429535,-0.018095336854457855,-1.0832785367965698,-6.581653118133545,-6.887791633605957,4.0,2,J1,7.6,90,0,5.343901510726624,[6500|5600|0|0]
21100,0.16116191446781158,0.4155787527561188,-0.018064899370074272,-1.1267917156219482,-6.593554973602295,-6.771552562713623,4.0,2,J1,7.6,90,0,5.344542423722084,[6500|5700|0|0]
21200,0.160971000790596,0.415942907333374,-0.018193930387496948,-1.1786221265792847,-6.58421516418457,-6.668301105499268,4.0078125,2,J1,7.6,90,0,5.344973359438567,[6500|5800|0|0]
21300,0.16090288758277893,0.416140615940094,-0.017996544018387794,-1.221384048461914,-6.581652641296387,-6.5679426193237305,4.0,2,J1,7.6,90,0,5.345260917225734,[6500|5900|0|0]
21400,0.1613020896911621,0.41628268361091614,-0.018105944618582726,-1.261982798576355,-6.590228080749512,-6.52012300491333,4.0,2,J1,7.6,90,0,5.3456985403944,[6500|6000|0|0]
21500,0.16094283759593964,0.41627052426338196,-0.018045837059617043,-1.285631537437439,-6.572420597076416,-6.476042747497559,4.0078125,2,J1,7.6,90,0,5.346062989068837,[6500|6100|0|0]
21600,0.16106736660003662,0.416431188583374,-0.018024997785687447,-1.3174312114715576,-6.577157974243164,-6.426782608032227,4.0078125,2,J1,7.6,90,0,5.346267328913013,[6500|6200|0|0]
21700,0.1612148880958557,0.4161355495452881,-0.018191630020737648,-1.3334996700286865,-6.584318161010742,-6.4183478355407715,4.0078125,2,J1,7.6,90,0,5.346637371254276,[6500|6300|0|0]
21800,0.1616138219833374,0.41654035449028015,-0.01802787557244301,-1.3704959154129028,-6.596380710601807,-6.402546405792236,4.0078125,2,J1,7.6,90,0,5.3472288362231515,[6500|6400|0|0]
21900,0.16131393611431122,0.4164588153362274,-0.017880192026495934,-1.383253812789917,-6.585318088531494,-6.398142337799072,4.0078125,2,J1,7.6,90,0,5.347572915571309,[6500|6500|0|0]
22000,0.1612967550754547,0.41655611991882324,-0.017839303240180016,-1.4002562761306763,-6.578479290008545,-6.398974418640137,4.0078125,2,J1,7.6,90,0,5.3476798513592225,[6500|6600|0|0]
22100,0.16117435693740845,0.41657066345214844,-0.01823447458446026,-1.4105173349380493,-6.577541828155518,-6.3918375968933105,4.0078125,2,J1,7.6,90,0,5.348093799677131,[6500|6700|0|0]
22200,0.1614280492067337,0.4165443778038025,-0.018139438703656197,-1.4109480381011963,-6.590287685394287,-6.37791633605957,4.01171875,2,J1,7.6,90,0,5.348365980722512,[6500|6800|0|0]
22300,0.161348357796669,0.4166542887687683,-0.018112899735569954,-1.4165674448013306,-6.583518981933594,-6.36321496963501,4.01171875,2,J1,7.6,90,0,5.348504311694767,[6500|6900|0|0]
22400,0.1613025963306427,0.4167168140411377,-0.018019888550043106,-1.4288756847381592,-6.573909282684326,-6.3875627517700195,4.01171875,2,J1,7.6,90,0,5.3486253678887055,[6500|7000|0|0]
22500,0.1613665223121643,0.4166848361492157,-0.018092304468154907,-1.4258081912994385,-6.576325416564941,-6.3538689613342285,4.01171875,2,J1,7.6,90,0,5.3487271184753435,[6500|7100|0|0]
22600,0.16128389537334442,0.41649848222732544,-0.01791687123477459,-1.4155669212341309,-6.570188522338867,-6.3659749031066895,4.01171875,2,J1,7.6,90,0,5.348996064221911,[6500|7200|0|0]
22700,0.16133703291416168,0.41668790578842163,-0.018113624304533005,-1.4172624349594116,-6.569616794586182,-6.360142230987549,4.01171875,2,J1,7.6,90,0,5.349274302706312,[6500|7300|0|0]
22800,0.1614687740802765,0.4163624346256256,-0.01808653213083744,-1.4145548343658447,-6.577698230743408,-6.3668622970581055,4.01171875,2,J1,7.6,90,0,5.349626469142158,[6500|7400|0|0]
22900,0.16106149554252625,0.41658973693847656,-0.017813265323638916,-1.4200670719146729,-6.564415454864502,-6.355040073394775,4.01171875,2,J1,7.6,90,0,5.350167040040982,[6500|7500|0|0]
23000,0.1617009937763214,0.41663694381713867,-0.01786748133599758,-1.4245954751968384,-6.5841288566589355,-6.376920223236084,4.01171875,2,J1,7.6,90,0,5.3508105661526635,[6500|7600|0|0]
23100,0.16079939901828766,0.4164634943008423,-0.01799732632935047,-1.4065934419631958,-6.5547308921813965,-6.377493381500244,4.015625,2,J1,7.6,90,0,5.351737829634483,[6500|7700|0|0]
23200,0.16091832518577576,0.4163101315498352,-0.018165523186326027,-1.4105494022369385,-6.563048839569092,-6.363553047180176,4.015625,2,J1,7.6,90,0,5.351994644255185,[6500|7800|0|0]
23300,0.16085675358772278,0.4166608452796936,-0.017804289236664772,-1.422442078590393,-6.558952808380127,-6.362512588500977,4.015625,2,J1,7.6,90,0,5.352501873146698,[6500|7900|0|0]
23400,0.16099533438682556,0.41666725277900696,-0.01833275705575943,-1.4281258583068848,-6.563997745513916,-6.375428676605225,4.01171875,2,J1,7.6,90,0,5.353048246581032,[6500|8000|0|0]
23500,0.16116981208324432,0.41666558384895325,-0.017896195873618126,-1.4316723346710205,-6.568240165710449,-6.360199451446533,4.015625,2,J1,7.6,90,0,5.353518385834475,[6500|8100|0|0]
23600,0.1609828770160675,0.41660189628601074,-0.0177883543074131,-1.4274202585220337,-6.560996055603027,-6.351809024810791,4.015625,2,J1,7.6,90,0,5.3537433983417175,[6500|8200|0|0]
23700,0.16104841232299805,0.4164736866950989,-0.01795714907348156,-1.4218453168869019,-6.565415859222412,-6.346295356750488,4.015625,2,J1,7.6,90,0,5.3539652637259225,[6500|8300|0|0]
23800,0.16106639802455902,0.4166669249534607,-0.018274839967489243,-1.4243286848068237,-6.565714359283447,-6.335309982299805,4.015625,2,J1,7.6,90,0,5.354337543209766,[6500|8400|0|0]
23900,0.16085372865200043,0.4164181649684906,-0.018040135502815247,-1.4164726734161377,-6.563537120819092,-6.338024139404297,4.015625,2,J1,7.6,90,0,5.354740278827616,[6500|8500|0|0]
24000,0.16101789474487305,0.4164026379585266,-0.017839252948760986,-1.4225270748138428,-6.570766448974609,-6.336647987365723,4.015625,2,J1,7.6,90,0,5.3550001737960375,[6500|8600|0|0]
24100,0.16100190579891205,0.4163094758987427,-0.01793578825891018,-1.423883318901062,-6.573119640350342,-6.347796440124512,4.0234375,2,J1,7.6,90,0,5.355135280723624,[6500|8700|0|0]
24200,0.1608198881149292,0.4165615737438202,-0.01800394244492054,-1.4333544969558716,-6.571323394775391,-6.346807479858398,4.0234375,2,J1,7.6,90,0,5.355453602500833,[6500|8800|0|0]
24300,0.16100966930389404,0.41664186120033264,-0.017845604568719864,-1.4312102794647217,-6.577907562255859,-6.337056636810303,4.0234375,2,J1,7.6,90,0,5.3557134752743165,[6500|8900|0|0]
24400,0.16117006540298462,0.416610985994339,-0.017715880647301674,-1.4263676404953003,-6.582132816314697,-6.331982135772705,4.015625,2,J1,7.6,90,0,5.355922062145276,[6500|9000|0|0]
24500,0.16114895045757294,0.4165922701358795,-0.018029291182756424,-1.42576003074646,-6.581299781799316,-6.328608989715576,4.0234375,2,J1,7.6,90,0,5.356236740215709,[6500|9100|0|0]
24600,0.16104161739349365,0.4164772629737854,-0.018250755965709686,-1.4152166843414307,-6.5680952072143555,-6.354088306427002,4.0234375,2,J1,7.6,90,0,5.356508390144968,[6500|9200|0|0]
24700,0.16105495393276215,0.4167204797267914,-0.018028512597084045,-1.4072104692459106,-6.5544233322143555,-6.322351455688477,4.0234375,2,J1,7.6,90,0,5.3568381239271625,[6500|9300|0|0]
24800,0.16137325763702393,0.4165627658367157,-0.018000632524490356,-1.3982073068618774,-6.555391311645508,-6.326521396636963,4.0234375,2,J1,7.6,90,0,5.357194449926379,[6500|9400|0|0]
24900,0.16125600039958954,0.416361927986145,-0.01786058396100998,-1.3994865417480469,-6.552427768707275,-6.358577728271484,4.015625,2,J1,7.6,90,0,5.357465924975114,[6500|9500|0|0]
25000,0.16142567992210388,0.41667211055755615,-0.017752302810549736,-1.4050347805023193,-6.556630611419678,-6.339273452758789,4.0234375,2,J1,7.6,90,0,5.357835694059156,[6500|9600|0|0]
25100,0.1614181399345398,0.4165228009223938,-0.018165698274970055,-1.4017332792282104,-6.555256366729736,-6.347414016723633,4.0234375,2,J1,7.6,90,0,5.358275291634864,[6500|9700|0|0]
25200,0.16135936975479126,0.4166332185268402,-0.017700424417853355,-1.4559227228164673,-6.582629203796387,-6.353351593017578,4.0234375,2,J1,7.6,90,0,5.358757085930716,[6500|9800|0|0]
25300,0.16139639914035797,0.416456937789917,-0.018097711727023125,-1.4355007410049438,-6.582315921783447,-6.322091102600098,4.0234375,2,J1,7.6,90,0,5.359193300648066,[6500|9900|0|0]
25400,0.16112926602363586,0.416574090719223,-0.017998920753598213,-1.428735375404358,-6.570612907409668,-6.313973426818848,4.0234375,2,J1,7.6,90,0,5.3595012690998995,[6500|10000|0|0]
25500,0.16145476698875427,0.4165504276752472,-0.017966175451874733,-1.4140372276306152,-6.581563949584961,-6.304563522338867,4.0234375,2,J1,7.6,90,0,5.359829267686372,[6500|10100|0|0]
25600,0.16137486696243286,0.416427344083786,-0.018398676067590714,-1.4141534566879272,-6.589559078216553,-6.312728404998779,4.02734375,2,J1,7.6,90,0,5.360285984630757,[6500|10200|0|0]
25700,0.1613047868013382,0.4166439175605774,-0.01781104877591133,-1.4211012125015259,-6.587416648864746,-6.336415767669678,4.02734375,2,J1,7.6,90,0,5.360916160109298,[6500|10300|0|0]
25800,0.16129015386104584,0.41680145263671875,-0.018139759078621864,-1.452332615852356,-6.596558570861816,-6.343684196472168,4.02734375,2,J1,7.6,90,0,5.361280964010407,[6500|10400|0|0]
25900,0.16109031438827515,0.4165501594543457,-0.017880454659461975,-1.4380879402160645,-6.593029499053955,-6.353433132171631,4.0234375,2,J1,7.6,90,0,5.361693665912729,[6500|10500|0|0]
26000,0.16103379428386688,0.41652926802635193,-0.01774776168167591,-1.42936110496521,-6.5813140869140625,-6.35026741027832,4.02734375,2,J1,7.6,90,0,5.361839399918094,[6500|10600|0|0]
26100,0.16102880239486694,0.4164796769618988,-0.017758188769221306,-1.4217653274536133,-6.580390453338623,-6.356251239776611,4.02734375,2,J1,7.6,90,0,5.361890320609214,[6500|10700|0|0]
26200,0.16109177470207214,0.41650766134262085,-0.018354110419750214,-1.4169119596481323,-6.58285665512085,-6.358416557312012,4.02734375,2,J1,7.6,90,0,5.362490213308459,[6500|10800|0|0]
26300,0.16081556677818298,0.4164741039276123,-0.017902061343193054,-1.4091136455535889,-6.581345558166504,-6.357685565948486,4.02734375,2,J1,7.6,90,0,5.363021028987332,[6500|10900|0|0]
26400,0.1611650139093399,0.41657742857933044,-0.01766180247068405,-1.4126707315444946,-6.5924458503723145,-6.355908393859863,4.02734375,2,J1,7.6,90,0,5.363457507631651,[6500|11000|0|0]
26500,0.16104954481124878,0.4166468679904938,-0.01786748506128788,-1.4229989051818848,-6.586792469024658,-6.344754219055176,4.02734375,2,J1,7.6,90,0,5.363703394338315,[6500|11100|0|0]
26600,0.16138990223407745,0.4163192808628082,-0.018026461824774742,-1.4179065227508545,-6.601294040679932,-6.3616485595703125,4.02734375,2,J1,7.6,90,0,5.364201821978829,[6500|11200|0|0]
26700,0.16104479134082794,0.4163917899131775,-0.018131816759705544,-1.4234577417373657,-6.592957973480225,-6.369861602783203,4.02734375,2,J1,7.6,90,0,5.364569869195011,[6500|11300|0|0]
26800,0.1612406224012375,0.41665515303611755,-0.018001964315772057,-1.3662135601043701,-6.5657958984375,-6.361334323883057,4.02734375,2,J1,7.6,90,0,5.364922816210782,[6500|11400|0|0]
26900,0.1613529473543167,0.41686806082725525,-0.017851287499070168,-1.3810110092163086,-6.57102632522583,-6.368298530578613,4.02734375,2,J1,7.6,90,0,5.365206805868521,[6500|11500|0|0]
27000,0.16150611639022827,0.41641512513160706,-0.01830505207180977,-1.3756529092788696,-6.5777459144592285,-6.356538772583008,4.02734375,2,J1,7.6,90,0,5.3658659824650625,[6500|11600|0|0]
27100,0.1614372730255127,0.41656187176704407,-0.017824091017246246,-1.3942278623580933,-6.575887203216553,-6.364721298217773,4.03125,2,J1,7.6,90,0,5.366373523123419,[6500|11700|0|0]
27200,0.16118213534355164,0.4167981445789337,-0.018002120777964592,-1.4065132141113281,-6.5735368728637695,-6.338814735412598,4.03125,2,J1,7.6,90,0,5.366764182404758,[6500|11800|0|0]
27300,0.16126444935798645,0.4167041480541229,-0.01812249794602394,-1.4133222103118896,-6.580953121185303,-6.333200931549072,4.03125,2,J1,7.6,90,0,5.366937680549529,[6500|11900|0|0]
27400,0.16160061955451965,0.41664206981658936,-0.017947761341929436,-1.4200663566589355,-6.599721431732178,-6.331180095672607,4.02734375,2,J1,7.6,90,0,5.367321603705151,[6500|12000|0|0]
27500,0.16118672490119934,0.4164215922355652,-0.018107689917087555,-1.4114551544189453,-6.591737270355225,-6.296723365783691,4.03125,2,J1,7.6,90,0,5.3678170795339595,[6500|12100|0|0]
27600,0.1614203006029129,0.4165109395980835,-0.017956417053937912,-1.4210790395736694,-6.602592468261719,-6.308106422424316,4.03125,2,J1,7.6,90,0,5.368109353444436,[6500|12200|0|0]
27700,0.16131828725337982,0.4165083169937134,-0.0181198138743639,-1.4228370189666748,-6.594780445098877,-6.348382472991943,4.03125,2,J1,7.6,90,0,5.368301998513052,[6500|12300|0|0]
27800,0.16134288907051086,0.41635215282440186,-0.018007835373282433,-1.416439414024353,-6.593221664428711,-6.344508647918701,4.03125,2,J1,7.6,90,0,5.368495729465373,[6500|12400|0|0]
27900,0.16140666604042053,0.4165661036968231,-0.017725201323628426,-1.4306635856628418,-6.588881015777588,-6.367231845855713,4.02734375,2,J1,7.6,90,0,5.368855902317938,[6500|12500|0|0]
28000,0.16138491034507751,0.41629618406295776,-0.01804206892848015,-1.4287132024765015,-6.594742774963379,-6.404807090759277,4.03125,2,J1,7.6,90,0,5.369272717622396,[6500|12600|0|0]
28100,0.1613238900899887,0.4167070984840393,-0.018010543659329414,-1.4318994283676147,-6.599208831787109,-6.40031099319458,4.03125,2,J1,7.6,90,0,5.369689332523208,[6500|12700|0|0]
28200,0.16131073236465454,0.41656801104545593,-0.01799718290567398,-1.429747462272644,-6.600013256072998,-6.410305023193359,4.03125,2,J1,7.6,90,0,5.369829678349815,[6500|12800|0|0]
28300,0.1625225841999054,0.41964754462242126,-0.016485968604683876,-1.506233811378479,-6.633110046386719,-6.337124824523926,4.03125,2,J1,7.6,90,0,5.373467793326801,[6500|12900|0|0]
28400,0.1625048667192459,0.4193636178970337,-0.01676519401371479,-1.4982490539550781,-6.6399102210998535,-6.333908557891846,4.03125,2,J1,7.6,90,0,5.3738664098387,[6500|13000|0|0]
28500,0.16140790283679962,0.41637781262397766,-0.018041066825389862,-1.4113954305648804,-6.606582164764404,-6.385862827301025,4.03125,2,J1,7.6,90,0,5.3772936848961725,[6500|13100|0|0]
28600,0.16246676445007324,0.41902604699134827,-0.016821566969156265,-1.4420421123504639,-6.6177544593811035,-6.310765743255615,4.03125,2,J1,7.6,90,0,5.380395541288713,[6500|13200|0|0]
28700,0.16246041655540466,0.41927435994148254,-0.01665443368256092,-1.4499539136886597,-6.6143412590026855,-6.291908264160156,4.03125,2,J1,7.6,90,0,5.380694929251829,[6500|13300|0|0]
28800,0.16232022643089294,0.41915521025657654,-0.016674861311912537,-1.4496866464614868,-6.613732814788818,-6.2979607582092285,4.03125,2,J1,7.6,90,0,5.380880043288209,[6500|13400|0|0]
28900,0.16229954361915588,0.41907966136932373,-0.016889285296201706,-1.4499199390411377,-6.61572790145874,-6.303340911865234,4.03125,2,J1,7.6,90,0,5.3811083261349255,[6500|13500|0|0]
29000,0.1627691090106964,0.41917359828948975,-0.016898933798074722,-1.4591212272644043,-6.628280162811279,-6.288112163543701,4.0390625,2,J1,7.6,90,0,5.38158729262174,[6500|13600|0|0]
29100,0.16269512474536896,0.41939297318458557,-0.016612442210316658,-1.488466739654541,-6.634631156921387,-6.291631698608398,4.0390625,2,J1,7.6,90,0,5.381955635459285,[6500|13700|0|0]
29200,0.1627420336008072,0.4191323220729828,-0.016648823395371437,-1.4778655767440796,-6.632230758666992,-6.299462795257568,4.0390625,2,J1,7.6,90,0,5.382222961165726,[6500|13800|0|0]
29300,0.16252613067626953,0.41940242052078247,-0.016882341355085373,-1.479459524154663,-6.627041816711426,-6.296426773071289,4.0390625,2,J1,7.6,90,0,5.382640211548394,[6500|13900|0|0]
29400,0.16241835057735443,0.41911062598228455,-0.016887053847312927,-1.463119626045227,-6.62400484085083,-6.270949840545654,4.03125,2,J1,7.6,90,0,5.382951310905518,[6500|14000|0|0]
29500,0.16251087188720703,0.4193289279937744,-0.01676066592335701,-1.4646024703979492,-6.627283573150635,-6.2622551918029785,4.0390625,2,J1,7.6,90,0,5.383219992628601,[6500|14100|0|0]
29600,0.16261990368366241,0.4192450940608978,-0.016581663861870766,-1.45796537399292,-6.6237473487854,-6.268641471862793,4.0390625,2,J1,7.6,90,0,5.383445730970395,[6500|14200|0|0]
29701,0.1624068319797516,0.41951847076416016,-0.016404297202825546,-1.516990065574646,-6.638699531555176,-6.279200553894043,4.0390625,2,J1,7.6,90,0,5.383835080819034,[6500|14300|0|0]
29800,0.1626746505498886,0.419449120759964,-0.016646508127450943,-1.50297212600708,-6.646470069885254,-6.283601760864258,4.0390625,2,J1,7.6,90,0,5.384202779529393,[6500|14400|0|0]
29900,0.1622820496559143,0.41938531398773193,-0.016696928068995476,-1.4885754585266113,-6.636148452758789,-6.299158573150635,4.03125,2,J1,7.6,90,0,5.384603714607227,[6500|14500|0|0]
30000,0.16250170767307281,0.4194541871547699,-0.016789209097623825,-1.4903504848480225,-6.635665416717529,-6.296167850494385,4.0390625,2,J1,7.6,90,0,5.384851724578568,[6500|14600|0|0]
30101,0.1628928780555725,0.4192308783531189,-0.017007676884531975,-1.4796438217163086,-6.634085178375244,-6.288172245025635,4.0390625,2,J1,7.6,90,0,5.385352333470775,[6500|14700|0|0]
30201,0.16269774734973907,0.4194452464580536,-0.016721943393349648,-1.4827961921691895,-6.623581409454346,-6.297762393951416,4.0390625,2,J1,7.6,90,0,5.385759363328102,[6500|14800|0|0]
30301,0.16234663128852844,0.41934195160865784,-0.016440551728010178,-1.4832730293273926,-6.6151604652404785,-6.343421936035156,4.0390625,2,J1,7.6,90,0,5.386221027257465,[6500|14900|0|0]
30401,0.16260875761508942,0.4194342792034149,-0.016530204564332962,-1.4848854541778564,-6.625987529754639,-6.337944507598877,4.0390625,2,J1,7.6,90,0,5.386513041344267,[6500|15000|0|0]
30501,0.16223105788230896,0.41949570178985596,-0.01661067083477974,-1.480945348739624,-6.615067481994629,-6.311891555786133,4.0390625,2,J1,7.6,90,0,5.386904071577045,[6500|15100|0|0]
30602,0.16251316666603088,0.41937631368637085,-0.016856562346220016,-1.4747045040130615,-6.619668483734131,-6.281261920928955,4.0390625,2,J1,7.6,90,0,5.387296883899287,[6500|15200|0|0]
30701,0.16243286430835724,0.4193555414676666,-0.01658831164240837,-1.4790055751800537,-6.610714912414551,-6.270112037658691,4.0390625,2,J1,7.6,90,0,5.38757766565406,[6500|15300|0|0]
30801,0.16243307292461395,0.4190462827682495,-0.016702070832252502,-1.4719715118408203,-6.611599922180176,-6.281449794769287,4.0390625,2,J1,7.6,90,0,5.387907183695994,[6500|15400|0|0]
30902,0.16302932798862457,0.4192512631416321,-0.016902053728699684,-1.4765920639038086,-6.630329132080078,-6.272256851196289,4.0390625,2,J1,7.6,90,0,5.388568644362778,[6500|15500|0|0]
31002,0.1627301722764969,0.41916707158088684,-0.016819359734654427,-1.4677175283432007,-6.622776031494141,-6.251010417938232,4.0390625,2,J1,7.6,90,0,5.388890235182998,[6500|15600|0|0]
31100,0.1627860814332962,0.41924017667770386,-0.016646593809127808,-1.4724844694137573,-6.626054763793945,-6.259464740753174,4.04296875,2,J1,7.6,90,0,5.389085985672187,[6500|15700|0|0]
31202,0.16271929442882538,0.41941291093826294,-0.01686660759150982,-1.4790290594100952,-6.62347936630249,-6.2723870277404785,4.04296875,2,J1,7.6,90,0,5.38937356817022,[6500|15800|0|0]
31302,0.1628202199935913,0.4189513921737671,-0.016783077269792557,-1.4640320539474487,-6.622279167175293,-6.280540466308594,4.0390625,2,J1,7.6,90,0,5.389853321079801,[6500|15900|0|0]
31400,0.16252808272838593,0.4189550280570984,-0.01670350320637226,-1.418609380722046,-6.598880290985107,-6.282270431518555,4.0390625,2,J1,7.6,90,0,5.390156123710137,[6500|16000|0|0]
31500,0.16283826529979706,0.41898345947265625,-0.01677672751247883,-1.4282687902450562,-6.617415904998779,-6.302992820739746,4.0390625,2,J1,7.6,90,0,5.390476097727837,[6500|16100|0|0]
31602,0.16243599355220795,0.41935664415359497,-0.016636813059449196,-1.4477077722549438,-6.609328269958496,-6.3231987953186035,4.0390625,2,J1,7.6,90,0,5.39104237100035,[6500|16200|0|0]
31702,0.1629466861486435,0.4192067086696625,-0.016861984506249428,-1.4474488496780396,-6.627615451812744,-6.298998832702637,4.0390625,2,J1,7.6,90,0,5.391620289470249,[6500|16300|0|0]
31800,0.16270802915096283,0.41926369071006775,-0.01666562259197235,-1.457712173461914,-6.627654075622559,-6.290055274963379,4.04296875,2,J1,7.6,90,0,5.391934553876203,[6500|16400|0|0]
31900,0.16263599693775177,0.4192391037940979,-0.016783185303211212,-1.4609935283660889,-6.623171806335449,-6.322218894958496,4.0390625,2,J1,7.6,90,0,5.392074604392985,[6500|16500|0|0]
32000,0.16262979805469513,0.4193221628665924,-0.016635868698358536,-1.4633020162582397,-6.619709491729736,-6.295518398284912,4.04296875,2,J1,7.6,90,0,5.392243836239102,[6500|16600|0|0]
32100,0.16259904205799103,0.4190688729286194,-0.016804657876491547,-1.4594889879226685,-6.619232654571533,-6.311975955963135,4.04296875,2,J1,7.6,90,0,5.3925497635354755,[6500|16700|0|0]
32200,0.16256053745746613,0.41943028569221497,-0.016968917101621628,-1.468918800354004,-6.624935150146484,-6.311035633087158,4.0390625,2,J1,7.6,90,0,5.39294861549171,[6500|16800|0|0]
32300,0.16269683837890625,0.41933348774909973,-0.016680661588907242,-1.4669831991195679,-6.62590217590332,-6.304171085357666,4.04296875,2,J1,7.6,90,0,5.393281840676212,[6500|16900|0|0]
