,time.ms,stateEstimate.x,stateEstimate.y,stateEstimate.z,stabilizer.roll,stabilizer.pitch,stabilizer.yaw,pm.vbat,drone_id,node_name,wind_speed,global_wind_direction,relative_wind_direction,travel_dist,waiting_time
0,0,1.2525354623794556,1.074278712272644,-0.0338754281401634,0.106369212269783,1.0652732849121094,0.1715237498283386,4.12109375,2,"['A1', 'B2', 'F2']",7.6,180,0.0,0.0845497772802469,[100|0|0]
1,100,1.2524898052215576,1.0747137069702148,-0.0338013246655464,0.090723730623722,1.065975785255432,0.1807409822940826,4.12109375,2,"['A1', 'B2', 'F2']",7.6,180,0.0,0.0849933945566602,[200|0|0]
2,200,1.2523376941680908,1.074099898338318,-0.0341538488864898,0.1024208441376686,1.068286418914795,0.1819808781147003,4.12109375,2,"['A1', 'B2', 'F2']",7.6,180,0.0,0.0857173918878223,[300|0|0]
3,300,1.2524635791778564,1.0744086503982544,-0.0338073559105396,0.0933321863412857,1.059934377670288,0.1582360416650772,4.12109375,2,"['A1', 'B2', 'F2']",7.6,180,0.0,0.086198258036123,[400|0|0]
4,400,1.252217411994934,1.074419021606445,-0.0338793583214283,0.0935244113206863,1.0768085718154907,0.1726463586091995,4.12109375,2,"['A1', 'B2', 'F2']",7.6,180,0.0,0.0864549488834103,[500|0|0]
5,500,1.2524850368499756,1.0742368698120115,-0.0340662598609924,0.098376840353012,1.0686224699020386,0.1441105455160141,4.12109375,2,"['A1', 'B2', 'F2']",7.6,180,0.0,0.0868287596975166,[600|0|0]
6,600,1.2523664236068726,1.0743621587753296,-0.0338711664080619,0.0952306315302848,1.0760090351104736,0.1117376759648323,4.12109375,2,"['A1', 'B2', 'F2']",7.6,180,0.0,0.0870891975617856,[700|0|0]
7,700,1.2521133422851562,1.0741286277770996,-0.0339711233973503,0.098164826631546,1.085595965385437,0.112123966217041,4.12109375,2,"['A1', 'B2', 'F2']",7.6,180,0.0,0.0874477757014477,[800|0|0]
8,800,1.2527105808258057,1.074495553970337,-0.0339065119624137,0.088777557015419,1.0700922012329102,0.0992943942546844,4.1171875,2,"['A1', 'B2', 'F2']",7.6,180,0.0,0.0881516956850007,[900|0|0]
9,900,1.2523059844970703,1.0743151903152466,-0.0338373072445392,0.1034685224294662,1.079667329788208,0.1249630376696586,4.12109375,2,"['A1', 'B2', 'F2']",7.6,180,0.0,0.0886000465858359,[1000|0|0]
10,1000,1.2522332668304443,1.074532389640808,-0.0339280031621456,0.1043934002518653,1.0777432918548584,0.1105302050709724,4.12109375,2,"['A1', 'B2', 'F2']",7.6,180,0.0,0.0888463982765838,[1100|0|0]
11,1100,1.2521332502365112,1.07444965839386,-0.0338844805955886,0.1119385063648223,1.0743955373764038,0.1076328828930854,4.1171875,2,"['A1', 'B2', 'F2']",7.6,180,0.0,0.0889832996720599,[1200|0|0]
12,1200,1.252546310424805,1.0745744705200195,-0.0340253747999668,0.1115514487028122,1.062034010887146,0.0958036333322525,4.12109375,2,"['A1', 'B2', 'F2']",7.6,180,0.0,0.089437224735057,[1300|0|0]
13,1300,1.252507567405701,1.0743213891983032,-0.0338487215340137,0.1213402226567268,1.0653282403945925,0.1195054128766059,4.12109375,2,"['A1', 'B2', 'F2']",7.6,180,0.0,0.0897482834968735,[1400|0|0]
14,1400,1.252657413482666,1.074401617050171,-0.0342306233942508,0.1159401312470436,1.067740797996521,0.0968783870339393,4.1171875,2,"['A1', 'B2', 'F2']",7.6,180,0.0,0.0901663019005949,[1500|0|0]
15,1500,1.2523351907730105,1.0748825073242188,-0.0340574532747268,0.1006812676787376,1.0712401866912842,0.1107949092984199,4.12109375,2,"['A1', 'B2', 'F2']",7.6,180,0.0,0.0907705128079672,[1600|0|0]
16,1600,1.2520939111709597,1.0745666027069092,-0.0340161807835102,0.111118197441101,1.0758121013641355,0.1238160580396652,4.12109375,2,"['A1', 'B2', 'F2']",7.6,180,0.0,0.0911701563893426,[1700|0|0]
17,1700,1.2523385286331177,1.074701189994812,-0.0342988222837448,0.1083716079592704,1.0716524124145508,0.1346026360988617,4.12109375,2,"['A1', 'B2', 'F2']",7.6,180,0.0,0.0915674442679805,[1800|0|0]
18,1800,1.252251148223877,1.074182629585266,-0.0337948910892009,0.1177287772297859,1.0655577182769775,0.142077088356018,4.12109375,2,"['A1', 'B2', 'F2']",7.6,180,0.0,0.0922957895728338,[1900|0|0]
19,1900,1.2522013187408447,1.074404001235962,-0.034323301166296,0.1084410101175308,1.068962574005127,0.1317184418439865,4.12109375,2,"['A1', 'B2', 'F2']",7.6,180,0.0,0.0928708596508996,[2000|0|0]
20,2000,1.2521759271621704,1.0747170448303225,-0.0339172594249248,0.103606142103672,1.0721087455749512,0.1253573298454284,4.12109375,2,"['A1', 'B2', 'F2']",7.6,180,0.0,0.0933841927980598,[2100|0|0]
21,2100,1.2523033618927002,1.074446439743042,-0.0339568667113781,0.1089266613125801,1.0758949518203735,0.1348248869180679,4.12109375,2,"['A1', 'B2', 'F2']",7.6,180,0.0,0.0936859136308628,[2200|0|0]
22,2200,1.2522810697555542,1.0742230415344238,-0.0338970720767974,0.1147769838571548,1.075859785079956,0.0972498953342437,4.12109375,2,"['A1', 'B2', 'F2']",7.6,180,0.0,0.0939182476518691,[2300|0|0]
23,2300,1.2522799968719482,1.074617624282837,-0.0340417735278606,0.1044444665312767,1.0793732404708862,0.1163806691765785,4.12109375,2,"['A1', 'B2', 'F2']",7.6,180,0.0,0.0943385275661694,[2400|0|0]
24,2400,1.252058744430542,1.0740323066711426,-0.0340328812599182,0.1226427629590034,1.0769003629684448,0.1423748582601547,4.12109375,2,"['A1', 'B2', 'F2']",7.6,180,0.0,0.0949643297887741,[2500|0|0]
25,2500,1.2521674633026123,1.074517846107483,-0.0338724292814731,0.1072906032204628,1.0773375034332275,0.1574356853961944,4.12109375,2,"['A1', 'B2', 'F2']",7.6,180,0.0,0.0954871234141875,[2600|0|0]
26,2600,1.25225031375885,1.0743049383163452,-0.0336764976382255,0.1113087311387062,1.0687185525894165,0.1785943359136581,4.1171875,2,"['A1', 'B2', 'F2']",7.6,180,0.0,0.0957880937357337,[2700|0|0]
27,2700,1.252432107925415,1.0743190050125122,-0.0338579416275024,0.1156638711690902,1.055848240852356,0.1884405463933944,4.1171875,2,"['A1', 'B2', 'F2']",7.6,180,0.0,0.0960453269221285,[2800|0|0]
28,2800,1.25227153301239,1.0744560956954956,-0.0341127999126911,0.115742526948452,1.058642029762268,0.1726821362972259,4.1171875,2,"['A1', 'B2', 'F2']",7.6,180,0.0,0.0963762814561405,[2900|0|0]
29,2900,1.2523114681243896,1.0741267204284668,-0.0339010804891586,0.1168934404850006,1.05612313747406,0.1927054971456527,4.1171875,2,"['A1', 'B2', 'F2']",7.6,180,0.0,0.0967698649847614,[3000|0|0]
30,3000,1.252477526664734,1.0742741823196411,-0.0341860391199588,0.111085370182991,1.0544650554656982,0.1830711215734481,4.1171875,2,"['A1', 'B2', 'F2']",7.6,180,0.0,0.097131143090156,[3100|0|0]
31,3100,1.2528841495513916,1.0742912292480469,-0.0340491756796836,0.1020210012793541,1.043055295944214,0.1639883667230606,4.1171875,2,"['A1', 'B2', 'F2']",7.6,180,0.0,0.0975605198140313,[3200|0|0]
32,3200,1.2524635791778564,1.0742645263671875,-0.0339813977479934,0.1008451730012893,1.0625662803649902,0.1479281485080719,4.1171875,2,"['A1', 'B2', 'F2']",7.6,180,0.0,0.0979873527215793,[3300|0|0]
33,3300,1.252156376838684,1.074270486831665,-0.0342790037393569,0.1051356121897697,1.067877173423767,0.1596508622169494,4.12109375,2,"['A1', 'B2', 'F2']",7.6,180,0.0,0.0984151121521302,[3400|0|0]
34,3400,1.2521886825561523,1.0742381811141968,-0.0339491255581378,0.1084289401769638,1.067315936088562,0.1254932284355163,4.1171875,2,"['A1', 'B2', 'F2']",7.6,180,0.0,0.0987481390777784,[3500|0|0]
35,3500,1.2521833181381226,1.0742640495300293,-0.0338686928153038,0.1084265261888504,1.0672767162322998,0.1387128680944442,4.1171875,2,"['A1', 'B2', 'F2']",7.6,180,0.0,0.0988327994465367,[3600|0|0]
36,3600,1.2523173093795776,1.0744421482086182,-0.034082755446434,0.1043387576937675,1.060810923576355,0.1410427391529083,4.1171875,2,"['A1', 'B2', 'F2']",7.6,180,0.0,0.0991418230737049,[3700|0|0]
37,3700,1.2521518468856812,1.0745794773101809,-0.0341308116912841,0.0990218743681907,1.068408489227295,0.1679315119981765,4.1171875,2,"['A1', 'B2', 'F2']",7.6,180,0.0,0.0993621558259037,[3800|0|0]
38,3800,1.2522237300872805,1.0741634368896484,-0.0340906605124473,0.1098287925124168,1.0672547817230225,0.1476910412311554,4.12109375,2,"['A1', 'B2', 'F2']",7.6,180,0.0,0.0997862654147493,[3900|0|0]
39,3900,1.252485752105713,1.0742851495742798,-0.0339234210550785,0.1021628454327583,1.066314458847046,0.1375214159488678,4.1171875,2,"['A1', 'B2', 'F2']",7.6,180,0.0,0.1001200895478564,[4000|0|0]
40,4000,1.252363681793213,1.0743615627288818,-0.0343977138400077,0.1031263023614883,1.0720335245132446,0.1806611567735672,4.12109375,2,"['A1', 'B2', 'F2']",7.6,180,0.0,0.1006157646200822,[4100|0|0]
41,4100,1.2525582313537598,1.074487566947937,-0.034029584378004,0.1046242490410804,1.0645864009857178,0.1606493145227432,4.1171875,2,"['A1', 'B2', 'F2']",7.6,180,0.0,0.1010507886372626,[4200|0|0]
42,4200,1.252347469329834,1.0746548175811768,-0.0338533669710159,0.1019863188266754,1.073548674583435,0.1573028564453125,4.12109375,2,"['A1', 'B2', 'F2']",7.6,180,0.0,0.1013724188279693,[4300|0|0]
43,4300,1.2524968385696411,1.0745999813079834,-0.0339836925268173,-0.0454710908234119,-0.026110490784049,0.4581979215145111,4.12109375,2,"['A1', 'B2', 'F2']",7.6,180,0.0,0.1015780956063212,[4400|0|0]
44,4400,1.2531641721725464,1.0743836164474487,-0.0340140685439109,0.080130361020565,0.207372635602951,0.4689744114875793,4.1171875,2,"['A1', 'B2', 'F2']",7.6,180,0.0,0.1022802854615991,[4500|0|0]
45,4500,1.2529666423797607,1.0739868879318235,-0.0340844057500362,0.2029928416013717,0.570200502872467,0.449000597000122,4.1171875,2,"['A1', 'B2', 'F2']",7.6,180,0.0,0.1027290157332696,[4600|0|0]
46,4600,1.2527166604995728,1.0742369890213013,-0.0339085012674331,0.1615879237651825,0.7887164354324341,0.3992650210857391,4.1171875,2,"['A1', 'B2', 'F2']",7.6,180,0.0,0.1031239636822199,[4700|0|0]
47,4700,1.2528237104415894,1.074246883392334,-0.0340695641934871,0.161564826965332,0.896104633808136,0.3863546848297119,4.1171875,2,"['A1', 'B2', 'F2']",7.6,180,0.0,0.1033176098926475,[4800|0|0]
48,4800,1.252347469329834,1.0742087364196775,-0.0340464487671852,0.1639504730701446,0.9982763528823853,0.3457369804382324,4.1171875,2,"['A1', 'B2', 'F2']",7.6,180,0.0,0.1037959352118414,[4900|0|0]
49,4900,1.2526779174804688,1.0742864608764648,-0.0340739861130714,0.1606732457876205,1.0132756233215332,0.3036375045776367,4.1171875,2,"['A1', 'B2', 'F2']",7.6,180,0.0,0.104136516152088,[5000|0|0]
50,5000,1.2522767782211304,1.0744842290878296,-0.0338691920042037,0.1420264840126037,1.0582380294799805,0.2273305058479309,4.1171875,2,"['A1', 'B2', 'F2']",7.6,180,0.0,0.1046284161397235,[5100|0|0]
51,5100,1.25236713886261,1.0744571685791016,-0.0338779240846633,0.1380563974380493,1.0653914213180542,0.2130389511585235,4.1171875,2,"['A1', 'B2', 'F2']",7.6,180,0.0,0.1047231450470874,[5200|0|0]
52,5200,1.2522720098495483,1.0744366645812988,-0.0340943410992622,0.126830443739891,1.084691047668457,0.2029800713062286,4.1171875,2,"['A1', 'B2', 'F2']",7.6,180,0.0,0.1049604344637495,[5300|0|0]
53,5300,1.252233624458313,1.0746512413024902,-0.0338400118052959,0.1194326430559158,1.0894666910171509,0.1749282330274582,4.1171875,2,"['A1', 'B2', 'F2']",7.6,180,0.0,0.1052953971442185,[5400|0|0]
54,5400,1.2523016929626465,1.0743522644042969,-0.0339305587112903,0.1180417761206626,1.0921300649642944,0.1605660319328308,4.1171875,2,"['A1', 'B2', 'F2']",7.6,180,0.0,0.1056151145962299,[5500|0|0]
55,5500,1.2522876262664795,1.0746797323226929,-0.0339954197406768,0.1046549007296562,1.0918691158294678,0.1588386297225952,4.1171875,2,"['A1', 'B2', 'F2']",7.6,180,0.0,0.1059492404148263,[5600|0|0]
56,5600,1.2522270679473877,1.0743300914764404,-0.0341882295906543,0.1196519285440445,1.084101915359497,0.1669416427612304,4.1171875,2,"['A1', 'B2', 'F2']",7.6,180,0.0,0.1063530865112885,[5700|0|0]
57,5700,1.252272367477417,1.0747835636138916,-0.0340121425688266,0.1022354587912559,1.0862312316894531,0.1530907750129699,4.1171875,2,"['A1', 'B2', 'F2']",7.6,180,0.0,0.1068416514160059,[5800|0|0]
58,5800,1.2521312236785889,1.0741561651229858,-0.0344577953219413,0.1196845322847366,1.0834715366363523,0.1637253761291504,4.1171875,2,"['A1', 'B2', 'F2']",7.6,180,0.0,0.1076240559243628,[5900|0|0]
59,5900,1.2521623373031616,1.074412822723389,-0.0339080765843391,0.1171672046184539,1.077846884727478,0.1389207988977432,4.1171875,2,"['A1', 'B2', 'F2']",7.6,180,0.0,0.1082315358597924,[6000|0|0]
60,6000,1.2523006200790403,1.0741981267929075,-0.0338227376341819,0.116781048476696,1.072054743766785,0.1485593169927597,4.1171875,2,"['A1', 'B2', 'F2']",7.6,180,0.0,0.1085007926240227,[6100|0|0]
61,6100,1.252266764640808,1.0744587182998655,-0.0340933129191398,0.1027461737394332,1.073206663131714,0.1387821435928344,4.1171875,2,"['A1', 'B2', 'F2']",7.6,180,0.0,0.1088779730967763,[6200|0|0]
62,6200,1.2522178888320925,1.0742506980895996,-0.0339797437191009,0.1059010401368141,1.077885985374451,0.1652586013078689,4.1171875,2,"['A1', 'B2', 'F2']",7.6,180,0.0,0.1091199632117692,[6300|0|0]
63,6300,1.2519792318344116,1.074416995048523,-0.034088909626007,0.0953583568334579,1.0914605855941772,0.141416847705841,4.1171875,2,"['A1', 'B2', 'F2']",7.6,180,0.0,0.1094306544352045,[6400|0|0]
64,6400,1.2523798942565918,1.0741798877716064,-0.0339297577738761,0.0998772606253624,1.0849567651748655,0.1633744537830352,4.1171875,2,"['A1', 'B2', 'F2']",7.6,180,0.0,0.1099226702371364,[6500|0|0]
65,6500,1.252522110939026,1.0743438005447388,-0.0342215038836002,0.0916520208120346,1.083831787109375,0.1292015165090561,4.1171875,2,"['A1', 'B2', 'F2']",7.6,180,0.0,0.1102862754825573,[6600|0|0]
66,6600,1.2520166635513306,1.074432373046875,-0.0339276529848575,0.0877227038145065,1.0970726013183594,0.1106229946017265,4.1171875,2,"['A1', 'B2', 'F2']",7.6,180,0.0,0.1108776049174365,[6700|0|0]
67,6700,1.252579927444458,1.074360966682434,-0.0340541712939739,0.0885082632303237,1.0789912939071655,0.1114801466464996,4.1171875,2,"['A1', 'B2', 'F2']",7.6,180,0.0,0.1114593024030125,[6800|0|0]
68,6800,1.2520676851272583,1.0740201473236084,-0.0343161188066005,0.1005705520510673,1.0945701599121094,0.1167874336242675,4.1171875,2,"['A1', 'B2', 'F2']",7.6,180,0.0,0.1121280075145914,[6900|0|0]
69,6900,1.2526047229766846,1.0742696523666382,-0.0341823361814022,0.100608043372631,1.075624942779541,0.1188210472464561,4.1171875,2,"['A1', 'B2', 'F2']",7.6,180,0.0,0.1127350991131321,[7000|0|0]
70,7000,1.2522493600845337,1.074498414993286,-0.0341658592224121,0.0921132862567901,1.0792616605758667,0.1237909793853759,4.1171875,2,"['A1', 'B2', 'F2']",7.6,180,0.0,0.1131580490092738,[7100|0|0]
71,7100,1.2524651288986206,1.074235200881958,-0.0341745503246784,0.1053360924124717,1.0637617111206057,0.125703364610672,4.1171875,2,"['A1', 'B2', 'F2']",7.6,180,0.0,0.1134985095573456,[7200|0|0]
72,7200,1.2525019645690918,1.0744218826293943,-0.0335653237998485,0.0989088267087936,1.051859736442566,0.1434487402439117,4.1171875,2,"['A1', 'B2', 'F2']",7.6,180,0.0,0.1141367602134371,[7300|0|0]
73,7300,1.2524336576461792,1.0745362043380735,-0.0340734831988811,0.0939198434352874,1.0607938766479492,0.1479599326848983,4.1171875,2,"['A1', 'B2', 'F2']",7.6,180,0.0,0.1146620803668848,[7400|0|0]
74,7400,1.251990795135498,1.0744494199752808,-0.0339796878397464,0.1016463637351989,1.0742682218551636,0.1264509409666061,4.1171875,2,"['A1', 'B2', 'F2']",7.6,180,0.0,0.1151230101862579,[7500|0|0]
75,7500,1.2522062063217163,1.074697971343994,-0.034155685454607,0.0988852158188819,1.0667272806167605,0.1103990077972412,4.1171875,2,"['A1', 'B2', 'F2']",7.6,180,0.0,0.115496044933264,[7600|0|0]
76,7600,1.2525124549865725,1.0742400884628296,-0.0340008027851581,0.1133037731051445,1.0555037260055542,0.1423694640398025,4.1171875,2,"['A1', 'B2', 'F2']",7.6,180,0.0,0.1160682630899885,[7700|0|0]
77,7700,1.25258207321167,1.0745075941085815,-0.0339462794363498,0.1008548364043235,1.0589936971664429,0.1193446516990661,4.1171875,2,"['A1', 'B2', 'F2']",7.6,180,0.0,0.1163500054604978,[7800|0|0]
78,7800,1.252373456954956,1.0743519067764282,-0.0338193587958812,0.1055861189961433,1.0593756437301636,0.0823820233345031,4.1171875,2,"['A1', 'B2', 'F2']",7.6,180,0.0,0.1166396054206761,[7900|0|0]
79,7900,1.252256155014038,1.0745420455932615,-0.0340491868555545,0.1018182262778282,1.0630924701690674,0.1071975603699684,4.1171875,2,"['A1', 'B2', 'F2']",7.6,180,0.0,0.1169601260159943,[8000|0|0]
80,8000,1.2527483701705933,1.074232578277588,-0.0340514406561851,0.1083525493741035,1.052843689918518,0.117305614054203,4.1171875,2,"['A1', 'B2', 'F2']",7.6,180,0.0,0.1175415474289387,[8100|0|0]
81,8100,1.25203275680542,1.0744541883468628,-0.0341606102883815,0.108814813196659,1.0792012214660645,0.1315324753522873,4.1171875,2,"['A1', 'B2', 'F2']",7.6,180,0.0,0.1182986019314765,[8200|0|0]
82,8200,1.2524462938308716,1.0743305683135986,-0.0338375531136989,0.115218199789524,1.065659999847412,0.1392330974340438,4.1171875,2,"['A1', 'B2', 'F2']",7.6,180,0.0,0.1188377315282874,[8300|0|0]
83,8300,1.252307653427124,1.074490666389465,-0.0338911823928356,0.1126237958669662,1.0617557764053345,0.1454604119062423,4.1171875,2,"['A1', 'B2', 'F2']",7.6,180,0.0,0.1190562004162972,[8400|0|0]
84,8400,1.2524555921554563,1.0741963386535645,-0.0340157002210617,0.1165798753499984,1.0583913326263428,0.157513752579689,4.1171875,2,"['A1', 'B2', 'F2']",7.6,180,0.0,0.119408364260278,[8500|0|0]
85,8500,1.2522534132003784,1.0744776725769043,-0.0340086743235588,0.1091827228665351,1.059218406677246,0.1416470408439636,4.1171875,2,"['A1', 'B2', 'F2']",7.6,180,0.0,0.1197548818926345,[8600|0|0]
86,8600,1.2524060010910034,1.074376940727234,-0.0336946994066238,0.1111209988594055,1.0542142391204834,0.1464444100856781,4.1171875,2,"['A1', 'B2', 'F2']",7.6,180,0.0,0.1201182139974199,[8700|0|0]
87,8700,1.252246975898743,1.0742123126983645,-0.0339153744280338,0.1180977001786232,1.057286024093628,0.1220040619373321,4.1171875,2,"['A1', 'B2', 'F2']",7.6,180,0.0,0.1204361587484968,[8800|0|0]
88,8800,1.2523618936538696,1.0744740962982178,-0.0337321907281875,0.1151877045631408,1.054501175880432,0.1385406106710434,4.1171875,2,"['A1', 'B2', 'F2']",7.6,180,0.0,0.1207757069946785,[8900|0|0]
89,8900,1.2523314952850342,1.0743757486343384,-0.0337299741804599,0.1133094206452369,1.0528130531311035,0.1525754183530807,4.1171875,2,"['A1', 'B2', 'F2']",7.6,180,0.0,0.1208786693028413,[9000|0|0]
90,9000,1.252076506614685,1.074524164199829,-0.0341176316142082,0.1049764677882194,1.0647660493850708,0.1538120657205581,4.1171875,2,"['A1', 'B2', 'F2']",7.6,180,0.0,0.1213658291205876,[9100|0|0]
91,9100,1.2524962425231934,1.0746442079544067,-0.034022819250822,0.1098120957612991,1.0559325218200684,0.1246179789304733,4.1171875,2,"['A1', 'B2', 'F2']",7.6,180,0.0,0.121812570791081,[9200|0|0]
92,9200,1.252023458480835,1.0743048191070557,-0.0342843309044837,0.1260893791913986,1.0711756944656372,0.1450865566730499,4.1171875,2,"['A1', 'B2', 'F2']",7.6,180,0.0,0.1224506130196333,[9300|0|0]
93,9300,1.2521950006484983,1.0742292404174805,-0.0343850292265415,0.1239918619394302,1.0645500421524048,0.1462996751070022,4.1171875,2,"['A1', 'B2', 'F2']",7.6,180,0.0,0.1226634016604717,[9400|0|0]
94,9400,1.252287983894348,1.074655055999756,-0.0337267406284809,0.1124918609857559,1.0586886405944824,0.1414671838283538,4.1171875,2,"['A1', 'B2', 'F2']",7.6,180,0.0,0.1234529006613918,[9500|0|0]
95,9500,1.252198576927185,1.0744338035583496,-0.033986784517765,0.1158835440874099,1.0625665187835691,0.1695787757635116,4.1171875,2,"['A1', 'B2', 'F2']",7.6,180,0.0,0.1238058441029792,[9600|0|0]
96,9600,1.2521883249282837,1.0743290185928345,-0.0339019894599914,0.1146179288625717,1.0626260042190552,0.1729380041360855,4.1171875,2,"['A1', 'B2', 'F2']",7.6,180,0.0,0.1239410298799763,[9700|0|0]
97,9700,1.252289891242981,1.0741134881973269,-0.0340535268187522,0.1151104420423507,1.058011770248413,0.1854604035615921,4.1171875,2,"['A1', 'B2', 'F2']",7.6,180,0.0,0.1242233995645551,[9800|0|0]
98,9800,1.252239465713501,1.0745114088058472,-0.034269843250513,0.0989699810743331,1.0677886009216309,0.186554953455925,4.1171875,2,"['A1', 'B2', 'F2']",7.6,180,0.0,0.1246791147643876,[9900|0|0]
99,9900,1.2521307468414309,1.074314832687378,-0.0342887938022613,0.1082859337329864,1.0697405338287354,0.1616020053625106,4.1171875,2,"['A1', 'B2', 'F2']",7.6,180,0.0,0.1249045500919391,[10000|0|0]
100,10000,1.252239465713501,1.0740171670913696,-0.0338290259242057,0.1115713566541671,1.0616490840911863,0.1732905656099319,4.1171875,2,"['A1', 'B2', 'F2']",7.6,180,0.0,0.1254629505771493,[10100|0|0]
101,10100,1.2524666786193848,1.0743675231933594,-0.0336825586855411,0.1005047783255577,1.061792254447937,0.1662894338369369,4.1171875,2,"['A1', 'B2', 'F2']",7.6,180,0.0,0.1259054748756953,[10200|0|0]
102,10200,1.2525067329406738,1.0743918418884275,-0.0341399572789669,0.1035772114992141,1.066669464111328,0.1259427964687347,4.1171875,2,"['A1', 'B2', 'F2']",7.6,180,0.0,0.1263652674602936,[10300|0|0]
103,10300,1.2524442672729492,1.074463963508606,-0.0336269326508045,0.1006155610084533,1.0788713693618774,0.1278877258300781,4.1171875,2,"['A1', 'B2', 'F2']",7.6,180,0.0,0.1268870890359711,[10400|0|0]
104,10400,1.2522491216659546,1.0740619897842407,-0.0341087505221366,0.1075648143887519,1.08738112449646,0.1140149310231208,4.1171875,2,"['A1', 'B2', 'F2']",7.6,180,0.0,0.1275442139435378,[10500|0|0]
105,10500,1.252112627029419,1.0746243000030518,-0.0341706834733486,0.092373676598072,1.090498447418213,0.1258390098810196,4.1171875,2,"['A1', 'B2', 'F2']",7.6,180,0.0,0.1281261583209727,[10600|0|0]
106,10600,1.2521417140960691,1.074416995048523,-0.0340061783790588,0.0991677343845367,1.0903013944625854,0.1244496032595634,4.1171875,2,"['A1', 'B2', 'F2']",7.6,180,0.0,0.1283923975511132,[10700|0|0]
107,10700,1.2522385120391846,1.0744746923446655,-0.0339739695191383,0.0948143899440765,1.0826951265335083,0.089227057993412,4.1171875,2,"['A1', 'B2', 'F2']",7.6,180,0.0,0.1285095992167621,[10800|0|0]
108,10800,1.2525743246078491,1.074235916137695,-0.0338663235306739,0.1014025136828422,1.0773483514785769,0.0599080994725227,4.1171875,2,"['A1', 'B2', 'F2']",7.6,180,0.0,0.1289354769188324,[10900|0|0]
109,10900,1.2524125576019287,1.074283242225647,-0.0338401533663272,0.0976689606904983,1.0835678577423096,0.0536070130765438,4.1171875,2,"['A1', 'B2', 'F2']",7.6,180,0.0,0.1291060442085077,[11000|0|0]
110,11000,1.2522836923599243,1.0745035409927368,-0.033897828310728,0.0960259810090065,1.084990382194519,0.0601435750722885,4.1171875,2,"['A1', 'B2', 'F2']",7.6,180,0.0,0.1293677008472345,[11100|0|0]
111,11100,1.2520264387130735,1.0748189687728882,-0.0340393148362636,0.0900008529424667,1.10081946849823,0.0668233782052993,4.1171875,2,"['A1', 'B2', 'F2']",7.6,180,0.0,0.1297986214434205,[11200|0|0]
112,11200,1.2525451183319092,1.0746506452560425,-0.034129723906517,0.0954635515809059,1.0887349843978882,0.0592847764492034,4.1171875,2,"['A1', 'B2', 'F2']",7.6,180,0.0,0.1303513737869729,[11300|0|0]
113,11300,1.2522172927856443,1.074616312980652,-0.0338275320827961,0.0950507596135139,1.101294755935669,0.0612960271537303,4.1171875,2,"['A1', 'B2', 'F2']",7.6,180,0.0,0.1307985518189031,[11400|0|0]
114,11400,1.2522326707839966,1.0744959115982056,-0.0337599217891693,0.0940903425216674,1.094319224357605,0.0502676218748092,4.1171875,2,"['A1', 'B2', 'F2']",7.6,180,0.0,0.1309374911133183,[11500|0|0]
115,11500,1.2521995306015017,1.074591875076294,-0.034146886318922,0.0927951037883758,1.0945019721984863,0.0836392119526863,4.1171875,2,"['A1', 'B2', 'F2']",7.6,180,0.0,0.1313375521188029,[11600|0|0]
116,11600,1.2526355981826782,1.0746320486068726,-0.0335949473083019,0.093956135213375,1.0812422037124634,0.0824441313743591,4.1171875,2,"['A1', 'B2', 'F2']",7.6,180,0.0,0.1320421126338453,[11700|0|0]
117,11700,1.2523502111434937,1.0747604370117188,-0.0341028496623039,0.0986583903431892,1.0845460891723633,0.1108588501811027,4.1171875,2,"['A1', 'B2', 'F2']",7.6,180,0.0,0.1326386812768649,[11800|0|0]
118,11800,1.2526123523712158,1.0742639303207395,-0.0338594429194927,0.1098054498434066,1.0774047374725342,0.1032181829214096,4.1171875,2,"['A1', 'B2', 'F2']",7.6,180,0.0,0.1332506320591216,[11900|0|0]
119,11900,1.252239465713501,1.074662208557129,-0.0339403972029686,0.0990374535322189,1.0881679058074951,0.0908019542694091,4.1171875,2,"['A1', 'B2', 'F2']",7.6,180,0.0,0.1338021967507908,[12000|0|0]
120,12000,1.25229811668396,1.074491024017334,-0.0339113809168338,0.10591521859169,1.0873206853866575,0.1082221940159797,4.1171875,2,"['A1', 'B2', 'F2']",7.6,180,0.0,0.1339854616624941,[12100|0|0]
121,12101,1.252328872680664,1.0747833251953125,-0.033914215862751,0.0997635647654533,1.0813387632369995,0.1042742878198623,4.1171875,2,"['A1', 'B2', 'F2']",7.6,180,0.0,0.1342793901349143,[12200|0|0]
122,12200,1.2521361112594604,1.0743154287338257,-0.033801794052124,0.112769030034542,1.0810706615447998,0.1121738031506538,4.1171875,2,"['A1', 'B2', 'F2']",7.6,180,0.0,0.1347977748643199,[12300|0|0]
123,12301,1.2522262334823608,1.0741842985153198,-0.0338412635028362,0.1117202118039131,1.0802081823349,0.1066197305917739,4.1171875,2,"['A1', 'B2', 'F2']",7.6,180,0.0,0.1349617107871844,[12400|0|0]
124,12401,1.2523530721664429,1.0745155811309814,-0.0340215265750885,0.104676179587841,1.0791072845458984,0.1010281071066856,4.1171875,2,"['A1', 'B2', 'F2']",7.6,180,0.0,0.1353596190661094,[12500|0|0]
125,12501,1.2523082494735718,1.074527382850647,-0.0338163934648036,0.1063669621944427,1.0812900066375732,0.1010811477899551,4.1171875,2,"['A1', 'B2', 'F2']",7.6,180,0.0,0.1355699234819413,[12600|0|0]
126,12601,1.2520720958709717,1.074661374092102,-0.0340596362948417,0.1069219410419464,1.08814537525177,0.0748463720083236,4.1171875,2,"['A1', 'B2', 'F2']",7.6,180,0.0,0.1359344632619004,[12700|0|0]
127,12701,1.2521753311157229,1.0743310451507568,-0.0336681306362152,0.1179106533527374,1.0904765129089355,0.0827534273266792,4.1171875,2,"['A1', 'B2', 'F2']",7.6,180,0.0,0.1364570064715832,[12800|0|0]
128,12801,1.2523891925811768,1.074762225151062,-0.0342086255550384,0.1076636165380477,1.0801714658737185,0.0705512091517448,4.1171875,2,"['A1', 'B2', 'F2']",7.6,180,0.0,0.1371807382425751,[12900|0|0]
129,12901,1.2522242069244385,1.074553370475769,-0.0340097732841968,0.1132602840662002,1.0793439149856567,0.0607544146478176,4.1171875,2,"['A1', 'B2', 'F2']",7.6,180,0.0,0.1375129772648768,[13000|0|0]
130,13002,1.2522802352905271,1.0744060277938845,-0.0341609604656696,0.119622990489006,1.0810091495513916,0.0811176598072052,4.1171875,2,"['A1', 'B2', 'F2']",7.6,180,0.0,0.1377313956879854,[13100|0|0]
131,13101,1.2525542974472046,1.0745024681091309,-0.0336818397045135,0.1093968749046325,1.0648354291915894,0.0722052752971649,4.1171875,2,"['A1', 'B2', 'F2']",7.6,180,0.0,0.1382917237203899,[13200|0|0]
132,13202,1.2524391412734983,1.0743577480316162,-0.0342853367328643,0.1115934923291206,1.0676414966583252,0.0683556273579597,4.1171875,2,"['A1', 'B2', 'F2']",7.6,180,0.0,0.1389229237745777,[13300|0|0]
133,13302,1.252469182014465,1.0744578838348389,-0.0340409278869628,0.1093919798731803,1.0729628801345823,0.083833135664463,4.1171875,2,"['A1', 'B2', 'F2']",7.6,180,0.0,0.1391887532484134,[13400|0|0]
134,13402,1.2522881031036377,1.0749047994613647,-0.0339930057525634,0.0917570143938064,1.07780659198761,0.085314966738224,4.1171875,2,"['A1', 'B2', 'F2']",7.6,180,0.0,0.1396733352127341,[13500|0|0]
135,13500,1.252537727355957,1.0744447708129885,-0.0338821932673454,0.1035394594073295,1.064713478088379,0.0889739394187927,4.1171875,2,"['A1', 'B2', 'F2']",7.6,180,0.0,0.1402083287001275,[13600|0|0]
136,13602,1.25239098072052,1.0744630098342896,-0.0339378304779529,0.1048187240958213,1.0678412914276123,0.1093616560101509,4.1171875,2,"['A1', 'B2', 'F2']",7.6,180,0.0,0.1403663247004385,[13700|0|0]
137,13702,1.2527825832366943,1.0747146606445312,-0.0338288024067878,0.0932552814483642,1.0599453449249268,0.1003991961479187,4.1171875,2,"['A1', 'B2', 'F2']",7.6,180,0.0,0.1408444123297194,[13800|0|0]
138,13800,1.2522567510604858,1.074892282485962,-0.0340597927570343,0.0896577537059784,1.0691969394683838,0.1351482421159744,4.1171875,2,"['A1', 'B2', 'F2']",7.6,180,0.0,0.1414455824703587,[13900|0|0]
139,13900,1.2522987127304075,1.0743240118026731,-0.0338894762098789,0.1036262065172195,1.0660476684570312,0.1144303977489471,4.1171875,2,"['A1', 'B2', 'F2']",7.6,180,0.0,0.1420403093635314,[14000|0|0]
140,14002,1.252160668373108,1.0745288133621216,-0.0338826738297939,0.0967025086283683,1.0750470161437988,0.0876467004418373,4.1171875,2,"['A1', 'B2', 'F2']",7.6,180,0.0,0.1422873846470171,[14100|0|0]
141,14100,1.252224326133728,1.074774980545044,-0.0339900664985179,0.0883049592375755,1.071841835975647,0.0882306993007659,4.1171875,2,"['A1', 'B2', 'F2']",7.6,180,0.0,0.1425633987367495,[14200|0|0]
142,14200,1.2525850534439087,1.0744436979293823,-0.0337133333086967,0.0989875197410583,1.0583034753799438,0.1000583469867706,4.1171875,2,"['A1', 'B2', 'F2']",7.6,180,0.0,0.1431259408437054,[14300|0|0]
143,14300,1.2521871328353882,1.07438862323761,-0.0338661149144172,0.1013055369257927,1.0673056840896606,0.1212024465203285,4.1171875,2,"['A1', 'B2', 'F2']",7.6,180,0.0,0.1435557271294402,[14400|0|0]
144,14400,1.2522557973861694,1.0743255615234375,-0.0336853079497814,0.0958000645041465,1.068810224533081,0.1101229041814804,4.1171875,2,"['A1', 'B2', 'F2']",7.6,180,0.0,0.1437591546565578,[14500|0|0]
145,14500,1.252089262008667,1.074656963348389,-0.0338918343186378,0.0880549326539039,1.0749216079711914,0.0759567841887474,4.1171875,2,"['A1', 'B2', 'F2']",7.6,180,0.0,0.1441836712552602,[14600|0|0]
146,14600,1.2522804737091064,1.074583649635315,-0.0342297740280628,0.0897517651319503,1.0700805187225342,0.0797246098518371,4.1171875,2,"['A1', 'B2', 'F2']",7.6,180,0.0,0.1445788168766656,[14700|0|0]
147,14700,1.2522687911987305,1.0747017860412598,-0.0339356884360313,0.0905616730451583,1.0720044374465942,0.0687996000051498,4.1171875,2,"['A1', 'B2', 'F2']",7.6,180,0.0,0.1448959588431392,[14800|0|0]
148,14800,1.2525413036346436,1.0745714902877808,-0.03354112803936,0.1040480509400367,1.0645321607589722,0.0875625684857368,4.1171875,2,"['A1', 'B2', 'F2']",7.6,180,0.0,0.1453928672026215,[14900|0|0]
149,14900,1.2523974180221558,1.074397087097168,-0.0338262543082237,0.1108826845884323,1.0656449794769287,0.101772055029869,4.1171875,2,"['A1', 'B2', 'F2']",7.6,180,0.0,0.1457567580263214,[15000|0|0]
150,15000,1.252244234085083,1.0743796825408936,-0.033659778535366,0.1093709468841552,1.074468016624451,0.0939160510897636,4.1171875,2,"['A1', 'B2', 'F2']",7.6,180,0.0,0.1459836554042366,[15100|0|0]
151,15100,1.2525334358215332,1.074191927909851,-0.0339189879596233,0.1146569103002548,1.065415382385254,0.1157020404934883,4.1171875,2,"['A1', 'B2', 'F2']",7.6,180,0.0,0.1464150241229304,[15200|0|0]
152,15200,1.2524408102035522,1.0744246244430542,-0.0337041802704334,0.1029041036963462,1.0619863271713257,0.1012830212712287,4.1171875,2,"['A1', 'B2', 'F2']",7.6,180,0.0,0.1467449779454665,[15300|0|0]
153,15300,1.2526010274887085,1.0744035243988037,-0.033887829631567,0.1024653241038322,1.058180809020996,0.1077630296349525,4.1171875,2,"['A1', 'B2', 'F2']",7.6,180,0.0,0.1469896039419897,[15400|0|0]
154,15400,1.2524044513702393,1.0743299722671509,-0.0337966457009315,0.1074427887797355,1.06731116771698,0.1301175653934478,4.1171875,2,"['A1', 'B2', 'F2']",7.6,180,0.0,0.1472184414293672,[15500|0|0]
155,15500,1.2521131038665771,1.0744234323501587,-0.0338441357016563,0.1058336943387985,1.0891644954681396,0.1380354911088943,4.1171875,2,"['A1', 'B2', 'F2']",7.6,180,0.0,0.1475280758188895,[15600|0|0]
156,15600,1.252358317375183,1.0744011402130127,-0.0338363237679004,0.1043751314282417,1.0856667757034302,0.1140795350074768,4.1171875,2,"['A1', 'B2', 'F2']",7.6,180,0.0,0.1477744244143602,[15700|0|0]
157,15700,1.252441644668579,1.074506402015686,-0.0340259298682212,0.0966652631759643,1.0880093574523926,0.0897182151675224,4.1171875,2,"['A1', 'B2', 'F2']",7.6,180,0.0,0.1480067473753554,[15800|0|0]
158,15800,1.2524621486663818,1.074409008026123,-0.0339110270142555,0.0992383435368537,1.0836715698242188,0.0775050371885299,4.1171875,2,"['A1', 'B2', 'F2']",7.6,180,0.0,0.148158762733061,[15900|0|0]
159,15900,1.2523672580718994,1.0747225284576416,-0.0336647033691406,0.0916056111454963,1.0734107494354248,0.1341495662927627,4.1171875,2,"['A1', 'B2', 'F2']",7.6,180,0.0,0.1485686098070331,[16000|0|0]
160,16000,1.252682328224182,1.074543595314026,-0.033910222351551,0.0910477712750434,1.0549876689910889,0.13556569814682,4.1171875,2,"['A1', 'B2', 'F2']",7.6,180,0.0,0.1490062921592791,[16100|0|0]
161,16100,1.2522605657577517,1.074326515197754,-0.0337495505809783,0.0944199711084365,1.0707130432128906,0.1115608885884285,4.1171875,2,"['A1', 'B2', 'F2']",7.6,180,0.0,0.1495071142562649,[16200|0|0]
162,16200,1.252495050430298,1.0745060443878174,-0.0338541939854621,0.0922916680574417,1.0638219118118286,0.09062310308218,4.1171875,2,"['A1', 'B2', 'F2']",7.6,180,0.0,0.1498204256570246,[16300|0|0]
163,16300,1.2523415088653564,1.0741060972213743,-0.0340243466198444,0.1044911965727806,1.063271164894104,0.0820810496807098,4.1171875,2,"['A1', 'B2', 'F2']",7.6,180,0.0,0.1502813862487215,[16400|0|0]
164,16400,1.2521730661392212,1.074786901473999,-0.0339284762740135,0.0903623551130294,1.0711967945098877,0.0742288157343864,4.1171875,2,"['A1', 'B2', 'F2']",7.6,180,0.0,0.1509892411106736,[16500|0|0]
165,16500,1.2523212432861328,1.074436902999878,-0.034040194004774,0.0954122096300125,1.070314645767212,0.088382214307785,4.1171875,2,"['A1', 'B2', 'F2']",7.6,180,0.0,0.1513853929125378,[16600|0|0]
166,16600,1.252574443817139,1.0746402740478516,-0.0339560061693191,0.0844038948416709,1.065648078918457,0.100181445479393,4.1171875,2,"['A1', 'B2', 'F2']",7.6,180,0.0,0.1517208893859829,[16700|0|0]
167,16700,1.25234854221344,1.0740272998809814,-0.0336964651942253,0.1000089049339294,1.0767865180969238,0.1101230010390281,4.1171875,2,"['A1', 'B2', 'F2']",7.6,180,0.0,0.1524238334673695,[16800|0|0]
168,16800,1.2522258758544922,1.0745198726654053,-0.0342021211981773,0.0880466103553772,1.0789140462875366,0.12151400744915,4.1171875,2,"['A1', 'B2', 'F2']",7.6,180,0.0,0.1531403269969322,[16900|0|0]
169,16900,1.252063512802124,1.0745468139648438,-0.0340067371726036,0.0875375568866729,1.08012056350708,0.1402763426303863,4.1171875,2,"['A1', 'B2', 'F2']",7.6,180,0.0,0.1533957922819303,[17000|0|0]
170,17000,1.2521861791610718,1.0746684074401855,-0.0338691361248493,0.0878345668315887,1.0762377977371216,0.1334661990404129,4.1171875,2,"['A1', 'B2', 'F2']",7.6,180,0.0,0.1536166226630065,[17100|0|0]
171,17100,1.252299427986145,1.0744224786758425,-0.0340006612241268,0.0919002667069435,1.0797723531723022,0.1175648495554924,4.1171875,2,"['A1', 'B2', 'F2']",7.6,180,0.0,0.1539176294822845,[17200|0|0]
172,17200,1.2522084712982178,1.0743263959884644,-0.0335687361657619,0.0900260359048843,1.0916588306427002,0.1332813948392868,4.1171875,2,"['A1', 'B2', 'F2']",7.6,180,0.0,0.1543693642030398,[17300|0|0]
173,17300,1.2524477243423462,1.0742175579071045,-0.0338298678398132,0.086538441479206,1.084025502204895,0.1458697468042373,4.1171875,2,"['A1', 'B2', 'F2']",7.6,180,0.0,0.1547398739846538,[17400|0|0]
174,17400,1.2522265911102295,1.0745089054107666,-0.0337321311235427,0.079300932586193,1.0886025428771973,0.1434274315834045,4.1171875,2,"['A1', 'B2', 'F2']",7.6,180,0.0,0.1551184710527141,[17500|0|0]
175,17500,1.2524820566177368,1.0744649171829224,-0.0336743928492069,0.0751708596944809,1.079765796661377,0.124866098165512,4.1171875,2,"['A1', 'B2', 'F2']",7.6,180,0.0,0.1553840483447369,[17600|0|0]
176,17600,1.2524502277374268,1.0745757818222046,-0.0339517518877983,0.0739315748214721,1.0804599523544312,0.1122214421629905,4.1171875,2,"['A1', 'B2', 'F2']",7.6,180,0.0,0.155684434899285,[17700|0|0]
177,17700,1.252070665359497,1.0743659734725952,-0.0336384885013103,0.0793552473187446,1.0846266746520996,0.1329943686723709,4.1171875,2,"['A1', 'B2', 'F2']",7.6,180,0.0,0.1562194312465804,[17800|0|0]
178,17800,1.2521328926086426,1.0747742652893066,-0.0339327417314052,0.0692733079195022,1.084926962852478,0.1263308823108673,4.1171875,2,"['A1', 'B2', 'F2']",7.6,180,0.0,0.1567265401121615,[17900|0|0]
179,17900,1.2525180578231812,1.074323296546936,-0.0337635464966297,0.093323677778244,1.0763115882873535,0.1354220956563949,4.1171875,2,"['A1', 'B2', 'F2']",7.6,180,0.0,0.157343267018139,[18000|0|0]
180,18000,1.2523759603500366,1.074460506439209,-0.0338522382080554,0.0882332026958465,1.0740303993225098,0.12266805768013,4.1171875,2,"['A1', 'B2', 'F2']",7.6,180,0.0,0.1575597952289737,[18100|0|0]
181,18100,1.252066969871521,1.0747625827789309,-0.0340984612703323,0.0901242047548294,1.072885274887085,0.1241842284798622,4.1171875,2,"['A1', 'B2', 'F2']",7.6,180,0.0,0.1580571392017229,[18200|0|0]
182,18200,1.2522157430648804,1.074441909790039,-0.0338383503258228,0.1004509404301643,1.0713298320770264,0.0988494306802749,4.1171875,2,"['A1', 'B2', 'F2']",7.6,180,0.0,0.1584960268095687,[18300|0|0]
183,18300,1.2521488666534424,1.0746139287948608,-0.0340044163167476,0.0919060930609703,1.0722004175186155,0.0364943891763687,4.1171875,2,"['A1', 'B2', 'F2']",7.6,180,0.0,0.1587443026758316,[18400|0|0]
184,18400,1.251789927482605,1.0743271112442017,-0.0340176448225975,0.1046896576881408,1.092993974685669,-0.016192952170968,4.1171875,2,"['A1', 'B2', 'F2']",7.6,180,0.0,0.1592039510513259,[18500|0|0]
185,18500,1.252064824104309,1.074436068534851,-0.0340366177260875,0.1023436486721038,1.090101718902588,0.0891227647662162,4.1171875,2,"['A1', 'B2', 'F2']",7.6,180,0.0,0.1595002613867461,[18600|0|0]
186,18600,1.2507531642913818,1.0751941204071045,-0.0326698832213878,0.0794781297445297,1.1196905374526978,0.1751834452152252,4.11328125,2,"['A1', 'B2', 'F2']",7.6,180,0.0,0.1615406185398475,[18700|0|0]
187,18700,1.2506861686706543,1.074516773223877,-0.0327741988003253,0.0988261923193931,1.1081193685531616,0.2779998779296875,4.1171875,2,"['A1', 'B2', 'F2']",7.6,180,0.0,0.1622292181040588,[18800|0|0]
188,18800,1.250461220741272,1.074717402458191,-0.0330412425100803,0.0824956074357032,1.100730538368225,0.3740534782409668,4.1171875,2,"['A1', 'B2', 'F2']",7.6,180,0.0,0.1626319165067307,[18900|0|0]
189,18900,1.250444412231445,1.0748414993286133,-0.0326794199645519,0.0809702202677726,1.0875403881072998,0.4405708909034729,4.1171875,2,"['A1', 'B2', 'F2']",7.6,180,0.0,0.1630147978378293,[19000|0|0]
190,19000,1.2501400709152222,1.0749890804290771,-0.0329916588962078,0.0803150907158851,1.0845379829406738,0.4673693776130676,4.1171875,2,"['A1', 'B2', 'F2']",7.6,180,0.0,0.1634751205164105,[19100|0|0]
191,19100,1.2501099109649658,1.0745820999145508,-0.032643623650074,0.1024259030818939,1.0734877586364746,0.708078920841217,4.1171875,2,"['A1', 'B2', 'F2']",7.6,180,0.0,0.1640114704901731,[19200|0|0]
192,19200,1.2494916915893557,1.0747730731964111,-0.0327356122434139,0.0956694260239601,1.0792901515960691,0.759074330329895,4.1171875,2,"['A1', 'B2', 'F2']",7.6,180,0.0,0.1646650207117087,[19300|0|0]
193,19300,1.2526578903198242,1.0743300914764404,-0.0338603891432285,0.0923165678977966,1.0260318517684937,1.5215030908584597,4.1171875,2,"['A1', 'B2', 'F2']",7.6,180,0.0,0.1680541460088033,[19400|0|0]
194,19400,1.2525365352630615,1.0744571685791016,-0.0339683033525943,0.0737598836421966,1.0450897216796875,1.7378110885620115,4.1171875,2,"['A1', 'B2', 'F2']",7.6,180,0.0,0.1682603524985306,[19500|0|0]
195,19500,1.2521467208862305,1.0737892389297483,-0.0340787544846534,0.0821679234504699,1.0595241785049438,1.3249880075454712,4.1171875,2,"['A1', 'B2', 'F2']",7.6,180,0.0,0.1690415597165222,[19600|0|0]
196,19600,1.2523385286331177,1.0743387937545776,-0.0338067598640918,0.063638798892498,1.0501476526260376,1.0372521877288818,4.11328125,2,"['A1', 'B2', 'F2']",7.6,180,0.0,0.1696840406819005,[19700|0|0]
197,19700,1.252232551574707,1.0747653245925903,-0.0339785553514957,0.0471866503357887,1.0522096157073977,0.8162945508956909,4.1171875,2,"['A1', 'B2', 'F2']",7.6,180,0.0,0.1701559234874544,[19800|0|0]
198,19800,1.2523094415664673,1.0743297338485718,-0.0336625874042511,0.0592169761657714,1.042863368988037,0.6644431948661804,4.1171875,2,"['A1', 'B2', 'F2']",7.6,180,0.0,0.1706995107488886,[19900|0|0]
199,19900,1.252077579498291,1.0745062828063965,-0.0338208302855491,0.0614413917064666,1.051551342010498,0.5022101402282715,4.1171875,2,"['A1', 'B2', 'F2']",7.6,180,0.0,0.1710311285449272,[20000|0|0]
200,20000,1.25236177444458,1.0746136903762815,-0.033968199044466,0.0685394704341888,1.0446856021881104,0.3796962201595306,4.1171875,2,"['A1', 'B2', 'F2']",7.6,180,0.0,0.1713687980648273,[20100|0|0]
201,20100,1.2525568008422852,1.0745518207550049,-0.0341013483703136,0.0799918547272682,1.0462117195129397,0.2926176190376282,4.11328125,2,"['A1', 'B2', 'F2']",7.6,180,0.0,0.1716129125642174,[20200|0|0]
202,20200,1.2524065971374512,1.0748164653778076,-0.0339508615434169,0.0782775208353996,1.0570284128189087,0.2521221041679382,4.1171875,2,"['A1', 'B2', 'F2']",7.6,180,0.0,0.1719523889468917,[20300|0|0]
203,20300,1.252309799194336,1.0746992826461792,-0.0337806344032287,0.0951091349124908,1.0593130588531494,0.244770348072052,4.1171875,2,"['A1', 'B2', 'F2']",7.6,180,0.0,0.1721805969959169,[20400|0|0]
204,20400,1.252236008644104,1.074407935142517,-0.0340698361396789,0.1057830825448036,1.0564773082733154,0.2266531437635421,4.1171875,2,"['A1', 'B2', 'F2']",7.6,180,0.0,0.1725976893808384,[20500|0|0]
205,20500,1.2523192167282104,1.074464201927185,-0.0339078195393085,0.10684584826231,1.0477890968322754,0.1942863762378692,4.1171875,2,"['A1', 'B2', 'F2']",7.6,180,0.0,0.1727883170680014,[20600|0|0]
206,20600,1.2523722648620603,1.074458360671997,-0.0337631329894065,0.0994872525334358,1.0592210292816162,0.1492113620042801,4.1171875,2,"['A1', 'B2', 'F2']",7.6,180,0.0,0.1729425325746461,[20700|0|0]
207,20700,1.2521731853485107,1.0744208097457886,-0.0338590554893016,0.1011062338948249,1.0682507753372192,0.1649830192327499,4.1171875,2,"['A1', 'B2', 'F2']",7.6,180,0.0,0.1731666839760704,[20800|0|0]
208,20800,1.2521823644638062,1.0744584798812866,-0.0341724306344985,0.0993828773498535,1.068471908569336,0.1352716982364654,4.1171875,2,"['A1', 'B2', 'F2']",7.6,180,0.0,0.1734824485670132,[20900|0|0]
209,20900,1.2524253129959106,1.074427843093872,-0.0340462923049926,0.0994324833154678,1.0647293329238892,0.1424939036369323,4.1171875,2,"['A1', 'B2', 'F2']",7.6,180,0.0,0.1737578999786366,[21000|0|0]
210,21000,1.2522714138031006,1.0742255449295044,-0.0338763557374477,0.1103210151195526,1.07245934009552,0.1030230671167373,4.1171875,2,"['A1', 'B2', 'F2']",7.6,180,0.0,0.1740636579643755,[21100|0|0]
211,21100,1.2522683143615725,1.0745089054107666,-0.0342203788459301,0.0968851372599601,1.070146560668945,0.0846093967556953,4.11328125,2,"['A1', 'B2', 'F2']",7.6,180,0.0,0.1745093648950472,[21200|0|0]
212,21200,1.252410888671875,1.0745444297790527,-0.0341913253068923,0.0915593802928924,1.066279053688049,0.0970007106661796,4.1171875,2,"['A1', 'B2', 'F2']",7.6,180,0.0,0.1746591431405672,[21300|0|0]
213,21300,1.2524302005767822,1.074916958808899,-0.033954482525587,0.0817754194140434,1.0679361820220947,0.1391591131687164,4.1171875,2,"['A1', 'B2', 'F2']",7.6,180,0.0,0.1751010088790056,[21400|0|0]
214,21400,1.2522704601287842,1.0741941928863523,-0.0337134078145027,0.1023809090256691,1.0730522871017456,0.1161032021045684,4.1171875,2,"['A1', 'B2', 'F2']",7.6,180,0.0,0.1758794847012668,[21500|0|0]
215,21500,1.2524471282958984,1.0747427940368652,-0.0338216461241245,0.0830583944916725,1.0587221384048462,0.0917890444397926,4.1171875,2,"['A1', 'B2', 'F2']",7.6,180,0.0,0.1764659063885237,[21600|0|0]
216,21600,1.2523890733718872,1.0742594003677368,-0.0340760052204132,0.0948204919695854,1.0740859508514404,0.1063595041632652,4.11328125,2,"['A1', 'B2', 'F2']",7.6,180,0.0,0.177015213555253,[21700|0|0]
217,21700,1.252257227897644,1.0743184089660645,-0.0338168069720268,0.0857804045081138,1.0825212001800537,0.1285435408353805,4.1171875,2,"['A1', 'B2', 'F2']",7.6,180,0.0,0.1773119440318164,[21800|0|0]
218,21800,1.2521450519561768,1.0747272968292236,-0.0339403711259365,0.0839607194066047,1.0806716680526731,0.1350607573986053,4.1171875,2,"['A1', 'B2', 'F2']",7.6,180,0.0,0.1777535782997513,[21900|0|0]
219,21900,1.252402663230896,1.0747133493423462,-0.0341227352619171,0.0870889723300933,1.0703388452529907,0.1462331712245941,4.1171875,2,"['A1', 'B2', 'F2']",7.6,180,0.0,0.1780695130704629,[22000|0|0]
220,22000,1.2524460554122925,1.0743157863616943,-0.0340117365121841,0.0994520112872123,1.0768040418624878,0.1272798478603363,4.1171875,2,"['A1', 'B2', 'F2']",7.6,180,0.0,0.1784845551495747,[22100|0|0]
221,22100,1.252500057220459,1.0747002363204956,-0.0337300524115562,0.0871563404798507,1.0812737941741943,0.1101918220520019,4.11328125,2,"['A1', 'B2', 'F2']",7.6,180,0.0,0.1789642049162317,[22200|0|0]
222,22200,1.2521469593048096,1.0744972229003906,-0.034203615039587,0.093307539820671,1.093321681022644,0.1224380731582641,4.1171875,2,"['A1', 'B2', 'F2']",7.6,180,0.0,0.1795888281222096,[22300|0|0]
223,22300,1.252318263053894,1.0742124319076538,-0.0338660329580307,0.0940929874777793,1.0918365716934204,0.1426367759704589,4.1171875,2,"['A1', 'B2', 'F2']",7.6,180,0.0,0.1800625501354012,[22400|0|0]
224,22400,1.2522934675216677,1.074519157409668,-0.034171175211668,0.0848571583628654,1.0933597087860107,0.1422104835510254,4.1171875,2,"['A1', 'B2', 'F2']",7.6,180,0.0,0.1804959173549265,[22500|0|0]
225,22500,1.2523642778396606,1.0741965770721436,-0.0337106622755527,0.0956889763474464,1.088475227355957,0.1585046499967575,4.1171875,2,"['A1', 'B2', 'F2']",7.6,180,0.0,0.1810626133401083,[22600|0|0]
226,22600,1.2521847486495972,1.0743464231491089,-0.0336469858884811,0.0899718329310417,1.097310185432434,0.1602687537670135,4.11328125,2,"['A1', 'B2', 'F2']",7.6,180,0.0,0.1813049751752583,[22700|0|0]
227,22700,1.2521286010742188,1.0745769739151,-0.0339808873832225,0.0856599062681198,1.0930346250534058,0.1541802436113357,4.1171875,2,"['A1', 'B2', 'F2']",7.6,180,0.0,0.1817146047812569,[22800|0|0]
228,22800,1.2520517110824585,1.0743656158447266,-0.034144788980484,0.0913937613368034,1.094929575920105,0.1455458849668502,4.1171875,2,"['A1', 'B2', 'F2']",7.6,180,0.0,0.1819928996578352,[22900|0|0]
229,22900,1.252094864845276,1.074305295944214,-0.0340175740420818,0.0905997455120086,1.0934494733810425,0.1353583335876464,4.1171875,2,"['A1', 'B2', 'F2']",7.6,180,0.0,0.182140155823057,[23000|0|0]
230,23000,1.252485990524292,1.074614405632019,-0.0338498800992965,0.0828571617603302,1.0832983255386353,0.1353871822357177,4.1171875,2,"['A1', 'B2', 'F2']",7.6,180,0.0,0.1826661304938613,[23100|0|0]
231,23100,1.252272605895996,1.0742950439453125,-0.0344297625124454,0.0963542014360427,1.093054175376892,0.1193599626421928,4.11328125,2,"['A1', 'B2', 'F2']",7.6,180,0.0,0.1833616795572698,[23200|0|0]
232,23200,1.2520434856414795,1.0745906829833984,-0.0340745113790035,0.0842490121722221,1.0950021743774414,0.1596517264842987,4.1171875,2,"['A1', 'B2', 'F2']",7.6,180,0.0,0.1838775302136442,[23300|0|0]
233,23300,1.252430081367493,1.0743110179901123,-0.0338905043900013,0.087304413318634,1.0760749578475952,0.1475653797388076,4.1171875,2,"['A1', 'B2', 'F2']",7.6,180,0.0,0.1843889276479779,[23400|0|0]
234,23400,1.2525548934936523,1.074567437171936,-0.0339055992662906,0.0733736380934715,1.0711305141448977,0.1187361627817154,4.1171875,2,"['A1', 'B2', 'F2']",7.6,180,0.0,0.1846745090180527,[23500|0|0]
235,23500,1.2523741722106934,1.074491024017334,-0.0336787663400173,0.0748965516686439,1.0759057998657229,0.1257036924362182,4.1171875,2,"['A1', 'B2', 'F2']",7.6,180,0.0,0.1849744295554494,[23600|0|0]
236,23600,1.2521754503250122,1.074607014656067,-0.0337353497743606,0.0765714645385742,1.0815311670303345,0.1415351182222366,4.11328125,2,"['A1', 'B2', 'F2']",7.6,180,0.0,0.1852113808187177,[23700|0|0]
237,23700,1.252339243888855,1.0748406648635864,-0.0340941995382308,0.0723636597394943,1.073136806488037,0.1120584905147552,4.1171875,2,"['A1', 'B2', 'F2']",7.6,180,0.0,0.1856698499060725,[23800|0|0]
238,23800,1.2524839639663696,1.07429301738739,-0.0338916517794132,0.0888348594307899,1.0673866271972656,0.1130023002624511,4.1171875,2,"['A1', 'B2', 'F2']",7.6,180,0.0,0.1862714205616252,[23900|0|0]
239,23900,1.2523895502090454,1.0742243528366089,-0.0339257419109344,0.0928675308823585,1.068497657775879,0.1146034598350524,4.1171875,2,"['A1', 'B2', 'F2']",7.6,180,0.0,0.1863930384680913,[24000|0|0]
240,24000,1.2522374391555786,1.074607014656067,-0.0339121781289577,0.0886278823018074,1.0727589130401611,0.1087087243795394,4.1171875,2,"['A1', 'B2', 'F2']",7.6,180,0.0,0.1868050479544374,[24100|0|0]
241,24100,1.251990556716919,1.0745620727539062,-0.0339978858828544,0.09098981320858,1.0744099617004397,0.1022752970457077,4.11328125,2,"['A1', 'B2', 'F2']",7.6,180,0.0,0.1870702206003992,[24200|0|0]
242,24200,1.252125263214111,1.0742336511611938,-0.0338856540620327,0.0934365391731262,1.0709513425827026,0.1405473351478576,4.1171875,2,"['A1', 'B2', 'F2']",7.6,180,0.0,0.1874425142540526,[24300|0|0]
243,24300,1.252402663230896,1.0744487047195437,-0.0335761196911335,0.0850839093327522,1.0617283582687378,0.1343667060136795,4.1171875,2,"['A1', 'B2', 'F2']",7.6,180,0.0,0.187910499648097,[24400|0|0]
244,24400,1.2523270845413208,1.0742868185043335,-0.0340831913053989,0.0933604538440704,1.060590386390686,0.1553677916526794,4.1171875,2,"['A1', 'B2', 'F2']",7.6,180,0.0,0.1884481248958176,[24500|0|0]
245,24500,1.2521510124206543,1.074628233909607,-0.03403877094388,0.0865802094340324,1.0638200044631958,0.1624191850423813,4.1171875,2,"['A1', 'B2', 'F2']",7.6,180,0.0,0.1888348276746433,[24600|0|0]
246,24600,1.2522176504135132,1.0743814706802368,-0.0340658389031887,0.0915709286928176,1.0716429948806765,0.1469113677740097,4.11328125,2,"['A1', 'B2', 'F2']",7.6,180,0.0,0.1890918595557059,[24700|0|0]
247,24700,1.252232313156128,1.0744585990905762,-0.033812366425991,0.0871948525309562,1.0763540267944336,0.1161709874868393,4.1171875,2,"['A1', 'B2', 'F2']",7.6,180,0.0,0.1893572123103536,[24800|0|0]
248,24800,1.2521847486495972,1.0745781660079956,-0.0341086946427822,0.0814247280359268,1.0802574157714844,0.1140642315149307,4.1171875,2,"['A1', 'B2', 'F2']",7.6,180,0.0,0.1896802742890657,[24900|0|0]
249,24900,1.2521626949310305,1.074615240097046,-0.0342455692589283,0.0869498550891876,1.0805498361587524,0.1189183071255683,4.1171875,2,"['A1', 'B2', 'F2']",7.6,180,0.0,0.1898237856653627,[25000|0|0]
250,25000,1.2523459196090698,1.0748310089111328,-0.0339776091277599,0.0794470608234405,1.074063062667847,0.1014186218380928,4.1171875,2,"['A1', 'B2', 'F2']",7.6,180,0.0,0.1902135677784348,[25100|0|0]
251,25100,1.2524303197860718,1.0745549201965332,-0.0338719114661216,0.0924176201224327,1.068795919418335,0.0989848747849464,4.11328125,2,"['A1', 'B2', 'F2']",7.6,180,0.0,0.1905210094214876,[25200|0|0]
252,25200,1.2524380683898926,1.0742201805114746,-0.0338116586208343,0.0972576588392257,1.072121024131775,0.0894142687320709,4.1171875,2,"['A1', 'B2', 'F2']",7.6,180,0.0,0.1908612168625872,[25300|0|0]
253,25300,1.2521871328353882,1.0743560791015625,-0.0338067077100276,0.0943730250000953,1.0813249349594116,0.0943495333194732,4.1171875,2,"['A1', 'B2', 'F2']",7.6,180,0.0,0.1911466316323874,[25400|0|0]
254,25400,1.2522755861282349,1.0747708082199097,-0.0342159196734428,0.0831920057535171,1.0748480558395386,0.1023044064640998,4.1171875,2,"['A1', 'B2', 'F2']",7.6,180,0.0,0.1917359351684557,[25500|0|0]
255,25500,1.2523696422576904,1.074454426765442,-0.0338708534836769,0.0983780175447464,1.0749387741088867,0.122986689209938,4.1171875,2,"['A/E1', 'B2', 'C1']",7.6,180,0.0,0.1922134437605657,[25500|0|0]
256,25600,1.2518492937088013,1.0745035409927368,-0.0335182920098304,0.1466443687677383,1.1073929071426392,0.2997277379035949,3.18359375,2,"['A/E1', 'B2', 'C1']",7.6,180,0.0,0.1928438994786733,[25500|0|0]
257,25700,1.2488077878952026,1.08030366897583,-0.022281551733613,-4.604447364807129,4.340561389923096,1.6900880336761477,3.546875,2,"['A/E1', 'B2', 'C1']",7.6,180,0.0,0.2058499201717825,[25500|0|0]
258,25800,1.237918496131897,1.1018638610839844,0.0152210965752601,-8.089424133300781,6.296060085296631,4.68175745010376,3.546875,2,"['A/E1', 'B2', 'C1']",7.6,180,0.0,0.2504578475953464,[25500|0|0]
259,25900,1.2228448390960691,1.1343692541122437,0.062189694494009,1.0001287460327148,-0.513500988483429,5.930339813232422,3.541015625,2,"['A/E1', 'B2', 'C1']",7.6,180,0.0,0.3095329261209689,[25500|0|0]
260,26000,1.2050549983978271,1.1734414100646973,0.1237897649407386,2.343761444091797,-1.2919511795043943,7.0489182472229,3.59375,2,"['A/E1', 'B2', 'C1']",7.6,180,0.0,0.3846174150776352,[25500|0|0]
261,26100,1.1915743350982666,1.2122925519943235,0.1899195313453674,8.247373580932617,-1.9886329174041748,6.460360050201416,3.525390625,2,"['A/E1', 'B2', 'C1']",7.6,180,0.0,0.4624909376444413,[25500|0|0]
262,26200,1.1828359365463257,1.2425634860992432,0.2632198333740234,7.106443881988525,-2.576042652130127,5.288924217224121,3.578125,2,"['A/E1', 'B2', 'C1']",7.6,180,0.0,0.542275794217159,[25500|0|0]
263,26300,1.1797807216644287,1.2665784358978271,0.338768869638443,7.518655776977539,-1.1751505136489868,6.158815860748291,3.53125,2,"['A/E1', 'B2', 'C1']",7.6,180,0.0,0.6216086942794008,[25500|0|0]
264,26400,1.1808170080184937,1.2786824703216553,0.4208168089389801,11.690519332885742,-2.292198896408081,5.814324378967285,3.525390625,2,"['A/E1', 'B2', 'C1']",7.6,180,0.0,0.7045511193838397,[25500|0|0]
265,26500,1.1875052452087402,1.275338649749756,0.5069849491119385,8.846919059753418,-0.998926877975464,4.867478847503662,3.59375,2,"['A/E1', 'B2', 'C1']",7.6,180,0.0,0.7910430960845526,[25500|0|0]
266,26600,1.1965819597244265,1.259068489074707,0.5958216786384583,5.943426609039307,0.6586354374885559,5.398432731628418,3.63671875,2,"['A/E1', 'B2', 'C1']",7.6,180,0.0,0.8818124157237303,[25500|0|0]
267,26700,1.205854415893555,1.2349382638931274,0.682070255279541,2.319526195526123,2.0180935859680176,6.252324104309082,3.658203125,2,"['A/E1', 'B2', 'C1']",7.6,180,0.0,0.9718516470805942,[25500|0|0]
268,26800,1.2123197317123413,1.209416747093201,0.7547723650932312,0.0991056561470031,2.107918262481689,6.436324119567871,3.65234375,2,"['A/E1', 'B2', 'C1']",7.6,180,0.0,1.0491739911977216,[25500|0|0]
269,26900,1.2154289484024048,1.1821414232254028,0.811165452003479,-1.135583758354187,2.043651819229126,5.573281288146973,3.658203125,2,"['A/E1', 'B2', 'C1']",7.6,180,0.0,1.1118939303860356,[25500|0|0]
270,27000,1.2143172025680542,1.1574052572250366,0.8532417416572571,-2.3771562576293945,1.0329896211624146,4.386263370513916,3.642578125,2,"['A/E1', 'B2', 'C1']",7.6,180,0.0,1.1607153195328686,[25500|0|0]
271,27100,1.2123384475708008,1.1351944208145142,0.8778920769691467,-2.9408273696899414,0.5169596672058105,3.454231023788452,3.626953125,2,"['A/E1', 'B2', 'C1']",7.6,180,0.0,1.1939549909569778,[25500|0|0]
272,27200,1.2081928253173828,1.1119771003723145,0.8992356061935425,-3.747436046600342,0.2299687266349792,2.5033955574035645,3.62109375,2,"['A/E1', 'B2', 'C1']",7.6,180,0.0,1.2257634236775072,[25500|0|0]
273,27300,1.2039977312088013,1.0936342477798462,0.9088336825370787,-3.706695318222046,-0.0503873340785503,2.005079507827759,3.62109375,2,"['A/E1', 'B2', 'C1']",7.6,180,0.0,1.2468864472609156,[25500|0|0]
274,27400,1.200284481048584,1.0820070505142212,0.923437476158142,-3.4632275104522705,-0.0485642403364181,1.4588406085968018,3.62109375,2,"['A/E1', 'B2', 'C1']",7.6,180,0.0,1.2659193327786902,[25500|0|0]
275,27500,1.1964844465255735,1.0678602457046509,0.9302826523780824,-3.0939137935638428,-0.2836228013038635,0.3187130987644195,3.642578125,2,"['A/E1', 'B2', 'C1']",7.6,180,0.0,1.2820880923531963,[25500|0|0]
276,27600,1.1948020458221436,1.061939001083374,0.9394241571426392,-2.974379777908325,-0.4893648326396942,-0.7456830739974976,3.626953125,2,"['A/E1', 'B2', 'C1']",7.6,180,0.0,1.2931089235084368,[25500|0|0]
277,27700,1.193543791770935,1.055286526679993,0.9438620209693908,-2.7155184745788574,-0.3884819447994232,-1.2787326574325562,3.62109375,2,"['A/E1', 'B2', 'C1']",7.6,180,0.0,1.301204184732747,[25500|0|0]
278,27800,1.192855954170227,1.0481621026992798,0.9451574683189392,-2.6738951206207275,-0.2443830072879791,-1.5417300462722778,3.62109375,2,"['A/E1', 'B2', 'C1']",7.6,180,0.0,1.3084780228844628,[25500|0|0]
279,27900,1.1942576169967651,1.0455809831619265,0.9470220804214478,-3.121135234832764,0.295505166053772,-1.5210996866226196,3.615234375,2,"['A/E1', 'B2', 'C1']",7.6,180,0.0,1.311957047897053,[25500|0|0]
280,28000,1.1959543228149414,1.045376181602478,0.9475509524345398,-2.3711538314819336,0.2224495112895965,-1.4543899297714231,3.615234375,2,"['A/E1', 'B2', 'C1']",7.6,180,0.0,1.31374603082554,[25500|0|0]
281,28100,1.197898030281067,1.0474731922149658,0.9453765749931335,-2.702695369720459,0.6306589841842651,-1.1535344123840332,3.60546875,2,"['A/E1', 'B2', 'C1']",7.6,180,0.0,1.3173381568645948,[25500|0|0]
282,28200,1.1978909969329834,1.0525354146957395,0.9427558183670044,-2.125868558883667,0.764225423336029,-1.0584940910339355,3.611328125,2,"['A/E1', 'B2', 'C1']",7.6,180,0.0,1.323038552570705,[25500|0|0]
283,28300,1.197641134262085,1.0585854053497314,0.9392748475074768,-1.4032162427902222,0.3835144937038421,-1.295977234840393,3.615234375,2,"['A/E1', 'B2', 'C1']",7.6,180,0.0,1.3300229620942492,[25500|0|0]
284,28400,1.196509599685669,1.0656099319458008,0.937566876411438,-1.1670079231262207,0.4728148579597473,-1.5815578699111938,3.630859375,2,"['A/E1', 'B2', 'C1']",7.6,180,0.0,1.3373401685052653,[25500|0|0]
285,28500,1.1942249536514282,1.074557900428772,0.9368059635162354,0.0698565393686294,0.7947146892547607,-1.3527268171310425,3.626953125,2,"['A/E1', 'B2', 'C1']",7.6,180,257.19573393471325,1.3466064911797735,[25500|0|0]
286,28600,1.1903424263000488,1.0817911624908447,0.9389845728874208,3.684189796447754,0.4042584002017975,-0.181633248925209,3.431640625,2,"['A/E1', 'B2', 'C1']",7.6,180,257.19573393471325,1.355100043880796,[25500|0|0]
287,28701,1.1906886100769043,1.0777173042297363,0.95182466506958,16.090091705322266,-6.094332218170166,2.6436500549316406,3.525390625,2,"['A/E1', 'B2', 'C1']",7.6,180,257.19573393471325,1.368575359520339,[25500|0|0]
288,28801,1.2019695043563845,1.0431164503097534,0.9765817523002625,18.97542381286621,-3.789836645126343,6.955838203430176,3.537109375,2,"['A/E1', 'B2', 'C1']",7.6,180,257.19573393471325,1.4125911639079043,[25500|0|0]
289,28900,1.2248544692993164,0.9764367938041688,1.0110756158828735,13.467159271240234,-2.29205060005188,3.736111640930176,3.583984375,2,"['A/E1', 'B2', 'C1']",7.6,180,257.19573393471325,1.4910750784190816,[25500|0|0]
290,29000,1.2538551092147827,0.8891069293022156,1.05414617061615,7.257424831390381,0.2681973874568939,1.2683000564575195,3.630859375,2,"['A/E1', 'B2', 'C1']",7.6,180,257.19573393471325,1.5926753492576389,[25500|0|0]
291,29101,1.281096339225769,0.7942814230918884,1.0999563932418823,-0.6493330001831055,1.7920820713043213,-0.0507938899099826,3.642578125,2,"['A/E1', 'B2', 'C1']",7.6,180,257.19573393471325,1.7014528181451591,[25500|0|0]
292,29201,1.3052983283996582,0.7043406367301941,1.141839861869812,-6.443536281585693,3.705172061920166,-0.9820124506950378,3.642578125,2,"['A/E1', 'B2', 'C1']",7.6,180,257.19573393471325,1.803576793173748,[25500|0|0]
293,29300,1.323099970817566,0.6278263330459595,1.1761369705200195,-9.218635559082031,4.252950191497803,-1.6118967533111572,3.630859375,2,"['A/E1', 'B2', 'C1']",7.6,180,257.19573393471325,1.8892951039528485,[25500|0|0]
294,29401,1.335100173950195,0.5682953596115112,1.1990790367126465,-10.460455894470217,4.291258811950684,-1.405502200126648,3.611328125,2,"['A/E1', 'B2', 'C1']",7.6,180,257.19573393471325,1.9542125906144885,[25500|0|0]
295,29501,1.340807557106018,0.526549220085144,1.2135330438613892,-9.379125595092772,3.640056848526001,-1.2243293523788452,3.59375,2,"['A/E1', 'B2', 'C1']",7.6,180,257.19573393471325,1.99875731769299,[25500|0|0]
296,29601,1.34217631816864,0.4979699850082397,1.2204104661941528,-7.614104270935059,2.4006197452545166,-0.9653847813606262,3.568359375,2,"['A/E1', 'B2', 'C1']",7.6,180,257.19573393471325,2.0281842632084643,[25500|0|0]
297,29702,1.3393733501434326,0.4848425090312958,1.2227076292037964,-5.600551128387451,1.7027369737625122,-0.2580493688583374,3.55859375,2,"['A/E1', 'B2', 'C1']",7.6,180,257.19573393471325,2.041802787841054,[25500|0|0]
298,29801,1.3352011442184448,0.4808236062526703,1.22458815574646,-2.9164295196533203,0.7896710634231567,0.3048949241638183,3.578125,2,"['A/E1', 'B2', 'C1']",7.6,180,257.19573393471325,2.047893375817777,[25500|0|0]
