,time.ms,stateEstimate.x,stateEstimate.y,stateEstimate.z,stabilizer.roll,stabilizer.pitch,stabilizer.yaw,pm.vbat,drone_id,node_name,wind_speed,global_wind_direction,relative_wind_direction,travel_dist,waiting_time
0,0,1.252266764640808,1.0744587182998655,0.0,0.1027461737394332,1.073206663131714,0.1387821435928344,4.1171875,2,"['A1', 'B2', 'F2']",7.6,90,450.0,0.0,[6200|0|0]
1,100,1.2522178888320925,1.0742506980895996,0.0,0.1059010401368141,1.077885985374451,0.1652586013078689,4.1171875,2,"['A1', 'B2', 'F2']",7.6,90,450.0,0.0002136849375989,[6300|0|0]
2,200,1.2519792318344116,1.074416995048523,0.0,0.0953583568334579,1.0914605855941772,0.141416847705841,4.1171875,2,"['A1', 'B2', 'F2']",7.6,90,450.0,0.0005045660835833,[6400|0|0]
3,300,1.2523798942565918,1.0741798877716064,0.0,0.0998772606253624,1.0849567651748655,0.1633744537830352,4.1171875,2,"['A1', 'B2', 'F2']",7.6,90,450.0,0.0009701305123298,[6500|0|0]
4,400,1.252522110939026,1.0743438005447388,0.0,0.0916520208120346,1.083831787109375,0.1292015165090561,4.1171875,2,"['A1', 'B2', 'F2']",7.6,90,450.0,0.0011871396871555,[6600|0|0]
5,500,1.2520166635513306,1.074432373046875,0.0,0.0877227038145065,1.0970726013183594,0.1106229946017265,4.1171875,2,"['A1', 'B2', 'F2']",7.6,90,450.0,0.0017002889343175,[6700|0|0]
6,600,1.252579927444458,1.074360966682434,0.0,0.0885082632303237,1.0789912939071655,0.1114801466464996,4.1171875,2,"['A1', 'B2', 'F2']",7.6,90,450.0,0.0022680609679576,[6800|0|0]
7,700,1.2520676851272583,1.0740201473236084,0.0,0.1005705520510673,1.0945701599121094,0.1167874336242675,4.1171875,2,"['A1', 'B2', 'F2']",7.6,90,450.0,0.0028833251607077,[6900|0|0]
8,800,1.2526047229766846,1.0742696523666382,0.0,0.100608043372631,1.075624942779541,0.1188210472464561,4.1171875,2,"['A1', 'B2', 'F2']",7.6,90,450.0,0.0034754927199455,[7000|0|0]
9,900,1.2522493600845337,1.074498414993286,0.0,0.0921132862567901,1.0792616605758667,0.1237909793853759,4.1171875,2,"['A1', 'B2', 'F2']",7.6,90,450.0,0.0038981215458302,[7100|0|0]
10,1000,1.2524651288986206,1.074235200881958,0.0,0.1053360924124717,1.0637617111206057,0.125703364610672,4.1171875,2,"['A1', 'B2', 'F2']",7.6,90,450.0,0.004238471144823,[7200|0|0]
11,1100,1.2525019645690918,1.0744218826293943,0.0,0.0989088267087936,1.051859736442566,0.1434487402439117,4.1171875,2,"['A1', 'B2', 'F2']",7.6,90,450.0,0.0044287523615653,[7300|0|0]
12,1200,1.2524336576461792,1.0745362043380735,0.0,0.0939198434352874,1.0607938766479492,0.1479599326848983,4.1171875,2,"['A1', 'B2', 'F2']",7.6,90,450.0,0.0045619262658902,[7400|0|0]
13,1300,1.251990795135498,1.0744494199752808,0.0,0.1016463637351989,1.0742682218551636,0.1264509409666061,4.1171875,2,"['A1', 'B2', 'F2']",7.6,90,450.0,0.0050132119060253,[7500|0|0]
14,1400,1.2522062063217163,1.074697971343994,0.0,0.0988852158188819,1.0667272806167605,0.1103990077972412,4.1171875,2,"['A1', 'B2', 'F2']",7.6,90,450.0,0.0053421188260454,[7600|0|0]
15,1500,1.2525124549865725,1.0742400884628296,0.0,0.1133037731051445,1.0555037260055542,0.1423694640398025,4.1171875,2,"['A1', 'B2', 'F2']",7.6,90,450.0,0.0058929772267162,[7700|0|0]
16,1600,1.25258207321167,1.0745075941085815,0.0,0.1008548364043235,1.0589936971664429,0.1193446516990661,4.1171875,2,"['A1', 'B2', 'F2']",7.6,90,450.0,0.006169393521053,[7800|0|0]
17,1700,1.252373456954956,1.0743519067764282,0.0,0.1055861189961433,1.0593756437301636,0.0823820233345031,4.1171875,2,"['A1', 'B2', 'F2']",7.6,90,450.0,0.0064296996638125,[7900|0|0]
18,1800,1.252256155014038,1.0745420455932615,0.0,0.1018182262778282,1.0630924701690674,0.1071975603699684,4.1171875,2,"['A1', 'B2', 'F2']",7.6,90,450.0,0.0066531107535325,[8000|0|0]
19,1900,1.2527483701705933,1.074232578277588,0.0,0.1083525493741035,1.052843689918518,0.117305614054203,4.1171875,2,"['A1', 'B2', 'F2']",7.6,90,450.0,0.0072345277981853,[8100|0|0]
20,2000,1.25203275680542,1.0744541883468628,0.0,0.108814813196659,1.0792012214660645,0.1315324753522873,4.1171875,2,"['A1', 'B2', 'F2']",7.6,90,450.0,0.0079836696480501,[8200|0|0]
21,2100,1.2524462938308716,1.0743305683135986,0.0,0.115218199789524,1.065659999847412,0.1392330974340438,4.1171875,2,"['A1', 'B2', 'F2']",7.6,90,450.0,0.0084152884428721,[8300|0|0]
22,2200,1.252307653427124,1.074490666389465,0.0,0.1126237958669662,1.0617557764053345,0.1454604119062423,4.1171875,2,"['A1', 'B2', 'F2']",7.6,90,450.0,0.0086270726619429,[8400|0|0]
23,2300,1.2524555921554563,1.0741963386535645,0.0,0.1165798753499984,1.0583913326263428,0.157513752579689,4.1171875,2,"['A1', 'B2', 'F2']",7.6,90,450.0,0.0089564883316688,[8500|0|0]
24,2400,1.2522534132003784,1.0744776725769043,0.0,0.1091827228665351,1.059218406677246,0.1416470408439636,4.1171875,2,"['A1', 'B2', 'F2']",7.6,90,450.0,0.0093029347291074,[8600|0|0]
25,2500,1.2524060010910034,1.074376940727234,0.0,0.1111209988594055,1.0542142391204834,0.1464444100856781,4.1171875,2,"['A1', 'B2', 'F2']",7.6,90,450.0,0.0094857733735548,[8700|0|0]
26,2600,1.252246975898743,1.0742123126983645,0.0,0.1180977001786232,1.057286024093628,0.1220040619373321,4.1171875,2,"['A1', 'B2', 'F2']",7.6,90,450.0,0.0097146650502558,[8800|0|0]
27,2700,1.2523618936538696,1.0744740962982178,0.0,0.1151877045631408,1.054501175880432,0.1385406106710434,4.1171875,2,"['A1', 'B2', 'F2']",7.6,90,450.0,0.0100005614363742,[8900|0|0]
28,2800,1.2523314952850342,1.0743757486343384,0.0,0.1133094206452369,1.0528130531311035,0.1525754183530807,4.1171875,2,"['A1', 'B2', 'F2']",7.6,90,450.0,0.0101034998831197,[9000|0|0]
29,2900,1.252076506614685,1.074524164199829,0.0,0.1049764677882194,1.0647660493850708,0.1538120657205581,4.1171875,2,"['A1', 'B2', 'F2']",7.6,90,450.0,0.0103985361556124,[9100|0|0]
30,3000,1.2524962425231934,1.0746442079544067,0.0,0.1098120957612991,1.0559325218200684,0.1246179789304733,4.1171875,2,"['A1', 'B2', 'F2']",7.6,90,450.0,0.0108351008540299,[9200|0|0]
31,3100,1.252023458480835,1.0743048191070557,0.0,0.1260893791913986,1.0711756944656372,0.1450865566730499,4.1171875,2,"['A1', 'B2', 'F2']",7.6,90,450.0,0.0114170884315735,[9300|0|0]
32,3200,1.2521950006484983,1.0742292404174805,0.0,0.1239918619394302,1.0645500421524048,0.1462996751070022,4.1171875,2,"['A1', 'B2', 'F2']",7.6,90,450.0,0.0116045420354453,[9400|0|0]
33,3300,1.252287983894348,1.074655055999756,0.0,0.1124918609857559,1.0586886405944824,0.1414671838283538,4.1171875,2,"['A1', 'B2', 'F2']",7.6,90,450.0,0.0120403915440116,[9500|0|0]
34,3400,1.252198576927185,1.0744338035583496,0.0,0.1158835440874099,1.0625665187835691,0.1695787757635116,4.1171875,2,"['A1', 'B2', 'F2']",7.6,90,450.0,0.0122790256752786,[9600|0|0]
35,3500,1.2521883249282837,1.0743290185928345,0.0,0.1146179288625717,1.0626260042190552,0.1729380041360855,4.1171875,2,"['A1', 'B2', 'F2']",7.6,90,450.0,0.0123843109661767,[9700|0|0]
36,3600,1.252289891242981,1.0741134881973269,0.0,0.1151104420423507,1.058011770248413,0.1854604035615921,4.1171875,2,"['A1', 'B2', 'F2']",7.6,90,450.0,0.0126225735685062,[9800|0|0]
37,3700,1.252239465713501,1.0745114088058472,0.0,0.0989699810743331,1.0677886009216309,0.186554953455925,4.1171875,2,"['A1', 'B2', 'F2']",7.6,90,450.0,0.0130236764788777,[9900|0|0]
38,3800,1.2521307468414309,1.074314832687378,0.0,0.1082859337329864,1.0697405338287354,0.1616020053625106,4.1171875,2,"['A1', 'B2', 'F2']",7.6,90,450.0,0.0132483138833691,[10000|0|0]
39,3900,1.252239465713501,1.0740171670913696,0.0,0.1115713566541671,1.0616490840911863,0.1732905656099319,4.1171875,2,"['A1', 'B2', 'F2']",7.6,90,450.0,0.0135652122901041,[10100|0|0]
40,4000,1.2524666786193848,1.0743675231933594,0.0,0.1005047783255577,1.061792254447937,0.1662894338369369,4.1171875,2,"['A1', 'B2', 'F2']",7.6,90,450.0,0.0139827947404077,[10200|0|0]
41,4100,1.2525067329406738,1.0743918418884275,0.0,0.1035772114992141,1.066669464111328,0.1259427964687347,4.1171875,2,"['A1', 'B2', 'F2']",7.6,90,450.0,0.01402965354517,[10300|0|0]
42,4200,1.2524442672729492,1.074463963508606,0.0,0.1006155610084533,1.0788713693618774,0.1278877258300781,4.1171875,2,"['A1', 'B2', 'F2']",7.6,90,450.0,0.0141250657442927,[10400|0|0]
43,4300,1.2522491216659546,1.0740619897842407,0.0,0.1075648143887519,1.08738112449646,0.1140149310231208,4.1171875,2,"['A1', 'B2', 'F2']",7.6,90,450.0,0.0145719042867321,[10500|0|0]
44,4400,1.252112627029419,1.0746243000030518,0.0,0.092373676598072,1.090498447418213,0.1258390098810196,4.1171875,2,"['A1', 'B2', 'F2']",7.6,90,450.0,0.0151505436977493,[10600|0|0]
45,4500,1.2521417140960691,1.074416995048523,0.0,0.0991677343845367,1.0903013944625854,0.1244496032595634,4.1171875,2,"['A1', 'B2', 'F2']",7.6,90,450.0,0.0153598793173139,[10700|0|0]
46,4600,1.2522385120391846,1.0744746923446655,0.0,0.0948143899440765,1.0826951265335083,0.089227057993412,4.1171875,2,"['A1', 'B2', 'F2']",7.6,90,450.0,0.01547256835748,[10800|0|0]
47,4700,1.2525743246078491,1.074235916137695,0.0,0.1014025136828422,1.0773483514785769,0.0599080994725227,4.1171875,2,"['A1', 'B2', 'F2']",7.6,90,450.0,0.0158846170903846,[10900|0|0]
48,4800,1.2524125576019287,1.074283242225647,0.0,0.0976689606904983,1.0835678577423096,0.0536070130765438,4.1171875,2,"['A1', 'B2', 'F2']",7.6,90,450.0,0.0160531647774209,[11000|0|0]
49,4900,1.2522836923599243,1.0745035409927368,0.0,0.0960259810090065,1.084990382194519,0.0601435750722885,4.1171875,2,"['A1', 'B2', 'F2']",7.6,90,450.0,0.0163083858529185,[11100|0|0]
50,5000,1.2520264387130735,1.0748189687728882,0.0,0.0900008529424667,1.10081946849823,0.0668233782052993,4.1171875,2,"['A1', 'B2', 'F2']",7.6,90,450.0,0.0167154167157646,[11200|0|0]
51,5100,1.2525451183319092,1.0746506452560425,0.0,0.0954635515809059,1.0887349843978882,0.0592847764492034,4.1171875,2,"['A1', 'B2', 'F2']",7.6,90,450.0,0.0172607252094806,[11300|0|0]
52,5200,1.2522172927856443,1.074616312980652,0.0,0.0950507596135139,1.101294755935669,0.0612960271537303,4.1171875,2,"['A1', 'B2', 'F2']",7.6,90,450.0,0.0175903436160014,[11400|0|0]
53,5300,1.2522326707839966,1.0744959115982056,0.0,0.0940903425216674,1.094319224357605,0.0502676218748092,4.1171875,2,"['A1', 'B2', 'F2']",7.6,90,450.0,0.0177117230859638,[11500|0|0]
54,5400,1.2521995306015017,1.074591875076294,0.0,0.0927951037883758,1.0945019721984863,0.0836392119526863,4.1171875,2,"['A1', 'B2', 'F2']",7.6,90,450.0,0.0178132477668184,[11600|0|0]
55,5500,1.2526355981826782,1.0746320486068726,0.0,0.093956135213375,1.0812422037124634,0.0824441313743591,4.1171875,2,"['A1', 'B2', 'F2']",7.6,90,450.0,0.0182511619683605,[11700|0|0]
56,5600,1.2523502111434937,1.0747604370117188,0.0,0.0986583903431892,1.0845460891723633,0.1108588501811027,4.1171875,2,"['A1', 'B2', 'F2']",7.6,90,450.0,0.018564098614718,[11800|0|0]
57,5700,1.2526123523712158,1.0742639303207395,0.0,0.1098054498434066,1.0774047374725342,0.1032181829214096,4.1171875,2,"['A1', 'B2', 'F2']",7.6,90,450.0,0.0191255582459106,[11900|0|0]
58,5800,1.252239465713501,1.074662208557129,0.0,0.0990374535322189,1.0881679058074951,0.0908019542694091,4.1171875,2,"['A1', 'B2', 'F2']",7.6,90,450.0,0.0196711496801204,[12000|0|0]
59,5900,1.25229811668396,1.074491024017334,0.0,0.10591521859169,1.0873206853866575,0.1082221940159797,4.1171875,2,"['A1', 'B2', 'F2']",7.6,90,450.0,0.0198521029420434,[12100|0|0]
60,6001,1.252328872680664,1.0747833251953125,0.0,0.0997635647654533,1.0813387632369995,0.1042742878198623,4.1171875,2,"['A1', 'B2', 'F2']",7.6,90,450.0,0.020146017742591,[12200|0|0]
61,6100,1.2521361112594604,1.0743154287338257,0.0,0.112769030034542,1.0810706615447998,0.1121738031506538,4.1171875,2,"['A1', 'B2', 'F2']",7.6,90,450.0,0.0206520652346076,[12300|0|0]
62,6201,1.2522262334823608,1.0741842985153198,0.0,0.1117202118039131,1.0802081823349,0.1066197305917739,4.1171875,2,"['A1', 'B2', 'F2']",7.6,90,450.0,0.0208111788709368,[12400|0|0]
63,6301,1.2523530721664429,1.0745155811309814,0.0,0.104676179587841,1.0791072845458984,0.1010281071066856,4.1171875,2,"['A1', 'B2', 'F2']",7.6,90,450.0,0.0211659128885039,[12500|0|0]
64,6401,1.2523082494735718,1.074527382850647,0.0,0.1063669621944427,1.0812900066375732,0.1010811477899551,4.1171875,2,"['A1', 'B2', 'F2']",7.6,90,450.0,0.021212263232443,[12600|0|0]
65,6501,1.2520720958709717,1.074661374092102,0.0,0.1069219410419464,1.08814537525177,0.0748463720083236,4.1171875,2,"['A1', 'B2', 'F2']",7.6,90,450.0,0.0214837815132414,[12700|0|0]
66,6601,1.2521753311157229,1.0743310451507568,0.0,0.1179106533527374,1.0904765129089355,0.0827534273266792,4.1171875,2,"['A1', 'B2', 'F2']",7.6,90,450.0,0.0218298663659135,[12800|0|0]
67,6701,1.2523891925811768,1.074762225151062,0.0,0.1076636165380477,1.0801714658737185,0.0705512091517448,4.1171875,2,"['A1', 'B2', 'F2']",7.6,90,450.0,0.0223111697204304,[12900|0|0]
68,6801,1.2522242069244385,1.074553370475769,0.0,0.1132602840662002,1.0793439149856567,0.0607544146478176,4.1171875,2,"['A1', 'B2', 'F2']",7.6,90,450.0,0.0225773285871268,[13000|0|0]
69,6902,1.2522802352905271,1.0744060277938845,0.0,0.119622990489006,1.0810091495513916,0.0811176598072052,4.1171875,2,"['A1', 'B2', 'F2']",7.6,90,450.0,0.022734964381639,[13100|0|0]
70,7001,1.2525542974472046,1.0745024681091309,0.0,0.1093968749046325,1.0648354291915894,0.0722052752971649,4.1171875,2,"['A1', 'B2', 'F2']",7.6,90,450.0,0.0230254997497571,[13200|0|0]
71,7102,1.2524391412734983,1.0743577480316162,0.0,0.1115934923291206,1.0676414966583252,0.0683556273579597,4.1171875,2,"['A1', 'B2', 'F2']",7.6,90,450.0,0.0232104452692446,[13300|0|0]
72,7202,1.252469182014465,1.0744578838348389,0.0,0.1093919798731803,1.0729628801345823,0.083833135664463,4.1171875,2,"['A1', 'B2', 'F2']",7.6,90,450.0,0.0233149901170607,[13400|0|0]
73,7302,1.2522881031036377,1.0749047994613647,0.0,0.0917570143938064,1.07780659198761,0.085314966738224,4.1171875,2,"['A1', 'B2', 'F2']",7.6,90,450.0,0.0237971966590937,[13500|0|0]
74,7400,1.252537727355957,1.0744447708129885,0.0,0.1035394594073295,1.064713478088379,0.0889739394187927,4.1171875,2,"['A1', 'B2', 'F2']",7.6,90,450.0,0.0243205881231747,[13600|0|0]
75,7502,1.25239098072052,1.0744630098342896,0.0,0.1048187240958213,1.0678412914276123,0.1093616560101509,4.1171875,2,"['A1', 'B2', 'F2']",7.6,90,450.0,0.0244684638713896,[13700|0|0]
76,7602,1.2527825832366943,1.0747146606445312,0.0,0.0932552814483642,1.0599453449249268,0.1003991961479187,4.1171875,2,"['A1', 'B2', 'F2']",7.6,90,450.0,0.024933953571565,[13800|0|0]
77,7700,1.2522567510604858,1.074892282485962,0.0,0.0896577537059784,1.0691969394683838,0.1351482421159744,4.1171875,2,"['A1', 'B2', 'F2']",7.6,90,450.0,0.0254889751892425,[13900|0|0]
78,7800,1.2522987127304075,1.0743240118026731,0.0,0.1036262065172195,1.0660476684570312,0.1144303977489471,4.1171875,2,"['A1', 'B2', 'F2']",7.6,90,450.0,0.0260587930120842,[14000|0|0]
79,7902,1.252160668373108,1.0745288133621216,0.0,0.0967025086283683,1.0750470161437988,0.0876467004418373,4.1171875,2,"['A1', 'B2', 'F2']",7.6,90,450.0,0.0263057746375846,[14100|0|0]
80,8000,1.252224326133728,1.074774980545044,0.0,0.0883049592375755,1.071841835975647,0.0882306993007659,4.1171875,2,"['A1', 'B2', 'F2']",7.6,90,450.0,0.0265600394452853,[14200|0|0]
81,8100,1.2525850534439087,1.0744436979293823,0.0,0.0989875197410583,1.0583034753799438,0.1000583469867706,4.1171875,2,"['A1', 'B2', 'F2']",7.6,90,450.0,0.0270498071083152,[14300|0|0]
82,8200,1.2521871328353882,1.07438862323761,0.0,0.1013055369257927,1.0673056840896606,0.1212024465203285,4.1171875,2,"['A1', 'B2', 'F2']",7.6,90,450.0,0.0274515209770815,[14400|0|0]
83,8300,1.2522557973861694,1.0743255615234375,0.0,0.0958000645041465,1.068810224533081,0.1101229041814804,4.1171875,2,"['A1', 'B2', 'F2']",7.6,90,450.0,0.0275447497297728,[14500|0|0]
84,8400,1.252089262008667,1.074656963348389,0.0,0.0880549326539039,1.0749216079711914,0.0759567841887474,4.1171875,2,"['A1', 'B2', 'F2']",7.6,90,450.0,0.0279156421690877,[14600|0|0]
85,8500,1.2522804737091064,1.074583649635315,0.0,0.0897517651319503,1.0700805187225342,0.0797246098518371,4.1171875,2,"['A1', 'B2', 'F2']",7.6,90,450.0,0.0281204269705492,[14700|0|0]
86,8600,1.2522687911987305,1.0747017860412598,0.0,0.0905616730451583,1.0720044374465942,0.0687996000051498,4.1171875,2,"['A1', 'B2', 'F2']",7.6,90,450.0,0.0282391396129183,[14800|0|0]
87,8700,1.2525413036346436,1.0745714902877808,0.0,0.1040480509400367,1.0645321607589722,0.0875625684857368,4.1171875,2,"['A1', 'B2', 'F2']",7.6,90,450.0,0.028541199228064,[14900|0|0]
88,8800,1.2523974180221558,1.074397087097168,0.0,0.1108826845884323,1.0656449794769287,0.101772055029869,4.1171875,2,"['A1', 'B2', 'F2']",7.6,90,450.0,0.0287672955402341,[15000|0|0]
89,8900,1.252244234085083,1.0743796825408936,0.0,0.1093709468841552,1.074468016624451,0.0939160510897636,4.1171875,2,"['A1', 'B2', 'F2']",7.6,90,450.0,0.0289214650481019,[15100|0|0]
90,9000,1.2525334358215332,1.074191927909851,0.0,0.1146569103002548,1.065415382385254,0.1157020404934883,4.1171875,2,"['A1', 'B2', 'F2']",7.6,90,450.0,0.0292662685368367,[15200|0|0]
91,9100,1.2524408102035522,1.0744246244430542,0.0,0.1029041036963462,1.0619863271713257,0.1012830212712287,4.1171875,2,"['A1', 'B2', 'F2']",7.6,90,450.0,0.0295167224880356,[15300|0|0]
92,9200,1.2526010274887085,1.0744035243988037,0.0,0.1024653241038322,1.058180809020996,0.1077630296349525,4.1171875,2,"['A1', 'B2', 'F2']",7.6,90,450.0,0.0296783232006894,[15400|0|0]
93,9300,1.2524044513702393,1.0743299722671509,0.0,0.1074427887797355,1.06731116771698,0.1301175653934478,4.1171875,2,"['A1', 'B2', 'F2']",7.6,90,450.0,0.0298882090897413,[15500|0|0]
94,9400,1.2521131038665771,1.0744234323501587,0.0,0.1058336943387985,1.0891644954681396,0.1380354911088943,4.1171875,2,"['A1', 'B2', 'F2']",7.6,90,450.0,0.0301941799298649,[15600|0|0]
95,9500,1.252358317375183,1.0744011402130127,0.0,0.1043751314282417,1.0856667757034302,0.1140795350074768,4.1171875,2,"['A1', 'B2', 'F2']",7.6,90,450.0,0.0304404046324871,[15700|0|0]
96,9600,1.252441644668579,1.074506402015686,0.0,0.0966652631759643,1.0880093574523926,0.0897182151675224,4.1171875,2,"['A1', 'B2', 'F2']",7.6,90,450.0,0.0305746562057618,[15800|0|0]
97,9700,1.2524621486663818,1.074409008026123,0.0,0.0992383435368537,1.0836715698242188,0.0775050371885299,4.1171875,2,"['A1', 'B2', 'F2']",7.6,90,450.0,0.0306741851117585,[15900|0|0]
98,9800,1.2523672580718994,1.0747225284576416,0.0,0.0916056111454963,1.0734107494354248,0.1341495662927627,4.1171875,2,"['A1', 'B2', 'F2']",7.6,90,450.0,0.0310017508088344,[16000|0|0]
99,9900,1.252682328224182,1.074543595314026,0.0,0.0910477712750434,1.0549876689910889,0.13556569814682,4.1171875,2,"['A1', 'B2', 'F2']",7.6,90,450.0,0.0313640852824129,[16100|0|0]
100,10000,1.2522605657577517,1.074326515197754,0.0,0.0944199711084365,1.0707130432128906,0.1115608885884285,4.1171875,2,"['A1', 'B2', 'F2']",7.6,90,450.0,0.031838434684194,[16200|0|0]
101,10100,1.252495050430298,1.0745060443878174,0.0,0.0922916680574417,1.0638219118118286,0.09062310308218,4.1171875,2,"['A1', 'B2', 'F2']",7.6,90,450.0,0.0321337544968447,[16300|0|0]
102,10200,1.2523415088653564,1.0741060972213743,0.0,0.1044911965727806,1.063271164894104,0.0820810496807098,4.1171875,2,"['A1', 'B2', 'F2']",7.6,90,450.0,0.0325621617191351,[16400|0|0]
103,10300,1.2521730661392212,1.074786901473999,0.0,0.0903623551130294,1.0711967945098877,0.0742288157343864,4.1171875,2,"['A1', 'B2', 'F2']",7.6,90,450.0,0.0332634942952926,[16500|0|0]
104,10400,1.2523212432861328,1.074436902999878,0.0,0.0954122096300125,1.070314645767212,0.088382214307785,4.1171875,2,"['A1', 'B2', 'F2']",7.6,90,450.0,0.0336435671814,[16600|0|0]
105,10500,1.252574443817139,1.0746402740478516,0.0,0.0844038948416709,1.065648078918457,0.100181445479393,4.1171875,2,"['A1', 'B2', 'F2']",7.6,90,450.0,0.0339683290819604,[16700|0|0]
106,10600,1.25234854221344,1.0740272998809814,0.0,0.1000089049339294,1.0767865180969238,0.1101230010390281,4.1171875,2,"['A1', 'B2', 'F2']",7.6,90,450.0,0.0346216045704061,[16800|0|0]
107,10700,1.2522258758544922,1.0745198726654053,0.0,0.0880466103553772,1.0789140462875366,0.12151400744915,4.1171875,2,"['A1', 'B2', 'F2']",7.6,90,450.0,0.0351292215358165,[16900|0|0]
108,10800,1.252063512802124,1.0745468139648438,0.0,0.0875375568866729,1.08012056350708,0.1402763426303863,4.1171875,2,"['A1', 'B2', 'F2']",7.6,90,450.0,0.0352938046284772,[17000|0|0]
109,10900,1.2521861791610718,1.0746684074401855,0.0,0.0878345668315887,1.0762377977371216,0.1334661990404129,4.1171875,2,"['A1', 'B2', 'F2']",7.6,90,450.0,0.035466524079794,[17100|0|0]
110,11000,1.252299427986145,1.0744224786758425,0.0,0.0919002667069435,1.0797723531723022,0.1175648495554924,4.1171875,2,"['A1', 'B2', 'F2']",7.6,90,450.0,0.0357372753558977,[17200|0|0]
111,11100,1.2522084712982178,1.0743263959884644,0.0,0.0900260359048843,1.0916588306427002,0.1332813948392868,4.1171875,2,"['A1', 'B2', 'F2']",7.6,90,450.0,0.0358695818254769,[17300|0|0]
112,11200,1.2524477243423462,1.0742175579071045,0.0,0.086538441479206,1.084025502204895,0.1458697468042373,4.1171875,2,"['A1', 'B2', 'F2']",7.6,90,450.0,0.036132427306851,[17400|0|0]
113,11300,1.2522265911102295,1.0745089054107666,0.0,0.079300932586193,1.0886025428771973,0.1434274315834045,4.1171875,2,"['A1', 'B2', 'F2']",7.6,90,450.0,0.0364981912665799,[17500|0|0]
114,11400,1.2524820566177368,1.0744649171829224,0.0,0.0751708596944809,1.079765796661377,0.124866098165512,4.1171875,2,"['A1', 'B2', 'F2']",7.6,90,450.0,0.0367574162455361,[17600|0|0]
115,11500,1.2524502277374268,1.0745757818222046,0.0,0.0739315748214721,1.0804599523544312,0.1122214421629905,4.1171875,2,"['A1', 'B2', 'F2']",7.6,90,450.0,0.0368727594111982,[17700|0|0]
116,11600,1.252070665359497,1.0743659734725952,0.0,0.0793552473187446,1.0846266746520996,0.1329943686723709,4.1171875,2,"['A1', 'B2', 'F2']",7.6,90,450.0,0.0373064495567001,[17800|0|0]
117,11700,1.2521328926086426,1.0747742652893066,0.0,0.0692733079195022,1.084926962852478,0.1263308823108673,4.1171875,2,"['A1', 'B2', 'F2']",7.6,90,450.0,0.0377194561403398,[17900|0|0]
118,11800,1.2525180578231812,1.074323296546936,0.0,0.093323677778244,1.0763115882873535,0.1354220956563949,4.1171875,2,"['A1', 'B2', 'F2']",7.6,90,450.0,0.0383125202592055,[18000|0|0]
119,11900,1.2523759603500366,1.074460506439209,0.0,0.0882332026958465,1.0740303993225098,0.12266805768013,4.1171875,2,"['A1', 'B2', 'F2']",7.6,90,450.0,0.038510050627533,[18100|0|0]
120,12000,1.252066969871521,1.0747625827789309,0.0,0.0901242047548294,1.072885274887085,0.1241842284798622,4.1171875,2,"['A1', 'B2', 'F2']",7.6,90,450.0,0.0389421677769648,[18200|0|0]
121,12100,1.2522157430648804,1.074441909790039,0.0,0.1004509404301643,1.0713298320770264,0.0988494306802749,4.1171875,2,"['A1', 'B2', 'F2']",7.6,90,450.0,0.0392956711416832,[18300|0|0]
122,12200,1.2521488666534424,1.0746139287948608,0.0,0.0919060930609703,1.0722004175186155,0.0364943891763687,4.1171875,2,"['A1', 'B2', 'F2']",7.6,90,450.0,0.039480232763985,[18400|0|0]
123,12300,1.251789927482605,1.0743271112442017,0.0,0.1046896576881408,1.092993974685669,-0.016192952170968,4.1171875,2,"['A1', 'B2', 'F2']",7.6,90,450.0,0.0399396907443571,[18500|0|0]
124,12400,1.252064824104309,1.074436068534851,0.0,0.1023436486721038,1.090101718902588,0.0891227647662162,4.1171875,2,"['A1', 'B2', 'F2']",7.6,90,450.0,0.0402353930335095,[18600|0|0]
125,12500,1.2507531642913818,1.0751941204071045,0.0,0.0794781297445297,1.1196905374526978,0.1751834452152252,4.11328125,2,"['A1', 'B2', 'F2']",7.6,90,450.0,0.0417503498335125,[18700|0|0]
126,12600,1.2506861686706543,1.074516773223877,0.0,0.0988261923193931,1.1081193685531616,0.2779998779296875,4.1171875,2,"['A1', 'B2', 'F2']",7.6,90,450.0,0.0424310021822361,[18800|0|0]
127,12700,1.250461220741272,1.074717402458191,0.0,0.0824956074357032,1.100730538368225,0.3740534782409668,4.1171875,2,"['A1', 'B2', 'F2']",7.6,90,450.0,0.0427324215920205,[18900|0|0]
128,12800,1.250444412231445,1.0748414993286133,0.0,0.0809702202677726,1.0875403881072998,0.4405708909034729,4.1171875,2,"['A1', 'B2', 'F2']",7.6,90,450.0,0.0428576516173788,[19000|0|0]
129,12900,1.2501400709152222,1.0749890804290771,0.0,0.0803150907158851,1.0845379829406738,0.4673693776130676,4.1171875,2,"['A1', 'B2', 'F2']",7.6,90,450.0,0.0431958879518764,[19100|0|0]
130,13000,1.2501099109649658,1.0745820999145508,0.0,0.1024259030818939,1.0734877586364746,0.708078920841217,4.1171875,2,"['A1', 'B2', 'F2']",7.6,90,450.0,0.0436039844622801,[19200|0|0]
131,13100,1.2494916915893557,1.0747730731964111,0.0,0.0956694260239601,1.0792901515960691,0.759074330329895,4.1171875,2,"['A1', 'B2', 'F2']",7.6,90,450.0,0.0442510285031029,[19300|0|0]
132,13200,1.2526578903198242,1.0743300914764404,0.0,0.0923165678977966,1.0260318517684937,1.5215030908584597,4.1171875,2,"['A1', 'B2', 'F2']",7.6,90,450.0,0.0474480657573507,[19400|0|0]
133,13300,1.2525365352630615,1.0744571685791016,0.0,0.0737598836421966,1.0450897216796875,1.7378110885620115,4.1171875,2,"['A1', 'B2', 'F2']",7.6,90,450.0,0.0476237804118979,[19500|0|0]
134,13400,1.2521467208862305,1.0737892389297483,0.0,0.0821679234504699,1.0595241785049438,1.3249880075454712,4.1171875,2,"['A1', 'B2', 'F2']",7.6,90,450.0,0.048397140137297,[19600|0|0]
135,13500,1.2523385286331177,1.0743387937545776,0.0,0.063638798892498,1.0501476526260376,1.0372521877288818,4.11328125,2,"['A1', 'B2', 'F2']",7.6,90,450.0,0.0489792060418637,[19700|0|0]
136,13600,1.252232551574707,1.0747653245925903,0.0,0.0471866503357887,1.0522096157073977,0.8162945508956909,4.1171875,2,"['A1', 'B2', 'F2']",7.6,90,450.0,0.0494187054078305,[19800|0|0]
137,13700,1.2523094415664673,1.0743297338485718,0.0,0.0592169761657714,1.042863368988037,0.6644431948661804,4.1171875,2,"['A1', 'B2', 'F2']",7.6,90,450.0,0.0498610303642907,[19900|0|0]
138,13800,1.252077579498291,1.0745062828063965,0.0,0.0614413917064666,1.051551342010498,0.5022101402282715,4.1171875,2,"['A1', 'B2', 'F2']",7.6,90,450.0,0.0501524571186699,[20000|0|0]
139,13900,1.25236177444458,1.0746136903762815,0.0,0.0685394704341888,1.0446856021881104,0.3796962201595306,4.1171875,2,"['A1', 'B2', 'F2']",7.6,90,450.0,0.0504562714592874,[20100|0|0]
140,14000,1.2525568008422852,1.0745518207550049,0.0,0.0799918547272682,1.0462117195129397,0.2926176190376282,4.11328125,2,"['A1', 'B2', 'F2']",7.6,90,450.0,0.0506608763122081,[20200|0|0]
141,14100,1.2524065971374512,1.0748164653778076,0.0,0.0782775208353996,1.0570284128189087,0.2521221041679382,4.1171875,2,"['A1', 'B2', 'F2']",7.6,90,450.0,0.0509651753909518,[20300|0|0]
142,14200,1.252309799194336,1.0746992826461792,0.0,0.0951091349124908,1.0593130588531494,0.244770348072052,4.1171875,2,"['A1', 'B2', 'F2']",7.6,90,450.0,0.0511171676091185,[20400|0|0]
143,14300,1.252236008644104,1.074407935142517,0.0,0.1057830825448036,1.0564773082733154,0.2266531437635421,4.1171875,2,"['A1', 'B2', 'F2']",7.6,90,450.0,0.0514177144660205,[20500|0|0]
144,14400,1.2523192167282104,1.074464201927185,0.0,0.10684584826231,1.0477890968322754,0.1942863762378692,4.1171875,2,"['A1', 'B2', 'F2']",7.6,90,450.0,0.0515181611499755,[20600|0|0]
145,14500,1.2523722648620603,1.074458360671997,0.0,0.0994872525334358,1.0592210292816162,0.1492113620042801,4.1171875,2,"['A1', 'B2', 'F2']",7.6,90,450.0,0.0515715299120665,[20700|0|0]
146,14600,1.2521731853485107,1.0744208097457886,0.0,0.1011062338948249,1.0682507753372192,0.1649830192327499,4.1171875,2,"['A1', 'B2', 'F2']",7.6,90,450.0,0.0517741199532192,[20800|0|0]
147,14700,1.2521823644638062,1.0744584798812866,0.0,0.0993828773498535,1.068471908569336,0.1352716982364654,4.1171875,2,"['A1', 'B2', 'F2']",7.6,90,450.0,0.0518128923050442,[20900|0|0]
148,14800,1.2524253129959106,1.074427843093872,0.0,0.0994324833154678,1.0647293329238892,0.1424939036369323,4.1171875,2,"['A1', 'B2', 'F2']",7.6,90,450.0,0.052057764929065,[21000|0|0]
149,14900,1.2522714138031006,1.0742255449295044,0.0,0.1103210151195526,1.07245934009552,0.1030230671167373,4.1171875,2,"['A1', 'B2', 'F2']",7.6,90,450.0,0.0523119489349625,[21100|0|0]
150,15000,1.2522683143615725,1.0745089054107666,0.0,0.0968851372599601,1.070146560668945,0.0846093967556953,4.11328125,2,"['A1', 'B2', 'F2']",7.6,90,450.0,0.0525953263668073,[21200|0|0]
151,15100,1.252410888671875,1.0745444297790527,0.0,0.0915593802928924,1.066279053688049,0.0970007106661796,4.1171875,2,"['A1', 'B2', 'F2']",7.6,90,450.0,0.0527422597350405,[21300|0|0]
152,15200,1.2524302005767822,1.074916958808899,0.0,0.0817754194140434,1.0679361820220947,0.1391591131687164,4.1171875,2,"['A1', 'B2', 'F2']",7.6,90,450.0,0.0531152889936105,[21400|0|0]
153,15300,1.2522704601287842,1.0741941928863523,0.0,0.1023809090256691,1.0730522871017456,0.1161032021045684,4.1171875,2,"['A1', 'B2', 'F2']",7.6,90,450.0,0.0538554967951915,[21500|0|0]
154,15400,1.2524471282958984,1.0747427940368652,0.0,0.0830583944916725,1.0587221384048462,0.0917890444397926,4.1171875,2,"['A1', 'B2', 'F2']",7.6,90,450.0,0.0544318429269696,[21600|0|0]
155,15500,1.2523890733718872,1.0742594003677368,0.0,0.0948204919695854,1.0740859508514404,0.1063595041632652,4.11328125,2,"['A1', 'B2', 'F2']",7.6,90,450.0,0.0549187102739496,[21700|0|0]
156,15600,1.252257227897644,1.0743184089660645,0.0,0.0857804045081138,1.0825212001800537,0.1285435408353805,4.1171875,2,"['A1', 'B2', 'F2']",7.6,90,450.0,0.0550631583398938,[21800|0|0]
157,15700,1.2521450519561768,1.0747272968292236,0.0,0.0839607194066047,1.0806716680526731,0.1350607573986053,4.1171875,2,"['A1', 'B2', 'F2']",7.6,90,450.0,0.0554871544795967,[21900|0|0]
158,15800,1.252402663230896,1.0747133493423462,0.0,0.0870889723300933,1.0703388452529907,0.1462331712245941,4.1171875,2,"['A1', 'B2', 'F2']",7.6,90,450.0,0.0557451430476625,[22000|0|0]
159,15900,1.2524460554122925,1.0743157863616943,0.0,0.0994520112872123,1.0768040418624878,0.1272798478603363,4.1171875,2,"['A1', 'B2', 'F2']",7.6,90,450.0,0.0561450670466812,[22100|0|0]
160,16000,1.252500057220459,1.0747002363204956,0.0,0.0871563404798507,1.0812737941741943,0.1101918220520019,4.11328125,2,"['A1', 'B2', 'F2']",7.6,90,450.0,0.0565332911650814,[22200|0|0]
161,16100,1.2521469593048096,1.0744972229003906,0.0,0.093307539820671,1.093321681022644,0.1224380731582641,4.1171875,2,"['A1', 'B2', 'F2']",7.6,90,450.0,0.0569405903018085,[22300|0|0]
162,16200,1.252318263053894,1.0742124319076538,0.0,0.0940929874777793,1.0918365716934204,0.1426367759704589,4.1171875,2,"['A1', 'B2', 'F2']",7.6,90,450.0,0.0572729318189177,[22400|0|0]
163,16300,1.2522934675216677,1.074519157409668,0.0,0.0848571583628654,1.0933597087860107,0.1422104835510254,4.1171875,2,"['A1', 'B2', 'F2']",7.6,90,450.0,0.0575806579179152,[22500|0|0]
164,16400,1.2523642778396606,1.0741965770721436,0.0,0.0956889763474464,1.088475227355957,0.1585046499967575,4.1171875,2,"['A1', 'B2', 'F2']",7.6,90,450.0,0.0579109186865385,[22600|0|0]
165,16500,1.2521847486495972,1.0743464231491089,0.0,0.0899718329310417,1.097310185432434,0.1602687537670135,4.11328125,2,"['A1', 'B2', 'F2']",7.6,90,450.0,0.0581447660232065,[22700|0|0]
166,16600,1.2521286010742188,1.0745769739151,0.0,0.0856599062681198,1.0930346250534058,0.1541802436113357,4.1171875,2,"['A1', 'B2', 'F2']",7.6,90,450.0,0.0583820553106175,[22800|0|0]
167,16700,1.2520517110824585,1.0743656158447266,0.0,0.0913937613368034,1.094929575920105,0.1455458849668502,4.1171875,2,"['A1', 'B2', 'F2']",7.6,90,450.0,0.058606964858536,[22900|0|0]
168,16800,1.252094864845276,1.074305295944214,0.0,0.0905997455120086,1.0934494733810425,0.1353583335876464,4.1171875,2,"['A1', 'B2', 'F2']",7.6,90,450.0,0.0586811318164294,[23000|0|0]
169,16900,1.252485990524292,1.074614405632019,0.0,0.0828571617603302,1.0832983255386353,0.1353871822357177,4.1171875,2,"['A1', 'B2', 'F2']",7.6,90,450.0,0.0591796577394068,[23100|0|0]
170,17000,1.252272605895996,1.0742950439453125,0.0,0.0963542014360427,1.093054175376892,0.1193599626421928,4.11328125,2,"['A1', 'B2', 'F2']",7.6,90,450.0,0.0595637474249348,[23200|0|0]
171,17100,1.2520434856414795,1.0745906829833984,0.0,0.0842490121722221,1.0950021743774414,0.1596517264842987,4.1171875,2,"['A1', 'B2', 'F2']",7.6,90,450.0,0.0599377775465429,[23300|0|0]
172,17200,1.252430081367493,1.0743110179901123,0.0,0.087304413318634,1.0760749578475952,0.1475653797388076,4.1171875,2,"['A1', 'B2', 'F2']",7.6,90,450.0,0.0604149240270303,[23400|0|0]
173,17300,1.2525548934936523,1.074567437171936,0.0,0.0733736380934715,1.0711305141448977,0.1187361627817154,4.1171875,2,"['A1', 'B2', 'F2']",7.6,90,450.0,0.0607001061857353,[23500|0|0]
174,17400,1.2523741722106934,1.074491024017334,0.0,0.0748965516686439,1.0759057998657229,0.1257036924362182,4.1171875,2,"['A1', 'B2', 'F2']",7.6,90,450.0,0.0608963181943142,[23600|0|0]
175,17500,1.2521754503250122,1.074607014656067,0.0,0.0765714645385742,1.0815311670303345,0.1415351182222366,4.11328125,2,"['A1', 'B2', 'F2']",7.6,90,450.0,0.0611264142962419,[23700|0|0]
176,17600,1.252339243888855,1.0748406648635864,0.0,0.0723636597394943,1.073136806488037,0.1120584905147552,4.1171875,2,"['A1', 'B2', 'F2']",7.6,90,450.0,0.06141175751244,[23800|0|0]
177,17700,1.2524839639663696,1.07429301738739,0.0,0.0888348594307899,1.0673866271972656,0.1130023002624511,4.1171875,2,"['A1', 'B2', 'F2']",7.6,90,450.0,0.0619782040315574,[23900|0|0]
178,17800,1.2523895502090454,1.0742243528366089,0.0,0.0928675308823585,1.068497657775879,0.1146034598350524,4.1171875,2,"['A1', 'B2', 'F2']",7.6,90,450.0,0.0620949463893631,[24000|0|0]
179,17900,1.2522374391555786,1.074607014656067,0.0,0.0886278823018074,1.0727589130401611,0.1087087243795394,4.1171875,2,"['A1', 'B2', 'F2']",7.6,90,450.0,0.0625067325482583,[24100|0|0]
180,18000,1.251990556716919,1.0745620727539062,0.0,0.09098981320858,1.0744099617004397,0.1022752970457077,4.11328125,2,"['A1', 'B2', 'F2']",7.6,90,450.0,0.0627576722085123,[24200|0|0]
181,18100,1.252125263214111,1.0742336511611938,0.0,0.0934365391731262,1.0709513425827026,0.1405473351478576,4.1171875,2,"['A1', 'B2', 'F2']",7.6,90,450.0,0.0631126462680512,[24300|0|0]
182,18200,1.252402663230896,1.0744487047195437,0.0,0.0850839093327522,1.0617283582687378,0.1343667060136795,4.1171875,2,"['A1', 'B2', 'F2']",7.6,90,450.0,0.0634636431373694,[24400|0|0]
183,18300,1.2523270845413208,1.0742868185043335,0.0,0.0933604538440704,1.060590386390686,0.1553677916526794,4.1171875,2,"['A1', 'B2', 'F2']",7.6,90,450.0,0.063642302827823,[24500|0|0]
184,18400,1.2521510124206543,1.074628233909607,0.0,0.0865802094340324,1.0638200044631958,0.1624191850423813,4.1171875,2,"['A1', 'B2', 'F2']",7.6,90,450.0,0.0640264458619054,[24600|0|0]
185,18500,1.2522176504135132,1.0743814706802368,0.0,0.0915709286928176,1.0716429948806765,0.1469113677740097,4.11328125,2,"['A1', 'B2', 'F2']",7.6,90,450.0,0.064282048509508,[24700|0|0]
186,18600,1.252232313156128,1.0744585990905762,0.0,0.0871948525309562,1.0763540267944336,0.1161709874868393,4.1171875,2,"['A1', 'B2', 'F2']",7.6,90,450.0,0.0643605583031802,[24800|0|0]
187,18700,1.2521847486495972,1.0745781660079956,0.0,0.0814247280359268,1.0802574157714844,0.1140642315149307,4.1171875,2,"['A1', 'B2', 'F2']",7.6,90,450.0,0.0644892386436472,[24900|0|0]
188,18800,1.2521626949310305,1.074615240097046,0.0,0.0869498550891876,1.0805498361587524,0.1189183071255683,4.1171875,2,"['A1', 'B2', 'F2']",7.6,90,450.0,0.0645323762673825,[25000|0|0]
189,18900,1.2523459196090698,1.0748310089111328,0.0,0.0794470608234405,1.074063062667847,0.1014186218380928,4.1171875,2,"['A1', 'B2', 'F2']",7.6,90,450.0,0.0648154442164249,[25100|0|0]
190,19000,1.2524303197860718,1.0745549201965332,0.0,0.0924176201224327,1.068795919418335,0.0989848747849464,4.11328125,2,"['A1', 'B2', 'F2']",7.6,90,450.0,0.0651041453910107,[25200|0|0]
191,19100,1.2524380683898926,1.0742201805114746,0.0,0.0972576588392257,1.072121024131775,0.0894142687320709,4.1171875,2,"['A1', 'B2', 'F2']",7.6,90,450.0,0.0654389747469733,[25300|0|0]
192,19200,1.2521871328353882,1.0743560791015625,0.0,0.0943730250000953,1.0813249349594116,0.0943495333194732,4.1171875,2,"['A1', 'B2', 'F2']",7.6,90,450.0,0.0657243465733723,[25400|0|0]
193,19300,1.2522755861282349,1.0747708082199097,0.0,0.0831920057535171,1.0748480558395386,0.1023044064640998,4.1171875,2,"['A1', 'B2', 'F2']",7.6,90,450.0,0.0661484034405734,[25500|0|0]
194,19400,1.2523696422576904,1.074454426765442,0.0,0.0983780175447464,1.0749387741088867,0.122986689209938,4.1171875,2,"['A/E1', 'B2', 'C1']",7.6,90,450.0,0.0664784697675735,[25500|0|0]
195,19500,1.2518492937088013,1.0745035409927368,0.0,0.1466443687677383,1.1073929071426392,0.2997277379035949,3.18359375,2,"['A/E1', 'B2', 'C1']",7.6,90,450.0,0.0670011310533541,[25500|0|0]
196,19600,1.2488077878952026,1.08030366897583,0.0,-4.604447364807129,4.340561389923096,1.6900880336761477,3.546875,2,"['A/E1', 'B2', 'C1']",7.6,90,450.0,0.0735503479710028,[25500|0|0]
197,19700,1.237918496131897,1.1018638610839844,0.0152210965752601,-8.089424133300781,6.296060085296631,4.68175745010376,3.546875,2,"['A/E1', 'B2', 'C1']",7.6,90,450.0,0.1021003101391093,[25500|0|0]
198,19800,1.2228448390960691,1.1343692541122437,0.062189694494009,1.0001287460327148,-0.513500988483429,5.930339813232422,3.541015625,2,"['A/E1', 'B2', 'C1']",7.6,90,450.0,0.1611753886647318,[25500|0|0]
199,19900,1.2050549983978271,1.1734414100646973,0.1237897649407386,2.343761444091797,-1.2919511795043943,7.0489182472229,3.59375,2,"['A/E1', 'B2', 'C1']",7.6,90,450.0,0.236259877621398,[25500|0|0]
200,20000,1.1915743350982666,1.2122925519943235,0.1899195313453674,8.247373580932617,-1.9886329174041748,6.460360050201416,3.525390625,2,"['A/E1', 'B2', 'C1']",7.6,90,450.0,0.3141334001882041,[25500|0|0]
201,20100,1.1828359365463257,1.2425634860992432,0.2632198333740234,7.106443881988525,-2.576042652130127,5.288924217224121,3.578125,2,"['A/E1', 'B2', 'C1']",7.6,90,450.0,0.3939182567609218,[25500|0|0]
202,20200,1.1797807216644287,1.2665784358978271,0.338768869638443,7.518655776977539,-1.1751505136489868,6.158815860748291,3.53125,2,"['A/E1', 'B2', 'C1']",7.6,90,450.0,0.4732511568231637,[25500|0|0]
203,20300,1.1808170080184937,1.2786824703216553,0.4208168089389801,11.690519332885742,-2.292198896408081,5.814324378967285,3.525390625,2,"['A/E1', 'B2', 'C1']",7.6,90,450.0,0.5561935819276027,[25500|0|0]
204,20400,1.1875052452087402,1.275338649749756,0.5069849491119385,8.846919059753418,-0.998926877975464,4.867478847503662,3.59375,2,"['A/E1', 'B2', 'C1']",7.6,90,450.0,0.6426855586283156,[25500|0|0]
205,20500,1.1965819597244265,1.259068489074707,0.5958216786384583,5.943426609039307,0.6586354374885559,5.398432731628418,3.63671875,2,"['A/E1', 'B2', 'C1']",7.6,90,450.0,0.7334548782674932,[25500|0|0]
206,20600,1.205854415893555,1.2349382638931274,0.682070255279541,2.319526195526123,2.0180935859680176,6.252324104309082,3.658203125,2,"['A/E1', 'B2', 'C1']",7.6,90,450.0,0.8234941096243572,[25500|0|0]
207,20700,1.2123197317123413,1.209416747093201,0.7547723650932312,0.0991056561470031,2.107918262481689,6.436324119567871,3.65234375,2,"['A/E1', 'B2', 'C1']",7.6,90,450.0,0.9008164537414844,[25500|0|0]
208,20800,1.2154289484024048,1.1821414232254028,0.811165452003479,-1.135583758354187,2.043651819229126,5.573281288146973,3.658203125,2,"['A/E1', 'B2', 'C1']",7.6,90,450.0,0.9635363929297984,[25500|0|0]
209,20900,1.2143172025680542,1.1574052572250366,0.8532417416572571,-2.3771562576293945,1.0329896211624146,4.386263370513916,3.642578125,2,"['A/E1', 'B2', 'C1']",7.6,90,450.0,1.0123577820766314,[25500|0|0]
210,21000,1.2123384475708008,1.1351944208145142,0.8778920769691467,-2.9408273696899414,0.5169596672058105,3.454231023788452,3.626953125,2,"['A/E1', 'B2', 'C1']",7.6,90,450.0,1.0455974535007406,[25500|0|0]
211,21100,1.2081928253173828,1.1119771003723145,0.8992356061935425,-3.747436046600342,0.2299687266349792,2.5033955574035645,3.62109375,2,"['A/E1', 'B2', 'C1']",7.6,90,450.0,1.07740588622127,[25500|0|0]
212,21200,1.2039977312088013,1.0936342477798462,0.9088336825370787,-3.706695318222046,-0.0503873340785503,2.005079507827759,3.62109375,2,"['A/E1', 'B2', 'C1']",7.6,90,450.0,1.0985289098046784,[25500|0|0]
213,21300,1.200284481048584,1.0820070505142212,0.923437476158142,-3.4632275104522705,-0.0485642403364181,1.4588406085968018,3.62109375,2,"['A/E1', 'B2', 'C1']",7.6,90,450.0,1.117561795322453,[25500|0|0]
214,21400,1.1964844465255735,1.0678602457046509,0.9302826523780824,-3.0939137935638428,-0.2836228013038635,0.3187130987644195,3.642578125,2,"['A/E1', 'B2', 'C1']",7.6,90,450.0,1.1337305548969594,[25500|0|0]
215,21500,1.1948020458221436,1.061939001083374,0.9394241571426392,-2.974379777908325,-0.4893648326396942,-0.7456830739974976,3.626953125,2,"['A/E1', 'B2', 'C1']",7.6,90,450.0,1.1447513860521998,[25500|0|0]
216,21600,1.193543791770935,1.055286526679993,0.9438620209693908,-2.7155184745788574,-0.3884819447994232,-1.2787326574325562,3.62109375,2,"['A/E1', 'B2', 'C1']",7.6,90,450.0,1.1528466472765095,[25500|0|0]
217,21700,1.192855954170227,1.0481621026992798,0.9451574683189392,-2.6738951206207275,-0.2443830072879791,-1.5417300462722778,3.62109375,2,"['A/E1', 'B2', 'C1']",7.6,90,450.0,1.1601204854282257,[25500|0|0]
218,21800,1.1942576169967651,1.0455809831619265,0.9470220804214478,-3.121135234832764,0.295505166053772,-1.5210996866226196,3.615234375,2,"['A/E1', 'B2', 'C1']",7.6,90,450.0,1.1635995104408157,[25500|0|0]
219,21900,1.1959543228149414,1.045376181602478,0.9475509524345398,-2.3711538314819336,0.2224495112895965,-1.4543899297714231,3.615234375,2,"['A/E1', 'B2', 'C1']",7.6,90,450.0,1.1653884933693026,[25500|0|0]
220,22000,1.197898030281067,1.0474731922149658,0.9453765749931335,-2.702695369720459,0.6306589841842651,-1.1535344123840332,3.60546875,2,"['A/E1', 'B2', 'C1']",7.6,90,450.0,1.1689806194083574,[25500|0|0]
221,22100,1.1978909969329834,1.0525354146957395,0.9427558183670044,-2.125868558883667,0.764225423336029,-1.0584940910339355,3.611328125,2,"['A/E1', 'B2', 'C1']",7.6,90,450.0,1.174681015114467,[25500|0|0]
222,22200,1.197641134262085,1.0585854053497314,0.9392748475074768,-1.4032162427902222,0.3835144937038421,-1.295977234840393,3.615234375,2,"['A/E1', 'B2', 'C1']",7.6,90,450.0,1.1816654246380118,[25500|0|0]
223,22300,1.196509599685669,1.0656099319458008,0.937566876411438,-1.1670079231262207,0.4728148579597473,-1.5815578699111938,3.630859375,2,"['A/E1', 'B2', 'C1']",7.6,90,450.0,1.188982631049028,[25500|0|0]
224,22400,1.1942249536514282,1.074557900428772,0.9368059635162354,0.0698565393686294,0.7947146892547607,-1.3527268171310425,3.626953125,2,"['A/E1', 'B2', 'C1']",7.6,90,167.0,1.198248953723536,[25500|0|0]
225,22500,1.1903424263000488,1.0817911624908447,0.9389845728874208,3.684189796447754,0.4042584002017975,-0.181633248925209,3.431640625,2,"['A/E1', 'B2', 'C1']",7.6,90,167.0,1.2067425064245587,[25500|0|0]
226,22601,1.1906886100769043,1.0777173042297363,0.95182466506958,16.090091705322266,-6.094332218170166,2.6436500549316406,3.525390625,2,"['A/E1', 'B2', 'C1']",7.6,90,167.0,1.2202178220641011,[25500|0|0]
227,22701,1.2019695043563845,1.0431164503097534,0.9765817523002625,18.97542381286621,-3.789836645126343,6.955838203430176,3.537109375,2,"['A/E1', 'B2', 'C1']",7.6,90,167.0,1.2642336264516667,[25500|0|0]
228,22800,1.2248544692993164,0.9764367938041688,1.0110756158828735,13.467159271240234,-2.29205060005188,3.736111640930176,3.583984375,2,"['A/E1', 'B2', 'C1']",7.6,90,167.0,1.3427175409628438,[25500|0|0]
229,22900,1.2538551092147827,0.8891069293022156,1.05414617061615,7.257424831390381,0.2681973874568939,1.2683000564575195,3.630859375,2,"['A/E1', 'B2', 'C1']",7.6,90,167.0,1.444317811801401,[25500|0|0]
230,23001,1.281096339225769,0.7942814230918884,1.0999563932418823,-0.6493330001831055,1.7920820713043213,-0.0507938899099826,3.642578125,2,"['A/E1', 'B2', 'C1']",7.6,90,167.0,1.553095280688921,[25500|0|0]
231,23101,1.3052983283996582,0.7043406367301941,1.141839861869812,-6.443536281585693,3.705172061920166,-0.9820124506950378,3.642578125,2,"['A/E1', 'B2', 'C1']",7.6,90,167.0,1.6552192557175098,[25500|0|0]
232,23200,1.323099970817566,0.6278263330459595,1.1761369705200195,-9.218635559082031,4.252950191497803,-1.6118967533111572,3.630859375,2,"['A/E1', 'B2', 'C1']",7.6,90,167.0,1.7409375664966105,[25500|0|0]
233,23301,1.335100173950195,0.5682953596115112,1.1990790367126465,-10.460455894470217,4.291258811950684,-1.405502200126648,3.611328125,2,"['A/E1', 'B2', 'C1']",7.6,90,167.0,1.805855053158251,[25500|0|0]
234,23401,1.340807557106018,0.526549220085144,1.2135330438613892,-9.379125595092772,3.640056848526001,-1.2243293523788452,3.59375,2,"['A/E1', 'B2', 'C1']",7.6,90,167.0,1.850399780236752,[25500|0|0]
235,23501,1.34217631816864,0.4979699850082397,1.2204104661941528,-7.614104270935059,2.4006197452545166,-0.9653847813606262,3.568359375,2,"['A/E1', 'B2', 'C1']",7.6,90,167.0,1.8798267257522268,[25500|0|0]
236,23602,1.3393733501434326,0.4848425090312958,1.2227076292037964,-5.600551128387451,1.7027369737625122,-0.2580493688583374,3.55859375,2,"['A/E1', 'B2', 'C1']",7.6,90,167.0,1.8934452503848165,[25500|0|0]
237,23701,1.3352011442184448,0.4808236062526703,1.22458815574646,-2.9164295196533203,0.7896710634231567,0.3048949241638183,3.578125,2,"['A/E1', 'B2', 'C1']",7.6,90,167.0,1.89953583836154,[25500|0|0]
238,23801,1.3297595977783203,0.4809426367282867,1.225639581680298,-0.8348290324211121,0.1147025376558303,1.361316800117493,3.57421875,2,"['A/E1', 'B2', 'C1']",7.6,90,167.0,1.9050793113170528,[25500|0|0]
239,23902,1.324243664741516,0.4814205467700958,1.2280172109603882,0.0834020376205444,-0.2690951228141784,2.1239824295043945,3.57421875,2,"['A/E1', 'B2', 'C1']",7.6,90,167.0,1.911104843349008,[25500|0|0]
240,24002,1.3201496601104736,0.4800989329814911,1.229886770248413,0.5388556122779846,-0.2678883373737335,2.5410258769989014,3.583984375,2,"['A/E1', 'B2', 'C1']",7.6,90,167.0,1.9157955563925293,[25500|0|0]
241,24101,1.3163464069366455,0.4801074266433716,1.2329822778701782,0.1684803217649459,-0.3634868860244751,2.636901617050171,3.583984375,2,"['A/E1', 'B2', 'C1']",7.6,90,167.0,1.9206993278271431,[25500|0|0]
242,24202,1.3137701749801636,0.4791687428951263,1.2345778942108154,-0.02564537525177,-0.3584478795528412,2.6253538131713867,3.583984375,2,"['A/E1', 'B2', 'C1']",7.6,90,167.0,1.923871722786685,[25500|0|0]
243,24302,1.3113704919815063,0.4755397737026214,1.2346184253692627,-0.0146080981940031,-0.449155181646347,2.214684247970581,3.583984375,2,"['A/E1', 'B2', 'C1']",7.6,90,167.0,1.9282225317538773,[25500|0|0]
244,24400,1.3105608224868774,0.4754512012004852,1.2358936071395874,-0.1570445150136947,-0.4690464735031128,1.1461580991744995,3.58984375,2,"['A/E1', 'B2', 'C1']",7.6,90,167.0,1.929735640582097,[25500|0|0]
245,24500,1.3092142343521118,0.4726863205432892,1.233463168144226,-0.3209836781024933,-0.1885457336902618,0.2544979453086853,3.578125,2,"['A/E1', 'B2', 'C1']",7.6,90,167.0,1.9336554490421367,[25500|0|0]
246,24602,1.309402346611023,0.4704933166503906,1.2314611673355105,-0.3219366669654846,-0.3785143494606018,-0.3477053940296173,3.58984375,2,"['A/E1', 'B2', 'C1']",7.6,90,167.0,1.9366307909610287,[25500|0|0]
247,24700,1.3098748922348022,0.4695448279380798,1.2286421060562134,-0.3792195618152618,-0.2153114974498748,-0.4830069839954376,3.583984375,2,"['A/E1', 'B2', 'C1']",7.6,90,167.0,1.9396424411233764,[25500|0|0]
248,24800,1.3106889724731443,0.4691169559955597,1.2246273756027222,-0.338034987449646,-0.2374864965677261,-0.5270588994026184,3.58984375,2,"['A/E1', 'B2', 'C1']",7.6,90,167.0,1.9437611619985808,[25500|0|0]
249,24900,1.3116357326507568,0.4688707888126373,1.2199196815490725,-0.4273379445075989,0.1697298884391784,-0.6719890236854553,3.599609375,2,"['A/E1', 'B2', 'C1']",7.6,90,167.0,1.9485694191067888,[25500|0|0]
250,25000,1.3123915195465088,0.4697196185588836,1.2141733169555664,-0.3740320205688476,0.324177086353302,-0.8138934373855591,3.583984375,2,"['A/E1', 'B2', 'C1']",7.6,90,167.0,1.954427100543279,[25500|0|0]
251,25100,1.3125789165496826,0.4716683328151703,1.2075979709625244,-0.2744249403476715,0.0924096778035163,-0.7131474018096924,3.58984375,2,"['A/E1', 'B2', 'C1']",7.6,90,167.0,1.9612876967139967,[25500|0|0]
252,25200,1.3125828504562378,0.4745300114154815,1.202098369598389,-0.1565388143062591,0.0598231628537178,-0.7265833616256714,3.57421875,2,"['A/E1', 'B2', 'C1']",7.6,90,167.0,1.9674872801718997,[25500|0|0]
253,25300,1.3123137950897217,0.4766104221343994,1.1966770887374878,-0.0176688842475414,0.243624061346054,-0.5978052020072937,3.578125,2,"['A/E1', 'B2', 'C1']",7.6,90,167.0,1.97330026440742,[25500|0|0]
254,25400,1.3116981983184814,0.4776918292045593,1.192225217819214,0.2593127787113189,-0.0408632531762123,-0.4016289412975311,3.57421875,2,"['A/E1', 'B2', 'C1']",7.6,90,450.0,1.9779227697139747,[25500|0|0]
255,25500,1.3120777606964111,0.4810453951358795,1.1898488998413086,0.775761067867279,-0.1835373044013977,-0.4620542824268341,3.912109375,2,"['A/E1', 'B2', 'C1']",7.6,90,450.0,1.9820504033201185,[25500|0|0]
256,25600,1.310642957687378,0.4839138090610504,1.1578242778778076,0.5929296016693115,-0.4644987881183624,-1.6133424043655396,3.837890625,2,"['A/E1', 'B2', 'C1']",7.6,90,450.0,2.014235226917988,[25500|0|0]
257,25700,1.3088150024414062,0.4846207201480865,1.0850366353988647,-0.0886391699314117,-0.3647260963916778,-1.777653694152832,3.68359375,2,"['A/E1', 'B2', 'C1']",7.6,90,450.0,2.087049250576269,[25500|0|0]
258,25800,1.3075311183929443,0.4868189692497253,0.9838947057724,0.191035121679306,-0.6754529476165771,-1.267597198486328,3.599609375,2,"['A/E1', 'B2', 'C1']",7.6,90,450.0,2.1882232125720686,[25500|0|0]
259,25900,1.3072123527526855,0.4891902506351471,0.8661330342292786,-0.4494355022907257,0.5948348641395569,-0.8504731059074402,3.55859375,2,"['A/E1', 'B2', 'C1']",7.6,90,450.0,2.306009187422949,[25500|0|0]
260,26000,1.3072248697280884,0.4915324747562408,0.7437717914581299,-1.0629210472106934,0.6097773909568787,1.0943611860275269,3.568359375,2,"['A/E1', 'B2', 'C1']",7.6,90,450.0,2.4283928460666098,[25500|0|0]
261,26100,1.3067961931228638,0.4973599016666412,0.6210456490516663,-2.553837776184082,-1.760254144668579,5.141104221343994,3.58984375,2,"['A/E1', 'B2', 'C1']",7.6,90,450.0,2.5512580107716616,[25500|0|0]
262,26200,1.3096392154693604,0.5074790120124817,0.4997925460338592,4.10300350189209,-1.3435263633728027,10.290210723876951,3.63671875,2,"['A/E1', 'B2', 'C1']",7.6,90,450.0,2.672965833698953,[25500|0|0]
263,26300,1.3195257186889648,0.5177423357963562,0.3760005831718445,-0.7387914657592773,-0.4002094864845276,13.893143653869627,3.537109375,2,"['A/E1', 'B2', 'C1']",7.6,90,450.0,2.7975753390756872,[25500|0|0]
264,26400,1.32853364944458,0.5309981107711792,0.2545363903045654,-5.058371543884277,8.37025260925293,18.46444129943848,3.53125,2,"['A/E1', 'B2', 'C1']",7.6,90,450.0,2.9200923115145323,[25500|0|0]
265,26500,1.3315060138702393,0.5450982451438904,0.1464457064867019,-7.603410720825195,9.499506950378418,21.01541328430176,3.484375,2,"['A/E1', 'B2', 'C1']",7.6,90,450.0,3.029139295277591,[25500|0|0]
266,26600,1.315643072128296,0.5675208568572998,0.0405111350119113,2.35073471069336,5.085458755493164,22.59503555297852,3.478515625,2,"['A/E1', 'B2', 'C1']",7.6,90,450.0,3.138576674039631,[25500|0|0]
267,26700,1.300964593887329,0.593289852142334,3.026460763067007e-05,-13.903627395629885,-7.27599287033081,29.301868438720703,3.658203125,2,"['A/E1', 'B2', 'C1']",7.6,90,450.0,3.188758341111967,[25500|0|0]
268,26800,1.2761342525482178,0.6258941888809204,0.0185001716017723,-9.71124267578125,10.986348152160645,39.58404922485352,3.611328125,2,"['A/E1', 'B2', 'C1']",7.6,90,450.0,3.233710828134958,[25500|0|0]
269,26900,1.2421109676361084,0.6571092009544373,0.0195518657565116,15.807687759399414,5.994639873504639,32.16593551635742,3.484375,2,"['A/E1', 'B2', 'C1']",7.6,90,450.0,3.279895965956074,[25500|0|0]
270,27000,1.2163854837417605,0.6709519028663635,0.0094708353281021,20.31722450256348,-9.232927322387695,22.073631286621094,3.44140625,2,"['A/E1', 'B2', 'C1']",7.6,90,450.0,3.3107998183424567,[25500|0|0]
271,27100,1.213672161102295,0.66124027967453,0.0,16.2684326171875,-11.094874382019045,7.85869550704956,3.478515625,2,"['A/E1', 'B2', 'C1']",7.6,90,450.0,3.3246336343950875,[25500|0|0]
272,27200,1.2313321828842163,0.6300880312919617,0.0,12.58720874786377,-8.886022567749023,1.5960571765899658,3.47265625,2,"['A/E1', 'B2', 'C1']",7.6,90,450.0,3.360443394916867,[25500|0|0]
273,27300,1.2622957229614258,0.5831347703933716,0.0042007402516901,5.114898681640625,-4.694314479827881,-2.075035572052002,3.484375,2,"['A/E1', 'B2', 'C1']",7.6,90,450.0,3.4168437117757837,[25500|0|0]
274,27400,1.2835161685943604,0.5294657349586487,0.0421892665326595,35.86610412597656,-24.683687210083008,6.698482036590576,3.7265625,2,"['A/E1', 'B2', 'C1']",7.6,90,450.0,3.4859364089756597,[25500|0|0]
275,27500,1.316859245300293,0.4538445770740509,0.0758087635040283,41.2567253112793,-21.12678337097168,16.7825870513916,3.716796875,2,"['A/E1', 'B2', 'C1']",7.6,90,450.0,3.5751585523069696,[25500|0|0]
276,27600,1.3374704122543335,0.4443804621696472,0.0227256156504154,-4.42181396484375,6.239932060241699,13.122947692871094,3.57421875,2,"['A/E1', 'B2', 'C1']",7.6,90,450.0,3.632883852307746,[25500|0|0]
277,27700,1.362679123878479,0.390955775976181,0.0055761826224625,-24.99387550354004,11.676945686340332,9.567028999328612,3.44140625,2,"['A/E1', 'B2', 'C1']",7.6,90,450.0,3.6943962843016114,[25500|0|0]
278,27800,1.3942424058914185,0.3538275957107544,0.0021522352471947,-8.763042449951172,-4.670342445373535,1.1577606201171875,3.419921875,2,"['A/E1', 'B2', 'C1']",7.6,90,450.0,3.743247752620168,[25500|0|0]
279,27900,1.4316937923431396,0.3370909988880157,0.0200614761561155,-18.474090576171875,11.868145942687988,2.979106903076172,3.478515625,2,"['A/E1', 'B2', 'C1']",7.6,90,450.0,3.78800778982186,[25500|0|0]
280,28000,1.4593771696090698,0.3381958305835724,0.0411108583211898,-11.507094383239746,16.699920654296875,-0.689016580581665,3.494140625,2,"['A/E1', 'B2', 'C1']",7.6,90,450.0,3.822802423308285,[25500|0|0]
281,28100,1.4713525772094729,0.3524775207042694,0.0619458295404911,-4.94801664352417,15.904647827148438,-5.31496000289917,3.515625,2,"['A/E1', 'B2', 'C1']",7.6,90,450.0,3.8507572634188727,[25500|0|0]
282,28200,1.4665815830230713,0.3707799315452575,0.0796306133270263,-1.115443229675293,10.491583824157717,-9.25759220123291,3.509765625,2,"['A/E1', 'B2', 'C1']",7.6,90,450.0,3.876651127666905,[25500|0|0]
283,28300,1.4535436630249023,0.389944463968277,0.091587945818901,0.2320951521396637,5.171911239624023,-12.446290969848633,3.494140625,2,"['A/E1', 'B2', 'C1']",7.6,90,450.0,3.902732624195916,[25500|0|0]
284,28400,1.437934160232544,0.4072044789791107,0.0980826988816261,1.460129737854004,3.063438653945923,-13.321309089660645,3.478515625,2,"['A/E1', 'B2', 'C1']",7.6,90,450.0,3.926893470889371,[25500|0|0]
285,28500,1.4233840703964231,0.4234886765480041,0.0990340784192085,0.3582271039485931,0.6886555552482605,-11.921438217163086,3.537109375,2,"['F1', 'B2', 'B1']",7.6,90,450.0,3.948751772006486,[25500|100|0]
286,28600,1.4135186672210691,0.4381215274333954,0.0964944139122963,2.680556058883667,-0.4121249318122864,-9.684539794921877,3.515625,2,"['F1', 'B2', 'B1']",7.6,90,450.0,3.966581421488572,[25500|200|0]
287,28700,1.4081240892410278,0.4499892890453338,0.0893544778227806,0.9187439680099488,1.1091820001602173,-7.92461633682251,3.505859375,2,"['F1', 'B2', 'B1']",7.6,90,450.0,3.981444931323834,[25500|300|0]
288,28800,1.4044023752212524,0.4607527554035187,0.0820365101099014,-0.1531850397586822,-0.1001330539584159,-7.91296911239624,3.5,2,"['F1', 'B2', 'B1']",7.6,90,450.0,3.994982139852017,[25500|400|0]
289,28900,1.4030216932296753,0.4722632467746734,0.0739837139844894,2.0371410846710205,1.6926013231277466,-7.575897693634033,3.494140625,2,"['F1', 'B2', 'B1']",7.6,90,450.0,4.009097564741291,[25500|500|0]
290,29000,1.4007713794708252,0.4835484623908996,0.0676879212260246,-0.903135359287262,1.3522017002105713,-6.66263484954834,3.505859375,2,"['F1', 'B2', 'B1']",7.6,90,450.0,4.022214615094763,[25500|600|0]
291,29100,1.4001511335372925,0.4934949874877929,0.0635397061705589,1.5788674354553225,0.6785119771957397,-7.400780200958252,3.5,2,"['F1', 'B2', 'B1']",7.6,90,450.0,4.033009324663231,[25500|700|0]
292,29200,1.4004809856414795,0.5011959075927734,0.0614204108715057,-0.0790199935436248,1.4045127630233765,-8.011484146118164,3.505859375,2,"['F1', 'B2', 'B1']",7.6,90,450.0,4.041003346519501,[25500|800|0]
293,29300,1.4019838571548462,0.5074163675308228,0.0610150098800659,-0.8818155527114868,0.3632698655128479,-8.089649200439453,3.515625,2,"['F1', 'B2', 'B1']",7.6,90,450.0,4.047415607789165,[25500|900|0]
294,29400,1.4033288955688477,0.5146141052246094,0.0608625039458274,-0.1182274222373962,2.0157546997070312,-8.452171325683594,3.5,2,"['F1', 'B2', 'B1']",7.6,90,450.0,4.054739528481231,[25500|1000|0]
295,29500,1.4027758836746216,0.5238479375839233,0.0624663941562175,-1.3504027128219604,-0.0272578075528144,-8.823213577270508,3.494140625,2,"['F1', 'B2', 'B1']",7.6,90,450.0,4.064127922699735,[25500|1100|0]
296,29600,1.4008207321166992,0.534727156162262,0.062420230358839,-0.9799432754516602,1.3996042013168335,-8.600334167480469,3.515625,2,"['F1', 'B2', 'B1']",7.6,90,450.0,4.075181525984904,[25500|1200|0]
297,29700,1.3963427543640137,0.5487403869628906,0.0625331625342369,-1.2323408126831057,2.1740610599517822,-7.459968090057373,3.515625,2,"['F1', 'B2', 'B1']",7.6,90,450.0,4.089893278970238,[25500|1300|0]
298,29800,1.3886038064956665,0.5655863285064697,0.0603628270328044,-0.1637463271617889,0.4619560241699219,-6.245041370391846,3.48828125,2,"['F1', 'B2', 'B1']",7.6,90,450.0,4.108558418047873,[25500|1400|0]
299,29900,1.380651354789734,0.5840151906013489,0.0593686215579509,0.1604059040546417,0.5632487535476685,-5.147188663482666,3.5,2,"['F1', 'B2', 'B1']",7.6,90,450.0,4.128654509478136,[25500|1500|0]
300,30000,1.3728835582733154,0.6029328107833862,0.058405976742506,-1.068443775177002,-0.5446938276290894,-4.331616401672363,3.484375,2,"['F1', 'B2', 'B1']",7.6,90,450.0,4.149127459952189,[25500|1600|0]
301,30100,1.365864872932434,0.6224724650382996,0.0577409006655216,0.9983211755752563,0.8437640070915222,-3.4826648235321045,3.48828125,2,"['F1', 'B2', 'B1']",7.6,90,450.0,4.169900094799604,[25500|1700|0]
302,30200,1.3575693368911743,0.6425362825393677,0.058160625398159,-0.7311210036277771,0.3119469285011291,-3.3639955520629883,3.47265625,2,"['F1', 'B2', 'B1']",7.6,90,450.0,4.191615270593946,[25500|1800|0]
303,30300,1.3503960371017456,0.6633725166320801,0.0603393167257308,0.256590873003006,0.1262833923101425,-3.502047061920166,3.5,2,"['F1', 'B2', 'B1']",7.6,90,450.0,4.213759154104662,[25500|1900|0]
304,30400,1.3423556089401243,0.6851977109909058,0.0609434023499488,0.6685062646865845,0.1142096444964408,-2.6219322681427,4.0078125,2,"['F1', 'B2', 'B1']",7.6,90,450.0,4.237026137434352,[25500|2000|0]
305,30500,1.337335228919983,0.7048746347427368,0.0261649377644062,7.2088212966918945,-4.835116863250732,-0.1812733113765716,4.0078125,2,"['F1', 'B2', 'B1']",7.6,90,450.0,4.277299294037849,[25500|2100|0]
306,30600,1.3318339586257937,0.7242171168327332,0.0,-0.1936710327863693,1.959844708442688,-3.4352023601531982,4.015625,2,"['F1', 'B2', 'B1']",7.6,90,450.0,4.310299287317648,[25500|2200|0]
307,30700,1.3314272165298462,0.7311211824417114,0.0,-0.4997272491455078,-1.0241529941558838,-5.725213527679443,4.015625,2,"['F1', 'B2', 'B1']",7.6,90,450.0,4.317215323831844,[25500|2300|0]
308,30800,1.332083821296692,0.7316573262214661,0.0,-0.3100573420524597,-1.0389196872711182,-5.702391624450684,4.0234375,2,"['F1', 'B2', 'B1']",7.6,90,450.0,4.318063014797004,[25500|2400|0]
309,30900,1.3316773176193235,0.7316495180130005,0.0,-0.1110051721334457,-1.050655961036682,-5.704738616943359,4.0234375,2,"['F1', 'B2', 'B1']",7.6,90,450.0,4.318469593458315,[25500|2500|0]
310,31000,1.3312729597091677,0.7316639423370361,0.0,0.2125418484210968,-0.9493172764778136,-5.717543125152588,4.0234375,2,"['F1', 'B2', 'B1']",7.6,90,450.0,4.318874208560145,[25500|2600|0]
311,31100,1.3312231302261353,0.7316147685050964,0.0,0.5557276606559753,-0.8072298169136047,-5.654129981994629,4.0234375,2,"['F1', 'B2', 'B1']",7.6,90,450.0,4.318944216010656,[25500|2700|0]
312,31200,1.3255975246429443,0.7262915968894958,0.0,4.669280529022217,-0.2798260450363159,-7.040672779083252,4.02734375,2,"['F1', 'B2', 'B1']",7.6,90,450.0,4.326689123642562,[25500|2800|0]
313,31300,1.3288074731826782,0.7246107459068298,0.0,0.2475314289331436,13.060251235961914,-15.647714614868164,4.02734375,2,"['F1', 'B2', 'B1']",7.6,90,450.0,4.330312523931472,[25500|2900|0]
