,time.ms,stateEstimate.x,stateEstimate.y,stateEstimate.z,stabilizer.roll,stabilizer.pitch,stabilizer.yaw,pm.vbat,drone_id,node_name,wind_speed,global_wind_direction,relative_wind_direction,travel_dist,waiting_time
0,0,1.6887811422348022,1.1424503326416016,-0.0286023691296577,-0.3656880557537079,0.94015371799469,4.886603355407715,4.1484375,0,"['A1', 'B2', 'F2']",7.6,180,0.0,0.0750602206626617,[100|0|0]
1,100,1.6888692378997805,1.1426286697387695,-0.0281966365873813,-0.1185695454478263,0.1080209985375404,4.740666389465332,4.1484375,0,"['A1', 'B2', 'F2']",7.6,180,0.0,0.0755120877474071,[200|0|0]
2,200,1.6890007257461548,1.1420128345489502,-0.028667764738202,-0.2524719834327698,0.2709406912326813,5.025455951690674,4.1484375,0,"['A1', 'B2', 'F2']",7.6,180,0.0,0.0762985378534276,[300|0|0]
3,300,1.6891825199127195,1.1423324346542358,-0.0283669605851173,-0.404660552740097,0.4612277150154114,5.063481330871582,4.1484375,0,"['A1', 'B2', 'F2']",7.6,180,0.0,0.0767735920448718,[400|0|0]
4,400,1.6888548135757446,1.1426966190338137,-0.0285159759223461,-0.4880122542381286,0.673172652721405,5.102820873260498,4.1484375,0,"['A1', 'B2', 'F2']",7.6,180,0.0,0.0772856733629761,[500|0|0]
5,500,1.6890156269073486,1.1423600912094116,-0.028800219297409,-0.4703426957130432,0.7744516134262085,5.080865383148193,4.1484375,0,"['A1', 'B2', 'F2']",7.6,180,0.0,0.0777546149376796,[600|0|0]
6,600,1.6888412237167358,1.142269492149353,-0.0285310987383127,-0.471506118774414,0.8559678196907043,5.09587287902832,4.1484375,0,"['A1', 'B2', 'F2']",7.6,180,0.0,0.0780878573988212,[700|0|0]
7,700,1.6886022090911863,1.1423349380493164,-0.0285732578486204,-0.4665025770664215,0.904069185256958,5.058800220489502,4.1484375,0,"['A1', 'B2', 'F2']",7.6,180,0.0,0.0783392307220487,[800|0|0]
8,800,1.6891037225723269,1.142651081085205,-0.0286816712468862,-0.4561998844146728,0.9109587073326112,5.048007488250732,4.1484375,0,"['A1', 'B2', 'F2']",7.6,180,0.0,0.0789419044777655,[900|0|0]
9,900,1.6887987852096558,1.1424330472946167,-0.0286106951534748,-0.4399629533290863,0.931672990322113,5.0147809982299805,4.1484375,0,"['A1', 'B2', 'F2']",7.6,180,0.0,0.0793234318487717,[1000|0|0]
10,1000,1.688691020011902,1.1427994966506958,-0.0285794790834188,-0.4378817081451416,0.9428985714912416,4.9933929443359375,4.1484375,0,"['A1', 'B2', 'F2']",7.6,180,0.0,0.0797066718668381,[1100|0|0]
11,1100,1.6885390281677246,1.1426925659179688,-0.0285192113369703,-0.4397207200527191,0.943018674850464,4.952178001403809,4.1484375,0,"['A1', 'B2', 'F2']",7.6,180,0.0,0.0799020379426033,[1200|0|0]
12,1200,1.6888927221298218,1.1426596641540527,-0.0285561103373765,-0.4248245656490326,0.948732316493988,4.967026710510254,4.1484375,0,"['A1', 'B2', 'F2']",7.6,180,0.0,0.0802591702445921,[1300|0|0]
13,1300,1.6888662576675415,1.1425187587738037,-0.0285173375159502,-0.411946028470993,0.9589501023292542,4.946474075317383,4.1484375,0,"['A1', 'B2', 'F2']",7.6,180,0.0,0.0804076896898788,[1400|0|0]
14,1400,1.6889859437942505,1.1425819396972656,-0.0289693344384431,-0.4084452092647552,0.9674142599105836,4.943777561187744,4.1484375,0,"['A1', 'B2', 'F2']",7.6,180,0.0,0.080879513614621,[1500|0|0]
15,1500,1.6887081861495972,1.1426937580108645,-0.0287684462964534,-0.4140514731407165,0.9739189743995668,4.928127288818359,4.1484375,0,"['A1', 'B2', 'F2']",7.6,180,0.0,0.0812400807928437,[1600|0|0]
16,1600,1.6885161399841309,1.1426620483398438,-0.0286701992154121,-0.4043689668178558,0.982377827167511,4.909549713134766,4.1484375,0,"['A1', 'B2', 'F2']",7.6,180,0.0,0.0814581168491273,[1700|0|0]
17,1700,1.6886568069458008,1.142716646194458,-0.0290278252214193,-0.3967133462429046,0.9735347628593444,4.908669471740723,4.1484375,0,"['A1', 'B2', 'F2']",7.6,180,0.0,0.0818462720758171,[1800|0|0]
18,1800,1.6886701583862305,1.1422027349472046,-0.0284069888293743,-0.3783551454544067,0.9789471626281738,4.908735275268555,4.1484375,0,"['A1', 'B2', 'F2']",7.6,180,0.0,0.0826523247147325,[1900|0|0]
19,1900,1.6886194944381714,1.1423964500427246,-0.0288952123373746,-0.385316252708435,0.9782240986824036,4.896509647369385,4.1484375,0,"['A1', 'B2', 'F2']",7.6,180,0.0,0.0831800126600463,[2000|0|0]
20,2000,1.6885546445846558,1.142688870429993,-0.0285187941044569,-0.4070948660373688,0.9665627479553224,4.899497032165527,4.1484375,0,"['A1', 'B2', 'F2']",7.6,180,0.0,0.0836610593027577,[2100|0|0]
21,2100,1.6885313987731934,1.1425687074661257,-0.0285826884210109,-0.3951263427734375,0.9636682271957396,4.908527851104736,4.1484375,0,"['A1', 'B2', 'F2']",7.6,180,0.0,0.0837991244660822,[2200|0|0]
22,2200,1.6886601448059082,1.1424567699432373,-0.0286113321781158,-0.3839364945888519,0.9557426571846008,4.93699312210083,4.1484375,0,"['A1', 'B2', 'F2']",7.6,180,0.0,0.083972115838096,[2300|0|0]
23,2300,1.6887578964233398,1.14269757270813,-0.0286011323332786,-0.3896657824516296,0.945724070072174,4.939255237579346,4.1484375,0,"['A1', 'B2', 'F2']",7.6,180,0.0,0.0842322031063833,[2400|0|0]
24,2400,1.6884605884552002,1.1422168016433716,-0.0287169683724641,-0.3722769916057586,0.9514294862747192,4.929043292999268,4.1484375,0,"['A1', 'B2', 'F2']",7.6,180,0.0,0.0848092220251393,[2500|0|0]
25,2500,1.6884244680404663,1.1423989534378052,-0.0286541897803545,-0.3708868622779846,0.9505907893180848,4.946373462677002,4.1484375,0,"['A1', 'B2', 'F2']",7.6,180,0.0,0.0850052452691773,[2600|0|0]
26,2600,1.6885610818862915,1.1423468589782717,-0.0283239893615245,-0.3639158904552459,0.941902220249176,4.916035175323486,4.1484375,0,"['A1', 'B2', 'F2']",7.6,180,0.0,0.0853663678137251,[2700|0|0]
27,2700,1.6887344121932983,1.1424007415771484,-0.0285791438072919,-0.3644437193870544,0.932927906513214,4.908712387084961,4.1484375,0,"['A1', 'B2', 'F2']",7.6,180,0.0,0.0856794980118595,[2800|0|0]
28,2800,1.688750147819519,1.142552137374878,-0.0286774281412363,-0.3674599230289459,0.933491051197052,4.897434711456299,4.1484375,0,"['A1', 'B2', 'F2']",7.6,180,0.0,0.0858606832976903,[2900|0|0]
29,2900,1.688533902168274,1.1422055959701538,-0.0286839287728071,-0.3560131192207336,0.938060462474823,4.92609167098999,4.1484375,0,"['A1', 'B2', 'F2']",7.6,180,0.0,0.086269211613822,[3000|0|0]
30,3000,1.688833475112915,1.1423593759536743,-0.028827616944909,-0.3518219292163849,0.9269129633903505,4.9283623695373535,4.1484375,0,"['A1', 'B2', 'F2']",7.6,180,0.0,0.0866353243332057,[3100|0|0]
31,3100,1.6891275644302368,1.1425704956054688,-0.0287319738417863,-0.3573576211929321,0.9217832684516908,4.948314666748047,4.1484375,0,"['A1', 'B2', 'F2']",7.6,180,0.0,0.0870097674358416,[3200|0|0]
32,3200,1.6887117624282837,1.142298936843872,-0.0287372004240751,-0.3496904969215393,0.9376937747001648,4.934078693389893,4.1484375,0,"['A1', 'B2', 'F2']",7.6,180,0.0,0.0875064190068554,[3300|0|0]
33,3300,1.68853759765625,1.142202615737915,-0.0289215371012687,-0.3483978509902954,0.9426472783088684,4.922260284423828,4.1484375,0,"['A1', 'B2', 'F2']",7.6,180,0.0,0.0877776958651186,[3400|0|0]
34,3400,1.6885654926300049,1.1421815156936646,-0.0286026895046234,-0.3489014804363251,0.9454628229141236,4.91463565826416,4.1484375,0,"['A1', 'B2', 'F2']",7.6,180,0.0,0.0880984561047286,[3500|0|0]
35,3500,1.6887061595916748,1.142282247543335,-0.0285385437309741,-0.3549985587596893,0.9415001273155212,4.888455390930176,4.1484375,0,"['A1', 'B2', 'F2']",7.6,180,0.0,0.0882829792195964,[3600|0|0]
36,3600,1.6888078451156616,1.1425069570541382,-0.0288217980414628,-0.3657756745815277,0.9408479332923888,4.895248889923096,4.1484375,0,"['A1', 'B2', 'F2']",7.6,180,0.0,0.0886585685091726,[3700|0|0]
37,3700,1.6886069774627686,1.1427322626113892,-0.0287793539464473,-0.3728449046611786,0.95073401927948,4.880202770233154,4.1484375,0,"['A1', 'B2', 'F2']",7.6,180,0.0,0.0889633830582162,[3800|0|0]
38,3800,1.6886857748031616,1.1423317193984983,-0.0288994032889604,-0.3577158749103546,0.9513046145439148,4.894711971282959,4.1484375,0,"['A1', 'B2', 'F2']",7.6,180,0.0,0.0893888894986887,[3900|0|0]
39,3900,1.6889607906341553,1.1425137519836426,-0.0286873709410429,-0.3622330725193023,0.94883531332016,4.913478851318359,4.1484375,0,"['A1', 'B2', 'F2']",7.6,180,0.0,0.0897809702122092,[4000|0|0]
40,4000,1.688692927360535,1.142353653907776,-0.0290999226272106,-0.3622419238090515,0.958511471748352,4.924525737762451,4.1484375,0,"['A1', 'B2', 'F2']",7.6,180,0.0,0.0902982525538862,[4100|0|0]
41,4100,1.689033269882202,1.142629623413086,-0.0287483613938093,-0.3693228662014007,0.9533069729804992,4.934271335601807,4.1484375,0,"['A1', 'B2', 'F2']",7.6,180,0.0,0.0908600243053535,[4200|0|0]
42,4200,1.6887993812561035,1.1425920724868774,-0.0285807661712169,-0.3715615272521972,0.9654520153999328,4.960011959075928,4.1484375,0,"['A1', 'B2', 'F2']",7.6,180,0.0,0.0911502003210978,[4300|0|0]
43,4300,1.6886976957321167,1.1425645351409912,-0.0286107473075389,-0.3721993267536163,0.9667860269546508,4.950309753417969,4.1484375,0,"['A1', 'B2', 'F2']",7.6,180,0.0,0.0912597316852913,[4400|0|0]
44,4400,1.6888201236724854,1.1424601078033447,-0.028590764850378,-0.370806485414505,0.9592663049697876,4.93411111831665,4.1484375,0,"['A1', 'B2', 'F2']",7.6,180,0.0,0.0914218827507366,[4500|0|0]
45,4500,1.6888548135757446,1.1421325206756592,-0.0285476986318826,-0.3651235401630401,0.9498925805091858,4.907646656036377,4.1484375,0,"['A1', 'B2', 'F2']",7.6,180,0.0,0.0917541046867807,[4600|0|0]
46,4600,1.6886605024337769,1.1422648429870603,-0.0285499226301908,-0.3719292283058166,0.9609305262565612,4.895443439483643,4.1484375,0,"['A1', 'B2', 'F2']",7.6,180,0.0,0.0919892024540093,[4700|0|0]
47,4700,1.6889241933822632,1.1423901319503784,-0.0287609621882438,-0.3728907108306885,0.9591311812400818,4.907964706420898,4.1484375,0,"['A1', 'B2', 'F2']",7.6,180,0.0,0.0923494356225351,[4800|0|0]
48,4800,1.6884278059005735,1.1422574520111084,-0.0287143588066101,-0.3711471855640411,0.9739108681678772,4.923908233642578,4.1484375,0,"['A1', 'B2', 'F2']",7.6,180,0.0,0.0928653584592485,[4900|0|0]
49,4900,1.688899040222168,1.1424193382263184,-0.0287689175456762,-0.3857209682464599,0.9479522109031676,4.915393829345703,4.1484375,0,"['A1', 'B2', 'F2']",7.6,180,0.0,0.0933666025001426,[5000|0|0]
50,5000,1.6886097192764282,1.1424506902694702,-0.0284222792834043,-0.3813509047031402,0.96497642993927,4.924023151397705,4.1484375,0,"['A1', 'B2', 'F2']",7.6,180,0.0,0.0938192034779634,[5100|0|0]
51,5100,1.688834309577942,1.1425530910491943,-0.028505491092801,-0.3859634399414062,0.958781361579895,4.9213032722473145,4.1484375,0,"['A1', 'B2', 'F2']",7.6,180,0.0,0.0940796855856891,[5200|0|0]
52,5200,1.6886234283447266,1.1424301862716677,-0.0286992602050304,-0.3821054995059967,0.9672515392303468,4.9195404052734375,4.1484375,0,"['A1', 'B2', 'F2']",7.6,180,0.0,0.0943913311338933,[5300|0|0]
53,5300,1.688755989074707,1.142491102218628,-0.0284213349223136,-0.3836317956447601,0.9636080265045166,4.9502272605896,4.1484375,0,"['A1', 'B2', 'F2']",7.6,180,0.0,0.0947052189522301,[5400|0|0]
54,5400,1.6887667179107666,1.1424492597579956,-0.0286269634962081,-0.3809131383895874,0.9682320952415466,4.906803131103516,4.1484375,0,"['A1', 'B2', 'F2']",7.6,180,0.0,0.0949153356099154,[5500|0|0]
55,5500,1.6887400150299072,1.1427005529403689,-0.0285792369395494,-0.3843301832675934,0.9628598093986512,4.920204162597656,4.1484375,0,"['A1', 'B2', 'F2']",7.6,180,0.0,0.0951725109033708,[5600|0|0]
56,5600,1.6886130571365356,1.142462134361267,-0.028816495090723,-0.3734370172023773,0.9634068012237548,4.9244465827941895,4.1484375,0,"['A1', 'B2', 'F2']",7.6,180,0.0,0.0955320288526424,[5700|0|0]
57,5700,1.688571214675903,1.1429115533828735,-0.0285800900310277,-0.3925034999847412,0.9543527364730836,4.939661502838135,4.1484375,0,"['A1', 'B2', 'F2']",7.6,180,0.0,0.0960415537300949,[5800|0|0]
58,5800,1.688550353050232,1.141890048980713,-0.0289884712547063,-0.3631168901920318,0.9642406105995178,4.945548057556152,4.1484375,0,"['A1', 'B2', 'F2']",7.6,180,0.0,0.0971418635386999,[5900|0|0]
59,5900,1.6886115074157717,1.142211675643921,-0.0285515803843736,-0.3653828501701355,0.958009958267212,4.924635410308838,4.1484375,0,"['A1', 'B2', 'F2']",7.6,180,0.0,0.0976878096894245,[6000|0|0]
60,6000,1.6886885166168213,1.1421921253204346,-0.028437091037631,-0.3656851649284363,0.9559450149536132,4.911277770996094,4.1484375,0,"['A1', 'B2', 'F2']",7.6,180,0.0,0.0978271669379346,[6100|0|0]
61,6100,1.6886674165725708,1.142450928688049,-0.0286757536232471,-0.3660377562046051,0.953487753868103,4.881040096282959,4.1484375,0,"['A1', 'B2', 'F2']",7.6,180,0.0,0.0981798484156578,[6200|0|0]
62,6200,1.6886918544769287,1.142348289489746,-0.0286473594605922,-0.363250583410263,0.9487457871437072,4.879992961883545,4.1484375,0,"['A1', 'B2', 'F2']",7.6,180,0.0,0.0982891106903486,[6300|0|0]
63,6300,1.6883686780929563,1.142194747924805,-0.0287276562303304,-0.3658994734287262,0.9587182998657228,4.848926544189453,4.1484375,0,"['A1', 'B2', 'F2']",7.6,180,0.0,0.0986558061478503,[6400|0|0]
64,6400,1.6887309551239014,1.142150640487671,-0.0286825709044933,-0.3667898774147033,0.9547942280769348,4.871055603027344,4.1484375,0,"['A1', 'B2', 'F2']",7.6,180,0.0,0.0990235326763556,[6500|0|0]
65,6500,1.6889160871505735,1.142298698425293,-0.0288560222834348,-0.3691819310188293,0.9492680430412292,4.890482902526856,4.1484375,0,"['A1', 'B2', 'F2']",7.6,180,0.0,0.099317267933091,[6600|0|0]
66,6600,1.6884647607803345,1.1424211263656616,-0.0285581853240728,-0.3683714270591736,0.9580078125,4.880725860595703,4.1484375,0,"['A1', 'B2', 'F2']",7.6,180,0.0,0.0998716964202905,[6700|0|0]
67,6700,1.6889864206314087,1.1426548957824707,-0.0287680644541978,-0.3740566074848175,0.9353708624839784,4.914205551147461,4.1484375,0,"['A1', 'B2', 'F2']",7.6,180,0.0,0.1004806515826137,[6800|0|0]
68,6800,1.6885358095169067,1.142195463180542,-0.0290323439985513,-0.361421525478363,0.9519713521003724,4.901844024658203,4.1484375,0,"['A1', 'B2', 'F2']",7.6,180,0.0,0.1011763328097511,[6900|0|0]
69,6900,1.6890053749084473,1.14240562915802,-0.0288894735276699,-0.361186534166336,0.9403836131095886,4.919217586517334,4.1484375,0,"['A1', 'B2', 'F2']",7.6,180,0.0,0.1017102554319275,[7000|0|0]
70,7000,1.6887388229370115,1.1425145864486694,-0.0286745782941579,-0.3841267824172973,0.9375344514846802,4.918193817138672,4.1484375,0,"['A1', 'B2', 'F2']",7.6,180,0.0,0.1020695625513226,[7100|0|0]
71,7100,1.688801646232605,1.1421794891357422,-0.0287870578467845,-0.3669981658458709,0.9395490288734436,4.915340900421143,4.1484375,0,"['A1', 'B2', 'F2']",7.6,180,0.0,0.1024285731714431,[7200|0|0]
72,7200,1.6888610124588013,1.1423556804656982,-0.0282400157302618,-0.3646330833435058,0.9370359778404236,4.931856155395508,4.1484375,0,"['A1', 'B2', 'F2']",7.6,180,0.0,0.1030063471850628,[7300|0|0]
73,7300,1.68890643119812,1.1425795555114746,-0.0288120247423648,-0.3739750385284424,0.936278998851776,4.937953948974609,4.1484375,0,"['A1', 'B2', 'F2']",7.6,180,0.0,0.1036222832271401,[7400|0|0]
74,7400,1.6884698867797852,1.1422781944274902,-0.0285683069378137,-0.3727546632289886,0.9479244351387024,4.922291278839111,4.1484375,0,"['A1', 'B2', 'F2']",7.6,180,0.0,0.104206053644663,[7500|0|0]
75,7500,1.6886967420578003,1.1425167322158811,-0.0288028419017791,-0.3813498914241791,0.942141592502594,4.9108171463012695,4.1484375,0,"['A1', 'B2', 'F2']",7.6,180,0.0,0.1046102444943567,[7600|0|0]
76,7600,1.6889592409133911,1.142330288887024,-0.0286783333867788,-0.3713364601135254,0.93660169839859,4.901989936828613,4.1484375,0,"['A1', 'B2', 'F2']",7.6,180,0.0,0.1049554533215462,[7700|0|0]
77,7700,1.6888079643249512,1.1423927545547483,-0.0285918377339839,-0.3773413598537445,0.9452010989189148,4.902680397033691,4.1484375,0,"['A1', 'B2', 'F2']",7.6,180,0.0,0.1051405696736243,[7800|0|0]
78,7800,1.688859939575195,1.1424721479415894,-0.0284845400601625,-0.3790484666824341,0.9465970396995544,4.930251598358154,4.1484375,0,"['A1', 'B2', 'F2']",7.6,180,0.0,0.1052838090792342,[7900|0|0]
79,7900,1.6886208057403564,1.142606496810913,-0.0287265684455633,-0.3801833689212799,0.951801300048828,4.928039073944092,4.1484375,0,"['A1', 'B2', 'F2']",7.6,180,0.0,0.105649612782049,[8000|0|0]
80,8000,1.6891242265701294,1.1423293352127075,-0.0286187250167131,-0.3672649264335632,0.9336384534835817,4.948482990264893,4.1484375,0,"['A1', 'B2', 'F2']",7.6,180,0.0,0.1062343189377506,[8100|0|0]
81,8100,1.6885484457015991,1.1423910856246948,-0.0289107989519834,-0.3662079274654388,0.9508655667304992,4.972566604614258,4.1484375,0,"['A1', 'B2', 'F2']",7.6,180,0.0,0.106882889601295,[8200|0|0]
82,8200,1.6880435943603516,1.141698718070984,-0.0297110900282859,-0.3357038795948028,0.9608364105224608,4.962728977203369,4.1484375,0,"['A1', 'B2', 'F2']",7.6,180,0.0,0.1080553713764201,[8300|0|0]
83,8300,1.6887314319610596,1.1424663066864014,-0.0286495946347713,-0.3640033900737762,0.9391194581985474,4.967621803283691,4.1484375,0,"['A1', 'B2', 'F2']",7.6,180,0.0,0.1095349271604036,[8400|0|0]
84,8400,1.6889276504516602,1.1421645879745483,-0.0286609213799238,-0.3590487539768219,0.9372234344482422,4.94516658782959,4.1484375,0,"['A1', 'B2', 'F2']",7.6,180,0.0,0.109895016277556,[8500|0|0]
85,8500,1.6888306140899658,1.142478108406067,-0.0286801680922508,-0.3704960346221924,0.9431862235069276,4.935558319091797,4.1484375,0,"['A1', 'B2', 'F2']",7.6,180,0.0,0.1102237738666788,[8600|0|0]
86,8600,1.6889410018920898,1.142564058303833,-0.0283925458788871,-0.3699072599411011,0.9391935467720032,4.949881553649902,4.1484375,0,"['A1', 'B2', 'F2']",7.6,180,0.0,0.1105436166239893,[8700|0|0]
87,8700,1.6879770755767822,1.141912579536438,-0.0299139786511659,-0.3468901216983795,0.9661535620689392,4.892216682434082,4.1484375,0,"['A1', 'B2', 'F2']",7.6,180,0.0,0.1124589067342005,[8800|0|0]
88,8800,1.6880892515182495,1.1421114206314087,-0.0295898597687482,-0.3509555160999298,0.968590259552002,4.865508079528809,4.1484375,0,"['A1', 'B2', 'F2']",7.6,180,0.0,0.1128553588408072,[8900|0|0]
89,8900,1.688178300857544,1.1416620016098022,-0.0294020324945449,-0.3364569544792175,0.968603491783142,4.859457492828369,4.1484375,0,"['A1', 'B2', 'F2']",7.6,180,0.0,0.1133505217703013,[9000|0|0]
90,9000,1.687955617904663,1.1417378187179563,-0.0296056568622589,-0.3445118963718414,0.96615731716156,4.872332572937012,4.1484375,0,"['A1', 'B2', 'F2']",7.6,180,0.0,0.1136616468488782,[9100|0|0]
91,9100,1.688207983970642,1.14202618598938,-0.0298188664019107,-0.348771184682846,0.9633846879005432,4.8695478439331055,4.1484375,0,"['A1', 'B2', 'F2']",7.6,180,0.0,0.1141001700777777,[9200|0|0]
92,9200,1.6881349086761477,1.1423473358154297,-0.0298543609678745,-0.3539552092552185,0.9746730923652648,4.882106304168701,4.1484375,0,"['A1', 'B2', 'F2']",7.6,180,0.0,0.1144314359432849,[9300|0|0]
93,9300,1.6882045269012451,1.1418708562850952,-0.0299307256937026,-0.3435421586036682,0.9843482375144958,4.913549900054932,4.1484375,0,"['A1', 'B2', 'F2']",7.6,180,0.0,0.1149189921056338,[9400|0|0]
94,9400,1.6880369186401367,1.141969084739685,-0.0294868201017379,-0.3474396467208862,0.9866145849227904,4.926493644714356,4.1484375,0,"['A1', 'B2', 'F2']",7.6,180,0.0,0.1154035470901922,[9500|0|0]
95,9500,1.6881062984466553,1.1418490409851074,-0.0295286066830158,-0.3431588113307953,0.9881301522254944,4.965755939483643,4.1484375,0,"['A1', 'B2', 'F2']",7.6,180,0.0,0.1155483579286696,[9600|0|0]
96,9600,1.6881170272827148,1.141867995262146,-0.0294470749795436,-0.3422805070877075,0.9867349863052368,4.953108787536621,4.1484375,0,"['A1', 'B2', 'F2']",7.6,180,0.0,0.115632748634392,[9700|0|0]
97,9700,1.6880786418914795,1.141827940940857,-0.0297515466809272,-0.3379656970500946,0.9873772263526917,4.961003303527832,4.1484375,0,"['A1', 'B2', 'F2']",7.6,180,0.0,0.1159422333736888,[9800|0|0]
98,9800,1.6879907846450806,1.141843318939209,-0.0299351345747709,-0.339367002248764,0.9915199279785156,4.911068439483643,4.1484375,0,"['A1', 'B2', 'F2']",7.6,180,0.0,0.1161463409270622,[9900|0|0]
99,9901,1.687948226928711,1.14187753200531,-0.0299488306045532,-0.3417076766490936,0.996454417705536,4.902968883514404,4.1484375,0,"['A1', 'B2', 'F2']",7.6,180,0.0,0.1162026372355241,[10000|0|0]
100,10001,1.6880780458450315,1.1418439149856567,-0.0295022148638963,-0.3400594592094421,0.990425705909729,4.9250335693359375,4.1484375,0,"['A1', 'B2', 'F2']",7.6,180,0.0,0.1166689511585926,[10100|0|0]
101,10101,1.6879031658172607,1.142019510269165,-0.0298857074230909,-0.3425149321556091,0.9957931637763976,4.914444446563721,4.1484375,0,"['A1', 'B2', 'F2']",7.6,180,0.0,0.1171255508417519,[10200|0|0]
102,10201,1.6883866786956787,1.1419581174850464,-0.0298714116215705,-0.342958003282547,0.983752191066742,4.947363376617432,4.1484375,0,"['A1', 'B2', 'F2']",7.6,180,0.0,0.1176131553407867,[10300|0|0]
103,10301,1.6880223751068115,1.1418720483779907,-0.0296740643680095,-0.3437390923500061,0.992825984954834,4.932854652404785,4.1484375,0,"['A1', 'B2', 'F2']",7.6,180,0.0,0.1180363230788515,[10400|0|0]
104,10401,1.6881459951400757,1.1414506435394287,-0.0296382177621126,-0.3425971567630768,0.9936540722846984,4.913480281829834,4.1484375,0,"['A1', 'B2', 'F2']",7.6,180,0.0,0.1184769464211089,[10500|0|0]
105,10501,1.6880995035171509,1.142148733139038,-0.029684966430068,-0.3576911687850952,0.9954419732093812,4.922943592071533,4.1484375,0,"['A1', 'B2', 'F2']",7.6,180,0.0,0.1191781425406365,[10600|0|0]
106,10601,1.6879582405090332,1.141559362411499,-0.029403019696474,-0.3519463539123535,0.988728404045105,4.903124809265137,4.1484375,0,"['A1', 'B2', 'F2']",7.6,180,0.0,0.119846578814732,[10700|0|0]
107,10701,1.6880433559417725,1.1416661739349363,-0.0296426936984062,-0.3493188917636871,0.984738290309906,4.889330863952637,4.1484375,0,"['A1', 'B2', 'F2']",7.6,180,0.0,0.1201224355993714,[10800|0|0]
108,10801,1.6882826089859009,1.1415966749191284,-0.0295735951513052,-0.3496850430965423,0.9804065823554992,4.90390157699585,4.1484375,0,"['A1', 'B2', 'F2']",7.6,180,0.0,0.1203809829674386,[10900|0|0]
109,10902,1.6881155967712402,1.14154851436615,-0.0296236705034971,-0.3447245955467224,0.9898808002471924,4.875807762145996,4.1484375,0,"['A1', 'B2', 'F2']",7.6,180,0.0,0.1205618698370732,[11000|0|0]
110,11002,1.6879980564117432,1.1417157649993896,-0.029665132984519,-0.3549074828624725,0.9872576594352722,4.862696647644043,4.1484375,0,"['A1', 'B2', 'F2']",7.6,180,0.0,0.1207704547065204,[11100|0|0]
111,11101,1.6877211332321167,1.1420143842697144,-0.0297933872789144,-0.3718444108963012,0.9892539381980896,4.863523483276367,4.1484375,0,"['A1', 'B2', 'F2']",7.6,180,0.0,0.1211974313804202,[11200|0|0]
112,11202,1.6882730722427368,1.1419398784637451,-0.0298224724829196,-0.3659316599369049,0.969331443309784,4.885698318481445,4.1484375,0,"['A1', 'B2', 'F2']",7.6,180,0.0,0.1217551353661146,[11300|0|0]
113,11302,1.6877537965774536,1.1420682668685913,-0.0297559723258018,-0.368412971496582,0.9763936400413512,4.860673427581787,4.1484375,0,"['A1', 'B2', 'F2']",7.6,180,0.0,0.1222941651147844,[11400|0|0]
114,11402,1.6880145072937012,1.1418131589889526,-0.0296232290565967,-0.3573846518993377,0.963426411151886,4.8932414054870605,4.1484375,0,"['A1', 'B2', 'F2']",7.6,180,0.0,0.122682328589804,[11500|0|0]
115,11502,1.6879057884216309,1.141887903213501,-0.0299661196768283,-0.3601874411106109,0.965764343738556,4.885249614715576,4.1484375,0,"['A1', 'B2', 'F2']",7.6,180,0.0,0.1230497254728751,[11600|0|0]
116,11600,1.6882237195968628,1.141946792602539,-0.0294183101505041,-0.3626384139060974,0.9604886770248412,4.9159040451049805,4.1484375,0,"['A1', 'B2', 'F2']",7.6,180,0.0,0.1236858413974182,[11700|0|0]
117,11700,1.6881284713745115,1.1419342756271362,-0.0297355446964502,-0.3646691143512726,0.9620001912117004,4.920989036560059,4.1484375,0,"['A1', 'B2', 'F2']",7.6,180,0.0,0.1240173027913631,[11800|0|0]
118,11800,1.6882529258728027,1.1415386199951172,-0.0296310130506753,-0.3548108041286468,0.9556323885917664,4.919097423553467,4.1484375,0,"['A1', 'B2', 'F2']",7.6,180,0.0,0.1244450400544834,[11900|0|0]
119,11900,1.6878902912139893,1.1418426036834717,-0.0297604706138372,-0.3647819459438324,0.9656807780265808,4.920770645141602,4.1484375,0,"['A1', 'B2', 'F2']",7.6,180,0.0,0.1249356205669563,[12000|0|0]
120,12000,1.68798828125,1.1419355869293213,-0.0298127327114343,-0.3678690493106842,0.9574229121208192,4.920177936553955,4.1484375,0,"['A1', 'B2', 'F2']",7.6,180,0.0,0.1250804627500777,[12100|0|0]
121,12100,1.6881543397903442,1.1421960592269895,-0.0297825820744037,-0.3681998550891876,0.9549976587295532,4.913988590240479,4.1484375,0,"['A1', 'B2', 'F2']",7.6,180,0.0,0.1253908340077471,[12200|0|0]
122,12200,1.6879125833511353,1.1415752172470093,-0.0296980813145637,-0.3480121493339538,0.964291512966156,4.906546115875244,4.1484375,0,"['A1', 'B2', 'F2']",7.6,180,0.0,0.1260624226604347,[12300|0|0]
123,12300,1.687973141670227,1.1415797472000122,-0.0297701619565486,-0.3475024402141571,0.963115930557251,4.910438537597656,4.1484375,0,"['A1', 'B2', 'F2']",7.6,180,0.0,0.1261566747131146,[12400|0|0]
124,12400,1.6881033182144165,1.141756534576416,-0.0298005826771259,-0.3510985374450683,0.9607691764831544,4.927381038665772,4.1484375,0,"['A1', 'B2', 'F2']",7.6,180,0.0,0.1263783166075148,[12500|0|0]
125,12500,1.688069224357605,1.1417890787124634,-0.0296671465039253,-0.3478375375270843,0.9587541222572328,4.904557704925537,4.1484375,0,"['A1', 'B2', 'F2']",7.6,180,0.0,0.1265198324164613,[12600|0|0]
126,12600,1.68798828125,1.141999363899231,-0.0298084244132041,-0.3626591861248016,0.9557560086250304,4.912709712982178,4.1484375,0,"['A1', 'B2', 'F2']",7.6,180,0.0,0.1267857855967258,[12700|0|0]
127,12700,1.6879184246063232,1.141772747039795,-0.0294351987540721,-0.3546992838382721,0.9616765975952148,4.892849922180176,4.1484375,0,"['A1', 'B2', 'F2']",7.6,180,0.0,0.1272279762165732,[12800|0|0]
128,12800,1.6882132291793823,1.1420607566833496,-0.0298823155462741,-0.3535737991333008,0.950616419315338,4.906157493591309,4.1484375,0,"['A1', 'B2', 'F2']",7.6,180,0.0,0.1278360656153839,[12900|0|0]
129,12900,1.6879690885543823,1.1419543027877808,-0.0298652313649654,-0.344321995973587,0.9625175595283508,4.900238990783691,4.1484375,0,"['A1', 'B2', 'F2']",7.6,180,0.0,0.1281029531308435,[13000|0|0]
130,13000,1.6880340576171875,1.141615629196167,-0.0297837443649768,-0.3343770205974579,0.9565988779067992,4.888593673706055,4.1484375,0,"['A1', 'B2', 'F2']",7.6,180,0.0,0.1284572988828224,[13100|0|0]
131,13100,1.6883480548858645,1.1417222023010254,-0.0295226164162158,-0.3389223217964172,0.9466329216957092,4.882551193237305,4.1484375,0,"['A1', 'B2', 'F2']",7.6,180,0.0,0.1288793651300392,[13200|0|0]
132,13200,1.688117742538452,1.141654372215271,-0.0298550836741924,-0.3445046842098236,0.9586289525032043,4.881410598754883,4.1484375,0,"['A1', 'B2', 'F2']",7.6,180,0.0,0.1292894616741973,[13300|0|0]
133,13300,1.6882632970809937,1.1418622732162476,-0.0298352967947721,-0.3565157651901245,0.9569715857505798,4.87708044052124,4.1484375,0,"['A1', 'B2', 'F2']",7.6,180,0.0,0.1295440210418479,[13400|0|0]
134,13400,1.6880937814712524,1.142207145690918,-0.0298027284443378,-0.3632386326789856,0.9669403433799744,4.859440803527832,4.1484375,0,"['A1', 'B2', 'F2']",7.6,180,0.0,0.1299296805590146,[13500|0|0]
135,13500,1.6882492303848269,1.1417545080184937,-0.0296605546027421,-0.3546613156795501,0.9580994844436646,4.893152713775635,4.1484375,0,"['A1', 'B2', 'F2']",7.6,180,0.0,0.1304289386370296,[13600|0|0]
136,13600,1.6880394220352173,1.1418534517288208,-0.0298723671585321,-0.3487195968627929,0.9617584347724916,4.904068946838379,4.1484375,0,"['A1', 'B2', 'F2']",7.6,180,0.0,0.1307430627528968,[13700|0|0]
137,13700,1.6883666515350342,1.1419401168823242,-0.0294991601258516,-0.3515641391277313,0.9587419629096984,4.899543285369873,4.1484375,0,"['A1', 'B2', 'F2']",7.6,180,0.0,0.1312469213477668,[13800|0|0]
138,13800,1.688032627105713,1.1421939134597778,-0.0298372451215982,-0.3565381467342376,0.974199652671814,4.88707971572876,4.1484375,0,"['A1', 'B2', 'F2']",7.6,180,0.0,0.1317857037588193,[13900|0|0]
139,13900,1.6880549192428589,1.141622543334961,-0.0296388417482376,-0.3469673097133636,0.9790624976158142,4.874426364898682,4.1484375,0,"['A1', 'B2', 'F2']",7.6,180,0.0,0.1323909513589573,[14000|0|0]
140,14000,1.6879886388778689,1.1417582035064695,-0.0295910593122243,-0.3495456278324127,0.9824882745742798,4.872410297393799,4.1484375,0,"['A1', 'B2', 'F2']",7.6,180,0.0,0.1325493178014518,[14100|0|0]
141,14100,1.6880557537078855,1.142146348953247,-0.029722386971116,-0.3533342778682709,0.9776479601860046,4.891894340515137,4.1484375,0,"['A1', 'B2', 'F2']",7.6,180,0.0,0.1329645385165567,[14200|0|0]
142,14200,1.6883059740066528,1.1417551040649414,-0.0295966863632202,-0.3454993963241577,0.966502010822296,4.870558261871338,4.1484375,0,"['A1', 'B2', 'F2']",7.6,180,0.0,0.133445665738158,[14300|0|0]
143,14300,1.6879445314407349,1.1416651010513306,-0.029749171808362,-0.3439508378505707,0.9741583466529846,4.877880573272705,4.1484375,0,"['A1', 'B2', 'F2']",7.6,180,0.0,0.133848149379933,[14400|0|0]
144,14400,1.6879554986953735,1.141648530960083,-0.0295570474117994,-0.3467141985893249,0.977294385433197,4.868956089019775,4.1484375,0,"['A1', 'B2', 'F2']",7.6,180,0.0,0.1340412986288386,[14500|0|0]
145,14500,1.6878703832626345,1.1420531272888184,-0.0297221522778272,-0.3555783331394195,0.9768401384353638,4.904974937438965,4.1484375,0,"['A1', 'B2', 'F2']",7.6,180,0.0,0.1344864979582435,[14600|0|0]
146,14600,1.6881093978881836,1.141875982284546,-0.0298593081533908,-0.3597641885280609,0.9681617617607116,4.91160774230957,4.1484375,0,"['A1', 'B2', 'F2']",7.6,180,0.0,0.1348140953910277,[14700|0|0]
147,14700,1.6880435943603516,1.141842484474182,-0.0297031477093696,-0.3574195802211761,0.9790176749229432,4.932514667510986,4.1484375,0,"['A1', 'B2', 'F2']",7.6,180,0.0,0.1349868330298075,[14800|0|0]
148,14800,1.688219666481018,1.1418964862823486,-0.0294564589858055,-0.3565124273300171,0.9766160249710084,4.946699619293213,4.1484375,0,"['A1', 'B2', 'F2']",7.6,180,0.0,0.1352946851262677,[14900|0|0]
149,14900,1.6880735158920288,1.1416985988616943,-0.0297276694327592,-0.3514093458652496,0.9809041023254396,4.931692600250244,4.1484375,0,"['A1', 'B2', 'F2']",7.6,180,0.0,0.1356608470200414,[15000|0|0]
150,15000,1.6879465579986572,1.1416479349136353,-0.0294877626001834,-0.3580420613288879,0.9772042632102966,4.905221939086914,4.1484375,0,"['A1', 'B2', 'F2']",7.6,180,0.0,0.1359369637175424,[15100|0|0]
151,15100,1.6883740425109863,1.1415563821792605,-0.0295997988432645,-0.3511169552803039,0.968961238861084,4.875295162200928,4.1484375,0,"['A1', 'B2', 'F2']",7.6,180,0.0,0.1363882696350934,[15200|0|0]
152,15200,1.6882139444351196,1.1418030261993408,-0.0295600909739732,-0.3552154004573822,0.970604419708252,4.879660129547119,4.1484375,0,"['A1', 'B2', 'F2']",7.6,180,0.0,0.1366849873147509,[15300|0|0]
153,15300,1.6883162260055542,1.141646146774292,-0.0297159440815448,-0.3478279411792755,0.9695690870285034,4.915889739990234,4.1484375,0,"['A1', 'B2', 'F2']",7.6,180,0.0,0.1369286322711813,[15400|0|0]
154,15400,1.688236951828003,1.1415398120880127,-0.0294943414628505,-0.3478085398674011,0.974913477897644,4.8986496925354,4.1484375,0,"['A1', 'B2', 'F2']",7.6,180,0.0,0.1371868941176564,[15500|0|0]
155,15500,1.6878948211669922,1.1417322158813477,-0.029688611626625,-0.3562358021736145,0.9870975017547609,4.860088348388672,4.1484375,0,"['A1', 'B2', 'F2']",7.6,180,0.0,0.1376248593051157,[15600|0|0]
156,15600,1.6881697177886963,1.141651272773743,-0.0295785777270793,-0.3568788170814514,0.98236083984375,4.895218849182129,4.1484375,0,"['A1', 'B2', 'F2']",7.6,180,0.0,0.1379318241212467,[15700|0|0]
157,15700,1.6882823705673218,1.1419146060943604,-0.0298170149326324,-0.3610774874687195,0.98288756608963,4.911258220672607,4.1484375,0,"['A1', 'B2', 'F2']",7.6,180,0.0,0.1383045001028601,[15800|0|0]
158,15800,1.6882306337356567,1.1417070627212524,-0.029685927554965,-0.3487190902233124,0.9880298376083374,4.920140266418457,4.1484375,0,"['A1', 'B2', 'F2']",7.6,180,0.0,0.1385553682994404,[15900|0|0]
159,15900,1.688117265701294,1.1419250965118408,-0.0293347593396902,-0.3608264327049255,0.9867053031921388,4.882895469665527,4.1484375,0,"['A1', 'B2', 'F2']",7.6,180,0.0,0.1389839825321403,[16000|0|0]
160,16000,1.6884963512420654,1.1417063474655151,-0.0296596195548772,-0.3560484051704407,0.9772934913635254,4.86552619934082,4.1484375,0,"['A1', 'B2', 'F2']",7.6,180,0.0,0.1395290432185797,[16100|0|0]
161,16100,1.6880799531936646,1.1416504383087158,-0.0295438878238201,-0.3514203429222107,0.9934024810791016,4.875845432281494,4.1484375,0,"['A1', 'B2', 'F2']",7.6,180,0.0,0.1399648264239692,[16200|0|0]
162,16200,1.6882665157318115,1.1417641639709473,-0.029684878885746,-0.3534852266311645,0.9909436702728271,4.8779401779174805,4.1484375,0,"['A1', 'B2', 'F2']",7.6,180,0.0,0.140224860241833,[16300|0|0]
163,16300,1.6880183219909668,1.141377568244934,-0.0297719426453113,-0.3417049944400787,0.9973914623260498,4.866137027740479,4.1484375,0,"['A1', 'B2', 'F2']",7.6,180,0.0,0.1406924460484993,[16400|0|0]
164,16400,1.6879256963729858,1.141899347305298,-0.0295252967625856,-0.3629996180534363,0.9904925227165222,4.863694667816162,4.1484375,0,"['A1', 'B2', 'F2']",7.6,180,0.0,0.141276969003058,[16500|0|0]
165,16500,1.6880065202713013,1.1416131258010864,-0.0297761261463165,-0.355324387550354,0.9846820831298828,4.830294609069824,4.1484375,0,"['A1', 'B2', 'F2']",7.6,180,0.0,0.1416660327918572,[16600|0|0]
166,16600,1.68834388256073,1.141923904418945,-0.0297069083899259,-0.3657912015914917,0.9687349796295166,4.86182975769043,4.1484375,0,"['A1', 'B2', 'F2']",7.6,180,0.0,0.1421299161408218,[16700|0|0]
167,16700,1.688049554824829,1.1412396430969238,-0.02941276691854,-0.3483480811119079,0.981591820716858,4.876165390014648,4.1484375,0,"['A1', 'B2', 'F2']",7.6,180,0.0,0.1429307666750192,[16800|0|0]
168,16800,1.6880168914794922,1.1417042016983032,-0.0299362298101186,-0.3615142107009887,0.9798495173454284,4.887374401092529,4.1484375,0,"['A1', 'B2', 'F2']",7.6,180,0.0,0.1436314056598781,[16900|0|0]
169,16900,1.6878565549850464,1.141731023788452,-0.0297396425157785,-0.3649174273014068,0.9788405299186708,4.866421222686768,4.1484375,0,"['A1', 'B2', 'F2']",7.6,180,0.0,0.1438865012895292,[17000|0|0]
170,17000,1.6880950927734375,1.1420384645462036,-0.0296789929270744,-0.3702687621116638,0.9674656987190248,4.861231803894043,4.1484375,0,"['A1', 'B2', 'F2']",7.6,180,0.0,0.1442803267186565,[17100|0|0]
171,17100,1.6880106925964355,1.1417590379714966,-0.0297527909278869,-0.360578328371048,0.9751981496810912,4.876889705657959,4.1484375,0,"['A1', 'B2', 'F2']",7.6,180,0.0,0.1445814060195963,[17200|0|0]
172,17200,1.6880240440368652,1.1416701078414917,-0.029442174360156,-0.3577456474304199,0.9752418994903564,4.885890007019043,4.1484375,0,"['A1', 'B2', 'F2']",7.6,180,0.0,0.1449047780671408,[17300|0|0]
173,17300,1.6882554292678833,1.1415212154388428,-0.0296459645032882,-0.3581324815750122,0.9766957759857178,4.876981258392334,4.1484375,0,"['A1', 'B2', 'F2']",7.6,180,0.0,0.1452471791406463,[17400|0|0]
174,17400,1.6879538297653198,1.1418137550354004,-0.0296127386391162,-0.3665879666805267,0.9843663573265076,4.889796733856201,4.1484375,0,"['A1', 'B2', 'F2']",7.6,180,0.0,0.1456686594290948,[17500|0|0]
175,17500,1.688271403312683,1.1417686939239502,-0.0295757856220006,-0.3652378916740417,0.968945324420929,4.910043239593506,4.1484375,0,"['A1', 'B2', 'F2']",7.6,180,0.0,0.1459915355465516,[17600|0|0]
176,17600,1.6882569789886477,1.1419997215270996,-0.0298411697149276,-0.3688172399997711,0.9703531861305236,4.884651184082031,4.1484375,0,"['A1', 'B2', 'F2']",7.6,180,0.0,0.1463436868369361,[17700|0|0]
177,17700,1.6878986358642578,1.1417405605316162,-0.0295157805085182,-0.3651062548160553,0.9751254320144652,4.846636772155762,4.1484375,0,"['A1', 'B2', 'F2']",7.6,180,0.0,0.1468927336036373,[17800|0|0]
178,17800,1.688030242919922,1.1421867609024048,-0.0297378245741128,-0.3751613795757293,0.9752820134162904,4.847836017608643,4.1484375,0,"['A1', 'B2', 'F2']",7.6,180,0.0,0.1474082127545816,[17900|0|0]
179,17900,1.6893137693405151,1.1420507431030271,-0.0292637720704078,-0.3504521250724792,0.9106994867324828,4.807714462280273,4.1484375,0,"['A1', 'B2', 'F2']",7.6,180,0.0,0.1487832279146353,[18000|0|0]
180,18000,1.6897310018539429,1.142496109008789,-0.0291469730436801,-0.3351853191852569,0.906753957271576,4.818759441375732,4.1484375,0,"['A1', 'B2', 'F2']",7.6,180,0.0,0.1494045778747388,[18100|0|0]
181,18100,1.690487265586853,1.143112063407898,-0.0291358064860105,-0.3469725549221039,0.8910918235778809,4.845670223236084,4.1484375,0,"['A1', 'B2', 'F2']",7.6,180,0.0,0.1503800056514127,[18200|0|0]
182,18200,1.6913777589797974,1.142788052558899,-0.0293179117143154,-0.3288359642028808,0.8835968971252441,4.845388889312744,4.1484375,0,"['A1', 'B2', 'F2']",7.6,180,0.0,0.1513449532289124,[18300|0|0]
183,18300,1.692302942276001,1.1428813934326172,-0.0297173634171485,-0.3328032195568084,0.8781527876853943,4.841887950897217,4.1484375,0,"['A1', 'B2', 'F2']",7.6,180,0.0,0.1523569998252592,[18400|0|0]
184,18400,1.692905306816101,1.1423457860946655,-0.0305484142154455,-0.2975127398967743,0.8978656530380249,4.859822750091553,4.1484375,0,"['A1', 'B2', 'F2']",7.6,180,0.0,0.1535147405945973,[18500|0|0]
185,18500,1.693775296211243,1.142202615737915,-0.0308635756373405,-0.2902726233005523,0.8971152305603027,4.871316909790039,4.1484375,0,"['A1', 'B2', 'F2']",7.6,180,0.0,0.1544510664035772,[18600|0|0]
186,18600,1.694133996963501,1.1423370838165283,-0.0308737643063068,-0.2993732988834381,0.8987889289855957,4.916280269622803,4.1484375,0,"['A1', 'B2', 'F2']",7.6,180,0.0,0.1548342787504711,[18700|0|0]
187,18700,1.6939319372177124,1.1421165466308594,-0.030583394691348,-0.290942370891571,0.9026516079902648,4.92039966583252,4.1484375,0,"['A1', 'B2', 'F2']",7.6,180,0.0,0.1552511472002513,[18800|0|0]
188,18800,1.6928507089614868,1.1423834562301636,-0.0302980877459049,-0.3207278549671173,0.9122791886329652,4.925931930541992,4.1484375,0,"['A1', 'B2', 'F2']",7.6,180,0.0,0.1564007972902263,[18900|0|0]
189,18900,1.6906919479370115,1.1427937746047974,-0.0288134720176458,-0.3364870846271515,0.9254956245422364,4.930047988891602,4.1484375,0,"['A1', 'B2', 'F2']",7.6,180,0.0,0.1590527200247624,[19000|0|0]
190,19000,1.686368107795715,1.1434296369552612,-0.0267924107611179,-0.3508707582950592,0.951634168624878,4.934628009796143,4.14453125,0,"['A1', 'B2', 'F2']",7.6,180,0.0,0.1638677592872047,[19100|0|0]
191,19100,1.6814377307891846,1.1438710689544678,-0.0237711798399686,-0.3500340580940246,0.9708226323127748,4.976675510406494,4.1484375,0,"['A1', 'B2', 'F2']",7.6,180,0.0,0.1696670106108981,[19200|0|0]
192,19200,1.673146367073059,1.145078420639038,-0.0195000525563955,-0.3657308220863342,1.005278468132019,4.9781813621521,4.1484375,0,"['A1', 'B2', 'F2']",7.6,180,0.0,0.1790716338694768,[19300|0|0]
193,19300,1.665488600730896,1.1460473537445068,-0.0145133165642619,-0.362370878458023,1.0072849988937378,4.9642653465271,4.1484375,0,"['A1', 'B2', 'F2']",7.6,180,0.0,0.1882611796998908,[19400|0|0]
194,19400,1.652007222175598,1.148357629776001,-0.0068256575614213,-0.402007520198822,1.0360558032989502,4.958615303039551,4.1484375,0,"['A1', 'B2', 'F2']",7.6,180,0.0,0.203951464720785,[19500|0|0]
195,19500,1.6358957290649414,1.1502981185913086,0.0021997659932821,-0.380747526884079,1.0791921615600586,4.982281684875488,4.1484375,0,"['A1', 'B2', 'F2']",7.6,180,0.0,0.2225203628420757,[19600|0|0]
196,19600,1.6190214157104492,1.152606725692749,0.0116869434714317,-0.3814378380775451,1.1047797203063965,4.9936842918396,4.1484375,0,"['A1', 'B2', 'F2']",7.6,180,0.0,0.2420159688710331,[19700|0|0]
197,19700,1.5989933013916016,1.1554161310195925,0.0230581201612949,-0.3905920088291168,1.1278212070465088,5.006626129150391,4.1484375,0,"['A1', 'B2', 'F2']",7.6,180,0.0,0.2652177313207138,[19800|0|0]
198,19800,1.5798847675323486,1.1582412719726562,0.0346351563930511,-0.393579751253128,1.1302087306976318,5.009435176849365,4.1484375,0,"['A1', 'B2', 'F2']",7.6,180,0.0,0.2877376171012033,[19900|0|0]
199,19900,1.689871072769165,1.14243483543396,-0.0289543624967336,-0.3154172897338867,0.8463271260261536,4.897204399108887,4.1484375,0,"['A1', 'B2', 'F2']",7.6,180,0.0,0.4157628399611237,[20000|0|0]
200,20000,1.6884315013885498,1.141434907913208,-0.0295168366283178,-0.3470798432826996,0.9941630363464355,4.897974967956543,4.1484375,0,"['A1', 'B2', 'F2']",7.6,180,0.0,0.4176036544426359,[20100|0|0]
201,20100,1.688425064086914,1.1414990425109863,-0.0296927280724048,-0.3683210611343384,1.006602764129639,4.903193473815918,4.1484375,0,"['A1', 'B2', 'F2']",7.6,180,0.0,0.4177909843270312,[20200|0|0]
202,20200,1.6882758140563965,1.1417841911315918,-0.0295275319367647,-0.39664426445961,1.0181832313537598,4.885565757751465,4.1484375,0,"['A1', 'B2', 'F2']",7.6,180,0.0,0.4181527509239872,[20300|0|0]
203,20300,1.6881303787231443,1.141664981842041,-0.0293544866144657,-0.4059688448905945,1.0242714881896973,4.8978376388549805,4.1484375,0,"['A1', 'B2', 'F2']",7.6,180,0.0,0.4184083032169585,[20400|0|0]
204,20400,1.6880797147750854,1.1415876150131226,-0.0297193881124258,-0.4183051288127899,1.0236057043075562,4.877602577209473,4.14453125,0,"['A1', 'B2', 'F2']",7.6,180,0.0,0.4187847412132651,[20500|0|0]
205,20500,1.6880772113800049,1.1417416334152222,-0.0296255070716142,-0.426634281873703,1.0198112726211548,4.852544784545898,4.1484375,0,"['A1', 'B2', 'F2']",7.6,180,0.0,0.4189651340761952,[20600|0|0]
206,20600,1.6882286071777344,1.1417205333709717,-0.0295387487858533,-0.4210214018821716,1.0130048990249634,4.861150741577148,4.1484375,0,"['A1', 'B2', 'F2']",7.6,180,0.0,0.4191408978369244,[20700|0|0]
207,20700,1.6879539489746094,1.1417738199234009,-0.0294943749904632,-0.4173595011234283,1.0107383728027344,4.868204593658447,4.1484375,0,"['A1', 'B2', 'F2']",7.6,180,0.0,0.419424174413667,[20800|0|0]
208,20800,1.6880450248718262,1.141735315322876,-0.0297296736389398,-0.4103111326694488,1.0020405054092407,4.881089210510254,4.1484375,0,"['A1', 'B2', 'F2']",7.6,180,0.0,0.4196794054409546,[20900|0|0]
209,20900,1.6883519887924194,1.141610622406006,-0.0297302510589361,-0.4057312905788421,0.9919142723083496,4.897355079650879,4.1484375,0,"['A1', 'B2', 'F2']",7.6,180,0.0,0.4200107293089108,[21000|0|0]
210,21000,1.688013792037964,1.1415823698043823,-0.0297403540462255,-0.4022967517375946,0.9956128001213074,4.893059253692627,4.1484375,0,"['A1', 'B2', 'F2']",7.6,180,0.0,0.420350254454629,[21100|0|0]
211,21100,1.6880366802215576,1.141782522201538,-0.029948204755783,-0.403790682554245,0.9863814115524292,4.875880241394043,4.1484375,0,"['A1', 'B2', 'F2']",7.6,180,0.0,0.4206397138965185,[21200|0|0]
212,21200,1.6882432699203491,1.1418956518173218,-0.0299182310700416,-0.3994181156158447,0.9742710590362548,4.878695011138916,4.1484375,0,"['A1', 'B2', 'F2']",7.6,180,0.0,0.4208771502784212,[21300|0|0]
213,21300,1.688269019126892,1.142107009887695,-0.0296723935753107,-0.393803060054779,0.9732744693756104,4.869801998138428,4.1484375,0,"['A1', 'B2', 'F2']",7.6,180,0.0,0.4212023753226063,[21400|0|0]
214,21400,1.688130259513855,1.141465187072754,-0.0294363182038068,-0.3729588091373443,0.981313169002533,4.888473987579346,4.1484375,0,"['A1', 'B2', 'F2']",7.6,180,0.0,0.4219001735291246,[21500|0|0]
215,21500,1.688319444656372,1.1419742107391355,-0.0294929109513759,-0.3880951106548309,0.9681686162948608,4.893045425415039,4.1484375,0,"['A1', 'B2', 'F2']",7.6,180,0.0,0.4224461578239202,[21600|0|0]
216,21600,1.688314437866211,1.1416065692901611,-0.0297835394740104,-0.3707163631916046,0.972369372844696,4.912386417388916,4.14453125,0,"['A1', 'B2', 'F2']",7.6,180,0.0,0.4229148264073782,[21700|0|0]
217,21700,1.6881874799728394,1.1415785551071167,-0.0295225828886032,-0.3688566386699676,0.976791501045227,4.90892219543457,4.14453125,0,"['A1', 'B2', 'F2']",7.6,180,0.0,0.4232063764727331,[21800|0|0]
218,21800,1.688110113143921,1.1420315504074097,-0.0295328944921493,-0.3723296523094177,0.9719020128250122,4.893107891082764,4.14453125,0,"['A1', 'B2', 'F2']",7.6,180,0.0,0.4236660466778499,[21900|0|0]
219,21900,1.6882996559143066,1.1418966054916382,-0.0297302678227424,-0.3649139404296875,0.9693453907966614,4.876267433166504,4.1484375,0,"['A1', 'B2', 'F2']",7.6,180,0.0,0.4239711578440295,[22000|0|0]
220,22000,1.688297152519226,1.141547441482544,-0.0296627096831798,-0.3504556119441986,0.9670795202255248,4.910446643829346,4.1484375,0,"['A1', 'B2', 'F2']",7.6,180,0.0,0.4243268063706044,[22100|0|0]
221,22100,1.6883326768875122,1.1420077085494995,-0.0294136740267276,-0.3619046211242676,0.9663053154945374,4.8992533683776855,4.1484375,0,"['A1', 'B2', 'F2']",7.6,180,0.0,0.4248513314051361,[22200|0|0]
222,22200,1.6880942583084106,1.141664743423462,-0.0297927968204021,-0.354269415140152,0.9667236804962158,4.889188766479492,4.1484375,0,"['A1', 'B2', 'F2']",7.6,180,0.0,0.425415425891213,[22300|0|0]
223,22300,1.6881005764007568,1.14156174659729,-0.0297194980084896,-0.352643221616745,0.969100832939148,4.859763622283936,4.14453125,0,"['A1', 'B2', 'F2']",7.6,180,0.0,0.4255419999024482,[22400|0|0]
224,22400,1.6880472898483276,1.141636610031128,-0.0298026297241449,-0.3669100403785705,0.9582138061523438,4.883683681488037,4.1484375,0,"['A1', 'B2', 'F2']",7.6,180,0.0,0.4256659146818071,[22500|0|0]
225,22500,1.6881812810897827,1.1414154767990112,-0.0295150130987167,-0.3518337905406952,0.9587460160255432,4.906976222991943,4.14453125,0,"['A1', 'B2', 'F2']",7.6,180,0.0,0.4260526663881456,[22600|0|0]
226,22600,1.6880123615264893,1.1414955854415894,-0.0293247234076261,-0.3555296957492828,0.9674134254455566,4.8855156898498535,4.14453125,0,"['A1', 'B2', 'F2']",7.6,180,0.0,0.4263194272923545,[22700|0|0]
227,22700,1.6880265474319458,1.1417001485824585,-0.0295718256384134,-0.3626920282840729,0.967134654521942,4.872459888458252,4.1484375,0,"['A1', 'B2', 'F2']",7.6,180,0.0,0.4266405298164428,[22800|0|0]
228,22800,1.6879757642745972,1.1416378021240234,-0.0298565849661827,-0.3619840741157532,0.9611015915870668,4.840474605560303,4.14453125,0,"['A1', 'B2', 'F2']",7.6,180,0.0,0.4269364248733486,[22900|0|0]
229,22900,1.6879669427871704,1.1415780782699585,-0.0297493431717157,-0.3660712540149688,0.9665438532829284,4.8404154777526855,4.14453125,0,"['A1', 'B2', 'F2']",7.6,180,0.0,0.4270594921714635,[23000|0|0]
230,23000,1.688437819480896,1.1419363021850586,-0.0296639241278171,-0.3690097630023956,0.964930534362793,4.84433126449585,4.1484375,0,"['A1', 'B2', 'F2']",7.6,180,0.0,0.4276572761183073,[23100|0|0]
231,23100,1.6881040334701538,1.141443133354187,-0.0299498066306114,-0.3568959534168243,0.973818838596344,4.872700214385986,4.1484375,0,"['A1', 'B2', 'F2']",7.6,180,0.0,0.4283178496585845,[23200|0|0]
232,23200,1.6879477500915527,1.1418440341949463,-0.029796365648508,-0.3671053946018219,0.9720133543014526,4.856618881225586,4.14453125,0,"['A1', 'B2', 'F2']",7.6,180,0.0,0.428774675789117,[23300|0|0]
233,23300,1.688417911529541,1.1416404247283936,-0.0296026412397623,-0.3574718534946441,0.9623713493347168,4.884283065795898,4.1484375,0,"['A1', 'B2', 'F2']",7.6,180,0.0,0.4293224327965436,[23400|0|0]
234,23400,1.6884621381759644,1.1417901515960691,-0.0295625049620866,-0.3571221828460693,0.9647361040115356,4.894196510314941,4.1484375,0,"['A1', 'B2', 'F2']",7.6,180,0.0,0.42948363159289,[23500|0|0]
235,23500,1.6882541179656982,1.1417723894119265,-0.0293438900262117,-0.3720564842224121,0.9656394124031068,4.904585361480713,4.14453125,0,"['A1', 'B2', 'F2']",7.6,180,0.0,0.4297859234936288,[23600|0|0]
236,23600,1.688080668449402,1.1417909860610962,-0.0294296033680439,-0.365039199590683,0.9745524525642396,4.901437282562256,4.1484375,0,"['A1', 'B2', 'F2']",7.6,180,0.0,0.4299802874487023,[23700|0|0]
237,23700,1.6882779598236084,1.142111897468567,-0.0298021025955677,-0.3698691427707672,0.9650499820709229,4.898331165313721,4.1484375,0,"['A1', 'B2', 'F2']",7.6,180,0.0,0.4305100644699924,[23800|0|0]
238,23800,1.688300609588623,1.1415151357650757,-0.029575802385807,-0.3629398941993713,0.9607964754104614,4.895652770996094,4.14453125,0,"['A1', 'B2', 'F2']",7.6,180,0.0,0.4311486952925704,[23900|0|0]
239,23900,1.6883379220962524,1.1415870189666748,-0.0296874940395355,-0.3559648394584656,0.9652283191680908,4.894960880279541,4.1484375,0,"['A1', 'B2', 'F2']",7.6,180,0.0,0.4312866606629006,[24000|0|0]
240,24000,1.688055396080017,1.1418852806091309,-0.0295618921518325,-0.3700176179409027,0.9764094352722168,4.905153274536133,4.1484375,0,"['A1', 'B2', 'F2']",7.6,180,0.0,0.4317162613977753,[24100|0|0]
241,24100,1.687858819961548,1.14178204536438,-0.0295284986495971,-0.3651815354824066,0.9870004057884216,4.870415687561035,4.1484375,0,"['A1', 'B2', 'F2']",7.6,180,0.0,0.4319407938277332,[24200|0|0]
242,24200,1.688088059425354,1.141460657119751,-0.0295439828187227,-0.3539654910564422,0.9811121225357056,4.861782550811768,4.14453125,0,"['A1', 'B2', 'F2']",7.6,180,0.0,0.4323358645746195,[24300|0|0]
243,24300,1.6883732080459597,1.1416600942611694,-0.0294512435793876,-0.3595357239246368,0.9722327589988708,4.882725715637207,4.14453125,0,"['A1', 'B2', 'F2']",7.6,180,0.0,0.4326959832713332,[24400|0|0]
244,24400,1.6883010864257812,1.141562581062317,-0.0297758672386407,-0.3543696701526642,0.9813775420188904,4.874935626983643,4.14453125,0,"['A1', 'B2', 'F2']",7.6,180,0.0,0.4330425245707399,[24500|0|0]
245,24500,1.6880275011062622,1.14189875125885,-0.0298169665038585,-0.3601069748401642,0.9838922023773192,4.896377086639404,4.14453125,0,"['A1', 'B2', 'F2']",7.6,180,0.0,0.4334778962254155,[24600|0|0]
246,24600,1.6881097555160522,1.1416513919830322,-0.0297911670058965,-0.3554711043834686,0.9811235070228576,4.924218654632568,4.1484375,0,"['A1', 'B2', 'F2']",7.6,180,0.0,0.433739846627893,[24700|0|0]
247,24700,1.6880754232406616,1.1416833400726318,-0.0294636934995651,-0.3569134175777435,0.9769302010536194,4.927631855010986,4.1484375,0,"['A1', 'B2', 'F2']",7.6,180,0.0,0.4340706612027103,[24800|0|0]
248,24800,1.6881803274154663,1.141695857048035,-0.0296522416174411,-0.3582798838615417,0.9796345829963684,4.903072357177734,4.1484375,0,"['A1', 'B2', 'F2']",7.6,180,0.0,0.434286790685473,[24900|0|0]
249,24900,1.6881290674209597,1.1416606903076172,-0.0298401936888694,-0.3675497770309448,0.9832624793052672,4.897735595703125,4.14453125,0,"['A1', 'B2', 'F2']",7.6,180,0.0,0.4344847560052202,[25000|0|0]
250,25000,1.6883761882781982,1.1418499946594238,-0.0295260734856128,-0.372808963060379,0.9848349094390868,4.90956449508667,4.14453125,0,"['A1', 'B2', 'F2']",7.6,180,0.0,0.4349269961637194,[25100|0|0]
251,25100,1.6884822845458984,1.141622543334961,-0.029504844918847,-0.3666960000991821,0.9777345657348632,4.891226291656494,4.14453125,0,"['A1', 'B2', 'F2']",7.6,180,0.0,0.4351788714802289,[25200|0|0]
252,25200,1.6882054805755615,1.141316533088684,-0.0294600948691368,-0.3557325899600982,0.9839239120483398,4.884810924530029,4.14453125,0,"['A1', 'B2', 'F2']",7.6,180,0.0,0.4355939200024161,[25300|0|0]
253,25300,1.6880831718444824,1.1415468454360962,-0.0293781198561191,-0.3638194799423218,0.9796610474586488,4.8989081382751465,4.14453125,0,"['A1', 'B2', 'F2']",7.6,180,0.0,0.4358672752764239,[25400|0|0]
254,25400,1.6882553100585938,1.1418851613998413,-0.0297883581370115,-0.3722717761993408,0.975866198539734,4.883875846862793,4.1484375,0,"['A1', 'B2', 'F2']",7.6,180,0.0,0.4364261891366848,[25500|0|0]
255,25500,1.6882705688476562,1.141554832458496,-0.0295608844608068,-0.3611030280590057,0.9709126949310304,4.877434730529785,4.14453125,0,"['A1', 'B2', 'F2']",7.6,180,0.0,0.436827554697614,[25600|0|0]
256,25600,1.687991738319397,1.1414278745651243,-0.0293039064854383,-0.3521118760108948,0.9749085903167723,4.879440307617188,4.14453125,0,"['A1', 'B2', 'F2']",7.6,180,0.0,0.4372274327415264,[25700|0|0]
257,25700,1.687997341156006,1.14162015914917,-0.0293121896684169,-0.3509573638439178,0.9687874913215636,4.89102029800415,4.1484375,0,"['A1', 'B2', 'F2']",7.6,180,0.0,0.4374199771887583,[25800|0|0]
258,25800,1.6880792379379272,1.1414744853973389,-0.0293900705873966,-0.3543863594532013,0.970648467540741,4.884060859680176,4.14453125,0,"['A1', 'B2', 'F2']",7.6,180,0.0,0.4376043500783129,[25900|0|0]
259,25900,1.688362717628479,1.141474366188049,-0.0295116323977708,-0.3638171851634979,0.9675407409667968,4.876953125,4.14453125,0,"['A1', 'B2', 'F2']",7.6,180,0.0,0.4379127945999171,[26000|0|0]
260,26000,1.6888426542282104,1.1423074007034302,-0.0288563333451747,-0.3762912154197693,0.9542901515960692,4.879948139190674,4.14453125,0,"['A1', 'B2', 'F2']",7.6,180,0.0,0.4390762818116693,[26100|0|0]
261,26100,1.6887589693069458,1.1422083377838137,-0.0290003381669521,-0.3703527450561523,0.9557149410247804,4.898236274719238,4.14453125,0,"['A1', 'B2', 'F2']",7.6,180,0.0,0.4392700703995304,[26200|0|0]
262,26200,1.6877213716506958,1.141769289970398,-0.0300380028784275,-0.3441493213176727,0.9916127920150756,4.86660623550415,4.1484375,0,"['A1', 'B2', 'F2']",7.6,180,0.0,0.4408017753098058,[26300|0|0]
263,26300,1.6880885362625122,1.1416049003601074,-0.029675742611289,-0.3351310789585113,0.9587085843086244,4.85188102722168,4.14453125,0,"['A1', 'B2', 'F2']",7.6,180,0.0,0.4413431312899972,[26400|0|0]
264,26400,1.6880582571029663,1.1415698528289795,-0.0292880572378635,-0.3475972712039947,0.969011127948761,4.877265453338623,4.14453125,0,"['A1', 'B2', 'F2']",7.6,180,0.0,0.4417335734825289,[26500|0|0]
265,26500,1.6886581182479858,1.1425704956054688,-0.0287841334939003,-0.3661779463291168,0.9587485790252686,4.9006123542785645,4.14453125,0,"['A1', 'B2', 'F2']",7.6,180,0.0,0.4430044230012266,[26600|0|0]
266,26600,1.6887542009353638,1.1422511339187622,-0.0286951139569282,-0.3658965229988098,0.9621537327766418,4.9046244621276855,4.14453125,0,"['A1', 'B2', 'F2']",7.6,180,0.0,0.4433496015748846,[26700|0|0]
267,26700,1.688783884048462,1.1422216892242432,-0.0287780985236167,-0.3735039532184601,0.9624429941177368,4.895841121673584,4.14453125,0,"['A1', 'B2', 'F2']",7.6,180,0.0,0.4434425236688505,[26800|0|0]
268,26800,1.688582181930542,1.14218008518219,-0.0286495145410299,-0.3758702278137207,0.9615929126739502,4.890130043029785,4.14453125,0,"['A1', 'B2', 'F2']",7.6,180,0.0,0.4436853167520849,[26900|0|0]
269,26900,1.6889511346817017,1.1424788236618042,-0.0288046542555093,-0.3821616470813751,0.950265407562256,4.900050640106201,4.14453125,0,"['A1', 'B2', 'F2']",7.6,180,0.0,0.44418475557997,[27000|0|0]
270,27000,1.688868522644043,1.1426922082901,-0.0288270227611064,-0.3852657675743103,0.9588268399238586,4.918577671051025,4.14453125,0,"['A1', 'B2', 'F2']",7.6,180,0.0,0.4444146644714939,[27100|0|0]
271,27100,1.6886484622955322,1.142656326293945,-0.0290957633405923,-0.3814036250114441,0.9712276458740234,4.916630268096924,4.14453125,0,"['A1', 'B2', 'F2']",7.6,180,0.0,0.4447638572172622,[27200|0|0]
272,27200,1.688677191734314,1.1423161029815674,-0.0288154426962137,-0.3733476102352142,0.9730129837989808,4.910983562469482,4.1484375,0,"['A1', 'B2', 'F2']",7.6,180,0.0,0.44520562293187,[27300|0|0]
273,27300,1.688501238822937,1.1422622203826904,-0.0286370702087879,-0.3705897033214569,0.9816191792488098,4.916245937347412,4.14453125,0,"['A1', 'B2', 'F2']",7.6,180,0.0,0.4454619030632775,[27400|0|0]
274,27400,1.688581466674805,1.1427477598190308,-0.0290530230849981,-0.3859969973564148,0.9790452122688292,4.904367446899414,4.14453125,0,"['A1', 'B2', 'F2']",7.6,180,0.0,0.4461062646447553,[27500|0|0]
275,27500,1.6881563663482666,1.1417042016983032,-0.0296482220292091,-0.3563024997711181,0.9976522922515868,4.905643463134766,4.14453125,0,"['A1', 'B2', 'F2']",7.6,180,0.0,0.4473806215893156,[27600|0|0]
276,27600,1.6885184049606323,1.142841100692749,-0.028720274567604,-0.3785306215286255,0.9797952771186828,4.895366668701172,4.14453125,0,"['A1', 'B2', 'F2']",7.6,180,0.0,0.4488921432636276,[27700|0|0]
277,27700,1.688431739807129,1.1417410373687744,-0.0295175146311521,-0.3550626039505005,0.9895282983779908,4.915719509124756,4.14453125,0,"['A1', 'B2', 'F2']",7.6,180,0.0,0.4502534815333137,[27800|0|0]
278,27801,1.688241958618164,1.1415053606033323,-0.0296475496143102,-0.3486154675483703,0.996476411819458,4.91571044921875,4.14453125,0,"['A1', 'B2', 'F2']",7.6,180,0.0,0.4505828286667443,[27900|0|0]
279,27901,1.6882723569869995,1.1415950059890747,-0.02972312271595,-0.3614884912967682,0.9861867427825928,4.930021286010742,4.14453125,0,"['A1', 'B2', 'F2']",7.6,180,0.0,0.4507039552522001,[28000|0|0]
280,28001,1.6883670091629028,1.141796350479126,-0.029796052724123,-0.3661559522151947,0.979206085205078,4.937260627746582,4.14453125,0,"['A1', 'B2', 'F2']",7.6,180,0.0,0.4509380864636379,[28100|0|0]
281,28101,1.6889266967773438,1.1422830820083618,-0.0286754574626684,-0.3872647285461426,0.9590215682983398,4.926740646362305,4.14453125,0,"['A1', 'B2', 'F2']",7.6,180,0.0,0.452281921106481,[28200|0|0]
282,28201,1.6888864040374756,1.1424134969711304,-0.0284739304333925,-0.390811413526535,0.9559912085533142,4.92498254776001,4.14453125,0,"['A1', 'B2', 'F2']",7.6,180,0.0,0.4525253234707439,[28300|0|0]
283,28301,1.688982009887695,1.1425076723098757,-0.0286191552877426,-0.392976313829422,0.9579781889915466,4.914414882659912,4.14453125,0,"['A1', 'B2', 'F2']",7.6,180,0.0,0.4527230599907522,[28400|0|0]
284,28401,1.6888880729675293,1.1426327228546145,-0.0288940444588661,-0.391473650932312,0.9569661021232604,4.934903144836426,4.14453125,0,"['A1', 'B2', 'F2']",7.6,180,0.0,0.4530393286109325,[28500|0|0]
285,28501,1.6886224746704102,1.142359733581543,-0.0291933044791221,-0.3845288753509521,0.9609289169311525,4.937185287475586,4.14453125,0,"['A1', 'B2', 'F2']",7.6,180,0.0,0.4535237067260123,[28600|0|0]
286,28601,1.6885251998901367,1.1424490213394165,-0.0285282917320728,-0.3853382766246795,0.959687113761902,4.915755271911621,4.14453125,0,"['A1', 'B2', 'F2']",7.6,180,0.0,0.4542017012984989,[28700|0|0]
287,28701,1.688952088356018,1.1423847675323486,-0.028888689354062,-0.3795519769191742,0.9469788074493408,4.908061504364014,4.14453125,0,"['A1', 'B2', 'F2']",7.6,180,0.0,0.4547640612899286,[28800|0|0]
288,28802,1.6888381242752075,1.142421841621399,-0.0287536438554525,-0.3840503692626953,0.953299045562744,4.904862880706787,4.14453125,0,"['A1', 'B2', 'F2']",7.6,180,0.0,0.4549446148456638,[28900|0|0]
289,28902,1.6886987686157229,1.142439365386963,-0.0287335980683565,-0.3801988363265991,0.9560633897781372,4.901680946350098,4.14453125,0,"['A1', 'B2', 'F2']",7.6,180,0.0,0.4550864912558605,[29000|0|0]
290,29000,1.6888254880905151,1.1427147388458252,-0.0286782905459404,-0.3765810132026672,0.9437523484230042,4.902141094207764,4.14453125,0,"['A1', 'B2', 'F2']",7.6,180,0.0,0.4553946264358923,[29100|0|0]
291,29100,1.688749074935913,1.1422936916351318,-0.0287091173231601,-0.3653844892978668,0.9408187866210938,4.897234916687012,4.14453125,0,"['A1', 'B2', 'F2']",7.6,180,0.0,0.4558236602504369,[29200|0|0]
292,29202,1.6885559558868408,1.1425968408584597,-0.0284304246306419,-0.3748176097869873,0.943853199481964,4.902616024017334,4.14453125,0,"['A1', 'B2', 'F2']",7.6,180,0.0,0.4562784833320651,[29300|0|0]
293,29302,1.6886491775512695,1.1422110795974731,-0.0284735411405563,-0.3646120727062225,0.9515335559844972,4.901023864746094,4.14453125,0,"['A1', 'B2', 'F2']",7.6,180,0.0,0.4566776838614032,[29400|0|0]
294,29402,1.6887437105178833,1.142465114593506,-0.028513565659523,-0.3653544187545776,0.9469549655914308,4.928920269012451,4.14453125,0,"['A1', 'B2', 'F2']",7.6,180,0.0,0.4569516769691717,[29500|0|0]
295,29502,1.6884411573410034,1.1425753831863403,-0.0284923557192087,-0.3696182668209076,0.9600023627281188,4.923050880432129,4.14453125,0,"['A1', 'B2', 'F2']",7.6,180,0.0,0.4572743958080609,[29600|0|0]
296,29602,1.6891474723815918,1.1427000761032104,-0.0286368113011121,-0.3678885996341705,0.9373060464859008,4.892002582550049,4.14453125,0,"['A1', 'B2', 'F2']",7.6,180,0.0,0.4580060355248765,[29700|0|0]
297,29700,1.6886078119277954,1.1425824165344238,-0.0287760738283395,-0.3629752993583679,0.9510692358016968,4.889217376708984,4.14453125,0,"['A1', 'B2', 'F2']",7.6,180,0.0,0.4585756592875554,[29800|0|0]
298,29800,1.688718318939209,1.1425204277038574,-0.02849698998034,-0.3796724379062652,0.9359502792358398,4.8933939933776855,4.14453125,0,"['A1', 'B2', 'F2']",7.6,180,0.0,0.4588821592205094,[29900|0|0]
299,29900,1.689024806022644,1.142573595046997,-0.0287913214415311,-0.3739770054817199,0.9293752312660216,4.921749591827393,4.14453125,0,"['A1', 'B2', 'F2']",7.6,180,0.0,0.459310402268014,[30000|0|0]
