time.ms,stateEstimate.x,stateEstimate.y,stateEstimate.z,stabilizer.roll,stabilizer.pitch,stabilizer.yaw,pm.vbat,drone_id,node_name,wind_speed,global_wind_direction,relative_wind_direction,travel_dist,waiting_time
0,1.2407907247543335,1.0822954177856445,-0.03480992466211319,0.051413644105196,1.0981261730194092,-1.2123695611953735,4.1171875,2,"['A1', 'B2', 'F2']",7.6,270,0,0.07220155189475892,[100|0|0]
100,1.240265130996704,1.0825151205062866,-0.034769974648952484,0.042978208512067795,1.1161322593688965,-1.243665337562561,4.1171875,2,"['A1', 'B2', 'F2']",7.6,270,0,0.07277261589035668,[200|0|0]
200,1.240663766860962,1.0824083089828491,-0.03508284315466881,0.044649939984083176,1.1070373058319092,-1.2052581310272217,4.1171875,2,"['A1', 'B2', 'F2']",7.6,270,0,0.07329050193542912,[300|0|0]
300,1.2406775951385498,1.082723617553711,-0.034866251051425934,0.033593107014894485,1.1103826761245728,-1.1893068552017212,4.1171875,2,"['A1', 'B2', 'F2']",7.6,270,0,0.07367328497490075,[400|0|0]
400,1.2403455972671509,1.0828338861465454,-0.03500230982899666,0.0263931043446064,1.122256875038147,-1.2034032344818115,4.1171875,2,"['A1', 'B2', 'F2']",7.6,270,0,0.07404864312405053,[500|0|0]
500,1.240463137626648,1.082836389541626,-0.03489042446017265,0.02767609804868698,1.1186189651489258,-1.2618565559387207,4.1171875,2,"['A1', 'B2', 'F2']",7.6,270,0,0.07421094019381617,[600|0|0]
600,1.2404004335403442,1.0827544927597046,-0.03477049618959427,0.034582316875457764,1.1159703731536865,-1.265676736831665,4.1171875,2,"['A1', 'B2', 'F2']",7.6,270,0,0.07436912260564563,[700|0|0]
700,1.240280032157898,1.0820178985595703,-0.03494279831647873,0.05456991866230965,1.128272294998169,-1.2559828758239746,4.1171875,2,"['A1', 'B2', 'F2']",7.6,270,0,0.07513512229983313,[800|0|0]
800,1.2404981851577759,1.082802653312683,-0.03472539782524109,0.04276463761925697,1.1286718845367432,-1.282945156097412,4.1171875,2,"['A1', 'B2', 'F2']",7.6,270,0,0.07597814882816971,[900|0|0]
900,1.2401529550552368,1.0826038122177124,-0.03479836881160736,0.04850833863019943,1.1318302154541016,-1.2715643644332886,4.1171875,2,"['A1', 'B2', 'F2']",7.6,270,0,0.07638317520953214,[1000|0|0]
1001,1.2401342391967773,1.0825361013412476,-0.03492055460810661,0.047002166509628296,1.133928656578064,-1.2650988101959229,4.1171875,2,"['A1', 'B2', 'F2']",7.6,270,0,0.07652411638526041,[1100|0|0]
1100,1.2403122186660767,1.0825824737548828,-0.03446673974394798,0.0450875423848629,1.1319352388381958,-1.2098944187164307,4.1171875,2,"['A1', 'B2', 'F2']",7.6,270,0,0.07701378466396523,[1200|0|0]
1200,1.2403607368469238,1.082734227180481,-0.03461477532982826,0.04298253729939461,1.1272121667861938,-1.212754487991333,4.1171875,2,"['A1', 'B2', 'F2']",7.6,270,0,0.07723126489465393,[1300|0|0]
1301,1.2404403686523438,1.0824781656265259,-0.035311292856931686,0.05670822411775589,1.119722843170166,-1.226851463317871,4.1171875,2,"['A1', 'B2', 'F2']",7.6,270,0,0.07797761964235142,[1400|0|0]
1401,1.240107536315918,1.0825743675231934,-0.034944020211696625,0.05644982308149338,1.132765293121338,-1.2320278882980347,4.1171875,2,"['A1', 'B2', 'F2']",7.6,270,0,0.07848251702304479,[1500|0|0]
1501,1.2405234575271606,1.0826565027236938,-0.03462720662355423,0.0590362623333931,1.119493007659912,-1.2098480463027954,4.1171875,2,"['A1', 'B2', 'F2']",7.6,270,0,0.07901176884850644,[1600|0|0]
1601,1.2404239177703857,1.0821425914764404,-0.034797798842191696,0.06644538789987564,1.1187005043029785,-1.2249763011932373,4.1171875,2,"['A1', 'B2', 'F2']",7.6,270,0,0.07956232732704621,[1700|0|0]
1701,1.2405167818069458,1.0822831392288208,-0.03491710126399994,0.06992976367473602,1.118546724319458,-1.193368673324585,4.1171875,2,"['A1', 'B2', 'F2']",7.6,270,0,0.07976875035830656,[1800|0|0]
1801,1.2401468753814697,1.0826135873794556,-0.034664709120988846,0.06559231877326965,1.124293327331543,-1.202221393585205,4.1171875,2,"['A1', 'B2', 'F2']",7.6,270,0,0.08032528296087371,[1900|0|0]
1901,1.2402197122573853,1.082575798034668,-0.03507954999804497,0.06810874491930008,1.1297842264175415,-1.222611665725708,4.1171875,2,"['A1', 'B2', 'F2']",7.6,270,0,0.08074816142846139,[2000|0|0]
2001,1.2406001091003418,1.082454800605774,-0.03476148098707199,0.0672646164894104,1.1108838319778442,-1.2241071462631226,4.1171875,2,"['A1', 'B2', 'F2']",7.6,270,0,0.08125856326199218,[2100|0|0]
2101,1.2404135465621948,1.082592248916626,-0.034309208393096924,0.06480027735233307,1.1140698194503784,-1.207576036453247,4.1171875,2,"['A1', 'B2', 'F2']",7.6,270,0,0.08176674444824061,[2200|0|0]
2201,1.240081548690796,1.0826278924942017,-0.035156428813934326,0.06246381625533104,1.1216260194778442,-1.204452633857727,4.1171875,2,"['A1', 'B2', 'F2']",7.6,270,0,0.08267739009431802,[2300|0|0]
2301,1.2402108907699585,1.0825285911560059,-0.034642137587070465,0.0651032105088234,1.1132961511611938,-1.1786348819732666,4.1171875,2,"['A1', 'B2', 'F2']",7.6,270,0,0.0832169135833699,[2400|0|0]
2402,1.2404121160507202,1.0824729204177856,-0.035217754542827606,0.06363770365715027,1.1032191514968872,-1.2051903009414673,4.1171875,2,"['A1', 'B2', 'F2']",7.6,270,0,0.08382922537034344,[2500|0|0]
2500,1.2405064105987549,1.0827574729919434,-0.034815482795238495,0.054065458476543427,1.1038769483566284,-1.2055809497833252,4.1171875,2,"['A1', 'B2', 'F2']",7.6,270,0,0.08433090673152527,[2600|0|0]
2602,1.2404712438583374,1.0824120044708252,-0.034745004028081894,0.061624545603990555,1.1072652339935303,-1.2187836170196533,4.1171875,2,"['A1', 'B2', 'F2']",7.6,270,0,0.08468524055059293,[2700|0|0]
2702,1.2401996850967407,1.082456111907959,-0.034854378551244736,0.05711078271269798,1.1185251474380493,-1.2429516315460205,4.1171875,2,"['A1', 'B2', 'F2']",7.6,270,0,0.08498130205320266,[2800|0|0]
2802,1.2404181957244873,1.082472562789917,-0.034895025193691254,0.061866555362939835,1.1108264923095703,-1.2287399768829346,4.1171875,2,"['A1', 'B2', 'F2']",7.6,270,0,0.08520416899892942,[2900|0|0]
2900,1.2404391765594482,1.0824284553527832,-0.034822262823581696,0.05680171772837639,1.106479525566101,-1.2280184030532837,4.1171875,2,"['A1', 'B2', 'F2']",7.6,270,0,0.08529180474477625,[3000|0|0]
3000,1.240235447883606,1.0826163291931152,-0.03491228073835373,0.05079490318894386,1.1144284009933472,-1.2197282314300537,4.1171875,2,"['A1', 'B2', 'F2']",7.6,270,0,0.08558318967613246,[3100|0|0]
3102,1.240269660949707,1.0821644067764282,-0.03490651771426201,0.06432517617940903,1.1153137683868408,-1.1962578296661377,4.1171875,2,"['A1', 'B2', 'F2']",7.6,270,0,0.08603644194258343,[3200|0|0]
3200,1.2399787902832031,1.08242666721344,-0.03535473719239235,0.05825556814670563,1.1266491413116455,-1.201155662536621,4.1171875,2,"['A1', 'B2', 'F2']",7.6,270,0,0.08663166205483556,[3300|0|0]
3300,1.2402180433273315,1.0826194286346436,-0.03473370894789696,0.05343451723456383,1.116620659828186,-1.2209869623184204,4.1171875,2,"['A1', 'B2', 'F2']",7.6,270,0,0.08732453654930782,[3400|0|0]
3400,1.2403041124343872,1.0826035737991333,-0.03474259376525879,0.05067708343267441,1.1030547618865967,-1.218092679977417,4.1171875,2,"['A1', 'B2', 'F2']",7.6,270,0,0.08741250362825198,[3500|0|0]
3500,1.2404464483261108,1.0826013088226318,-0.03477291017770767,0.04816198721528053,1.1006097793579102,-1.231612205505371,4.1171875,2,"['A1', 'B2', 'F2']",7.6,270,0,0.08755804991317566,[3600|0|0]
3600,1.240394949913025,1.082309603691101,-0.035337306559085846,0.05276001989841461,1.1033399105072021,-1.258470892906189,4.1171875,2,"['A1', 'B2', 'F2']",7.6,270,0,0.08819545656957684,[3700|0|0]
3700,1.240679144859314,1.0825656652450562,-0.034977372735738754,0.04464659467339516,1.1018970012664795,-1.2437165975570679,4.1171875,2,"['A1', 'B2', 'F2']",7.6,270,0,0.08872070569532517,[3800|0|0]
3800,1.2407879829406738,1.0824708938598633,-0.034882187843322754,0.04573671147227287,1.1061680316925049,-1.2108627557754517,4.1171875,2,"['A1', 'B2', 'F2']",7.6,270,0,0.08889358573219963,[3900|0|0]
3900,1.2401700019836426,1.082497000694275,-0.034760937094688416,0.04176090657711029,1.123233437538147,-1.20331871509552,4.1171875,2,"['A1', 'B2', 'F2']",7.6,270,0,0.08952389024122732,[4000|0|0]
4000,1.2405134439468384,1.0824401378631592,-0.03493620082736015,0.047401171177625656,1.105893850326538,-1.2260311841964722,4.1171875,2,"['A1', 'B2', 'F2']",7.6,270,0,0.08991363777442839,[4100|0|0]
4100,0.8034399151802063,1.1603578329086304,0.24897275865077972,0.001196337747387588,-0.0016493789153173566,-0.47925812005996704,4.1171875,2,"['A1', 'B2', 'F2']",7.6,270,0,0.6168944097402327,[4200|0|0]
4200,1.2542752027511597,1.0863713026046753,-0.03776777908205986,-1.1773765087127686,-2.137402057647705,-0.5575355291366577,4.1171875,2,"['A1', 'B2', 'F2']",7.6,270,0,1.1562890696738664,[4300|0|0]
4300,1.2491098642349243,1.0845613479614258,-0.0364532507956028,1.7619413137435913,3.0301685333251953,-0.5432457327842712,4.1171875,2,"['A1', 'B2', 'F2']",7.6,270,0,1.1619179809730271,[4400|0|0]
4400,1.2427935600280762,1.0833145380020142,-0.03582490608096123,3.3232874870300293,5.85507345199585,-1.1754800081253052,4.1171875,2,"['A1', 'B2', 'F2']",7.6,270,0,1.168386756049404,[4500|0|0]
4500,1.2396348714828491,1.0826631784439087,-0.03515591844916344,3.5940487384796143,6.144703388214111,-1.5851783752441406,4.1171875,2,"['A1', 'B2', 'F2']",7.6,270,0,1.171680557356584,[4600|0|0]
4600,1.238265037536621,1.081844687461853,-0.03498890995979309,3.345850944519043,5.6212005615234375,-1.8504817485809326,4.1171875,2,"['A1', 'B2', 'F2']",7.6,270,0,1.1732850087779325,[4700|0|0]
4700,1.237392544746399,1.081540822982788,-0.03455859795212746,2.8549718856811523,4.923216819763184,-1.9304636716842651,4.1171875,2,"['A1', 'B2', 'F2']",7.6,270,0,1.1743041975310928,[4800|0|0]
4800,1.2366949319839478,1.0805341005325317,-0.03458086773753166,2.50327205657959,4.326981544494629,-1.9520442485809326,4.1171875,2,"['A1', 'B2', 'F2']",7.6,270,0,1.1755292075724912,[4900|0|0]
4900,1.2367501258850098,1.0807816982269287,-0.03452695906162262,2.1058578491210938,3.808590888977051,-1.9166094064712524,4.1171875,2,"['A1', 'B2', 'F2']",7.6,270,0,1.1757885473695209,[5000|0|0]
5000,1.2371970415115356,1.0810458660125732,-0.03462511673569679,1.772032380104065,3.3472750186920166,-1.900262475013733,4.1171875,2,"['A1', 'B2', 'F2']",7.6,270,0,1.176316896804256,[5100|0|0]
5100,1.2372604608535767,1.080954670906067,-0.03493184596300125,1.4997804164886475,2.9652113914489746,-1.885166049003601,4.1171875,2,"['A1', 'B2', 'F2']",7.6,270,0,1.1766431197024076,[5200|0|0]
5200,1.2377856969833374,1.0810421705245972,-0.03492331504821777,1.2637354135513306,2.6336452960968018,-1.881698489189148,4.1171875,2,"['A1', 'B2', 'F2']",7.6,270,0,1.1771756626131258,[5300|0|0]
5300,1.238011360168457,1.0810154676437378,-0.03464312478899956,1.0587875843048096,2.375546932220459,-1.8245216608047485,4.1171875,2,"['A1', 'B2', 'F2']",7.6,270,0,1.1775364166821607,[5400|0|0]
5400,1.2385270595550537,1.082214117050171,-0.03477262333035469,0.8626836538314819,2.1555724143981934,-1.7735239267349243,4.1171875,2,"['A1', 'B2', 'F2']",7.6,270,0,1.1788477046478996,[5500|0|0]
5500,1.2389250993728638,1.0815868377685547,-0.03457503765821457,0.7316698431968689,1.9545462131500244,-1.6881123781204224,4.1171875,2,"['A1', 'B2', 'F2']",7.6,270,0,1.1796164406829222,[5600|0|0]
5600,1.2391765117645264,1.0819778442382812,-0.034748222678899765,0.5873575806617737,1.7912487983703613,-1.602666974067688,4.1171875,2,"['A1', 'B2', 'F2']",7.6,270,0,1.1801125125541658,[5700|0|0]
5700,1.239241600036621,1.081830382347107,-0.03490585461258888,0.4847465455532074,1.6492100954055786,-1.5722088813781738,4.1171875,2,"['A1', 'B2', 'F2']",7.6,270,0,1.1803379661392595,[5800|0|0]
5800,1.239665150642395,1.0821315050125122,-0.034648358821868896,0.3802069425582886,1.5312387943267822,-1.5120269060134888,4.1171875,2,"['A1', 'B2', 'F2']",7.6,270,0,1.1809179437746133,[5900|0|0]
5900,1.2395955324172974,1.0819379091262817,-0.03476066142320633,0.31579580903053284,1.461342215538025,-1.4597066640853882,4.1171875,2,"['A1', 'B2', 'F2']",7.6,270,0,1.1811523322101178,[6000|0|0]
6000,1.2396936416625977,1.0822826623916626,-0.03444109484553337,0.24231719970703125,1.384669303894043,-1.400681734085083,4.1171875,2,"['A1', 'B2', 'F2']",7.6,270,0,1.1816325436589294,[6100|0|0]
6100,1.2401188611984253,1.0823148488998413,-0.034512363374233246,0.1978764533996582,1.3149889707565308,-1.3608392477035522,4.1171875,2,"['A1', 'B2', 'F2']",7.6,270,0,1.1820648940123943,[6200|0|0]
6200,1.2397559881210327,1.0826467275619507,-0.034658581018447876,0.15864446759223938,1.2842060327529907,-1.3723242282867432,4.1171875,2,"['A1', 'B2', 'F2']",7.6,270,0,1.182577924144199,[6300|0|0]
6300,1.240281581878662,1.082411527633667,-0.03509960323572159,0.13709622621536255,1.2332868576049805,-1.3479607105255127,4.1171875,2,"['A1', 'B2', 'F2']",7.6,270,0,1.1833032298731523,[6400|0|0]
6400,1.2400857210159302,1.0823001861572266,-0.034859586507081985,0.11447136104106903,1.2116657495498657,-1.3178061246871948,4.1171875,2,"['A1', 'B2', 'F2']",7.6,270,0,1.1836324204440272,[6500|0|0]
6500,1.2403491735458374,1.0827597379684448,-0.034880585968494415,0.08336842060089111,1.181998372077942,-1.271820068359375,4.1171875,2,"['A1', 'B2', 'F2']",7.6,270,0,1.1841625488059246,[6600|0|0]
6600,1.2401268482208252,1.082545280456543,-0.03475971147418022,0.07422877848148346,1.169545292854309,-1.2531424760818481,4.1171875,2,"['A1', 'B2', 'F2']",7.6,270,0,1.1844942583444198,[6700|0|0]
6700,1.2401208877563477,1.0825375318527222,-0.034676022827625275,0.06872928142547607,1.1524219512939453,-1.2585570812225342,4.1171875,2,"['A1', 'B2', 'F2']",7.6,270,0,1.1845785160298863,[6800|0|0]
6800,1.2402740716934204,1.0825811624526978,-0.03493034467101097,0.06019049882888794,1.1380319595336914,-1.2491451501846313,4.1171875,2,"['A1', 'B2', 'F2']",7.6,270,0,1.1848785969320683,[6900|0|0]
6900,1.2402379512786865,1.0826603174209595,-0.03480049595236778,0.05549819394946098,1.1279903650283813,-1.237728238105774,4.1171875,2,"['A1', 'B2', 'F2']",7.6,270,0,1.1850349007487022,[7000|0|0]
7000,1.2403348684310913,1.0826351642608643,-0.03470570594072342,0.05100167542695999,1.119541049003601,-1.242179274559021,4.1171875,2,"['A1', 'B2', 'F2']",7.6,270,0,1.185172780269301,[7100|0|0]
7100,1.2404025793075562,1.0823991298675537,-0.03503869101405144,0.055778149515390396,1.1148908138275146,-1.2459523677825928,4.1171875,2,"['A1', 'B2', 'F2']",7.6,270,0,1.185586514551995,[7200|0|0]
7200,1.2402645349502563,1.0825309753417969,-0.03481293469667435,0.05191729590296745,1.1208584308624268,-1.2238624095916748,4.1171875,2,"['A1', 'B2', 'F2']",7.6,270,0,1.185882158575267,[7300|0|0]
7300,1.2399848699569702,1.0824955701828003,-0.03491762652993202,0.055943816900253296,1.1254332065582275,-1.2442957162857056,4.1171875,2,"['A1', 'B2', 'F2']",7.6,270,0,1.186182868424963,[7400|0|0]
7400,1.2403241395950317,1.0825073719024658,-0.03455343097448349,0.056060854345560074,1.1217151880264282,-1.2414793968200684,4.1171875,2,"['A1', 'B2', 'F2']",7.6,270,0,1.1866807454886101,[7500|0|0]
7500,1.2405688762664795,1.0824036598205566,-0.034815698862075806,0.05314457789063454,1.1151952743530273,-1.2369706630706787,4.1171875,2,"['A1', 'B2', 'F2']",7.6,270,0,1.1870541576993738,[7600|0|0]
7600,1.240054965019226,1.0824291706085205,-0.03487769514322281,0.05020023509860039,1.1323946714401245,-1.231894612312317,4.1171875,2,"['A1', 'B2', 'F2']",7.6,270,0,1.1875724231807945,[7700|0|0]
7700,1.2399885654449463,1.0822296142578125,-0.035155557096004486,0.05792803689837456,1.1333396434783936,-1.24723219871521,4.1171875,2,"['A1', 'B2', 'F2']",7.6,270,0,1.1879209040344667,[7800|0|0]
7800,1.2403572797775269,1.0823804140090942,-0.03504454344511032,0.05466771870851517,1.1223903894424438,-1.2225490808486938,4.1171875,2,"['A1', 'B2', 'F2']",7.6,270,0,1.1883344434578857,[7900|0|0]
7900,1.2402819395065308,1.0826973915100098,-0.034827202558517456,0.04472287371754646,1.1263030767440796,-1.226607084274292,4.1171875,2,"['A1', 'B2', 'F2']",7.6,270,0,1.1887260911994921,[8000|0|0]
8000,1.2401529550552368,1.0825546979904175,-0.03496016189455986,0.05026114359498024,1.1290181875228882,-1.2470117807388306,4.1171875,2,"['A1', 'B2', 'F2']",7.6,270,0,1.1889599215102948,[8100|0|0]
8100,1.240322470664978,1.0822563171386719,-0.0347074419260025,0.05790599435567856,1.1300122737884521,-1.2213470935821533,4.1171875,2,"['A1', 'B2', 'F2']",7.6,270,0,1.1893861069829965,[8200|0|0]
8200,1.2404413223266602,1.082255482673645,-0.03473547101020813,0.05259281396865845,1.12660813331604,-1.2533230781555176,4.1171875,2,"['A1', 'B2', 'F2']",7.6,270,0,1.1895082218607875,[8300|0|0]
8300,1.2400771379470825,1.0823116302490234,-0.034605722874403,0.05356283485889435,1.1412216424942017,-1.2635502815246582,4.1171875,2,"['A1', 'B2', 'F2']",7.6,270,0,1.189898884619819,[8400|0|0]
8400,1.2405061721801758,1.0826705694198608,-0.03493327647447586,0.042806319892406464,1.1351627111434937,-1.216209888458252,4.1171875,2,"['A1', 'B2', 'F2']",7.6,270,0,1.1905471122514795,[8500|0|0]
8500,1.2401119470596313,1.0826818943023682,-0.034910015761852264,0.05233888328075409,1.1390632390975952,-1.212322473526001,4.1171875,2,"['A1', 'B2', 'F2']",7.6,270,0,1.1909421853578583,[8600|0|0]
8600,1.240478515625,1.0824570655822754,-0.03480586037039757,0.05784790962934494,1.1236190795898438,-1.229699969291687,4.1171875,2,"['A1', 'B2', 'F2']",7.6,270,0,1.1913846430530837,[8700|0|0]
8700,1.2405263185501099,1.0823724269866943,-0.03515765815973282,0.064780093729496,1.1204302310943604,-1.2338430881500244,4.1171875,2,"['A1', 'B2', 'F2']",7.6,270,0,1.191749623184176,[8800|0|0]
8800,1.2402424812316895,1.0823670625686646,-0.034614212810993195,0.06289348006248474,1.1306272745132446,-1.2021845579147339,4.1171875,2,"['A1', 'B2', 'F2']",7.6,270,0,1.1923627506157721,[8900|0|0]
8900,1.2404652833938599,1.0823826789855957,-0.03515409678220749,0.051447488367557526,1.1240209341049194,-1.2503612041473389,4.1171875,2,"['A1', 'B2', 'F2']",7.6,270,0,1.1929470102997481,[9000|0|0]
9000,1.2404533624649048,1.082650065422058,-0.03458045795559883,0.041843824088573456,1.1270215511322021,-1.2620762586593628,4.1171875,2,"['A1', 'B2', 'F2']",7.6,270,0,1.1935800182920706,[9100|0|0]
9100,1.2402639389038086,1.082290530204773,-0.0349242240190506,0.04711858928203583,1.1305930614471436,-1.2880030870437622,4.1171875,2,"['A1', 'B2', 'F2']",7.6,270,0,1.1941122982600834,[9200|0|0]
9200,1.2401690483093262,1.0824248790740967,-0.034865740686655045,0.0415886715054512,1.1296091079711914,-1.2622309923171997,4.1171875,2,"['A1', 'B2', 'F2']",7.6,270,0,1.1942868667102051,[9300|0|0]
9300,1.2403225898742676,1.0821566581726074,-0.03485368564724922,0.040306463837623596,1.1229914426803589,-1.264172077178955,4.1171875,2,"['A1', 'B2', 'F2']",7.6,270,0,1.194596160725885,[9400|0|0]
9400,1.2401795387268066,1.08230459690094,-0.03526429459452629,0.04250752925872803,1.1328186988830566,-1.2820466756820679,4.1171875,2,"['A1', 'B2', 'F2']",7.6,270,0,1.195055452796048,[9500|0|0]
9500,1.2402245998382568,1.082170009613037,-0.03490268439054489,0.04348151013255119,1.1303162574768066,-1.2907497882843018,4.1171875,2,"['A1', 'B2', 'F2']",7.6,270,0,1.1954439192443465,[9600|0|0]
9600,1.2400814294815063,1.0825690031051636,-0.034971438348293304,0.03713972866535187,1.1305042505264282,-1.2930251359939575,4.1171875,2,"['A1', 'B2', 'F2']",7.6,270,0,1.1958733615158073,[9700|0|0]
9700,1.2402836084365845,1.0824817419052124,-0.0348319448530674,0.051565080881118774,1.1284191608428955,-1.284156322479248,4.1171875,2,"['A1', 'B2', 'F2']",7.6,270,0,1.1961340323467489,[9800|0|0]
9800,1.2401297092437744,1.082535982131958,-0.034521982073783875,0.04445778951048851,1.1345795392990112,-1.2520341873168945,4.1171875,2,"['A1', 'B2', 'F2']",7.6,270,0,1.1964843234946332,[9900|0|0]
9900,1.2400456666946411,1.0823780298233032,-0.03490816801786423,0.0499415323138237,1.1430943012237549,-1.2441741228103638,4.1171875,2,"['A1', 'B2', 'F2']",7.6,270,0,1.1969099426498406,[10000|0|0]
10000,1.2401961088180542,1.0825653076171875,-0.03475756570696831,0.047007687389850616,1.1349544525146484,-1.2594267129898071,4.1171875,2,"['A1', 'B2', 'F2']",7.6,270,0,1.1971934684169703,[10100|0|0]
10100,1.2402470111846924,1.082654356956482,-0.034968744963407516,0.037163399159908295,1.1315141916275024,-1.2517575025558472,4.1171875,2,"['A1', 'B2', 'F2']",7.6,270,0,1.1974282396121974,[10200|0|0]
10200,1.2401515245437622,1.0826445817947388,-0.03455119952559471,0.03823290020227432,1.1330573558807373,-1.2446200847625732,4.1171875,2,"['A1', 'B2', 'F2']",7.6,270,0,1.1978566756576248,[10300|0|0]
10300,1.24021577835083,1.0827432870864868,-0.03490709885954857,0.03713047131896019,1.1228916645050049,-1.2168058156967163,4.1171875,2,"['A1', 'B2', 'F2']",7.6,270,0,1.1982315564683508,[10400|0|0]
10400,1.2401856184005737,1.0824517011642456,-0.034880898892879486,0.03781367465853691,1.1147756576538086,-1.252185583114624,4.1171875,2,"['A1', 'B2', 'F2']",7.6,270,0,1.1985258665274758,[10500|0|0]
10500,1.2400940656661987,1.082503080368042,-0.03484571725130081,0.03714723512530327,1.1139293909072876,-1.2655938863754272,4.1171875,2,"['A1', 'B2', 'F2']",7.6,270,0,1.1986365890349369,[10600|0|0]
10600,1.2404556274414062,1.0825449228286743,-0.034851785749197006,0.035515666007995605,1.110090970993042,-1.2355042695999146,4.1171875,2,"['A1', 'B2', 'F2']",7.6,270,0,1.1990006144948564,[10700|0|0]
10700,1.2401257753372192,1.0825412273406982,-0.03478148207068443,0.036779824644327164,1.1163231134414673,-1.2394801378250122,4.1171875,2,"['A1', 'B2', 'F2']",7.6,270,0,1.1993378957935974,[10800|0|0]
10800,1.2403509616851807,1.0825657844543457,-0.035080164670944214,0.039582446217536926,1.1106117963790894,-1.2505519390106201,4.1171875,2,"['A1', 'B2', 'F2']",7.6,270,0,1.1997127600874917,[10900|0|0]
10900,1.2402405738830566,1.0826998949050903,-0.03522114455699921,0.03440719097852707,1.1187539100646973,-1.2625138759613037,4.1171875,2,"['A1', 'B2', 'F2']",7.6,270,0,1.1999364706329043,[11000|0|0]
11000,1.240432858467102,1.0828851461410522,-0.03489533066749573,0.027548357844352722,1.1113789081573486,-1.254117488861084,4.1171875,2,"['A1', 'B2', 'F2']",7.6,270,0,1.2003577141162727,[11100|0|0]
11100,1.2401374578475952,1.0821009874343872,-0.03532519191503525,0.053189169615507126,1.1148176193237305,-1.2315032482147217,4.1171875,2,"['A1', 'B2', 'F2']",7.6,270,0,1.2012994928033218,[11200|0|0]
11200,1.2406574487686157,1.0826681852340698,-0.034854065626859665,0.03321368619799614,1.1024574041366577,-1.1887190341949463,4.1171875,2,"['A1', 'B2', 'F2']",7.6,270,0,1.2022017476904345,[11300|0|0]
11300,1.240373134613037,1.0823818445205688,-0.03498873487114906,0.03467443212866783,1.1234229803085327,-1.2136715650558472,4.1171875,2,"['A1', 'B2', 'F2']",7.6,270,0,1.2026271432106603,[11400|0|0]
11400,1.2402175664901733,1.0827245712280273,-0.03479578718543053,0.029534196481108665,1.1280882358551025,-1.1925177574157715,4.1171875,2,"['A1', 'B2', 'F2']",7.6,270,0,1.2030500992914546,[11500|0|0]
11500,1.2402085065841675,1.0826696157455444,-0.03487803041934967,0.030679497867822647,1.1305948495864868,-1.1965986490249634,4.1171875,2,"['A1', 'B2', 'F2']",7.6,270,0,1.2031494277187915,[11600|0|0]
11600,1.240294098854065,1.0823715925216675,-0.03520732372999191,0.03982704132795334,1.1192009449005127,-1.22650945186615,4.1171875,2,"['A1', 'B2', 'F2']",7.6,270,0,1.2036017306737563,[11700|0|0]
11700,1.240139365196228,1.082763433456421,-0.03476175293326378,0.03137555345892906,1.1269336938858032,-1.217838168144226,4.1171875,2,"['A1', 'B2', 'F2']",7.6,270,0,1.2042149314222172,[11800|0|0]
11800,1.2399523258209229,1.0824415683746338,-0.03506094217300415,0.039270997047424316,1.136398196220398,-1.195220708847046,4.1171875,2,"['A1', 'B2', 'F2']",7.6,270,0,1.204692524407891,[11900|0|0]
11900,1.240553855895996,1.082464337348938,-0.0352218933403492,0.03948962688446045,1.1237863302230835,-1.2148947715759277,4.1171875,2,"['A1', 'B2', 'F2']",7.6,270,0,1.2053156312491937,[12000|0|0]
12000,1.2401189804077148,1.0824165344238281,-0.03504108637571335,0.042297959327697754,1.136352300643921,-1.2352511882781982,4.1171875,2,"['A1', 'B2', 'F2']",7.6,270,0,1.2057890158374702,[12100|0|0]
12100,1.240411639213562,1.0825358629226685,-0.034677982330322266,0.04650818184018135,1.1215678453445435,-1.256517767906189,4.1171875,2,"['A1', 'B2', 'F2']",7.6,270,0,1.2062704023921793,[12200|0|0]
12200,1.2398579120635986,1.0825183391571045,-0.034873850643634796,0.05254316329956055,1.138474702835083,-1.2737597227096558,4.1171875,2,"['A1', 'B2', 'F2']",7.6,270,0,1.206858012156501,[12300|0|0]
12300,1.2402271032333374,1.082383394241333,-0.035146333277225494,0.05674251541495323,1.1237984895706177,-1.2603180408477783,4.1171875,2,"['A1', 'B2', 'F2']",7.6,270,0,1.2073362997642372,[12400|0|0]
12400,1.2405318021774292,1.082298755645752,-0.035281311720609665,0.055038969963788986,1.1174519062042236,-1.2543883323669434,4.1171875,2,"['A1', 'B2', 'F2']",7.6,270,0,1.2076801373982609,[12500|0|0]
12500,1.2402390241622925,1.0822877883911133,-0.03463761880993843,0.06145058199763298,1.125727653503418,-1.240126371383667,4.1171875,2,"['A1', 'B2', 'F2']",7.6,270,0,1.2083873713129385,[12600|0|0]
12600,1.2402080297470093,1.0825423002243042,-0.03497302159667015,0.05277146026492119,1.1251202821731567,-1.2363367080688477,4.1171875,2,"['A1', 'B2', 'F2']",7.6,270,0,1.2088095465802864,[12700|0|0]
12700,1.2400357723236084,1.0824110507965088,-0.03491047024726868,0.06007135659456253,1.1307533979415894,-1.2464187145233154,4.1171875,2,"['A1', 'B2', 'F2']",7.6,270,0,1.2090349610951812,[12800|0|0]
12800,1.240336537361145,1.0826698541641235,-0.03474622592329979,0.05794992297887802,1.1194349527359009,-1.2046643495559692,4.1171875,2,"['A1', 'B2', 'F2']",7.6,270,0,1.2094643967584058,[12900|0|0]
12900,1.2402867078781128,1.0826115608215332,-0.03465127944946289,0.06218329817056656,1.1267342567443848,-1.16873300075531,4.1171875,2,"['A1', 'B2', 'F2']",7.6,270,0,1.2095864456177354,[13000|0|0]
13000,1.240030288696289,1.082232117652893,-0.0346832349896431,0.06813739240169525,1.134369969367981,-1.1714186668395996,4.1171875,2,"['A1', 'B2', 'F2']",7.6,270,0,1.210045519763798,[13100|0|0]
13100,1.2403388023376465,1.0826297998428345,-0.03496953472495079,0.05367911234498024,1.12302827835083,-1.2200466394424438,4.1171875,2,"['A1', 'B2', 'F2']",7.6,270,0,1.2106245701325375,[13200|0|0]
13200,1.2402892112731934,1.0828073024749756,-0.03480331227183342,0.0443832203745842,1.124457836151123,-1.2075040340423584,4.1171875,2,"['A1', 'B2', 'F2']",7.6,270,0,1.2108727562764114,[13300|0|0]
13300,1.2402293682098389,1.0828031301498413,-0.03509713336825371,0.05030997842550278,1.1244192123413086,-1.2130818367004395,4.1171875,2,"['A1', 'B2', 'F2']",7.6,270,0,1.211172638648735,[13400|0|0]
13400,1.2404013872146606,1.0823208093643188,-0.0349312350153923,0.06660255789756775,1.1169440746307373,-1.1920133829116821,4.1171875,2,"['A1', 'B2', 'F2']",7.6,270,0,1.2117109193762823,[13500|0|0]
13500,1.2402124404907227,1.082431435585022,-0.03476454317569733,0.06538531184196472,1.1191706657409668,-1.2003365755081177,4.1171875,2,"['A1', 'B2', 'F2']",7.6,270,0,1.2119861014880098,[13600|0|0]
13600,1.240207552909851,1.082377314567566,-0.03496120497584343,0.0681648701429367,1.1189944744110107,-1.2179173231124878,4.1171875,2,"['A1', 'B2', 'F2']",7.6,270,0,1.212190132947873,[13700|0|0]
13700,1.2403159141540527,1.0824456214904785,-0.03473149612545967,0.0675731897354126,1.1107215881347656,-1.2096927165985107,4.1171875,2,"['A1', 'B2', 'F2']",7.6,270,0,1.2124531427402903,[13800|0|0]
13800,1.2400646209716797,1.0823811292648315,-0.0351114422082901,0.07135709375143051,1.1207762956619263,-1.2024261951446533,4.1171875,2,"['A1', 'B2', 'F2']",7.6,270,0,1.2129132150569257,[13900|0|0]
13900,1.2404433488845825,1.0825304985046387,-0.03501656651496887,0.06637322902679443,1.098504900932312,-1.1877260208129883,4.1171875,2,"['A1', 'B2', 'F2']",7.6,270,0,1.2133312430452177,[14000|0|0]
14000,1.2401145696640015,1.0825023651123047,-0.03491858392953873,0.0729159340262413,1.108625888824463,-1.1968756914138794,4.1171875,2,"['A1', 'B2', 'F2']",7.6,270,0,1.2136754636876808,[14100|0|0]
14100,1.2401537895202637,1.0820311307907104,-0.034566622227430344,0.08658920973539352,1.1055188179016113,-1.1785202026367188,4.1171875,2,"['A1', 'B2', 'F2']",7.6,270,0,1.2142649355044155,[14200|0|0]
14200,1.2404323816299438,1.0821219682693481,-0.03507519140839577,0.07675017416477203,1.097824215888977,-1.178118348121643,4.1171875,2,"['A1', 'B2', 'F2']",7.6,270,0,1.2148518832217883,[14300|0|0]
14300,1.2405476570129395,1.0823049545288086,-0.03490673378109932,0.07379354536533356,1.0941853523254395,-1.1473957300186157,4.1171875,2,"['A1', 'B2', 'F2']",7.6,270,0,1.2151260188766573,[14400|0|0]
14400,1.2404444217681885,1.0826327800750732,-0.03485172986984253,0.06407347321510315,1.0991008281707764,-1.204487681388855,4.1171875,2,"['A1', 'B2', 'F2']",7.6,270,0,1.2154740886035742,[14500|0|0]
14500,1.2400610446929932,1.0826042890548706,-0.034816768020391464,0.06584325432777405,1.1147971153259277,-1.1703203916549683,4.1171875,2,"['A1', 'B2', 'F2']",7.6,270,0,1.2158601093943802,[14600|0|0]
14600,1.2402749061584473,1.082526683807373,-0.03501805663108826,0.06569399684667587,1.105094075202942,-1.2144114971160889,4.1171875,2,"['A1', 'B2', 'F2']",7.6,270,0,1.2161638797116292,[14700|0|0]
14700,1.2404160499572754,1.0828437805175781,-0.03511350601911545,0.0645320937037468,1.1010324954986572,-1.2489982843399048,4.1171875,2,"['A1', 'B2', 'F2']",7.6,270,0,1.216523855379203,[14800|0|0]
14800,1.2402828931808472,1.0823090076446533,-0.034799981862306595,0.07872236520051956,1.1079422235488892,-1.257049560546875,4.1171875,2,"['A1', 'B2', 'F2']",7.6,270,0,1.2171578980825186,[14900|0|0]
14900,1.240160346031189,1.0823763608932495,-0.03457361459732056,0.06901879608631134,1.118066430091858,-1.2237602472305298,4.1171875,2,"['A1', 'B2', 'F2']",7.6,270,0,1.217423974016498,[15000|0|0]
15000,1.2404026985168457,1.0824054479599,-0.03509632125496864,0.06014825031161308,1.1155903339385986,-1.2191362380981445,4.1171875,2,"['A1', 'B2', 'F2']",7.6,270,0,1.2180008648507985,[15100|0|0]
15100,1.2405102252960205,1.082460641860962,-0.034998465329408646,0.05590255558490753,1.1082329750061035,-1.211893081665039,4.1171875,2,"['A1', 'B2', 'F2']",7.6,270,0,1.2181563774133821,[15200|0|0]
15200,1.2405948638916016,1.0823525190353394,-0.034746333956718445,0.056494418531656265,1.106252908706665,-1.2179218530654907,4.1171875,2,"['A1', 'B2', 'F2']",7.6,270,0,1.218443474028439,[15300|0|0]
15300,1.2399641275405884,1.0822200775146484,-0.034938082098960876,0.0606389045715332,1.1187454462051392,-1.2281845808029175,4.1171875,2,"['A1', 'B2', 'F2']",7.6,270,0,1.2191158849526111,[15400|0|0]
15400,1.2401676177978516,1.0827397108078003,-0.03474283590912819,0.04129147157073021,1.114731788635254,-1.2424746751785278,4.1171875,2,"['A1', 'B2', 'F2']",7.6,270,0,1.2197071108982505,[15500|0|0]
15500,1.240439534187317,1.0825848579406738,-0.034969281405210495,0.044810205698013306,1.1075575351715088,-1.2111246585845947,4.1171875,2,"['A1', 'B2', 'F2']",7.6,270,0,1.220093369226333,[15600|0|0]
15600,1.2399617433547974,1.082205891609192,-0.03503164276480675,0.055214300751686096,1.1245254278182983,-1.217962622642517,4.1171875,2,"['A1', 'B2', 'F2']",7.6,270,0,1.2207063851308633,[15700|0|0]
15700,1.2400281429290771,1.0821213722229004,-0.034798525273799896,0.056754220277071,1.1221715211868286,-1.2460696697235107,4.1171875,2,"['A1', 'B2', 'F2']",7.6,270,0,1.220963087672216,[15800|0|0]
15800,1.2403539419174194,1.0824371576309204,-0.034637730568647385,0.048388540744781494,1.1174081563949585,-1.2715445756912231,4.1171875,2,"['A1', 'B2', 'F2']",7.6,270,0,1.2214444610635955,[15900|0|0]
15900,1.24001944065094,1.08242666721344,-0.03530354052782059,0.05091869458556175,1.1259323358535767,-1.221537470817566,4.1171875,2,"['A1', 'B2', 'F2']",7.6,270,0,1.2221896483205112,[16000|0|0]
16000,1.240488052368164,1.0823400020599365,-0.03479943424463272,0.060572389513254166,1.1093555688858032,-1.202781081199646,4.1171875,2,"['A1', 'B2', 'F2']",7.6,270,0,1.2228833564256254,[16100|0|0]
16100,1.2403331995010376,1.0826008319854736,-0.03506584092974663,0.05212945118546486,1.1197210550308228,-1.2196253538131714,4.1171875,2,"['A1', 'B2', 'F2']",7.6,270,0,1.223287069420693,[16200|0|0]
16200,1.2404072284698486,1.0827018022537231,-0.03482189401984215,0.04728810861706734,1.1137502193450928,-1.28421151638031,4.1171875,2,"['A1', 'B2', 'F2']",7.6,270,0,1.2235612689432045,[16300|0|0]
16300,1.2407615184783936,1.0825321674346924,-0.0346708782017231,0.04828276112675667,1.1028144359588623,-1.2658143043518066,4.1171875,2,"['A1', 'B2', 'F2']",7.6,270,0,1.2239821052050743,[16400|0|0]
16400,1.2404340505599976,1.0824222564697266,-0.034720730036497116,0.05458713322877884,1.109853982925415,-1.2753256559371948,4.1171875,2,"['A1', 'B2', 'F2']",7.6,270,0,1.2243311050091268,[16500|0|0]
16500,1.2404944896697998,1.0827093124389648,-0.03481454774737358,0.04646352306008339,1.1132142543792725,-1.2757929563522339,4.1171875,2,"['A1', 'B2', 'F2']",7.6,270,0,1.224639091661992,[16600|0|0]
16600,1.2404475212097168,1.0826523303985596,-0.034882329404354095,0.04452912509441376,1.112444281578064,-1.2836806774139404,4.1171875,2,"['A1', 'B2', 'F2']",7.6,270,0,1.2247393280934646,[16700|0|0]
16700,1.240344762802124,1.0826393365859985,-0.034916408360004425,0.04071301966905594,1.1212339401245117,-1.3264111280441284,4.1171875,2,"['A1', 'B2', 'F2']",7.6,270,0,1.2248483670989356,[16800|0|0]
16800,1.2402677536010742,1.08285391330719,-0.03474839776754379,0.036411333829164505,1.1250741481781006,-1.3451756238937378,4.1171875,2,"['A1', 'B2', 'F2']",7.6,270,0,1.2251315651665535,[16900|0|0]
16900,1.2403801679611206,1.0825798511505127,-0.03440620005130768,0.04160910099744797,1.1211285591125488,-1.3394625186920166,4.1171875,2,"['A1', 'B2', 'F2']",7.6,270,0,1.2255841646926962,[17000|0|0]
17000,1.24049711227417,1.0825426578521729,-0.03485459089279175,0.045687828212976456,1.1173630952835083,-1.3130288124084473,4.1171875,2,"['A1', 'B2', 'F2']",7.6,270,0,1.2260490449574126,[17100|0|0]
17100,1.240614891052246,1.0826913118362427,-0.03453816473484039,0.04627525433897972,1.121984601020813,-1.2644625902175903,4.1171875,2,"['A1', 'B2', 'F2']",7.6,270,0,1.2264179560049306,[17200|0|0]
17200,1.240269660949707,1.0828653573989868,-0.03504447266459465,0.04169902577996254,1.128936529159546,-1.2701715230941772,4.1171875,2,"['A1', 'B2', 'F2']",7.6,270,0,1.22705499870471,[17300|0|0]
17301,1.240572452545166,1.0827008485794067,-0.03446723148226738,0.047475870698690414,1.123852014541626,-1.2716071605682373,4.1171875,2,"['A1', 'B2', 'F2']",7.6,270,0,1.227727273413869,[17400|0|0]
17400,1.2403647899627686,1.0828144550323486,-0.034596625715494156,0.049692388623952866,1.1314283609390259,-1.2791049480438232,4.1171875,2,"['A1', 'B2', 'F2']",7.6,270,0,1.22799703820377,[17500|0|0]
17500,1.240399718284607,1.082956075668335,-0.03470182418823242,0.047865934669971466,1.1247563362121582,-1.2688477039337158,4.1171875,2,"['A1', 'B2', 'F2']",7.6,270,0,1.2281768801089814,[17600|0|0]
17601,1.2405259609222412,1.082298994064331,-0.03462019935250282,0.05861132964491844,1.1172106266021729,-1.2691333293914795,4.1171875,2,"['A1', 'B2', 'F2']",7.6,270,0,1.2288509394918885,[17700|0|0]
17701,1.2403299808502197,1.0826362371444702,-0.03457436338067055,0.04978770390152931,1.1208975315093994,-1.2486292123794556,4.1171875,2,"['A1', 'B2', 'F2']",7.6,270,0,1.229243676070329,[17800|0|0]
17801,1.2402619123458862,1.0824521780014038,-0.03479579836130142,0.05838698893785477,1.1141202449798584,-1.2470569610595703,4.1171875,2,"['A1', 'B2', 'F2']",7.6,270,0,1.2295395553363742,[17900|0|0]
17901,1.2402548789978027,1.0827887058258057,-0.03470411151647568,0.04747471213340759,1.1042413711547852,-1.2603027820587158,4.1171875,2,"['A1', 'B2', 'F2']",7.6,270,0,1.2298884205282405,[18000|0|0]
18001,1.2407234907150269,1.0827425718307495,-0.03461066633462906,0.04066282510757446,1.074674367904663,-1.2750340700149536,4.1171875,2,"['A1', 'B2', 'F2']",7.6,270,0,1.2303684802006043,[18100|0|0]
18101,1.240660309791565,1.0825990438461304,-0.03433363884687424,0.04522206634283066,1.0793333053588867,-1.3227171897888184,4.1171875,2,"['A1', 'B2', 'F2']",7.6,270,0,1.2306868138941243,[18200|0|0]
18202,1.2405086755752563,1.0823181867599487,-0.034690145403146744,0.049805786460638046,1.087780475616455,-1.3204925060272217,4.1171875,2,"['A1', 'B2', 'F2']",7.6,270,0,1.2311653225806487,[18300|0|0]
18302,1.2407416105270386,1.0827291011810303,-0.034710586071014404,0.04711361229419708,1.0858639478683472,-1.3580149412155151,4.1171875,2,"['A1', 'B2', 'F2']",7.6,270,0,1.2316381091859132,[18400|0|0]
18401,1.240570306777954,1.083073616027832,-0.03454233705997467,0.048220690339803696,1.0836659669876099,-1.3410333395004272,4.1171875,2,"['A1', 'B2', 'F2']",7.6,270,0,1.232058041542172,[18500|0|0]
18501,1.2404543161392212,1.0827502012252808,-0.03465647995471954,0.06358551234006882,1.0792344808578491,-1.3365545272827148,4.1171875,2,"['A1', 'B2', 'F2']",7.6,270,0,1.232420090659287,[18600|0|0]
18602,1.2406069040298462,1.0830715894699097,-0.03469152748584747,0.05640368536114693,1.0767992734909058,-1.3500916957855225,4.1171875,2,"['A1', 'B2', 'F2']",7.6,270,0,1.2327775844320847,[18700|0|0]
18702,1.240634799003601,1.0828722715377808,-0.0349612683057785,0.058889422565698624,1.0762310028076172,-1.3574298620224,4.1171875,2,"['A1', 'B2', 'F2']",7.6,270,0,1.2331141343950411,[18800|0|0]
18802,1.2407150268554688,1.0826289653778076,-0.03476910665631294,0.06503987312316895,1.0840541124343872,-1.350968360900879,4.1171875,2,"['A1', 'B2', 'F2']",7.6,270,0,1.23343438507064,[18900|0|0]
18902,1.2406617403030396,1.0822819471359253,-0.034731172025203705,0.07118677347898483,1.0938050746917725,-1.2845731973648071,4.1171875,2,"['A1', 'B2', 'F2']",7.6,270,0,1.2337875141590853,[19000|0|0]
19002,1.2411129474639893,1.0823882818222046,-0.03537603095173836,0.059866923838853836,1.084202766418457,-1.1743829250335693,4.1171875,2,"['A1', 'B2', 'F2']",7.6,270,0,1.2345817043143565,[19100|0|0]
19100,1.2415963411331177,1.082129716873169,-0.035885293036699295,0.06210960075259209,1.073096513748169,-1.1257822513580322,4.1171875,2,"['A1', 'B2', 'F2']",7.6,270,0,1.2353299510272808,[19200|0|0]
19200,1.2424218654632568,1.082227110862732,-0.03599578142166138,0.06450951099395752,1.0592418909072876,-1.0741175413131714,4.1171875,2,"['A1', 'B2', 'F2']",7.6,270,0,1.2361685115152996,[19300|0|0]
19302,1.240775227546692,1.0825351476669312,-0.03472045436501503,0.06237991899251938,1.0859735012054443,-1.0674967765808105,4.1171875,2,"['A1', 'B2', 'F2']",7.6,270,0,1.238273924112019,[19400|0|0]
19400,1.2406877279281616,1.0829687118530273,-0.034692469984292984,0.05438185855746269,1.0872505903244019,-1.294953465461731,4.1171875,2,"['A1', 'B2', 'F2']",7.6,270,0,1.2387171139271915,[19500|0|0]
19500,1.2406398057937622,1.0825302600860596,-0.034778617322444916,0.06309766322374344,1.0906201601028442,-1.297810435295105,4.1171875,2,"['A1', 'B2', 'F2']",7.6,270,0,1.2391665111310026,[19600|0|0]
19600,1.2406095266342163,1.0828198194503784,-0.035004742443561554,0.0585252046585083,1.08909010887146,-1.2880346775054932,4.1171875,2,"['A1', 'B2', 'F2']",7.6,270,0,1.239535149196546,[19700|0|0]
19700,1.2409336566925049,1.082663655281067,-0.03488415852189064,0.060495756566524506,1.0826516151428223,-1.2818634510040283,4.1171875,2,"['A1', 'B2', 'F2']",7.6,270,0,1.2399146067365008,[19800|0|0]
19800,1.2405623197555542,1.0824952125549316,-0.034444957971572876,0.06264544278383255,1.0890614986419678,-1.296334147453308,4.1171875,2,"['A1', 'B2', 'F2']",7.6,270,0,1.2405139073256304,[19900|0|0]
19900,1.240539789199829,1.0829466581344604,-0.03477867692708969,0.047879721969366074,1.086641550064087,-1.320242166519165,4.1171875,2,"['A1', 'B2', 'F2']",7.6,270,0,1.2410757605791483,[20000|0|0]
20000,1.2408814430236816,1.0825477838516235,-0.03455819934606552,0.05932847410440445,1.0762977600097656,-1.3061258792877197,4.11328125,2,"['A1', 'B2', 'F2']",7.6,270,0,1.2416453555164466,[20100|0|0]
20100,1.24044930934906,1.0829111337661743,-0.03465959429740906,0.055534400045871735,1.0854007005691528,-1.3065481185913086,4.1171875,2,"['A1', 'B2', 'F2']",7.6,270,0,1.2422189787458437,[20200|0|0]
20200,1.2405734062194824,1.082781195640564,-0.03482801467180252,0.06045837700366974,1.080962061882019,-1.311979055404663,4.1171875,2,"['A1', 'B2', 'F2']",7.6,270,0,1.2424652496784496,[20300|0|0]
20300,1.2406209707260132,1.082677960395813,-0.03491969406604767,0.07013808190822601,1.0850290060043335,-1.2930821180343628,4.1171875,2,"['A1', 'B2', 'F2']",7.6,270,0,1.2426112805291951,[20400|0|0]
20400,1.2406145334243774,1.0827364921569824,-0.034655481576919556,0.0669221356511116,1.0880813598632812,-1.2851743698120117,4.1171875,2,"['A1', 'B2', 'F2']",7.6,270,0,1.2428819752748574,[20500|0|0]
20500,1.2410248517990112,1.0827511548995972,-0.034465279430150986,0.05977755784988403,1.0820995569229126,-1.2889580726623535,4.1171875,2,"['A1', 'B2', 'F2']",7.6,270,0,1.243334471707129,[20600|0|0]
20600,1.2409555912017822,1.0823966264724731,-0.03494191914796829,0.06546730548143387,1.0850905179977417,-1.2473480701446533,4.1171875,2,"['A1', 'B2', 'F2']",7.6,270,0,1.2439325292767396,[20700|0|0]
20700,1.2408108711242676,1.0829510688781738,-0.03476652503013611,0.04461951553821564,1.0914520025253296,-1.24826979637146,4.1171875,2,"['A1', 'B2', 'F2']",7.6,270,0,1.244531789970132,[20800|0|0]
20800,1.24127197265625,1.0824326276779175,-0.034510962665081024,0.04978594556450844,1.0699936151504517,-1.291612982749939,4.1171875,2,"['A1', 'B2', 'F2']",7.6,270,0,1.2452711870375812,[20900|0|0]
20900,1.2409306764602661,1.082910418510437,-0.034865573048591614,0.03816165402531624,1.0824377536773682,-1.307708740234375,3.08203125,2,"['A/E1', 'B2', 'C1']",7.6,270,0,1.2459571285052928,[20900|0|0]
21000,1.2399861812591553,1.0832626819610596,-0.033099982887506485,-0.6106761693954468,1.4437079429626465,-0.3640132248401642,3.193359375,2,"['A/E1', 'B2', 'C1']",7.6,270,0,1.2479902220448247,[20900|0|0]
21100,1.2361202239990234,1.0884671211242676,-0.008716460317373276,-3.0353076457977295,3.9007015228271484,2.2321629524230957,3.509765625,2,"['A/E1', 'B2', 'C1']",7.6,270,0,1.2732209173477467,[20900|0|0]
21200,1.225885033607483,1.1003202199935913,0.04540001600980759,-2.66778302192688,4.317566394805908,3.9378206729888916,3.568359375,2,"['A/E1', 'B2', 'C1']",7.6,270,0,1.3295578331776656,[20900|0|0]
21300,1.2112640142440796,1.1166919469833374,0.11209283769130707,1.1281869411468506,-0.7629332542419434,4.240626811981201,3.57421875,2,"['A/E1', 'B2', 'C1']",7.6,270,0,1.3997699412195987,[20900|0|0]
21400,1.2009100914001465,1.1276344060897827,0.1792374849319458,2.4974863529205322,-2.354570150375366,4.08624267578125,3.568359375,2,"['A/E1', 'B2', 'C1']",7.6,270,0,1.4685837827242274,[20900|0|0]
21500,1.191777229309082,1.1387083530426025,0.25429102778434753,2.9020886421203613,-2.7366456985473633,3.8440446853637695,3.55859375,2,"['A/E1', 'B2', 'C1']",7.6,270,0,1.5449976281044042,[20900|0|0]
21600,1.1886537075042725,1.143784523010254,0.33447325229644775,2.9912610054016113,-2.2755887508392334,3.434500217437744,3.525390625,2,"['A/E1', 'B2', 'C1']",7.6,270,0,1.625401067195742,[20900|0|0]
21700,1.188215732574463,1.1462464332580566,0.41635918617248535,2.4757070541381836,-1.4802380800247192,2.902247428894043,3.505859375,2,"['A/E1', 'B2', 'C1']",7.6,270,0,1.7073251722617002,[20900|0|0]
21800,1.1909226179122925,1.1446375846862793,0.5008907318115234,1.417419672012329,-0.5975961089134216,2.5365357398986816,3.57421875,2,"['A/E1', 'B2', 'C1']",7.6,270,0,1.791915347992005,[20900|0|0]
21900,1.1943185329437256,1.1413908004760742,0.5866172909736633,0.4557451903820038,0.23348920047283173,1.9524157047271729,3.6484375,2,"['A/E1', 'B2', 'C1']",7.6,270,0,1.8777705562928892,[20900|0|0]
22000,1.1963063478469849,1.138102412223816,0.6641381978988647,-0.10800325125455856,0.38079074025154114,1.7668883800506592,3.66796875,2,"['A/E1', 'B2', 'C1']",7.6,270,0,1.9553866365591135,[20900|0|0]
22100,1.1977918148040771,1.1357707977294922,0.7296823263168335,-0.6613304018974304,0.656690776348114,1.6782711744308472,3.63671875,2,"['A/E1', 'B2', 'C1']",7.6,270,0,2.0209890435904256,[20900|0|0]
22200,1.1963393688201904,1.1355961561203003,0.7838577032089233,-0.565093457698822,0.5819361805915833,1.3423433303833008,3.62109375,2,"['A/E1', 'B2', 'C1']",7.6,270,0,2.0751841684673713,[20900|0|0]
22300,1.1953190565109253,1.1347930431365967,0.8174439072608948,-0.43790507316589355,0.4071633219718933,1.1922757625579834,3.58984375,2,"['A/E1', 'B2', 'C1']",7.6,270,0,2.1087954631507615,[20900|0|0]
22400,1.1933599710464478,1.1342190504074097,0.8466025590896606,-0.5182687640190125,0.22071866691112518,0.8313145041465759,3.546875,2,"['A/E1', 'B2', 'C1']",7.6,270,0,2.1380254898353455,[20900|0|0]
22500,1.190501093864441,1.1340304613113403,0.8685169816017151,-0.050214413553476334,-0.026961838826537132,0.5627764463424683,3.578125,2,"['A/E1', 'B2', 'C1']",7.6,270,0,2.160126409694614,[20900|0|0]
22600,1.1870598793029785,1.1369235515594482,0.8854840397834778,0.07321605086326599,-0.2793852388858795,0.30969974398612976,3.599609375,2,"['A/E1', 'B2', 'C1']",7.6,270,0,2.177678987630206,[20900|0|0]
22700,1.1839181184768677,1.1373354196548462,0.8991232514381409,0.4680413007736206,-0.46736398339271545,0.011665868572890759,3.599609375,2,"['A/E1', 'B2', 'C1']",7.6,270,0,2.191681429952072,[20900|0|0]
22800,1.1812782287597656,1.1386767625808716,0.9095988869667053,0.5578919649124146,-0.5864191651344299,0.026009373366832733,3.583984375,2,"['A/E1', 'B2', 'C1']",7.6,270,0,2.20256752926684,[20900|0|0]
22900,1.1798421144485474,1.137220859527588,0.9166306257247925,0.5306069254875183,-0.43265366554260254,-0.07791055738925934,3.57421875,2,"['A/E1', 'B2', 'C1']",7.6,270,0,2.2098906043024673,[20900|0|0]
23000,1.17923903465271,1.136332631111145,0.9221335649490356,0.4850355088710785,-0.6528028249740601,-0.05403303727507591,3.578125,2,"['A/E1', 'B2', 'C1']",7.6,270,0,2.215497296292013,[20900|0|0]
23100,1.1784147024154663,1.1341608762741089,0.9248532652854919,0.05989069119095802,-0.2863946855068207,-0.04089846462011337,3.568359375,2,"['A/E1', 'B2', 'C1']",7.6,270,0,2.219074000449428,[20900|0|0]
23200,1.178276777267456,1.1328117847442627,0.9260011911392212,-0.13247472047805786,-0.15634256601333618,0.2333110123872757,3.552734375,2,"['A/E1', 'B2', 'C1']",7.6,270,0,2.220850740460802,[20900|0|0]
23300,1.1782560348510742,1.1320550441741943,0.9265535473823547,-0.2953874468803406,-0.1806815266609192,0.6089615821838379,3.57421875,2,"['A/E1', 'B2', 'C1']",7.6,270,0,2.2217878551589862,[20900|0|0]
23400,1.178941011428833,1.1314746141433716,0.9260071516036987,-0.346958190202713,-0.15670888125896454,0.6822645664215088,3.55859375,2,"['A/E1', 'B2', 'C1']",7.6,270,0,2.2228388738456384,[20900|0|0]
23500,1.1791601181030273,1.1312514543533325,0.9239824414253235,-0.28212034702301025,-0.047704875469207764,0.6708783507347107,3.515625,2,"['A/E1', 'B2', 'C1']",7.6,270,0,2.2248875952354283,[20900|0|0]
23600,1.1794843673706055,1.1316382884979248,0.9215997457504272,-0.358008474111557,0.001861471333540976,0.6253949403762817,3.537109375,2,"['A/E1', 'B2', 'C1']",7.6,270,0,2.2273231684579198,[20900|0|0]
23700,1.1799980401992798,1.1328413486480713,0.920351505279541,-0.07716351747512817,-0.19042742252349854,0.6568306088447571,3.541015625,2,"['A/E1', 'B2', 'C1']",7.6,270,0,2.229131293943871,[20900|0|0]
23800,1.1809214353561401,1.134070873260498,0.9205744862556458,0.18955673277378082,-0.08327502012252808,0.7279184460639954,3.55859375,2,"['A/E1', 'B2', 'C1']",7.6,270,0,2.2306850345605707,[20900|0|0]
23900,1.1820935010910034,1.1351497173309326,0.920188844203949,0.1302865892648697,0.1330804079771042,0.6034467816352844,3.44140625,2,"['A/E1', 'B2', 'C1']",7.6,270,347.19573393471325,2.2323240471923675,[20900|0|0]
24000,1.1842962503433228,1.1324886083602905,0.9244911670684814,10.597569465637207,-2.3804054260253906,1.6135400533676147,3.314453125,2,"['A/E1', 'B2', 'C1']",7.6,270,347.19573393471325,2.237841617966984,[20900|0|0]
24100,1.1933590173721313,1.1087733507156372,0.9464432001113892,16.787282943725586,-5.929409027099609,2.7749595642089844,3.3828125,2,"['A/E1', 'B2', 'C1']",7.6,270,347.19573393471325,2.271404081316501,[20900|0|0]
24200,1.2143545150756836,1.052355408668518,0.9853715300559998,16.38604736328125,-2.3438003063201904,4.638952732086182,3.521484375,2,"['A/E1', 'B2', 'C1']",7.6,270,347.19573393471325,2.3430923647450252,[20900|0|0]
24300,1.2424125671386719,0.971062183380127,1.0347027778625488,10.913752555847168,0.20388107001781464,7.174345016479492,3.60546875,2,"['A/E1', 'B2', 'C1']",7.6,270,347.19573393471325,2.442235769838403,[20900|0|0]
24400,1.2727539539337158,0.8738353252410889,1.088512897491455,4.467871189117432,1.0173386335372925,3.1551129817962646,3.62109375,2,"['A/E1', 'B2', 'C1']",7.6,270,347.19573393471325,2.557427742955944,[20900|0|0]
24500,1.3011724948883057,0.7771088480949402,1.1373165845870972,-2.1475813388824463,2.5196146965026855,0.40206581354141235,3.60546875,2,"['A/E1', 'B2', 'C1']",7.6,270,347.19573393471325,2.669434103155807,[20900|0|0]
24600,1.3283288478851318,0.6874722242355347,1.1772212982177734,-6.999417781829834,3.4019083976745605,-0.9559707045555115,3.599609375,2,"['A/E1', 'B2', 'C1']",7.6,270,347.19573393471325,2.7712406747263447,[20900|0|0]
24700,1.3520115613937378,0.6127017140388489,1.204561710357666,-9.811487197875977,4.396968364715576,-1.519377589225769,3.55859375,2,"['A/E1', 'B2', 'C1']",7.6,270,347.19573393471325,2.854300883311338,[20900|0|0]
24800,1.3712157011032104,0.5546854138374329,1.2198984622955322,-11.03283405303955,4.694854736328125,-1.5946075916290283,3.515625,2,"['A/E1', 'B2', 'C1']",7.6,270,347.19573393471325,2.9173080736235986,[20900|0|0]
24900,1.3851438760757446,0.5149434208869934,1.2258507013320923,-10.037446022033691,4.75596809387207,-1.4704262018203735,3.46875,2,"['A/E1', 'B2', 'C1']",7.6,270,347.19573393471325,2.9598386415869666,[20900|0|0]
25000,1.3944158554077148,0.4920661449432373,1.2262738943099976,-8.349875450134277,4.361234188079834,-0.9694490432739258,3.45703125,2,"['A/E1', 'B2', 'C1']",7.6,270,347.19573393471325,2.984527068990019,[20900|0|0]
25100,1.3985170125961304,0.48247379064559937,1.2250001430511475,-5.711485862731934,3.775830030441284,0.06060998886823654,3.447265625,2,"['A/E1', 'B2', 'C1']",7.6,270,347.19573393471325,2.9950368355680608,[20900|0|0]
25200,1.3968262672424316,0.4817374348640442,1.2241430282592773,-3.107707977294922,2.8281521797180176,1.2290550470352173,3.44140625,2,"['A/E1', 'B2', 'C1']",7.6,270,347.19573393471325,2.997070424871368,[20900|0|0]
25300,1.3930108547210693,0.4845101237297058,1.2244994640350342,-1.02433443069458,2.004335403442383,2.0048232078552246,3.46875,2,"['A/E1', 'B2', 'C1']",7.6,270,347.19573393471325,3.0018003532763413,[20900|0|0]
25400,1.3864094018936157,0.48839908838272095,1.2256230115890503,0.34078630805015564,1.4420708417892456,2.2949187755584717,3.47265625,2,"['A/E1', 'B2', 'C1']",7.6,270,347.19573393471325,3.00954409814634,[20900|0|0]
25500,1.378218173980713,0.4909608066082001,1.2262922525405884,0.7312655448913574,0.9079532027244568,2.30417799949646,3.462890625,2,"['A/E1', 'B2', 'C1']",7.6,270,347.19573393471325,3.0181526112838735,[20900|0|0]
25600,1.3697048425674438,0.49245119094848633,1.2275340557098389,0.595954179763794,0.4937215745449066,2.530089855194092,3.462890625,2,"['A/E1', 'B2', 'C1']",7.6,270,347.19573393471325,3.026884170843602,[20900|0|0]
25700,1.3613545894622803,0.4914073646068573,1.2285507917404175,0.6765732765197754,-0.03611001372337341,2.6386148929595947,3.453125,2,"['A/E1', 'B2', 'C1']",7.6,270,347.19573393471325,3.0353606118719845,[20900|0|0]
25800,1.3532215356826782,0.48996976017951965,1.2289875745773315,0.3768879175186157,-0.3859604299068451,2.6153461933135986,3.453125,2,"['A/E1', 'B2', 'C1']",7.6,270,347.19573393471325,3.043631285938711,[20900|0|0]
25900,1.3472782373428345,0.4860661029815674,1.2298518419265747,0.05729404464364052,-0.708121120929718,2.3777167797088623,3.453125,2,"['A/E1', 'B2', 'C1']",7.6,270,347.19573393471325,3.050794266653922,[20900|0|0]
26000,1.3413293361663818,0.48510897159576416,1.2290215492248535,-0.23909129202365875,-0.6514870524406433,2.0775113105773926,3.45703125,2,"['A/E1', 'B2', 'C1']",7.6,270,347.19573393471325,3.0568766109114773,[20900|0|0]
26100,1.33737051486969,0.48286131024360657,1.2289602756500244,-0.3718457520008087,-0.7403308153152466,1.5628421306610107,3.435546875,2,"['A/E1', 'B2', 'C1']",7.6,270,347.19573393471325,3.0614294124736032,[20900|0|0]
26200,1.334345817565918,0.48099377751350403,1.2275382280349731,-0.4199295938014984,-0.4524877965450287,1.439697265625,3.44140625,2,"['A/E1', 'B2', 'C1']",7.6,270,347.19573393471325,3.065258079565023,[20900|0|0]
26300,1.3324782848358154,0.48016637563705444,1.2255792617797852,-0.5962916016578674,-0.3351697027683258,1.3902573585510254,3.462890625,2,"['A/E1', 'B2', 'C1']",7.6,270,347.19573393471325,3.068088242308068,[20900|0|0]
26400,1.3309365510940552,0.47911006212234497,1.2234457731246948,-0.42380252480506897,-0.06921729445457458,0.7939678430557251,3.45703125,2,"['A/E1', 'B2', 'C1']",7.6,270,347.19573393471325,3.0709245277332746,[20900|0|0]
26500,1.329159140586853,0.47921207547187805,1.2208675146102905,-0.3309743404388428,0.2218436449766159,0.3674964904785156,3.46875,2,"['A/E1', 'B2', 'C1']",7.6,270,347.19573393471325,3.074057738833998,[20900|0|0]
26600,1.327075481414795,0.4793485999107361,1.2183935642242432,-0.1112968921661377,0.25586751103401184,0.10241466015577316,3.46875,2,"['A/E1', 'B2', 'C1']",7.6,270,347.19573393471325,3.07729513052799,[20900|0|0]
26700,1.3241597414016724,0.4802672564983368,1.2163689136505127,-0.08413825184106827,0.05836589261889458,0.0304776169359684,3.453125,2,"['A/E1', 'B2', 'C1']",7.6,270,347.19573393471325,3.080961829274243,[20900|0|0]
26800,1.320865511894226,0.48113521933555603,1.2143374681472778,-0.05112301930785179,-0.3055497109889984,0.06561707705259323,3.45703125,2,"['A/E1', 'B2', 'C1']",7.6,270,347.19573393471325,3.0849281976846576,[20900|0|0]
26900,1.317972183227539,0.48167240619659424,1.2125312089920044,0.06965947151184082,-0.4304424822330475,0.47524645924568176,3.462890625,2,"['A/E1', 'B2', 'C1']",7.6,270,0,3.0883810939520187,[20900|0|0]
27000,1.3158833980560303,0.4810958802700043,1.2015188932418823,0.3982338011264801,-0.9036617279052734,0.5275224447250366,3.84765625,2,"['A/E1', 'B2', 'C1']",7.6,270,0,3.0996045739745934,[20900|0|0]
27100,1.3141965866088867,0.481393039226532,1.1529768705368042,0.08564827591180801,-0.9237520694732666,-0.32587283849716187,3.7265625,2,"['A/E1', 'B2', 'C1']",7.6,270,0,3.1481768047716647,[20900|0|0]
27200,1.3122193813323975,0.4815492630004883,1.067265272140503,-0.5444471836090088,-1.2221510410308838,-0.5505934357643127,3.57421875,2,"['A/E1', 'B2', 'C1']",7.6,270,0,3.233911347671372,[20900|0|0]
27300,1.310449481010437,0.4809176027774811,0.9547741413116455,-0.2967417538166046,-0.5558889508247375,0.49714013934135437,3.431640625,2,"['A/E1', 'B2', 'C1']",7.6,270,0,3.346418174383986,[20900|0|0]
27400,1.3104251623153687,0.48034676909446716,0.8299419283866882,-0.28667178750038147,-0.666843056678772,2.872579574584961,3.404296875,2,"['A/E1', 'B2', 'C1']",7.6,270,0,3.4712516948271523,[20900|0|0]
27500,1.3107253313064575,0.4795563519001007,0.7032651901245117,0.7934228181838989,1.1128084659576416,4.516896724700928,3.435546875,2,"['A/E1', 'B2', 'C1']",7.6,270,0,3.59793125465236,[20900|0|0]
27600,1.3076918125152588,0.4791550636291504,0.5771529078483582,-5.7455339431762695,6.584444522857666,7.294908046722412,3.583984375,2,"['A/E1', 'B2', 'C1']",7.6,270,0,3.724080654212696,[20900|0|0]
27700,1.2909047603607178,0.4814144968986511,0.44983673095703125,1.8911025524139404,9.421586990356445,8.548931121826172,3.330078125,2,"['A/E1', 'B2', 'C1']",7.6,270,0,3.852518651148814,[20900|0|0]
27800,1.2596849203109741,0.4832492768764496,0.3247242569923401,-8.243766784667969,-0.4588097035884857,7.773270606994629,3.37890625,2,"['A/E1', 'B2', 'C1']",7.6,270,0,3.9814805678989305,[20900|0|0]
27900,1.2160990238189697,0.49695807695388794,0.20970837771892548,-4.5034074783325195,10.299470901489258,11.14904499053955,3.388671875,2,"['A/E1', 'B2', 'C1']",7.6,270,0,4.105239664767046,[20900|0|0]
28000,1.1449413299560547,0.5236687660217285,0.10079239308834076,-3.937255859375,12.829181671142578,12.887187004089355,3.3515625,2,"['A/E1', 'B2', 'C1']",7.6,270,0,4.238053707753535,[20900|0|0]
28100,1.055565595626831,0.543245255947113,0.012872286140918732,6.786731243133545,-2.109757423400879,13.208725929260254,3.251953125,2,"['A/E1', 'B2', 'C1']",7.6,270,0,4.36494423557312,[20900|0|0]
28200,0.9693295955657959,0.5526087284088135,-0.014466894790530205,0.8861453533172607,5.618826866149902,17.774335861206055,3.6484375,2,"['A/E1', 'B2', 'C1']",7.6,270,0,4.455893414442807,[20900|0|0]
28300,0.8845309019088745,0.5507097840309143,0.00797271728515625,6.3809309005737305,14.160816192626953,18.168716430664062,3.642578125,2,"['A/E1', 'B2', 'C1']",7.6,270,0,4.543631437134101,[20900|0|0]
28400,0.7939935326576233,0.5343091487884521,0.020532870665192604,14.886396408081055,-14.7493896484375,18.300329208374023,3.568359375,2,"['A/E1', 'B2', 'C1']",7.6,270,0,4.636495604175128,[20900|0|0]
28500,0.7248299717903137,0.5049321055412292,0.019419776275753975,11.423490524291992,-24.024917602539062,8.322480201721191,3.505859375,2,"['A/E1', 'B2', 'C1']",7.6,270,0,4.7116477684880405,[20900|0|0]
28600,0.6924085021018982,0.46378472447395325,0.006650920026004314,2.123180389404297,-30.436372756958008,1.7546212673187256,3.478515625,2,"['A/E1', 'B2', 'C1']",7.6,270,0,4.765567174599192,[20900|0|0]
28700,0.7008314728736877,0.4284262955188751,-0.0024092241656035185,-6.13008451461792,-18.26171875,-0.22647787630558014,3.521484375,2,"['A/E1', 'B2', 'C1']",7.6,270,0,4.803027168560303,[20900|0|0]
28800,0.7400215268135071,0.40269702672958374,0.0037017890717834234,-6.799158096313477,-12.157349586486816,1.1969679594039917,3.505859375,2,"['A/E1', 'B2', 'C1']",7.6,270,0,4.850305071253052,[20900|0|0]
28900,0.8013055920600891,0.3882768154144287,0.015310375951230526,-3.643679141998291,-21.0860538482666,-1.0549460649490356,3.515625,2,"['A/E1', 'B2', 'C1']",7.6,270,0,4.914324118706593,[20900|0|0]
29000,0.8878260850906372,0.3803820013999939,0.025381119921803474,-0.45599061250686646,-14.44249439239502,0.9599648714065552,3.521484375,2,"['A/E1', 'B2', 'C1']",7.6,270,0,5.0017857885208175,[20900|0|0]
29100,0.9950604438781738,0.37594717741012573,0.038685671985149384,-3.214536666870117,-9.117602348327637,-0.5389755964279175,3.541015625,2,"['A/E1', 'B2', 'C1']",7.6,270,0,5.109933310332468,[20900|0|0]
29200,1.111886978149414,0.37590011954307556,0.054682765156030655,-1.2747256755828857,1.9457440376281738,-1.0243499279022217,3.5625,2,"['A/E1', 'B2', 'C1']",7.6,270,0,5.227850011075789,[20900|0|0]
29300,1.2210798263549805,0.37738877534866333,0.06768444925546646,-1.0253562927246094,7.495782375335693,-1.5462291240692139,3.568359375,2,"['A/E1', 'B2', 'C1']",7.6,270,0,5.337824271631489,[20900|0|0]
29400,1.3242851495742798,0.3810615539550781,0.07394538819789886,-0.22713331878185272,10.83053207397461,-1.0785102844238281,3.55859375,2,"['A/E1', 'B2', 'C1']",7.6,270,0,5.4412845413002495,[20900|0|0]
29500,1.3964786529541016,0.3855181634426117,0.07555448263883591,-0.19740203022956848,12.418939590454102,-0.9227447509765625,3.537109375,2,"['A/E1', 'B2', 'C1']",7.6,270,0,5.513633366330768,[20900|0|0]
29600,1.4475935697555542,0.39364784955978394,0.07102882117033005,-3.14020037651062,14.161900520324707,-1.364459753036499,3.525390625,2,"['A/E1', 'B2', 'C1']",7.6,270,0,5.565588232587074,[20900|0|0]
29700,1.4775161743164062,0.4050046503543854,0.06444090604782104,0.714974045753479,11.083303451538086,-2.4284350872039795,3.494140625,2,"['A/E1', 'B2', 'C1']",7.6,270,0,5.5982645208348965,[20900|0|0]
29800,1.4959100484848022,0.4185807704925537,0.05745694786310196,1.5515085458755493,8.309173583984375,-2.4851303100585938,3.494140625,2,"['A/E1', 'B2', 'C1']",7.6,270,0,5.622168941280803,[20900|0|0]
