time.ms,stateEstimate.x,stateEstimate.y,stateEstimate.z,stabilizer.roll,stabilizer.pitch,stabilizer.yaw,pm.vbat,drone_id,node_name,wind_speed,global_wind_direction,relative_wind_direction,travel_dist,waiting_time,curr_node_role
0,1.7701431512832642,0.0077904611825942,0.0,-0.1826148480176925,0.6300417184829712,6.388822555541992,4.07421875,0,B1,7.6,90,270.0,0.0,[6200|0|0|0],start
100,1.7707538604736328,0.0072261104360222,0.0,-0.1714862585067749,0.6082685589790344,6.375802040100098,4.07421875,0,B1,7.6,90,270.0,0.000831539223583,[6300|0|0|0],start
200,1.7709671258926392,0.0079349474981427,0.0,-0.1949238926172256,0.6099100112915039,6.370753765106201,4.07421875,0,B1,7.6,90,270.0,0.0015717635946892,[6400|0|0|0],start
300,1.770663142204285,0.008173038251698,0.0,-0.2000113725662231,0.6218172311782837,6.357501983642578,4.07421875,0,B1,7.6,90,270.0,0.0019578895970693,[6500|0|0|0],start
400,1.770226001739502,0.0078113926574587,0.0,-0.1882076114416122,0.6271147727966309,6.369115352630615,4.07421875,0,B1,7.6,90,270.0,0.0025252336917625,[6600|0|0|0],start
500,1.7707594633102417,0.0070340330712497,0.0,-0.1608237326145172,0.6241081357002258,6.374854564666748,4.07421875,0,B1,7.6,90,270.0,0.0034680322777432,[6700|0|0|0],start
600,1.7708927392959597,0.0066770520061254,0.0,-0.1686999648809433,0.6211328506469727,6.358205318450928,4.07421875,0,B1,7.6,90,270.0,0.0038490807906997,[6800|0|0|0],start
700,1.7705531120300293,0.0073043694719672,0.0,-0.1972409784793853,0.6235582828521729,6.380889892578125,4.07421875,0,B1,7.6,90,270.0,0.0045624347580354,[6900|0|0|0],start
800,1.7706190347671509,0.007812675088644,0.0,-0.2118749469518661,0.614129364490509,6.370512008666992,4.07421875,0,B1,7.6,90,270.0,0.0050749973466183,[7000|0|0|0],start
900,1.7705862522125244,0.0080796815454959,0.0,-0.1955031454563141,0.6232388019561768,6.357081890106201,4.07421875,0,B1,7.6,90,270.0,0.0053440087662429,[7100|0|0|0],start
1000,1.7701640129089355,0.0082642780616879,0.0,-0.191477745771408,0.633999228477478,6.366050720214844,4.07421875,0,B1,7.6,90,270.0,0.0058048361778467,[7200|0|0|0],start
1100,1.7702538967132568,0.0086239939555525,0.0,-0.2095858454704284,0.6308948397636414,6.365439414978027,4.07421875,0,B1,7.6,90,270.0,0.0061756118817137,[7300|0|0|0],start
1200,1.7704468965530396,0.0080051673576235,0.0,-0.1709842234849929,0.6380443572998047,6.356443881988525,4.07421875,0,B1,7.6,90,270.0,0.0068238366085334,[7400|0|0|0],start
1300,1.7705038785934448,0.0075343856588006,0.0,-0.1693646758794784,0.6344574689865112,6.338783264160156,4.07421875,0,B1,7.6,90,270.0,0.0072980542388207,[7500|0|0|0],start
1400,1.7705425024032593,0.0072213495150208,0.0,-0.161448523402214,0.6324625611305237,6.341213703155518,4.07421875,0,B1,7.6,90,270.0,0.0076134641720776,[7600|0|0|0],start
1500,1.7710179090499878,0.0066689210943877,0.0,-0.1649274677038192,0.613746702671051,6.375281810760498,4.07421875,0,B1,7.6,90,270.0,0.0083422910648833,[7700|0|0|0],start
1600,1.7706859111785889,0.0072023849934339,0.0,-0.1905381679534912,0.626611053943634,6.36843204498291,4.07421875,0,B1,7.6,90,270.0,0.0089706272155217,[7800|0|0|0],start
1700,1.7708569765090942,0.0065575260668993,0.0,-0.170751005411148,0.6193410158157349,6.379456996917725,4.07421875,0,B1,7.6,90,270.0,0.0096377901509672,[7900|0|0|0],start
1800,1.7710806131362915,0.0067518185824155,0.0,-0.1873614639043808,0.6234415173530579,6.355954170227051,4.07421875,0,B1,7.6,90,270.0,0.0099340382270956,[8000|0|0|0],start
1900,1.7708922624588013,0.007304725702852,0.0,-0.2002500295639038,0.626228392124176,6.373859405517578,4.07421875,0,B1,7.6,90,270.0,0.0105181463177264,[8100|0|0|0],start
2000,1.7710086107254028,0.0069754999130964,0.0,-0.1794106662273407,0.628716766834259,6.356501579284668,4.07421875,0,B1,7.6,90,270.0,0.0108673261278263,[8200|0|0|0],start
2100,1.7710726261138916,0.0067864344455301,0.0,-0.1796694695949554,0.6298807263374329,6.334768772125244,4.07421875,0,B1,7.6,90,270.0,0.0110669350479412,[8300|0|0|0],start
2200,1.7709150314331057,0.0077569535933434,0.0,-0.2098874002695083,0.6332940459251404,6.345667362213135,4.07421875,0,B1,7.6,90,270.0,0.0120501662006638,[8400|0|0|0],start
2300,1.7706632614135742,0.0077646952122449,0.0,-0.2058838754892349,0.6396346688270569,6.346594333648682,4.07421875,0,B1,7.6,90,270.0,0.0123020552147119,[8500|0|0|0],start
2400,1.7708308696746826,0.0071928603574633,0.0,-0.1770440489053726,0.630449116230011,6.359838008880615,4.07421875,0,B1,7.6,90,270.0,0.0128979475123084,[8600|0|0|0],start
2500,1.770697832107544,0.0079751973971724,0.0,-0.2040677517652511,0.6282479763031006,6.337854385375977,4.07421875,0,B1,7.6,90,270.0,0.0136915155547414,[8700|0|0|0],start
2600,1.7707996368408203,0.0079151252284646,0.0,-0.1988488584756851,0.6319552659988403,6.331287860870361,4.07421875,0,B1,7.6,90,270.0,0.0138097224461257,[8800|0|0|0],start
2700,1.7706915140151978,0.0076484479941427,0.0,-0.1877708286046981,0.6375270485877991,6.311639785766602,4.07421875,0,B1,7.6,90,270.0,0.0140974850092331,[8900|0|0|0],start
2800,1.7710223197937012,0.0072371433489024,0.0,-0.1774603277444839,0.6278024315834045,6.329433917999268,4.07421875,0,B1,7.6,90,270.0,0.014625314502808,[9000|0|0|0],start
2900,1.771077036857605,0.0073336544446647,0.0,-0.1920424103736877,0.6144930124282837,6.328190326690674,4.07421875,0,B1,7.6,90,270.0,0.0147362575002774,[9100|0|0|0],start
3000,1.7707712650299072,0.0077478056773543,0.0,-0.1995457410812378,0.622541606426239,6.317081451416016,4.07421875,0,B1,7.6,90,270.0,0.0152510561542694,[9200|0|0|0],start
3100,1.77080500125885,0.0074237226508557,0.0,-0.1863575577735901,0.6072534918785095,6.312067985534668,4.07421875,0,B1,7.6,90,270.0,0.0155768903777754,[9300|0|0|0],start
3200,1.7710213661193848,0.0070402375422418,0.0,-0.1763490140438079,0.6043140888214111,6.302561283111572,4.07421875,0,B1,7.6,90,270.0,0.0160172022915397,[9400|0|0|0],start
3300,1.7710412740707395,0.0069036744534969,0.0,-0.1814316213130951,0.6098753809928894,6.320703983306885,4.07421875,0,B1,7.6,90,270.0,0.0161552088266556,[9500|0|0|0],start
3400,1.770723819732666,0.0069361929781734,0.0,-0.1961046308279037,0.6201522946357727,6.340508460998535,4.07421875,0,B1,7.6,90,270.0,0.0164743243405512,[9600|0|0|0],start
3500,1.7710564136505127,0.0074122138321399,0.0,-0.2076370418071746,0.596684455871582,6.343848705291748,4.07421875,0,B1,7.6,90,270.0,0.0170550261294236,[9700|0|0|0],start
3600,1.7706148624420166,0.0078483270481228,0.0,-0.2144810110330581,0.612414538860321,6.3345441818237305,4.07421875,0,B1,7.6,90,270.0,0.0176756405079867,[9800|0|0|0],start
3700,1.770263910293579,0.0079992227256298,0.0,-0.2083755433559417,0.6172105669975281,6.34298849105835,4.07421875,0,B1,7.6,90,270.0,0.0180576574133498,[9900|0|0|0],start
3800,1.770504593849182,0.0075754132121801,0.0,-0.1948970854282379,0.6101284027099609,6.351846694946289,4.07421875,0,B1,7.6,90,270.0,0.0185450413253002,[10000|0|0|0],start
3900,1.7705624103546145,0.0077576818875968,0.0,-0.202437475323677,0.6079207062721252,6.35435962677002,4.07421875,0,B1,7.6,90,270.0,0.0187362600961847,[10100|0|0|0],start
4000,1.7706013917922974,0.0080871172249317,0.0,-0.2175158858299255,0.6002399325370789,6.319750308990479,4.07421875,0,B1,7.6,90,270.0,0.0190679937151756,[10200|0|0|0],start
4100,1.7705963850021362,0.0081964256241917,0.0,-0.1988590210676193,0.602843701839447,6.334183692932129,4.07421875,0,B1,7.6,90,270.0,0.0191774167205104,[10300|0|0|0],start
4200,1.7704970836639404,0.0078867627307772,0.0,-0.1864364147186279,0.6066056489944458,6.3293538093566895,4.07421875,0,B1,7.6,90,270.0,0.0195026118362876,[10400|0|0|0],start
4300,1.7706600427627563,0.007887715473771,0.0,-0.1768659055233001,0.5986307859420776,6.355119228363037,4.07421875,0,B1,7.6,90,270.0,0.0196655737201933,[10500|0|0|0],start
4400,1.7708584070205688,0.0075684380717575,0.0,-0.1761123538017273,0.5991498827934265,6.352826118469238,4.07421875,0,B1,7.6,90,270.0,0.0200414546032055,[10600|0|0|0],start
4500,1.770745873451233,0.0080695264041423,0.0,-0.1906178891658783,0.5903540849685669,6.373884677886963,4.07421875,0,B1,7.6,90,270.0,0.0205550238011522,[10700|0|0|0],start
4600,1.7710967063903809,0.0073620905168354,0.0,-0.1658704876899719,0.5927225947380066,6.358323097229004,4.07421875,0,B1,7.6,90,270.0,0.021344675170961,[10800|0|0|0],start
4700,1.7711355686187744,0.0073744133114814,0.0,-0.1687173843383789,0.5952062010765076,6.375389575958252,4.07421875,0,B1,7.6,90,270.0,0.0213854443267482,[10900|0|0|0],start
4800,1.7710295915603638,0.0075765238143503,0.0,-0.1889276504516601,0.6009358763694763,6.363943099975586,4.07421875,0,B1,7.6,90,270.0,0.0216136543008494,[11000|0|0|0],start
4900,1.7712855339050293,0.0071384725160896,0.0,-0.1731231063604354,0.5968984365463257,6.344295978546143,4.07421875,0,B1,7.6,90,270.0,0.0221209958265506,[11100|0|0|0],start
5000,1.7709732055664062,0.0074736406095325,0.0,-0.1977926194667816,0.6018993854522705,6.346074104309082,4.07421875,0,B1,7.6,90,270.0,0.0225791296955989,[11200|0|0|0],start
5100,1.7711679935455322,0.0071684513241052,0.0,-0.1820368021726608,0.6028842329978943,6.349991798400879,4.07421875,0,B1,7.6,90,270.0,0.0229411833611674,[11300|0|0|0],start
5200,1.770918846130371,0.0075109130702912,0.0,-0.2086683809757232,0.6046372652053833,6.357200622558594,4.07421875,0,B1,7.6,90,270.0,0.0233646859964393,[11400|0|0|0],start
5300,1.7709417343139648,0.0071807876229286,0.0,-0.1917339563369751,0.6124373078346252,6.354719161987305,4.07421875,0,B1,7.6,90,270.0,0.0236956039318018,[11500|0|0|0],start
5400,1.7710304260253906,0.0072920289821922,0.0,-0.1991250663995742,0.6168599128723145,6.336435794830322,4.07421875,0,B1,7.6,90,270.0,0.0238378743070964,[11600|0|0|0],start
5500,1.7709190845489502,0.0072450567968189,0.0,-0.1939469575881958,0.6292905211448669,6.385625839233398,4.07421875,0,B1,7.6,90,270.0,0.0239587184653113,[11700|0|0|0],start
5600,1.7709566354751587,0.0072887106798589,0.0,-0.1875537484884262,0.6252360343933105,6.370126724243164,4.07421875,0,B1,7.6,90,270.0,0.0240163008720306,[11800|0|0|0],start
5700,1.7711597681045532,0.0072610769420862,0.0,-0.1913830339908599,0.6193699240684509,6.339053630828857,4.07421875,0,B1,7.6,90,270.0,0.0242213045027009,[11900|0|0|0],start
5800,1.7710239887237549,0.0072055025957524,0.0,-0.1955989897251129,0.6154771447181702,6.342771530151367,4.07421875,0,B1,7.6,90,270.0,0.0243680169705433,[12000|0|0|0],start
5900,1.7712832689285278,0.0075243511237204,0.0,-0.2114783823490142,0.6014183759689331,6.328637599945068,4.07421875,0,B1,7.6,90,270.0,0.0247789799960997,[12100|0|0|0],start
6000,1.7709283828735352,0.0079185683280229,0.0,-0.2017246484756469,0.6158522963523865,6.345583915710449,4.07421875,0,B1,7.6,90,270.0,0.0253094055952146,[12200|0|0|0],start
6100,1.7707339525222778,0.0083271190524101,0.0,-0.2061524987220764,0.6161475777626038,6.358728885650635,4.07421875,0,B1,7.6,90,270.0,0.0257618620637144,[12300|0|0|0],start
6200,1.7709133625030518,0.0079837059602141,0.0,-0.1888925731182098,0.6125912070274353,6.335011005401611,4.07421875,0,B1,7.6,90,270.0,0.0261493159230228,[12400|0|0|0],start
6300,1.770683765411377,0.0075516575016081,0.0,-0.1580547094345092,0.6303127408027649,6.337113857269287,4.07421875,0,B1,7.6,90,270.0,0.0266385813878671,[12500|0|0|0],start
6400,1.770946741104126,0.0074075567536056,0.0,-0.1768172532320022,0.6185139417648315,6.3167405128479,4.07421875,0,B1,7.6,90,270.0,0.0269384500933895,[12600|0|0|0],start
6500,1.7711516618728638,0.0071516586467623,0.0,-0.1789543181657791,0.610077440738678,6.299838066101074,4.07421875,0,B1,7.6,90,270.0,0.0272662859708436,[12700|0|0|0],start
6600,1.7711259126663208,0.0076495995745062,0.0,-0.202569767832756,0.6166132092475891,6.310146331787109,4.07421875,0,B1,7.6,90,270.0,0.0277648922174551,[12800|0|0|0],start
6700,1.7709063291549685,0.0076895370148122,0.0,-0.2056998014450073,0.6206344366073608,6.316848278045654,4.07421875,0,B1,7.6,90,270.0,0.0279880780539144,[12900|0|0|0],start
6800,1.7708687782287598,0.0075535187497735,0.0,-0.1880134493112564,0.6208959817886353,6.305756092071533,4.07421875,0,B1,7.6,90,270.0,0.0281291845402404,[13000|0|0|0],start
6900,1.7707645893096924,0.0075824321247637,0.0,-0.19214828312397,0.6226029992103577,6.309837341308594,4.07421875,0,B1,7.6,90,270.0,0.0282373109205079,[13100|0|0|0],start
7000,1.771105408668518,0.0074230930767953,0.0,-0.1784989833831787,0.6131595969200134,6.286158561706543,4.07421875,0,B1,7.6,90,270.0,0.028613537936494,[13200|0|0|0],start
7100,1.7710875272750854,0.0070912116207182,0.0,-0.1735577583312988,0.614933967590332,6.31501579284668,4.07421875,0,B1,7.6,90,270.0,0.0289459007579993,[13300|0|0|0],start
7200,1.770884394645691,0.0070864907465875,0.0,-0.1876956671476364,0.6228119730949402,6.310306549072266,4.07421875,0,B1,7.6,90,270.0,0.0291490882373805,[13400|0|0|0],start
7300,1.770809531211853,0.0066290386021137,0.0,-0.1749202758073806,0.6257641315460205,6.3390069007873535,4.07421875,0,B1,7.6,90,270.0,0.0296126257204492,[13500|0|0|0],start
7400,1.7709814310073853,0.0068342168815433,0.0,-0.1875656992197036,0.6156314611434937,6.353078842163086,4.07421875,0,B1,7.6,90,270.0,0.0298802965370388,[13600|0|0|0],start
7500,1.7711025476455688,0.0064292852766811,0.0,-0.179163172841072,0.6130027770996094,6.362593650817871,4.07421875,0,B1,7.6,90,270.0,0.0303029534246689,[13700|0|0|0],start
7600,1.7710133790969849,0.0067584374919533,0.0,-0.1868973970413208,0.6105419993400574,6.362895965576172,4.07421875,0,B1,7.6,90,270.0,0.0306439698625061,[13800|0|0|0],start
7700,1.7712900638580322,0.0069366684183478,0.0,-0.1901895850896835,0.609070360660553,6.333749771118164,4.07421875,0,B1,7.6,90,270.0,0.0309730909954029,[13900|0|0|0],start
7800,1.7707228660583496,0.0074760504066944,0.0,-0.2080798149108886,0.6254344582557678,6.321402549743652,4.07421875,0,B1,7.6,90,270.0,0.0317558082325438,[14000|0|0|0],start
7900,1.770807862281799,0.0081007666885852,0.0,-0.2170717716217041,0.6206557154655457,6.291316509246826,4.07421875,0,B1,7.6,90,270.0,0.0323862801120596,[14100|0|0|0],start
8000,1.770646572113037,0.0083790430799126,0.0,-0.2085605710744857,0.6286806464195251,6.291273593902588,4.07421875,0,B1,7.6,90,270.0,0.0327079200792737,[14200|0|0|0],start
8100,1.7707494497299194,0.0075789792463183,0.0,-0.1579666882753372,0.6294986009597778,6.310608863830566,4.07421875,0,B1,7.6,90,270.0,0.033514571145027,[14300|0|0|0],start
8200,1.770573616027832,0.0076281456276774,0.0,-0.1731833964586258,0.6142323017120361,6.296983242034912,4.07421875,0,B1,7.6,90,270.0,0.0336971494127527,[14400|0|0|0],start
8300,1.7712619304656982,0.0070984037593007,0.0,-0.1533073782920837,0.6064098477363586,6.336906909942627,4.07421875,0,B1,7.6,90,270.0,0.0345657132920882,[14500|0|0|0],start
8400,1.7711586952209473,0.0071555781178176,0.0,-0.1560249030590057,0.6141331791877747,6.362732887268066,4.07421875,0,B1,7.6,90,270.0,0.0346837235587204,[14600|0|0|0],start
8500,1.770803928375244,0.007543065585196,0.0,-0.1651751399040222,0.6255509257316589,6.356560230255127,4.07421875,0,B1,7.6,90,270.0,0.0352090863402206,[14700|0|0|0],start
8600,1.7710493803024292,0.0072363973595201,0.0,-0.1648492962121963,0.6126656532287598,6.347332954406738,4.07421875,0,B1,7.6,90,270.0,0.0356018866065115,[14800|0|0|0],start
8700,1.7710225582122805,0.0076857525855302,0.0,-0.181934043765068,0.6056206822395325,6.321647644042969,4.07421875,0,B1,7.6,90,270.0,0.0360520416283234,[14900|0|0|0],start
8800,1.7709157466888428,0.0078410683199763,0.0,-0.1835998594760894,0.6108893752098083,6.336733341217041,4.07421875,0,B1,7.6,90,270.0,0.0362405401134781,[15000|0|0|0],start
8900,1.7707152366638184,0.0075661418959498,0.0,-0.1638940274715423,0.6222343444824219,6.31530237197876,4.07421875,0,B1,7.6,90,270.0,0.0365808176601416,[15100|0|0|0],start
9000,1.770796298980713,0.0075324913486838,0.0,-0.1612962037324905,0.6236242651939392,6.301756381988525,4.07421875,0,B1,7.6,90,270.0,0.0366685870087299,[15200|0|0|0],start
9100,1.7710508108139038,0.0076565849594771,0.0,-0.184988722205162,0.619659960269928,6.312798500061035,4.07421875,0,B1,7.6,90,270.0,0.0369517397898815,[15300|0|0|0],start
9200,1.7707642316818235,0.0077021764591336,0.0,-0.1858431100845337,0.6305373311042786,6.316861629486084,4.07421875,0,B1,7.6,90,270.0,0.0372419228076218,[15400|0|0|0],start
9300,1.7710084915161133,0.0073202112689614,0.0,-0.1657934337854385,0.6227296590805054,6.317626476287842,4.07421875,0,B1,7.6,90,270.0,0.0376953103605503,[15500|0|0|0],start
9400,1.7710117101669312,0.0072764996439218,0.0,-0.1798923909664154,0.6185181736946106,6.314006328582764,4.07421875,0,B1,7.6,90,270.0,0.0377391403260613,[15600|0|0|0],start
9500,1.771147847175598,0.0072736288420856,0.0,-0.1784338057041168,0.6199697852134705,6.357752323150635,4.07421875,0,B1,7.6,90,270.0,0.0378753076005141,[15700|0|0|0],start
9600,1.7707988023757937,0.0076723359525203,0.0,-0.195704698562622,0.6259691119194031,6.354495525360107,4.07421875,0,B1,7.6,90,270.0,0.0384052129054334,[15800|0|0|0],start
9700,1.7710663080215454,0.0071448003873229,0.0,-0.1720080524682998,0.6236551403999329,6.3611979484558105,4.07421875,0,B1,7.6,90,270.0,0.0389966966694178,[15900|0|0|0],start
9800,1.7708985805511477,0.0076446258462965,0.0,-0.1836466044187545,0.6285883188247681,6.352293491363525,4.07421875,0,B1,7.6,90,270.0,0.0395239138862879,[16000|0|0|0],start
9900,1.7708654403686523,0.0076163108460605,0.0,-0.1826130151748657,0.6210132837295532,6.329832077026367,4.07421875,0,B1,7.6,90,270.0,0.0395675030011468,[16100|0|0|0],start
10000,1.7708208560943604,0.00837083440274,0.0,-0.2033514231443405,0.6169592142105103,6.336408615112305,4.07421875,0,B1,7.6,90,270.0,0.0403233426369813,[16200|0|0|0],start
10100,1.7707492113113403,0.0077369641512632,0.0,-0.1688286662101745,0.6229044795036316,6.3515305519104,4.07421875,0,B1,7.6,90,270.0,0.0409612489550573,[16300|0|0|0],start
10200,1.7706923484802246,0.0079390238970518,0.0,-0.1709053367376327,0.6262701749801636,6.337324619293213,4.07421875,0,B1,7.6,90,270.0,0.0411711573218049,[16400|0|0|0],start
10300,1.7707735300064087,0.0073037263937294,0.0,-0.1576858162879943,0.624656081199646,6.340165615081787,4.07421875,0,B1,7.6,90,270.0,0.0418116207149206,[16500|0|0|0],start
10400,1.771233081817627,0.0069849388673901,0.0,-0.157685250043869,0.6086156964302063,6.32738208770752,4.07421875,0,B1,7.6,90,270.0,0.0423709179115375,[16600|0|0|0],start
10500,1.7707611322402954,0.0076306844130158,0.0,-0.1842498034238815,0.6145317554473877,6.3191399574279785,4.07421875,0,B1,7.6,90,270.0,0.0431707452136714,[16700|0|0|0],start
10600,1.7708368301391602,0.0075989393517374,0.0,-0.1807891279458999,0.6141126155853271,6.309051990509033,4.07421875,0,B1,7.6,90,270.0,0.0432528300527595,[16800|0|0|0],start
10700,1.7709044218063354,0.0072338161990046,0.0,-0.1822780519723892,0.6131322383880615,6.314376354217529,4.07421875,0,B1,7.6,90,270.0,0.0436241567958484,[16900|0|0|0],start
10800,1.7710940837860107,0.0076574711129069,0.0,-0.1950175613164901,0.6025434732437134,6.321635246276856,4.07421875,0,B1,7.6,90,270.0,0.0440883282648208,[17000|0|0|0],start
10900,1.7707043886184692,0.0076975421980023,0.0,-0.1913318634033203,0.6145033240318298,6.295169353485107,4.07421875,0,B1,7.6,90,270.0,0.04448007820479,[17100|0|0|0],start
11000,1.7712098360061646,0.0071941185742616,0.0,-0.1715027093887329,0.6055930256843567,6.3058671951293945,4.07421875,0,B1,7.6,90,270.0,0.0451934591736056,[17200|0|0|0],start
11100,1.7710974216461182,0.0070589706301689,0.0,-0.1601941287517547,0.6060819029808044,6.297379016876221,4.07421875,0,B1,7.6,90,270.0,0.0453692486930233,[17300|0|0|0],start
11200,1.7714948654174805,0.0073833502829074,0.0,-0.1756717711687088,0.6015692949295044,6.315224647521973,4.07421875,0,B1,7.6,90,270.0,0.0458822630305476,[17400|0|0|0],start
11300,1.7712860107421875,0.007278106175363,0.0,-0.1657929569482803,0.6097596287727356,6.316929340362549,4.07421875,0,B1,7.6,90,270.0,0.0461161360678232,[17500|0|0|0],start
11400,1.771397590637207,0.0073242033831775,0.0,-0.1641001552343368,0.6042147874832153,6.343346118927002,4.07421875,0,B1,7.6,90,270.0,0.0462368631382791,[17600|0|0|0],start
11500,1.771218180656433,0.0074631869792938,0.0,-0.1745371222496032,0.6177809238433838,6.343322277069092,4.07421875,0,B1,7.6,90,270.0,0.0464638089053485,[17700|0|0|0],start
11600,1.7712026834487915,0.0079321628436446,0.0,-0.1804286688566208,0.6118199825286865,6.321786403656006,4.07421875,0,B1,7.6,90,270.0,0.0469330407508027,[17800|0|0|0],start
11700,1.7711774110794067,0.0075153233483433,0.0,-0.1608892679214477,0.6192101240158081,6.33715295791626,4.07421875,0,B1,7.6,90,270.0,0.0473506456567812,[17900|0|0|0],start
11800,1.7708903551101685,0.0077049476094543,0.0,-0.1686445027589798,0.625115692615509,6.349721431732178,4.07421875,0,B1,7.6,90,270.0,0.0476946783440033,[18000|0|0|0],start
11900,1.7709563970565796,0.0080696027725934,0.0,-0.178216204047203,0.6265294551849365,6.338527679443359,4.07421875,0,B1,7.6,90,270.0,0.0480652656167067,[18100|0|0|0],start
12000,1.7712148427963257,0.007563623599708,0.0,-0.1562183797359466,0.6201695203781128,6.363911151885986,4.07421875,0,B1,7.6,90,270.0,0.0486334285544162,[18200|0|0|0],start
12100,1.7709882259368896,0.0075448141433298,0.0,-0.1586414724588394,0.6201923489570618,6.332606315612793,4.07421875,0,B1,7.6,90,270.0,0.0488608246771402,[18300|0|0|0],start
12200,1.7712650299072266,0.0074717714451253,0.0,-0.1599431484937667,0.6150813698768616,6.231436729431152,4.07421875,0,B1,7.6,90,270.0,0.0491471036909628,[18400|0|0|0],start
12300,1.7712769508361816,0.0076468139886856,0.0,-0.1658166497945785,0.6151427030563354,5.871809959411621,4.07421875,0,B1,7.6,90,270.0,0.0493225516906756,[18500|0|0|0],start
12400,1.7709674835205078,0.0076888813637197,0.0,-0.165016233921051,0.6031284332275391,5.527029991149902,4.07421875,0,B1,7.6,90,270.0,0.0496348651286072,[18600|0|0|0],start
12500,1.770585060119629,0.0074709532782435,0.0,-0.1675802320241928,0.5466286540031433,5.209723949432373,4.07421875,0,B1,7.6,90,270.0,0.050075024540615,[18700|0|0|0],start
12600,1.7710447311401367,0.0061050658114254,0.0,-0.1536816656589508,0.4131163358688354,4.969064235687256,4.07421875,0,B1,7.6,90,270.0,0.051516185884499,[18800|0|0|0],start
12700,1.7719757556915283,0.0025433355476707,0.0,-0.1190060377120971,0.3968536555767059,4.748600482940674,4.07421875,0,B1,7.6,90,270.0,0.0551975890391453,[18900|0|0|0],start
12800,1.7736046314239502,-0.0037227913271635,0.0,-0.0715481117367744,0.4082769453525543,4.564096927642822,4.07421875,0,B1,7.6,90,270.0,0.0616719679408773,[19000|0|0|0],start
12900,1.77545428276062,-0.0121860802173614,0.0,-0.0491290763020515,0.451181411743164,4.408451080322266,4.07421875,0,B1,7.6,90,270.0,0.070335019880361,[19100|0|0|0],start
13000,1.7780530452728271,-0.0245956145226955,0.0,-0.0016991660231724,0.4806600213050842,4.277012348175049,4.07421875,0,B1,7.6,90,270.0,0.0830137464832229,[19200|0|0|0],start
13100,1.7816821336746216,-0.0396688729524612,0.0,0.0310817211866378,0.474400520324707,4.157419681549072,4.07421875,0,B1,7.6,90,270.0,0.0985177266921415,[19300|0|0|0],start
13200,1.7853507995605469,-0.0567644760012626,0.0,0.0443785823881626,0.5133880376815796,4.064114093780518,4.07421875,0,B1,7.6,90,270.0,0.116002541617806,[19400|0|0|0],start
13300,1.7896467447280884,-0.0762979611754417,0.0,0.0700780674815177,0.5191903710365295,3.981294870376587,4.07421875,0,B1,7.6,90,270.0,0.136002846313795,[19500|0|0|0],start
13400,1.7938679456710815,-0.0956627205014228,0.0,0.0593210309743881,0.5373311042785645,3.931133985519409,4.07421875,0,B1,7.6,90,270.0,0.1558223428047328,[19600|0|0|0],start
13500,1.7979934215545654,-0.1147820353507995,0.0,0.0497751832008361,0.5458146333694458,3.877432107925415,4.07421875,0,B1,7.6,90,270.0,0.1753816820465069,[19700|0|0|0],start
13600,1.8018971681594849,-0.1322944164276123,0.0,0.041010096669197,0.5516828298568726,3.8480710983276367,4.07421875,0,B1,7.6,90,270.0,0.1933238872770501,[19800|0|0|0],start
13700,1.8055024147033687,-0.1484491825103759,0.0,0.0151049373671412,0.5587359070777893,3.814053058624268,4.07421875,0,B1,7.6,90,270.0,0.209876055407872,[19900|0|0|0],start
13800,1.8081567287445068,-0.1608130484819412,0.0,-0.0288872104138135,0.5823219418525696,3.791463851928711,4.07421875,0,B1,7.6,90,270.0,0.2225216303173735,[20000|0|0|0],start
13900,1.8105700016021729,-0.1719253808259964,0.0013607532018795,-0.049320388585329,0.5826923847198486,3.7671146392822266,4.0703125,0,B1,7.6,90,270.0,0.2339741176143194,[20100|0|0|0],start
14000,1.8121939897537231,-0.179879680275917,0.0132126612588763,-0.1097835004329681,0.6030917167663574,3.729429960250856,4.07421875,0,B1,7.6,90,270.0,0.2483399082938082,[20200|0|0|0],start
14100,1.813630223274231,-0.1861489713191986,0.0227563865482807,-0.1631361246109008,0.604597806930542,3.712080478668213,4.07421875,0,B1,7.6,90,270.0,0.2598485776048285,[20300|0|0|0],start
14200,1.814655303955078,-0.1912328153848648,0.0296195317059755,-0.1855951398611068,0.615723192691803,3.697527885437012,4.07421875,0,B1,7.6,90,270.0,0.2684508460464574,[20400|0|0|0],start
14300,1.815398097038269,-0.194637268781662,0.0344242788851261,-0.2251163572072982,0.6185994148254395,3.69249963760376,4.07421875,0,B1,7.6,90,270.0,0.2743861337354373,[20500|0|0|0],start
14400,1.8158479928970337,-0.1957355737686157,0.0364832319319248,-0.2800114452838897,0.6132781505584717,3.672337770462036,4.07421875,0,B1,7.6,90,270.0,0.2767626790804754,[20600|0|0|0],start
14500,1.8158845901489256,-0.1964938342571258,0.0376423150300979,-0.3112633228302002,0.6355204582214355,3.6590631008148193,4.07421875,0,B1,7.6,90,270.0,0.2781482374357071,[20700|0|0|0],start
14600,1.815748691558838,-0.1964140832424163,0.0372561290860176,-0.3338981568813324,0.6426466703414917,3.645829677581787,4.07421875,0,B1,7.6,90,270.0,0.2785653324303309,[20800|0|0|0],start
14700,1.8156194686889648,-0.1955365389585495,0.0357233099639415,-0.3517429232597351,0.634881854057312,3.64940357208252,4.07421875,0,B1,7.6,90,270.0,0.2803362974162207,[20900|0|0|0],start
14800,1.815327286720276,-0.1931606382131576,0.0328258424997329,-0.395043671131134,0.6350563764572144,3.650262117385864,4.07421875,0,B1,7.6,90,270.0,0.2840947003165133,[21000|0|0|0],start
14900,1.814708113670349,-0.1911851018667221,0.0298244878649711,-0.4045794308185577,0.6649931073188782,3.639701843261719,4.07421875,0,B1,7.6,90,270.0,0.2877408282305407,[21100|0|0|0],start
15000,1.8140568733215328,-0.1882692873477935,0.0256871432065963,-0.42257821559906,0.6616374254226685,3.654521942138672,4.07421875,0,B1,7.6,90,270.0,0.2928441319764394,[21200|0|0|0],start
15100,1.813597321510315,-0.1853325814008712,0.0213573947548866,-0.4264732897281647,0.6556633710861206,3.65091609954834,4.07421875,0,B1,7.6,90,270.0,0.2980960031992479,[21300|0|0|0],start
15200,1.812854528427124,-0.1818346977233886,0.0165784861892461,-0.4373580515384674,0.6733698844909668,3.636318206787109,4.07421875,0,B1,7.6,90,270.0,0.3040646629201893,[21400|0|0|0],start
15300,1.812049150466919,-0.1791449934244156,0.0123106474056839,-0.4251855015754699,0.6909979581832886,3.63324499130249,4.07421875,0,B1,7.6,90,270.0,0.3091732430318422,[21500|0|0|0],start
15400,1.81128454208374,-0.1756017059087753,0.0076286164112389,-0.4541066586971283,0.6858407855033875,3.6211867332458496,4.07421875,0,B1,7.6,90,270.0,0.3150944698161381,[21600|0|0|0],start
15500,1.8105162382125848,-0.1726063191890716,0.003157393541187,-0.4404846131801605,0.6843987703323364,3.607177734375,4.07421875,0,B1,7.6,90,270.0,0.320530871787358,[21700|0|0|0],start
15600,1.8100662231445312,-0.1698211282491684,0.0,-0.4291710257530212,0.6638039946556091,3.6099331378936768,4.07421875,0,B1,7.6,90,270.0,0.3247651292319549,[21800|0|0|0],start
15700,1.80698037147522,-0.1564429998397827,0.0,-0.4737590849399566,0.6765448451042175,3.920249938964844,4.07421875,0,B1,7.6,90,270.0,0.3384945429216578,[21900|0|0|0],start
15800,1.807348608970642,-0.1568060517311096,0.0,-0.3104342818260193,0.6438934206962585,4.58455753326416,4.07421875,0,B1,7.6,90,270.0,0.339011655606506,[22000|0|0|0],start
15900,1.8072606325149536,-0.1573974341154098,0.0,-0.2529982626438141,0.6312953233718872,5.037221431732178,4.07421875,0,B1,7.6,90,270.0,0.3396095460489919,[22100|0|0|0],start
16000,1.807254672050476,-0.1576667875051498,0.0,-0.224759817123413,0.6319596171379089,5.3117499351501465,4.07421875,0,B1,7.6,90,270.0,0.3398789653795924,[22200|0|0|0],start
16100,1.807400465011597,-0.1574774086475372,0.0,-0.2232484817504882,0.6235247850418091,5.542407512664795,4.07421875,0,B1,7.6,90,270.0,0.3401179631603834,[22300|0|0|0],start
16200,1.8074041604995728,-0.1577800065279007,0.0,-0.2119899988174438,0.6165130138397217,5.711880683898926,4.07421875,0,B1,7.6,90,270.0,0.3404205836055484,[22400|0|0|0],start
16300,1.807344913482666,-0.1575236022472381,0.0,-0.2133587151765823,0.6181003451347351,5.812600612640381,4.07421875,0,B1,7.6,90,270.0,0.3406837439447989,[22500|0|0|0],start
16400,1.8074440956115725,-0.1576401889324188,0.0,-0.2052240967750549,0.6159604787826538,5.886105060577393,4.07421875,0,B1,7.6,90,270.0,0.3408368110864585,[22600|0|0|0],start
16500,1.807332992553711,-0.1575937569141388,0.0,-0.2045845985412597,0.6203876733779907,5.968759536743164,4.07421875,0,B1,7.6,90,270.0,0.340957226292258,[22700|0|0|0],start
16600,1.8073279857635496,-0.1573062390089035,0.0,-0.2121029496192932,0.6131994724273682,6.025646209716797,4.07421875,0,B1,7.6,90,270.0,0.3412447877879048,[22800|0|0|0],start
16700,1.8071759939193728,-0.1577173322439193,0.0,-0.1988709867000579,0.6202649474143982,6.056337356567383,4.07421875,0,B1,7.6,90,270.0,0.3416830789794339,[22900|0|0|0],start
16800,1.8074992895126345,-0.1575452983379364,0.0,-0.2008677124977111,0.6081764698028564,6.102694511413574,4.07421875,0,B1,7.6,90,270.0,0.342049297091261,[23000|0|0|0],start
16900,1.8072726726531985,-0.1575418710708618,0.0,-0.2036492228507995,0.613126277923584,6.136806011199951,4.07421875,0,B1,7.6,90,270.0,0.3422759398655562,[23100|0|0|0],start
17000,1.8075108528137207,-0.1575912833213806,0.0,-0.1997231841087341,0.6103596687316895,6.138669967651367,4.07421875,0,B1,7.6,90,270.0,0.3425191915035111,[23200|0|0|0],start
17100,1.807272911071777,-0.1575693637132644,0.0,-0.1954607367515564,0.6221839189529419,6.154732704162598,4.07421875,0,B1,7.6,90,270.0,0.342758140748706,[23300|0|0|0],start
17200,1.8074504137039185,-0.1576263159513473,0.0,-0.1944641321897506,0.6185879707336426,6.179584980010986,4.07421875,0,B1,7.6,90,270.0,0.3429445562572878,[23400|0|0|0],start
17300,1.807381510734558,-0.1576562523841858,0.0,-0.1893811672925949,0.6229372024536133,6.174592971801758,4.07421875,0,B1,7.6,90,270.0,0.343019681547289,[23500|0|0|0],start
17400,1.8072882890701287,-0.1576182246208191,0.0,-0.1842549443244934,0.6258106827735901,6.185644149780273,4.07421875,0,B1,7.6,90,270.0,0.3431203611852784,[23600|0|0|0],start
17500,1.807361960411072,-0.1577363312244415,0.0,-0.1711665093898773,0.6279208064079285,6.2028398513793945,4.07421875,0,B1,7.6,90,270.0,0.3432595611719723,[23700|0|0|0],start
17600,1.807242035865784,-0.1574265658855438,0.0,-0.1789770722389221,0.6310348510742188,6.219478130340576,4.07421875,0,B1,7.6,90,270.0,0.3435917304988901,[23800|0|0|0],start
17700,1.8075106143951416,-0.1574842631816864,0.0,-0.1755359768867492,0.6245809197425842,6.2202630043029785,4.07421875,0,B1,7.6,90,270.0,0.3438664365316125,[23900|0|0|0],start
17800,1.8071188926696773,-0.1575270593166351,0.0,-0.1761282682418823,0.6268495917320251,6.199612617492676,4.0703125,0,B1,7.6,90,270.0,0.3442604890907557,[24000|0|0|0],start
17900,1.8073946237564087,-0.1576737761497497,0.0,-0.1675033420324325,0.6165473461151123,6.217393398284912,4.0703125,0,B1,7.6,90,270.0,0.3445728245855513,[24100|0|0|0],start
18000,1.807508945465088,-0.1574458330869674,0.0,-0.1710319817066192,0.6179061532020569,6.227030277252197,4.07421875,0,B1,7.6,90,270.0,0.3448278294736337,[24200|0|0|0],start
18100,1.8073818683624268,-0.1575125753879547,0.0,-0.166192427277565,0.6272495985031128,6.2204766273498535,4.0703125,0,B1,7.6,90,270.0,0.3449713673597886,[24300|0|0|0],start
18200,1.8072996139526367,-0.1577305197715759,0.0,-0.1583029478788375,0.6327590346336365,6.207957267761231,4.07421875,0,B1,7.6,90,270.0,0.345204317015899,[24400|0|0|0],start
18300,1.8075275421142576,-0.157481238245964,0.0,-0.1596119105815887,0.6232687830924988,6.240148544311523,4.0703125,0,B1,7.6,90,270.0,0.3455420928674208,[24500|0|0|0],start
18400,1.8073322772979736,-0.1578951627016067,0.0,-0.1539415121078491,0.6276863813400269,6.230229377746582,4.0703125,0,B1,7.6,90,270.0,0.3459997628396251,[24600|0|0|0],start
18500,1.807444334030152,-0.1576885133981704,0.0,-0.1588495969772339,0.6245700120925903,6.223667144775391,4.07421875,0,B1,7.6,90,270.0,0.3462348386695975,[24700|0|0|0],start
18600,1.8073015213012693,-0.1576198637485504,0.0,-0.1649409532546997,0.6192856431007385,6.212634563446045,4.07421875,0,B1,7.6,90,270.0,0.3463932944991649,[24800|0|0|0],start
18700,1.8073621988296509,-0.1573249995708465,0.0,-0.1692037582397461,0.6180548071861267,6.221414089202881,4.0703125,0,B1,7.6,90,270.0,0.3466943370970534,[24900|0|0|0],start
18800,1.807189464569092,-0.1576624363660812,0.0,-0.1610392332077026,0.6291424036026001,6.213860988616943,4.07421875,0,B1,7.6,90,270.0,0.3470734158692751,[25000|0|0|0],start
18900,1.807234525680542,-0.1578634530305862,0.0,-0.1607077866792678,0.6273441910743713,6.201819896697998,4.07421875,0,B1,7.6,90,270.0,0.3472794212167149,[25100|0|0|0],start
19000,1.8071116209030151,-0.1574757546186447,0.0,-0.1737459748983383,0.6224237680435181,6.2264790534973145,4.0703125,0,B1,7.6,90,270.0,0.34768613443627,[25200|0|0|0],start
19100,1.807372450828552,-0.1574347913265228,0.0,-0.1774434596300125,0.6128538846969604,6.203509330749512,4.07421875,0,B1,7.6,90,270.0,0.3479501614071594,[25300|0|0|0],start
19200,1.8073371648788448,-0.1574313044548034,0.0,-0.1716225296258926,0.6144160628318787,6.196293830871582,4.0703125,0,B1,7.6,90,270.0,0.3479856192204187,[25400|0|0|0],start
19300,1.807471513748169,-0.1576736271381378,0.0,-0.1648725569248199,0.6108707189559937,6.178495407104492,4.0703125,0,B1,7.6,90,270.0,0.3482626930400897,[25500|0|0|0],start
19400,1.8073230981826784,-0.1574994921684265,0.0,-0.1723775267601013,0.6156241297721863,6.1937432289123535,4.0703125,0,B1,7.6,90,270.0,0.3484914946304605,[25600|0|0|0],start
19500,1.8073378801345823,-0.1573942750692367,0.0,-0.1767289936542511,0.6142579913139343,6.194067478179932,4.0703125,0,B1,7.6,90,270.0,0.3485977450142904,[25700|0|0|0],start
19600,1.8073554039001465,-0.1577617228031158,0.0,-0.1647183448076248,0.6090892553329468,6.201974391937256,4.0703125,0,B1,7.6,90,270.0,0.3489656103694035,[25800|0|0|0],start
19700,1.8075320720672607,-0.1579498201608657,0.0,-0.1611282229423523,0.6005597710609436,6.222816467285156,4.0703125,0,B1,7.6,90,270.0,0.3492236651257325,[25900|0|0|0],start
19800,1.8073750734329224,-0.1575283706188202,0.0,-0.1752640157938003,0.5992299914360046,6.2561750411987305,4.07421875,0,B1,7.6,90,270.0,0.3496734075939012,[26000|0|0|0],start
19900,1.8074448108673096,-0.1577909439802169,0.0,-0.1652301251888275,0.5941086411476135,6.25956392288208,4.07421875,0,B1,7.6,90,270.0,0.3499450840188446,[26100|0|0|0],start
20000,1.807360053062439,-0.1574378013610839,0.0,-0.1773323714733123,0.5966604351997375,6.246267318725586,4.07421875,0,B1,7.6,90,270.0,0.3503082555966623,[26200|0|0|0],start
20100,1.807417392730713,-0.1576671451330185,0.0,-0.1646610796451568,0.5940115451812744,6.256369590759277,4.07421875,0,B1,7.6,90,270.0,0.3505446586492715,[26300|0|0|0],start
20200,1.8072843551635744,-0.1575886607170105,0.0,-0.1690531075000763,0.6019423604011536,6.26381778717041,4.0703125,0,B1,7.6,90,270.0,0.3506991215827741,[26400|0|0|0],start
20300,1.8073469400405884,-0.1577684581279754,0.0,-0.1660279631614685,0.6001256704330444,6.265011787414551,4.0703125,0,B1,7.6,90,270.0,0.3508895000894931,[26500|0|0|0],start
20400,1.807344913482666,-0.157915323972702,0.0,-0.1678989380598068,0.6021382212638855,6.285607814788818,4.0703125,0,B1,7.6,90,270.0,0.3510363799154879,[26600|0|0|0],start
20500,1.8073968887329104,-0.1574248820543289,0.0,-0.183318555355072,0.600309431552887,6.257688045501709,4.0703125,0,B1,7.6,90,270.0,0.3515295682182034,[26700|0|0|0],start
20600,1.8073285818099976,-0.1579050868749618,0.0,-0.1691203713417053,0.6024364233016968,6.265887260437012,3.171875,0,fly,7.6,90,270.0,0.3520146068821024,[26700|0|0|0],fly
20700,1.8072470426559448,-0.157815620303154,0.0,-0.3478671312332153,0.6492322683334351,6.477743625640869,3.2734375,0,fly,7.6,90,270.0,0.3521356560502726,[26700|0|0|0],fly
20800,1.8065159320831297,-0.1562516391277313,0.0019124747486785,-5.012833118438721,3.0899429321289062,8.117793083190918,3.599609375,0,fly,7.6,90,270.0,0.3547121108725218,[26700|0|0|0],fly
20900,1.8009880781173706,-0.1473847478628158,0.05140121281147,-3.3020777702331543,3.5697262287139893,8.866781234741211,3.599609375,0,fly,7.6,90,270.0,0.4052918906784698,[26700|0|0|0],fly
21000,1.7940685749053955,-0.1355917006731033,0.1163999959826469,3.861961603164673,-3.706476211547852,6.916629314422607,3.611328125,0,fly,7.6,90,270.0,0.4717132524565378,[26700|0|0|0],fly
21100,1.7944598197937012,-0.128950148820877,0.1910155564546585,4.863796710968018,-5.870780944824219,5.082701683044434,3.62109375,0,fly,7.6,90,270.0,0.5466248346592978,[26700|0|0|0],fly
21200,1.806074500083924,-0.1326172798871994,0.2735412120819092,4.968943119049072,-5.042642593383789,2.9057955741882324,3.630859375,0,fly,7.6,90,270.0,0.6300444515680876,[26700|0|0|0],fly
21300,1.827105164527893,-0.1451802253723144,0.3625860214233398,2.8164618015289307,-2.9002795219421387,1.8527023792266848,3.642578125,0,fly,7.6,90,270.0,0.7223975485214033,[26700|0|0|0],fly
21400,1.8523705005645752,-0.1620663255453109,0.455278217792511,0.1381732374429702,-0.1640397161245346,0.9771472215652466,3.6484375,0,fly,7.6,90,270.0,0.8199440546189563,[26700|0|0|0],fly
21500,1.87725841999054,-0.1781652569770813,0.5498994588851929,-1.8869929313659668,2.3008151054382324,0.4792722761631012,3.6953125,0,fly,7.6,90,270.0,0.9190993035597844,[26700|0|0|0],fly
21600,1.898902177810669,-0.1912537515163421,0.640605628490448,-3.251800775527954,3.5800669193267822,0.2662458717823028,3.720703125,0,fly,7.6,90,270.0,1.0132660182010946,[26700|0|0|0],fly
21700,1.9151623249053955,-0.2033487409353256,0.7242224812507629,-3.272484064102173,4.381174087524414,0.0344199314713478,3.732421875,0,fly,7.6,90,270.0,1.0993035635991804,[26700|0|0|0],fly
21800,1.924100637435913,-0.2050880640745163,0.7862253189086914,-3.24625563621521,4.249422550201416,-0.081695944070816,3.716796875,0,fly,7.6,90,270.0,1.161971502399744,[26700|0|0|0],fly
21900,1.9266759157180784,-0.2026166170835495,0.8315771818161011,-2.3781280517578125,3.641369581222534,-0.2160153985023498,3.6953125,0,fly,7.6,90,270.0,1.2074636069634177,[26700|0|0|0],fly
22000,1.9247732162475584,-0.1979590654373169,0.8652051687240601,-1.4999935626983645,2.6746113300323486,-0.4176383912563324,3.6796875,0,fly,7.6,90,270.0,1.241465879771192,[26700|0|0|0],fly
22100,1.918608903884888,-0.1917691677808761,0.8902424573898315,-0.6578218936920166,1.5731695890426636,-0.4769414663314819,3.673828125,0,fly,7.6,90,270.0,1.2679834098906233,[26700|0|0|0],fly
22200,1.9102591276168823,-0.1853719502687454,0.9086546897888184,0.0590818412601947,0.6969729661941528,-0.3018555641174316,3.66796875,0,fly,7.6,90,270.0,1.289188443668893,[26700|0|0|0],fly
22300,1.901253700256348,-0.1802353411912918,0.9226353764533995,0.3993709683418274,-0.1178267076611518,0.0205348376184701,3.6640625,0,fly,7.6,90,270.0,1.3065936749047495,[26700|0|0|0],fly
22400,1.893061280250549,-0.1765126585960388,0.9334300756454468,0.4785965085029602,-0.6461791396141052,-0.0237185806035995,3.6640625,0,fly,7.6,90,270.0,1.3206471314867867,[26700|0|0|0],fly
22500,1.8854470252990725,-0.1733122169971466,0.940893530845642,0.2949728667736053,-0.8044028878211975,0.0186593979597091,3.658203125,0,fly,7.6,90,270.0,1.3317791963634988,[26700|0|0|0],fly
22600,1.879730582237244,-0.171879380941391,0.9467569589614868,0.0971613749861717,-0.82015460729599,0.0099969338625669,3.658203125,0,fly,7.6,90,270.0,1.3400924706709831,[26700|0|0|0],fly
22700,1.875314235687256,-0.1700361222028732,0.9505437016487122,-0.0821603164076805,-0.7421925663948059,0.0158488918095827,3.65234375,0,fly,7.6,90,270.0,1.346195022580305,[26700|0|0|0],fly
22800,1.872516393661499,-0.1691410392522812,0.9529900550842284,-0.0961984768509864,-0.5060388445854187,0.12734255194664,3.65234375,0,fly,7.6,90,270.0,1.350017814573207,[26700|0|0|0],fly
22900,1.870456337928772,-0.167599618434906,0.953921914100647,-0.1758047193288803,-0.2519338428974151,0.2723830044269562,3.6484375,0,fly,7.6,90,270.0,1.3527542664702188,[26700|0|0|0],fly
23000,1.868530869483948,-0.1650203317403793,0.9535502195358276,-0.2646797001361847,-0.037096370011568,0.4473887085914612,3.6484375,0,fly,7.6,90,270.0,1.3559943753316757,[26700|0|0|0],fly
23100,1.8671119213104248,-0.1631374806165695,0.9529318809509276,0.0902636870741844,-0.1694452315568924,0.5793076157569885,3.642578125,0,fly,7.6,90,270.0,1.3584317683814633,[26700|0|0|0],fly
23200,1.8658859729766848,-0.1610224395990371,0.9513531923294068,0.1703825891017913,-0.003415387822315,0.7481281161308289,3.642578125,0,fly,7.6,90,270.0,1.3613418552507102,[26700|0|0|0],fly
23300,1.8647550344467163,-0.1591060757637024,0.9492580890655518,0.2592236399650574,0.0116153247654438,0.8330420851707458,3.63671875,0,fly,7.6,90,270.0,1.3643981487566028,[26700|0|0|0],fly
23400,1.863221287727356,-0.1582840681076049,0.9472428560256958,0.2182967513799667,0.0849700644612312,0.8151718378067017,3.63671875,0,fly,7.6,90,270.0,1.3670607113926283,[26700|0|0|0],fly
23500,1.861992597579956,-0.1575618535280227,0.9450255036354064,0.1751497387886047,-0.0337592959403991,0.7887998819351196,3.630859375,0,fly,7.6,90,270.0,1.3696966030823607,[26700|0|0|0],fly
23600,1.8609329462051392,-0.1574387848377227,0.9441999197006226,0.0116626042872667,-0.0669222995638847,0.847588300704956,3.53125,0,fly,7.6,90,290.0,1.371045527013521,[26700|0|0|0],fly
23700,1.855273962020874,-0.1524019688367843,0.9501225352287292,-10.308077812194824,10.026274681091309,4.256095886230469,3.48828125,0,fly,7.6,90,290.0,1.3806617108781754,[26700|0|0|0],fly
23800,1.8246269226074217,-0.1227023601531982,0.9685471057891846,-26.55619430541992,23.52372932434082,12.434682846069336,3.5625,0,fly,7.6,90,290.0,1.427145821938892,[26700|0|0|0],fly
23900,1.7550386190414429,-0.0275554973632097,0.9749565720558168,-24.8664608001709,25.96654319763184,14.017985343933104,3.509765625,0,fly,7.6,90,290.0,1.5451989402788613,[26700|0|0|0],fly
24000,1.6296749114990234,0.0569108985364437,0.9847238063812256,-6.986006736755371,17.337648391723633,9.795906066894531,3.462890625,0,fly,7.6,90,290.0,1.6966784110708657,[26700|0|0|0],fly
24100,1.482246160507202,0.1567870378494262,1.0121090412139893,6.595831871032715,-4.537473678588867,7.146045207977295,3.505859375,0,fly,7.6,90,290.0,1.8768461965096628,[26700|0|0|0],fly
24200,1.350100040435791,0.2417747974395752,1.0604959726333618,13.804965019226074,-15.724652290344238,12.3407621383667,3.509765625,0,fly,7.6,90,290.0,2.0412445281990803,[26700|0|0|0],fly
24300,1.2597190141677856,0.3115278482437134,1.1274422407150269,7.72972297668457,-12.77949333190918,8.89750862121582,3.525390625,0,fly,7.6,90,290.0,2.1735926328919875,[26700|0|0|0],fly
24400,1.1880766153335571,0.3948563933372497,1.1964409351348877,3.4687507152557373,0.6019131541252136,2.055104255676269,3.57421875,0,fly,7.6,90,290.0,2.303350482634396,[26700|0|0|0],fly
24500,1.1557854413986206,0.3896320462226867,1.3233678340911863,7.286833763122559,7.190337181091309,-1.85822868347168,3.716796875,0,fly,7.6,90,290.0,2.43442470357632,[26700|0|0|0],fly
24600,1.0872602462768557,0.4317871928215027,1.4066184759140017,4.857763767242432,10.742355346679688,-3.2999699115753174,3.7109375,0,fly,7.6,90,290.0,2.5501978788595188,[26700|0|0|0],fly
24700,1.0153335332870483,0.469499260187149,1.4621455669403076,5.429596900939941,9.454383850097656,-3.3063533306121826,3.673828125,0,fly,7.6,90,290.0,2.648579329877242,[26700|0|0|0],fly
24800,0.921213686466217,0.504340410232544,1.505122423171997,6.019919872283936,7.5311760902404785,-3.8481287956237793,3.65234375,0,fly,7.6,90,290.0,2.7577556161010457,[26700|0|0|0],fly
24900,0.8187255263328552,0.5333300828933716,1.5332837104797363,6.851534843444824,4.503906726837158,-3.7690064907073975,3.630859375,0,fly,7.6,90,290.0,2.8679249502704622,[26700|0|0|0],fly
25000,0.710300087928772,0.5554268956184387,1.5520857572555542,6.1377668380737305,1.804850101470948,-3.698249340057373,3.62109375,0,fly,7.6,90,290.0,2.9801651471193824,[26700|0|0|0],fly
25100,0.6001915335655212,0.5695317387580872,1.566411018371582,5.606491088867188,0.5053275227546692,-4.089657306671143,3.630859375,0,fly,7.6,90,290.0,3.092093934524596,[26700|0|0|0],fly
25200,0.4869818687438965,0.5802932381629944,1.57626473903656,3.5826416015625,-1.2928054332733154,-4.310733318328857,3.630859375,0,fly,7.6,90,290.0,3.2062400421648034,[26700|0|0|0],fly
25300,0.3820030987262726,0.5835956335067749,1.583508014678955,2.7414913177490234,-4.783951282501221,-4.834543704986572,3.630859375,0,fly,7.6,90,290.0,3.3115202065427694,[26700|0|0|0],fly
25400,0.2864837944507599,0.5842697620391846,1.5871057510375977,1.810568690299988,-7.667668342590332,-5.9161577224731445,3.626953125,0,fly,7.6,90,290.0,3.407109618328084,[26700|0|0|0],fly
25500,0.2014864683151245,0.5840213298797607,1.5855659246444702,0.9155187010765076,-9.91422176361084,-8.455857276916504,3.626953125,0,fly,7.6,90,290.0,3.4921212542026296,[26700|0|0|0],fly
25600,0.1315445303916931,0.5825380086898804,1.5808703899383545,0.0004677100805565,-10.4025297164917,-9.34244441986084,3.611328125,0,fly,7.6,90,290.0,3.56223632368426,[26700|0|0|0],fly
25700,0.0751484632492065,0.5798981785774231,1.5722715854644775,-0.4708545506000519,-9.750868797302246,-10.021855354309082,3.611328125,0,fly,7.6,90,290.0,3.619345206798382,[26700|0|0|0],fly
25800,0.035309512168169,0.580804169178009,1.5615224838256836,-0.2220925986766815,-8.954264640808105,-6.819837093353272,3.599609375,0,fly,7.6,90,290.0,3.660618757993388,[26700|0|0|0],fly
25900,0.0078404927626252,0.5843411684036255,1.5514140129089355,-0.2222244590520858,-7.485774993896484,-4.229251384735107,3.59375,0,fly,7.6,90,290.0,3.6901016102112254,[26700|0|0|0],fly
26000,-0.0086836908012628,0.5884345769882202,1.5420914888381958,0.2674747407436371,-5.719893932342529,-1.0473719835281372,3.599609375,0,fly,7.6,90,290.0,3.709510734131255,[26700|0|0|0],fly
26100,-0.0177902001887559,0.5952901840209961,1.5357308387756348,0.2581268548965454,-3.8443098068237305,0.9174841046333312,3.60546875,0,fly,7.6,90,290.0,3.722563922639458,[26700|0|0|0],fly
26200,-0.0216397810727357,0.6026266813278198,1.5289039611816406,0.6934566497802734,-2.571821928024292,1.6711194515228271,3.611328125,0,fly,7.6,90,290.0,3.733299365033637,[26700|0|0|0],fly
26300,-0.0232012160122394,0.6100095510482788,1.5227640867233276,1.3035540580749512,-1.505946159362793,2.027221918106079,3.611328125,0,fly,7.6,90,290.0,3.743027823428646,[26700|0|0|0],fly
26400,-0.0231487024575471,0.6162928342819214,1.5161350965499878,1.8666660785675049,-1.1621676683425903,2.010479211807251,3.60546875,0,fly,7.6,90,290.0,3.752161602306298,[26700|0|0|0],fly
26500,-0.0230536721646785,0.6188144683837891,1.5073186159133911,2.241448402404785,-1.2332468032836914,1.504253387451172,3.60546875,0,fly,7.6,90,290.0,3.761332098482391,[26700|0|0|0],fly
26600,-0.0199467688798904,0.619265079498291,1.500701904296875,2.3598711490631104,-1.2104724645614624,1.554255723953247,3.599609375,0,fly,7.6,90,290.0,3.768655811407792,[26700|0|0|0],fly
26700,-0.0165238976478576,0.614077091217041,1.4933463335037231,1.5773606300354004,-0.9105328917503356,1.9072612524032595,3.810546875,0,fly,7.6,90,270.0,3.778285748664624,[26700|0|0|0],fly
26800,-0.0119411349296569,0.6074772477149963,1.466928482055664,2.373548984527588,-0.956527054309845,1.6034011840820312,3.80078125,0,fly,7.6,90,270.0,3.8058984726069394,[26700|0|0|0],fly
26900,-0.0076687899418175,0.5983108878135681,1.4034812450408936,1.5236597061157229,-0.3108559250831604,1.4714925289154053,3.7109375,0,fly,7.6,90,270.0,3.8701466396652,[26700|0|0|0],fly
27000,-0.0051254061982035,0.5880630612373352,1.306692361831665,0.444154292345047,-0.8266177177429199,2.3632702827453613,3.615234375,0,fly,7.6,90,270.0,3.9675097469661353,[26700|0|0|0],fly
27100,-0.0103501714766025,0.5841220021247864,1.1985167264938354,-0.2289465367794037,-0.5406404733657837,3.849485397338867,3.578125,0,fly,7.6,90,270.0,4.075883167138639,[26700|0|0|0],fly
27200,-0.0067010577768087,0.5705417394638062,1.078524827957153,-1.1231673955917358,0.0904733911156654,5.424304962158203,3.58984375,0,fly,7.6,90,270.0,4.196696226363098,[26700|0|0|0],fly
27300,-0.0043063792400062,0.5597444772720337,0.9566193222999572,-1.028444528579712,-0.4794128239154815,7.376912117004394,3.583984375,0,fly,7.6,90,270.0,4.31910238497315,[26700|0|0|0],fly
27400,-0.0011956145754083,0.5487926602363586,0.8359660506248474,-2.1890523433685303,-0.6320231556892395,8.320026397705078,3.60546875,0,fly,7.6,90,270.0,4.440291621785209,[26700|0|0|0],fly
27500,0.0001064535681507,0.5420337915420532,0.7147037386894226,-3.8937771320343018,2.5920512676239014,10.09909439086914,3.59375,0,fly,7.6,90,270.0,4.561749128689483,[26700|0|0|0],fly
27600,-0.0005097328103147,0.538751482963562,0.5895458459854126,-1.8784496784210205,-1.0616332292556765,10.597939491271973,3.57421875,0,fly,7.6,90,270.0,4.686951570124808,[26700|0|0|0],fly
27700,-0.0015211679274216,0.5371630787849426,0.4645230770111084,0.4489105939865112,-3.437812566757202,11.999881744384766,3.53125,0,fly,7.6,90,270.0,4.811988519827017,[26700|0|0|0],fly
27800,0.0015922766178846,0.5359866619110107,0.3475152552127838,-2.0179455280303955,1.9440475702285769,14.598130226135254,3.568359375,0,fly,7.6,90,270.0,4.929043668605644,[26700|0|0|0],fly
27900,-0.0015146265504881,0.541062593460083,0.2381287366151809,-13.705690383911133,6.980483055114746,25.50160789489746,3.57421875,0,fly,7.6,90,270.0,5.038591961058298,[26700|0|0|0],fly
28000,-0.0255345702171325,0.5578672289848328,0.1262053102254867,-23.258420944213867,11.914634704589844,33.170352935791016,3.568359375,0,fly,7.6,90,270.0,5.154290737385785,[26700|0|0|0],fly
28100,-0.08476123213768,0.5965397953987122,0.0068442616611719,-24.32999610900879,16.95501708984375,33.99089813232422,3.552734375,0,fly,7.6,90,270.0,5.293036637468128,[26700|0|0|0],fly
28200,-0.1644781827926635,0.6437789797782898,0.0,-10.870869636535645,3.3647539615631104,43.0226936340332,3.578125,0,fly,7.6,90,270.0,5.385951526911443,[26700|0|0|0],fly
28300,-0.2365853786468505,0.671868085861206,0.0029011687729507,-1.0492829084396362,8.513875961303711,52.5360221862793,3.658203125,0,fly,7.6,90,270.0,5.463390937774004,[26700|0|0|0],fly
28400,-0.3189133107662201,0.6901641488075256,0.0210796911269426,15.018763542175291,6.21996545791626,47.49902725219727,3.611328125,0,fly,7.6,90,270.0,5.549664299835313,[26700|0|0|0],fly
28500,-0.3963587582111358,0.6910017728805542,0.0270527675747871,20.087793350219727,-14.772994995117188,37.82851028442383,3.5,0,fly,7.6,90,270.0,5.627344262414364,[26700|0|0|0],fly
28600,-0.4439018070697784,0.6737824082374573,0.0264998450875282,23.24455070495605,-28.279972076416016,21.853796005249023,3.46875,0,fly,7.6,90,270.0,5.67791257004636,[26700|0|0|0],fly
28700,-0.4420941472053528,0.6348839998245239,0.0250750854611396,14.949628829956056,-33.24073791503906,4.914912700653076,3.453125,0,fly,7.6,90,270.0,5.716879013959524,[26700|0|0|0],fly
28800,-0.3889797925949096,0.5733798146247864,0.0286061055958271,4.941857814788818,-26.91092300415039,-6.049373149871826,3.453125,0,fly,7.6,90,270.0,5.79822007103379,[26700|0|0|0],fly
28900,-0.3003321886062622,0.4992729425430298,0.0465553626418113,-1.945476651191712,-11.791933059692385,-8.424777030944824,3.48828125,0,fly,7.6,90,270.0,5.915149117943328,[26700|0|0|0],fly
29000,-0.2007319182157516,0.4287083148956299,0.0830624848604202,-7.24751091003418,2.104466438293457,-7.693330764770508,3.57421875,0,fly,7.6,90,270.0,6.042555359978652,[26700|0|0|0],fly
29100,-0.1139189526438713,0.3743634223937988,0.1262291967868805,-8.889507293701172,10.112613677978516,-7.1760783195495605,3.62109375,0,fly,7.6,90,270.0,6.153700415428554,[26700|0|0|0],fly
29200,-0.0485406666994094,0.337883710861206,0.1623042672872543,-8.858511924743652,13.183117866516112,-7.742748260498047,3.62109375,0,fly,7.6,90,270.0,6.236805772284439,[26700|0|0|0],fly
29300,-0.0056253504008054,0.3185729682445526,0.1837261766195297,-8.109559059143066,12.574896812438965,-8.54616928100586,3.60546875,0,fly,7.6,90,270.0,6.288511935871154,[26700|0|0|0],fly
29400,0.0173043720424175,0.3130992352962494,0.1916287094354629,-6.705965995788574,10.154701232910156,-9.031366348266602,3.578125,0,fly,7.6,90,270.0,6.313375241134523,[26700|0|0|0],fly
29500,0.0274334140121936,0.3205072283744812,0.1909576654434204,-5.043839454650879,6.421119689941406,-8.982672691345215,3.5625,0,fly,7.6,90,270.0,6.325942108393783,[26700|0|0|0],fly
29600,0.0223641619086265,0.3329218626022339,0.1889988481998443,-3.073798418045044,2.8906702995300293,-8.778669357299805,3.55859375,0,fly,7.6,90,270.0,6.339494134991018,[26700|0|0|0],fly
29700,0.0153160132467746,0.3506720960140228,0.1859516054391861,-1.5924088954925537,-0.1939587593078613,-8.39186954498291,3.55859375,0,J1,7.6,90,270.0,6.358834064519714,[26700|100|0|0],first_intermediate
29800,0.0089290896430611,0.369465172290802,0.1825384646654129,-0.264945387840271,-2.190867185592652,-7.851924419403076,3.55859375,0,J1,7.6,90,270.0,6.378974125070917,[26700|200|0|0],first_intermediate
29900,0.0061965947970747,0.3869220912456512,0.1805768311023712,0.4544867873191833,-2.905279874801636,-7.314652442932129,3.55859375,0,J1,7.6,90,270.0,6.3967521607811735,[26700|300|0|0],first_intermediate
30000,0.0075517981313169,0.4012821912765503,0.1798946261405944,0.7321444749832153,-2.774895429611206,-6.869813919067383,3.5625,0,J1,7.6,90,270.0,6.411192190302765,[26700|400|0|0],first_intermediate
30100,0.0134571669623255,0.4133599698543548,0.1779556721448898,0.6976830959320068,-1.906374454498291,-6.455925941467285,3.5625,0,J1,7.6,90,270.0,6.424775476319123,[26700|500|0|0],first_intermediate
30200,0.0221707001328468,0.4230077564716339,0.1750983446836471,1.976119875907898,-1.483866572380066,-6.191166877746582,3.55859375,0,J1,7.6,90,270.0,6.4380859897257166,[26700|600|0|0],first_intermediate
30300,0.0338500700891017,0.4288366138935089,0.1716082692146301,2.12988543510437,-1.1183396577835083,-6.075872898101807,3.552734375,0,J1,7.6,90,270.0,6.451597610213247,[26700|700|0|0],first_intermediate
30400,0.0454867184162139,0.4314091205596924,0.1692300140857696,2.0725293159484863,-0.9778399467468262,-5.922207832336426,3.55859375,0,J1,7.6,90,270.0,6.463750201389386,[26700|800|0|0],first_intermediate
30500,0.0579701475799083,0.4309346973896026,0.1665323376655578,2.0281574726104736,-0.8874580264091492,-5.757504463195801,3.55859375,0,J1,7.6,90,270.0,6.476530598061535,[26700|900|0|0],first_intermediate
30600,0.071317158639431,0.4273146092891693,0.1644615978002548,1.7011042833328247,-0.6131405234336853,-5.592992782592773,3.552734375,0,J1,7.6,90,270.0,6.49051400628942,[26700|1000|0|0],first_intermediate
30700,0.0849864482879638,0.4211028516292572,0.1622981280088424,1.74730384349823,-0.5296592712402344,-5.62125825881958,3.552734375,0,J1,7.6,90,270.0,6.505683581572179,[26700|1100|0|0],first_intermediate
30800,0.0990670621395111,0.4128723442554474,0.1603935062885284,1.747899889945984,-0.6383288502693176,-5.709260940551758,3.552734375,0,J1,7.6,90,270.0,6.522104072489452,[26700|1200|0|0],first_intermediate
30900,0.1127953827381134,0.4036239683628082,0.1583650559186935,1.515842318534851,-0.9211657643318176,-5.818762302398682,3.546875,0,J1,7.6,90,270.0,6.538780818395426,[26700|1300|0|0],first_intermediate
31000,0.128010094165802,0.391261875629425,0.1572447121143341,1.593361735343933,-0.5592858195304871,-6.009655952453613,3.552734375,0,J1,7.6,90,270.0,6.5584166008045015,[26700|1400|0|0],first_intermediate
31100,0.1446196436882019,0.3761685192584991,0.1564326286315918,1.4709854125976562,-0.6260616183280945,-6.188321590423584,3.546875,0,J1,7.6,90,270.0,6.580874250313294,[26700|1500|0|0],first_intermediate
31200,0.161600112915039,0.359068214893341,0.1550332456827163,1.6969574689865112,-0.4413359463214874,-6.334980487823486,3.546875,0,J1,7.6,90,270.0,6.605013741136056,[26700|1600|0|0],first_intermediate
31300,0.1787219494581222,0.3391866683959961,0.1550022214651107,1.5064688920974731,-0.3816302120685577,-6.302221298217773,3.546875,0,J1,7.6,90,270.0,6.631251769648813,[26700|1700|0|0],first_intermediate
31400,0.1999579668045044,0.3174980580806732,0.1543696075677871,1.4256473779678345,-0.5564337968826294,-6.155686855316162,3.537109375,0,J1,7.6,90,270.0,6.661612343597421,[26700|1800|0|0],first_intermediate
31500,0.2218092232942581,0.2915486097335815,0.1536108404397964,1.357110857963562,-0.4130578339099884,-5.790704250335693,3.552734375,0,J1,7.6,90,270.0,6.69554502706416,[26700|1900|0|0],first_intermediate
31601,0.2312924861907959,0.2701326906681061,0.1607331186532974,1.207768797874451,-0.2326919436454773,-7.450805187225342,3.90625,0,J1,7.6,90,270.0,6.720025646164467,[26700|2000|0|0],first_intermediate
31700,0.2480287253856659,0.2440347373485565,0.1433891355991363,-0.1535299271345138,-0.1385295838117599,-6.719033718109131,3.943359375,0,J1,7.6,90,270.0,6.755550547544209,[26700|2100|0|0],first_intermediate
31801,0.2659893035888672,0.2176154106855392,0.0671920478343963,-4.355982303619385,-0.0720729902386665,-5.798963069915772,3.943359375,0,J1,7.6,90,270.0,6.838173542978579,[26700|2200|0|0],first_intermediate
31901,0.2823931872844696,0.1898017972707748,0.0,-2.7502236366271973,-0.612531840801239,-1.96476149559021,3.94921875,0,J1,7.6,90,270.0,6.912721888256423,[26700|2300|0|0],first_intermediate
32001,0.2902181148529053,0.1793089061975479,0.0,-3.075435400009156,-2.272024631500244,3.071812391281128,3.94921875,0,J1,7.6,90,270.0,6.925811206593367,[26700|2400|0|0],first_intermediate
32101,0.2884846329689026,0.1811145395040512,0.0,-3.083228349685669,0.0036981324665248,6.440064430236816,3.953125,0,J1,7.6,90,270.0,6.92831425894594,[26700|2500|0|0],first_intermediate
32201,0.2887873351573944,0.1818725168704986,0.0,-3.1705946922302246,-0.0029526406433433,6.234205722808838,3.953125,0,J1,7.6,90,270.0,6.929130444159579,[26700|2600|0|0],first_intermediate
32301,0.2879589200019836,0.1823330223560333,0.0,-3.231439113616944,0.0348053649067878,6.052222728729248,3.953125,0,J1,7.6,90,270.0,6.930078250559601,[26700|2700|0|0],first_intermediate
32401,0.2881451547145843,0.1827952712774276,0.0,-3.256204843521118,0.0633096620440483,5.92557954788208,3.958984375,0,J1,7.6,90,270.0,6.930576605286183,[26700|2800|0|0],first_intermediate
32502,0.2878786027431488,0.183443933725357,0.0,-3.2891287803649902,0.1039016172289848,5.857701778411865,3.958984375,0,J1,7.6,90,270.0,6.9312778990369255,[26700|2900|0|0],first_intermediate
32602,0.2883371412754059,0.1835308372974395,0.0,-3.412142038345337,0.0220120195299386,5.757998466491699,3.958984375,0,J1,7.6,90,270.0,6.931744600029431,[26700|3000|0|0],first_intermediate
32701,0.287923127412796,0.1833058595657348,0.0,-3.3748161792755127,0.090028241276741,5.689062118530273,3.958984375,0,J1,7.6,90,270.0,6.932215792620837,[26700|3100|0|0],first_intermediate
32802,0.2879505753517151,0.1836394518613815,0.0,-3.335331439971924,0.1423987746238708,5.657158374786377,3.96484375,0,J1,7.6,90,270.0,6.9325505122185085,[26700|3200|0|0],first_intermediate
32902,0.2790766060352325,0.173876941204071,0.0,-3.014544725418091,0.469133973121643,5.262632369995117,3.96484375,0,J1,7.6,90,270.0,6.945743462827223,[26700|3300|0|0],first_intermediate
33002,0.2775990962982178,0.1731395870447158,0.0,-3.051819086074829,0.4650211334228515,4.66339111328125,3.96484375,0,J1,7.6,90,270.0,6.947394742991002,[26700|3400|0|0],first_intermediate
33102,0.2807037532329559,0.178248792886734,0.0,-6.161512851715088,0.4280947148799896,8.102031707763672,3.96484375,0,J1,7.6,90,270.0,6.95337327784651,[26700|3500|0|0],first_intermediate
33200,0.2734220921993255,0.1863886266946792,0.0,-11.45280647277832,5.6182780265808105,7.7218146324157715,3.96484375,0,J1,7.6,90,270.0,6.964294792477259,[26700|3600|0|0],first_intermediate
