,time.ms,stateEstimate.x,stateEstimate.y,stateEstimate.z,stabilizer.roll,stabilizer.pitch,stabilizer.yaw,pm.vbat,drone_id,node_name,wind_speed,global_wind_direction,relative_wind_direction,travel_dist,waiting_time
0,0,1.6928893327713013,1.1739859580993652,0.0,0.4869303405284881,0.8123533129692078,-0.6321834325790405,4.12890625,0,"['A1', 'F1', 'E2']",7.6,0,450.0,0.0,[6200|0|0]
1,100,1.6928554773330688,1.1735039949417114,0.0,0.5031529664993286,0.8110167384147644,-0.6230522394180298,4.12890625,0,"['A1', 'F1', 'E2']",7.6,0,450.0,0.0004831507798126,[6300|0|0]
2,200,1.6929218769073486,1.1736124753952026,0.0,0.5030171871185303,0.8105920553207397,-0.5981168150901794,4.12890625,0,"['A1', 'F1', 'E2']",7.6,0,450.0,0.0006103392708571,[6400|0|0]
3,300,1.6926753520965576,1.1734899282455444,0.0,0.5113606452941895,0.8186144232749939,-0.5835990905761719,4.12890625,0,"['A1', 'F1', 'E2']",7.6,0,450.0,0.000885643259613,[6500|0|0]
4,400,1.6929489374160769,1.1735135316848757,0.0,0.5127170085906982,0.8035495281219482,-0.589026153087616,4.12109375,0,"['A1', 'F1', 'E2']",7.6,0,450.0,0.0011602448790633,[6600|0|0]
5,500,1.6929219961166382,1.173793911933899,0.0,0.503494918346405,0.8051797151565552,-0.6217743754386902,4.12890625,0,"['A1', 'F1', 'E2']",7.6,0,450.0,0.0014419165277214,[6700|0|0]
6,600,1.69303297996521,1.1735620498657229,0.0,0.5060165524482727,0.8010622262954712,-0.5964062213897705,4.12890625,0,"['A1', 'F1', 'E2']",7.6,0,450.0,0.0016989718394788,[6800|0|0]
7,700,1.6925668716430664,1.1737264394760132,0.0,0.5073528289794922,0.818720281124115,-0.6291276216506958,4.12109375,0,"['A1', 'F1', 'E2']",7.6,0,450.0,0.0021932196638977,[6900|0|0]
8,800,1.692585587501526,1.1736799478530884,0.0,0.50815749168396,0.8191298246383667,-0.6227703094482422,4.12890625,0,"['A1', 'F1', 'E2']",7.6,0,450.0,0.0022433370696573,[7000|0|0]
9,900,1.6929577589035034,1.1734395027160645,0.0,0.5158799290657043,0.8114874362945557,-0.6056581735610962,4.12890625,0,"['A1', 'F1', 'E2']",7.6,0,450.0,0.0026864233099855,[7100|0|0]
10,1000,1.6928011178970337,1.1735289096832275,0.0,0.4843421876430511,0.7992388010025024,-0.5954720377922058,4.12109375,0,"['A1', 'F1', 'E2']",7.6,0,450.0,0.0028667840892174,[7200|0|0]
11,1100,1.692778468132019,1.173578858375549,0.0,0.4934035539627075,0.7999945878982544,-0.5977920293807983,4.12890625,0,"['A1', 'F1', 'E2']",7.6,0,450.0,0.0029216282659352,[7300|0|0]
12,1200,1.6927355527877808,1.1737321615219116,0.0,0.4981126487255096,0.803787112236023,-0.6290337443351746,4.12890625,0,"['A1', 'F1', 'E2']",7.6,0,450.0,0.0030808249413268,[7400|0|0]
13,1300,1.692675232887268,1.1737416982650757,0.0,0.5033850073814392,0.81095290184021,-0.6105968952178955,4.12890625,0,"['A1', 'F1', 'E2']",7.6,0,450.0,0.0031418940813899,[7500|0|0]
14,1400,1.6923613548278809,1.173702597618103,0.0,0.5139240622520447,0.8201630115509033,-0.5951994061470032,4.12890625,0,"['A1', 'F1', 'E2']",7.6,0,450.0,0.0034581982020686,[7600|0|0]
15,1500,1.692656397819519,1.1737937927246094,0.0,0.5159835815429688,0.8079572916030884,-0.6171131730079651,4.12890625,0,"['A1', 'F1', 'E2']",7.6,0,450.0,0.0037670135423053,[7700|0|0]
16,1600,1.6925867795944214,1.1736613512039185,0.0,0.5202259421348572,0.8088460564613342,-0.6037637591362,4.12890625,0,"['A1', 'F1', 'E2']",7.6,0,450.0,0.0039166379175544,[7800|0|0]
17,1700,1.692959189414978,1.1734695434570312,0.0,0.5181831121444702,0.7948145866394043,-0.6369961500167847,4.12890625,0,"['A1', 'F1', 'E2']",7.6,0,450.0,0.0043355403957196,[7900|0|0]
18,1800,1.6926952600479126,1.1737663745880127,0.0,0.511570930480957,0.8101110458374023,-0.6348181366920471,4.12890625,0,"['A1', 'F1', 'E2']",7.6,0,450.0,0.0047327398810155,[8000|0|0]
19,1900,1.692520022392273,1.1733567714691162,0.0,0.5257510542869568,0.81052565574646,-0.6243066787719727,4.12109375,0,"['A1', 'F1', 'E2']",7.6,0,450.0,0.0051782541355167,[8100|0|0]
20,2000,1.6927390098571775,1.1737195253372192,0.0,0.5164821743965149,0.8062201738357544,-0.6274757385253906,4.12890625,0,"['A1', 'F1', 'E2']",7.6,0,450.0,0.005601982679055,[8200|0|0]
21,2100,1.6926329135894775,1.173880934715271,0.0,0.523302435874939,0.8208122253417969,-0.5994603633880615,4.12890625,0,"['A1', 'F1', 'E2']",7.6,0,450.0,0.0057951391061883,[8300|0|0]
22,2200,1.6929014921188354,1.1733765602111816,0.0,0.5427988767623901,0.816979169845581,-0.5851492881774902,4.12890625,0,"['A1', 'F1', 'E2']",7.6,0,450.0,0.0063665654503548,[8400|0|0]
23,2300,1.692697525024414,1.17365825176239,0.0,0.539009690284729,0.8210710287094116,-0.6111361980438232,4.12890625,0,"['A1', 'F1', 'E2']",7.6,0,450.0,0.0067143480054504,[8500|0|0]
24,2400,1.6929465532302856,1.1734899282455444,0.0,0.5424674153327942,0.8088498711585999,-0.5862886309623718,4.12890625,0,"['A1', 'F1', 'E2']",7.6,0,450.0,0.0070149272024066,[8600|0|0]
25,2500,1.6927802562713623,1.1738238334655762,0.0,0.5358943343162537,0.8097593188285828,-0.5828019976615906,4.12890625,0,"['A1', 'F1', 'E2']",7.6,0,450.0,0.007387951832306,[8700|0|0]
26,2600,1.6930962800979614,1.173572063446045,0.0,0.5423690676689148,0.8061531186103821,-0.5609216094017029,4.12890625,0,"['A1', 'F1', 'E2']",7.6,0,450.0,0.0077920052962351,[8800|0|0]
27,2700,1.6927543878555298,1.1735014915466309,0.0,0.5073722004890442,0.7982150912284851,-0.5821147561073303,4.12890625,0,"['A1', 'F1', 'E2']",7.6,0,450.0,0.0081411051364268,[8900|0|0]
28,2800,1.6926759481430054,1.17374849319458,0.0,0.5133202075958252,0.8003993630409241,-0.5594386458396912,4.12890625,0,"['A1', 'F1', 'E2']",7.6,0,450.0,0.0084002626225053,[9000|0|0]
29,2900,1.693054437637329,1.1736555099487305,0.0,0.5287221670150757,0.7923677563667297,-0.5656610131263733,4.12109375,0,"['A1', 'F1', 'E2']",7.6,0,450.0,0.0087900063605206,[9100|0|0]
30,3000,1.692798137664795,1.173610806465149,0.0,0.5306609272956848,0.8041374683380127,-0.5919901728630066,4.12890625,0,"['A1', 'F1', 'E2']",7.6,0,450.0,0.0090501756849333,[9200|0|0]
31,3100,1.6926472187042236,1.1734821796417236,0.0,0.5370716452598572,0.8107397556304932,-0.5849651098251343,4.12890625,0,"['A1', 'F1', 'E2']",7.6,0,450.0,0.0092484719087108,[9300|0|0]
32,3200,1.6928495168685913,1.1736469268798828,0.0,0.5323448777198792,0.800460934638977,-0.5771877765655518,4.12890625,0,"['A1', 'F1', 'E2']",7.6,0,450.0,0.0095093669063393,[9400|0|0]
33,3300,1.6925002336502075,1.173722743988037,0.0,0.5050669312477112,0.7967334389686584,-0.5626927018165588,4.12109375,0,"['A1', 'F1', 'E2']",7.6,0,450.0,0.0098667840303463,[9500|0|0]
34,3400,1.6929373741149902,1.1735812425613403,0.0,0.513742983341217,0.7940158247947693,-0.5801848769187927,4.12109375,0,"['A1', 'F1', 'E2']",7.6,0,450.0,0.010326255944295,[9600|0|0]
35,3500,1.6928876638412476,1.1735928058624268,0.0,0.5204370021820068,0.7965570092201233,-0.5826149582862854,4.12890625,0,"['A1', 'F1', 'E2']",7.6,0,450.0,0.010377293393757,[9700|0|0]
36,3600,1.6930325031280518,1.1732662916183472,0.0,0.523969292640686,0.7968879342079163,-0.6065786480903625,4.12890625,0,"['A1', 'F1', 'E2']",7.6,0,450.0,0.0107344907769904,[9800|0|0]
37,3700,1.6928434371948242,1.1733200550079346,0.0,0.5243215560913086,0.8064256906509399,-0.637600839138031,4.12109375,0,"['A1', 'F1', 'E2']",7.6,0,450.0,0.01093105229196,[9900|0|0]
38,3800,1.6931382417678833,1.17410147190094,0.0,0.5200761556625366,0.8094740509986877,-0.6267480850219727,4.12890625,0,"['A1', 'F1', 'E2']",7.6,0,450.0,0.0117662301753901,[10000|0|0]
39,3900,1.6927069425582886,1.1734603643417358,0.0,0.5445865392684937,0.826275110244751,-0.6144324541091919,4.12109375,0,"['A1', 'F1', 'E2']",7.6,0,450.0,0.0125389124585218,[10100|0|0]
40,4000,1.692980408668518,1.173800706863403,0.0,0.5010116100311279,0.7937459349632263,-0.6199068427085876,4.12109375,0,"['A1', 'F1', 'E2']",7.6,0,450.0,0.0129755092353066,[10200|0|0]
41,4100,1.692928671836853,1.1737048625946045,0.0,0.5195729732513428,0.7934218645095825,-0.5945929884910583,4.12890625,0,"['A1', 'F1', 'E2']",7.6,0,450.0,0.0130844258254675,[10300|0|0]
42,4200,1.6929630041122437,1.1736235618591309,0.0,0.5287747979164124,0.7983537912368774,-0.6114256978034973,4.12109375,0,"['A1', 'F1', 'E2']",7.6,0,450.0,0.0131726783875949,[10400|0|0]
43,4300,1.6929739713668823,1.1735281944274902,0.0,0.53128981590271,0.8102351427078247,-0.6005192995071411,4.12890625,0,"['A1', 'F1', 'E2']",7.6,0,450.0,0.0132686743650733,[10500|0|0]
44,4400,1.6927907466888428,1.1733344793319702,0.0,0.5389792919158936,0.8146224021911621,-0.5971323847770691,4.12890625,0,"['A1', 'F1', 'E2']",7.6,0,450.0,0.0135353142362011,[10600|0|0]
45,4500,1.692849040031433,1.1738144159317017,0.0,0.530279815196991,0.8137346506118774,-0.5886985659599304,4.12890625,0,"['A1', 'F1', 'E2']",7.6,0,450.0,0.0140187780441041,[10700|0|0]
46,4600,1.6930549144744873,1.1735702753067017,0.0,0.5403038263320923,0.8044971227645874,-0.6133860945701599,4.12890625,0,"['A1', 'F1', 'E2']",7.6,0,450.0,0.0143381351030183,[10800|0|0]
47,4700,1.692968487739563,1.17345929145813,0.0,0.5413974523544312,0.8002389073371887,-0.6016552448272705,4.12890625,0,"['A1', 'F1', 'E2']",7.6,0,450.0,0.0144788013575125,[10900|0|0]
48,4800,1.6929534673690796,1.173566222190857,0.0,0.5338115096092224,0.7942532300949097,-0.6149818301200867,4.12109375,0,"['A1', 'F1', 'E2']",7.6,0,450.0,0.0145867818795104,[11000|0|0]
49,4900,1.692812204360962,1.1732417345046997,0.0,0.5356248617172241,0.8021636605262756,-0.5997564196586609,4.12109375,0,"['A1', 'F1', 'E2']",7.6,0,450.0,0.0149406851091229,[11100|0|0]
50,5000,1.6930793523788452,1.1734113693237305,0.0,0.5295748114585876,0.7943585515022278,-0.6394147872924805,4.12890625,0,"['A1', 'F1', 'E2']",7.6,0,450.0,0.0152571405329768,[11200|0|0]
51,5100,1.6927080154418943,1.173414707183838,0.0,0.4895327985286712,0.7871349453926086,-0.6466475129127502,4.12890625,0,"['A1', 'F1', 'E2']",7.6,0,450.0,0.0156284924712432,[11300|0|0]
52,5200,1.6929738521575928,1.173530340194702,0.0,0.4934239983558655,0.7893486618995667,-0.6361531019210815,4.12109375,0,"['A1', 'F1', 'E2']",7.6,0,450.0,0.0159183892677326,[11400|0|0]
53,5300,1.692737340927124,1.1733368635177612,0.0,0.4989725649356842,0.8087372779846191,-0.6393439769744873,4.12890625,0,"['A1', 'F1', 'E2']",7.6,0,450.0,0.0162239556053057,[11500|0|0]
54,5400,1.6929285526275637,1.1731932163238523,0.0,0.5090726613998413,0.8045843839645386,-0.6453485488891602,4.12890625,0,"['A1', 'F1', 'E2']",7.6,0,450.0,0.016463113358061,[11600|0|0]
55,5500,1.6928496360778809,1.1735743284225464,0.0,0.5058226585388184,0.8106430768966675,-0.5897566676139832,4.12890625,0,"['A1', 'F1', 'E2']",7.6,0,450.0,0.0168523102922535,[11700|0|0]
56,5600,1.692778706550598,1.1735833883285522,0.0,0.5141267776489258,0.8173089027404785,-0.6022315621376038,4.12109375,0,"['A1', 'F1', 'E2']",7.6,0,450.0,0.0169238160943776,[11800|0|0]
57,5700,1.6927289962768557,1.1731464862823486,0.0,0.5270849466323853,0.8214142918586731,-0.602644145488739,4.12890625,0,"['A1', 'F1', 'E2']",7.6,0,450.0,0.0173635370391738,[11900|0|0]
58,5800,1.6928157806396484,1.1738303899765017,0.0,0.5256094336509705,0.8266752362251282,-0.6079462170600891,4.12109375,0,"['A1', 'F1', 'E2']",7.6,0,450.0,0.0180529250202857,[12000|0|0]
59,5900,1.693049430847168,1.173686146736145,0.0,0.5366836190223694,0.8222501277923584,-0.6145555973052979,4.12109375,0,"['A1', 'F1', 'E2']",7.6,0,450.0,0.0183275129513069,[12100|0|0]
60,6000,1.6927257776260376,1.1735143661499023,0.0,0.5511772632598877,0.836796760559082,-0.636131227016449,4.12890625,0,"['A1', 'F1', 'E2']",7.6,0,450.0,0.0186939279856026,[12200|0|0]
61,6100,1.6929415464401243,1.173891305923462,0.0,0.5409415364265442,0.8313311338424683,-0.6544064879417419,4.12890625,0,"['A1', 'F1', 'E2']",7.6,0,450.0,0.0191282547911575,[12300|0|0]
62,6200,1.692845344543457,1.1736555099487305,0.0,0.5469309091567993,0.8393483757972717,-0.6379746794700623,4.12109375,0,"['A1', 'F1', 'E2']",7.6,0,450.0,0.0193829203495315,[12400|0|0]
63,6300,1.6929399967193604,1.1736700534820557,0.0,0.5480487942695618,0.8305564522743225,-0.6265690922737122,4.12109375,0,"['A1', 'F1', 'E2']",7.6,0,450.0,0.0194786833317575,[12500|0|0]
64,6400,1.693073272705078,1.1738715171813965,0.0,0.5040260553359985,0.8008045554161072,-0.6165552735328674,4.12890625,0,"['A1', 'F1', 'E2']",7.6,0,450.0,0.0197202410071087,[12600|0|0]
65,6500,1.693320631980896,1.1733845472335815,0.0,0.5207149982452393,0.7949569225311279,-0.6370528340339661,4.12109375,0,"['A1', 'F1', 'E2']",7.6,0,450.0,0.020266433593481,[12700|0|0]
66,6600,1.692793846130371,1.1737624406814575,0.0,0.4889900386333465,0.7948108315467834,-0.6325331926345825,4.12890625,0,"['A1', 'F1', 'E2']",7.6,0,450.0,0.0209147443139391,[12800|0|0]
67,6700,1.6928930282592771,1.173360824584961,0.0,0.513889729976654,0.7960078716278076,-0.6602283716201782,4.12890625,0,"['A1', 'F1', 'E2']",7.6,0,450.0,0.0213284260559335,[12900|0|0]
68,6800,1.6928638219833374,1.1735634803771973,0.0,0.5142624974250793,0.8030136823654175,-0.6361181735992432,4.12109375,0,"['A1', 'F1', 'E2']",7.6,0,450.0,0.021533175602163,[13000|0|0]
69,6900,1.6927791833877563,1.1733304262161257,0.0,0.5282424092292786,0.8040167689323425,-0.6114413738250732,4.12890625,0,"['A1', 'F1', 'E2']",7.6,0,450.0,0.0217811230438814,[13100|0|0]
70,7000,1.6926302909851074,1.1732072830200195,0.0,0.5374329090118408,0.8021636605262756,-0.6146255731582642,4.12109375,0,"['A1', 'F1', 'E2']",7.6,0,450.0,0.0219743410407497,[13200|0|0]
71,7100,1.6927684545516968,1.1732535362243652,0.0,0.5517619252204895,0.8076764345169067,-0.6067257523536682,4.12109375,0,"['A1', 'F1', 'E2']",7.6,0,450.0,0.0221200411781722,[13300|0|0]
72,7200,1.6928991079330444,1.1737844944000244,0.0,0.5477808117866516,0.8077031970024109,-0.6270149350166321,4.12890625,0,"['A1', 'F1', 'E2']",7.6,0,450.0,0.0226668381152128,[13400|0|0]
73,7300,1.692794680595398,1.173466682434082,0.0,0.5670697093009949,0.8262187242507935,-0.6546026468276978,4.12109375,0,"['A1', 'F1', 'E2']",7.6,0,450.0,0.0230013669100034,[13500|0|0]
74,7400,1.6926443576812744,1.1737427711486816,0.0,0.5605122447013855,0.8323304057121277,-0.6589893698692322,4.12109375,0,"['A1', 'F1', 'E2']",7.6,0,450.0,0.0233157265079798,[13600|0|0]
75,7500,1.692863702774048,1.173406720161438,0.0,0.5712720155715942,0.822935163974762,-0.6360401511192322,4.12109375,0,"['A1', 'F1', 'E2']",7.6,0,450.0,0.0237170275617428,[13700|0|0]
76,7600,1.6927872896194458,1.1734869480133057,0.0,0.564905047416687,0.8249261975288391,-0.6239150762557983,4.12109375,0,"['A1', 'F1', 'E2']",7.6,0,450.0,0.0238278223197938,[13800|0|0]
77,7700,1.6926655769348145,1.1734639406204224,0.0,0.562039852142334,0.8342750072479248,-0.5858322381973267,4.12109375,0,"['A1', 'F1', 'E2']",7.6,0,450.0,0.0239516904663346,[13900|0|0]
78,7800,1.6926345825195312,1.1737323999404907,0.0,0.5478700399398804,0.8311240673065186,-0.5802560448646545,4.12890625,0,"['A1', 'F1', 'E2']",7.6,0,450.0,0.0242219330616269,[14000|0|0]
79,7900,1.6928576231002808,1.1733704805374146,0.0,0.5581356287002563,0.8188613057136536,-0.5680845379829407,4.12109375,0,"['A1', 'F1', 'E2']",7.6,0,450.0,0.0246470598132952,[14100|0|0]
80,8000,1.692872166633606,1.1734514236450195,0.0,0.5513235330581665,0.8119965195655823,-0.5772398710250854,4.12109375,0,"['A1', 'F1', 'E2']",7.6,0,450.0,0.0247292991045758,[14200|0|0]
81,8100,1.6927096843719482,1.1734302043914795,0.0,0.5484642386436462,0.8187922835350037,-0.5980077981948853,4.12109375,0,"['A1', 'F1', 'E2']",7.6,0,450.0,0.0248931610650005,[14300|0|0]
82,8200,1.6928609609603882,1.1734886169433594,0.0,0.5449979901313782,0.8087682723999023,-0.6233421564102173,4.12109375,0,"['A1', 'F1', 'E2']",7.6,0,450.0,0.0250553234293984,[14400|0|0]
83,8300,1.6929064989089966,1.173639178276062,0.0,0.5347754955291748,0.8089759349822998,-0.5971455574035645,4.12109375,0,"['A1', 'F1', 'E2']",7.6,0,450.0,0.0252126206629045,[14500|0|0]
84,8400,1.6927870512008667,1.1733343601226809,0.0,0.5391170978546143,0.8147680163383484,-0.6092734932899475,4.12109375,0,"['A1', 'F1', 'E2']",7.6,0,450.0,0.0255400070731419,[14600|0|0]
85,8500,1.6929298639297483,1.173587679862976,0.0,0.5368439555168152,0.8189672827720642,-0.6274732351303101,4.12109375,0,"['A1', 'F1', 'E2']",7.6,0,450.0,0.0258308100414106,[14700|0|0]
86,8600,1.692850112915039,1.1733914613723757,0.0,0.4983914196491241,0.7968825697898865,-0.6604642868041992,4.12109375,0,"['A1', 'F1', 'E2']",7.6,0,450.0,0.0260426163689852,[14800|0|0]
87,8700,1.6929866075515747,1.1734561920166016,0.0,0.5028441548347473,0.7991345524787903,-0.6502127647399902,4.12109375,0,"['A1', 'F1', 'E2']",7.6,0,450.0,0.0261936820570314,[14900|0|0]
88,8800,1.6929705142974854,1.1734185218811035,0.0,0.5134992003440857,0.8049702644348145,-0.6468176245689392,4.12109375,0,"['A1', 'F1', 'E2']",7.6,0,450.0,0.0262346458451329,[15000|0|0]
89,8900,1.6932814121246338,1.1733927726745603,0.0,0.5132673382759094,0.8040122985839844,-0.6227756142616272,4.12109375,0,"['A1', 'F1', 'E2']",7.6,0,450.0,0.0265466081514509,[15100|0|0]
90,9000,1.693018674850464,1.1730903387069702,0.0,0.5233708620071411,0.8082084059715271,-0.6032770276069641,4.12890625,0,"['A1', 'F1', 'E2']",7.6,0,450.0,0.0269472291443986,[15200|0|0]
91,9100,1.6931664943695068,1.1733487844467163,0.0,0.5137395262718201,0.8038093447685242,-0.6188295483589172,4.12109375,0,"['A1', 'F1', 'E2']",7.6,0,450.0,0.0272449619282887,[15300|0|0]
92,9200,1.6929991245269775,1.1733677387237549,0.0,0.5116751194000244,0.8091111183166504,-0.6171765327453613,4.12109375,0,"['A1', 'F1', 'E2']",7.6,0,450.0,0.0274134016172172,[15400|0|0]
93,9300,1.6929820775985718,1.1732549667358398,0.0,0.5162668228149414,0.8106123208999634,-0.6084336638450623,4.12109375,0,"['A1', 'F1', 'E2']",7.6,0,450.0,0.0275274547584558,[15500|0|0]
94,9400,1.692927598953247,1.1735703945159912,0.0,0.5107252597808838,0.8061362504959106,-0.5913435816764832,4.12109375,0,"['A1', 'F1', 'E2']",7.6,0,450.0,0.0278475525673949,[15600|0|0]
95,9500,1.6928393840789795,1.1733499765396118,0.0,0.5170343518257141,0.8129785656929016,-0.5869871973991394,4.12109375,0,"['A1', 'F1', 'E2']",7.6,0,450.0,0.028084967706662,[15700|0|0]
96,9600,1.6928834915161133,1.1734520196914673,0.0,0.5199887752532959,0.811251699924469,-0.5638615489006042,4.12109375,0,"['A1', 'F1', 'E2']",7.6,0,450.0,0.0281961354666067,[15800|0|0]
97,9700,1.692933440208435,1.1733616590499878,0.0,0.5219718217849731,0.80865478515625,-0.5831248164176941,4.12109375,0,"['A1', 'F1', 'E2']",7.6,0,450.0,0.0282993823425557,[15900|0|0]
98,9800,1.6930357217788696,1.1735992431640625,0.0,0.5128318667411804,0.8130587339401245,-0.5972880125045776,4.12109375,0,"['A1', 'F1', 'E2']",7.6,0,450.0,0.0285580476299664,[16000|0|0]
99,9900,1.692936658859253,1.173490047454834,0.0,0.5139989256858826,0.8210475444793701,-0.5889178514480591,4.12109375,0,"['A1', 'F1', 'E2']",7.6,0,450.0,0.0287054829207108,[16100|0|0]
100,10000,1.6930334568023682,1.173425316810608,0.0,0.5241597890853882,0.8134721517562866,-0.5806459784507751,4.12109375,0,"['A1', 'F1', 'E2']",7.6,0,450.0,0.0288219298961686,[16200|0|0]
101,10100,1.693012833595276,1.1736000776290894,0.0,0.4900161921977997,0.7910852432250977,-0.6146093010902405,4.12109375,0,"['A1', 'F1', 'E2']",7.6,0,450.0,0.0289979033610634,[16300|0|0]
102,10200,1.6929292678833008,1.173458695411682,0.0,0.5001541376113892,0.7989842891693115,-0.6191335916519165,4.12109375,0,"['A1', 'F1', 'E2']",7.6,0,450.0,0.0291621353908779,[16400|0|0]
103,10300,1.6930071115493774,1.17365300655365,0.0,0.4959566593170166,0.7966295480728149,-0.6075463891029358,4.12109375,0,"['A1', 'F1', 'E2']",7.6,0,450.0,0.0293714591980312,[16500|0|0]
104,10400,1.6929714679718018,1.173269271850586,0.0,0.5175545811653137,0.8056437373161316,-0.637902557849884,4.12109375,0,"['A1', 'F1', 'E2']",7.6,0,450.0,0.0297568457402949,[16600|0|0]
105,10500,1.6929622888565063,1.1737064123153689,0.0,0.5195778608322144,0.8266481757164001,-0.6317996978759766,4.12109375,0,"['A1', 'F1', 'E2']",7.6,0,450.0,0.0301940825664066,[16700|0|0]
106,10600,1.693034529685974,1.1734111309051514,0.0,0.5385270118713379,0.827785313129425,-0.630735456943512,4.12109375,0,"['A1', 'F1', 'E2']",7.6,0,450.0,0.0304980724489063,[16800|0|0]
107,10700,1.692910075187683,1.1732650995254517,0.0,0.5452892780303955,0.8356479406356812,-0.6179826855659485,4.12109375,0,"['A1', 'F1', 'E2']",7.6,0,450.0,0.0306899424205064,[16900|0|0]
108,10800,1.693156599998474,1.173579454421997,0.0,0.5344701409339905,0.8317250609397888,-0.6167322397232056,4.12890625,0,"['A1', 'F1', 'E2']",7.6,0,450.0,0.0310894339514774,[17000|0|0]
109,10900,1.693131685256958,1.1733105182647705,0.0,0.5125014781951904,0.8031870126724243,-0.6261917948722839,4.12109375,0,"['A1', 'F1', 'E2']",7.6,0,450.0,0.0313595217168585,[17100|0|0]
110,11000,1.6929504871368408,1.1736555099487305,0.0,0.4803155660629272,0.7929081320762634,-0.6306347846984863,4.12109375,0,"['A1', 'F1', 'E2']",7.6,0,450.0,0.0317492036650362,[17200|0|0]
111,11100,1.6931177377700806,1.1734833717346191,0.0,0.507786750793457,0.7990933656692505,-0.6304426789283752,4.12109375,0,"['A1', 'F1', 'E2']",7.6,0,450.0,0.0319892127046087,[17300|0|0]
112,11200,1.6928004026412964,1.1735262870788574,0.0,0.5177494883537292,0.8098127245903015,-0.6426030397415161,4.12109375,0,"['A1', 'F1', 'E2']",7.6,0,450.0,0.0323094365493355,[17400|0|0]
113,11300,1.6929064989089966,1.173439860343933,0.0,0.5270776748657227,0.8123276233673096,-0.6325272917747498,4.12109375,0,"['A1', 'F1', 'E2']",7.6,0,450.0,0.0324462795196686,[17500|0|0]
114,11400,1.6928833723068235,1.173360824584961,0.0,0.5282475352287292,0.8113005757331848,-0.6217926740646362,4.12109375,0,"['A1', 'F1', 'E2']",7.6,0,450.0,0.0325286293279524,[17600|0|0]
115,11500,1.6928547620773315,1.173233985900879,0.0,0.5307906866073608,0.817333996295929,-0.616352915763855,4.12109375,0,"['A1', 'F1', 'E2']",7.6,0,450.0,0.0326586546985969,[17700|0|0]
116,11600,1.6931817531585691,1.1732598543167114,0.0,0.5317472815513611,0.8181616067886353,-0.608677089214325,4.12109375,0,"['A1', 'F1', 'E2']",7.6,0,450.0,0.0329866674150373,[17800|0|0]
117,11700,1.6931365728378296,1.1733728647232056,0.0,0.5456278920173645,0.8220393061637878,-0.6475998163223267,4.12890625,0,"['A1', 'F1', 'E2']",7.6,0,450.0,0.033108374495185,[17900|0|0]
118,11800,1.6931718587875366,1.1737513542175293,0.0,0.5446044206619263,0.822448194026947,-0.6417907476425171,4.12890625,0,"['A1', 'F1', 'E2']",7.6,0,450.0,0.0334885052563188,[18000|0|0]
119,11900,1.6929997205734253,1.1732996702194214,0.0,0.5701045393943787,0.8300225734710693,-0.638018012046814,4.12109375,0,"['A1', 'F1', 'E2']",7.6,0,450.0,0.0339718788167296,[18100|0|0]
120,12000,1.6930902004241943,1.1734758615493774,0.0,0.5332356095314026,0.800920844078064,-0.646969735622406,4.12109375,0,"['A1', 'F1', 'E2']",7.6,0,450.0,0.0341699444324908,[18200|0|0]
121,12100,1.6929662227630615,1.1735117435455322,0.0,0.5427529811859131,0.8105538487434387,-0.6482904553413391,4.12109375,0,"['A1', 'F1', 'E2']",7.6,0,450.0,0.0342990102223347,[18300|0|0]
122,12200,1.692981839179993,1.1734490394592283,0.0,0.5395254492759705,0.7979471683502197,-0.6630849242210388,4.12109375,0,"['A1', 'F1', 'E2']",7.6,0,450.0,0.0343636296847047,[18400|0|0]
123,12300,1.692883849143982,1.1733218431472778,0.0,0.5480523705482483,0.7978872060775757,-0.6343871355056763,4.12109375,0,"['A1', 'F1', 'E2']",7.6,0,450.0,0.0345241941544084,[18500|0|0]
124,12400,1.692675232887268,1.1733382940292358,0.0,0.522853434085846,0.7812665104866028,-0.6383141279220581,4.12109375,0,"['A1', 'F1', 'E2']",7.6,0,450.0,0.0347334580406441,[18600|0|0]
125,12500,1.692996621131897,1.1734415292739868,0.0,0.5303353071212769,0.7823693752288818,-0.62410569190979,4.12109375,0,"['A1', 'F1', 'E2']",7.6,0,450.0,0.0350710197676578,[18700|0|0]
126,12600,1.6960586309432983,1.1776254177093506,0.0,0.4781452715396881,0.6698564291000366,-0.6322009563446045,4.12109375,0,"['A1', 'F1', 'E2']",7.6,0,450.0,0.0402556920354765,[18800|0|0]
127,12700,1.6956663131713867,1.177979826927185,0.0,0.5570374727249146,0.689834475517273,-0.6338868141174316,4.12890625,0,"['A1', 'F1', 'E2']",7.6,0,450.0,0.0407843877209552,[18900|0|0]
128,12800,1.6949796676635742,1.178105115890503,0.0,0.6003736257553101,0.7083734273910522,-0.6257271766662598,4.12109375,0,"['A1', 'F1', 'E2']",7.6,0,450.0,0.0414823700830019,[19000|0|0]
129,12900,1.6942481994628906,1.1779838800430298,0.0,0.6375987529754639,0.7229408025741577,-0.6537936925888062,4.12109375,0,"['A1', 'F1', 'E2']",7.6,0,450.0,0.0422238172215923,[19100|0|0]
130,13000,1.6933430433273315,1.172881007194519,0.0,0.7200747728347778,0.7894205451011658,-0.6707574725151062,4.12109375,0,"['A1', 'F1', 'E2']",7.6,0,450.0,0.0474063473891657,[19200|0|0]
131,13100,1.6931281089782717,1.173246145248413,0.0,0.6557155847549438,0.8336017727851868,-0.6713637113571167,4.12109375,0,"['A1', 'F1', 'E2']",7.6,0,450.0,0.0478300484309479,[19300|0|0]
132,13200,1.6930385828018188,1.1731032133102417,0.0,0.5691453218460083,0.8402524590492249,-0.6848272085189819,4.12109375,0,"['A1', 'F1', 'E2']",7.6,0,450.0,0.0479987033307276,[19400|0|0]
133,13300,1.6931143999099731,1.1733136177062988,0.0,0.5292381644248962,0.8484460115432739,-0.6854879260063171,4.12109375,0,"['A1', 'F1', 'E2']",7.6,0,450.0,0.0482223509190648,[19500|0|0]
134,13400,1.6930454969406128,1.173317313194275,0.0,0.5014427304267883,0.8535887002944946,-0.6694202423095703,4.12109375,0,"['A1', 'F1', 'E2']",7.6,0,450.0,0.0482913529177174,[19600|0|0]
135,13500,1.6932830810546875,1.1733962297439575,0.0,0.4790401458740234,0.8468700647354126,-0.6697872877120972,4.12109375,0,"['A1', 'F1', 'E2']",7.6,0,450.0,0.048541700741903,[19700|0|0]
136,13600,1.694858193397522,1.176418423652649,0.0,0.3867304921150207,0.7895357608795166,-0.6531190872192383,4.12109375,0,"['A1', 'F1', 'E2']",7.6,0,450.0,0.0519497258172628,[19800|0|0]
137,13700,1.6929080486297607,1.1734321117401123,0.0,0.4579334855079651,0.8571784496307373,-0.6485484838485718,4.12109375,0,"['A1', 'F1', 'E2']",7.6,0,450.0,0.0555163942142664,[19900|0|0]
138,13800,1.69295334815979,1.1732856035232544,0.0,0.458435446023941,0.8504159450531006,-0.6513544321060181,4.12109375,0,"['A1', 'F1', 'E2']",7.6,0,450.0,0.0556697457875474,[20000|0|0]
139,13900,1.694584846496582,1.1763508319854736,0.0,0.3653128743171692,0.7821160554885864,-0.6465335488319397,4.12109375,0,"['A1', 'F1', 'E2']",7.6,0,450.0,0.0591421242733341,[20100|0|0]
140,14000,1.6949477195739746,1.176193356513977,0.0,0.3703598082065582,0.7646231651306152,-0.6804667115211487,4.12109375,0,"['A1', 'F1', 'E2']",7.6,0,450.0,0.0595376939820068,[20200|0|0]
141,14100,1.6948527097702026,1.176692247390747,0.0,0.3649081587791443,0.765204668045044,-0.6646487712860107,4.12109375,0,"['A1', 'F1', 'E2']",7.6,0,450.0,0.0600455512156238,[20300|0|0]
142,14200,1.6946461200714111,1.176174879074097,0.0,0.3733372688293457,0.7652853727340698,-0.6589442491531372,4.12109375,0,"['A1', 'F1', 'E2']",7.6,0,450.0,0.0606026412251557,[20400|0|0]
143,14300,1.6947113275527954,1.17638099193573,0.0,0.3725966215133667,0.7597712874412537,-0.6247073411941528,4.12109375,0,"['A1', 'F1', 'E2']",7.6,0,450.0,0.0608188229250266,[20500|0|0]
144,14400,1.6949995756149292,1.1759470701217651,0.0,0.3887427747249603,0.747714638710022,-0.6524114608764648,4.12890625,0,"['A1', 'F1', 'E2']",7.6,0,450.0,0.0613397596639483,[20600|0|0]
145,14500,1.694649577140808,1.1759793758392334,0.0,0.391065388917923,0.7458826899528503,-0.6519560217857361,4.12109375,0,"['A1', 'F1', 'E2']",7.6,0,450.0,0.0616912459243743,[20700|0|0]
146,14600,1.69475257396698,1.176076889038086,0.0,0.39963099360466,0.7810107469558716,-0.6325340867042542,4.12109375,0,"['A1', 'F1', 'E2']",7.6,0,450.0,0.0618330809346924,[20800|0|0]
147,14700,1.6949771642684937,1.1761380434036257,0.0,0.414025217294693,0.7316485643386841,-0.6297106146812439,4.12109375,0,"['A1', 'F1', 'E2']",7.6,0,450.0,0.0620658483292273,[20900|0|0]
148,14800,1.694650173187256,1.1757564544677734,0.0,0.4408280253410339,0.7492970824241638,-0.6209943294525146,4.12109375,0,"['A1', 'F1', 'E2']",7.6,0,450.0,0.0625683752271878,[21000|0|0]
149,14900,1.694965124130249,1.1765345335006714,0.0,0.4232103228569031,0.7393545508384705,-0.581142008304596,4.12109375,0,"['A1', 'F1', 'E2']",7.6,0,450.0,0.0634077804201236,[21100|0|0]
150,15001,1.694793701171875,1.1761023998260498,0.0,0.4581307470798492,0.7541617155075073,-0.593994140625,4.12109375,0,"['A1', 'F1', 'E2']",7.6,0,450.0,0.0638726732501389,[21200|0|0]
151,15100,1.694801926612854,1.1763529777526855,0.0,0.4560816287994385,0.7571454644203186,-0.6236147284507751,4.12109375,0,"['A1', 'F1', 'E2']",7.6,0,450.0,0.064123386144096,[21300|0|0]
152,15200,1.6950125694274902,1.1762093305587769,0.0,0.4666123986244201,0.7491530776023865,-0.6081336140632629,4.12109375,0,"['A1', 'F1', 'E2']",7.6,0,450.0,0.0643783467521823,[21400|0|0]
153,15301,1.6949810981750488,1.1762990951538086,0.0,0.4620835185050964,0.7512849569320679,-0.625390887260437,4.12109375,0,"['A1', 'F1', 'E2']",7.6,0,450.0,0.0644734683703952,[21500|0|0]
154,15401,1.694342017173767,1.1764910221099854,0.0,0.4137964844703674,0.736728310585022,-0.6183192133903503,4.12109375,0,"['A1', 'F1', 'E2']",7.6,0,450.0,0.0651407467850817,[21600|0|0]
155,15501,1.6948541402816772,1.1757820844650269,0.0,0.438824862241745,0.731174647808075,-0.6273460388183594,4.12109375,0,"['A1', 'F1', 'E2']",7.6,0,450.0,0.0660153110549298,[21700|0|0]
156,15601,1.6948035955429075,1.1762936115264893,0.0,0.4329319298267364,0.7400951385498047,-0.602036714553833,4.12109375,0,"['A1', 'F1', 'E2']",7.6,0,450.0,0.0665293292503525,[21800|0|0]
157,15701,1.695164918899536,1.176308512687683,0.0,0.4399009048938751,0.7408974170684814,-0.5989421010017395,4.12109375,0,"['A1', 'F1', 'E2']",7.6,0,450.0,0.0668909597422225,[21900|0|0]
158,15801,1.6947888135910034,1.1760027408599854,0.0,0.4517161250114441,0.7550749778747559,-0.623515784740448,4.12109375,0,"['A1', 'F1', 'E2']",7.6,0,450.0,0.0673756778187577,[22000|0|0]
159,15902,1.694589614868164,1.175742506980896,0.0,0.4585394859313965,0.758025050163269,-0.6310734152793884,4.12109375,0,"['A1', 'F1', 'E2']",7.6,0,450.0,0.0677033999617489,[22100|0|0]
160,16001,1.6947001218795776,1.175981044769287,0.0,0.46040078997612,0.7647849917411804,-0.6269044280052185,4.12109375,0,"['A1', 'F1', 'E2']",7.6,0,450.0,0.0679662917190599,[22200|0|0]
161,16101,1.6950864791870115,1.1762007474899292,0.0,0.4536143541336059,0.7574165463447571,-0.6243440508842468,4.12109375,0,"['A1', 'F1', 'E2']",7.6,0,450.0,0.0684107478524016,[22300|0|0]
162,16202,1.6947757005691528,1.1762309074401855,0.0,0.4498727917671203,0.7582833170890808,-0.6255407333374023,4.12109375,0,"['A1', 'F1', 'E2']",7.6,0,450.0,0.0687229864981801,[22400|0|0]
163,16302,1.694696068763733,1.1761126518249512,0.0,0.4660506844520569,0.7675054669380188,-0.6276262402534485,4.12109375,0,"['A1', 'F1', 'E2']",7.6,0,450.0,0.0688655544292477,[22500|0|0]
164,16401,1.694784164428711,1.1761380434036257,0.0,0.4689240455627441,0.7696853280067444,-0.6109612584114075,4.12109375,0,"['A1', 'F1', 'E2']",7.6,0,450.0,0.0689572363710657,[22600|0|0]
165,16502,1.6948152780532837,1.1766867637634275,0.0,0.4594224095344543,0.7799270153045654,-0.5876942873001099,4.12109375,0,"['A1', 'F1', 'E2']",7.6,0,450.0,0.0695068381276996,[22700|0|0]
166,16602,1.6947071552276611,1.176143765449524,0.0,0.4742678701877594,0.7803620100021362,-0.5932267904281616,4.12109375,0,"['A1', 'F1', 'E2']",7.6,0,450.0,0.0700604966093674,[22800|0|0]
167,16700,1.69480562210083,1.1763510704040527,0.0,0.4695488512516022,0.7777906060218811,-0.5915719866752625,4.12109375,0,"['A1', 'F1', 'E2']",7.6,0,450.0,0.0702899983942926,[22900|0|0]
168,16800,1.694924235343933,1.1764909029006958,0.0,0.4620686769485473,0.7740501165390015,-0.5987420082092285,4.12109375,0,"['A1', 'F1', 'E2']",7.6,0,450.0,0.0704733620454257,[23000|0|0]
169,16902,1.694625735282898,1.1763807535171509,0.0,0.4716313779354095,0.7821661233901978,-0.5998517274856567,4.12109375,0,"['A1', 'F1', 'E2']",7.6,0,450.0,0.0707915367979334,[23100|0|0]
170,17002,1.6947649717330933,1.1762784719467163,0.0,0.4750288426876068,0.7778031826019287,-0.6199454069137573,4.12109375,0,"['A1', 'F1', 'E2']",7.6,0,450.0,0.0709643034287206,[23200|0|0]
171,17100,1.6948012113571167,1.176307201385498,0.0,0.4712699055671692,0.7781493067741394,-0.628319501876831,4.12109375,0,"['A1', 'F1', 'E2']",7.6,0,450.0,0.0710105494123524,[23300|0|0]
172,17200,1.6945652961730957,1.1764622926712036,0.0,0.4718062877655029,0.7786459922790527,-0.6248070597648621,4.12109375,0,"['A1', 'F1', 'E2']",7.6,0,450.0,0.0712928777335556,[23400|0|0]
173,17300,1.695195555686951,1.1760990619659424,0.0,0.486547976732254,0.7536044120788574,-0.6442893743515015,4.12109375,0,"['A1', 'F1', 'E2']",7.6,0,450.0,0.0720203140538267,[23500|0|0]
174,17400,1.6945217847824097,1.1760791540145874,0.0,0.4847727119922638,0.7685198783874512,-0.6695376634597778,4.12109375,0,"['A1', 'F1', 'E2']",7.6,0,450.0,0.0726943790049505,[23600|0|0]
175,17500,1.695279836654663,1.1781412363052368,0.0,0.4580234289169311,0.6977466344833374,-0.6807063221931458,4.12109375,0,"['A1', 'F1', 'E2']",7.6,0,450.0,0.0748913828771448,[23700|0|0]
176,17600,1.6944688558578491,1.1785084009170532,0.0,0.5320967435836792,0.7181817889213562,-0.6528626680374146,4.12109375,0,"['A1', 'F1', 'E2']",7.6,0,450.0,0.0757816074021784,[23800|0|0]
177,17700,1.69328773021698,1.1783695220947266,0.0,0.5909715294837952,0.7424643635749817,-0.6086639761924744,4.12109375,0,"['A1', 'F1', 'E2']",7.6,0,450.0,0.0769708698235175,[23900|0|0]
178,17800,1.6923071146011353,1.1783970594406128,0.0,0.6272937059402466,0.7503090500831604,-0.5529739856719971,4.12109375,0,"['A1', 'F1', 'E2']",7.6,0,450.0,0.077951872010802,[24000|0|0]
179,17900,1.6910433769226074,1.178230881690979,0.0,0.6450269222259521,0.7606640458106995,-0.5313661098480225,4.12109375,0,"['A1', 'F1', 'E2']",7.6,0,450.0,0.0792264888020786,[24100|0|0]
180,18000,1.6968740224838257,1.1760908365249634,0.0,0.6982840895652771,0.7012051343917847,-0.4482708275318146,4.12109375,0,"['A1', 'F1', 'E2']",7.6,0,450.0,0.0854374646491691,[24200|0|0]
181,18100,1.695015788078308,1.175169825553894,0.0,0.6387702822685242,0.7930101156234741,-0.4830353856086731,4.12109375,0,"['A1', 'F1', 'E2']",7.6,0,450.0,0.0875114213301727,[24300|0|0]
182,18200,1.6951366662979126,1.1757181882858276,0.0,0.5427067875862122,0.8162543177604675,-0.5290136337280273,4.12109375,0,"['A1', 'F1', 'E2']",7.6,0,450.0,0.088072948916092,[24400|0|0]
183,18300,1.694621443748474,1.175612449645996,0.0,0.476749837398529,0.8305716514587402,-0.5564355254173279,4.12109375,0,"['A1', 'F1', 'E2']",7.6,0,450.0,0.088598909879856,[24500|0|0]
184,18400,1.6949957609176636,1.1759535074234009,0.0,0.4156073033809662,0.8183968663215637,-0.5810815691947937,4.12109375,0,"['A1', 'F1', 'E2']",7.6,0,450.0,0.0891053027615975,[24600|0|0]
185,18500,1.6948094367980957,1.1755985021591189,0.0,0.3953883945941925,0.8216776847839355,-0.5637277960777283,4.12109375,0,"['A1', 'F1', 'E2']",7.6,0,450.0,0.0895062334478772,[24700|0|0]
186,18600,1.6946109533309937,1.1759783029556274,0.0,0.3656633794307709,0.8133193850517273,-0.577618420124054,4.12109375,0,"['A1', 'F1', 'E2']",7.6,0,450.0,0.0899347708811796,[24800|0|0]
187,18700,1.6947890520095823,1.176206111907959,0.0,0.3541693687438965,0.7984175086021423,-0.6049060821533203,4.12109375,0,"['A1', 'F1', 'E2']",7.6,0,450.0,0.0902239352947533,[24900|0|0]
188,18800,1.6948939561843872,1.176295280456543,0.0,0.3473457992076874,0.7826319932937622,-0.617071807384491,4.12109375,0,"['A1', 'F1', 'E2']",7.6,0,450.0,0.0903616157797469,[25000|0|0]
189,18900,1.6947989463806152,1.176079273223877,0.0,0.3641552925109863,0.7872846722602844,-0.6427122950553894,4.12109375,0,"['A1', 'F1', 'E2']",7.6,0,450.0,0.0905975945656087,[25100|0|0]
190,19000,1.694840431213379,1.1762878894805908,0.0,0.3700511157512665,0.7842094302177429,-0.6612253189086914,4.12109375,0,"['A1', 'F1', 'E2']",7.6,0,450.0,0.0908102956091292,[25200|0|0]
191,19100,1.694724440574646,1.176130771636963,0.0,0.3948986828327179,0.7730906009674072,-0.6842867136001587,4.12109375,0,"['A1', 'F1', 'E2']",7.6,0,450.0,0.0910055898616303,[25300|0|0]
192,19200,1.694839358329773,1.1762975454330444,0.0,0.4044875502586365,0.7622185349464417,-0.6652562022209167,4.12109375,0,"['A1', 'F1', 'E2']",7.6,0,450.0,0.0912081227959962,[25400|0|0]
193,19300,1.694846749305725,1.17594313621521,0.0,0.4264039993286133,0.756327748298645,-0.6579750776290894,4.12109375,0,"['A1', 'F1', 'E2']",7.6,0,450.0,0.0915626090724747,[25500|0|0]
194,19400,1.6949498653411863,1.1763333082199097,0.0,0.4283703863620758,0.7540757060050964,-0.6441298723220825,4.12109375,0,"['A1', 'F1', 'E2']",7.6,0,450.0,0.0919661770469482,[25600|0|0]
195,19500,1.6952378749847412,1.1763375997543335,0.0,0.4186912477016449,0.7503913640975952,-0.6241108179092407,4.12109375,0,"['A1', 'F1', 'E2']",7.6,0,450.0,0.092254218662081,[25700|0|0]
196,19600,1.6949800252914429,1.1757107973098757,0.0,0.4443304240703583,0.7640582323074341,-0.6387878656387329,4.12109375,0,"['A1', 'F1', 'E2']",7.6,0,450.0,0.092931985413045,[25800|0|0]
197,19700,1.6947108507156372,1.1760292053222656,0.0,0.4449833333492279,0.7678971290588379,-0.6339471340179443,4.12109375,0,"['A1', 'F1', 'E2']",7.6,0,450.0,0.0933489249945365,[25900|0|0]
198,19800,1.6950790882110596,1.1762596368789673,0.0,0.4498219192028045,0.758597195148468,-0.6326033473014832,4.12109375,0,"['A1', 'F1', 'E2']",7.6,0,450.0,0.0937833183132683,[26000|0|0]
199,19900,1.6947835683822632,1.176110863685608,0.0,0.4635052680969238,0.7648964524269104,-0.6170544624328613,4.12109375,0,"['A1', 'F1', 'E2']",7.6,0,450.0,0.09411417391965,[26100|0|0]
200,20000,1.694944977760315,1.176193118095398,0.0,0.4639157652854919,0.7655870318412781,-0.625026524066925,4.12109375,0,"['A1', 'F1', 'E2']",7.6,0,450.0,0.0942953334494931,[26200|0|0]
201,20100,1.6948864459991455,1.1764827966690063,0.0,0.4041624367237091,0.7341485619544983,-0.5858120918273926,4.12109375,0,"['A1', 'F1', 'E2']",7.6,0,450.0,0.0945908662616703,[26300|0|0]
202,20200,1.6948859691619873,1.1759904623031616,0.0,0.4262415468692779,0.744327962398529,-0.6214646697044373,4.12109375,0,"['A1', 'F1', 'E2']",7.6,0,450.0,0.0950832008584289,[26400|0|0]
203,20300,1.6947839260101318,1.1759265661239624,0.0,0.435486763715744,0.7501440644264221,-0.6180096864700317,4.12109375,0,"['A1', 'F1', 'E2']",7.6,0,450.0,0.0952035982278223,[26500|0|0]
204,20400,1.6950494050979614,1.1760259866714478,0.0,0.4351827204227447,0.7458980083465576,-0.6259056329727173,4.12109375,0,"['A1', 'F1', 'E2']",7.6,0,450.0,0.0954870829564006,[26600|0|0]
205,20500,1.6949540376663208,1.1760022640228271,0.0,0.4422683417797088,0.7570050358772278,-0.6308813095092773,4.12109375,0,"['A1', 'F1', 'E2']",7.6,0,450.0,0.095585356610425,[26700|0|0]
206,20600,1.6947896480560305,1.1761832237243652,0.0,0.4382935762405395,0.7600773572921753,-0.6220622062683105,4.12109375,0,"['A1', 'F1', 'E2']",7.6,0,450.0,0.0958298363796333,[26800|0|0]
207,20700,1.6947628259658811,1.175902247428894,0.0,0.4609008133411407,0.7667087316513062,-0.6142458915710449,4.12109375,0,"['A1', 'F1', 'E2']",7.6,0,450.0,0.0961120899945556,[26900|0|0]
208,20800,1.6951631307601929,1.1757464408874512,0.0,0.471267968416214,0.757280707359314,-0.5752214193344116,4.12109375,0,"['A1', 'F1', 'E2']",7.6,0,450.0,0.0965416474490426,[27000|0|0]
209,20900,1.6949697732925415,1.1758432388305664,0.0,0.4746996760368347,0.7671490907669067,-0.5789210200309753,4.12109375,0,"['A1', 'F1', 'E2']",7.6,0,450.0,0.0967578810081584,[27100|0|0]
210,21000,1.694854497909546,1.17614483833313,0.0,0.465141236782074,0.7678371667861938,-0.601776659488678,4.12109375,0,"['A1', 'F1', 'E2']",7.6,0,450.0,0.0970807597375158,[27200|0|0]
211,21100,1.6946885585784912,1.1762535572052002,0.0,0.455089122056961,0.7723363637924194,-0.6052301526069641,4.12109375,0,"['A1', 'F1', 'E2']",7.6,0,450.0,0.0972791423343712,[27300|0|0]
212,21200,1.6950191259384155,1.176140308380127,0.0,0.4603434801101684,0.7644197344779968,-0.621848464012146,4.12109375,0,"['A1', 'F1', 'E2']",7.6,0,450.0,0.097628570547067,[27400|0|0]
213,21300,1.6947404146194458,1.1763731241226196,0.0,0.4551244080066681,0.7682672739028931,-0.5931245684623718,4.12109375,0,"['A1', 'F1', 'E2']",7.6,0,450.0,0.0979917277709718,[27500|0|0]
214,21400,1.6950640678405762,1.175983428955078,0.0,0.4511599540710449,0.7597857117652893,-0.5788124203681946,4.12109375,0,"['A1', 'F1', 'E2']",7.6,0,450.0,0.0984982983298809,[27600|0|0]
215,21500,1.6949383020401,1.176104187965393,0.0,0.4530653059482574,0.7657113075256348,-0.5764262080192566,4.12109375,0,"['A1', 'F1', 'E2']",7.6,0,450.0,0.0986726536427959,[27700|0|0]
216,21600,1.6948862075805664,1.1762677431106567,0.0,0.4566998183727264,0.7753340005874634,-0.593372642993927,4.12109375,0,"['A1', 'F1', 'E2']",7.6,0,450.0,0.0988443047955923,[27800|0|0]
217,21700,1.6950739622116089,1.17629873752594,0.0,0.4561381936073303,0.7705032825469971,-0.5983256697654724,4.12109375,0,"['A1', 'F1', 'E2']",7.6,0,450.0,0.0990346005003695,[27900|0|0]
218,21800,1.6953227519989014,1.176068663597107,0.0,0.4657709002494812,0.7654063105583191,-0.6107203960418701,4.12109375,0,"['A1', 'F1', 'E2']",7.6,0,450.0,0.0993734668028985,[28000|0|0]
219,21900,1.694664478302002,1.175949215888977,0.0,0.4733522534370422,0.7848533391952515,-0.6161317825317383,4.12109375,0,"['A1', 'F1', 'E2']",7.6,0,450.0,0.1000424899826218,[28100|0|0]
220,22000,1.6950403451919556,1.175790548324585,0.0,0.4769968390464782,0.7677240967750549,-0.6223703026771545,4.12109375,0,"['A1', 'F1', 'E2']",7.6,0,450.0,0.1004504744369255,[28200|0|0]
221,22100,1.6948083639144895,1.1758158206939695,0.0,0.4672708213329315,0.7751341462135315,-0.6314598917961121,4.12109375,0,"['A1', 'F1', 'E2']",7.6,0,450.0,0.1006838282578694,[28300|0|0]
222,22200,1.6945098638534546,1.1762133836746216,0.0,0.4090647399425506,0.7413501143455505,-0.6205469369888306,4.12109375,0,"['A1', 'F1', 'E2']",7.6,0,450.0,0.1011809787481868,[28400|0|0]
223,22300,1.6946709156036377,1.175895929336548,0.0,0.4384220540523529,0.7417148947715759,-0.6453163623809814,4.12109375,0,"['A1', 'F1', 'E2']",7.6,0,450.0,0.101536949144426,[28500|0|0]
224,22400,1.69462788105011,1.1759198904037476,0.0,0.4356316924095154,0.7492247223854065,-0.6310191750526428,4.12109375,0,"['A1', 'F1', 'E2']",7.6,0,450.0,0.1015862046572003,[28600|0|0]
225,22500,1.6946983337402344,1.1757653951644895,0.0,0.432872325181961,0.7485674023628235,-0.6135032176971436,4.12109375,0,"['A1', 'F1', 'E2']",7.6,0,450.0,0.1017560056009525,[28700|0|0]
226,22600,1.6947063207626345,1.175866723060608,0.0,0.4326119124889374,0.7391998767852783,-0.6025072932243347,4.12109375,0,"['A1', 'F1', 'E2']",7.6,0,450.0,0.1018576477922837,[28800|0|0]
227,22700,1.694777488708496,1.1755906343460083,0.0,0.4431981444358825,0.738569438457489,-0.6130820512771606,4.12109375,0,"['A1', 'F1', 'E2']",7.6,0,450.0,0.1021427615500146,[28900|0|0]
228,22800,1.694895625114441,1.175714373588562,0.0,0.4441931843757629,0.7412130236625671,-0.6279965043067932,4.12109375,0,"['A1', 'F1', 'E2']",7.6,0,450.0,0.1023138393409675,[29000|0|0]
229,22900,1.6949069499969482,1.1758652925491333,0.0,0.4458792507648468,0.7469834089279175,-0.6385669708251953,4.12109375,0,"['A1', 'F1', 'E2']",7.6,0,450.0,0.1024651826117915,[29100|0|0]
230,23000,1.694915771484375,1.1763594150543213,0.0,0.4245617389678955,0.7539453506469727,-0.6033750176429749,4.12109375,0,"['A1', 'F1', 'E2']",7.6,0,450.0,0.1029593838549847,[29200|0|0]
231,23100,1.6951797008514404,1.1758283376693726,0.0,0.456491619348526,0.7601516842842102,-0.6038582921028137,4.12109375,0,"['A1', 'F1', 'E2']",7.6,0,450.0,0.1035524284566831,[29300|0|0]
232,23200,1.6946848630905151,1.1761270761489868,0.0,0.4031260907649994,0.7350309491157532,-0.6231763958930969,4.12109375,0,"['A1', 'F1', 'E2']",7.6,0,450.0,0.1041304501594242,[29400|0|0]
233,23300,1.694942831993103,1.176140308380127,0.0,0.4158998727798462,0.7322317361831665,-0.6227134466171265,4.12109375,0,"['A1', 'F1', 'E2']",7.6,0,450.0,0.1043887582054533,[29500|0|0]
234,23400,1.6949248313903809,1.1758933067321775,0.0,0.4270821809768677,0.7382311224937439,-0.628058135509491,4.12109375,0,"['A1', 'F1', 'E2']",7.6,0,450.0,0.10463641489482,[29600|0|0]
235,23500,1.6948163509368896,1.1759525537490845,0.0,0.430867850780487,0.7433326840400696,-0.6022853255271912,4.12109375,0,"['A1', 'F1', 'E2']",7.6,0,450.0,0.1047600199829112,[29700|0|0]
236,23600,1.6951740980148315,1.1764930486679075,0.0,0.4193808436393738,0.7371676564216614,-0.6376598477363586,4.12109375,0,"['A1', 'F1', 'E2']",7.6,0,450.0,0.1054081848763214,[29800|0|0]
237,23700,1.69477117061615,1.176269769668579,0.0,0.431818425655365,0.7482924461364746,-0.6591652631759644,4.12109375,0,"['A1', 'F1', 'E2']",7.6,0,450.0,0.1058688409303894,[29900|0|0]
238,23800,1.6945611238479614,1.1760778427124023,0.0,0.4420878887176513,0.7542001605033875,-0.6595316529273987,4.12109375,0,"['A1', 'F1', 'E2']",7.6,0,450.0,0.1061533679086071,[30000|0|0]
239,23900,1.694938898086548,1.1758838891983032,0.0,0.4458311200141907,0.7495270371437073,-0.6579710841178894,4.12109375,0,"['A1', 'F1', 'E2']",7.6,0,450.0,0.1065780222868621,[30100|0|0]
240,24000,1.6947592496871948,1.1756746768951416,0.0,0.4558664262294769,0.764079213142395,-0.6573594808578491,4.12109375,0,"['A1', 'F1', 'E2']",7.6,0,450.0,0.1068537818473208,[30200|0|0]
241,24100,1.6948195695877075,1.1754579544067385,0.0,0.4682330191135406,0.7636213898658752,-0.663364052772522,4.12109375,0,"['C1', 'F1', 'J1']",7.6,0,450.0,0.1070787421268758,[30200|0|0]
242,24200,1.6951167583465576,1.1757707595825195,0.0,0.5201402306556702,0.8064923882484436,-0.6890484690666199,3.119140625,0,"['C1', 'F1', 'J1']",7.6,0,450.0,0.1075102143002338,[30200|0|0]
243,24300,1.6953986883163452,1.1760478019714355,0.0,-2.3772289752960205,-0.1780304163694381,-0.1045726910233497,3.505859375,0,"['C1', 'F1', 'J1']",7.6,0,450.0,0.107905482554867,[30200|0|0]
244,24400,1.6985207796096802,1.1841394901275637,0.0095627605915069,-1.549590826034546,1.148511290550232,0.4958895146846771,3.611328125,0,"['C1', 'F1', 'J1']",7.6,0,450.0,0.1208155275350527,[30200|0|0]
245,24500,1.7002201080322266,1.1985870599746704,0.0821576043963432,-0.28016397356987,1.830276727676392,1.003659725189209,3.65234375,0,"['C1', 'F1', 'J1']",7.6,0,450.0,0.1948535673431357,[30200|0|0]
246,24600,1.7034580707550049,1.2142987251281738,0.160572350025177,1.292206883430481,2.0851709842681885,0.9179449081420898,3.65234375,0,"['C1', 'F1', 'J1']",7.6,0,450.0,0.2748923901513494,[30200|0|0]
247,24700,1.704747438430786,1.2278199195861816,0.2412323057651519,3.172605514526367,2.0359349250793457,0.645476758480072,3.689453125,0,"['C1', 'F1', 'J1']",7.6,0,450.0,0.3566879501075556,[30200|0|0]
248,24800,1.7051597833633425,1.237598538398743,0.3166245222091675,3.834243059158325,1.721105456352234,0.2991247773170471,3.7109375,0,"['C1', 'F1', 'J1']",7.6,0,450.0,0.4327127994304321,[30200|0|0]
249,24900,1.7031290531158447,1.2407610416412354,0.3847098350524902,3.573253631591797,1.3689173460006714,0.2208136469125747,3.68359375,0,"['C1', 'F1', 'J1']",7.6,0,450.0,0.5009017656718263,[30200|0|0]
250,25000,1.6993731260299685,1.2406069040298462,0.4406203925609588,2.5749330520629883,1.139520287513733,0.3714707493782043,3.673828125,0,"['C1', 'F1', 'J1']",7.6,0,450.0,0.5569385499084815,[30200|0|0]
251,25100,1.6955353021621704,1.2368998527526855,0.4809630811214447,1.7039903402328491,0.9552162885665894,0.723143458366394,3.689453125,0,"['C1', 'F1', 'J1']",7.6,0,450.0,0.5976325745497,[30200|0|0]
252,25200,1.6887669563293457,1.2309399843215942,0.5160544514656067,0.7892550230026245,0.6270524263381958,0.9353376030921936,3.716796875,0,"['C1', 'F1', 'J1']",7.6,0,450.0,0.6338642569514291,[30200|0|0]
253,25300,1.6811857223510742,1.2258347272872925,0.5436692833900452,0.22489994764328,-0.300993412733078,1.8951038122177124,3.7109375,0,"['C1', 'F1', 'J1']",7.6,0,450.0,0.662952359334269,[30200|0|0]
254,25400,1.6742243766784668,1.2188639640808103,0.5664784908294678,0.1503884047269821,-0.4289812743663788,3.232511520385742,3.716796875,0,"['C1', 'F1', 'J1']",7.6,0,450.0,0.6877981198834852,[30200|0|0]
255,25500,1.6669692993164062,1.213788986206055,0.5823600888252258,-0.2966302931308746,-0.6204159259796143,4.082536220550537,3.705078125,0,"['C1', 'F1', 'J1']",7.6,0,450.0,0.7059809882726477,[30200|0|0]
256,25600,1.6605571508407593,1.209799885749817,0.5952160358428955,-0.4050121903419494,-0.9506917595863342,4.502992153167725,3.6953125,0,"['C1', 'F1', 'J1']",7.6,0,450.0,0.720890848910656,[30200|0|0]
257,25700,1.6547144651412964,1.2071059942245483,0.6048306226730347,-0.1186306402087211,-0.9762922525405884,4.629211902618408,3.701171875,0,"['C1', 'F1', 'J1']",7.6,0,450.0,0.7324595267800976,[30200|0|0]
258,25800,1.6500825881958008,1.2051613330841064,0.6126816272735596,-0.1711441427469253,-1.177167296409607,4.641201019287109,3.701171875,0,"['C1', 'F1', 'J1']",7.6,0,450.0,0.7417801632512203,[30200|0|0]
259,25900,1.647034764289856,1.2042194604873655,0.6188690662384033,0.3551234006881714,-1.1049838066101074,4.741894721984863,3.6953125,0,"['C1', 'F1', 'J1']",7.6,0,450.0,0.7487415392282674,[30200|0|0]
260,26000,1.6442573070526123,1.2036608457565308,0.6233367919921875,0.5779193043708801,-0.9935166835784912,5.15348482131958,3.689453125,0,"['C1', 'F1', 'J1']",7.6,0,450.0,0.7540318031662244,[30200|0|0]
261,26100,1.6434956789016724,1.2013834714889526,0.6267483234405518,0.3689726293087005,-0.7357258796691895,5.476919651031494,3.68359375,0,"['C1', 'F1', 'J1']",7.6,0,450.0,0.7582037401046392,[30200|0|0]
262,26200,1.6435167789459229,1.19865620136261,0.630180299282074,0.411271184682846,-0.4206432998180389,5.816641330718994,3.68359375,0,"['C1', 'F1', 'J1']",7.6,0,450.0,0.7625874492339839,[30200|0|0]
263,26300,1.643541932106018,1.195749282836914,0.6337366104125977,0.3314376473426819,-0.2595754861831665,6.21859884262085,3.6796875,0,"['C1', 'F1', 'J1']",7.6,0,450.0,0.7671807222340987,[30200|0|0]
264,26400,1.6437278985977173,1.1918251514434814,0.6367195844650269,0.4230539202690124,-0.313841849565506,6.474975109100342,3.6796875,0,"['C1', 'F1', 'J1']",7.6,0,450.0,0.7721134217917877,[30200|0|0]
265,26500,1.644331455230713,1.1882094144821167,0.6373376846313477,-0.0273545458912849,-0.2521490752696991,7.1391448974609375,3.6796875,0,"['C1', 'F1', 'J1']",7.6,0,450.0,0.7758309320067861,[30200|0|0]
266,26600,1.6441824436187744,1.18385910987854,0.6385560631752014,-0.8227353096008301,-0.007410826627165,7.806469440460205,3.6796875,0,"['C1', 'F1', 'J1']",7.6,0,450.0,0.7803510869687886,[30200|0|0]
267,26700,1.645444393157959,1.1799105405807495,0.6412085294723511,-0.6545650959014893,-0.4844913780689239,8.094816207885742,3.6796875,0,"['C1', 'F1', 'J1']",7.6,0,450.0,0.7852723971191873,[30200|0|0]
268,26800,1.6466598510742188,1.1769452095031738,0.6438525319099426,-0.1996975839138031,-0.5500527620315552,7.572401523590088,3.673828125,0,"['C1', 'F1', 'J1']",7.6,0,450.0,0.7894270662077941,[30200|0|0]
269,26900,1.6493457555770874,1.1733680963516235,0.6468340158462524,0.2988399565219879,-0.8347647786140442,6.564668655395508,3.66796875,0,"['C1', 'F1', 'J1']",7.6,0,450.0,0.7948028515420498,[30200|0|0]
270,27000,1.6527419090270996,1.1689417362213137,0.650422990322113,0.0711932107806205,-0.8563623428344727,5.506511211395264,3.673828125,0,"['C1', 'F1', 'J1']",7.6,0,450.0,0.8014366483468671,[30200|0|0]
271,27100,1.6569249629974363,1.1635985374450684,0.6536759734153748,-0.3809777200222015,0.0500912256538867,4.288873672485352,3.66796875,0,"['C1', 'F1', 'J1']",7.6,0,155.0,0.8089619133047451,[30200|0|0]
272,27200,1.661029815673828,1.1582542657852173,0.6570066809654236,1.6998010873794556,2.4972128868103027,3.515549898147583,3.416015625,0,"['C1', 'F1', 'J1']",7.6,0,155.0,0.8164788719884895,[30200|0|0]
273,27300,1.6564648151397705,1.1434473991394043,0.6713366508483887,15.195846557617188,13.588619232177734,2.692741632461548,3.44140625,0,"['C1', 'F1', 'J1']",7.6,0,155.0,0.8375840980377295,[30200|0|0]
274,27400,1.630958914756775,1.0985777378082275,0.7071326971054077,14.144824981689451,13.93552589416504,4.302831649780273,3.431640625,0,"['C1', 'F1', 'J1']",7.6,0,155.0,0.9003948804716113,[30200|0|0]
275,27500,1.5797051191329956,1.022982835769653,0.7639610767364502,5.899623870849609,15.07772159576416,5.272997856140137,3.45703125,0,"['C1', 'F1', 'J1']",7.6,0,155.0,1.0079634888643747,[30200|0|0]
276,27600,1.4983006715774536,0.937426745891571,0.8409856557846069,-8.236598014831543,14.505220413208008,4.5316972732543945,3.583984375,0,"['C1', 'F1', 'J1']",7.6,0,155.0,1.1489575113426174,[30200|0|0]
277,27700,1.39341938495636,0.8656383752822876,0.9306528568267822,-11.016838073730469,8.17065143585205,1.9337999820709229,3.5625,0,"['C1', 'F1', 'J1']",7.6,0,155.0,1.3045012716828177,[30200|0|0]
278,27800,1.2775636911392212,0.8150712251663208,1.0299755334854126,-11.505032539367676,2.0882906913757324,-1.0578556060791016,3.658203125,0,"['C1', 'F1', 'J1']",7.6,0,155.0,1.4652637441673382,[30200|0|0]
279,27900,1.1626074314117432,0.7852515578269958,1.1317602396011353,-8.915433883666992,-0.322497010231018,-2.545069932937622,3.701171875,0,"['C1', 'F1', 'J1']",7.6,0,155.0,1.6216743595673917,[30200|0|0]
280,28000,1.0530723333358765,0.7697684168815613,1.2236665487289429,-6.336650371551514,-4.137677192687988,-3.2727017402648926,3.716796875,0,"['C1', 'F1', 'J1']",7.6,0,155.0,1.7654952030551212,[30200|0|0]
281,28100,0.9541791677474976,0.7629396319389343,1.3011043071746826,-4.667507648468018,-8.207549095153809,-4.835263252258301,3.705078125,0,"['C1', 'F1', 'J1']",7.6,0,155.0,1.891285095085379,[30200|0|0]
282,28200,0.8677311539649963,0.7634097337722778,1.3615665435791016,-2.264889478683472,-9.882057189941406,-1.999630570411682,3.6953125,0,"['C1', 'F1', 'J1']",7.6,0,155.0,1.996779939100132,[30200|0|0]
283,28300,0.7964824438095093,0.7640873193740845,1.4023619890213013,-0.4843096435070038,-11.44003200531006,0.5794824957847595,3.66796875,0,"['C1', 'F1', 'J1']",7.6,0,155.0,2.0788841788804007,[30200|0|0]
284,28400,0.7407612204551697,0.7671275734901428,1.430526614189148,-0.0995559394359588,-11.041114807128906,1.8585978746414185,3.658203125,0,"['C1', 'F1', 'J1']",7.6,0,155.0,2.1413929301720374,[30200|0|0]
285,28500,0.7024211287498474,0.7670409083366394,1.445671319961548,-0.147764503955841,-9.743839263916016,-0.8093442320823669,3.6484375,0,"['C1', 'F1', 'J1']",7.6,0,155.0,2.182615888044489,[30200|0|0]
286,28600,0.6767497062683105,0.7693341374397278,1.4540586471557615,-0.9225874543190002,-7.613112926483154,-4.426979064941406,3.642578125,0,"['C1', 'F1', 'J1']",7.6,0,155.0,2.2097199115356165,[30200|0|0]
287,28700,0.6647984981536865,0.7723686099052429,1.458045482635498,-0.3374523818492889,-5.69797420501709,-6.921546936035156,3.6484375,0,"['C1', 'F1', 'J1']",7.6,0,155.0,2.2226788565422715,[30200|0|0]
288,28800,0.6599436402320862,0.7741338610649109,1.4582626819610596,0.5344175100326538,-3.086509227752685,-8.417668342590332,3.626953125,0,"['C1', 'F1', 'J1']",7.6,0,155.0,2.227849246531688,[30200|0|0]
289,28900,0.6589375138282776,0.775439441204071,1.456466555595398,0.7220094203948975,-1.472427248954773,-9.234867095947266,3.630859375,0,"['C1', 'F1', 'J1']",7.6,0,155.0,2.230287052873799,[30200|0|0]
290,29000,0.6588622331619263,0.7770169377326965,1.4541871547698977,0.7703989148139954,-0.4156233668327331,-9.43109130859375,3.63671875,0,"['C1', 'F1', 'J1']",7.6,0,155.0,2.2330601072547736,[30200|0|0]
291,29100,0.6581494212150574,0.7776988744735718,1.4515458345413208,0.6320595741271973,0.1448355615139007,-9.100574493408203,3.626953125,0,"['C1', 'F1', 'J1']",7.6,0,155.0,2.2358796304662483,[30200|0|0]
292,29200,0.6571092009544373,0.778171956539154,1.4489389657974243,0.4846812486648559,0.0226821023970842,-8.681864738464355,3.626953125,0,"['C1', 'F1', 'J1']",7.6,0,155.0,2.238725966616334,[30200|0|0]
293,29300,0.6554332971572876,0.7792568206787109,1.446299433708191,0.3063449263572693,-0.3946555256843567,-8.520111083984375,3.626953125,0,"['C1', 'F1', 'J1']",7.6,0,155.0,2.24203545500409,[30200|0|0]
294,29400,0.6551936864852905,0.7797244787216187,1.4420218467712402,0.5373951196670532,-0.6630480289459229,-8.519256591796875,3.626953125,0,"['C1', 'F1', 'J1']",7.6,0,155.0,2.2463451959849845,[30200|0|0]
295,29500,0.6564476490020752,0.7839675545692444,1.443002223968506,0.1301193237304687,-1.0191338062286377,-8.31713581085205,3.626953125,0,"['C1', 'F1', 'J1']",7.6,0,155.0,2.250877000712808,[30200|0|0]
296,29600,0.6567370891571045,0.7846076488494873,1.4372769594192505,0.5152119994163513,-0.6463463306427002,-8.089815139770508,3.626953125,0,"['C1', 'F1', 'J1']",7.6,0,155.0,2.256645202377964,[30200|0|0]
297,29700,0.6563401222229004,0.7834107279777527,1.4267579317092896,0.4761046469211578,-0.5426453351974487,-7.883210182189941,3.62109375,0,"['C1', 'F1', 'J1']",7.6,0,155.0,2.267239547392309,[30200|0|0]
298,29800,0.6606681942939758,0.7860032916069031,1.425752878189087,0.529025673866272,-0.6873489022254944,-7.7642412185668945,3.62109375,0,"['C1', 'F1', 'J1']",7.6,0,155.0,2.2723838380724795,[30200|0|0]
299,29900,0.6631171107292175,0.7856529355049133,1.4188657999038696,0.3332038223743438,-0.6836890578269958,-7.831573963165283,3.615234375,0,"['C1', 'F1', 'J1']",7.6,0,155.0,2.2797017468182696,[30200|0|0]
300,30000,0.666089653968811,0.7843353748321533,1.4111698865890503,0.4652237296104431,-0.6577578783035278,-7.993414402008057,3.615234375,0,"['C1', 'F1', 'J1']",7.6,0,155.0,2.2880563300626253,[30200|0|0]
301,30100,0.669630765914917,0.7813888788223267,1.4023078680038452,0.3394261002540588,-0.3136859536170959,-8.047491073608398,3.611328125,0,"['C1', 'F1', 'J1']",7.6,0,450.0,2.2980441569511583,[30200|0|0]
302,30200,0.6726518869400024,0.7783684730529785,1.3923850059509275,0.1384286433458328,0.2492096871137619,-8.328243255615234,3.60546875,0,"['C1', 'F1', 'J1']",7.6,0,450.0,2.3088475459833537,[30200|0|0]
303,30300,0.6738514304161072,0.7762656211853027,1.378424048423767,0.3206619024276733,-0.0596763864159584,-8.338563919067383,3.826171875,0,"['C1', 'F1', 'J1']",7.6,0,450.0,2.3230168517392342,[30200|0|0]
304,30400,0.6758316159248352,0.7724984288215637,1.332902431488037,-0.0751234963536262,0.5674562454223633,-7.588236331939697,3.7578125,0,"['C1', 'F1', 'J1']",7.6,0,450.0,2.3687369838628154,[30200|0|0]
305,30501,0.6751672029495239,0.7696524262428284,1.251527190208435,-2.8823893070220947,0.0234827604144811,-4.864555835723877,3.673828125,0,"['C1', 'F1', 'J1']",7.6,0,450.0,2.450164688414727,[30200|0|0]
306,30600,0.6741678714752197,0.7693069577217102,1.1458762884140017,-1.2904454469680786,-0.8390340209007263,-5.1115922927856445,3.615234375,0,"['C1', 'F1', 'J1']",7.6,0,450.0,2.555820881143178,[30200|0|0]
307,30700,0.6738039255142212,0.7705749869346619,1.028745412826538,-0.7856115698814392,-1.0342531204223633,-3.956357717514038,3.611328125,0,"['C1', 'F1', 'J1']",7.6,0,450.0,2.672959185598353,[30200|0|0]
308,30800,0.6757010817527771,0.7723489999771118,0.9086081981658936,-0.4722118377685547,0.011483802460134,-1.986872911453247,3.615234375,0,"['C1', 'F1', 'J1']",7.6,0,450.0,2.7931244745568797,[30200|0|0]
309,30900,0.6741345524787903,0.7729483246803284,0.7705292701721191,1.502540946006775,-0.253077894449234,-0.5271015763282776,3.615234375,0,"['C1', 'F1', 'J1']",7.6,0,450.0,2.93121358911692,[30200|0|0]
310,31000,0.6803949475288391,0.775409460067749,0.669883131980896,0.4209426641464233,0.2061815708875656,0.7715826630592346,3.62109375,0,"['C1', 'F1', 'J1']",7.6,0,450.0,3.0320842729967508,[30200|0|0]
311,31100,0.6831112504005432,0.7747999429702759,0.5514252185821533,1.0745234489440918,0.5072823762893677,1.8107197284698489,3.615234375,0,"['C1', 'F1', 'J1']",7.6,0,450.0,3.1505748931283333,[30200|0|0]
312,31201,0.6864895820617676,0.7732225060462952,0.4319791495800018,0.1767269819974899,0.7695096731185913,2.3824710845947266,3.578125,0,"['C1', 'F1', 'J1']",7.6,0,450.0,3.270079139212433,[30200|0|0]
313,31301,0.6884264349937439,0.77046138048172,0.3168456852436065,-0.3187623023986816,0.934687316417694,3.7239251136779785,3.53125,0,"['C1', 'F1', 'J1']",7.6,0,450.0,3.385261993074297,[30200|0|0]
314,31401,0.692190408706665,0.7645752429962158,0.2074629217386245,0.5485140681266785,-0.5474867820739746,3.827958822250366,3.494140625,0,"['C1', 'F1', 'J1']",7.6,0,450.0,3.494867663842723,[30200|0|0]
315,31501,0.6937994360923767,0.7638893723487854,0.1236256062984466,-1.1816469430923462,-0.7236893177032471,3.2283434867858887,3.478515625,0,"['C1', 'F1', 'J1']",7.6,0,450.0,3.5787232232761257,[30200|0|0]
316,31601,0.6969301700592041,0.76396644115448,0.0592201463878154,-0.048274178057909,1.7147454023361206,4.139118194580078,3.541015625,0,"['C1', 'F1', 'J1']",7.6,0,450.0,3.6432047764605193,[30200|0|0]
