time.ms,stateEstimate.x,stateEstimate.y,stateEstimate.z,stabilizer.roll,stabilizer.pitch,stabilizer.yaw,pm.vbat,drone_id,node_name,wind_speed,global_wind_direction,relative_wind_direction,travel_dist,waiting_time,curr_node_role
0,1.333349347114563,-0.308978259563446,0.0,0.4204921722412109,0.7471734881401062,0.6513793468475342,4.17578125,2,C1,7.6,180,270.0,0.0,[6200|0|0],start
100,1.3331242799758911,-0.3086141943931579,0.0,0.4141556620597839,0.7401272654533386,0.6680365204811096,4.17578125,2,C1,7.6,180,270.0,0.0004280171318146,[6300|0|0],start
200,1.3330472707748413,-0.3089503049850464,0.0,0.4202966094017029,0.724640429019928,0.6675190329551697,4.17578125,2,C1,7.6,180,270.0,0.0007728370080195,[6400|0|0],start
300,1.3332806825637815,-0.3086943030357361,0.0,0.4144148826599121,0.7026375532150269,0.6567615270614624,4.17578125,2,C1,7.6,180,270.0,0.0011192732377457,[6500|0|0],start
400,1.3331787586212158,-0.3087198138236999,0.0,0.4183554053306579,0.6894111037254333,0.6390135288238525,4.17578125,2,C1,7.6,180,270.0,0.0012243412650931,[6600|0|0],start
500,1.3332266807556152,-0.3087667226791382,0.0,0.4299226105213165,0.6796885132789612,0.656511664390564,4.17578125,2,C1,7.6,180,270.0,0.001291400728884,[6700|0|0],start
600,1.3333241939544678,-0.3086349666118622,0.0,0.4236086905002594,0.6770380735397339,0.663992166519165,4.17578125,2,C1,7.6,180,270.0,0.0014553168208778,[6800|0|0],start
700,1.3329838514328003,-0.3085478544235229,0.0,0.4193536341190338,0.678294837474823,0.6432983875274658,4.17578125,2,C1,7.6,180,270.0,0.0018066308761221,[6900|0|0],start
800,1.3337422609329224,-0.308935135602951,0.0,0.4012874066829681,0.6520673036575317,0.6580535173416138,4.17578125,2,C1,7.6,180,270.0,0.0026582010034837,[7000|0|0],start
900,1.3338477611541748,-0.3088647127151489,0.0,0.4209963381290436,0.6657803654670715,0.6553258895874023,4.17578125,2,C1,7.6,180,270.0,0.0027850461051262,[7100|0|0],start
1000,1.3338689804077148,-0.308721512556076,0.0,0.4302854537963867,0.6742856502532959,0.6471794247627258,4.17578125,2,C1,7.6,180,270.0,0.0029298098515523,[7200|0|0],start
1100,1.3340495824813845,-0.3091251254081726,0.0,0.4621595442295074,0.6902995109558105,0.6322027444839478,4.17578125,2,C1,7.6,180,270.0,0.0033719867882997,[7300|0|0],start
1200,1.3338311910629272,-0.3091398179531097,0.0,0.4674302637577057,0.7117239236831665,0.6420969367027283,4.17578125,2,C1,7.6,180,270.0,0.00359087187809,[7400|0|0],start
1300,1.333886981010437,-0.3089552223682403,0.0,0.4668512046337127,0.7089405059814453,0.6376248598098755,4.17578125,2,C1,7.6,180,270.0,0.0037837139072133,[7500|0|0],start
1400,1.3340046405792236,-0.3090560734272003,0.0,0.4740641415119171,0.7078879475593567,0.6521377563476562,4.17578125,2,C1,7.6,180,270.0,0.0039386807108211,[7600|0|0],start
1500,1.3339091539382937,-0.3094961047172546,0.0,0.4876494407653808,0.709010124206543,0.6765377521514893,4.17578125,2,C1,7.6,180,270.0,0.0043889531115109,[7700|0|0],start
1600,1.3338913917541504,-0.3086681365966797,0.0,0.4680097103118896,0.7094947695732117,0.6561369299888611,4.17578125,2,C1,7.6,180,270.0,0.005217111733922,[7800|0|0],start
1700,1.3338863849639893,-0.3088337481021881,0.0,0.475770890712738,0.7142320275306702,0.6388171315193176,4.17578125,2,C1,7.6,180,270.0,0.0053827989051347,[7900|0|0],start
1800,1.3336814641952517,-0.3093709945678711,0.0,0.484590470790863,0.717710018157959,0.6309618353843689,4.17578125,2,C1,7.6,180,270.0,0.0059578000236979,[8000|0|0],start
1900,1.3339946269989014,-0.3091875910758972,0.0,0.4744063019752502,0.7109387516975403,0.6627515554428101,4.17578125,2,C1,7.6,180,270.0,0.0063207156922187,[8100|0|0],start
2000,1.3337162733078003,-0.3089048862457275,0.0,0.4653061330318451,0.712479293346405,0.6675156354904175,4.17578125,2,C1,7.6,180,270.0,0.0067174559074111,[8200|0|0],start
2100,1.3335305452346802,-0.3086636364459991,0.0,0.2391392141580581,0.5398321747779846,0.6441928744316101,4.17578125,2,C1,7.6,180,270.0,0.0070219167144354,[8300|0|0],start
2200,1.333617925643921,-0.3086280226707458,0.0,0.2802697718143463,0.5698955655097961,0.6374926567077637,4.17578125,2,C1,7.6,180,270.0,0.0071162760113111,[8400|0|0],start
2300,1.3336044549942017,-0.3082326054573059,0.0,0.2948773205280304,0.5831798911094666,0.6292036771774292,4.17578125,2,C1,7.6,180,270.0,0.0075119226100433,[8500|0|0],start
2400,1.333546161651611,-0.3082146346569061,0.0,0.3107105195522308,0.5992279052734375,0.6245670914649963,4.17578125,2,C1,7.6,180,270.0,0.0075729231301837,[8600|0|0],start
2500,1.333327054977417,-0.308741420507431,0.0,0.3349561393260956,0.610909104347229,0.6039388179779053,4.17578125,2,C1,7.6,180,270.0,0.0081434589020592,[8700|0|0],start
2600,1.3335843086242676,-0.3084002137184143,0.0,0.3357067406177521,0.6036327481269836,0.6088932156562805,4.17578125,2,C1,7.6,180,270.0,0.0085707778832536,[8800|0|0],start
2700,1.33310067653656,-0.3091243505477905,0.0,0.5117104053497314,0.7416766881942749,0.6206644773483276,4.17578125,2,C1,7.6,180,270.0,0.0094415672630231,[8900|0|0],start
2800,1.3331873416900637,-0.3088700175285339,0.0,0.4578546583652496,0.6954686641693115,0.6292731761932373,4.17578125,2,C1,7.6,180,270.0,0.009710260644996,[9000|0|0],start
2900,1.3340470790863037,-0.3091554343700409,0.0,0.446355789899826,0.6827536821365356,0.6099691390991211,4.17578125,2,C1,7.6,180,270.0,0.0106161365547703,[9100|0|0],start
3000,1.3340492248535156,-0.309244841337204,0.0,0.4355355501174927,0.6725184321403503,0.5959472060203552,4.17578125,2,C1,7.6,180,270.0,0.0107055692674331,[9200|0|0],start
3100,1.333121657371521,-0.3090815842151642,0.0,0.4291429221630096,0.6764185428619385,0.5988194942474365,4.17578125,2,C1,7.6,180,270.0,0.0116473942626156,[9300|0|0],start
3200,1.334004282951355,-0.3092558979988098,0.0,0.4154374301433563,0.6664240956306458,0.6022478342056274,4.17578125,2,C1,7.6,180,270.0,0.0125470682087462,[9400|0|0],start
3300,1.3337196111679075,-0.3093480467796325,0.0,0.4112301468849182,0.6672081351280212,0.5834391713142395,4.17578125,2,C1,7.6,180,270.0,0.0128462828843526,[9500|0|0],start
3400,1.3335562944412231,-0.3091675937175751,0.0,0.3945517539978027,0.6544824242591858,0.6099481582641602,4.17578125,2,C1,7.6,180,270.0,0.0130896666570672,[9600|0|0],start
3500,1.333742618560791,-0.3094944953918457,0.0,0.4141510426998138,0.6610611081123352,0.6231220364570618,4.17578125,2,C1,7.6,180,270.0,0.013465939672541,[9700|0|0],start
3600,1.3343154191970823,-0.3093599677085876,0.0,0.4090013802051544,0.653248131275177,0.5836181044578552,4.17578125,2,C1,7.6,180,270.0,0.0140543258267785,[9800|0|0],start
3700,1.3340500593185425,-0.309055894613266,0.0,0.4014438390731811,0.660633385181427,0.6020830869674683,4.17578125,2,C1,7.6,180,270.0,0.0144579052024125,[9900|0|0],start
3800,1.333812236785889,-0.3091925680637359,0.0,0.4025526046752929,0.6704989075660706,0.5952839851379395,4.17578125,2,C1,7.6,180,270.0,0.0147322028310955,[10000|0|0],start
3900,1.3339896202087402,-0.3095369935035705,0.0,0.4141022861003876,0.672435998916626,0.5913351774215698,4.17578125,2,C1,7.6,180,270.0,0.0151196221934249,[10100|0|0],start
4000,1.3340457677841189,-0.3090186715126037,0.0,0.3943536579608917,0.6600022315979004,0.599846601486206,4.17578125,2,C1,7.6,180,270.0,0.0156409764266874,[10200|0|0],start
4100,1.3341189622879028,-0.3086982369422912,0.0,0.3712225556373596,0.6446310877799988,0.6145484447479248,4.17578125,2,C1,7.6,180,270.0,0.01596966434742,[10300|0|0],start
4200,1.333884358406067,-0.3086641430854797,0.0,0.3990055322647095,0.6599372625350952,0.6369593739509583,4.17578125,2,C1,7.6,180,270.0,0.0162067326338794,[10400|0|0],start
4300,1.3336336612701416,-0.3083460628986358,0.0,0.2073426842689514,0.5065955519676208,0.6417837738990784,4.17578125,2,C1,7.6,180,270.0,0.0166117314724256,[10500|0|0],start
4400,1.333668828010559,-0.3085419833660126,0.0,0.2632032334804535,0.5445082783699036,0.6205506324768066,4.17578125,2,C1,7.6,180,270.0,0.0168107830465684,[10600|0|0],start
4500,1.333440899848938,-0.3080705404281616,0.0,0.2740806639194488,0.5664340853691101,0.6350644826889038,4.17578125,2,C1,7.6,180,270.0,0.0173344333979571,[10700|0|0],start
4600,1.3337212800979614,-0.3084341585636139,0.0,0.3123747408390045,0.5844139456748962,0.601524293422699,4.17578125,2,C1,7.6,180,270.0,0.0177935970207238,[10800|0|0],start
4700,1.3336104154586792,-0.3087268769741058,0.0,0.3368048369884491,0.5992989540100098,0.6113269925117493,4.17578125,2,C1,7.6,180,270.0,0.0181066066628821,[10900|0|0],start
4800,1.3336267471313477,-0.3085896372795105,0.0,0.3472111523151397,0.5998022556304932,0.6170526146888733,4.17578125,2,C1,7.6,180,270.0,0.0182448146847359,[11000|0|0],start
4900,1.333538293838501,-0.3083647489547729,0.0,0.3588925898075104,0.6119085550308228,0.6115150451660156,4.17578125,2,C1,7.6,180,270.0,0.0184864730047224,[11100|0|0],start
5000,1.3334804773330688,-0.3084998726844787,0.0,0.3577401340007782,0.6085137128829956,0.5842415690422058,4.17578125,2,C1,7.6,180,270.0,0.0186334463717996,[11200|0|0],start
5100,1.3334009647369385,-0.308424711227417,0.0,0.3545247614383697,0.6066291928291321,0.5912755131721497,4.17578125,2,C1,7.6,180,270.0,0.018742860710764,[11300|0|0],start
5200,1.33368718624115,-0.3087076246738434,0.0,0.356424331665039,0.6011009216308594,0.6210079789161682,4.17578125,2,C1,7.6,180,270.0,0.0191453066917875,[11400|0|0],start
5300,1.33351469039917,-0.3084817230701446,0.0,0.3428649604320526,0.60628342628479,0.6050238013267517,4.17578125,2,C1,7.6,180,270.0,0.0194295360886733,[11500|0|0],start
5400,1.3337777853012085,-0.3087637722492218,0.0,0.3388166725635528,0.5854237079620361,0.6030786037445068,4.17578125,2,C1,7.6,180,270.0,0.0198152440959752,[11600|0|0],start
5500,1.333968997001648,-0.3092775344848633,0.0,0.3749211132526397,0.5997463464736938,0.6051018238067627,4.17578125,2,C1,7.6,180,270.0,0.0203634352571191,[11700|0|0],start
5600,1.3336803913116455,-0.3089804351329803,0.0,0.395553708076477,0.6250714063644409,0.610480010509491,4.17578125,2,C1,7.6,180,270.0,0.0207776348094982,[11800|0|0],start
5700,1.3339794874191284,-0.3088756203651428,0.0,0.4055878818035126,0.6317207217216492,0.5887554287910461,4.17578125,2,C1,7.6,180,270.0,0.0210945647971426,[11900|0|0],start
5800,1.3342419862747192,-0.308481216430664,0.0,0.3811037242412567,0.6113448739051819,0.5756752490997314,4.17578125,2,C1,7.6,180,270.0,0.0215683370132115,[12000|0|0],start
5900,1.3337167501449585,-0.3089508414268493,0.0,0.4347400367259979,0.6581841707229614,0.5815238952636719,4.17578125,2,C1,7.6,180,270.0,0.0222729082509498,[12100|0|0],start
6000,1.333871603012085,-0.3087096810340881,0.0,0.4592198431491852,0.6801297664642334,0.5790247321128845,4.17578125,2,C1,7.6,180,270.0,0.0225595050853602,[12200|0|0],start
6100,1.334199070930481,-0.3091724514961242,0.0,0.5051333904266357,0.6960106492042542,0.5959973335266113,4.17578125,2,C1,7.6,180,270.0,0.0231264193100112,[12300|0|0],start
6200,1.334015130996704,-0.3091098368167877,0.0,0.5128754377365112,0.7130618095397949,0.603614091873169,4.17578125,2,C1,7.6,180,270.0,0.0233207244754244,[12400|0|0],start
6300,1.3341268301010132,-0.3089234828948974,0.0,0.5093635320663452,0.7211252450942993,0.593416690826416,4.17578125,2,C1,7.6,180,270.0,0.0235379903818786,[12500|0|0],start
6400,1.333099365234375,-0.3090161085128784,0.0,0.4502295553684234,0.695889949798584,0.6201375722885132,4.17578125,2,C1,7.6,180,270.0,0.0245696218845394,[12600|0|0],start
6500,1.333298683166504,-0.3087903559207916,0.0,0.4089405536651611,0.6616483926773071,0.6006198525428772,4.17578125,2,C1,7.6,180,270.0,0.0248707727950511,[12700|0|0],start
6600,1.3337068557739258,-0.308819830417633,0.0,0.3675292134284973,0.6312770247459412,0.6289499998092651,4.17578125,2,C1,7.6,180,270.0,0.025280008208247,[12800|0|0],start
6700,1.3339087963104248,-0.3093572854995727,0.0,0.3771955072879791,0.6179925203323364,0.6385491490364075,4.17578125,2,C1,7.6,180,270.0,0.0258541492583247,[12900|0|0],start
6800,1.3338032960891724,-0.3090910911560058,0.0,0.3488278388977051,0.6079849600791931,0.6269952654838562,4.17578125,2,C1,7.6,180,270.0,0.0261404877385039,[13000|0|0],start
6900,1.3340994119644165,-0.3088102042675018,0.0,0.3359950184822082,0.58794105052948,0.6242024302482605,4.17578125,2,C1,7.6,180,270.0,0.0265486323889712,[13100|0|0],start
7000,1.3336677551269531,-0.3092292249202728,0.0,0.3365173041820526,0.5996721386909485,0.5906543731689453,4.17578125,2,C1,7.6,180,270.0,0.0271502185696449,[13200|0|0],start
7100,1.333709478378296,-0.3092854917049408,0.0,0.330866277217865,0.5914790630340576,0.5988260507583618,4.17578125,2,C1,7.6,180,270.0,0.0272202669868967,[13300|0|0],start
7200,1.333986759185791,-0.3086320459842682,0.0,0.3122949302196502,0.579613447189331,0.5859633088111877,4.171875,2,C1,7.6,180,270.0,0.0279301091919469,[13400|0|0],start
7300,1.3339295387268066,-0.3089251518249511,0.0,0.3250717520713806,0.5791885256767273,0.5736079812049866,4.17578125,2,C1,7.6,180,270.0,0.0282287481290747,[13500|0|0],start
7400,1.333878993988037,-0.3090858161449432,0.0,0.323879599571228,0.576108455657959,0.5883346796035767,4.17578125,2,C1,7.6,180,270.0,0.0283971755447047,[13600|0|0],start
7500,1.3338196277618408,-0.3087219595909118,0.0,0.3033123314380646,0.5697146654129028,0.6159341335296631,4.17578125,2,C1,7.6,180,270.0,0.0287658433365232,[13700|0|0],start
7600,1.3341470956802368,-0.3092880845069885,0.0,0.3244922161102295,0.5659995675086975,0.6460784673690796,4.17578125,2,C1,7.6,180,270.0,0.029419856072012,[13800|0|0],start
7700,1.334048867225647,-0.3091054856777191,0.0,0.3199214935302734,0.5806177854537964,0.6431570053100586,4.17578125,2,C1,7.6,180,270.0,0.0296271991735169,[13900|0|0],start
7800,1.3340651988983154,-0.309057742357254,0.0,0.3381417095661163,0.5880205035209656,0.6477053761482239,4.17578125,2,C1,7.6,180,270.0,0.0296776585451062,[14000|0|0],start
7900,1.3338416814804075,-0.3089404702186584,0.0,0.3662138879299164,0.6186280846595764,0.6150528192520142,4.17578125,2,C1,7.6,180,270.0,0.029930072472216,[14100|0|0],start
8000,1.3342337608337402,-0.3091430366039276,0.0,0.393739640712738,0.6256017088890076,0.612454891204834,4.171875,2,C1,7.6,180,270.0,0.0303713879599919,[14200|0|0],start
8100,1.3338693380355835,-0.3090948760509491,0.0,0.4270260035991668,0.6635966897010803,0.5884474515914917,4.17578125,2,C1,7.6,180,270.0,0.0307389793291501,[14300|0|0],start
8200,1.3337600231170654,-0.3091233670711517,0.0,0.430791288614273,0.671107292175293,0.6037980914115906,4.17578125,2,C1,7.6,180,270.0,0.0308519460925931,[14400|0|0],start
8300,1.334183692932129,-0.3087776899337768,0.0,0.3960407674312591,0.627686083316803,0.6012373566627502,4.17578125,2,C1,7.6,180,270.0,0.0313987447717243,[14500|0|0],start
8400,1.3337527513504028,-0.3088854551315307,0.0,0.4441295266151428,0.6678611040115356,0.6103306412696838,4.17578125,2,C1,7.6,180,270.0,0.031842956415772,[14600|0|0],start
8500,1.333993673324585,-0.3089565336704254,0.0,0.4628901183605194,0.6806049942970276,0.6046825647354126,4.17578125,2,C1,7.6,180,270.0,0.0320941447043827,[14700|0|0],start
8600,1.333979606628418,-0.308964341878891,0.0,0.4749302864074707,0.697364330291748,0.5889203548431396,4.17578125,2,C1,7.6,180,270.0,0.0321102332114762,[14800|0|0],start
8700,1.334830403327942,-0.3091478049755096,0.0,0.4796752035617828,0.6941311955451965,0.6097509860992432,4.17578125,2,C1,7.6,180,270.0,0.0329805858593964,[14900|0|0],start
8800,1.3350356817245483,-0.309588074684143,0.0,0.5007964372634888,0.698785662651062,0.6225036978721619,4.17578125,2,C1,7.6,180,270.0,0.0334663601243112,[15000|0|0],start
8900,1.3338031768798828,-0.3090535700321197,0.0,0.2518262565135956,0.5392448306083679,0.6217153072357178,4.171875,2,C1,7.6,180,270.0,0.0348097749579194,[15100|0|0],start
9000,1.3342500925064087,-0.30886971950531,0.0,0.2985910177230835,0.5654606819152832,0.617667019367218,4.17578125,2,C1,7.6,180,270.0,0.0352930291285596,[15200|0|0],start
9100,1.3340849876403809,-0.3089957237243652,0.0,0.3304988443851471,0.595375120639801,0.6014786958694458,4.17578125,2,C1,7.6,180,270.0,0.0355007228453779,[15300|0|0],start
9200,1.333781599998474,-0.3090831339359283,0.0,0.3445242345333099,0.6097206473350525,0.6535513997077942,4.17578125,2,C1,7.6,180,270.0,0.0358164515364203,[15400|0|0],start
9300,1.3340787887573242,-0.308834433555603,0.0,0.3594675064086914,0.6105400919914246,0.6379542350769043,4.17578125,2,C1,7.6,180,270.0,0.0362039731971838,[15500|0|0],start
9400,1.334176540374756,-0.308926373720169,0.0,0.3635902106761932,0.6073023676872253,0.6274003386497498,4.17578125,2,C1,7.6,180,270.0,0.036338168474936,[15600|0|0],start
9500,1.3340373039245603,-0.3090684115886688,0.0,0.3798899352550506,0.6216830611228943,0.5782561302185059,4.171875,2,C1,7.6,180,270.0,0.0365370693174457,[15700|0|0],start
9600,1.3337185382843018,-0.3090706765651703,0.0,0.3775017559528351,0.6248410940170288,0.5769031047821045,4.17578125,2,C1,7.6,180,270.0,0.0368558430044526,[15800|0|0],start
9700,1.3339394330978394,-0.3090602457523346,0.0,0.3738081157207489,0.6201146245002747,0.584725558757782,4.17578125,2,C1,7.6,180,270.0,0.0370769839561197,[15900|0|0],start
9800,1.33407461643219,-0.3091581165790558,0.0,0.3788330852985382,0.625811755657196,0.5891832113265991,4.17578125,2,C1,7.6,180,270.0,0.0372438768337665,[16000|0|0],start
9900,1.325229287147522,-0.3190978467464447,0.0,0.7091342806816101,0.8820655941963196,0.5456411242485046,4.17578125,2,C1,7.6,180,270.0,0.0505494428102557,[16100|0|0],start
10000,1.3341633081436155,-0.3091481328010559,0.0,0.4195312857627868,0.6545509696006775,0.5952865481376648,4.171875,2,C1,7.6,180,270.0,0.0639215607709119,[16200|0|0],start
10100,1.3342537879943848,-0.3091731369495392,0.0,0.430021584033966,0.6581206917762756,0.5844388008117676,4.17578125,2,C1,7.6,180,270.0,0.0640154320169705,[16300|0|0],start
10200,1.325245022773743,-0.319469004869461,0.0,0.7464798092842102,0.9025278091430664,0.5439338684082031,4.17578125,2,C1,7.6,180,270.0,0.0776961756745764,[16400|0|0],start
10300,1.3251343965530396,-0.3194613754749298,0.0,0.7521582245826721,0.908113420009613,0.528261661529541,4.17578125,2,C1,7.6,180,270.0,0.0778070646657703,[16500|0|0],start
10400,1.3340755701065063,-0.3089873790740967,0.0,0.4342567324638366,0.6692344546318054,0.5969306826591492,4.17578125,2,C1,7.6,180,270.0,0.0915783821451504,[16600|0|0],start
10500,1.3251358270645142,-0.3191453218460083,0.0,0.7545937895774841,0.908210515975952,0.5857680439949036,4.17578125,2,C1,7.6,180,270.0,0.1051099307266794,[16700|0|0],start
10600,1.3249772787094116,-0.3192805349826813,0.0,0.7591688632965088,0.9138579368591307,0.590056300163269,4.17578125,2,C1,7.6,180,270.0,0.1053183058049269,[16800|0|0],start
10700,1.3250010013580322,-0.3188742995262146,0.0,0.7458944916725159,0.9020833373069764,0.597896158695221,4.17578125,2,C1,7.6,180,270.0,0.1057252333293687,[16900|0|0],start
10800,1.3262141942977903,-0.3193587958812713,0.0,0.7635214328765869,0.8995836973190308,0.5942579507827759,4.17578125,2,C1,7.6,180,270.0,0.1070315923256412,[17000|0|0],start
10900,1.3262330293655396,-0.3194352388381958,0.0,0.7622992396354675,0.8946107625961304,0.5807119011878967,4.171875,2,C1,7.6,180,270.0,0.1071103215161646,[17100|0|0],start
11000,1.3263598680496216,-0.3189458549022674,0.0,0.6120540499687195,0.7710726857185364,0.5969324707984924,4.17578125,2,C1,7.6,180,270.0,0.1076158753595131,[17200|0|0],start
11100,1.3262039422988892,-0.3186635673046112,0.0,0.6280016899108887,0.7918246984481812,0.5987768769264221,4.17578125,2,C1,7.6,180,270.0,0.107938364316738,[17300|0|0],start
11201,1.326351761817932,-0.3191018104553222,0.0,0.6563655734062195,0.805150032043457,0.602436363697052,4.17578125,2,C1,7.6,180,270.0,0.1084008658511734,[17400|0|0],start
11300,1.3262544870376587,-0.3189274370670318,0.0,0.6650463938713074,0.8161489963531494,0.6263101100921631,4.171875,2,C1,7.6,180,270.0,0.1086005367339307,[17500|0|0],start
11400,1.326372146606445,-0.3191256821155548,0.0,0.6783725619316101,0.8191620111465454,0.6270185112953186,4.17578125,2,C1,7.6,180,270.0,0.1088310684527698,[17600|0|0],start
11500,1.3260879516601562,-0.319053590297699,0.0,0.6771475672721863,0.8295270800590515,0.6163493990898132,4.17578125,2,C1,7.6,180,270.0,0.1091242646289008,[17700|0|0],start
11601,1.326227068901062,-0.3190229833126068,0.0,0.6756833791732788,0.8296036124229431,0.6021490097045898,4.17578125,2,C1,7.6,180,270.0,0.1092667089838387,[17800|0|0],start
11700,1.3259685039520264,-0.3186682164669037,0.0,0.6684430241584778,0.8319141268730164,0.6086595058441162,4.17578125,2,C1,7.6,180,270.0,0.1097057025460693,[17900|0|0],start
11801,1.3262250423431396,-0.3193770349025726,0.0,0.6897896528244019,0.8281899690628052,0.6065962314605713,4.17578125,2,C1,7.6,180,270.0,0.1104595165289982,[18000|0|0],start
11901,1.3347254991531372,-0.3091837167739868,0.0,0.4790339171886444,0.6975393295288086,0.6186224222183228,4.17578125,2,C1,7.6,180,270.0,0.1237321010719269,[18100|0|0],start
12001,1.3347355127334597,-0.3091249465942383,0.0,0.476326435804367,0.7024633288383484,0.6242527961730957,4.17578125,2,C1,7.6,180,270.0,0.1237917182323637,[18200|0|0],start
12101,1.3259954452514648,-0.3188891410827636,0.0,0.6650921106338501,0.8389151096343994,0.582060694694519,4.171875,2,C1,7.6,180,270.0,0.1368962317143504,[18300|0|0],start
12201,1.326019287109375,-0.3190144598484039,0.0,0.6696662306785583,0.8389050364494324,0.5762873888015747,4.171875,2,C1,7.6,180,270.0,0.1370237982742719,[18400|0|0],start
12301,1.326169729232788,-0.3189357817173004,0.0,0.6639508008956909,0.8292282223701477,0.5627911686897278,4.17578125,2,C1,7.6,180,270.0,0.137193571890629,[18500|0|0],start
12402,1.3261164426803589,-0.3188446164131164,0.0,0.6687629818916321,0.8276507258415222,0.5701804161071777,4.17578125,2,C1,7.6,180,270.0,0.1372991681469867,[18600|0|0],start
12502,1.3251402378082275,-0.3194506466388702,0.0,0.7185882925987244,0.8713294267654419,0.5961911082267761,4.171875,2,C1,7.6,180,270.0,0.1384481888547636,[18700|0|0],start
12601,1.3251721858978271,-0.3194782733917236,0.0,0.6898502707481384,0.849517285823822,0.5704337954521179,4.17578125,2,C1,7.6,180,270.0,0.1384904253070565,[18800|0|0],start
12702,1.325076460838318,-0.3192520141601562,0.0,0.6667876243591309,0.8407031893730164,0.5717247724533081,4.171875,2,C1,7.6,180,270.0,0.138736100960892,[18900|0|0],start
12802,1.3253666162490845,-0.3191945850849151,0.0,0.6521422863006592,0.8234726190567017,0.5986088514328003,4.171875,2,C1,7.6,180,270.0,0.1390318851069851,[19000|0|0],start
12900,1.3252625465393066,-0.3193832635879516,0.0,0.645248532295227,0.8280810117721558,0.5744312405586243,4.17578125,2,C1,7.6,180,270.0,0.1392473615140494,[19100|0|0],start
13002,1.3251192569732666,-0.3190871775150299,0.0,0.621004581451416,0.8212451338768005,0.5676839351654053,4.171875,2,C1,7.6,180,270.0,0.1395762974687794,[19200|0|0],start
13102,1.3253604173660278,-0.319228321313858,0.0,0.6181249618530273,0.8142083883285522,0.5609977841377258,4.171875,2,C1,7.6,180,270.0,0.1398557252894852,[19300|0|0],start
13200,1.3252750635147097,-0.3192153573036194,0.0,0.6121561527252197,0.8181707859039307,0.5575156807899475,4.171875,2,C1,7.6,180,270.0,0.1399420580497579,[19400|0|0],start
13300,1.325263261795044,-0.3190050423145294,0.0,0.6067624092102051,0.8195194005966187,0.575380802154541,4.171875,2,C1,7.6,180,270.0,0.1401527039023707,[19500|0|0],start
13402,1.325255036354065,-0.3192853629589081,0.0,0.6224027276039124,0.8264563679695129,0.5685794353485107,4.171875,2,C1,7.6,180,270.0,0.1404331452002285,[19600|0|0],start
13500,1.3251982927322388,-0.3191044628620147,0.0,0.6162920594215393,0.8253483176231384,0.5613852739334106,4.171875,2,C1,7.6,180,270.0,0.1406227360324804,[19700|0|0],start
13600,1.3252297639846802,-0.3190371096134186,0.0,0.6151319742202759,0.8300316333770752,0.5698345899581909,4.17578125,2,C1,7.6,180,270.0,0.1406970791547358,[19800|0|0],start
13700,1.3254213333129885,-0.3190786242485046,0.0,0.6155104041099548,0.8309285640716553,0.5475301742553711,4.171875,2,C1,7.6,180,270.0,0.140893095155294,[19900|0|0],start
13800,1.3253228664398191,-0.3189338147640228,0.0,0.6138501763343811,0.8400009870529175,0.5609265565872192,4.171875,2,C1,7.6,180,270.0,0.1410682108653477,[20000|0|0],start
13900,1.3251948356628418,-0.3189367949962616,0.0,0.6214019060134888,0.8458669185638428,0.5800092220306396,4.171875,2,C1,7.6,180,270.0,0.1411962763237571,[20100|0|0],start
14000,1.326093673706055,-0.3187834918498993,0.0,0.6736511588096619,0.8675808906555176,0.5760190486907959,4.171875,2,C1,7.6,180,270.0,0.1421080941140046,[20200|0|0],start
14100,1.3262914419174194,-0.3191128373146057,0.0,0.7056469321250916,0.8797056078910828,0.5605922341346741,4.171875,2,C1,7.6,180,270.0,0.1424922564501973,[20300|0|0],start
14200,1.3262168169021606,-0.3193771243095398,0.0,0.7316030859947205,0.8921080231666565,0.5646822452545166,4.171875,2,C1,7.6,180,270.0,0.142766877113283,[20400|0|0],start
14300,1.3261754512786863,-0.3192384541034698,0.0,0.73598313331604,0.905358612537384,0.5557993054389954,4.171875,2,C1,7.6,180,270.0,0.1429115855817875,[20500|0|0],start
14400,1.3261617422103882,-0.3192244172096252,0.0,0.7395182847976685,0.911285400390625,0.5300463438034058,4.17578125,2,C1,7.6,180,270.0,0.1429312063091544,[20600|0|0],start
14500,1.3260260820388794,-0.3191183507442474,0.0,0.743137776851654,0.9107914566993712,0.5512421131134033,4.171875,2,C1,7.6,180,270.0,0.1431034090304208,[20700|0|0],start
14600,1.325971245765686,-0.3192451894283294,0.0,0.7503052353858948,0.913144052028656,0.5539379715919495,4.171875,2,C1,7.6,180,270.0,0.1432415939378362,[20800|0|0],start
14700,1.325952410697937,-0.3190041780471802,0.0,0.7381434440612793,0.902494728565216,0.5754814147949219,4.171875,2,C1,7.6,180,270.0,0.1434833401800419,[20900|0|0],start
14800,1.326064109802246,-0.3193857669830322,0.0,0.7469509243965149,0.8976288437843323,0.5340265035629272,4.171875,2,C1,7.6,180,270.0,0.1438809414952662,[21000|0|0],start
14900,1.3263838291168213,-0.3192190825939178,0.0,0.7454195022583008,0.8882935643196106,0.5378406643867493,4.171875,2,C1,7.6,180,270.0,0.1442415023440656,[21100|0|0],start
15000,1.3261052370071411,-0.3191571533679962,0.0,0.745563268661499,0.8975136876106262,0.5319505333900452,4.171875,2,C1,7.6,180,270.0,0.1445268946925953,[21200|0|0],start
15100,1.3259930610656738,-0.3193359076976776,0.0,0.7643373012542725,0.9060068130493164,0.5413780808448792,4.171875,2,C1,7.6,180,270.0,0.1447379315429885,[21300|0|0],start
15200,1.3260239362716677,-0.3189981579780578,0.0,0.7498714327812195,0.901475191116333,0.540260374546051,4.171875,2,C1,7.6,180,270.0,0.1450770895466512,[21400|0|0],start
15300,1.3259515762329102,-0.3192281723022461,0.0,0.7521323561668396,0.9010409712791444,0.5508036017417908,4.171875,2,C1,7.6,180,270.0,0.1453182172400852,[21500|0|0],start
15400,1.3262280225753784,-0.3193853795528412,0.0,0.762475848197937,0.9009422659873962,0.5928678512573242,4.171875,2,C1,7.6,180,270.0,0.1456362372078604,[21600|0|0],start
15500,1.3261932134628296,-0.319391667842865,0.0,0.7374458909034729,0.8627265095710754,0.6063001155853271,4.171875,2,C1,7.6,180,270.0,0.1456716097524092,[21700|0|0],start
15600,1.32603919506073,-0.3194148540496826,0.0,0.7116997241973877,0.839332640171051,0.5719065070152283,4.171875,2,C1,7.6,180,270.0,0.145827363623539,[21800|0|0],start
15700,1.326360821723938,-0.3193034529685974,0.0,0.6906026601791382,0.8199061155319214,0.5809698700904846,4.171875,2,C1,7.6,180,270.0,0.1461677368177733,[21900|0|0],start
15800,1.3261579275131226,-0.319072276353836,0.0,0.6629605889320374,0.8098546266555786,0.5871820449829102,4.171875,2,C1,7.6,180,270.0,0.1464753220709877,[22000|0|0],start
15900,1.325997829437256,-0.3190098404884338,0.0,0.6556221842765808,0.8037796020507812,0.5680332183837891,4.171875,2,C1,7.6,180,270.0,0.1466471639494244,[22100|0|0],start
16000,1.3263577222824097,-0.3186888992786407,0.0,0.6424000859260559,0.7916933298110962,0.6022800207138062,4.171875,2,C1,7.6,180,270.0,0.1471293735720329,[22200|0|0],start
16100,1.3260879516601562,-0.3188708424568176,0.0,0.6404374837875366,0.7977095246315002,0.5871748924255371,4.171875,2,C1,7.6,180,270.0,0.1474547648883217,[22300|0|0],start
16200,1.326258420944214,-0.3190124630928039,0.0,0.6411494016647339,0.7910056114196777,0.590479850769043,4.171875,2,C1,7.6,180,270.0,0.1476763865960679,[22400|0|0],start
16300,1.3261489868164062,-0.3190745115280151,0.0,0.6435062885284424,0.7940576076507568,0.5678078532218933,4.171875,2,C1,7.6,180,270.0,0.1478021873776283,[22500|0|0],start
16400,1.3262805938720703,-0.3191163241863251,0.0,0.6493143439292908,0.7896329760551453,0.5801910161972046,4.171875,2,C1,7.6,180,270.0,0.1479402768974896,[22600|0|0],start
16500,1.3260737657546997,-0.318898469209671,0.0,0.6439528465270996,0.7990351319313049,0.6004396677017212,4.171875,2,C1,7.6,180,270.0,0.1482406744024526,[22700|0|0],start
16600,1.3261053562164309,-0.3185989558696747,0.0,0.5180779099464417,0.7323704957962036,0.6241838932037354,4.171875,2,C1,7.6,180,270.0,0.1485418490994445,[22800|0|0],start
16700,1.326366901397705,-0.3190626502037048,0.0,0.5612677335739136,0.7390920519828796,0.6351327896118164,4.171875,2,C1,7.6,180,270.0,0.14907421956938,[22900|0|0],start
16800,1.3263615369796753,-0.3189981877803802,0.0,0.5834856033325195,0.7617959380149841,0.5992738008499146,4.17578125,2,C1,7.6,180,270.0,0.1491389048150058,[23000|0|0],start
16900,1.3263131380081177,-0.3191203773021698,0.0,0.607232928276062,0.7748188376426697,0.6042845249176025,4.171875,2,C1,7.6,180,270.0,0.1492703306103544,[23100|0|0],start
17000,1.3263468742370603,-0.319051593542099,0.0,0.6191943287849426,0.7792829871177673,0.6009910106658936,4.171875,2,C1,7.6,180,270.0,0.1493469422203933,[23200|0|0],start
17100,1.3261982202529907,-0.3192003667354584,0.0,0.6297892332077026,0.7869390845298767,0.56639564037323,4.171875,2,C1,7.6,180,270.0,0.149557255011355,[23300|0|0],start
17200,1.3262701034545898,-0.3191228210926056,0.0,0.6298369765281677,0.7840813398361206,0.5769596099853516,4.171875,2,C1,7.6,180,270.0,0.1496629929960038,[23400|0|0],start
17300,1.3261864185333252,-0.3191866278648376,0.0,0.6822444796562195,0.8265460133552551,0.559827983379364,4.171875,2,C1,7.6,180,270.0,0.1497682283048585,[23500|0|0],start
17400,1.3261548280715942,-0.3189489543437958,0.0,0.7066108584403992,0.854844331741333,0.5669994950294495,4.171875,2,C1,7.6,180,270.0,0.1500079920633309,[23600|0|0],start
17500,1.3260496854782104,-0.3190975487232208,0.0,0.7450991272926331,0.879679799079895,0.5874978303909302,4.171875,2,C1,7.6,180,270.0,0.1501900229797714,[23700|0|0],start
17600,1.326042652130127,-0.3192345201969147,0.0,0.7532357573509216,0.8861855268478394,0.5961779356002808,4.171875,2,C1,7.6,180,270.0,0.150327174912281,[23800|0|0],start
17700,1.3264007568359375,-0.3188672065734863,0.0,0.5981013774871826,0.7541975975036621,0.5913109183311462,4.171875,2,C1,7.6,180,270.0,0.1508401644621549,[23900|0|0],start
17800,1.3260927200317385,-0.3188155591487884,0.0,0.6472503542900085,0.7936145663261414,0.5711835622787476,4.171875,2,C1,7.6,180,270.0,0.1511525010261672,[24000|0|0],start
17900,1.3262903690338137,-0.3188181519508362,0.0,0.6665125489234924,0.8101140260696411,0.5697944164276123,4.171875,2,C1,7.6,180,270.0,0.1513501670339778,[24100|0|0],start
18000,1.3261969089508057,-0.3189204037189483,0.0,0.6783225536346436,0.8286048173904419,0.574524462223053,4.171875,2,C1,7.6,180,270.0,0.1514886957717831,[24200|0|0],start
18100,1.32615065574646,-0.3187719583511352,0.0,0.6828582286834717,0.8416919708251953,0.5921398401260376,4.171875,2,C1,7.6,180,270.0,0.151644180131567,[24300|0|0],start
18200,1.3261651992797852,-0.3188207447528839,0.0,0.6831440329551697,0.8490734100341797,0.5869336724281311,4.171875,2,C1,7.6,180,270.0,0.1516950881599827,[24400|0|0],start
18300,1.3260164260864258,-0.3190639913082123,0.0,0.6865615844726562,0.8456689119338989,0.565053403377533,4.171875,2,C1,7.6,180,270.0,0.1519802238289921,[24500|0|0],start
18400,1.3259342908859253,-0.3189791440963745,0.0,0.6836280226707458,0.8471465706825256,0.5578431487083435,4.171875,2,C1,7.6,180,270.0,0.1520983137968891,[24600|0|0],start
18500,1.326097846031189,-0.3190924823284149,0.0,0.6844930052757263,0.8385723829269409,0.5494266152381897,4.171875,2,C1,7.6,180,270.0,0.1522973008326081,[24700|0|0],start
18600,1.3262999057769775,-0.3187496066093445,0.0,0.6763020753860474,0.8376016020774841,0.5747418403625488,4.171875,2,C1,7.6,180,270.0,0.1526952856308055,[24800|0|0],start
18700,1.3263113498687744,-0.3191175162792206,0.0,0.671763002872467,0.8350563049316406,0.6054608225822449,4.171875,2,C1,7.6,180,270.0,0.1530633732459536,[24900|0|0],start
18800,1.3270097970962524,-0.31907919049263,0.0,0.6765156984329224,0.8450402021408081,0.5972692966461182,4.171875,2,C1,7.6,180,270.0,0.1537628712055571,[25000|0|0],start
18900,1.326988935470581,-0.3189162313938141,0.0,0.6683537364006042,0.8495839834213257,0.5853556394577026,4.171875,2,C1,7.6,180,270.0,0.1539271602049227,[25100|0|0],start
19000,1.3269145488739014,-0.3188379108905792,0.0,0.6562852263450623,0.846961498260498,0.5815373063087463,4.171875,2,C1,7.6,180,270.0,0.1540351762546216,[25200|0|0],start
19100,1.326162338256836,-0.3189891576766968,0.0,0.545085608959198,0.7892300486564636,0.5710063576698303,4.171875,2,C1,7.6,180,270.0,0.1548024417906239,[25300|0|0],start
19200,1.3261780738830566,-0.3188915848731994,0.0,0.5769025087356567,0.8070391416549683,0.579136312007904,4.171875,2,C1,7.6,180,270.0,0.1549012752966575,[25400|0|0],start
19300,1.3262789249420166,-0.3190205097198486,0.0,0.6078324913978577,0.8139438629150391,0.5707629919052124,4.171875,2,C1,7.6,180,270.0,0.1550649596031039,[25500|0|0],start
19400,1.3261642456054688,-0.3190538287162781,0.0,0.6287786364555359,0.8290255069732666,0.5774824023246765,4.171875,2,C1,7.6,180,270.0,0.1551843811495439,[25600|0|0],start
19500,1.3263453245162964,-0.3191835880279541,0.0,0.643468976020813,0.8348022103309631,0.5686272978782654,4.171875,2,C1,7.6,180,270.0,0.1554071524468718,[25700|0|0],start
19600,1.3261170387268066,-0.3192121386528015,0.0,0.6431671380996704,0.8388656973838806,0.5503680109977722,4.171875,2,C1,7.6,180,270.0,0.1556372166550011,[25800|0|0],start
19700,1.3262563943862915,-0.3189874291419983,0.0,0.6858769655227661,0.8709216713905334,0.5544787049293518,4.171875,2,C1,7.6,180,270.0,0.155901629899896,[25900|0|0],start
19800,1.3260587453842163,-0.3190608322620392,0.0,0.7260705828666687,0.9006693363189697,0.5647187829017639,4.171875,2,C1,7.6,180,270.0,0.1561124690472408,[26000|0|0],start
19900,1.3260658979415894,-0.3193020224571228,0.0,0.7688719034194946,0.9181953072547911,0.5726408958435059,4.171875,2,C1,7.6,180,270.0,0.1563537652744832,[26100|0|0],start
20000,1.3260819911956787,-0.3193012475967407,0.0,0.7757152915000916,0.9295868873596193,0.5709611773490906,4.171875,2,C1,7.6,180,270.0,0.1563698771718202,[26200|0|0],start
20100,1.3262404203414917,-0.3192051649093628,0.0,0.7803702354431152,0.9256082773208618,0.5793233513832092,4.171875,2,C1,7.6,180,270.0,0.1565551652638736,[26300|0|0],start
20200,1.3262487649917605,-0.3192274570465088,0.0,0.7763582468032837,0.923220157623291,0.5793484449386597,4.171875,2,C1,7.6,180,270.0,0.1565789680487242,[26400|0|0],start
20300,1.3260561227798462,-0.3189884424209595,0.0,0.7695730328559875,0.9376258254051208,0.581155002117157,4.171875,2,C1,7.6,180,270.0,0.1568859517828824,[26500|0|0],start
20400,1.325869083404541,-0.3190520405769348,0.0,0.7751352190971375,0.9387223720550536,0.5859572887420654,4.171875,2,C1,7.6,180,270.0,0.1570835079859184,[26600|0|0],start
20500,1.3260343074798584,-0.3189616799354553,0.0,0.7764610648155212,0.9282845854759216,0.5710049271583557,4.171875,2,C1,7.6,180,270.0,0.1572718269721972,[26700|0|0],start
20600,1.326043963432312,-0.3191500902175903,0.0,0.7799416780471802,0.9186378717422484,0.6028245091438293,4.171875,2,C1,7.6,180,270.0,0.1574604845239463,[26800|0|0],start
20700,1.326093077659607,-0.319290280342102,0.0,0.7824117541313171,0.9134736061096193,0.6221193075180054,4.171875,2,C1,7.6,180,270.0,0.1576090290571119,[26900|0|0],start
20800,1.3262585401535034,-0.3193457722663879,0.0,0.7739401459693909,0.8940567970275879,0.635766863822937,4.171875,2,C1,7.6,180,270.0,0.1577835489429341,[27000|0|0],start
20900,1.325784683227539,-0.3191128373146057,0.0,0.76439368724823,0.9005448222160339,0.5882083773612976,4.171875,2,C1,7.6,180,270.0,0.1583115632211938,[27100|0|0],start
21000,1.3262590169906616,-0.3196166455745697,0.0,0.7749578356742859,0.8845330476760864,0.5666288137435913,4.171875,2,C1,7.6,180,270.0,0.1590035280191756,[27200|0|0],start
21100,1.3261702060699463,-0.319358766078949,0.0,0.7661173343658447,0.8799018859863281,0.5707342028617859,4.171875,2,C1,7.6,180,270.0,0.1592762718805179,[27300|0|0],start
21200,1.325881004333496,-0.3192719221115112,0.0,0.7546539306640625,0.8792387247085571,0.5713298320770264,4.171875,2,C1,7.6,180,270.0,0.1595782313464171,[27400|0|0],start
21300,1.3260512351989746,-0.3194661438465118,0.0,0.757391095161438,0.8745744824409485,0.5787456035614014,4.171875,2,C1,7.6,180,270.0,0.1598364959973243,[27500|0|0],start
21400,1.3261189460754397,-0.3191174566745758,0.0,0.7482733130455017,0.8727584481239319,0.5992564558982849,4.171875,2,C1,7.6,180,270.0,0.1601916966542274,[27600|0|0],start
21500,1.3259955644607544,-0.3195408880710602,0.0,0.7548502683639526,0.8758341073989868,0.5816819667816162,4.171875,2,C1,7.6,180,270.0,0.1606327376618118,[27700|0|0],start
21600,1.3260200023651123,-0.3190524876117706,0.0,0.7415843605995178,0.8812075257301331,0.5858504772186279,4.171875,2,C1,7.6,180,270.0,0.1611217491338691,[27800|0|0],start
21700,1.327106475830078,-0.3191078007221222,0.0,0.7364744544029236,0.8807202577590942,0.5858502984046936,4.171875,2,C1,7.6,180,270.0,0.1622096297018779,[27900|0|0],start
21800,1.3271112442016602,-0.3190386593341827,0.0,0.7365031242370605,0.8870624899864197,0.5695375800132751,4.171875,2,C1,7.6,180,270.0,0.1622789353213741,[28000|0|0],start
21900,1.327035903930664,-0.3190495073795318,0.0,0.733645498752594,0.8929646015167236,0.5573791861534119,4.171875,2,C1,7.6,180,270.0,0.162355052576459,[28100|0|0],start
22000,1.3270260095596311,-0.3187817633152008,0.0,0.5657225847244263,0.7498000264167786,0.5990400314331055,4.171875,2,C1,7.6,180,270.0,0.1626229793996078,[28200|0|0],start
22100,1.3270151615142822,-0.3187523782253265,0.0,0.5928592085838318,0.7800844311714172,0.5707163214683533,4.171875,2,C1,7.6,180,270.0,0.1626543029306159,[28300|0|0],start
22200,1.3269386291503906,-0.3188905119895935,0.0,0.6170016527175903,0.7957513928413391,0.5597844123840332,4.171875,2,C1,7.6,180,270.0,0.1628122210725547,[28400|0|0],start
22300,1.3269258737564087,-0.319043904542923,0.0,0.6471204161643982,0.8131675124168396,0.5844796299934387,4.171875,2,C1,7.6,180,270.0,0.1629661430511431,[28500|0|0],start
22400,1.3269495964050293,-0.3190504312515259,0.0,0.6564667224884033,0.8200901746749878,0.5662890076637268,4.171875,2,C1,7.6,180,270.0,0.1629907471561414,[28600|0|0],start
22500,1.3267664909362793,-0.3187426924705505,0.0,0.664050817489624,0.835231363773346,0.5666345953941345,4.171875,2,C1,7.6,180,270.0,0.1633488403981921,[28700|0|0],start
22600,1.3269585371017456,-0.3187252283096313,0.0,0.6648283004760742,0.8274179100990295,0.5954703092575073,4.171875,2,C1,7.6,180,270.0,0.1635416790006215,[28800|0|0],start
22700,1.326893925666809,-0.3188291490077972,0.0,0.6625617146492004,0.8282464742660522,0.5946566462516785,4.171875,2,C1,7.6,180,270.0,0.1636640479061157,[28900|0|0],start
22800,1.3269089460372925,-0.3191290199756622,0.0,0.6713784337043762,0.8287952542304993,0.5898316502571106,4.171875,2,C1,7.6,180,270.0,0.163964294819335,[29000|0|0],start
22900,1.3272618055343628,-0.3192704319953918,0.0,0.6793951988220215,0.819080650806427,0.5948863625526428,4.171875,2,C1,7.6,180,270.0,0.1643444358247484,[29100|0|0],start
23000,1.3268474340438845,-0.318981409072876,0.0,0.6687970161437988,0.8324587345123291,0.6030406355857849,4.171875,2,C1,7.6,180,270.0,0.1648496466538691,[29200|0|0],start
23100,1.3268965482711792,-0.3191047608852386,0.0,0.6681418418884277,0.8337379097938538,0.6121309399604797,4.171875,2,C1,7.6,180,270.0,0.1649824166690679,[29300|0|0],start
23200,1.3269513845443726,-0.3190203905105591,0.0,0.6728096604347229,0.8378024101257324,0.596190333366394,4.171875,2,C1,7.6,180,270.0,0.1650830416012731,[29400|0|0],start
23300,1.326221227645874,-0.3188818991184234,0.0,0.5569688677787781,0.7745034694671631,0.5957814455032349,4.171875,2,C1,7.6,180,270.0,0.1658262165215447,[29500|0|0],start
23400,1.3261709213256836,-0.3186279237270355,0.0,0.5819238424301147,0.7970973253250122,0.6306328177452087,4.171875,2,C1,7.6,180,270.0,0.1660851262071143,[29600|0|0],start
23500,1.326488971710205,-0.3187884092330932,0.0,0.6033070087432861,0.7978965044021606,0.6051806211471558,4.171875,2,C1,7.6,180,270.0,0.1664413728137632,[29700|0|0],start
23600,1.3261717557907104,-0.3192386031150818,0.0,0.6283273696899414,0.8167758584022522,0.6066632866859436,4.171875,2,C1,7.6,180,270.0,0.1669921000338647,[29800|0|0],start
23700,1.3263341188430786,-0.3188075125217438,0.0,0.6259528398513794,0.8176014423370361,0.6336584687232971,4.171875,2,C1,7.6,180,270.0,0.1674527526800515,[29900|0|0],start
23800,1.3261616230010986,-0.3191526234149933,0.0,0.6534885168075562,0.8304138779640198,0.6456682682037354,4.171875,2,C1,7.6,180,270.0,0.1678385717362681,[30000|0|0],start
23900,1.3261638879776,-0.3189650475978851,0.0,0.6480404734611511,0.8244618773460388,0.6566705107688904,4.171875,2,C1,7.6,180,270.0,0.1680261612276645,[30100|0|0],start
24000,1.327039361000061,-0.3188689053058624,0.0,0.6794640421867371,0.8394762277603149,0.6235320568084717,4.171875,2,C1,7.6,180,270.0,0.1689068974840842,[30200|0|0],start
24100,1.327261209487915,-0.3192385137081146,0.0,0.7140377759933472,0.854559063911438,0.610460102558136,4.171875,2,C1,7.6,180,270.0,0.169337974185587,[30300|0|0],start
24200,1.3269984722137451,-0.3192528188228607,0.0,0.7331193089485168,0.8840340971946716,0.6229971647262573,4.171875,2,C1,7.6,180,270.0,0.1696011006030105,[30400|0|0],start
24300,1.3271492719650269,-0.3190771043300628,0.0,0.7416367530822754,0.8968802094459534,0.5994473695755005,4.171875,2,C1,7.6,180,270.0,0.1698326522127347,[30500|0|0],start
24400,1.327000379562378,-0.3189308047294616,0.0,0.7460107803344727,0.90560382604599,0.6219499111175537,4.171875,2,C1,7.6,180,270.0,0.1700413925315585,[30600|0|0],start
24500,1.3269288539886477,-0.318752259016037,0.0,0.5904228091239929,0.7802051305770874,0.58675616979599,4.171875,2,C1,7.6,180,270.0,0.1702337320217308,[30700|0|0],start
24600,1.3270219564437866,-0.3187286555767059,0.0,0.6393299698829651,0.8126277327537537,0.5834802389144897,4.171875,2,C1,7.6,180,270.0,0.1703297798717908,[30800|0|0],start
24700,1.3270939588546753,-0.3188090026378631,0.0,0.662081778049469,0.8319647908210754,0.5864253640174866,4.171875,2,C1,7.6,180,270.0,0.1704376686914636,[30900|0|0],start
24800,1.3268070220947266,-0.318924218416214,0.0,0.6803579330444336,0.8503322005271912,0.6042218208312988,4.171875,2,C1,7.6,180,270.0,0.1707468731218829,[31000|0|0],start
24900,1.3270161151885986,-0.3188038468360901,0.0,0.681254506111145,0.8520190119743347,0.5918575525283813,4.171875,2,C1,7.6,180,270.0,0.1709881390316308,[31100|0|0],start
25000,1.3268488645553589,-0.3188718259334564,0.0,0.6861997246742249,0.8620923757553101,0.5997409224510193,4.171875,2,C1,7.6,180,270.0,0.1711686769279237,[31200|0|0],start
25100,1.3262532949447632,-0.3190594911575317,0.0,0.5765296220779419,0.787077009677887,0.6051717400550842,4.171875,2,C1,7.6,180,270.0,0.17179311379214,[31300|0|0],start
25200,1.327182412147522,-0.3191505670547485,0.0,0.5877395868301392,0.7877405285835266,0.6022608876228333,4.171875,2,C1,7.6,180,270.0,0.172726684140596,[31400|0|0],start
25300,1.3269939422607422,-0.3191114962100982,0.0,0.6187971234321594,0.8119490742683411,0.5863698124885559,4.171875,2,C1,7.6,180,270.0,0.1729191612278673,[31500|0|0],start
25400,1.3270610570907593,-0.3189720213413238,0.0,0.6312562227249146,0.8188232779502869,0.5988027453422546,4.171875,2,C1,7.6,180,270.0,0.1730739437831759,[31600|0|0],start
25500,1.326946258544922,-0.3191358149051666,0.0,0.6570197343826294,0.8359970450401306,0.5943602323532104,4.171875,2,C1,7.6,180,270.0,0.1732739613766088,[31700|0|0],start
25600,1.3271441459655762,-0.3190807700157165,0.0,0.6626277565956116,0.8408179879188538,0.588431715965271,4.171875,2,C1,7.6,180,270.0,0.1734793618905023,[31800|0|0],start
25700,1.3268834352493286,-0.3190691769123077,0.0,0.6686665415763855,0.850551962852478,0.5907124280929565,4.171875,2,C1,7.6,180,270.0,0.1737403302365003,[31900|0|0],start
25800,1.3263564109802246,-0.3191491961479187,0.0,0.6728944778442383,0.8405495285987854,0.5967282652854919,4.171875,2,C1,7.6,180,270.0,0.1742733946400131,[32000|0|0],start
25900,1.3270519971847534,-0.3189619183540344,0.0,0.6672282814979553,0.8502801656723022,0.5989843010902405,4.171875,2,C1,7.6,180,270.0,0.174993750899105,[32100|0|0],start
26000,1.32620370388031,-0.3189477920532226,0.0,0.6656167507171631,0.8362867832183838,0.5942452549934387,4.171875,2,C1,7.6,180,270.0,0.1758421618153113,[32200|0|0],start
26100,1.3268283605575562,-0.3190034925937652,0.0,0.6560513973236084,0.8331892490386963,0.5999652743339539,4.171875,2,C1,7.6,180,270.0,0.176469296979885,[32300|0|0],start
26200,1.3333841562271118,-0.3087787926197052,0.0,0.4413086175918579,0.661689281463623,0.6230108737945557,4.171875,2,C1,7.6,180,270.0,0.1886151994338201,[32400|0|0],start
26300,1.3268548250198364,-0.3189952373504638,0.0,0.6500910520553589,0.8297135233879089,0.6316370964050293,4.171875,2,C1,7.6,180,270.0,0.2007398812420552,[32500|0|0],start
26400,1.3270219564437866,-0.318853348493576,0.0,0.6422510743141174,0.820101797580719,0.6299012899398804,4.171875,2,C1,7.6,180,270.0,0.200959119378748,[32600|0|0],start
26500,1.33319890499115,-0.3088186383247375,0.0,0.4372819066047668,0.6632826924324036,0.6502910852432251,4.171875,2,C1,7.6,180,270.0,0.2127425866753193,[32700|0|0],start
26600,1.333138108253479,-0.3088933825492859,0.0,0.4379558265209198,0.6639923453330994,0.6331016421318054,4.171875,2,C1,7.6,180,270.0,0.2128389347028796,[32800|0|0],start
26700,1.3332643508911133,-0.3088347315788269,0.0,0.4276054501533508,0.6529536843299866,0.6015207171440125,4.171875,2,C1,7.6,180,270.0,0.2129781364984594,[32900|0|0],start
26800,1.3332228660583496,-0.309309184551239,0.0,0.4449723362922668,0.6467185020446777,0.6210031509399414,4.171875,2,C1,7.6,180,270.0,0.213454399676104,[33000|0|0],start
26900,1.3330224752426147,-0.3089756667613983,0.0,0.4397415518760681,0.6550077199935913,0.610619068145752,4.171875,2,C1,7.6,180,270.0,0.2138434891197684,[33100|0|0],start
27000,1.333350658416748,-0.3083278834819793,0.0,0.3946064710617065,0.6208333969116211,0.6152489185333252,4.171875,2,C1,7.6,180,270.0,0.2145696622209496,[33200|0|0],start
27100,1.333499550819397,-0.3086142838001251,0.0,0.4301806092262268,0.6393469572067261,0.6054655313491821,4.171875,2,C1,7.6,180,270.0,0.2148924533140742,[33300|0|0],start
27200,1.3333237171173096,-0.3086755573749542,0.0,0.4463511705398559,0.6602401733398438,0.6290293335914612,4.171875,2,C1,7.6,180,270.0,0.2150786573466892,[33400|0|0],start
27300,1.333303451538086,-0.3086862862110138,0.0,0.4488528072834015,0.6601826548576355,0.5981826782226562,4.171875,2,C1,7.6,180,270.0,0.2151015877113715,[33500|0|0],start
27400,1.3334637880325315,-0.30864217877388,0.0,0.4590485990047455,0.6644853353500366,0.5799160599708557,4.171875,2,C1,7.6,180,270.0,0.2152678803975053,[33600|0|0],start
27501,1.3335741758346558,-0.308738648891449,0.0,0.4714655876159668,0.6702744364738464,0.595781147480011,4.171875,2,C1,7.6,180,270.0,0.2154144817291554,[33700|0|0],start
27600,1.3332360982894895,-0.3091308772563934,0.0,0.4910167157649994,0.686965823173523,0.6047995090484619,4.171875,2,C1,7.6,180,270.0,0.2159323036259622,[33800|0|0],start
27700,1.3330965042114258,-0.3085675835609436,0.0,0.4719884097576141,0.6941139101982117,0.6032241582870483,4.171875,2,C1,7.6,180,270.0,0.2165126365424541,[33900|0|0],start
27801,1.3329066038131714,-0.3086308240890503,0.0,0.4719727635383606,0.6967734694480896,0.6153717637062073,4.171875,2,C1,7.6,180,270.0,0.2167127902974835,[34000|0|0],start
27901,1.333000421524048,-0.3086418509483337,0.0,0.4715200960636139,0.6951993703842163,0.6055448055267334,4.171875,2,C1,7.6,180,270.0,0.21680725380631,[34100|0|0],start
28001,1.333071231842041,-0.3087378442287445,0.0,0.4698931276798248,0.6904950141906738,0.6011046171188354,4.171875,2,C1,7.6,180,270.0,0.2169265383862786,[34200|0|0],start
28101,1.3329120874404907,-0.3090838193893432,0.0,0.4745260775089264,0.6829465627670288,0.5886585116386414,4.171875,2,C1,7.6,180,270.0,0.2173073608544919,[34300|0|0],start
28201,1.3331483602523804,-0.309102326631546,0.0,0.4781477451324463,0.6774677038192749,0.6122212409973145,4.171875,2,C1,7.6,180,270.0,0.2175443573938173,[34400|0|0],start
28301,1.3333038091659546,-0.3088815212249756,0.0,0.4743838310241699,0.6672832369804382,0.6255613565444946,4.171875,2,C1,7.6,180,270.0,0.2178143933031,[34500|0|0],start
28401,1.3331096172332764,-0.3079361617565155,0.0,0.2315813899040222,0.5006537437438965,0.6453567743301392,4.171875,2,C1,7.6,180,270.0,0.2187794917599034,[34600|0|0],start
28501,1.333088994026184,-0.3078647255897522,0.0,0.2729711830615997,0.5320119261741638,0.617396891117096,4.171875,2,C1,7.6,180,270.0,0.2188538452574177,[34700|0|0],start
28601,1.3329927921295166,-0.3082983195781708,0.0,0.304689884185791,0.5632786750793457,0.6017339825630188,4.171875,2,C1,7.6,180,270.0,0.2192979832446639,[34800|0|0],start
28701,1.3330774307250977,-0.3077830076217651,0.0,0.2993066906929016,0.5730079412460327,0.6146820187568665,4.171875,2,C1,7.6,180,270.0,0.2198201997747323,[34900|0|0],start
28802,1.3328790664672852,-0.3079532384872436,0.0,0.3225429058074951,0.5945037007331848,0.5999876856803894,4.171875,2,C1,7.6,180,270.0,0.2200815939719499,[35000|0|0],start
28901,1.3331807851791382,-0.3088484108448028,0.0,0.338396668434143,0.6037867069244385,0.6062132716178894,4.171875,2,C1,7.6,180,270.0,0.2210262461464673,[35100|0|0],start
29002,1.333046793937683,-0.3081249296665191,0.0,0.3268075287342071,0.6003096699714661,0.6290003061294556,4.171875,2,C1,7.6,180,270.0,0.2217620305361613,[35200|0|0],start
29102,1.3335391283035278,-0.3086440861225128,0.0,0.3251485526561737,0.6014991402626038,0.6017522215843201,4.171875,2,C1,7.6,180,270.0,0.2224775139766347,[35300|0|0],start
29202,1.3269048929214478,-0.3189412951469421,0.0,0.5390654802322388,0.7786475419998169,0.5811529755592346,4.171875,2,C1,7.6,180,270.0,0.2347268238673033,[35400|0|0],start
29302,1.3271172046661377,-0.3189862072467804,0.0,0.564522385597229,0.785776674747467,0.5748158693313599,4.171875,2,C1,7.6,180,270.0,0.2349438339445927,[35500|0|0],start
29402,1.33323335647583,-0.3087007701396942,0.0,0.3781239092350006,0.6520246863365173,0.5830368399620056,4.171875,2,C1,7.6,180,270.0,0.2469103509584539,[35600|0|0],start
29500,1.3335161209106443,-0.308724045753479,0.0,0.3962700366973877,0.6602897047996521,0.6011636257171631,4.171875,2,C1,7.6,180,270.0,0.2471940717363199,[35700|0|0],start
29600,1.3336257934570312,-0.3088060319423675,0.0,0.4092035591602325,0.6703687310218811,0.6275524497032166,4.171875,2,C1,7.6,180,270.0,0.2473310016548894,[35800|0|0],start
29700,1.3335137367248535,-0.3083915710449219,0.0,0.4039253890514374,0.6729238629341125,0.6415560841560364,4.171875,2,C1,7.6,180,270.0,0.2477603436476385,[35900|0|0],start
29800,1.3331472873687744,-0.3085838556289673,0.0,0.418025255203247,0.6870176196098328,0.625432014465332,4.171875,2,C1,7.6,180,270.0,0.2481741775416495,[36000|0|0],start
29900,1.3330752849578855,-0.3090378642082214,0.0,0.4363011419773102,0.6954215168952942,0.606232762336731,4.171875,2,C1,7.6,180,270.0,0.248633860190017,[36100|0|0],start
30000,1.332796931266785,-0.3090668618679046,0.0,0.5828336477279663,0.8076870441436768,0.6217764616012573,4.171875,2,C1,7.6,180,270.0,0.2489137202293518,[36200|0|0],start
30100,1.3330832719802856,-0.3090280890464782,0.0,0.5467120409011841,0.7780726552009583,0.6320934295654297,4.171875,2,C1,7.6,180,270.0,0.2492026740939902,[36300|0|0],start
30200,1.3332011699676514,-0.3090525567531585,0.0,0.5166813135147095,0.7479696273803711,0.6628034710884094,4.171875,2,C1,7.6,180,270.0,0.2493230842434589,[36400|0|0],start
30300,1.333112359046936,-0.3092765212059021,0.0,0.4872136414051056,0.7107985019683838,0.6550283432006836,4.171875,2,C1,7.6,180,270.0,0.2495640146394886,[36500|0|0],start
30400,1.3331315517425537,-0.3085446655750274,0.0,0.4562496244907379,0.7006350159645081,0.6748552322387695,4.171875,2,C1,7.6,180,270.0,0.2502961218884679,[36600|0|0],start
30500,1.3336491584777832,-0.3081673681735992,0.0,0.2039340436458587,0.5114832520484924,0.6493859887123108,4.171875,2,C1,7.6,180,270.0,0.2509366451600822,[36700|0|0],start
30600,1.333640217781067,-0.308051586151123,0.0,0.2354136854410171,0.5366427898406982,0.6541039943695068,4.171875,2,C1,7.6,180,270.0,0.2510527718701296,[36800|0|0],start
30700,1.333479881286621,-0.3085827827453613,0.0,0.2757678031921386,0.5587015748023987,0.633679986000061,4.171875,2,C1,7.6,180,270.0,0.2516076390733247,[36900|0|0],start
30800,1.3334342241287231,-0.3085569441318512,0.0,0.2942416667938232,0.5765608549118042,0.6170839071273804,4.171875,2,C1,7.6,180,270.0,0.2516601005831718,[37000|0|0],start
30900,1.3334710597991943,-0.3084348440170288,0.0,0.2995971441268921,0.5824860334396362,0.5995426177978516,4.171875,2,C1,7.6,180,270.0,0.2517876360866942,[37100|0|0],start
31000,1.3336443901062012,-0.3085351288318634,0.0,0.3129277527332306,0.579534649848938,0.5998901724815369,4.171875,2,C1,7.6,180,270.0,0.2519878870277993,[37200|0|0],start
31100,1.333949327468872,-0.3088857531547546,0.0,0.3309193253517151,0.5826920866966248,0.6097492575645447,4.171875,2,C1,7.6,180,270.0,0.2524525634861611,[37300|0|0],start
31200,1.3332877159118652,-0.308418869972229,0.0,0.3309940099716186,0.6011275053024292,0.5949063897132874,4.171875,2,C1,7.6,180,270.0,0.2532623225605099,[37400|0|0],start
31300,1.3335798978805542,-0.3084569871425628,0.0,0.3328373730182647,0.5931559801101685,0.6010878682136536,4.171875,2,C1,7.6,180,270.0,0.2535569803645831,[37500|0|0],start
31400,1.3334842920303345,-0.3086374402046203,0.0,0.3442075550556183,0.5968507528305054,0.623251736164093,4.171875,2,C1,7.6,180,270.0,0.2537611954134952,[37600|0|0],start
31500,1.3335405588150024,-0.3085750639438629,0.0,0.3379104137420654,0.5899927616119385,0.640540361404419,4.171875,2,C1,7.6,180,270.0,0.2538451998714897,[37700|0|0],start
31600,1.333309292793274,-0.3085578382015228,0.0,0.3362056314945221,0.599717915058136,0.6138671636581421,4.171875,2,C1,7.6,180,270.0,0.2540771065316038,[37800|0|0],start
31700,1.3333876132965088,-0.3090766370296478,0.0,0.3443703353404999,0.5944672226905823,0.6219345927238464,4.171875,2,C1,7.6,180,270.0,0.2546017838851181,[37900|0|0],start
31800,1.3332915306091309,-0.3086104691028595,0.0,0.3416756987571716,0.606296181678772,0.6407574415206909,4.171875,2,C1,7.6,180,270.0,0.2550777507104116,[38000|0|0],start
31900,1.3333183526992798,-0.308724969625473,0.0,0.3383277654647827,0.6013399362564087,0.63742995262146,4.171875,2,C1,7.6,180,270.0,0.2551953508558143,[38100|0|0],start
32000,1.3332898616790771,-0.3085167706012726,0.0,0.3554607331752777,0.6165866851806641,0.6379063129425049,4.171875,2,C1,7.6,180,270.0,0.2554054902664687,[38200|0|0],start
32100,1.3332552909851074,-0.3087582588195801,0.0,0.3864586055278778,0.6330606341362,0.6282496452331543,4.171875,2,C1,7.6,180,270.0,0.2556494404508566,[38300|0|0],start
32200,1.333381175994873,-0.3085503876209259,0.0,0.3927977681159973,0.6421870589256287,0.6013962626457214,4.171875,2,C1,7.6,180,270.0,0.2558924578800949,[38400|0|0],start
32300,1.3331716060638428,-0.3088898360729217,0.0,0.4118575155735016,0.6506748199462891,0.5891165137290955,4.171875,2,C1,7.6,180,270.0,0.2562913874572817,[38500|0|0],start
32400,1.3332786560058594,-0.3087902367115021,0.0,0.4193497896194458,0.6541650891304016,0.5997950434684753,4.171875,2,C1,7.6,180,270.0,0.2564376055234738,[38600|0|0],start
32500,1.333009958267212,-0.309261679649353,0.0,0.5604037046432495,0.7609964609146118,0.582432210445404,4.171875,2,C1,7.6,180,270.0,0.2569802443705938,[38700|0|0],start
32600,1.3339416980743408,-0.3092537820339203,0.0,0.5200657844543457,0.7281987071037292,0.5887189507484436,4.171875,2,C1,7.6,180,270.0,0.2579120176480161,[38800|0|0],start
32700,1.334034442901611,-0.308853268623352,0.0,0.5012913942337036,0.7074124813079834,0.5990316271781921,4.171875,2,C1,7.6,180,270.0,0.2583231290623923,[38900|0|0],start
32800,1.3340134620666504,-0.3090710341930389,0.0,0.4905896186828613,0.6945784687995911,0.5830367803573608,4.171875,2,C1,7.6,180,270.0,0.2585419030068572,[39000|0|0],start
32900,1.3339297771453855,-0.309108018875122,0.0,0.4734358787536621,0.6915839314460754,0.5914044380187988,4.171875,2,C1,7.6,180,270.0,0.2586333963550083,[39100|0|0],start
33000,1.3339098691940308,-0.3087793290615082,0.0,0.4644601047039032,0.6958680152893066,0.6251860857009888,4.171875,2,C1,7.6,180,270.0,0.2589626885050827,[39200|0|0],start
33100,1.3332479000091553,-0.308418720960617,0.0,0.2318771183490753,0.5308331847190857,0.6367673277854919,4.171875,2,C1,7.6,180,270.0,0.2597165063903528,[39300|0|0],start
33200,1.3333505392074585,-0.3084838092327118,0.0,0.2723380327224731,0.5517681837081909,0.6413097381591797,4.171875,2,C1,7.6,180,270.0,0.2598380435788698,[39400|0|0],start
33300,1.33355975151062,-0.3082786500453949,0.0,0.2871901094913482,0.5593097805976868,0.6408207416534424,4.171875,2,C1,7.6,180,270.0,0.260131062485998,[39500|0|0],start
33400,1.3331862688064575,-0.3085735142230987,0.0,0.3097779154777527,0.5744616389274597,0.6490688920021057,4.171875,2,C1,7.6,180,270.0,0.2606069135273979,[39600|0|0],start
33500,1.3334099054336548,-0.3083465695381164,0.0,0.3079880177974701,0.5775772333145142,0.640025794506073,4.171875,2,C1,7.6,180,270.0,0.2609255312153343,[39700|0|0],start
33600,1.333290696144104,-0.3088074624538421,0.0,0.328811764717102,0.5870359539985657,0.6470032334327698,4.171875,2,C1,7.6,180,270.0,0.2614015912267628,[39800|0|0],start
33700,1.3331925868988037,-0.3084965944290161,0.0,0.3278969526290893,0.5987426042556763,0.6485637426376343,3.26171875,2,fly,7.6,180,270.0,0.261727573362581,[39800|0|0],fly
33800,1.3327451944351196,-0.3086131513118744,0.0,0.2239625602960586,1.765047550201416,2.240816593170166,3.509765625,2,fly,7.6,180,270.0,0.2621898995715536,[39800|0|0],fly
33900,1.3267172574996948,-0.3063697814941406,0.0171747915446758,-3.541586399078369,6.68452787399292,5.395034790039063,3.720703125,2,fly,7.6,180,270.0,0.2805295341491466,[39800|0|0],fly
34000,1.3077497482299805,-0.2978429496288299,0.0621876716613769,-1.378909468650818,3.945757389068604,6.549072742462158,3.701171875,2,fly,7.6,180,270.0,0.3301141350445504,[39800|0|0],fly
34100,1.2835451364517212,-0.2874981164932251,0.1198745891451835,3.8769047260284415,-3.534698724746704,5.609979152679443,3.689453125,2,fly,7.6,180,270.0,0.3935228036374429,[39800|0|0],fly
34200,1.266509771347046,-0.2824568748474121,0.1796047538518905,5.657512664794922,-6.559109210968018,4.4087114334106445,3.701171875,2,fly,7.6,180,270.0,0.455839016274857,[39800|0|0],fly
34300,1.257957100868225,-0.289562851190567,0.2550986111164093,6.528273105621338,-6.990406036376953,7.406639575958252,3.705078125,2,fly,7.6,180,270.0,0.532147374642629,[39800|0|0],fly
34400,1.2646963596343994,-0.2961998879909515,0.3350400328636169,3.901691198348999,-5.604115009307861,4.249886512756348,3.6953125,2,fly,7.6,180,270.0,0.6126464353649258,[39800|0|0],fly
34500,1.2773338556289673,-0.3107996881008148,0.413660317659378,2.1789467334747314,-3.282665252685547,1.8966127634048464,3.6796875,2,fly,7.6,180,270.0,0.6936032735543417,[39800|0|0],fly
34600,1.294178128242493,-0.3270082175731659,0.4962829053401947,-0.1419457197189331,-0.7808313965797424,0.5689126253128052,3.6796875,2,fly,7.6,180,270.0,0.7794690871393133,[39800|0|0],fly
34700,1.3122175931930542,-0.3419158458709717,0.5825603604316711,-1.30869460105896,1.3771024942398071,-0.1405456662178039,3.6796875,2,fly,7.6,180,270.0,0.8688640474795349,[39800|0|0],fly
34800,1.3247976303100586,-0.3495219647884369,0.6738185286521912,-2.307213306427002,2.439242362976074,-0.5638177990913391,3.673828125,2,fly,7.6,180,270.0,0.9612986927475108,[39800|0|0],fly
34900,1.335302710533142,-0.3549736738204956,0.7641377449035645,-1.6907492876052856,3.3196749687194824,-0.7242959141731262,3.6640625,2,fly,7.6,180,270.0,1.052390068113821,[39800|0|0],fly
