time.ms,stateEstimate.x,stateEstimate.y,stateEstimate.z,stabilizer.roll,stabilizer.pitch,stabilizer.yaw,pm.vbat,drone_id,node_name,wind_speed,global_wind_direction,relative_wind_direction,travel_dist,waiting_time
0,0.6546078324317932,0.3888638913631439,-0.024393390864133835,-0.8477487564086914,0.6902745366096497,5.640738010406494,4.13671875,0,"['F2', 'B2', 'A1']",0,None,0,0.060228561088668156,[100|0|0]
100,0.655569851398468,0.38829442858695984,-0.0256807878613472,0.0023918389342725277,0.0023214356042444706,4.763402462005615,4.13671875,0,"['F2', 'B2', 'A1']",0,None,0,0.06193360049411758,[200|0|0]
200,0.6555958390235901,0.38852858543395996,-0.024613425135612488,-0.3544054627418518,0.1277596801519394,5.4245734214782715,4.13671875,0,"['F2', 'B2', 'A1']",0,None,0,0.06302665491817173,[300|0|0]
300,0.6552949547767639,0.3887050449848175,-0.024596674367785454,-0.7691546678543091,0.41705068945884705,5.6327619552612305,4.13671875,0,"['F2', 'B2', 'A1']",0,None,0,0.0633758681643406,[400|0|0]
400,0.655248761177063,0.38861724734306335,-0.02446344494819641,-0.9514421224594116,0.5754647254943848,5.698974132537842,4.13671875,0,"['F2', 'B2', 'A1']",0,None,0,0.06354197762462192,[500|0|0]
500,0.654972493648529,0.3889102637767792,-0.02427181415259838,-1.0430399179458618,0.6733832955360413,5.749475955963135,4.13671875,0,"['F2', 'B2', 'A1']",0,None,0,0.0639879650006443,[600|0|0]
600,0.6549782752990723,0.3889380395412445,-0.024577584117650986,-1.044736623764038,0.7140844464302063,5.742916107177734,4.13671875,0,"['F2', 'B2', 'A1']",0,None,0,0.0642950483640864,[700|0|0]
700,0.6548944711685181,0.389112263917923,-0.024426257237792015,-1.0283347368240356,0.7281279563903809,5.7196173667907715,4.13671875,0,"['F2', 'B2', 'A1']",0,None,0,0.0645405622950451,[800|0|0]
800,0.6548867225646973,0.3885680139064789,-0.024497415870428085,-0.9760396480560303,0.7337769865989685,5.687300682067871,4.13671875,0,"['F2', 'B2', 'A1']",0,None,0,0.06508949914643758,[900|0|0]
900,0.6546849608421326,0.3893105387687683,-0.024533282965421677,-0.9868705868721008,0.7349545955657959,5.673820972442627,4.13671875,0,"['F2', 'B2', 'A1']",0,None,0,0.06585978312804014,[1000|0|0]
1000,0.6549513339996338,0.38936781883239746,-0.024130361154675484,-1.0626200437545776,0.6374106407165527,5.678921699523926,4.13671875,0,"['F2', 'B2', 'A1']",0,None,0,0.06634617972578885,[1100|0|0]
1100,0.6545114517211914,0.3895112872123718,-0.024337120354175568,-1.0283554792404175,0.6681259274482727,5.661905765533447,4.13671875,0,"['F2', 'B2', 'A1']",0,None,0,0.0668529626788546,[1200|0|0]
1200,0.6546063423156738,0.3890626132488251,-0.024463975802063942,-0.98473060131073,0.6635046005249023,5.661257266998291,4.13671875,0,"['F2', 'B2', 'A1']",0,None,0,0.06732878287088614,[1300|0|0]
1300,0.6544511914253235,0.38909226655960083,-0.024642834439873695,-0.9638358950614929,0.6717126369476318,5.649753093719482,4.13671875,0,"['F2', 'B2', 'A1']",0,None,0,0.06756740711511884,[1400|0|0]
1400,0.6550298929214478,0.38907626271247864,-0.024208711460232735,-0.9493257999420166,0.6467880606651306,5.636124610900879,4.13671875,0,"['F2', 'B2', 'A1']",0,None,0,0.06829101910105573,[1500|0|0]
1500,0.6547722816467285,0.38899338245391846,-0.02429305575788021,-0.9254810810089111,0.6515478491783142,5.6392717361450195,4.13671875,0,"['F2', 'B2', 'A1']",0,None,0,0.06857447397694803,[1600|0|0]
1600,0.6547228097915649,0.38942986726760864,-0.024270350113511086,-0.9299854040145874,0.6479805707931519,5.642052173614502,4.13671875,0,"['F2', 'B2', 'A1']",0,None,0,0.06901433986937629,[1700|0|0]
1700,0.6550006866455078,0.38898468017578125,-0.02450445666909218,-0.9098497629165649,0.6370770335197449,5.636101245880127,4.13671875,0,"['F2', 'B2', 'A1']",0,None,0,0.06958898147251076,[1800|0|0]
1800,0.6549773216247559,0.3890436589717865,-0.02423514984548092,-0.9088159799575806,0.6396833658218384,5.628528594970703,4.13671875,0,"['F2', 'B2', 'A1']",0,None,0,0.06986565924143438,[1900|0|0]
1900,0.6548812985420227,0.38885921239852905,-0.0245263259857893,-0.9007191061973572,0.6429554224014282,5.615595817565918,4.13671875,0,"['F2', 'B2', 'A1']",0,None,0,0.07022346437763127,[2000|0|0]
2000,0.6549537777900696,0.38909173011779785,-0.02412453666329384,-0.9026177525520325,0.6439982056617737,5.606362819671631,4.13671875,0,"['F2', 'B2', 'A1']",0,None,0,0.07069330732037146,[2100|0|0]
2100,0.65439373254776,0.3892644941806793,-0.02439117059111595,-0.902132511138916,0.6563665270805359,5.603963375091553,4.13671875,0,"['F2', 'B2', 'A1']",0,None,0,0.07133719531243432,[2200|0|0]
2200,0.6545571684837341,0.3888434171676636,-0.02434263564646244,-0.8908190131187439,0.6528761386871338,5.604889392852783,4.13671875,0,"['F2', 'B2', 'A1']",0,None,0,0.07179147804038083,[2300|0|0]
2300,0.6551146507263184,0.38912755250930786,-0.024632425978779793,-0.8956694602966309,0.6370039582252502,5.607210159301758,4.13671875,0,"['F2', 'B2', 'A1']",0,None,0,0.07248104151089871,[2400|0|0]
2400,0.6544855833053589,0.3889077603816986,-0.02446177788078785,-0.8929967880249023,0.6549898982048035,5.61137056350708,4.13671875,0,"['F2', 'B2', 'A1']",0,None,0,0.07316890426815474,[2500|0|0]
2500,0.6548624634742737,0.3891691565513611,-0.024066876620054245,-0.8974433541297913,0.6458637118339539,5.6285810470581055,4.13671875,0,"['F2', 'B2', 'A1']",0,None,0,0.0737741427541786,[2600|0|0]
2600,0.6548312306404114,0.3893302381038666,-0.024305690079927444,-0.9008680582046509,0.6477527618408203,5.632931709289551,4.13671875,0,"['F2', 'B2', 'A1']",0,None,0,0.07406389199936356,[2700|0|0]
2700,0.6547277569770813,0.38913393020629883,-0.02396196871995926,-0.8965675234794617,0.648384153842926,5.63920259475708,4.13671875,0,"['F2', 'B2', 'A1']",0,None,0,0.07447302274001842,[2800|0|0]
2800,0.6548563838005066,0.3890984058380127,-0.024760080501437187,-0.8978522419929504,0.6418901085853577,5.6243896484375,4.13671875,0,"['F2', 'B2', 'A1']",0,None,0,0.07528221323438948,[2900|0|0]
2900,0.6548025012016296,0.38878321647644043,-0.024397950619459152,-0.8929535746574402,0.6443390846252441,5.601283073425293,4.13671875,0,"['F2', 'B2', 'A1']",0,None,0,0.07576531334775263,[3000|0|0]
3000,0.654529333114624,0.38905173540115356,-0.024466833099722862,-0.9004755616188049,0.6530354022979736,5.615090370178223,4.13671875,0,"['F2', 'B2', 'A1']",0,None,0,0.07615450226431461,[3100|0|0]
3100,0.6549232602119446,0.38916856050491333,-0.024027297273278236,-0.9012249708175659,0.6391094923019409,5.627695560455322,4.13671875,0,"['F2', 'B2', 'A1']",0,None,0,0.0767561819179512,[3200|0|0]
3200,0.6551087498664856,0.3891363739967346,-0.024343958124518394,-0.9028971791267395,0.6359369158744812,5.631375789642334,4.13671875,0,"['F2', 'B2', 'A1']",0,None,0,0.0771245790921513,[3300|0|0]
3300,0.6547378897666931,0.38916730880737305,-0.024237606674432755,-0.9103248119354248,0.644671618938446,5.668145179748535,4.13671875,0,"['F2', 'B2', 'A1']",0,None,0,0.07751162535174135,[3400|0|0]
3400,0.654453694820404,0.3892604410648346,-0.024336930364370346,-0.912568211555481,0.6493307948112488,5.656722068786621,4.13671875,0,"['F2', 'B2', 'A1']",0,None,0,0.07782675323095699,[3500|0|0]
3500,0.6545990109443665,0.3892083466053009,-0.024284478276968002,-0.9071176052093506,0.6437383890151978,5.637214183807373,4.13671875,0,"['F2', 'B2', 'A1']",0,None,0,0.07798979258225117,[3600|0|0]
3600,0.6547409892082214,0.38914069533348083,-0.024002164602279663,-0.9064604043960571,0.639491617679596,5.635656833648682,4.13671875,0,"['F2', 'B2', 'A1']",0,None,0,0.07831295745178711,[3700|0|0]
3700,0.6546415090560913,0.38922640681266785,-0.024443328380584717,-0.9039456248283386,0.6485848426818848,5.635046482086182,4.13671875,0,"['F2', 'B2', 'A1']",0,None,0,0.07877324892207593,[3800|0|0]
3800,0.654678463935852,0.3889610469341278,-0.02421540953218937,-0.8957701921463013,0.652732789516449,5.605676174163818,4.13671875,0,"['F2', 'B2', 'A1']",0,None,0,0.07912499958622708,[3900|0|0]
3900,0.654731035232544,0.3890647888183594,-0.024195384234189987,-0.8994835615158081,0.6529359817504883,5.620119571685791,4.13671875,0,"['F2', 'B2', 'A1']",0,None,0,0.07924301285810677,[4000|0|0]
4000,0.6549347043037415,0.38917016983032227,-0.02442479319870472,-0.9072654247283936,0.6449282765388489,5.617809295654297,4.13671875,0,"['F2', 'B2', 'A1']",0,None,0,0.07956738104588804,[4100|0|0]
4100,0.6546540856361389,0.38872185349464417,-0.024310966953635216,-0.9010744690895081,0.6607249975204468,5.61433744430542,4.13671875,0,"['F2', 'B2', 'A1']",0,None,0,0.0801083900915698,[4200|0|0]
4200,0.6545177102088928,0.38914942741394043,-0.02473147213459015,-0.9088987708091736,0.6705458164215088,5.622903347015381,4.13671875,0,"['F2', 'B2', 'A1']",0,None,0,0.08072340417338326,[4300|0|0]
4300,0.6548773646354675,0.3885000944137573,-0.024542715400457382,-0.873451828956604,0.6703319549560547,5.627655982971191,4.13671875,0,"['F2', 'B2', 'A1']",0,None,0,0.08148931131942777,[4400|0|0]
4400,0.654744565486908,0.38893380761146545,-0.024188250303268433,-0.8715114593505859,0.6756029725074768,5.644266605377197,4.13671875,0,"['F2', 'B2', 'A1']",0,None,0,0.08206497463843422,[4500|0|0]
4500,0.6550366282463074,0.3888991177082062,-0.024730907753109932,-0.8637371063232422,0.6696378588676453,5.632881164550781,4.13671875,0,"['F2', 'B2', 'A1']",0,None,0,0.08268221134560953,[4600|0|0]
4600,0.654829740524292,0.3889924883842468,-0.024390773847699165,-0.8618218302726746,0.6806774139404297,5.626136779785156,4.13671875,0,"['F2', 'B2', 'A1']",0,None,0,0.0830911266012249,[4700|0|0]
4700,0.6547679901123047,0.3887116611003876,-0.02432372234761715,-0.8488016724586487,0.6830899715423584,5.625736236572266,4.13671875,0,"['F2', 'B2', 'A1']",0,None,0,0.08338637730893551,[4800|0|0]
4800,0.6549339890480042,0.38885968923568726,-0.02437194064259529,-0.8581680059432983,0.6793017983436584,5.6237993240356445,4.13671875,0,"['F2', 'B2', 'A1']",0,None,0,0.08361395801871614,[4900|0|0]
4900,0.6548894643783569,0.38887888193130493,-0.024266082793474197,-0.8695141077041626,0.6819137334823608,5.6292829513549805,4.13671875,0,"['F2', 'B2', 'A1']",0,None,0,0.083730391218418,[5000|0|0]
5000,0.6547544598579407,0.38911187648773193,-0.02440529502928257,-0.8743799328804016,0.6829977631568909,5.6183390617370605,4.13671875,0,"['F2', 'B2', 'A1']",0,None,0,0.0840335293559992,[5100|0|0]
5100,0.6547682881355286,0.38896432518959045,-0.024404101073741913,-0.8718849420547485,0.6773988604545593,5.603072166442871,4.13671875,0,"['F2', 'B2', 'A1']",0,None,0,0.08418173202930207,[5200|0|0]
5200,0.6548864245414734,0.3886576294898987,-0.024414896965026855,-0.8601850867271423,0.6728984117507935,5.613760471343994,4.13671875,0,"['F2', 'B2', 'A1']",0,None,0,0.08451057091673424,[5300|0|0]
5300,0.6544827222824097,0.3885163962841034,-0.02448919229209423,-0.8511263132095337,0.680465579032898,5.612513542175293,4.13671875,0,"['F2', 'B2', 'A1']",0,None,0,0.08494467013121915,[5400|0|0]
5400,0.6548172235488892,0.3888414800167084,-0.024355443194508553,-0.8582300543785095,0.6630797386169434,5.61191463470459,4.13671875,0,"['F2', 'B2', 'A1']",0,None,0,0.08542991167064642,[5500|0|0]
5500,0.6545813083648682,0.3887737989425659,-0.02448464184999466,-0.8563135266304016,0.6684781908988953,5.624258518218994,4.13671875,0,"['F2', 'B2', 'A1']",0,None,0,0.08570727243648787,[5600|0|0]
5600,0.6544781923294067,0.38881486654281616,-0.024699272587895393,-0.8506925106048584,0.6765986084938049,5.630282402038574,4.13671875,0,"['F2', 'B2', 'A1']",0,None,0,0.08594890401184882,[5700|0|0]
5700,0.654871940612793,0.3889140188694,-0.024485018104314804,-0.8525941371917725,0.6611524820327759,5.648396968841553,4.13671875,0,"['F2', 'B2', 'A1']",0,None,0,0.08640800517528775,[5800|0|0]
5800,0.6548638343811035,0.38899514079093933,-0.024429768323898315,-0.8538539409637451,0.6615254878997803,5.631651401519775,4.13671875,0,"['F2', 'B2', 'A1']",0,None,0,0.08650648875454085,[5900|0|0]
5900,0.6549766659736633,0.388759046792984,-0.024426694959402084,-0.8456493020057678,0.6646757125854492,5.62176513671875,4.13671875,0,"['F2', 'B2', 'A1']",0,None,0,0.08676817709917897,[6000|0|0]
6000,0.6551213264465332,0.3889036178588867,-0.024592241272330284,-0.8549986481666565,0.6615294814109802,5.607208251953125,4.13671875,0,"['F2', 'B2', 'A1']",0,None,0,0.0870312987957973,[6100|0|0]
6100,0.654950737953186,0.3886479437351227,-0.024631673470139503,-0.8507199287414551,0.6640186905860901,5.597670078277588,4.13671875,0,"['F2', 'B2', 'A1']",0,None,0,0.0873411771426514,[6200|0|0]
6200,0.6549268364906311,0.3887213468551636,-0.02458275854587555,-0.8526432514190674,0.6686736345291138,5.585679054260254,4.13671875,0,"['F2', 'B2', 'A1']",0,None,0,0.08743256624353192,[6300|0|0]
6300,0.6551182270050049,0.38846394419670105,-0.024538397789001465,-0.8444377779960632,0.6762593984603882,5.590214252471924,4.13671875,0,"['F2', 'B2', 'A1']",0,None,0,0.08775637843342951,[6400|0|0]
6400,0.6545605063438416,0.3886306583881378,-0.024341214448213577,-0.847654402256012,0.6998391151428223,5.594005584716797,4.13671875,0,"['F2', 'B2', 'A1']",0,None,0,0.08837097360701872,[6500|0|0]
6500,0.6547009348869324,0.38902175426483154,-0.02455100044608116,-0.8558741807937622,0.6920529007911682,5.604846954345703,4.13671875,0,"['F2', 'B2', 'A1']",0,None,0,0.08883646939151385,[6600|0|0]
6600,0.6545829772949219,0.3889766037464142,-0.024510718882083893,-0.8551627993583679,0.6932396292686462,5.618830680847168,4.13671875,0,"['F2', 'B2', 'A1']",0,None,0,0.08896904075804651,[6700|0|0]
6700,0.6548551321029663,0.3891366720199585,-0.0244255643337965,-0.8571786284446716,0.6767593026161194,5.6271138191223145,4.13671875,0,"['F2', 'B2', 'A1']",0,None,0,0.08929605970066481,[6800|0|0]
6800,0.654931902885437,0.3885304033756256,-0.024610165506601334,-0.8384110331535339,0.6680585145950317,5.619760513305664,4.13671875,0,"['F2', 'B2', 'A1']",0,None,0,0.08993444282633725,[6900|0|0]
6900,0.6550896167755127,0.3886982500553131,-0.024587789550423622,-0.8537223935127258,0.653126060962677,5.597920894622803,4.13671875,0,"['F2', 'B2', 'A1']",0,None,0,0.09016584477624215,[7000|0|0]
7000,0.6549270749092102,0.3890857398509979,-0.024435801431536674,-0.8532555103302002,0.667672872543335,5.608577251434326,4.13671875,0,"['F2', 'B2', 'A1']",0,None,0,0.0906126876886216,[7100|0|0]
7100,0.6548694968223572,0.38870969414711,-0.024302950128912926,-0.8397328853607178,0.6796654462814331,5.595590591430664,4.13671875,0,"['F2', 'B2', 'A1']",0,None,0,0.09101564559722627,[7200|0|0]
7200,0.6548095941543579,0.38887515664100647,-0.024628594517707825,-0.8425038456916809,0.6881822347640991,5.608506202697754,4.13671875,0,"['F2', 'B2', 'A1']",0,None,0,0.091385794802917,[7300|0|0]
7300,0.6550442576408386,0.389033704996109,-0.024079887196421623,-0.8439345359802246,0.6831873059272766,5.620493412017822,4.13671875,0,"['F2', 'B2', 'A1']",0,None,0,0.09200327699474611,[7400|0|0]
7400,0.654876172542572,0.3889743387699127,-0.024551035836338997,-0.8392673134803772,0.6967287063598633,5.610729217529297,4.13671875,0,"['F2', 'B2', 'A1']",0,None,0,0.09250702096738309,[7500|0|0]
7500,0.6547824144363403,0.38890939950942993,-0.02433081902563572,-0.8357791304588318,0.701702356338501,5.618704319000244,4.13671875,0,"['F2', 'B2', 'A1']",0,None,0,0.09275501922091026,[7600|0|0]
7600,0.6546997427940369,0.388776034116745,-0.024553190916776657,-0.8320834040641785,0.7027696967124939,5.620542049407959,4.13671875,0,"['F2', 'B2', 'A1']",0,None,0,0.09302717760563642,[7700|0|0]
7700,0.6548029780387878,0.3891051113605499,-0.024573903530836105,-0.838792622089386,0.695853590965271,5.61672830581665,4.13671875,0,"['F2', 'B2', 'A1']",0,None,0,0.09337268934281798,[7800|0|0]
7800,0.6549191474914551,0.38894355297088623,-0.024268703535199165,-0.8366508483886719,0.7009395360946655,5.63254451751709,4.13671875,0,"['F2', 'B2', 'A1']",0,None,0,0.09373702914621657,[7900|0|0]
7900,0.6552305817604065,0.38865476846694946,-0.02422054298222065,-0.8320389986038208,0.6986104846000671,5.6435546875,4.13671875,0,"['F2', 'B2', 'A1']",0,None,0,0.09416447181190929,[8000|0|0]
8000,0.6548665761947632,0.388797789812088,-0.024884793907403946,-0.8368377685546875,0.7035644054412842,5.636510372161865,4.13671875,0,"['F2', 'B2', 'A1']",0,None,0,0.09493530541820278,[8100|0|0]
8100,0.6548045873641968,0.38867637515068054,-0.02453739196062088,-0.8439522981643677,0.7058929800987244,5.627476692199707,4.13671875,0,"['F2', 'B2', 'A1']",0,None,0,0.09530849738991216,[8200|0|0]
8200,0.6550412178039551,0.3889393210411072,-0.02453937567770481,-0.8511914610862732,0.6995618939399719,5.614737033843994,4.13671875,0,"['F2', 'B2', 'A1']",0,None,0,0.09566224651209614,[8300|0|0]
8300,0.6551174521446228,0.3888457417488098,-0.024416079744696617,-0.8449490070343018,0.6920126676559448,5.607220649719238,4.13671875,0,"['F2', 'B2', 'A1']",0,None,0,0.09583478823383404,[8400|0|0]
8400,0.6548301577568054,0.38883185386657715,-0.024280408397316933,-0.8294394612312317,0.6971948146820068,5.610538959503174,4.13671875,0,"['F2', 'B2', 'A1']",0,None,0,0.09615280970015996,[8500|0|0]
8500,0.6550114154815674,0.38902556896209717,-0.024466488510370255,-0.8395232558250427,0.6978559494018555,5.630359649658203,4.13671875,0,"['F2', 'B2', 'A1']",0,None,0,0.09647685554489825,[8600|0|0]
8600,0.6550645232200623,0.38878199458122253,-0.024308068677783012,-0.8324192762374878,0.6999938488006592,5.626626014709473,4.13671875,0,"['F2', 'B2', 'A1']",0,None,0,0.09677222946768677,[8700|0|0]
8700,0.6550567150115967,0.38885244727134705,-0.024494297802448273,-0.9242704510688782,0.6232436299324036,5.624139308929443,4.13671875,0,"['F2', 'B2', 'A1']",0,None,0,0.09697149270197451,[8800|0|0]
8800,0.6549266576766968,0.38876038789749146,-0.02444966696202755,-0.8996724486351013,0.6395689249038696,5.6283698081970215,4.13671875,0,"['F2', 'B2', 'A1']",0,None,0,0.09713696702201424,[8900|0|0]
8900,0.654864490032196,0.38915708661079407,-0.02457386627793312,-0.898693323135376,0.6462924480438232,5.620273590087891,4.13671875,0,"['F2', 'B2', 'A1']",0,None,0,0.09755727661651588,[9000|0|0]
9000,0.6547711491584778,0.38910433650016785,-0.024452093988656998,-0.892109215259552,0.6458591222763062,5.602200031280518,4.13671875,0,"['F2', 'B2', 'A1']",0,None,0,0.09771952205809473,[9100|0|0]
9100,0.6515827775001526,0.38506993651390076,-0.026599399745464325,-0.7779067158699036,0.7505678534507751,5.573515892028809,4.13671875,0,"['F2', 'B2', 'A1']",0,None,0,0.10329204564207543,[9200|0|0]
9200,0.6512701511383057,0.3845844566822052,-0.02666015736758709,-0.7597119212150574,0.7635657787322998,5.5800628662109375,4.13671875,0,"['F2', 'B2', 'A1']",0,None,0,0.10387266375904286,[9300|0|0]
9300,0.651611328125,0.38463518023490906,-0.026678355410695076,-0.7591918110847473,0.7606825232505798,5.57901668548584,4.13671875,0,"['F2', 'B2', 'A1']",0,None,0,0.10421807045240836,[9400|0|0]
9400,0.6515066027641296,0.3849821388721466,-0.026773709803819656,-0.7711428999900818,0.7660266757011414,5.580825328826904,4.13671875,0,"['F2', 'B2', 'A1']",0,None,0,0.10459282391463562,[9500|0|0]
9500,0.6513897776603699,0.3848629593849182,-0.026689182966947556,-0.7449453473091125,0.7848992347717285,5.599684238433838,4.13671875,0,"['F2', 'B2', 'A1']",0,None,0,0.10477989780697794,[9600|0|0]
9600,0.6514871120452881,0.38456234335899353,-0.026821356266736984,-0.7256439924240112,0.7975961565971375,5.59531307220459,4.13671875,0,"['F2', 'B2', 'A1']",0,None,0,0.10512240876841915,[9700|0|0]
9700,0.6514528393745422,0.38484641909599304,-0.026621781289577484,-0.7245401740074158,0.7984449863433838,5.582172393798828,4.13671875,0,"['F2', 'B2', 'A1']",0,None,0,0.10547126950255253,[9800|0|0]
9800,0.6513486504554749,0.3845177888870239,-0.02688138373196125,-0.7140320539474487,0.8099609017372131,5.585927486419678,4.13671875,0,"['F2', 'B2', 'A1']",0,None,0,0.10590283244488555,[9900|0|0]
9900,0.6517192125320435,0.38464269042015076,-0.026977727189660072,-0.726462721824646,0.8026760220527649,5.584569454193115,4.13671875,0,"['F2', 'B2', 'A1']",0,None,0,0.10630557145145138,[10000|0|0]
10000,0.6516627073287964,0.3848399817943573,-0.026643183082342148,-0.788776159286499,0.7519158124923706,5.6045684814453125,4.13671875,0,"['F2', 'B2', 'A1']",0,None,0,0.10669804627111686,[10100|0|0]
10100,0.6519586443901062,0.3847281336784363,-0.026303322985768318,-0.7723904252052307,0.7538904547691345,5.582080364227295,4.13671875,0,"['F2', 'B2', 'A1']",0,None,0,0.10716236688290891,[10200|0|0]
10200,0.6517137885093689,0.3849177956581116,-0.026510244235396385,-0.7697702646255493,0.7663074731826782,5.557536602020264,4.13671875,0,"['F2', 'B2', 'A1']",0,None,0,0.1075348483890453,[10300|0|0]
10301,0.6515196561813354,0.3848441243171692,-0.026546660810709,-0.7637507319450378,0.7762618064880371,5.5557098388671875,4.13671875,0,"['F2', 'B2', 'A1']",0,None,0,0.10774565871664202,[10400|0|0]
10401,0.6517820358276367,0.3848404586315155,-0.026371529325842857,-0.7606290578842163,0.765901505947113,5.565392971038818,4.13671875,0,"['F2', 'B2', 'A1']",0,None,0,0.10806113859402869,[10500|0|0]
10500,0.6515898108482361,0.38458529114723206,-0.026472274214029312,-0.7505848407745361,0.7765384912490845,5.570027828216553,4.13671875,0,"['F2', 'B2', 'A1']",0,None,0,0.1083961168324813,[10600|0|0]
10600,0.6516702771186829,0.3845561444759369,-0.02651510387659073,-0.75239497423172,0.7761403918266296,5.584056854248047,4.13671875,0,"['F2', 'B2', 'A1']",0,None,0,0.10849181808180611,[10700|0|0]
10701,0.6516532897949219,0.3845014274120331,-0.02635013312101364,-0.7977375984191895,0.7355452179908752,5.573770999908447,4.13671875,0,"['F2', 'B2', 'A1']",0,None,0,0.10866645449394999,[10800|0|0]
10801,0.6517777442932129,0.38459524512290955,-0.026524601504206657,-0.7830203771591187,0.740685760974884,5.5990166664123535,4.13671875,0,"['F2', 'B2', 'A1']",0,None,0,0.1089003987218184,[10900|0|0]
10901,0.6518126726150513,0.3846920430660248,-0.026508741080760956,-0.7809589505195618,0.747787594795227,5.603023052215576,4.13671875,0,"['F2', 'B2', 'A1']",0,None,0,0.10900452068150829,[11000|0|0]
11001,0.6514553427696228,0.3848170340061188,-0.026383567601442337,-0.77912437915802,0.7696123123168945,5.59232234954834,4.1328125,0,"['F2', 'B2', 'A1']",0,None,0,0.10940323831776763,[11100|0|0]
11101,0.6514245271682739,0.3845994770526886,-0.026455357670783997,-0.767814576625824,0.7687082886695862,5.600460052490234,4.13671875,0,"['F2', 'B2', 'A1']",0,None,0,0.10963439723134959,[11200|0|0]
11201,0.6514412760734558,0.38503068685531616,-0.026689162477850914,-0.774189829826355,0.7630887031555176,5.586474895477295,4.13671875,0,"['F2', 'B2', 'A1']",0,None,0,0.11012519974511097,[11300|0|0]
11302,0.651360034942627,0.3846789002418518,-0.026520725339651108,-0.763846218585968,0.7646466493606567,5.594027519226074,4.13671875,0,"['F2', 'B2', 'A1']",0,None,0,0.11052360282275471,[11400|0|0]
11401,0.6516761183738708,0.3850308358669281,-0.02647896483540535,-0.7734515070915222,0.7520081996917725,5.599425792694092,4.13671875,0,"['F2', 'B2', 'A1']",0,None,0,0.11099848318602488,[11500|0|0]
11501,0.6518213152885437,0.38444584608078003,-0.026580121368169785,-0.7570838928222656,0.7524868845939636,5.58509635925293,4.13671875,0,"['F2', 'B2', 'A1']",0,None,0,0.11160965242449243,[11600|0|0]
11601,0.6513859629631042,0.38459470868110657,-0.026299864053726196,-0.7636722326278687,0.7638066411018372,5.586278438568115,4.13671875,0,"['F2', 'B2', 'A1']",0,None,0,0.11214838787287192,[11700|0|0]
11701,0.6515000462532043,0.38487035036087036,-0.026530558243393898,-0.7686768770217896,0.7577083706855774,5.573062896728516,4.1328125,0,"['F2', 'B2', 'A1']",0,None,0,0.11252549945032547,[11800|0|0]
11802,0.6514904499053955,0.3848452568054199,-0.026637595146894455,-0.7620953321456909,0.7514472007751465,5.602169990539551,4.13671875,0,"['F2', 'B2', 'A1']",0,None,0,0.11263585648511439,[11900|0|0]
11902,0.651488721370697,0.38487398624420166,-0.026693733409047127,-0.7634267807006836,0.7432255148887634,5.587329864501953,4.13671875,0,"['F2', 'B2', 'A1']",0,None,0,0.11269894271944834,[12000|0|0]
12000,0.6517812609672546,0.38475263118743896,-0.026895621791481972,-0.7398051023483276,0.7587428689002991,5.584943771362305,4.13671875,0,"['F2', 'B2', 'A1']",0,None,0,0.11307452943955187,[12100|0|0]
12100,0.6516995429992676,0.38441982865333557,-0.026372918859124184,-0.7187353372573853,0.7752853035926819,5.581593036651611,4.13671875,0,"['F2', 'B2', 'A1']",0,None,0,0.11369955240592432,[12200|0|0]
12200,0.6518197059631348,0.38448768854141235,-0.026563217863440514,-0.7184413075447083,0.7799327969551086,5.568057537078857,4.1328125,0,"['F2', 'B2', 'A1']",0,None,0,0.11393462221117145,[12300|0|0]
12300,0.6515698432922363,0.38501134514808655,-0.02675035037100315,-0.7243579030036926,0.789186418056488,5.590597152709961,4.1328125,0,"['F2', 'B2', 'A1']",0,None,0,0.114544266510258,[12400|0|0]
12402,0.6518290042877197,0.38478192687034607,-0.026408689096570015,-0.7114704847335815,0.7890825867652893,5.590126991271973,4.1328125,0,"['F2', 'B2', 'A1']",0,None,0,0.11503060959305925,[12500|0|0]
12500,0.6514027714729309,0.38457727432250977,-0.026667388156056404,-0.7057108283042908,0.799574613571167,5.58838415145874,4.1328125,0,"['F2', 'B2', 'A1']",0,None,0,0.11556957367453206,[12600|0|0]
12600,0.6517744064331055,0.3845736086368561,-0.0264483280479908,-0.7026024460792542,0.7826455235481262,5.6115193367004395,4.13671875,0,"['F2', 'B2', 'A1']",0,None,0,0.11600098219533453,[12700|0|0]
12700,0.6516073346138,0.3848358392715454,-0.02654910832643509,-0.7109525203704834,0.790851354598999,5.601510524749756,4.1328125,0,"['F2', 'B2', 'A1']",0,None,0,0.11632783776450675,[12800|0|0]
12800,0.6518237590789795,0.3848307132720947,-0.026605691760778427,-0.7138565182685852,0.7844401001930237,5.601164817810059,4.1328125,0,"['F2', 'B2', 'A1']",0,None,0,0.11655159546837561,[12900|0|0]
12900,0.6513431072235107,0.38460129499435425,-0.026738427579402924,-0.7093774080276489,0.8005093932151794,5.607661724090576,4.13671875,0,"['F2', 'B2', 'A1']",0,None,0,0.11710048320723745,[13000|0|0]
13000,0.6515441536903381,0.38492313027381897,-0.026620490476489067,-0.722075879573822,0.7994104027748108,5.612345218658447,4.1328125,0,"['F2', 'B2', 'A1']",0,None,0,0.11749785807958801,[13100|0|0]
13100,0.6515629291534424,0.3845917880535126,-0.026687897741794586,-0.7149854302406311,0.8071717619895935,5.598273277282715,4.1328125,0,"['F2', 'B2', 'A1']",0,None,0,0.11783650823002105,[13200|0|0]
13200,0.651671826839447,0.3845425546169281,-0.026950377970933914,-0.7138082981109619,0.8064216375350952,5.593744277954102,4.1328125,0,"['F2', 'B2', 'A1']",0,None,0,0.11812491507457248,[13300|0|0]
13300,0.6518059968948364,0.38482555747032166,-0.026797456666827202,-0.7851476669311523,0.7426925301551819,5.575653076171875,4.1328125,0,"['F2', 'B2', 'A1']",0,None,0,0.11847345078872784,[13400|0|0]
13400,0.651623010635376,0.38481757044792175,-0.026158612221479416,-0.8151640295982361,0.7210039496421814,5.579957962036133,4.13671875,0,"['F2', 'B2', 'A1']",0,None,0,0.11913803335623158,[13500|0|0]
13500,0.6515721082687378,0.3846920430660248,-0.02641252614557743,-0.7966446280479431,0.7354662418365479,5.598563194274902,4.1328125,0,"['F2', 'B2', 'A1']",0,None,0,0.11942581878912582,[13600|0|0]
13600,0.6517057418823242,0.3847390115261078,-0.026556028053164482,-0.7839980721473694,0.7462610602378845,5.5859375,4.13671875,0,"['F2', 'B2', 'A1']",0,None,0,0.1196274540449812,[13700|0|0]
13700,0.6518042087554932,0.38441556692123413,-0.026474328711628914,-0.7742063999176025,0.7602763175964355,5.578890800476074,4.1328125,0,"['F2', 'B2', 'A1']",0,None,0,0.11997528578582853,[13800|0|0]
13800,0.6516570448875427,0.38497912883758545,-0.02652665041387081,-0.7795165181159973,0.7726936340332031,5.608726978302002,4.13671875,0,"['F2', 'B2', 'A1']",0,None,0,0.12056009070895862,[13900|0|0]
13900,0.6518092751502991,0.38455498218536377,-0.02672763355076313,-0.7599591016769409,0.7763498425483704,5.610927104949951,4.1328125,0,"['F2', 'B2', 'A1']",0,None,0,0.12105351614081718,[14000|0|0]
14000,0.6517975330352783,0.38462045788764954,-0.026778390631079674,-0.73690265417099,0.8018974661827087,5.608933448791504,4.1328125,0,"['F2', 'B2', 'A1']",0,None,0,0.1211371894702432,[14100|0|0]
14100,0.651576042175293,0.38462114334106445,-0.02671431377530098,-0.7282056212425232,0.8141212463378906,5.619165420532227,4.13671875,0,"['F2', 'B2', 'A1']",0,None,0,0.12136776378440225,[14200|0|0]
14200,0.6513687372207642,0.3848484754562378,-0.026685038581490517,-0.7216215133666992,0.826111912727356,5.611919403076172,4.13671875,0,"['F2', 'B2', 'A1']",0,None,0,0.12167681438177107,[14300|0|0]
14300,0.6515430808067322,0.38444530963897705,-0.026716817170381546,-0.7075662016868591,0.8203635215759277,5.603611946105957,4.1328125,0,"['F2', 'B2', 'A1']",0,None,0,0.12211720993225678,[14400|0|0]
14400,0.6515366435050964,0.38474345207214355,-0.026566335931420326,-0.7154384255409241,0.8317005038261414,5.586665153503418,4.1328125,0,"['F2', 'B2', 'A1']",0,None,0,0.1224512383031867,[14500|0|0]
14500,0.6515563130378723,0.3848898112773895,-0.02687525749206543,-0.7170770764350891,0.8255042433738708,5.586607933044434,4.13671875,0,"['F2', 'B2', 'A1']",0,None,0,0.12279364221395768,[14600|0|0]
14600,0.6515028476715088,0.38493722677230835,-0.026599781587719917,-0.7202101349830627,0.8201965093612671,5.578908920288086,4.13671875,0,"['F2', 'B2', 'A1']",0,None,0,0.12307823622027854,[14700|0|0]
14700,0.651618242263794,0.38470718264579773,-0.026502324268221855,-0.714189350605011,0.8117482662200928,5.570811748504639,4.13671875,0,"['F2', 'B2', 'A1']",0,None,0,0.1233534345872694,[14800|0|0]
14800,0.6516452431678772,0.38427868485450745,-0.02635303884744644,-0.7074165344238281,0.8118501901626587,5.543165683746338,4.13671875,0,"['F2', 'B2', 'A1']",0,None,0,0.12380799541138214,[14900|0|0]
14900,0.6517572402954102,0.38444894552230835,-0.026561541482806206,-0.7204947471618652,0.8061506152153015,5.554523468017578,4.13671875,0,"['F2', 'B2', 'A1']",0,None,0,0.12409955226780574,[15000|0|0]
15000,0.6516092419624329,0.38479897379875183,-0.02684125117957592,-0.7312530279159546,0.8025084137916565,5.571292400360107,4.1328125,0,"['F2', 'B2', 'A1']",0,None,0,0.12457142175753892,[15100|0|0]
15100,0.6515370011329651,0.38461819291114807,-0.026504451408982277,-0.7249428033828735,0.8070952296257019,5.56170129776001,4.13671875,0,"['F2', 'B2', 'A1']",0,None,0,0.12496043917647659,[15200|0|0]
15200,0.6520588397979736,0.38442543148994446,-0.026705414056777954,-0.7194793224334717,0.7944859266281128,5.544704914093018,4.13671875,0,"['F2', 'B2', 'A1']",0,None,0,0.1255519275902358,[15300|0|0]
15300,0.6518387794494629,0.3847339153289795,-0.026341337710618973,-0.7952675223350525,0.7433923482894897,5.5584540367126465,4.13671875,0,"['F2', 'B2', 'A1']",0,None,0,0.12607741823883475,[15400|0|0]
15400,0.6516677737236023,0.3848181366920471,-0.026593787595629692,-0.7834331393241882,0.7594896554946899,5.563564300537109,4.13671875,0,"['F2', 'B2', 'A1']",0,None,0,0.1263937521458318,[15500|0|0]
15500,0.6519116163253784,0.38477960228919983,-0.026403194293379784,-0.7736674547195435,0.7619815468788147,5.544431209564209,4.13671875,0,"['F2', 'B2', 'A1']",0,None,0,0.12670563340770283,[15600|0|0]
15600,0.651764988899231,0.3846152722835541,-0.02637755312025547,-0.8111041784286499,0.7321853041648865,5.554450035095215,4.13671875,0,"['F2', 'B2', 'A1']",0,None,0,0.1269273571606328,[15700|0|0]
15700,0.6518673896789551,0.3842601478099823,-0.02664863131940365,-0.7869394421577454,0.7521777153015137,5.560886383056641,4.1328125,0,"['F2', 'B2', 'A1']",0,None,0,0.12738570495594895,[15800|0|0]
15800,0.6518956422805786,0.3843654692173004,-0.02647378295660019,-0.7698128819465637,0.7634502649307251,5.546874523162842,4.1328125,0,"['F2', 'B2', 'A1']",0,None,0,0.1275917698930756,[15900|0|0]
15900,0.6521489024162292,0.3846476078033447,-0.026606354862451553,-0.7653792500495911,0.7643676996231079,5.535831928253174,4.1328125,0,"['F2', 'B2', 'A1']",0,None,0,0.12799341424852695,[16000|0|0]
16000,0.6518203020095825,0.38440459966659546,-0.026848677545785904,-0.7267187237739563,0.7998669743537903,5.559479713439941,4.1328125,0,"['F2', 'B2', 'A1']",0,None,0,0.1284685473505448,[16100|0|0]
16100,0.6515235304832458,0.3848003149032593,-0.026563027873635292,-0.7304275631904602,0.8117756843566895,5.568378925323486,4.1328125,0,"['F2', 'B2', 'A1']",0,None,0,0.12903973875679306,[16200|0|0]
16200,0.6514717936515808,0.38462206721305847,-0.026473620906472206,-0.7199702262878418,0.8179150223731995,5.537868022918701,4.1328125,0,"['F2', 'B2', 'A1']",0,None,0,0.12924575464110774,[16300|0|0]
16300,0.6515737771987915,0.3845237195491791,-0.02648720145225525,-0.7171520590782166,0.8177195191383362,5.54397439956665,4.1328125,0,"['F2', 'B2', 'A1']",0,None,0,0.12938808291699125,[16400|0|0]
16400,0.6516213417053223,0.38487768173217773,-0.02667059563100338,-0.7213815450668335,0.8117380142211914,5.5556864738464355,4.1328125,0,"['F2', 'B2', 'A1']",0,None,0,0.1297895614769087,[16500|0|0]
16500,0.651557981967926,0.38489100337028503,-0.02681177854537964,-0.7144317030906677,0.8122204542160034,5.577764987945557,4.1328125,0,"['F2', 'B2', 'A1']",0,None,0,0.12994488223429984,[16600|0|0]
16600,0.65146803855896,0.38482406735420227,-0.026845550164580345,-0.7079480290412903,0.8140156865119934,5.606533050537109,4.1328125,0,"['F2', 'B2', 'A1']",0,None,0,0.1300619752286629,[16700|0|0]
16700,0.6515164375305176,0.3844364583492279,-0.027147840708494186,-0.6975700855255127,0.8187192678451538,5.592704772949219,4.1328125,0,"['F2', 'B2', 'A1']",0,None,0,0.13055590110784396,[16800|0|0]
16800,0.6515563726425171,0.3845583498477936,-0.027168627828359604,-0.7006497383117676,0.8156073093414307,5.596039295196533,4.1328125,0,"['F2', 'B2', 'A1']",0,None,0,0.1306858413054169,[16900|0|0]
16900,0.6514932513237,0.3848218321800232,-0.026865407824516296,-0.703599750995636,0.8155248165130615,5.599596977233887,4.1328125,0,"['F2', 'B2', 'A1']",0,None,0,0.13109247333934576,[17000|0|0]
17000,0.6515448689460754,0.3844411373138428,-0.026592165231704712,-0.7029356360435486,0.8094754219055176,5.59841775894165,4.13671875,0,"['F2', 'B2', 'A1']",0,None,0,0.13156391206771056,[17100|0|0]
17100,0.6513915657997131,0.38474294543266296,-0.026796255260705948,-0.7164223194122314,0.8099226951599121,5.583836078643799,4.13671875,0,"['F2', 'B2', 'A1']",0,None,0,0.13195918758580913,[17200|0|0]
17200,0.6516773104667664,0.3847285509109497,-0.026506436988711357,-0.7787418961524963,0.7510392069816589,5.594965934753418,4.1328125,0,"['F2', 'B2', 'A1']",0,None,0,0.13236643670832093,[17300|0|0]
17300,0.651918351650238,0.38466495275497437,-0.026423467323184013,-0.7632930874824524,0.7582140564918518,5.569599151611328,4.1328125,0,"['F2', 'B2', 'A1']",0,None,0,0.13262917144711772,[17400|0|0]
17400,0.6517757773399353,0.38486552238464355,-0.02697754092514515,-0.7547451257705688,0.7606371641159058,5.571172714233398,4.1328125,0,"['F2', 'B2', 'A1']",0,None,0,0.13323543307933117,[17500|0|0]
17500,0.6518216133117676,0.38445189595222473,-0.02636745385825634,-0.7453049421310425,0.764079213142395,5.555683612823486,4.13671875,0,"['F2', 'B2', 'A1']",0,None,0,0.13397394102857363,[17600|0|0]
17600,0.6518328785896301,0.38449573516845703,-0.026358846575021744,-0.7447160482406616,0.7636510729789734,5.582027912139893,4.1328125,0,"['F2', 'B2', 'A1']",0,None,0,0.1340200156277565,[17700|0|0]
17700,0.6515301465988159,0.3847082853317261,-0.026556916534900665,-0.7451367974281311,0.7688726782798767,5.596996784210205,4.1328125,0,"['F2', 'B2', 'A1']",0,None,0,0.13443960583161554,[17800|0|0]
17800,0.6516463756561279,0.38484954833984375,-0.02660496160387993,-0.743495762348175,0.7647431492805481,5.597729206085205,4.1328125,0,"['F2', 'B2', 'A1']",0,None,0,0.13462874271294575,[17900|0|0]
17900,0.6516874432563782,0.3846805691719055,-0.02657465636730194,-0.748774528503418,0.7717190980911255,5.59907865524292,4.1328125,0,"['F2', 'B2', 'A1']",0,None,0,0.13480526159111877,[18000|0|0]
18000,0.6520732045173645,0.384759783744812,-0.02683340758085251,-0.7478013038635254,0.7654517889022827,5.593148231506348,4.1328125,0,"['F2', 'B2', 'A1']",0,None,0,0.13527647161812628,[18100|0|0]
18100,0.6519473195075989,0.38462257385253906,-0.026409216225147247,-0.7471867799758911,0.7679062485694885,5.615413188934326,4.1328125,0,"['F2', 'B2', 'A1']",0,None,0,0.13573973385107466,[18200|0|0]
18200,0.6520150303840637,0.3844369351863861,-0.026805387809872627,-0.7404060959815979,0.7663134336471558,5.602994918823242,4.1328125,0,"['F2', 'B2', 'A1']",0,None,0,0.13618245091840606,[18300|0|0]
18300,0.6517972946166992,0.3848055899143219,-0.026518749073147774,-0.7538160085678101,0.771844744682312,5.59718656539917,4.1328125,0,"['F2', 'B2', 'A1']",0,None,0,0.13669769546055127,[18400|0|0]
18400,0.6517990827560425,0.38457539677619934,-0.026838188990950584,-0.7534369230270386,0.7782307267189026,5.5869059562683105,4.1328125,0,"['F2', 'B2', 'A1']",0,None,0,0.13709143895493167,[18500|0|0]
18500,0.6520880460739136,0.3845745623111725,-0.026255499571561813,-0.7564795613288879,0.7725875973701477,5.590667724609375,4.1328125,0,"['F2', 'B2', 'A1']",0,None,0,0.1377418445628984,[18600|0|0]
18600,0.6519637107849121,0.38451531529426575,-0.026301078498363495,-0.7546502947807312,0.7744579911231995,5.580988883972168,4.1328125,0,"['F2', 'B2', 'A1']",0,None,0,0.13788692010071169,[18700|0|0]
18700,0.6518029570579529,0.38455209136009216,-0.02695656381547451,-0.7504236698150635,0.7752459049224854,5.5908074378967285,4.1328125,0,"['F2', 'B2', 'A1']",0,None,0,0.13856283077579906,[18800|0|0]
18800,0.6519548296928406,0.38449329137802124,-0.026666240766644478,-0.7545937299728394,0.7652727365493774,5.57793664932251,4.1328125,0,"['F2', 'B2', 'A1']",0,None,0,0.13889571244817114,[18900|0|0]
18900,0.6518023610115051,0.38455256819725037,-0.026539422571659088,-0.7565555572509766,0.7677410244941711,5.590791702270508,4.1328125,0,"['F2', 'B2', 'A1']",0,None,0,0.13910269866671104,[19000|0|0]
19000,0.6517132520675659,0.3845546245574951,-0.02653973363339901,-0.7438168525695801,0.7829053401947021,5.591861724853516,4.1328125,0,"['F2', 'B2', 'A1']",0,None,0,0.13919183187750714,[19100|0|0]
19100,0.6517013311386108,0.38460856676101685,-0.02648691087961197,-0.7585577368736267,0.7761091589927673,5.576608180999756,4.1328125,0,"['F2', 'B2', 'A1']",0,None,0,0.13926826559510336,[19200|0|0]
19200,0.651608943939209,0.3843814730644226,-0.02670128084719181,-0.7646375298500061,0.7715188264846802,5.599270343780518,4.1328125,0,"['F2', 'B2', 'A1']",0,None,0,0.1395939363255142,[19300|0|0]
19300,0.6516972184181213,0.38441336154937744,-0.02690124697983265,-0.7745875120162964,0.7631511092185974,5.59893798828125,4.1328125,0,"['F2', 'B2', 'A1']",0,None,0,0.13981483384316276,[19400|0|0]
19400,0.65175461769104,0.38464871048927307,-0.026436980813741684,-0.7799180150032043,0.7591286301612854,5.62971830368042,4.1328125,0,"['F2', 'B2', 'A1']",0,None,0,0.14033850060076572,[19500|0|0]
19500,0.6519412398338318,0.38465359807014465,-0.026698259636759758,-0.7817375063896179,0.7458198666572571,5.6338934898376465,4.1328125,0,"['F2', 'B2', 'A1']",0,None,0,0.14065962103920693,[19600|0|0]
19600,0.6516640782356262,0.3843281865119934,-0.026344090700149536,-0.7768254280090332,0.7535378336906433,5.610243320465088,4.1328125,0,"['F2', 'B2', 'A1']",0,None,0,0.14121473082056366,[19700|0|0]
19700,0.6518122553825378,0.38444578647613525,-0.02679658681154251,-0.7810932397842407,0.7521454095840454,5.603025436401367,4.13671875,0,"['F2', 'B2', 'A1']",0,None,0,0.14170517852344217,[19800|0|0]
19800,0.6516035199165344,0.38463452458381653,-0.026423858478665352,-0.7897122502326965,0.7574623823165894,5.600247859954834,4.1328125,0,"['F2', 'B2', 'A1']",0,None,0,0.14217221061890045,[19900|0|0]
19900,0.651779055595398,0.3842181861400604,-0.026801547035574913,-0.776650071144104,0.7460299134254456,5.622206211090088,4.1328125,0,"['F2', 'B2', 'A1']",0,None,0,0.1427611071465891,[20000|0|0]
20000,0.6515554189682007,0.38466137647628784,-0.026759685948491096,-0.7638171911239624,0.7711179852485657,5.644617080688477,4.13671875,0,"['F2', 'B2', 'A1']",0,None,0,0.1432592872001454,[20100|0|0]
20100,0.651505172252655,0.3846524953842163,-0.02675715647637844,-0.7546414136886597,0.7730647325515747,5.650622367858887,4.1328125,0,"['F2', 'B2', 'A1']",0,None,0,0.1433103754027824,[20200|0|0]
20200,0.6520000100135803,0.38455045223236084,-0.02631761133670807,-0.7425148487091064,0.7736150026321411,5.647483825683594,4.1328125,0,"['F2', 'B2', 'A1']",0,None,0,0.14398005976446782,[20300|0|0]
20300,0.6518275737762451,0.3848176598548889,-0.02678789384663105,-0.74070805311203,0.7918441295623779,5.642502307891846,4.1328125,0,"['F2', 'B2', 'A1']",0,None,0,0.14454777431300686,[20400|0|0]
20400,0.6519606709480286,0.38464367389678955,-0.02676592580974102,-0.7388414740562439,0.7964053153991699,5.649680137634277,4.1328125,0,"['F2', 'B2', 'A1']",0,None,0,0.1447679300883054,[20500|0|0]
20500,0.6519038081169128,0.3845873773097992,-0.02641219086945057,-0.742484450340271,0.7904245257377625,5.6406474113464355,4.1328125,0,"['F2', 'B2', 'A1']",0,None,0,0.14513060224777116,[20600|0|0]
20600,0.6519742012023926,0.3845727741718292,-0.026435580104589462,-0.7477388381958008,0.7846164107322693,5.644350528717041,4.1328125,0,"['F2', 'B2', 'A1']",0,None,0,0.14520620313693464,[20700|0|0]
20700,0.6521759629249573,0.38419702649116516,-0.026380347087979317,-0.7483431696891785,0.7749453186988831,5.635969638824463,4.1328125,0,"['F2', 'B2', 'A1']",0,None,0,0.14563625522487347,[20800|0|0]
20800,0.6519260406494141,0.38458359241485596,-0.026506436988711357,-0.7646715044975281,0.778303325176239,5.6152143478393555,4.1328125,0,"['F2', 'B2', 'A1']",0,None,0,0.1461135318954098,[20900|0|0]
20900,0.6519599556922913,0.38475489616394043,-0.026338301599025726,-0.8176617622375488,0.7376569509506226,5.595105171203613,4.1328125,0,"['F2', 'B2', 'A1']",0,None,0,0.14635594623873233,[21000|0|0]
21000,0.6515993475914001,0.38450995087623596,-0.026471659541130066,-0.8034077882766724,0.7583933472633362,5.578999042510986,4.1328125,0,"['F2', 'B2', 'A1']",0,None,0,0.1468118198364754,[21100|0|0]
21100,0.6518733501434326,0.3843758702278137,-0.026542680338025093,-0.787378191947937,0.7560940384864807,5.579700946807861,4.1328125,0,"['F2', 'B2', 'A1']",0,None,0,0.14712502739129046,[21200|0|0]
21200,0.6518961787223816,0.38466212153434753,-0.02660490944981575,-0.7851820588111877,0.7546951174736023,5.570812702178955,4.1328125,0,"['F2', 'B2', 'A1']",0,None,0,0.14741885287838,[21300|0|0]
21300,0.6519479751586914,0.3845410645008087,-0.02661147341132164,-0.7735986113548279,0.7636299133300781,5.564724445343018,4.1328125,0,"['F2', 'B2', 'A1']",0,None,0,0.14755068899548857,[21400|0|0]
21400,0.6516143679618835,0.38456183671951294,-0.026543093845248222,-0.7724243998527527,0.7669070959091187,5.5733208656311035,4.1328125,0,"['F2', 'B2', 'A1']",0,None,0,0.14789186492061854,[21500|0|0]
21500,0.6517422199249268,0.38463351130485535,-0.02653449960052967,-0.7739372253417969,0.7573112845420837,5.602325439453125,4.1328125,0,"['F2', 'B2', 'A1']",0,None,0,0.14803868873231232,[21600|0|0]
21600,0.6517136096954346,0.3848085105419159,-0.026603586971759796,-0.7730271220207214,0.7595817446708679,5.600714683532715,4.1328125,0,"['F2', 'B2', 'A1']",0,None,0,0.14822899465199654,[21700|0|0]
21700,0.6519757509231567,0.3846874237060547,-0.02700527012348175,-0.7682828307151794,0.7506172060966492,5.571602821350098,4.1328125,0,"['F2', 'B2', 'A1']",0,None,0,0.14872369597549168,[21800|0|0]
21800,0.6518987417221069,0.38455265760421753,-0.026201052591204643,-0.7637261748313904,0.7570759654045105,5.572390556335449,4.1328125,0,"['F2', 'B2', 'A1']",0,None,0,0.14954275528865074,[21900|0|0]
21900,0.6518735289573669,0.38453689217567444,-0.026630636304616928,-0.7644332051277161,0.7547175884246826,5.561419486999512,4.1328125,0,"['F2', 'B2', 'A1']",0,None,0,0.1499733669455669,[22000|0|0]
22000,0.6517427563667297,0.38427266478538513,-0.026807773858308792,-0.768281102180481,0.7605464458465576,5.576050758361816,4.1328125,0,"['F2', 'B2', 'A1']",0,None,0,0.1503173077793872,[22100|0|0]
22100,0.6517568826675415,0.38439175486564636,-0.026575399562716484,-0.7765328884124756,0.7627362012863159,5.5838189125061035,4.1328125,0,"['F2', 'B2', 'A1']",0,None,0,0.15057880311939018,[22200|0|0]
22200,0.651771605014801,0.384756475687027,-0.026545800268650055,-0.7878875732421875,0.7498565316200256,5.578283786773682,4.1328125,0,"['F2', 'B2', 'A1']",0,None,0,0.15094501909837882,[22300|0|0]
22300,0.6518567204475403,0.38423952460289,-0.026854228228330612,-0.7762919664382935,0.7446564435958862,5.599941253662109,4.1328125,0,"['F2', 'B2', 'A1']",0,None,0,0.15155297540157295,[22400|0|0]
22400,0.6519840359687805,0.3844026029109955,-0.026718243956565857,-0.774785041809082,0.7401589155197144,5.584425926208496,4.1328125,0,"['F2', 'B2', 'A1']",0,None,0,0.15180055467916015,[22500|0|0]
22500,0.6517255306243896,0.38444435596466064,-0.02654946781694889,-0.778632640838623,0.7541142106056213,5.5881500244140625,4.1328125,0,"['F2', 'B2', 'A1']",0,None,0,0.15211208913290966,[22600|0|0]
22600,0.6517223119735718,0.38442978262901306,-0.027039840817451477,-0.785148024559021,0.7545222043991089,5.584539890289307,4.1328125,0,"['F2', 'B2', 'A1']",0,None,0,0.15260268919553388,[22700|0|0]
22700,0.6517335772514343,0.3847809433937073,-0.026620391756296158,-0.792016863822937,0.753044843673706,5.592981338500977,4.1328125,0,"['F2', 'B2', 'A1']",0,None,0,0.1531498439305495,[22800|0|0]
22800,0.6515920162200928,0.38429686427116394,-0.02639017626643181,-0.7752330303192139,0.7631406188011169,5.597761154174805,4.1328125,0,"['F2', 'B2', 'A1']",0,None,0,0.15370425469365778,[22900|0|0]
22900,0.6519410610198975,0.38446465134620667,-0.026613114401698112,-0.7783522605895996,0.7558176517486572,5.604576110839844,4.1328125,0,"['F2', 'B2', 'A1']",0,None,0,0.154151117297797,[23000|0|0]
23000,0.652010440826416,0.38463112711906433,-0.026770245283842087,-0.7813867926597595,0.7603721618652344,5.602120399475098,4.1328125,0,"['F2', 'B2', 'A1']",0,None,0,0.15439031983671425,[23100|0|0]
23100,0.6515018343925476,0.38478636741638184,-0.02662842534482479,-0.7873222231864929,0.7802677154541016,5.593540191650391,4.1328125,0,"['F2', 'B2', 'A1']",0,None,0,0.15494067694767624,[23200|0|0]
23200,0.6517209410667419,0.38474521040916443,-0.026559121906757355,-0.7854489684104919,0.7746779322624207,5.5763959884643555,4.1328125,0,"['F2', 'B2', 'A1']",0,None,0,0.15517413915114303,[23300|0|0]
23300,0.6516605615615845,0.38465994596481323,-0.0267515629529953,-0.7796306014060974,0.7753597497940063,5.582062721252441,4.1328125,0,"['F2', 'B2', 'A1']",0,None,0,0.1553931123604421,[23400|0|0]
23400,0.6517830491065979,0.38422030210494995,-0.026372404769062996,-0.764644205570221,0.779130756855011,5.593895435333252,4.1328125,0,"['F2', 'B2', 'A1']",0,None,0,0.15598645109223175,[23500|0|0]
23500,0.6517536044120789,0.38463541865348816,-0.026591382920742035,-0.7740591168403625,0.7712470889091492,5.596659183502197,4.1328125,0,"['F2', 'B2', 'A1']",0,None,0,0.15645670652262927,[23600|0|0]
23600,0.6517825722694397,0.38486382365226746,-0.026566464453935623,-0.7807233333587646,0.771182656288147,5.618390083312988,4.1328125,0,"['F2', 'B2', 'A1']",0,None,0,0.15668828568882398,[23700|0|0]
23700,0.6518888473510742,0.38447314500808716,-0.026615943759679794,-0.7742543816566467,0.7713621258735657,5.595867156982422,4.1328125,0,"['F2', 'B2', 'A1']",0,None,0,0.15709617341564583,[23800|0|0]
23800,0.6519694328308105,0.384367972612381,-0.026656920090317726,-0.7494187951087952,0.7949659824371338,5.608084201812744,4.1328125,0,"['F2', 'B2', 'A1']",0,None,0,0.15723486123787786,[23900|0|0]
23900,0.6519789099693298,0.38462033867836,-0.026716323569417,-0.7435548901557922,0.7945519685745239,5.608814239501953,4.1328125,0,"['F2', 'B2', 'A1']",0,None,0,0.15749429758988223,[24000|0|0]
24000,0.6520404815673828,0.38450729846954346,-0.02648080885410309,-0.7317632436752319,0.8009151816368103,5.602745532989502,4.1328125,0,"['F2', 'B2', 'A1']",0,None,0,0.1577626934386308,[24100|0|0]
24100,0.6521168947219849,0.384719580411911,-0.026841554790735245,-0.7292510867118835,0.8086715936660767,5.60139274597168,4.1328125,0,"['F2', 'B2', 'A1']",0,None,0,0.15818818165709073,[24200|0|0]
24200,0.6520097255706787,0.38438060879707336,-0.026899700984358788,-0.7142897844314575,0.8066940307617188,5.599008560180664,4.1328125,0,"['F2', 'B2', 'A1']",0,None,0,0.15854841486279259,[24300|0|0]
24300,0.6518654227256775,0.38459309935569763,-0.026920583099126816,-0.7197579145431519,0.8107288479804993,5.599238395690918,4.1328125,0,"['F2', 'B2', 'A1']",0,None,0,0.15880611936662806,[24400|0|0]
24400,0.6519386172294617,0.3844633400440216,-0.026674557477235794,-0.7151397466659546,0.8073872327804565,5.592912673950195,4.1328125,0,"['F2', 'B2', 'A1']",0,None,0,0.15909373633583834,[24500|0|0]
24500,0.6521483063697815,0.384524405002594,-0.026314597576856613,-0.719494104385376,0.798480749130249,5.575157165527344,4.1328125,0,"['F2', 'B2', 'A1']",0,None,0,0.1595147702948185,[24600|0|0]
24600,0.6518980860710144,0.3846292793750763,-0.026757391169667244,-0.7256826162338257,0.8058735132217407,5.569159030914307,4.1328125,0,"['F2', 'B2', 'A1']",0,None,0,0.160034072709364,[24700|0|0]
24700,0.6516657471656799,0.3847062587738037,-0.02671337127685547,-0.7252756357192993,0.8094916343688965,5.565804958343506,4.1328125,0,"['F2', 'B2', 'A1']",0,None,0,0.1602827591499345,[24800|0|0]
24800,0.6517473459243774,0.3843086063861847,-0.02652694657444954,-0.7180769443511963,0.8079131245613098,5.587593078613281,4.1328125,0,"['F2', 'B2', 'A1']",0,None,0,0.1607294580960573,[24900|0|0]
24900,0.652153730392456,0.3845829665660858,-0.026629509404301643,-0.7262662053108215,0.7961624264717102,5.589383125305176,4.1328125,0,"['F2', 'B2', 'A1']",0,None,0,0.16123039819055782,[25000|0|0]
25000,0.6522199511528015,0.3843880891799927,-0.026825539767742157,-0.7257676720619202,0.7916561961174011,5.572866916656494,4.1328125,0,"['F2', 'B2', 'A1']",0,None,0,0.16151463451494624,[25100|0|0]
25100,0.6519757509231567,0.3849538564682007,-0.026520879939198494,-0.8137208223342896,0.7450737953186035,5.549050331115723,4.1328125,0,"['F2', 'B2', 'A1']",0,None,0,0.16220205286478356,[25200|0|0]
25200,0.6520511507987976,0.3843841254711151,-0.02653534524142742,-0.7813636064529419,0.755581796169281,5.549862861633301,4.1328125,0,"['F2', 'B2', 'A1']",0,None,0,0.16277693354392955,[25300|0|0]
25300,0.6519863605499268,0.38439688086509705,-0.026661112904548645,-0.7744690775871277,0.766798198223114,5.557399272918701,4.1328125,0,"['F2', 'B2', 'A1']",0,None,0,0.16291898276607228,[25400|0|0]
25400,0.6519663333892822,0.3845822513103485,-0.026741711422801018,-0.7651807069778442,0.7724534273147583,5.572192668914795,4.1328125,0,"['F2', 'B2', 'A1']",0,None,0,0.1631221068913767,[25500|0|0]
25500,0.6518230438232422,0.3848370611667633,-0.026744261384010315,-0.7691916227340698,0.7771504521369934,5.587398529052734,4.1328125,0,"['F2', 'B2', 'A1']",0,None,0,0.1634144533723958,[25600|0|0]
25600,0.6517640948295593,0.3844384551048279,-0.026419391855597496,-0.7587231993675232,0.7785725593566895,5.596972465515137,4.1328125,0,"['F2', 'B2', 'A1']",0,None,0,0.1639320458636078,[25700|0|0]
25700,0.6519162654876709,0.3845784366130829,-0.026915980502963066,-0.754483699798584,0.7741450667381287,5.589566707611084,4.1328125,0,"['F2', 'B2', 'A1']",0,None,0,0.16446995944080753,[25800|0|0]
25800,0.6520283818244934,0.38431763648986816,-0.026414338499307632,-0.7521042227745056,0.7728316187858582,5.5926127433776855,4.1328125,0,"['C1', 'B2', 'A/E1']",0,None,0,0.16504635468461404,[25800|0|0]
25900,0.6546202898025513,0.3892323076725006,-0.02391641028225422,-0.8872134685516357,0.6439828276634216,5.630363464355469,3.240234375,0,"['C1', 'B2', 'A/E1']",0,None,0,0.17113828583800617,[25800|0|0]
26000,0.6538805961608887,0.38952234387397766,-0.020866891369223595,-0.05392137169837952,-0.2957598567008972,7.004868507385254,3.57421875,0,"['C1', 'B2', 'A/E1']",0,None,0,0.17428960830367274,[25800|0|0]
26100,0.6539064645767212,0.38964778184890747,0.012914717197418213,2.2210960388183594,-2.469435214996338,11.281249046325684,3.716796875,0,"['C1', 'B2', 'A/E1']",0,None,0,0.2080714596622099,[25800|0|0]
26200,0.6620003581047058,0.3855670392513275,0.07340055704116821,5.379647731781006,-4.027587890625,15.025382041931152,3.75390625,0,"['C1', 'B2', 'A/E1']",0,None,0,0.26923272513467894,[25800|0|0]
26300,0.6770085096359253,0.37522491812705994,0.1440691500902176,1.6543205976486206,-0.13429886102676392,15.471091270446777,3.748046875,0,"['C1', 'B2', 'A/E1']",0,None,0,0.34221391535013934,[25800|0|0]
26400,0.6930884718894958,0.35835596919059753,0.2291470617055893,-1.593119502067566,3.4568700790405273,14.574801445007324,3.7421875,0,"['C1', 'B2', 'A/E1']",0,None,0,0.43042603282347874,[25800|0|0]
26500,0.7002279162406921,0.3521192669868469,0.3087491989135742,-2.4346885681152344,3.2331316471099854,13.529998779296875,3.748046875,0,"['C1', 'B2', 'A/E1']",0,None,0,0.5105906657241598,[25800|0|0]
26600,0.7012071013450623,0.344388484954834,0.3994249105453491,-2.538729429244995,2.932497501373291,12.380828857421875,3.75390625,0,"['C1', 'B2', 'A/E1']",0,None,0,0.6016006018532656,[25800|0|0]
26700,0.6957474946975708,0.3403620719909668,0.49277645349502563,-2.009996175765991,1.945418357849121,11.218450546264648,3.748046875,0,"['C1', 'B2', 'A/E1']",0,None,0,0.6951983041604602,[25800|0|0]
26800,0.6874707937240601,0.33920973539352417,0.5874865055084229,-0.9594144225120544,0.6388074159622192,10.385912895202637,3.748046875,0,"['C1', 'B2', 'A/E1']",0,None,0,0.7902763016731295,[25800|0|0]
26900,0.6772204637527466,0.3399396240711212,0.6841173768043518,-0.2851640582084656,-0.4519028961658478,9.939789772033691,3.748046875,0,"['C1', 'B2', 'A/E1']",0,None,0,0.8874520563108624,[25800|0|0]
27000,0.6704958081245422,0.3404178023338318,0.7815822958946228,0.5184487104415894,-1.5121655464172363,9.318411827087402,3.748046875,0,"['C1', 'B2', 'A/E1']",0,None,0,0.9851498561890681,[25800|0|0]
27100,0.6663187742233276,0.34093624353408813,0.8795316815376282,0.26712557673454285,-1.7061125040054321,8.521322250366211,3.748046875,0,"['C1', 'B2', 'A/E1']",0,None,0,1.0831896365913734,[25800|0|0]
27200,0.6653875112533569,0.3410893976688385,0.977073609828949,0.36362120509147644,-1.230568289756775,8.027689933776855,3.7421875,0,"['C1', 'B2', 'A/E1']",0,None,0,1.1807361305401431,[25800|0|0]
27301,0.6658626198768616,0.3421570658683777,1.076588749885559,0.3131426274776459,-0.8198703527450562,7.442171096801758,3.736328125,0,"['C1', 'B2', 'A/E1']",0,None,0,1.2802581318467645,[25800|0|0]
27401,0.6672700047492981,0.3432273268699646,1.1772841215133667,-0.19982820749282837,-0.5730758309364319,7.158895492553711,3.7421875,0,"['C1', 'B2', 'A/E1']",0,None,0,1.380969025289594,[25800|0|0]
27501,0.6686784625053406,0.3456990718841553,1.2784518003463745,-0.2961583137512207,-0.08687560260295868,7.002791881561279,3.736328125,0,"['C1', 'B2', 'A/E1']",0,None,0,1.4821766955380706,[25800|0|0]
27601,0.6708784103393555,0.3490544259548187,1.3818609714508057,-0.2961518466472626,0.021835455670952797,6.803792476654053,3.736328125,0,"['C1', 'B2', 'A/E1']",0,None,0,1.585663674621999,[25800|0|0]
27701,0.6729552149772644,0.3552481234073639,1.4874237775802612,-0.16483739018440247,0.33889564871788025,6.703863143920898,3.78515625,0,"['C1', 'B2', 'A/E1']",0,None,0,1.6914284184810124,[25800|0|0]
27802,0.6801881790161133,0.3629295825958252,1.6053177118301392,0.01914903149008751,0.4287143349647522,7.628103256225586,3.81640625,0,"['C1', 'B2', 'A/E1']",0,None,0,1.8097935329234267,[25800|0|0]
27902,0.6763750910758972,0.36715877056121826,1.681322693824768,0.5406711101531982,1.8346387147903442,10.499401092529297,3.826171875,0,"['C1', 'B2', 'A/E1']",0,None,0,1.8860115292136095,[25800|0|0]
28000,0.6705578565597534,0.37300625443458557,1.7534267902374268,1.225193738937378,0.6626999974250793,13.4634428024292,3.810546875,0,"['C1', 'B2', 'A/E1']",0,None,0,1.9585858635512463,[25800|0|0]
28100,0.6672930717468262,0.3743901252746582,1.8090306520462036,1.8683849573135376,0.27627265453338623,13.980901718139648,3.810546875,0,"['C1', 'B2', 'A/E1']",0,None,0,2.01430267758818,[25800|0|0]
28200,0.6641684770584106,0.3751189708709717,1.8476396799087524,1.6531981229782104,-0.2847941517829895,13.567362785339355,3.80078125,0,"['C1', 'B2', 'A/E1']",0,None,0,2.053044790854769,[25800|0|0]
28300,0.6593393087387085,0.37116754055023193,1.8719258308410645,1.4668031930923462,-0.24872663617134094,11.936328887939453,3.78515625,0,"['C1', 'B2', 'A/E1']",0,None,0,2.078119714490679,[25800|0|0]
28402,0.6546959280967712,0.36966651678085327,1.8856585025787354,0.6650908589363098,-0.5343405604362488,10.562542915344238,3.779296875,0,"['C1', 'B2', 'A/E1']",0,None,0,2.0926936751464784,[25800|0|0]
28500,0.6498109698295593,0.3656918406486511,1.8902686834335327,0.14530867338180542,-0.801969051361084,6.951459884643555,3.763671875,0,"['C1', 'B2', 'A/E1']",0,None,0,2.1004984579840875,[25800|0|0]
28600,0.6492652893066406,0.360601007938385,1.889302134513855,-0.40347716212272644,-0.9427639245986938,-1.3914527893066406,3.7578125,0,"['C1', 'B2', 'A/E1']",0,None,0,2.105708886155662,[25800|0|0]
28701,0.645031750202179,0.3603503108024597,1.8857938051223755,-0.62982177734375,-0.6758133769035339,-4.530334949493408,3.763671875,0,"['C1', 'B2', 'A/E1']",0,None,0,2.1112128917445117,[25800|0|0]
28800,0.6449961066246033,0.3561025559902191,1.876852035522461,-0.02900230884552002,-0.6389327645301819,-6.128960609436035,3.763671875,0,"['C1', 'B2', 'A/E1']",0,None,0,2.121112383397495,[25800|0|0]
28900,0.6471551060676575,0.35747894644737244,1.8742618560791016,-0.7404280304908752,-2.0551154613494873,-5.89946985244751,3.943359375,0,"['C1', 'B2', 'A/E1']",0,None,WindDirection.NONE,2.124754465059739,[25800|0|0]
29000,0.6572073101997375,0.35837623476982117,1.8504515886306763,-7.54519510269165,-16.17875099182129,-4.083743095397949,3.916015625,0,"['C1', 'B2', 'A/E1']",0,None,WindDirection.NONE,2.1506152610686042,[25800|0|0]
29100,0.6791440844535828,0.3615618050098419,1.7778199911117554,-3.170267105102539,-16.047203063964844,-1.0576226711273193,3.822265625,0,"['C1', 'B2', 'A/E1']",0,None,WindDirection.NONE,2.226554176524178,[25800|0|0]
29200,0.7156725525856018,0.368524968624115,1.6703944206237793,-4.7219672203063965,-18.34147071838379,0.0546727180480957,3.7421875,0,"['C1', 'B2', 'A/E1']",0,None,WindDirection.NONE,2.3402338485251923,[25800|0|0]
29300,0.7720508575439453,0.38466107845306396,1.543618083000183,-1.6558881998062134,-13.537221908569336,1.5895859003067017,3.66796875,0,"['C1', 'B2', 'A/E1']",0,None,WindDirection.NONE,2.4799160846600707,[25800|0|0]
29400,0.8503935933113098,0.402678906917572,1.418718695640564,-1.2272419929504395,-6.8633880615234375,11.107691764831543,3.6796875,0,"['C1', 'B2', 'A/E1']",0,None,WindDirection.NONE,2.6284491899023017,[25800|0|0]
29500,0.9427340626716614,0.4114011228084564,1.3075677156448364,-4.122722625732422,2.612056255340576,10.683513641357422,3.705078125,0,"['C1', 'B2', 'A/E1']",0,None,WindDirection.NONE,2.7732158286204394,[25800|0|0]
29600,1.0291608572006226,0.43770891427993774,1.2198216915130615,-5.815968990325928,9.219121932983398,13.602737426757812,3.701171875,0,"['C1', 'B2', 'A/E1']",0,None,WindDirection.NONE,2.8991565109101276,[25800|0|0]
29700,1.0966030359268188,0.4712437689304352,1.1418778896331787,-4.734701633453369,11.233089447021484,15.7376070022583,3.68359375,0,"['C1', 'B2', 'A/E1']",0,None,WindDirection.NONE,3.007545948583992,[25800|0|0]
29800,1.1423227787017822,0.5081357955932617,1.0745251178741455,-1.2719378471374512,10.140132904052734,17.24357795715332,3.6796875,0,"['C1', 'B2', 'A/E1']",0,None,WindDirection.NONE,3.0969199513718495,[25800|0|0]
29900,1.1707082986831665,0.5425283908843994,1.0194638967514038,2.5044467449188232,7.410013675689697,18.456180572509766,3.673828125,0,"['C1', 'B2', 'A/E1']",0,None,WindDirection.NONE,3.1677742132549644,[25800|0|0]
30000,1.1892421245574951,0.5669015049934387,0.9809165596961975,5.937722682952881,4.411803245544434,19.21381378173828,3.673828125,0,"['C1', 'B2', 'A/E1']",0,None,WindDirection.NONE,3.2170027475309295,[25800|0|0]
