time.ms,stateEstimate.x,stateEstimate.y,stateEstimate.z,stabilizer.roll,stabilizer.pitch,stabilizer.yaw,pm.vbat,drone_id,node_name,wind_speed,global_wind_direction,relative_wind_direction,travel_dist,waiting_time
0,1.5238327980041504,1.1056358814239502,-0.05507640913128853,-6.736499309539795,-5.960188388824463,9.01428508758545,4.05859375,0,A1,7.6,90,0,0.1669016494133397,[100|0|0|0]
100,1.8007920980453491,1.2514934539794922,-0.022014791145920753,-2.309282064437866,-3.694225549697876,4.954049110412598,4.05859375,0,A1,7.6,90,0,0.4816618056194839,[200|0|0|0]
200,1.7301304340362549,1.1928489208221436,-0.040299635380506516,6.468770980834961,12.510963439941406,3.575319290161133,4.05859375,0,A1,7.6,90,0,0.5752918625374446,[300|0|0|0]
300,1.7150795459747314,1.184543490409851,-0.04153301194310188,10.668146133422852,18.96364402770996,1.2004668712615967,4.05859375,0,A1,7.6,90,0,0.592526438932561,[400|0|0|0]
400,1.6698085069656372,1.1692488193511963,-0.0430680587887764,11.809797286987305,20.46498680114746,-0.10986904054880142,4.05859375,0,A1,7.6,90,0,0.6403359599987022,[500|0|0|0]
500,1.664185881614685,1.1658598184585571,-0.04236849397420883,11.387514114379883,17.951557159423828,-0.32124897837638855,4.06640625,0,A1,7.6,90,0,0.6469381288709183,[600|0|0|0]
600,1.6621735095977783,1.1642253398895264,-0.0425301119685173,10.185199737548828,15.058209419250488,-0.25632715225219727,4.05859375,0,A1,7.6,90,0,0.6495356818931172,[700|0|0|0]
700,1.6632792949676514,1.1636323928833008,-0.04262816905975342,8.786462783813477,12.449238777160645,-0.047012295573949814,4.05859375,0,A1,7.6,90,0,0.6507942376644514,[800|0|0|0]
800,1.6640912294387817,1.1633434295654297,-0.04309258610010147,7.472622871398926,10.30111312866211,0.11615660786628723,4.05859375,0,A1,7.6,90,0,0.6517732272312244,[900|0|0|0]
900,1.665608525276184,1.1641132831573486,-0.04258178547024727,6.254915714263916,8.525541305541992,0.2812175750732422,4.05859375,0,A1,7.6,90,0,0.6535496783267091,[1000|0|0|0]
1000,1.6668592691421509,1.1643753051757812,-0.04275737702846527,5.212556838989258,7.065648078918457,0.378164142370224,4.05859375,0,A1,7.6,90,0,0.6548395807074009,[1100|0|0|0]
1100,1.6684906482696533,1.16490638256073,-0.042648959904909134,4.306607246398926,5.85027551651001,0.5162226557731628,4.05859375,0,A1,7.6,90,0,0.6565586488617028,[1200|0|0|0]
1200,1.6695722341537476,1.1654841899871826,-0.04237049072980881,3.5375730991363525,4.855838775634766,0.6211896538734436,4.06640625,0,A1,7.6,90,0,0.6578161203437718,[1300|0|0|0]
1300,1.6708990335464478,1.1660734415054321,-0.041878797113895416,2.86903715133667,4.025060176849365,0.8303173780441284,4.05859375,0,A1,7.6,90,0,0.6593488879687427,[1400|0|0|0]
1400,1.6720741987228394,1.1663740873336792,-0.04205942153930664,2.309959650039673,3.331800937652588,0.9594942331314087,4.05859375,0,A1,7.6,90,0,0.660575275464154,[1500|0|0|0]
1500,1.67302405834198,1.1670081615447998,-0.04172429442405701,1.8350164890289307,2.7702927589416504,1.1032812595367432,4.05859375,0,A1,7.6,90,0,0.6617654828345974,[1600|0|0|0]
1600,1.6737972497940063,1.1675533056259155,-0.04181908443570137,1.4377752542495728,2.2984135150909424,1.2639186382293701,4.05859375,0,A1,7.6,90,0,0.6627162678980947,[1700|0|0|0]
1700,1.6761857271194458,1.168876051902771,-0.041725970804691315,1.0990837812423706,1.9005166292190552,1.3644721508026123,4.05859375,0,A1,7.6,90,0,0.6654481448710481,[1800|0|0|0]
1800,1.676533818244934,1.1691066026687622,-0.041895851492881775,0.8281336426734924,1.611423134803772,1.43345046043396,4.05859375,0,A1,7.6,90,0,0.6658989003874457,[1900|0|0|0]
1900,1.6769378185272217,1.169033408164978,-0.04169950261712074,0.6052705645561218,1.3775286674499512,1.556847095489502,4.05859375,0,A1,7.6,90,0,0.6663540119611123,[2000|0|0|0]
2000,1.6770939826965332,1.1695611476898193,-0.04205124080181122,0.413952112197876,1.1884047985076904,1.60366690158844,4.05859375,0,A1,7.6,90,0,0.6670071704445035,[2100|0|0|0]
2100,1.6776447296142578,1.1696758270263672,-0.04178639501333237,0.27156510949134827,1.035618543624878,1.6993964910507202,4.05859375,0,A1,7.6,90,0,0.6676289556238776,[2200|0|0|0]
2200,1.6774461269378662,1.1694698333740234,-0.041690945625305176,0.16590504348278046,0.9327132105827332,1.7635962963104248,4.05859375,0,A1,7.6,90,0,0.6679305961277072,[2300|0|0|0]
2300,1.678083896636963,1.1697351932525635,-0.041565459221601486,0.07486481219530106,0.8285618424415588,1.8383560180664062,4.05859375,0,A1,7.6,90,0,0.668632673681642,[2400|0|0|0]
2400,1.677699327468872,1.1693484783172607,-0.04183577746152878,0.015274937264621258,0.7748199701309204,1.8985435962677002,4.05859375,0,A1,7.6,90,0,0.6692413721596011,[2500|0|0|0]
2500,1.678159475326538,1.1699333190917969,-0.04166654124855995,-0.055121034383773804,0.717919111251831,1.942934274673462,4.05859375,0,A1,7.6,90,0,0.6700045337927134,[2600|0|0|0]
2600,1.6779522895812988,1.1699962615966797,-0.04199180752038956,-0.09677089750766754,0.6898917555809021,1.9500950574874878,4.05859375,0,A1,7.6,90,0,0.6703952841472125,[2700|0|0|0]
2700,1.678066611289978,1.169954538345337,-0.041680268943309784,-0.12423668056726456,0.6651394963264465,1.9838463068008423,4.06640625,0,A1,7.6,90,0,0.6707297487459174,[2800|0|0|0]
2800,1.678242564201355,1.1700652837753296,-0.04201273247599602,-0.1422957181930542,0.649486780166626,1.9745417833328247,4.05859375,0,A1,7.6,90,0,0.6711218660470564,[2900|0|0|0]
2900,1.6781648397445679,1.1702077388763428,-0.041830942034721375,-0.15922975540161133,0.6421471834182739,1.9578938484191895,4.05859375,0,A1,7.6,90,0,0.6713655509081503,[3000|0|0|0]
3000,1.6780165433883667,1.169718623161316,-0.04190143570303917,-0.1518200933933258,0.6453123688697815,1.940941572189331,4.05859375,0,A1,7.6,90,0,0.6718814921346691,[3100|0|0|0]
3100,1.6781623363494873,1.1698813438415527,-0.041891489177942276,-0.16302703320980072,0.6334956884384155,1.9294339418411255,4.05859375,0,A1,7.6,90,0,0.6721001986518343,[3200|0|0|0]
3200,1.6783171892166138,1.1698698997497559,-0.04214685037732124,-0.16840164363384247,0.6257760524749756,1.9697952270507812,4.05859375,0,A1,7.6,90,0,0.6723990627009313,[3300|0|0|0]
3300,1.6783185005187988,1.1702404022216797,-0.04184979572892189,-0.18379658460617065,0.6205126643180847,1.961194396018982,4.05859375,0,A1,7.6,90,0,0.672873947176726,[3400|0|0|0]
3400,1.6785520315170288,1.170148491859436,-0.04209069535136223,-0.1882113218307495,0.6077718734741211,2.0055344104766846,4.05859375,0,A1,7.6,90,0,0.6732218219672957,[3500|0|0|0]
3500,1.6783170700073242,1.1701468229293823,-0.04185120761394501,-0.18926234543323517,0.6154866814613342,2.042182683944702,4.05859375,0,A1,7.6,90,0,0.6735573276643314,[3600|0|0|0]
3600,1.6788499355316162,1.1708004474639893,-0.040954865515232086,-0.20014294981956482,0.6052132248878479,2.037257194519043,4.05859375,0,A1,7.6,90,0,0.6747880184691821,[3700|0|0|0]
3700,1.6781960725784302,1.1698150634765625,-0.041920412331819534,-0.18866674602031708,0.6211411356925964,2.1102850437164307,4.05859375,0,A1,7.6,90,0,0.6763147139264519,[3800|0|0|0]
3800,1.6782333850860596,1.17001211643219,-0.04182174429297447,-0.19138289988040924,0.620271623134613,2.15374493598938,4.05859375,0,A1,7.6,90,0,0.67653822560945,[3900|0|0|0]
3900,1.678396224975586,1.170108675956726,-0.04158228635787964,-0.1924995332956314,0.6219037175178528,2.187185525894165,4.05859375,0,A1,7.6,90,0,0.6768434807061797,[4000|0|0|0]
4000,1.6783523559570312,1.1698511838912964,-0.04203082621097565,-0.1779990792274475,0.6174314022064209,2.1856274604797363,4.05859375,0,A1,7.6,90,0,0.6773625323937442,[4100|0|0|0]
4100,1.678433895111084,1.1698395013809204,-0.04172176122665405,-0.1747698038816452,0.6167904138565063,2.226318359375,4.05859375,0,A1,7.6,90,0,0.6776823859215129,[4200|0|0|0]
4200,1.678389549255371,1.1702011823654175,-0.041866499930620193,-0.18587861955165863,0.6251099705696106,2.261535882949829,4.05859375,0,A1,7.6,90,0,0.6780744687978177,[4300|0|0|0]
4300,1.6784594058990479,1.170087218284607,-0.041860152035951614,-0.17980970442295074,0.6258510947227478,2.30385422706604,4.05859375,0,A1,7.6,90,0,0.678208289790743,[4400|0|0|0]
4400,1.6782948970794678,1.1698157787322998,-0.04186786338686943,-0.166964590549469,0.6234620809555054,2.3371803760528564,4.05859375,0,A1,7.6,90,0,0.678525783172106,[4500|0|0|0]
4500,1.6780999898910522,1.1696902513504028,-0.0417025163769722,-0.15944434702396393,0.6227434277534485,2.3592519760131836,4.05859375,0,A1,7.6,90,0,0.6788105384519234,[4600|0|0|0]
4600,1.6783294677734375,1.1696786880493164,-0.04176417738199234,-0.1623564213514328,0.6205304861068726,2.382122039794922,4.05859375,0,A1,7.6,90,0,0.679048437354771,[4700|0|0|0]
4700,1.678256630897522,1.1702021360397339,-0.04228901118040085,-0.1796896606683731,0.6151962876319885,2.2877862453460693,4.05859375,0,A1,7.6,90,0,0.6797932551345784,[4800|0|0|0]
4800,1.6784353256225586,1.1700754165649414,-0.0417688712477684,-0.17335665225982666,0.6144273281097412,2.1589534282684326,4.05859375,0,A1,7.6,90,0,0.6803576443438716,[4900|0|0|0]
4900,1.6781526803970337,1.1697596311569214,-0.04141126945614815,-0.15786343812942505,0.6246520280838013,2.1055424213409424,4.05859375,0,A1,7.6,90,0,0.6809121601586149,[5000|0|0|0]
5000,1.678401231765747,1.1702170372009277,-0.04176078736782074,-0.17303656041622162,0.619295060634613,2.0290963649749756,4.05859375,0,A1,7.6,90,0,0.681539185550894,[5100|0|0|0]
5100,1.678596019744873,1.169846534729004,-0.041913487017154694,-0.15987931191921234,0.6175021529197693,2.0102169513702393,4.05859375,0,A1,7.6,90,0,0.6819847544248298,[5200|0|0|0]
5200,1.6783052682876587,1.1696618795394897,-0.04202039912343025,-0.1525374948978424,0.6302527785301208,1.9615036249160767,4.05859375,0,A1,7.6,90,0,0.6823453984977813,[5300|0|0|0]
5300,1.6791820526123047,1.1706290245056152,-0.040681831538677216,-0.17487706243991852,0.6139998435974121,1.955156683921814,4.05859375,0,A1,7.6,90,0,0.6842151266374846,[5400|0|0|0]
5400,1.678240180015564,1.1702450513839722,-0.04199885576963425,-0.17504072189331055,0.6330283284187317,1.8883297443389893,4.05859375,0,A1,7.6,90,0,0.6858791915916146,[5500|0|0|0]
5500,1.6783584356307983,1.1702940464019775,-0.04187841713428497,-0.16792523860931396,0.6254792213439941,1.8465545177459717,4.05859375,0,A1,7.6,90,0,0.6860549481482735,[5600|0|0|0]
5600,1.678555965423584,1.1699494123458862,-0.041606783866882324,-0.15837036073207855,0.6114352941513062,1.864532470703125,4.05859375,0,A1,7.6,90,0,0.686536170844762,[5700|0|0|0]
5700,1.6785119771957397,1.170147180557251,-0.04216795042157173,-0.16843415796756744,0.6218616366386414,1.8197650909423828,4.05859375,0,A1,7.6,90,0,0.687132790599478,[5800|0|0|0]
5800,1.678162693977356,1.1700359582901,-0.04185418039560318,-0.1643218845129013,0.6347389817237854,1.7617093324661255,4.05859375,0,A1,7.6,90,0,0.6876153056650988,[5900|0|0|0]
5900,1.6783839464187622,1.1700690984725952,-0.04207976162433624,-0.1638595312833786,0.6329624056816101,1.7286427021026611,4.05859375,0,A1,7.6,90,0,0.6879330127712213,[6000|0|0|0]
6000,1.6782479286193848,1.1701147556304932,-0.04200189560651779,-0.16378530859947205,0.637687623500824,1.7674531936645508,4.05859375,0,A1,7.6,90,0,0.6880962565599108,[6100|0|0|0]
6100,1.6781842708587646,1.1696054935455322,-0.0415826290845871,-0.14697423577308655,0.6402229070663452,1.7870135307312012,4.05859375,0,A1,7.6,90,0,0.6887589666006358,[6200|0|0|0]
6200,1.6781848669052124,1.1697311401367188,-0.041880279779434204,-0.14938068389892578,0.638784646987915,1.8587067127227783,4.05859375,0,A1,7.6,90,0,0.689082050734092,[6300|0|0|0]
6300,1.6783394813537598,1.170117974281311,-0.04173595830798149,-0.15674367547035217,0.6259146332740784,1.8427708148956299,4.05859375,0,A1,7.6,90,0,0.68952293050256,[6400|0|0|0]
6400,1.6787179708480835,1.1707290410995483,-0.04094261676073074,-0.1635635942220688,0.6207806468009949,1.8255822658538818,4.05859375,0,A1,7.6,90,0,0.6905934667066457,[6500|0|0|0]
6500,1.6790252923965454,1.1708226203918457,-0.04098094627261162,-0.1694907546043396,0.6120603084564209,1.8929815292358398,4.05859375,0,A1,7.6,90,0,0.6909169984200478,[6600|0|0|0]
6600,1.6785422563552856,1.1700482368469238,-0.04156426340341568,-0.15845388174057007,0.6368014216423035,1.9537534713745117,4.05859375,0,A1,7.6,90,0,0.6920001662587927,[6700|0|0|0]
6700,1.6785727739334106,1.1700729131698608,-0.04154324531555176,-0.15878471732139587,0.6400347352027893,2.0981616973876953,4.05859375,0,A1,7.6,90,0,0.692044685956745,[6800|0|0|0]
6800,1.6783969402313232,1.170231819152832,-0.041872672736644745,-0.16042889654636383,0.6372920274734497,2.1228439807891846,4.05859375,0,A1,7.6,90,0,0.692450507380504,[6900|0|0|0]
6900,1.6781418323516846,1.1699905395507812,-0.04221102595329285,-0.15004394948482513,0.6418440341949463,2.1356334686279297,4.05859375,0,A1,7.6,90,0,0.6929381330318346,[7000|0|0|0]
7000,1.6781129837036133,1.1699657440185547,-0.04168546199798584,-0.14452406764030457,0.6446323394775391,2.1716442108154297,4.05859375,0,A1,7.6,90,0,0.6934650718651273,[7100|0|0|0]
7100,1.6785272359848022,1.1702001094818115,-0.04159782454371452,-0.15198495984077454,0.637157678604126,2.200904130935669,4.05859375,0,A1,7.6,90,0,0.6939490268694707,[7200|0|0|0]
7200,1.6784695386886597,1.1701346635818481,-0.041528597474098206,-0.1481923758983612,0.634454607963562,2.2206127643585205,4.05859375,0,A1,7.6,90,0,0.6940604024995333,[7300|0|0|0]
7300,1.6783894300460815,1.1700762510299683,-0.041753582656383514,-0.15131203830242157,0.6387305855751038,2.2577624320983887,4.05859375,0,A1,7.6,90,0,0.6943062637471523,[7400|0|0|0]
7400,1.6784526109695435,1.1698943376541138,-0.04183413088321686,-0.14542725682258606,0.6358798742294312,2.232841968536377,4.05859375,0,A1,7.6,90,0,0.6945150035906185,[7500|0|0|0]
7500,1.6783795356750488,1.1700066328048706,-0.04238094389438629,-0.1468667834997177,0.6363978981971741,2.186758041381836,4.05859375,0,A1,7.6,90,0,0.6950779908628841,[7600|0|0|0]
7600,1.6781554222106934,1.1698837280273438,-0.042079851031303406,-0.1474306583404541,0.6380407810211182,2.20037841796875,4.05859375,0,A1,7.6,90,0,0.695472945722892,[7700|0|0|0]
7700,1.6785675287246704,1.1701444387435913,-0.04176247864961624,-0.1564418524503708,0.6303595900535583,2.1601061820983887,4.05859375,0,A1,7.6,90,0,0.6960547765274103,[7800|0|0|0]
7800,1.6781939268112183,1.169538974761963,-0.041717905551195145,-0.14694608747959137,0.642848014831543,2.2431015968322754,4.05859375,0,A1,7.6,90,0,0.6967676241856707,[7900|0|0|0]
7900,1.6785609722137451,1.1699539422988892,-0.041689641773700714,-0.1667626053094864,0.632005512714386,2.2657880783081055,4.05859375,0,A1,7.6,90,0,0.6973223486446024,[8000|0|0|0]
8000,1.6785178184509277,1.1701656579971313,-0.04191024601459503,-0.1788719892501831,0.6315043568611145,2.274951696395874,4.05859375,0,A1,7.6,90,0,0.6976311398608441,[8100|0|0|0]
8100,1.6784522533416748,1.1698436737060547,-0.042338524013757706,-0.16514365375041962,0.6355286836624146,2.2370922565460205,4.05859375,0,A1,7.6,90,0,0.6981709497457279,[8200|0|0|0]
8200,1.678578495979309,1.1698856353759766,-0.04168028011918068,-0.1672418713569641,0.6348710656166077,2.251638174057007,4.05859375,0,A1,7.6,90,0,0.6988425024317083,[8300|0|0|0]
8300,1.6781752109527588,1.1702284812927246,-0.041982874274253845,-0.1758769005537033,0.6415769457817078,2.221287488937378,4.05859375,0,A1,7.6,90,0,0.6994522116722115,[8400|0|0|0]
8400,1.6784203052520752,1.1700152158737183,-0.041966620832681656,-0.17294947803020477,0.6339096426963806,2.261878490447998,4.05859375,0,A1,7.6,90,0,0.6997775077356126,[8500|0|0|0]
8500,1.6784390211105347,1.1700085401535034,-0.041602861136198044,-0.16913020610809326,0.6297641396522522,2.2801122665405273,4.05859375,0,A1,7.6,90,0,0.7001418097605646,[8600|0|0|0]
8600,1.678096055984497,1.1698936223983765,-0.042085111141204834,-0.16547518968582153,0.6361770033836365,2.2822470664978027,4.05859375,0,A1,7.6,90,0,0.700744633313066,[8700|0|0|0]
8700,1.6782987117767334,1.1701234579086304,-0.041949085891246796,-0.17301908135414124,0.6279919743537903,2.2393078804016113,4.05859375,0,A1,7.6,90,0,0.7010798893354232,[8800|0|0|0]
8800,1.678389310836792,1.1699767112731934,-0.041545066982507706,-0.17147259414196014,0.6332212686538696,2.2731971740722656,4.05859375,0,A1,7.6,90,0,0.7015191774451124,[8900|0|0|0]
8900,1.6782339811325073,1.1700321435928345,-0.041411880403757095,-0.17506887018680573,0.639065146446228,2.2931065559387207,4.05859375,0,A1,7.6,90,0,0.7017311650010049,[9000|0|0|0]
9000,1.6751765012741089,1.1672813892364502,-0.045448824763298035,-0.07183385640382767,0.7125236988067627,2.280327558517456,4.05859375,0,A1,7.6,90,0,0.7074941288544148,[9100|0|0|0]
9100,1.6750670671463013,1.1676712036132812,-0.04574362188577652,-0.07626742869615555,0.7172245979309082,2.225172519683838,4.05859375,0,A1,7.6,90,0,0.7079949645761188,[9200|0|0|0]
9200,1.6749922037124634,1.1674474477767944,-0.045757193118333817,-0.06659842282533646,0.7136480808258057,2.2290828227996826,4.05859375,0,A1,7.6,90,0,0.7082313020180129,[9300|0|0|0]
9300,1.6750366687774658,1.167252540588379,-0.0455637164413929,-0.0635315477848053,0.7112303972244263,2.209676742553711,4.05859375,0,A1,7.6,90,0,0.7085095090966824,[9400|0|0|0]
9400,1.6754270792007446,1.1672114133834839,-0.04542762413620949,-0.057387299835681915,0.69563227891922,2.227733612060547,4.05859375,0,A1,7.6,90,0,0.7089250002050318,[9500|0|0|0]
9500,1.6751682758331299,1.1674267053604126,-0.04572513699531555,-0.061271000653505325,0.6980416178703308,2.2018442153930664,4.05859375,0,A1,7.6,90,0,0.7093742704129825,[9600|0|0|0]
9600,1.67525315284729,1.1673851013183594,-0.045960042625665665,-0.05691428855061531,0.700150728225708,2.1975364685058594,4.05859375,0,A1,7.6,90,0,0.709627481113819,[9700|0|0|0]
9700,1.675214171409607,1.1676793098449707,-0.04562406614422798,-0.058423008769750595,0.6968319416046143,2.183164119720459,4.05859375,0,A1,7.6,90,0,0.7100757649588256,[9800|0|0|0]
9800,1.6751841306686401,1.1674679517745972,-0.045273661613464355,-0.05119110643863678,0.6945025324821472,2.2003703117370605,4.05859375,0,A1,7.6,90,0,0.7104860794908734,[9900|0|0|0]
9900,1.6785699129104614,1.170166254043579,-0.04204815626144409,-0.15674152970314026,0.5937591791152954,2.196012020111084,4.05859375,0,A1,7.6,90,0,0.7158849906125475,[10000|0|0|0]
10000,1.6752897500991821,1.1674308776855469,-0.0454154908657074,-0.05975428596138954,0.6862303018569946,2.228623151779175,4.05859375,0,A1,7.6,90,0,0.7213238042906992,[10100|0|0|0]
10100,1.675104022026062,1.1670531034469604,-0.0452919639647007,-0.05700406804680824,0.6959308981895447,2.2893333435058594,4.05859375,0,A1,7.6,90,0,0.7217625151154538,[10200|0|0|0]
10200,1.6750967502593994,1.1671881675720215,-0.04524708166718483,-0.06350500881671906,0.6974729299545288,2.289118528366089,4.05859375,0,A1,7.6,90,0,0.7219050269293472,[10300|0|0|0]
10300,1.6749436855316162,1.167153000831604,-0.04532380402088165,-0.06613492220640182,0.6935596466064453,2.2977678775787354,4.05859375,0,A1,7.6,90,0,0.7220798177474119,[10400|0|0|0]
10402,1.6754831075668335,1.167224407196045,-0.04539986699819565,-0.07213625311851501,0.684305727481842,2.2992122173309326,4.05859375,0,A1,7.6,90,0,0.722629236146702,[10500|0|0|0]
10501,1.675191879272461,1.1672240495681763,-0.0459735207259655,-0.0717819556593895,0.6908007264137268,2.209148645401001,4.05859375,0,A1,7.6,90,0,0.7232725810361083,[10600|0|0|0]
10601,1.6750155687332153,1.1671303510665894,-0.045178160071372986,-0.0680655688047409,0.6997781991958618,2.127207040786743,4.05859375,0,A1,7.6,90,0,0.7240926196853941,[10700|0|0|0]
10701,1.6754261255264282,1.1672186851501465,-0.04539879411458969,-0.06988443434238434,0.6878974437713623,2.096104145050049,4.05859375,0,A1,7.6,90,0,0.7245670026233222,[10800|0|0|0]
10801,1.6752465963363647,1.1677122116088867,-0.045632679015398026,-0.07121331244707108,0.6875342726707458,1.989761471748352,4.05859375,0,A1,7.6,90,0,0.7251418949979347,[10900|0|0|0]
10901,1.6750500202178955,1.167295217514038,-0.04575519636273384,-0.05667639896273613,0.695907473564148,1.9458853006362915,4.05859375,0,A1,7.6,90,0,0.7256189031172464,[11000|0|0|0]
11001,1.6783233880996704,1.1697564125061035,-0.04186766594648361,-0.1464022547006607,0.6061038970947266,1.9233423471450806,4.05859375,0,A1,7.6,90,0,0.7312656110799158,[11100|0|0|0]
11101,1.6783840656280518,1.1698850393295288,-0.04168611764907837,-0.14837074279785156,0.609539806842804,1.9138176441192627,4.05859375,0,A1,7.6,90,0,0.7314962328621605,[11200|0|0|0]
11201,1.6749404668807983,1.167281150817871,-0.04557497799396515,-0.0523676723241806,0.7093993425369263,1.9155670404434204,4.05859375,0,A1,7.6,90,0,0.7373067270317868,[11300|0|0|0]
11301,1.6752163171768188,1.1673674583435059,-0.045362040400505066,-0.05589253082871437,0.7010712623596191,1.8934621810913086,4.05859375,0,A1,7.6,90,0,0.7376657323151802,[11400|0|0|0]
11400,1.675500750541687,1.1673693656921387,-0.04584319144487381,-0.057510197162628174,0.6973517537117004,1.872869610786438,4.05859375,0,A1,7.6,90,0,0.7382246708668352,[11500|0|0|0]
11500,1.6752771139144897,1.1672464609146118,-0.04548333212733269,-0.052051469683647156,0.7041913270950317,1.8605799674987793,4.05859375,0,A1,7.6,90,0,0.7386658257758912,[11600|0|0|0]
11600,1.6751154661178589,1.1672111749649048,-0.04530195891857147,-0.04808158800005913,0.7058248519897461,1.8849111795425415,4.05859375,0,A1,7.6,90,0,0.738911328014697,[11700|0|0|0]
11700,1.6754367351531982,1.167202115058899,-0.04545686021447182,-0.052656710147857666,0.6944835782051086,1.858805775642395,4.05859375,0,A1,7.6,90,0,0.7392681056575453,[11800|0|0|0]
11800,1.675846815109253,1.1670317649841309,-0.04547217860817909,-0.05222750082612038,0.702367901802063,1.900704264640808,4.05859375,0,A1,7.6,90,0,0.7397124246550202,[11900|0|0|0]
11900,1.6756088733673096,1.1671524047851562,-0.045736853033304214,-0.0575614832341671,0.7083972692489624,1.9006515741348267,4.05859375,0,A1,7.6,90,0,0.7400882208570577,[12000|0|0|0]
12000,1.6753555536270142,1.1671655178070068,-0.04565846547484398,-0.058951739221811295,0.7097612619400024,1.92729914188385,4.05859375,0,A1,7.6,90,0,0.7403537155867357,[12100|0|0|0]
12100,1.6757683753967285,1.166953444480896,-0.04544545337557793,-0.05261361226439476,0.7008526921272278,1.915570855140686,4.05859375,0,A1,7.6,90,0,0.7408643730684508,[12200|0|0|0]
12200,1.6757714748382568,1.1672115325927734,-0.04562339931726456,-0.06585357338190079,0.7079710364341736,1.8669852018356323,4.05859375,0,A1,7.6,90,0,0.7411778756014437,[12300|0|0|0]
12300,1.6754674911499023,1.167289137840271,-0.04559023678302765,-0.06673872470855713,0.7225794196128845,1.8348596096038818,4.05859375,0,A1,7.6,90,0,0.741493356838448,[12400|0|0|0]
12400,1.6754995584487915,1.1670434474945068,-0.045447200536727905,-0.06109650433063507,0.7218015193939209,1.8204920291900635,4.05859375,0,A1,7.6,90,0,0.7417794537196181,[12500|0|0|0]
12500,1.6756047010421753,1.1675288677215576,-0.04543421044945717,-0.0749163031578064,0.7241600751876831,1.8062868118286133,4.05859375,0,A1,7.6,90,0,0.7422763002795748,[12600|0|0|0]
12600,1.6756646633148193,1.1669520139694214,-0.045150354504585266,-0.05818871408700943,0.7206066846847534,1.8475656509399414,4.05859375,0,A1,7.6,90,0,0.7429220013891707,[12700|0|0|0]
12700,1.675308346748352,1.1672616004943848,-0.045459598302841187,-0.06661523878574371,0.7253879904747009,1.8163132667541504,4.05859375,0,A1,7.6,90,0,0.7434863036474842,[12800|0|0|0]
12800,1.6755452156066895,1.1672639846801758,-0.04543926566839218,-0.06584101170301437,0.7206814885139465,1.818123459815979,4.05859375,0,A1,7.6,90,0,0.7437240555274255,[12900|0|0|0]
12900,1.6753220558166504,1.1672815084457397,-0.04537278041243553,-0.06921420991420746,0.7248603701591492,1.7954480648040771,4.05859375,0,A1,7.6,90,0,0.7439575671192351,[13000|0|0|0]
13000,1.6752636432647705,1.1672887802124023,-0.04544352367520332,-0.0695522129535675,0.7229393124580383,1.8035753965377808,4.05859375,0,A1,7.6,90,0,0.7440495970819351,[13100|0|0|0]
13100,1.6754703521728516,1.1666375398635864,-0.045425571501255035,-0.05880685895681381,0.7161442041397095,1.835103154182434,4.05859375,0,A1,7.6,90,0,0.7447330916650559,[13200|0|0|0]
13200,1.6757919788360596,1.167245626449585,-0.04562067985534668,-0.07652986794710159,0.7105635404586792,1.8366403579711914,4.05859375,0,A1,7.6,90,0,0.7454481303188321,[13300|0|0|0]
13300,1.6754858493804932,1.1669561862945557,-0.04527602717280388,-0.0714631900191307,0.7233707904815674,1.8479663133621216,4.05859375,0,A1,7.6,90,0,0.7459924430216902,[13400|0|0|0]
13400,1.6755021810531616,1.1669533252716064,-0.045825354754924774,-0.07507868111133575,0.7212553024291992,1.8112578392028809,4.05859375,0,A1,7.6,90,0,0.7465420207700236,[13500|0|0|0]
13500,1.6756267547607422,1.1675786972045898,-0.04544641077518463,-0.08989433199167252,0.7165037989616394,1.7961357831954956,4.05859375,0,A1,7.6,90,0,0.7472837803017892,[13600|0|0|0]
13600,1.675447940826416,1.1675405502319336,-0.04536678269505501,-0.08164972066879272,0.7174733877182007,1.7681864500045776,4.05859375,0,A1,7.6,90,0,0.747483205089058,[13700|0|0|0]
13700,1.675498604774475,1.1669684648513794,-0.04518626630306244,-0.06400814652442932,0.7120069265365601,1.7931396961212158,4.05859375,0,A1,7.6,90,0,0.748085230575275,[13800|0|0|0]
13800,1.675679087638855,1.1673369407653809,-0.04570464789867401,-0.07501130551099777,0.7127238512039185,1.7619483470916748,4.05859375,0,A1,7.6,90,0,0.7487463417930007,[13900|0|0|0]
13900,1.6753501892089844,1.1672073602676392,-0.045572679489851,-0.06062551587820053,0.7294670343399048,1.7440496683120728,4.05859375,0,A1,7.6,90,0,0.7491236757876177,[14000|0|0|0]
14000,1.6753419637680054,1.1671106815338135,-0.045392848551273346,-0.06322451680898666,0.7300295233726501,1.763076901435852,4.05859375,0,A1,7.6,90,0,0.7493280127689088,[14100|0|0|0]
14100,1.6752415895462036,1.1669496297836304,-0.045545969158411026,-0.05903248116374016,0.7277522087097168,1.7878607511520386,4.05859375,0,A1,7.6,90,0,0.7495718540512413,[14200|0|0|0]
14200,1.675528645515442,1.167224407196045,-0.04559680074453354,-0.07146016508340836,0.7106753587722778,1.7701168060302734,4.05859375,0,A1,7.6,90,0,0.7499724630950687,[14300|0|0|0]
14300,1.6756800413131714,1.1671288013458252,-0.045719146728515625,-0.0749933123588562,0.7102158665657043,1.7696937322616577,4.05859375,0,A1,7.6,90,0,0.750189326429828,[14400|0|0|0]
14400,1.6754825115203857,1.167267918586731,-0.04530877247452736,-0.11336363106966019,0.6820393800735474,1.8015624284744263,4.05859375,0,A1,7.6,90,0,0.7506655392541951,[14500|0|0|0]
14500,1.6756291389465332,1.1670321226119995,-0.04511929675936699,-0.09878436475992203,0.6866273283958435,1.8347097635269165,4.05859375,0,A1,7.6,90,0,0.7510016945612091,[14600|0|0|0]
14600,1.675858974456787,1.1672135591506958,-0.045448653399944305,-0.0930187776684761,0.6934789419174194,1.8314101696014404,4.05859375,0,A1,7.6,90,0,0.7514423978355788,[14700|0|0|0]
14700,1.6752969026565552,1.1672279834747314,-0.045375071465969086,-0.09146225452423096,0.7104194164276123,1.824036955833435,4.05859375,0,A1,7.6,90,0,0.7520094490420385,[14800|0|0|0]
14800,1.6755515336990356,1.16730535030365,-0.045177727937698364,-0.08806130290031433,0.6988851428031921,1.8513587713241577,4.05859375,0,A1,7.6,90,0,0.7523407601679638,[14900|0|0|0]
14900,1.6753860712051392,1.1669342517852783,-0.04501073434948921,-0.08107233792543411,0.7066065669059753,1.8901394605636597,4.05859375,0,A1,7.6,90,0,0.7527800536982223,[15000|0|0|0]
15000,1.676218032836914,1.1685526371002197,-0.04398197680711746,-0.1442858874797821,0.6622546911239624,1.8481942415237427,4.05859375,0,A1,7.6,90,0,0.7548704300436085,[15100|0|0|0]
15100,1.6796135902404785,1.1737935543060303,-0.037815824151039124,-0.18956904113292694,0.5112089514732361,1.8328547477722168,4.05859375,0,A1,7.6,90,0,0.7636464463276137,[15200|0|0|0]
15200,1.6793776750564575,1.174555778503418,-0.03495408222079277,-0.08595862984657288,0.5332633852958679,1.8096739053726196,4.05859375,0,A1,7.6,90,0,0.7666173398929346,[15300|0|0|0]
15300,1.6817069053649902,1.1724365949630737,-0.038598790764808655,-0.0017088239546865225,0.4974840581417084,1.8760185241699219,4.05859375,0,A1,7.6,90,0,0.7714339936150404,[15400|0|0|0]
15400,1.6830133199691772,1.173119068145752,-0.03820144385099411,0.009806712158024311,0.4857312738895416,1.8795439004898071,4.05859375,0,A1,7.6,90,0,0.7729605496516883,[15500|0|0|0]
15500,1.6758677959442139,1.165955901145935,-0.04585867002606392,0.21436762809753418,0.7914949655532837,1.8919633626937866,4.05859375,0,A1,7.6,90,0,0.7856492291635512,[15600|0|0|0]
15600,1.6753400564193726,1.1664196252822876,-0.04566685110330582,0.10209417343139648,0.822888970375061,1.8449559211730957,4.05859375,0,A1,7.6,90,0,0.7863774760858542,[15700|0|0|0]
15700,1.6753937005996704,1.1663984060287476,-0.04544071853160858,0.011230780743062496,0.8268454074859619,1.8635936975479126,4.05859375,0,A1,7.6,90,0,0.7866108510947627,[15800|0|0|0]
15800,1.6755694150924683,1.1666483879089355,-0.04522528871893883,-0.07392587512731552,0.812823474407196,1.8527469635009766,4.05859375,0,A1,7.6,90,0,0.786984718086604,[15900|0|0|0]
15900,1.6753900051116943,1.1665228605270386,-0.045266930013895035,-0.10731180757284164,0.8112576007843018,1.8771495819091797,4.05859375,0,A1,7.6,90,0,0.7872076060904374,[16000|0|0|0]
16000,1.6754390001296997,1.166954755783081,-0.04530971497297287,-0.14882434904575348,0.8057997226715088,1.8852133750915527,4.05859375,0,A1,7.6,90,0,0.7876443721338802,[16100|0|0|0]
16100,1.6754711866378784,1.1669013500213623,-0.04524001106619835,-0.16033530235290527,0.8018366098403931,1.8551465272903442,4.05859375,0,A1,7.6,90,0,0.787737896362362,[16200|0|0|0]
16200,1.6752488613128662,1.166820764541626,-0.045096125453710556,-0.16270199418067932,0.795926034450531,1.8606454133987427,4.05859375,0,A1,7.6,90,0,0.7880147097275869,[16300|0|0|0]
16300,1.6753510236740112,1.1671407222747803,-0.045587312430143356,-0.16462022066116333,0.7838208079338074,1.875908374786377,4.05859375,0,A1,7.6,90,0,0.7886097515285195,[16400|0|0|0]
16400,1.6754459142684937,1.167434573173523,-0.04552428424358368,-0.19842392206192017,0.7433689832687378,1.860427975654602,4.05859375,0,A1,7.6,90,0,0.7889249104216419,[16500|0|0|0]
16500,1.6755040884017944,1.1672358512878418,-0.04543396085500717,-0.17395323514938354,0.7402101755142212,1.8494130373001099,4.05859375,0,A1,7.6,90,0,0.7891508151187111,[16600|0|0|0]
16600,1.6755666732788086,1.1673486232757568,-0.045234616845846176,-0.1613961011171341,0.7423930764198303,1.8430702686309814,4.05859375,0,A1,7.6,90,0,0.7893882438913515,[16700|0|0|0]
16700,1.6753129959106445,1.1672743558883667,-0.04523056745529175,-0.1489092856645584,0.7453118562698364,1.8334059715270996,4.05859375,0,A1,7.6,90,0,0.7896526001840934,[16800|0|0|0]
16800,1.6754670143127441,1.1674957275390625,-0.04517178609967232,-0.13918782770633698,0.7377771139144897,1.8521863222122192,4.05859375,0,A1,7.6,90,0,0.7899286116398078,[16900|0|0|0]
16900,1.6756540536880493,1.1673252582550049,-0.045227114111185074,-0.1227918416261673,0.7321019768714905,1.8687740564346313,4.05859375,0,A1,7.6,90,0,0.7901876573762707,[17000|0|0|0]
17000,1.6753696203231812,1.1672990322113037,-0.04512549191713333,-0.11207304894924164,0.7428639531135559,1.8508563041687012,4.05859375,0,A1,7.6,90,0,0.7904908358958633,[17100|0|0|0]
17100,1.6756243705749512,1.1672922372817993,-0.04533764347434044,-0.13773229718208313,0.7052450776100159,1.8148552179336548,4.05859375,0,A1,7.6,90,0,0.7908224262230281,[17200|0|0|0]
17200,1.6755399703979492,1.167296290397644,-0.04589853435754776,-0.06505319476127625,0.7513086795806885,1.799437165260315,4.05859375,0,A1,7.6,90,0,0.7913896461102774,[17300|0|0|0]
17300,1.6753175258636475,1.1669327020645142,-0.045343250036239624,-0.059078603982925415,0.7555494904518127,1.81488835811615,4.05859375,0,A1,7.6,90,0,0.7920896594846636,[17400|0|0|0]
17400,1.6754016876220703,1.166911005973816,-0.04510648176074028,-0.059699058532714844,0.746998131275177,1.863747239112854,4.05859375,0,A1,7.6,90,0,0.7923418759357832,[17500|0|0|0]
17500,1.6755332946777344,1.1674121618270874,-0.045542456209659576,-0.06956057250499725,0.7369605898857117,1.8411271572113037,4.05859375,0,A1,7.6,90,0,0.7930190401156386,[17600|0|0|0]
17600,1.6753445863723755,1.1671760082244873,-0.04550640657544136,-0.061741091310977936,0.7472809553146362,1.8574939966201782,4.05859375,0,A1,7.6,90,0,0.7933234722503743,[17700|0|0|0]
17700,1.6756336688995361,1.167244553565979,-0.045074593275785446,-0.10678406059741974,0.7005524635314941,1.8796615600585938,4.05859375,0,A1,7.6,90,0,0.7938476190781902,[17800|0|0|0]
17800,1.6759299039840698,1.1670547723770142,-0.0452490970492363,-0.08794627338647842,0.6933619379997253,1.8608700037002563,4.05859375,0,A1,7.6,90,0,0.7942403323221001,[17900|0|0|0]
17900,1.6755131483078003,1.1669803857803345,-0.045053839683532715,-0.07834868133068085,0.7147210836410522,1.9156302213668823,4.05859375,0,A1,7.6,90,0,0.7947065341006574,[18000|0|0|0]
18000,1.6753617525100708,1.1672382354736328,-0.04563255235552788,-0.07995280623435974,0.7220098376274109,1.8958858251571655,4.05859375,0,A1,7.6,90,0,0.7953579291487135,[18100|0|0|0]
18100,1.6756798028945923,1.167158603668213,-0.04546337202191353,-0.08155000954866409,0.7228127121925354,1.8309587240219116,4.05859375,0,A1,7.6,90,0,0.7957268725817904,[18200|0|0|0]
18200,1.6756823062896729,1.166941523551941,-0.04503972455859184,-0.07437752187252045,0.7234906554222107,1.8457560539245605,4.05859375,0,A1,7.6,90,0,0.7962029053716763,[18300|0|0|0]
18300,1.6756515502929688,1.1669954061508179,-0.044793855398893356,-0.10567079484462738,0.7039589285850525,1.8375873565673828,4.05859375,0,A1,7.6,90,0,0.796456481611663,[18400|0|0|0]
18400,1.6757804155349731,1.1672868728637695,-0.04518869146704674,-0.09947340190410614,0.7011623978614807,1.8534154891967773,4.05859375,0,A1,7.6,90,0,0.7969638814698327,[18500|0|0|0]
18500,1.675544023513794,1.1674913167953491,-0.0452597513794899,-0.08398440480232239,0.7276182770729065,1.8467624187469482,4.05859375,0,A1,7.6,90,0,0.7972843935912779,[18600|0|0|0]
18600,1.6756484508514404,1.1672648191452026,-0.045231278985738754,-0.06293821334838867,0.7314074635505676,1.8555175065994263,4.05859375,0,A1,7.6,90,0,0.7975354253254784,[18700|0|0|0]
18700,1.6755099296569824,1.1672612428665161,-0.04545764997601509,-0.060458485037088394,0.7340059280395508,1.870829701423645,4.05859375,0,A1,7.6,90,0,0.797800839598497,[18800|0|0|0]
18800,1.675674557685852,1.1665058135986328,-0.04519611969590187,-0.042037010192871094,0.7354809045791626,1.8998769521713257,4.05859375,0,A1,7.6,90,0,0.798617034338789,[18900|0|0|0]
18900,1.6757954359054565,1.1670364141464233,-0.044959284365177155,-0.06817857176065445,0.7275479435920715,1.8946726322174072,4.05859375,0,A1,7.6,90,0,0.7992105319876216,[19000|0|0|0]
19000,1.6757103204727173,1.1667934656143188,-0.04548265039920807,-0.06684405356645584,0.7282959818840027,1.8801738023757935,4.05859375,0,A1,7.6,90,0,0.7997937820469609,[19100|0|0|0]
19100,1.6760109663009644,1.1667811870574951,-0.0451795794069767,-0.06492948532104492,0.7238704562187195,1.906376600265503,4.05859375,0,A1,7.6,90,0,0.8002208542929945,[19200|0|0|0]
19200,1.6759752035140991,1.1670387983322144,-0.045445315539836884,-0.08002430200576782,0.7174920439720154,1.861556887626648,4.05859375,0,A1,7.6,90,0,0.8005926852197534,[19300|0|0|0]
19300,1.6754475831985474,1.1669888496398926,-0.04521344229578972,-0.11657155305147171,0.6963164210319519,1.9052377939224243,4.05859375,0,A1,7.6,90,0,0.801171168815504,[19400|0|0|0]
19400,1.6756525039672852,1.166877269744873,-0.045072123408317566,-0.0994187444448471,0.6965177655220032,1.8941155672073364,4.05859375,0,A1,7.6,90,0,0.8014439574193514,[19500|0|0|0]
19500,1.6756007671356201,1.1670078039169312,-0.04481682926416397,-0.10110603272914886,0.7088386416435242,1.8870716094970703,4.05859375,0,A1,7.6,90,0,0.801735317968954,[19600|0|0|0]
19600,1.675715446472168,1.1670125722885132,-0.04510084167122841,-0.09885790944099426,0.7020664811134338,1.9209681749343872,4.05859375,0,A1,7.6,90,0,0.8020416464445568,[19700|0|0|0]
19700,1.6756765842437744,1.1670775413513184,-0.045147716999053955,-0.09689369797706604,0.7122253179550171,1.868611216545105,4.05859375,0,A1,7.6,90,0,0.8021306888405053,[19800|0|0|0]
19800,1.6753969192504883,1.1668370962142944,-0.04518057778477669,-0.08399967849254608,0.7259705662727356,1.867680549621582,4.05859375,0,A1,7.6,90,0,0.8025009673892042,[19900|0|0|0]
19900,1.6755733489990234,1.1667208671569824,-0.04530726745724678,-0.08826672285795212,0.7190235257148743,1.8789170980453491,4.05859375,0,A1,7.6,90,0,0.802747314548803,[20000|0|0|0]
20000,1.6754040718078613,1.1666582822799683,-0.0450504831969738,-0.08513781428337097,0.7151279449462891,1.918501615524292,4.05859375,0,A1,7.6,90,0,0.8030611772426718,[20100|0|0|0]
20100,1.6753848791122437,1.1671751737594604,-0.045215021818876266,-0.10309386998414993,0.7122552990913391,1.9265106916427612,4.05859375,0,A1,7.6,90,0,0.8036039646036468,[20200|0|0|0]
20200,1.6757664680480957,1.1667518615722656,-0.04512367025017738,-0.08931531012058258,0.6915450096130371,1.9385123252868652,4.05859375,0,A1,7.6,90,0,0.8041811547221486,[20300|0|0|0]
20300,1.6754597425460815,1.1669251918792725,-0.04520917311310768,-0.09492024779319763,0.7028064727783203,1.8845984935760498,4.05859375,0,A1,7.6,90,0,0.804543693917936,[20400|0|0|0]
20400,1.6757514476776123,1.1672331094741821,-0.045455098152160645,-0.10369651019573212,0.6948319673538208,1.8593099117279053,4.05859375,0,A1,7.6,90,0,0.8050339838870865,[20500|0|0|0]
20500,1.6754858493804932,1.1669014692306519,-0.04564931243658066,-0.0872313529253006,0.6999375224113464,1.8395220041275024,4.05859375,0,A1,7.6,90,0,0.8055011529087844,[20600|0|0|0]
20600,1.6754498481750488,1.1670266389846802,-0.04508800804615021,-0.09146475046873093,0.6972551941871643,1.839426875114441,4.05859375,0,A1,7.6,90,0,0.8060773700317801,[20700|0|0|0]
20700,1.675724983215332,1.1670957803726196,-0.04500675946474075,-0.09371089935302734,0.6915715336799622,1.8759896755218506,4.05859375,0,A1,7.6,90,0,0.8063724651925315,[20800|0|0|0]
20800,1.6756035089492798,1.167128324508667,-0.04531468451023102,-0.09029963612556458,0.68970787525177,1.8742858171463013,4.05859375,0,A1,7.6,90,0,0.8067050805135018,[20900|0|0|0]
20900,1.6754941940307617,1.166536808013916,-0.04506589472293854,-0.07879459112882614,0.6943123936653137,1.9065951108932495,4.05859375,0,A1,7.6,90,0,0.8073560320272369,[21000|0|0|0]
21000,1.6758451461791992,1.1668263673782349,-0.04503169283270836,-0.09335456788539886,0.6811285018920898,1.9225066900253296,4.05859375,0,A1,7.6,90,0,0.8078123014709354,[21100|0|0|0]
21100,1.6753920316696167,1.167102336883545,-0.045298170298337936,-0.10605236887931824,0.6900692582130432,1.8919612169265747,4.05859375,0,A1,7.6,90,0,0.8084060035564494,[21200|0|0|0]
21200,1.675518274307251,1.1668651103973389,-0.04508309066295624,-0.10288210213184357,0.6832772493362427,1.9157949686050415,4.05859375,0,A1,7.6,90,0,0.8087502024217446,[21300|0|0|0]
21300,1.6781591176986694,1.1707803010940552,-0.04188719391822815,-0.18038107454776764,0.6081773638725281,1.8813157081604004,4.05859375,0,A1,7.6,90,0,0.8144525289655875,[21400|0|0|0]
21400,1.6753175258636475,1.1670846939086914,-0.04541454091668129,-0.07273250073194504,0.6941825747489929,1.853763222694397,4.05859375,0,A1,7.6,90,0,0.8202984107188281,[21500|0|0|0]
21500,1.6766996383666992,1.168171763420105,-0.04448853060603142,-0.09999939054250717,0.6724047660827637,1.8314118385314941,4.05859375,0,A1,7.6,90,0,0.8222857330855233,[21600|0|0|0]
21600,1.674259901046753,1.1702054738998413,-0.04476498067378998,-0.10406307131052017,0.6594457626342773,1.8119746446609497,4.05859375,0,A1,7.6,90,0,0.8254739490671801,[21700|0|0|0]
21700,1.677597999572754,1.1743011474609375,-0.03456898033618927,-0.15684910118579865,0.4846542477607727,1.8036906719207764,4.05859375,0,A1,7.6,90,0,0.8369576708755794,[21800|0|0|0]
21800,1.681387186050415,1.1713975667953491,-0.03874689340591431,0.0063374778255820274,0.4772593379020691,1.8830474615097046,4.05859375,0,A1,7.6,90,0,0.8433014609463689,[21900|0|0|0]
21900,1.6759215593338013,1.1668789386749268,-0.0458650179207325,0.060774605721235275,0.6769575476646423,1.862961769104004,4.05859375,0,A1,7.6,90,0,0.8533492851936619,[22000|0|0|0]
22000,1.6757316589355469,1.1668226718902588,-0.04602062702178955,0.013278190977871418,0.71855628490448,1.8413183689117432,4.05859375,0,A1,7.6,90,0,0.8536011627524992,[22100|0|0|0]
22100,1.6755080223083496,1.1669673919677734,-0.045553673058748245,-0.03548175469040871,0.760765552520752,1.825869083404541,4.05859375,0,A1,7.6,90,0,0.8541387529732621,[22200|0|0|0]
22200,1.675642490386963,1.166719913482666,-0.045019544661045074,-0.06808144599199295,0.7849450707435608,1.8766603469848633,4.05859375,0,A1,7.6,90,0,0.8547425910392947,[22300|0|0|0]
22300,1.6757490634918213,1.1672617197036743,-0.04518699273467064,-0.10388902574777603,0.7875946760177612,1.83412766456604,4.05859375,0,A1,7.6,90,0,0.8553196098129611,[22400|0|0|0]
22400,1.6758095026016235,1.1670130491256714,-0.04550895467400551,-0.11313332617282867,0.7878012657165527,1.8266104459762573,4.05859375,0,A1,7.6,90,0,0.8557308876177819,[22500|0|0|0]
22500,1.6753439903259277,1.166753888130188,-0.04525984823703766,-0.11139228194952011,0.7988191843032837,1.8508557081222534,4.05859375,0,A1,7.6,90,0,0.8563190373583601,[22600|0|0|0]
22600,1.675594687461853,1.1669845581054688,-0.04512485861778259,-0.1181289553642273,0.7858798503875732,1.8560988903045654,4.05859375,0,A1,7.6,90,0,0.856685479562212,[22700|0|0|0]
22700,1.675577998161316,1.1668776273727417,-0.045203082263469696,-0.11293191462755203,0.7723208665847778,1.8781356811523438,4.05859375,0,A1,7.6,90,0,0.8568190147751655,[22800|0|0|0]
22800,1.6753361225128174,1.1670893430709839,-0.045180559158325195,-0.11406777054071426,0.7716542482376099,1.8700644969940186,4.05859375,0,A1,7.6,90,0,0.8571412486288869,[22900|0|0|0]
22900,1.67559015750885,1.1673707962036133,-0.045259904116392136,-0.11854008585214615,0.7585317492485046,1.8471709489822388,4.05859375,0,A1,7.6,90,0,0.8575286053991219,[23000|0|0|0]
23000,1.6754528284072876,1.1671762466430664,-0.045461952686309814,-0.11148074269294739,0.7594712972640991,1.852123737335205,4.05859375,0,A1,7.6,90,0,0.8578409072374942,[23100|0|0|0]
23100,1.6758531332015991,1.167080283164978,-0.04539220407605171,-0.10877577215433121,0.739673912525177,1.8500862121582031,4.05859375,0,A1,7.6,90,0,0.8582584210529645,[23200|0|0|0]
23200,1.6757243871688843,1.1669981479644775,-0.045155733823776245,-0.0969681516289711,0.7376055717468262,1.8296030759811401,4.05859375,0,A1,7.6,90,0,0.8585399169007354,[23300|0|0|0]
23300,1.6755828857421875,1.1670446395874023,-0.045384857803583145,-0.0933532789349556,0.7340435981750488,1.8070858716964722,4.05859375,0,A1,7.6,90,0,0.8588131968357506,[23400|0|0|0]
23400,1.6756908893585205,1.166989803314209,-0.04503563046455383,-0.08968273550271988,0.7280240654945374,1.811208963394165,4.05859375,0,A1,7.6,90,0,0.8591828338635553,[23500|0|0|0]
23500,1.6757363080978394,1.1670770645141602,-0.04513762146234512,-0.09036839008331299,0.719091534614563,1.852353572845459,4.05859375,0,A1,7.6,90,0,0.8593245361660373,[23600|0|0|0]
23600,1.6755298376083374,1.166875958442688,-0.04516865685582161,-0.08079622685909271,0.7273710370063782,1.8805326223373413,4.05859375,0,A1,7.6,90,0,0.8596144273709166,[23700|0|0|0]
23700,1.6754151582717896,1.1669671535491943,-0.04551440104842186,-0.08917327225208282,0.7246788144111633,1.849287509918213,4.05859375,0,A1,7.6,90,0,0.8599899362847903,[23800|0|0|0]
23800,1.67567777633667,1.1669188737869263,-0.045266397297382355,-0.0910704955458641,0.7181755900382996,1.8814589977264404,4.05859375,0,A1,7.6,90,0,0.8603543605484938,[23900|0|0|0]
23900,1.6758750677108765,1.16700279712677,-0.044839177280664444,-0.0985579565167427,0.7048674821853638,1.914315104484558,4.05859375,0,A1,7.6,90,0,0.8608323605024596,[24000|0|0|0]
24000,1.6758739948272705,1.1668225526809692,-0.04523133113980293,-0.09108644723892212,0.7082738876342773,1.9293029308319092,4.05859375,0,A1,7.6,90,0,0.8612639550582158,[24100|0|0|0]
24100,1.6756083965301514,1.1672132015228271,-0.0451207235455513,-0.09807756543159485,0.7203792929649353,1.8912032842636108,4.05859375,0,A1,7.6,90,0,0.8617491179308511,[24200|0|0|0]
24200,1.6755274534225464,1.166794776916504,-0.04524752497673035,-0.08597785234451294,0.7273469567298889,1.8682011365890503,4.05859375,0,A1,7.6,90,0,0.8621937633410316,[24300|0|0|0]
24300,1.6756701469421387,1.1670726537704468,-0.044912658631801605,-0.08514288067817688,0.7234619855880737,1.849360466003418,4.05859375,0,A1,7.6,90,0,0.862651707066239,[24400|0|0|0]
24400,1.6755694150924683,1.1667646169662476,-0.04545174166560173,-0.07781872153282166,0.7185815572738647,1.8555723428726196,4.05859375,0,A1,7.6,90,0,0.8632807095269738,[24500|0|0|0]
24500,1.675497055053711,1.166788101196289,-0.04515472427010536,-0.07880991697311401,0.7171106338500977,1.864998459815979,4.05859375,0,A1,7.6,90,0,0.8635873148392191,[24600|0|0|0]
24600,1.6757736206054688,1.1672784090042114,-0.04531972110271454,-0.08660485595464706,0.7142113447189331,1.8371750116348267,4.05859375,0,A1,7.6,90,0,0.8641739273226354,[24700|0|0|0]
24700,1.6757256984710693,1.1669825315475464,-0.0451185405254364,-0.07815718650817871,0.7108981013298035,1.810483694076538,4.05859375,0,A1,7.6,90,0,0.8645349171078122,[24800|0|0|0]
24800,1.678380012512207,1.1700936555862427,-0.041725654155015945,-0.14994148910045624,0.6435506939888,1.836767315864563,4.05859375,0,A1,7.6,90,0,0.8698486873075592,[24900|0|0|0]
24900,1.6761165857315063,1.1666007041931152,-0.045281074941158295,-0.08713069558143616,0.7064906358718872,1.847710132598877,4.05859375,0,A1,7.6,90,0,0.8753227011176328,[25000|0|0|0]
25000,1.675772786140442,1.1665313243865967,-0.045218076556921005,-0.08805809915065765,0.7139262557029724,1.8769617080688477,4.05859375,0,A1,7.6,90,0,0.8756790443689862,[25100|0|0|0]
25100,1.6780600547790527,1.1704413890838623,-0.04145088046789169,-0.17336931824684143,0.6397110223770142,1.8819043636322021,4.05859375,0,A1,7.6,90,0,0.8815707308962187,[25200|0|0|0]
25200,1.6780258417129517,1.1703864336013794,-0.04180421680212021,-0.17141872644424438,0.6416629552841187,1.8980153799057007,4.05859375,0,A1,7.6,90,0,0.8819299483847031,[25300|0|0|0]
25300,1.6781078577041626,1.1704083681106567,-0.04162358120083809,-0.1655624955892563,0.6411634087562561,1.8733818531036377,4.05859375,0,A1,7.6,90,0,0.8821295403834457,[25400|0|0|0]
25400,1.6783055067062378,1.1701768636703491,-0.041619036346673965,-0.15743349492549896,0.6326924562454224,1.8880136013031006,4.05859375,0,A1,7.6,90,0,0.8824339744314805,[25500|0|0|0]
25500,1.678269386291504,1.170637607574463,-0.04172152653336525,-0.17338837683200836,0.6369929909706116,1.8833112716674805,4.05859375,0,A1,7.6,90,0,0.8829073599698175,[25600|0|0|0]
25600,1.678112268447876,1.170424461364746,-0.04164861515164375,-0.1699523627758026,0.6409549117088318,1.908854603767395,4.05859375,0,A1,7.6,90,0,0.8831820113726675,[25700|0|0|0]
25700,1.6786376237869263,1.1703436374664307,-0.041722372174263,-0.16155587136745453,0.6280360221862793,1.8896976709365845,4.05859375,0,A1,7.6,90,0,0.8837186405120117,[25800|0|0|0]
25800,1.6778255701065063,1.1702609062194824,-0.04148668423295021,-0.1561419516801834,0.6470687985420227,1.8929443359375,4.05859375,0,A1,7.6,90,0,0.8845682430336566,[25900|0|0|0]
25900,1.6781401634216309,1.17031991481781,-0.04197358712553978,-0.15115921199321747,0.6310365796089172,1.8281399011611938,4.05859375,0,A1,7.6,90,0,0.8851509311109412,[26000|0|0|0]
26000,1.6781164407730103,1.1703194379806519,-0.041651301085948944,-0.14175164699554443,0.6363946199417114,1.838388442993164,4.05859375,0,A1,7.6,90,0,0.8854740894045783,[26100|0|0|0]
26100,1.6778994798660278,1.1702288389205933,-0.04149867594242096,-0.13883113861083984,0.6370008587837219,1.8618441820144653,4.05859375,0,A1,7.6,90,0,0.8857544011226335,[26200|0|0|0]
26200,1.6782819032669067,1.1705011129379272,-0.041503969579935074,-0.15172836184501648,0.6218893527984619,1.8626223802566528,4.05859375,0,A1,7.6,90,0,0.8862238783006231,[26300|0|0|0]
26300,1.6779742240905762,1.1702276468276978,-0.0420384481549263,-0.14338746666908264,0.6271013617515564,1.834997296333313,4.05859375,0,A1,7.6,90,0,0.8868985022967247,[26400|0|0|0]
26400,1.6784285306930542,1.1701219081878662,-0.04182519018650055,-0.14045485854148865,0.6184341311454773,1.844160556793213,4.05859375,0,A1,7.6,90,0,0.8874113903060461,[26500|0|0|0]
26500,1.6782160997390747,1.1704851388931274,-0.04164079204201698,-0.1488027721643448,0.6240944862365723,1.8127998113632202,4.05859375,0,A1,7.6,90,0,0.8878708096473261,[26600|0|0|0]
26600,1.6779906749725342,1.1702481508255005,-0.04158114269375801,-0.14641758799552917,0.638005256652832,1.832742691040039,4.05859375,0,A1,7.6,90,0,0.8882032817729474,[26700|0|0|0]
26700,1.678174376487732,1.1702940464019775,-0.04172429442405701,-0.14525534212589264,0.6273015141487122,1.8745070695877075,4.05859375,0,A1,7.6,90,0,0.8884406529348725,[26800|0|0|0]
26801,1.6782243251800537,1.1705313920974731,-0.041592035442590714,-0.15250924229621887,0.6207713484764099,1.8922897577285767,4.05859375,0,A1,7.6,90,0,0.8887169142047122,[26900|0|0|0]
26900,1.67819344997406,1.1702083349227905,-0.04154271259903908,-0.1395891159772873,0.6190966367721558,1.9326705932617188,4.05859375,0,A1,7.6,90,0,0.8890451701404621,[27000|0|0|0]
27000,1.6783959865570068,1.1702277660369873,-0.04163285717368126,-0.13883523643016815,0.613430917263031,1.9216516017913818,4.05859375,0,A1,7.6,90,0,0.889267711552267,[27100|0|0|0]
27101,1.678056001663208,1.1704760789871216,-0.04186531901359558,-0.14270679652690887,0.6283579468727112,1.8833035230636597,4.05859375,0,A1,7.6,90,0,0.8897486352013343,[27200|0|0|0]
27201,1.6783149242401123,1.170252799987793,-0.04168657213449478,-0.13614702224731445,0.6218221187591553,1.9036054611206055,4.05859375,0,A1,7.6,90,0,0.8901344393733701,[27300|0|0|0]
27301,1.6781009435653687,1.1703861951828003,-0.041292622685432434,-0.1401197612285614,0.6341688632965088,1.9051580429077148,4.05859375,0,A1,7.6,90,0,0.8906021766667639,[27400|0|0|0]
27401,1.6778357028961182,1.1703448295593262,-0.04162461310625076,-0.13635540008544922,0.6363347768783569,1.8613154888153076,4.05859375,0,A1,7.6,90,0,0.8910291208867095,[27500|0|0|0]
27501,1.6782058477401733,1.1704598665237427,-0.042037494480609894,-0.14430201053619385,0.6324400901794434,1.8801703453063965,4.05859375,0,A1,7.6,90,0,0.8915954350557495,[27600|0|0|0]
27601,1.6780201196670532,1.170350193977356,-0.0416068509221077,-0.13869556784629822,0.636028528213501,1.8524645566940308,4.05859375,0,A1,7.6,90,0,0.8920770748164164,[27700|0|0|0]
27701,1.6781151294708252,1.1702276468276978,-0.04134460911154747,-0.1294039636850357,0.6406098008155823,1.8668122291564941,4.05859375,0,A1,7.6,90,0,0.8923817310717405,[27800|0|0|0]
27800,1.6782448291778564,1.1702606678009033,-0.041840214282274246,-0.12837916612625122,0.634871244430542,1.8924521207809448,4.05859375,0,A1,7.6,90,0,0.8928950895078517,[27900|0|0|0]
27901,1.678076982498169,1.1704182624816895,-0.041674789041280746,-0.13987793028354645,0.632837176322937,1.8797039985656738,4.05859375,0,A1,7.6,90,0,0.893178592773533,[28000|0|0|0]
28001,1.6782459020614624,1.170778512954712,-0.041625142097473145,-0.14474859833717346,0.629665732383728,1.842420220375061,4.05859375,0,A1,7.6,90,0,0.8935795653925552,[28100|0|0|0]
28101,1.6783735752105713,1.1703630685806274,-0.04185900464653969,-0.13141939043998718,0.6269975900650024,1.8176325559616089,4.05859375,0,A1,7.6,90,0,0.8940731098716225,[28200|0|0|0]
28200,1.6777403354644775,1.1704577207565308,-0.04170824959874153,-0.1337154060602188,0.6353152394294739,1.7895455360412598,4.05859375,0,A1,7.6,90,0,0.8947308930386865,[28300|0|0|0]
28302,1.6782344579696655,1.170161247253418,-0.04159713163971901,-0.128826305270195,0.6168443560600281,1.832566738128662,4.05859375,0,A1,7.6,90,0,0.8953177497409559,[28400|0|0|0]
28400,1.6779614686965942,1.170164942741394,-0.04162241518497467,-0.13172946870326996,0.625633955001831,1.840826392173767,4.05859375,0,A1,7.6,90,0,0.8955919322668471,[28500|0|0|0]
28500,1.6779175996780396,1.1706628799438477,-0.041682321578264236,-0.14778855443000793,0.6284276843070984,1.7875196933746338,4.05859375,0,A1,7.6,90,0,0.8960953751378198,[28600|0|0|0]
28600,1.6782349348068237,1.1701576709747314,-0.04201763868331909,-0.14549939334392548,0.6228475570678711,1.7948812246322632,4.05859375,0,A1,7.6,90,0,0.8967797545993602,[28700|0|0|0]
28702,1.677978277206421,1.1702415943145752,-0.041508324444293976,-0.14378130435943604,0.6307159662246704,1.8005634546279907,4.05859375,0,A1,7.6,90,0,0.8973562242385337,[28800|0|0|0]
28800,1.678315281867981,1.1701256036758423,-0.04156722128391266,-0.14394760131835938,0.620699405670166,1.8269145488739014,4.05859375,0,A1,7.6,90,0,0.8977174648894908,[28900|0|0|0]
28900,1.6782433986663818,1.1705859899520874,-0.041971489787101746,-0.15355521440505981,0.6245862245559692,1.8134311437606812,4.05859375,0,A1,7.6,90,0,0.8983343568903286,[29000|0|0|0]
29000,1.6783052682876587,1.17012357711792,-0.04162502661347389,-0.15540333092212677,0.6375980973243713,1.8494006395339966,4.05859375,0,A1,7.6,90,0,0.8989154680758344,[29100|0|0|0]
29100,1.6785742044448853,1.1701949834823608,-0.04157435894012451,-0.15739478170871735,0.6263852715492249,1.89168119430542,4.05859375,0,A1,7.6,90,0,0.8991982979516769,[29200|0|0|0]
29200,1.6782867908477783,1.1703003644943237,-0.04189396649599075,-0.1654915064573288,0.6320644617080688,1.9385497570037842,4.05859375,0,A1,7.6,90,0,0.8996408594990928,[29300|0|0|0]
29300,1.6780726909637451,1.170552134513855,-0.04169873520731926,-0.17396549880504608,0.6375046968460083,1.9498058557510376,4.05859375,0,A1,7.6,90,0,0.900024711240204,[29400|0|0|0]
29400,1.6778122186660767,1.1699707508087158,-0.041700415313243866,-0.15412044525146484,0.6445634365081787,1.9450798034667969,4.05859375,0,A1,7.6,90,0,0.9006617792532214,[29500|0|0|0]
29500,1.6781079769134521,1.1704769134521484,-0.04178136587142944,-0.1651490479707718,0.6375206708908081,1.9080555438995361,4.05859375,0,A1,7.6,90,0,0.9012535786747892,[29600|0|0|0]
29600,1.6781952381134033,1.170000672340393,-0.04159997031092644,-0.1537734866142273,0.6376722455024719,1.8989853858947754,4.05859375,0,A1,7.6,90,0,0.9017706129704728,[29700|0|0|0]
29700,1.6779379844665527,1.1701503992080688,-0.04204791039228439,-0.15442517399787903,0.6410883069038391,1.8950093984603882,4.05859375,0,A1,7.6,90,0,0.9023084306814204,[29800|0|0|0]
29800,1.6781284809112549,1.1703027486801147,-0.04144563898444176,-0.15902870893478394,0.6430065631866455,1.8939688205718994,4.05859375,0,A1,7.6,90,0,0.902958223037317,[29900|0|0|0]
29900,1.677770733833313,1.1701289415359497,-0.04185181111097336,-0.1560891568660736,0.6496121883392334,1.9250208139419556,4.05859375,0,A1,7.6,90,0,0.9035267014375311,[30000|0|0|0]
30000,1.6782907247543335,1.170334815979004,-0.04141945019364357,-0.1634790152311325,0.6341478824615479,1.9392069578170776,4.05859375,0,A1,7.6,90,0,0.9042336036988664,[30100|0|0|0]
30100,1.678976058959961,1.1708966493606567,-0.04021894186735153,-0.16891002655029297,0.6123126149177551,1.8966339826583862,3.24609375,0,F2,7.6,90,0,0.9057257698972635,[30100|0|0|0]
30200,1.6773887872695923,1.1694494485855103,-0.04244067892432213,-0.15713830292224884,0.5913915038108826,2.0857739448547363,3.029296875,0,F2,7.6,90,0,0.9088160671407252,[30100|0|0|0]
30300,1.6775898933410645,1.173025131225586,-0.030103042721748352,-0.8772138953208923,-0.6307645440101624,2.8010122776031494,3.357421875,0,F2,7.6,90,0,0.9216629818310926,[30100|0|0|0]
30400,1.677233338356018,1.1752641201019287,0.02100309170782566,0.22452382743358612,-0.7852633595466614,2.2114036083221436,3.552734375,0,F2,7.6,90,0,0.9728193810298189,[30100|0|0|0]
30500,1.6789805889129639,1.1798837184906006,0.09796397387981415,-1.3144348859786987,0.7699472904205322,0.8661779165267944,3.615234375,0,F2,7.6,90,0,1.0499385807045567,[30100|0|0|0]
30600,1.681002140045166,1.1858121156692505,0.1833733767271042,-0.6621997952461243,1.1218695640563965,-0.6475350856781006,3.630859375,0,F2,7.6,90,0,1.1355773491264496,[30100|0|0|0]
30700,1.6809792518615723,1.1933047771453857,0.2684069573879242,0.18246276676654816,0.8954174518585205,-1.7082692384719849,3.6640625,0,F2,7.6,90,0,1.2209403993288943,[30100|0|0|0]
30800,1.6802067756652832,1.2010467052459717,0.34655383229255676,0.6527960896492004,1.0460206270217896,-2.5713050365448,3.673828125,0,F2,7.6,90,0,1.2994736294136728,[30100|0|0|0]
30900,1.6787248849868774,1.2081780433654785,0.41085129976272583,1.85728120803833,-0.0841548964381218,-2.8003315925598145,3.658203125,0,F2,7.6,90,0,1.36418233289655,[30100|0|0|0]
31000,1.6751303672790527,1.2122260332107544,0.46058642864227295,1.557321310043335,0.20584331452846527,-2.7997524738311768,3.6484375,0,F2,7.6,90,0,1.4142112227903354,[30100|0|0|0]
31100,1.6721374988555908,1.2152553796768188,0.498612642288208,1.5452511310577393,-0.39575302600860596,-2.4630062580108643,3.626953125,0,F2,7.6,90,0,1.4524751369348385,[30100|0|0|0]
31200,1.6676260232925415,1.2155160903930664,0.5270987153053284,1.3882523775100708,0.19931910932064056,-1.7432148456573486,3.62109375,0,F2,7.6,90,0,1.4813174277205974,[30100|0|0|0]
31300,1.663129448890686,1.2131602764129639,0.5506547093391418,1.2250486612319946,-0.7617353796958923,-1.469313621520996,3.62109375,0,F2,7.6,90,0,1.5054141888262174,[30100|0|0|0]
31400,1.6595458984375,1.2109246253967285,0.5697309374809265,0.5408619046211243,-0.557175874710083,-1.8927990198135376,3.60546875,0,F2,7.6,90,0,1.5249524192843305,[30100|0|0|0]
31500,1.6555801630020142,1.2075201272964478,0.5833492875099182,0.408216655254364,-0.8113700747489929,-1.939659833908081,3.59375,0,F2,7.6,90,0,1.5395393011434264,[30100|0|0|0]
31600,1.652598261833191,1.203601598739624,0.5956057906150818,0.1528005450963974,-1.1616543531417847,-1.7405993938446045,3.611328125,0,F2,7.6,90,0,1.552747952437111,[30100|0|0|0]
31700,1.650212287902832,1.1985576152801514,0.604884684085846,-0.02962227165699005,-0.46536433696746826,-1.678428292274475,3.60546875,0,F2,7.6,90,0,1.563575348466516,[30100|0|0|0]
31800,1.649410605430603,1.194252610206604,0.6128620505332947,-0.5166775584220886,-0.8910079598426819,-2.1354806423187256,3.59375,0,F2,7.6,90,0,1.5726755758761157,[30100|0|0|0]
31900,1.6497821807861328,1.1907755136489868,0.6176138520240784,-0.6918027400970459,-1.1572352647781372,-2.7972333431243896,3.578125,0,F2,7.6,90,0,1.578575396731332,[30100|0|0|0]
32000,1.650396704673767,1.1890708208084106,0.6231265068054199,-0.9035975933074951,0.1402820348739624,-3.7068541049957275,3.58984375,0,F2,7.6,90,0,1.5843782391406547,[30100|0|0|0]
32100,1.6507270336151123,1.188140630722046,0.6296424269676208,-0.855197012424469,-0.1879855841398239,-2.5478227138519287,3.59375,0,F2,7.6,90,0,1.5909685036548027,[30100|0|0|0]
32200,1.6516897678375244,1.189061164855957,0.637569010257721,-0.38108494877815247,-0.2693101465702057,-2.4066660404205322,3.59375,0,F2,7.6,90,0,1.5990062249070975,[30100|0|0|0]
32300,1.652745008468628,1.1903877258300781,0.6424096822738647,0.33234986662864685,-0.41891953349113464,-2.341667413711548,3.58984375,0,F2,7.6,90,0,1.6041351041585004,[30100|0|0|0]
32400,1.6542832851409912,1.1899911165237427,0.6460568308830261,0.4768194258213043,-0.2962515950202942,-2.371109962463379,3.583984375,0,F2,7.6,90,0,1.6081132050923528,[30100|0|0|0]
32500,1.6565107107162476,1.1878563165664673,0.6485738754272461,0.05510997027158737,-0.5173782706260681,-2.2379660606384277,3.578125,0,F2,7.6,90,0,1.6120949520441914,[30100|0|0|0]
32600,1.6586885452270508,1.1854586601257324,0.6516772508621216,0.09501480311155319,-0.08899708837270737,-2.0474531650543213,3.578125,0,F2,7.6,90,0,1.6165807806916133,[30100|0|0|0]
32700,1.6624480485916138,1.1829249858856201,0.6545142531394958,-0.5834357142448425,0.277122437953949,-1.6227893829345703,3.57421875,0,F2,7.6,90,0,1.6219288600314319,[30100|0|0|0]
32800,1.664715051651001,1.1802033185958862,0.6561395525932312,-0.19192399084568024,-0.009304794482886791,-1.312705397605896,3.58984375,0,F2,7.6,90,0,1.625826086483871,[30100|0|0|0]
32900,1.667718768119812,1.178499698638916,0.6567531824111938,-0.3263280689716339,0.9683961272239685,-1.3595082759857178,3.578125,0,F2,7.6,90,0,1.629333389598272,[30100|0|0|0]
