time.ms,stateEstimate.x,stateEstimate.y,stateEstimate.z,stabilizer.roll,stabilizer.pitch,stabilizer.yaw,pm.vbat,drone_id,node_name,wind_speed,global_wind_direction,relative_wind_direction,travel_dist,waiting_time
0,0.004465116187930107,0.5150886178016663,-0.02865530736744404,-0.4798821806907654,-0.12255208939313889,9.254414558410645,4.08984375,1,J1,7.6,90,0,0.3968517610791404,[100|0|0|0]
100,0.004783745855093002,0.5148903131484985,-0.02887287549674511,-0.47440847754478455,-0.13857267796993256,9.254715919494629,4.08984375,1,J1,7.6,90,0,0.3972855645958987,[200|0|0|0]
200,0.004567950032651424,0.5152423977851868,-0.028808269649744034,-0.47877979278564453,-0.13201868534088135,9.263209342956543,4.0859375,1,J1,7.6,90,0,0.3977035422793243,[300|0|0|0]
300,0.004343576263636351,0.5152168869972229,-0.028897838667035103,-0.47798460721969604,-0.12485771626234055,9.255125999450684,4.08984375,1,J1,7.6,90,0,0.3979464764213938,[400|0|0|0]
400,0.004579235799610615,0.5146909952163696,-0.02888362668454647,-0.4636450707912445,-0.13440771400928497,9.259259223937988,4.0859375,1,J1,7.6,90,0,0.39852293072358164,[500|0|0|0]
500,0.00479526724666357,0.5149360299110413,-0.028697606176137924,-0.4666666090488434,-0.13687670230865479,9.273371696472168,4.08984375,1,J1,7.6,90,0,0.3988988498867766,[600|0|0|0]
600,0.004275319632142782,0.5150421857833862,-0.02867809869349003,-0.4721575081348419,-0.12534219026565552,9.261780738830566,4.08984375,1,J1,7.6,90,0,0.39942988202606616,[700|0|0|0]
700,0.005027052015066147,0.5149458050727844,-0.028899282217025757,-0.4684283137321472,-0.14439721405506134,9.267373085021973,4.08984375,1,J1,7.6,90,0,0.400219383747404,[800|0|0|0]
800,0.004532547201961279,0.5148425698280334,-0.0291820727288723,-0.4636804461479187,-0.12583541870117188,9.24587631225586,4.08984375,1,J1,7.6,90,0,0.4007983163855694,[900|0|0|0]
900,0.0044710817746818066,0.5152437686920166,-0.02860560454428196,-0.4688383638858795,-0.12461590021848679,9.244665145874023,4.0859375,1,J1,7.6,90,0,0.4015033370200596,[1000|0|0|0]
1000,0.004305295180529356,0.5150997638702393,-0.029069943353533745,-0.46426522731781006,-0.12425899505615234,9.230331420898438,4.08984375,1,J1,7.6,90,0,0.4020169838961069,[1100|0|0|0]
1100,0.004726233426481485,0.5150230526924133,-0.0290761049836874,-0.4661276340484619,-0.13781674206256866,9.240679740905762,4.08984375,1,J1,7.6,90,0,0.4024448992818958,[1200|0|0|0]
1200,0.004206636920571327,0.5150526762008667,-0.028944771736860275,-0.46410760283470154,-0.12386365979909897,9.247721672058105,4.08984375,1,J1,7.6,90,0,0.40298165481556947,[1300|0|0|0]
1300,0.004421412479132414,0.5150240659713745,-0.028708502650260925,-0.45678168535232544,-0.12866169214248657,9.254103660583496,4.08984375,1,J1,7.6,90,0,0.4033022326798541,[1400|0|0|0]
1400,0.004578948020935059,0.5146123170852661,-0.029126720502972603,-0.4475996494293213,-0.12437636405229568,9.255085945129395,4.0859375,1,J1,7.6,90,0,0.40390990098120716,[1500|0|0|0]
1500,0.004416325595229864,0.5148471593856812,-0.02882750891149044,-0.4557994306087494,-0.11984925717115402,9.2521390914917,4.0859375,1,J1,7.6,90,0,0.40432357299607374,[1600|0|0|0]
1600,0.004349942784756422,0.5148704648017883,-0.02892378717660904,-0.45841896533966064,-0.11439552158117294,9.250192642211914,4.08984375,1,J1,7.6,90,0,0.40444281780426483,[1700|0|0|0]
1700,0.004698399920016527,0.5149391293525696,-0.02881297469139099,-0.4534442722797394,-0.12703965604305267,9.252433776855469,4.08984375,1,J1,7.6,90,0,0.40481486162228614,[1800|0|0|0]
1800,0.004268939141184092,0.5149304270744324,-0.028957439586520195,-0.44939735531806946,-0.11872195452451706,9.248922348022461,4.08984375,1,J1,7.6,90,0,0.40526805296832535,[1900|0|0|0]
1900,0.004803727380931377,0.5148230195045471,-0.028813956305384636,-0.44988933205604553,-0.13348791003227234,9.277177810668945,4.0859375,1,J1,7.6,90,0,0.4058320762829198,[2000|0|0|0]
2000,0.20783913135528564,0.41644811630249023,-0.22463458776474,0.00011081597040174529,0.000739911338314414,5.189218997955322,4.08984375,1,J1,7.6,90,0,0.7045739657999139,[2100|0|0|0]
2100,0.009135525673627853,0.5120512843132019,-0.032805830240249634,1.2112394571304321,-1.4947493076324463,8.535758018493652,4.0859375,1,J1,7.6,90,0,0.996843295114445,[2200|0|0|0]
2200,0.008892610669136047,0.5120252966880798,-0.032649628818035126,-0.5364152193069458,-0.05660014599561691,9.072442054748535,4.08984375,1,J1,7.6,90,0,0.9971332639754776,[2300|0|0|0]
2300,0.006495519541203976,0.513748288154602,-0.030578667297959328,-1.7028454542160034,0.9139561057090759,9.188532829284668,4.08984375,1,J1,7.6,90,0,1.0007393182023236,[2400|0|0|0]
2400,0.004397127777338028,0.514540433883667,-0.02960103005170822,-1.9671663045883179,1.1631910800933838,9.182565689086914,4.0859375,1,J1,7.6,90,0,1.0031860542804476,[2500|0|0|0]
2500,0.00415766378864646,0.5153438448905945,-0.028813043609261513,-1.9124925136566162,1.0195963382720947,9.156075477600098,4.08984375,1,J1,7.6,90,0,1.0043365910601345,[2600|0|0|0]
2600,0.0034647989086806774,0.515676736831665,-0.028738124296069145,-1.7474313974380493,0.8846226930618286,9.123318672180176,4.08984375,1,J1,7.6,90,0,1.005108919804782,[2700|0|0|0]
2700,0.0034158751368522644,0.5156104564666748,-0.028412265703082085,-1.5687021017074585,0.7218478322029114,9.118619918823242,4.08984375,1,J1,7.6,90,0,1.0054450305675622,[2800|0|0|0]
2800,0.003306363243609667,0.515608012676239,-0.028603635728359222,-1.4019466638565063,0.5968788266181946,9.12077808380127,4.08984375,1,J1,7.6,90,0,1.0056655329789954,[2900|0|0|0]
2900,0.003274713410064578,0.5158767700195312,-0.028270360082387924,-1.2617782354354858,0.48300257325172424,9.10739803314209,4.0859375,1,J1,7.6,90,0,1.0060948404186403,[3000|0|0|0]
3000,0.0033596251159906387,0.5153162479400635,-0.028382636606693268,-1.1215139627456665,0.38319045305252075,9.113503456115723,4.08984375,1,J1,7.6,90,0,1.006672768629826,[3100|0|0|0]
3100,0.0037527289241552353,0.5150765776634216,-0.028383906930685043,-1.0189610719680786,0.29736143350601196,9.124342918395996,4.08984375,1,J1,7.6,90,0,1.0071331750364085,[3200|0|0|0]
3200,0.004062413703650236,0.5149151086807251,-0.028888897970318794,-0.9247497320175171,0.22004172205924988,9.157622337341309,4.08984375,1,J1,7.6,90,0,1.0077471724672942,[3300|0|0|0]
3300,0.0040940819308161736,0.5153577923774719,-0.028535639867186546,-0.8646856546401978,0.15505370497703552,9.180628776550293,4.08984375,1,J1,7.6,90,0,1.0083144140555138,[3400|0|0|0]
3400,0.004265677649527788,0.5150651931762695,-0.029013965278863907,-0.7893745303153992,0.1032906025648117,9.152621269226074,4.08984375,1,J1,7.6,90,0,1.008900805207119,[3500|0|0|0]
3500,0.00423393351957202,0.5150691270828247,-0.028699353337287903,-0.7375732064247131,0.06153806671500206,9.175016403198242,4.08984375,1,J1,7.6,90,0,1.0092170390433692,[3600|0|0|0]
3600,0.004197012633085251,0.5151694416999817,-0.028862709179520607,-0.698015570640564,0.027343185618519783,9.193906784057617,4.08984375,1,J1,7.6,90,0,1.0094122602140088,[3700|0|0|0]
3700,0.004060657229274511,0.5148749947547913,-0.02880392223596573,-0.642253041267395,0.007449533324688673,9.209796905517578,4.08984375,1,J1,7.6,90,0,1.009742029382387,[3800|0|0|0]
3800,0.004163628909736872,0.5149375200271606,-0.02873940020799637,-0.6106728315353394,-0.02094939723610878,9.221948623657227,4.08984375,1,J1,7.6,90,0,1.0098786883329003,[3900|0|0|0]
3900,0.004382268991321325,0.5148367285728455,-0.028580069541931152,-0.5801895260810852,-0.04820255562663078,9.23171615600586,4.0859375,1,J1,7.6,90,0,1.0101673900192254,[4000|0|0|0]
4000,0.004442853387445211,0.5146464705467224,-0.02901608869433403,-0.552149772644043,-0.071255162358284,9.250910758972168,4.08984375,1,J1,7.6,90,0,1.010646953661321,[4100|0|0|0]
4100,0.004362058825790882,0.5145976543426514,-0.02872692607343197,-0.529569149017334,-0.07831981033086777,9.264041900634766,4.08984375,1,J1,7.6,90,0,1.0109511342068853,[4200|0|0|0]
4200,0.004518130328506231,0.5151121616363525,-0.028801877051591873,-0.5266984105110168,-0.1021467074751854,9.257787704467773,4.08984375,1,J1,7.6,90,0,1.011493991203118,[4300|0|0|0]
4300,0.004650753457099199,0.5147256851196289,-0.028861936181783676,-0.5027004480361938,-0.10797552764415741,9.268750190734863,4.08984375,1,J1,7.6,90,0,1.0119069804176697,[4400|0|0|0]
4400,0.004376909229904413,0.5146377682685852,-0.02883506566286087,-0.48487505316734314,-0.10052915662527084,9.253058433532715,4.0859375,1,J1,7.6,90,0,1.0121958438079643,[4500|0|0|0]
4500,0.004353612661361694,0.5147523283958435,-0.02851145900785923,-0.48788967728614807,-0.10871600359678268,9.243926048278809,4.0859375,1,J1,7.6,90,0,1.0125399194101576,[4600|0|0|0]
4600,0.004439258947968483,0.5145479440689087,-0.028772441670298576,-0.47808390855789185,-0.11849870532751083,9.250032424926758,4.08984375,1,J1,7.6,90,0,1.012882293751486,[4700|0|0|0]
4700,0.004524256102740765,0.5149522423744202,-0.02916809543967247,-0.4845329523086548,-0.12271937727928162,9.253094673156738,4.08984375,1,J1,7.6,90,0,1.013454328314584,[4800|0|0|0]
4800,0.0047132279723882675,0.5146939158439636,-0.02885027416050434,-0.4756317734718323,-0.1307171732187271,9.24008560180664,4.08984375,1,J1,7.6,90,0,1.013905386325651,[4900|0|0|0]
4900,0.004281285684555769,0.5147603154182434,-0.02853112481534481,-0.4682830274105072,-0.1166042611002922,9.23779296875,4.0859375,1,J1,7.6,90,0,1.014446532653365,[5000|0|0|0]
5000,0.004533342085778713,0.5150091052055359,-0.028866466134786606,-0.4698750376701355,-0.12841477990150452,9.25734806060791,4.08984375,1,J1,7.6,90,0,1.0149342647398463,[5100|0|0|0]
5100,0.004830983933061361,0.514618992805481,-0.029092634096741676,-0.4635254144668579,-0.13678722083568573,9.265305519104004,4.0859375,1,J1,7.6,90,0,1.015474570487498,[5200|0|0|0]
5200,0.004596096929162741,0.5144954323768616,-0.02915201149880886,-0.461251825094223,-0.1322351098060608,9.255901336669922,4.08984375,1,J1,7.6,90,0,1.0157465351175463,[5300|0|0|0]
5300,0.004839480854570866,0.5147857666015625,-0.028954068198800087,-0.46206867694854736,-0.13769306242465973,9.249053955078125,4.08984375,1,J1,7.6,90,0,1.0161739824794496,[5400|0|0|0]
5400,0.004563495051115751,0.5150440335273743,-0.029025577008724213,-0.4729873836040497,-0.1337096095085144,9.26059627532959,4.0859375,1,J1,7.6,90,0,1.0165586686873824,[5500|0|0|0]
5500,0.00449405936524272,0.5151016116142273,-0.0288683008402586,-0.4748043715953827,-0.12978287041187286,9.253829002380371,4.08984375,1,J1,7.6,90,0,1.016739976005838,[5600|0|0|0]
5600,0.004681901540607214,0.5148041248321533,-0.02878655306994915,-0.4677012264728546,-0.13369663059711456,9.244410514831543,4.0859375,1,J1,7.6,90,0,1.0171011764575333,[5700|0|0|0]
5700,0.004817145876586437,0.5149020552635193,-0.02929297275841236,-0.4693237841129303,-0.1414886862039566,9.23540210723877,4.08984375,1,J1,7.6,90,0,1.0176344140224751,[5800|0|0|0]
5800,0.004301462322473526,0.5147662162780762,-0.028735825791954994,-0.4563714563846588,-0.11928582936525345,9.2317476272583,4.08984375,1,J1,7.6,90,0,1.018405643236251,[5900|0|0|0]
5900,0.004640020430088043,0.5146837830543518,-0.02899165451526642,-0.4457508325576782,-0.13301149010658264,9.227889060974121,4.0859375,1,J1,7.6,90,0,1.0188379222714543,[6000|0|0|0]
6000,0.004512238781899214,0.5148212909698486,-0.029041722416877747,-0.45547497272491455,-0.1340373456478119,9.232987403869629,4.0859375,1,J1,7.6,90,0,1.019032198804288,[6100|0|0|0]
6100,0.004375103395432234,0.5145788788795471,-0.028796963393688202,-0.4507765471935272,-0.12003500759601593,9.241168022155762,4.08984375,1,J1,7.6,90,0,1.0194029773300666,[6200|0|0|0]
6200,0.004507359117269516,0.5145788788795471,-0.02906268648803234,-0.4517786204814911,-0.12513980269432068,9.275435447692871,4.0859375,1,B1,7.6,90,0,1.0196997943424269,[6200|0|0|0]
6300,0.004491622559726238,0.5149446725845337,-0.028621139004826546,-0.527971088886261,-0.20135045051574707,8.627981185913086,3.078125,1,B1,7.6,90,0,1.0202733942498332,[6200|0|0|0]
6400,0.0048455907963216305,0.5128076672554016,-0.023545505478978157,0.013954048044979572,-6.431296348571777,6.529892921447754,3.357421875,1,B1,7.6,90,0,1.025791921315815,[6200|0|0|0]
6500,0.027414696291089058,0.5148223042488098,0.007521128281950951,0.9937145709991455,-19.878747940063477,4.329148769378662,3.505859375,1,B1,7.6,90,0,1.064243956610255,[6200|0|0|0]
6600,0.08363945782184601,0.5169878602027893,0.05670614540576935,1.6994229555130005,-10.269563674926758,2.127333879470825,3.525390625,1,B1,7.6,90,0,1.13897734507385,[6200|0|0|0]
6700,0.15959030389785767,0.5168558955192566,0.11862096190452576,1.714345932006836,-2.95729923248291,0.25379717350006104,3.53125,1,B1,7.6,90,0,1.2369671044184591,[6200|0|0|0]
6800,0.23799563944339752,0.5143072009086609,0.19242386519908905,0.4681188762187958,4.615462303161621,0.1055784672498703,3.568359375,1,B1,7.6,90,0,1.344673933454196,[6200|0|0|0]
6900,0.3058761954307556,0.5106378793716431,0.2742070257663727,-1.0795525312423706,7.4001970291137695,0.85118567943573,3.57421875,1,B1,7.6,90,0,1.451021096811142,[6200|0|0|0]
7000,0.3590256869792938,0.508463978767395,0.36066028475761414,-1.0041279792785645,9.237366676330566,0.9919654130935669,3.57421875,1,B1,7.6,90,0,1.5525285363705752,[6200|0|0|0]
7100,0.39608198404312134,0.5071560740470886,0.44782117009162903,-2.677922010421753,8.534350395202637,-0.8157732486724854,3.5625,1,B1,7.6,90,0,1.6472486488021456,[6200|0|0|0]
7200,0.41982555389404297,0.5119946002960205,0.5343137979507446,-1.9235470294952393,7.326025485992432,-3.1157102584838867,3.55859375,1,B1,7.6,90,0,1.7370714917737564,[6200|0|0|0]
7300,0.43572261929512024,0.5245991945266724,0.6209345459938049,-0.6209545135498047,5.413190841674805,-3.3154478073120117,3.552734375,1,B1,7.6,90,0,1.8260363526775134,[6200|0|0|0]
7401,0.44677138328552246,0.5390966534614563,0.7103062868118286,0.9583593606948853,2.4621615409851074,-1.733493447303772,3.55859375,1,B1,7.6,90,0,1.9172479723217526,[6200|0|0|0]
7501,0.45795178413391113,0.5523915886878967,0.8071417212486267,1.999262809753418,1.4786721467971802,-0.5431561470031738,3.568359375,1,B1,7.6,90,0,2.015629159691947,[6200|0|0|0]
7601,0.4707721471786499,0.5612711310386658,0.9081676006317139,2.949558973312378,2.1789603233337402,-0.023915579542517662,3.583984375,1,B1,7.6,90,0,2.1178516439411768,[6200|0|0|0]
7701,0.48434269428253174,0.566872239112854,1.012848138809204,2.2623367309570312,2.565335273742676,-0.7240025997161865,3.57421875,1,B1,7.6,90,0,2.223556644927348,[6200|0|0|0]
7801,0.4947986900806427,0.5685575604438782,1.1174346208572388,1.0292414426803589,3.9687716960906982,-1.6819440126419067,3.568359375,1,B1,7.6,90,0,2.3286780051892033,[6200|0|0|0]
7902,0.4988449513912201,0.5709251761436462,1.2201650142669678,1.6496392488479614,4.778926372528076,-1.6170915365219116,3.59375,1,B1,7.6,90,0,2.431515311478375,[6200|0|0|0]
8002,0.495187371969223,0.5715118050575256,1.3195809125900269,2.0199954509735107,4.461363315582275,-2.2482690811157227,3.63671875,1,B1,7.6,90,0,2.5310001990748923,[6200|0|0|0]
8102,0.48322388529777527,0.569484293460846,1.4092031717300415,1.686149001121521,3.2340691089630127,-2.9910686016082764,3.65234375,1,B1,7.6,90,0,2.6214401523586734,[6200|0|0|0]
8202,0.4654046595096588,0.5638614296913147,1.4821908473968506,0.9800131916999817,2.0223896503448486,-3.0358526706695557,3.65234375,1,B1,7.6,90,0,2.6967816562187763,[6200|0|0|0]
8302,0.4430822730064392,0.5562962889671326,1.5384271144866943,0.19881029427051544,-0.3621729612350464,-2.771055221557617,3.626953125,1,B1,7.6,90,0,2.757757372939255,[6200|0|0|0]
8402,0.42072147130966187,0.548133373260498,1.5783441066741943,-1.140420913696289,-1.8172839879989624,-2.5429468154907227,3.611328125,1,B1,7.6,90,0,2.80423322592393,[6200|0|0|0]
8502,0.3991374671459198,0.541679859161377,1.6046415567398071,-1.5296143293380737,-3.1683571338653564,-1.0421541929244995,3.611328125,1,B1,7.6,90,0,2.838860858819082,[6200|0|0|0]
8601,0.3800908327102661,0.5376706123352051,1.6209179162979126,-2.223680257797241,-2.7683751583099365,-1.080104112625122,3.57421875,1,B1,7.6,90,0,2.8642334468601813,[6200|0|0|0]
8701,0.36223140358924866,0.5342673063278198,1.6215287446975708,-1.5070831775665283,-3.436878204345703,1.9042487144470215,3.57421875,1,B1,7.6,90,0,2.8824245109203837,[6200|0|0|0]
8801,0.3509400188922882,0.5365887880325317,1.6297982931137085,-1.3272948265075684,-3.3994312286376953,4.732868194580078,3.583984375,1,B1,7.6,90,0,2.896611479472083,[6200|0|0|0]
8902,0.3462230861186981,0.5452202558517456,1.6444052457809448,-0.7070295810699463,-2.777179718017578,0.09575129300355911,3.583984375,1,B1,7.6,90,0,2.91422155493267,[6200|0|0|0]
9000,0.34197431802749634,0.5521634221076965,1.6472984552383423,0.5359845757484436,-2.2299139499664307,-3.679412841796875,3.59375,1,B1,7.6,90,0,2.922860435005629,[6200|0|0|0]
9100,0.3388279378414154,0.5590069890022278,1.6470950841903687,1.4489333629608154,-2.1038405895233154,-5.939988613128662,3.57421875,1,B1,7.6,90,0,2.930395385297332,[6200|0|0|0]
9200,0.33806535601615906,0.5600677728652954,1.6439024209976196,1.8066314458847046,-1.6037275791168213,-6.470669746398926,3.57421875,1,B1,7.6,90,52.52382043863862,2.9338450072630975,[6200|0|0|0]
9302,0.33781537413597107,0.5600172877311707,1.6374200582504272,-1.9398272037506104,-4.778875350952148,-6.59971809387207,3.60546875,1,B1,7.6,90,52.52382043863862,2.940332384735958,[6200|0|0|0]
9400,0.3444952368736267,0.5633873343467712,1.6235792636871338,-8.672855377197266,-10.662020683288574,-7.3027663230896,3.58984375,1,B1,7.6,90,52.52382043863862,2.956065959489603,[6200|0|0|0]
9500,0.37006616592407227,0.5721806287765503,1.6036206483840942,-8.569664001464844,-10.766700744628906,-5.1971917152404785,3.5625,1,B1,7.6,90,52.52382043863862,2.9896746007035295,[6200|0|0|0]
9600,0.3995291590690613,0.5999367237091064,1.5707331895828247,-6.664423942565918,-6.804930686950684,-3.236828327178955,3.541015625,1,B1,7.6,90,52.52382043863862,3.041828734934403,[6200|0|0|0]
9700,0.44549745321273804,0.6334038376808167,1.5442274808883667,-4.42343282699585,-4.47341775894165,-2.8932526111602783,3.509765625,1,B1,7.6,90,52.52382043863862,3.1045637680297196,[6200|0|0|0]
9800,0.5058058500289917,0.6675739288330078,1.5275732278823853,-0.36425215005874634,-0.45287370681762695,-7.074579238891602,3.541015625,1,B1,7.6,90,52.52382043863862,3.1758523505593437,[6200|0|0|0]
9900,0.5626372694969177,0.7047938108444214,1.5150768756866455,2.697054386138916,3.179382562637329,-5.706334590911865,3.55859375,1,B1,7.6,90,52.52382043863862,3.244926865931389,[6200|0|0|0]
10000,0.6163686513900757,0.7358907461166382,1.5053507089614868,5.289949417114258,5.449401378631592,-3.084742546081543,3.55859375,1,B1,7.6,90,52.52382043863862,3.307765382007426,[6200|0|0|0]
10100,0.6684723496437073,0.7554821372032166,1.4952201843261719,4.771496772766113,6.328722953796387,-1.0696568489074707,3.552734375,1,B1,7.6,90,52.52382043863862,3.3643449322513037,[6200|0|0|0]
10200,0.7100058794021606,0.7618217468261719,1.4860538244247437,3.6653645038604736,7.3709845542907715,-0.9714741706848145,3.546875,1,B1,7.6,90,52.52382043863862,3.407347803064894,[6200|0|0|0]
10300,0.7432021498680115,0.7587976455688477,1.4784883260726929,2.3958661556243896,6.05955171585083,-3.3229806423187256,3.5625,1,B1,7.6,90,52.52382043863862,3.441529294058871,[6200|0|0|0]
10400,0.7693768739700317,0.7503498196601868,1.4694565534591675,1.8626086711883545,6.029802322387695,-6.828634738922119,3.552734375,1,B1,7.6,90,52.52382043863862,3.4704784712655266,[6200|0|0|0]
10500,0.7873246073722839,0.7389665246009827,1.4562771320343018,0.6857886910438538,6.363718509674072,-9.768911361694336,3.546875,1,B1,7.6,90,52.52382043863862,3.4954864237962204,[6200|0|0|0]
10600,0.7973418235778809,0.7268096804618835,1.4424971342086792,-1.516977310180664,6.5655412673950195,-12.112147331237793,3.53125,1,B1,7.6,90,52.52382043863862,3.516415394626297,[6200|0|0|0]
10700,0.7993571162223816,0.7191616296768188,1.4267020225524902,-2.796346426010132,5.010072708129883,-12.944548606872559,3.505859375,1,B1,7.6,90,52.52382043863862,3.5340800383386783,[6200|0|0|0]
10800,0.7975745797157288,0.7170153856277466,1.4145607948303223,-3.965188503265381,2.898151159286499,-14.196833610534668,3.521484375,1,B1,7.6,90,52.52382043863862,3.5465376950411756,[6200|0|0|0]
10900,0.7916208505630493,0.7208184003829956,1.4023590087890625,-2.4846084117889404,2.869077205657959,-15.482137680053711,3.53125,1,B1,7.6,90,52.52382043863862,3.560637106186638,[6200|0|0|0]
11000,0.781746506690979,0.7312325239181519,1.3921163082122803,1.3019996881484985,5.706058979034424,-16.89068603515625,3.552734375,1,B1,7.6,90,52.52382043863862,3.5782685993456136,[6200|0|0|0]
11100,0.765407919883728,0.742093026638031,1.3810124397277832,1.7831233739852905,2.9709300994873047,-17.799293518066406,3.515625,1,B1,7.6,90,52.52382043863862,3.6008117986196204,[6200|0|0|0]
11200,0.7465580701828003,0.7531428933143616,1.37283456325531,-3.0232458114624023,-4.0716471672058105,-17.316730499267578,3.525390625,1,B1,7.6,90,52.52382043863862,3.6241419090118,[6200|0|0|0]
11300,0.7358952164649963,0.7682934403419495,1.3668774366378784,-4.131737232208252,-7.321837902069092,-16.37921714782715,3.505859375,1,B1,7.6,90,52.52382043863862,3.643602712751074,[6200|0|0|0]
11400,0.7370778918266296,0.7858424186706543,1.3631099462509155,2.465057373046875,-1.2855180501937866,-14.844375610351562,3.53125,1,B1,7.6,90,52.52382043863862,3.6615904681754796,[6200|0|0|0]
11500,0.7399281859397888,0.7990274429321289,1.3620004653930664,7.935754776000977,3.2398483753204346,-14.977106094360352,3.537109375,1,B1,7.6,90,52.52382043863862,3.675125607224677,[6200|0|0|0]
11600,0.7358272075653076,0.8016217947006226,1.3607277870178223,7.577199935913086,4.213130474090576,-15.277267456054688,3.521484375,1,B1,7.6,90,52.52382043863862,3.6801424184602594,[6200|0|0|0]
11700,0.7232670187950134,0.7945127487182617,1.3589564561843872,4.67388916015625,1.7075022459030151,-15.419373512268066,3.515625,1,B1,7.6,90,52.52382043863862,3.6946832055657164,[6200|0|0|0]
11800,0.705606997013092,0.7818620800971985,1.355873465538025,-0.17629945278167725,-0.13203361630439758,-15.371482849121094,3.505859375,1,B1,7.6,90,52.52382043863862,3.7166245049170183,[6200|0|0|0]
11900,0.6890506744384766,0.7712842226028442,1.3534740209579468,-6.905706882476807,-7.055489540100098,-16.10182762145996,3.541015625,1,B1,7.6,90,52.52382043863862,3.7364174385211726,[6200|0|0|0]
12000,0.6845311522483826,0.7694201469421387,1.3496462106704712,-8.453619003295898,-7.4283246994018555,-16.50407600402832,3.509765625,1,B1,7.6,90,52.52382043863862,3.742626543971436,[6200|0|0|0]
12100,0.6915007829666138,0.7760711908340454,1.3445132970809937,1.7170724868774414,3.2902333736419678,-15.998836517333984,3.57421875,1,B1,7.6,90,52.52382043863862,3.7535425386177166,[6200|0|0|0]
12200,0.6914688944816589,0.7827581763267517,1.3345468044281006,7.80886173248291,9.770710945129395,-16.605533599853516,3.525390625,1,B1,7.6,90,52.52382043863862,3.7655445287716582,[6200|0|0|0]
12300,0.6774205565452576,0.7810612916946411,1.3177624940872192,3.9644455909729004,2.152836561203003,-13.348458290100098,3.7734375,1,B1,7.6,90,0,3.7874978494737537,[6200|0|0|0]
12400,0.6595508456230164,0.7753217816352844,1.278334379196167,-3.486790418624878,-6.571745872497559,-8.047369003295898,3.701171875,1,B1,7.6,90,0,3.83116528342662,[6200|0|0|0]
12500,0.6462704539299011,0.7729001641273499,1.208116888999939,-4.220221042633057,-8.18094253540039,-3.8301351070404053,3.611328125,1,B1,7.6,90,0,3.9026686327491142,[6200|0|0|0]
12600,0.6445353031158447,0.773931086063385,1.1153432130813599,-3.338243246078491,-7.7750444412231445,-0.06895552575588226,3.546875,1,B1,7.6,90,0,3.9954642602960586,[6200|0|0|0]
12700,0.6549296379089355,0.7794552445411682,1.0113476514816284,-0.8304764628410339,-5.620732307434082,3.7787370681762695,3.525390625,1,B1,7.6,90,0,4.100123876935535,[6200|0|0|0]
12800,0.6738700270652771,0.7887855172157288,0.902468204498291,-0.7862612009048462,-0.9545469284057617,6.883915424346924,3.525390625,1,B1,7.6,90,0,4.2110316147403095,[6200|0|0|0]
12900,0.6947767734527588,0.7986047863960266,0.793034017086029,0.2632886469364166,1.7182834148406982,9.561599731445312,3.537109375,1,B1,7.6,90,0,4.322876826825261,[6200|0|0|0]
13000,0.7130894064903259,0.8057349920272827,0.6846276521682739,1.9805468320846558,4.5493483543396,11.618280410766602,3.537109375,1,B1,7.6,90,0,4.4330500191898015,[6200|0|0|0]
13100,0.7264680862426758,0.8060404062271118,0.5753955841064453,2.1031081676483154,4.146897792816162,13.425925254821777,3.541015625,1,B1,7.6,90,0,4.543098767673432,[6200|0|0|0]
13200,0.7345302104949951,0.8000856637954712,0.4661443531513214,1.619038701057434,3.0674855709075928,15.076533317565918,3.478515625,1,B1,7.6,90,0,4.65280878667852,[6200|0|0|0]
13300,0.7364290952682495,0.7892236113548279,0.3632980287075043,-1.9452558755874634,5.573893070220947,17.243927001953125,3.453125,1,B1,7.6,90,0,4.75624454644374,[6200|0|0|0]
13400,0.7309553027153015,0.7783315181732178,0.2695283889770508,-1.134545922279358,2.4355432987213135,19.296939849853516,3.419921875,1,B1,7.6,90,0,4.850803234220002,[6200|0|0|0]
13500,0.7238661646842957,0.7651206254959106,0.19010120630264282,3.78523850440979,-2.8974735736846924,21.186351776123047,3.47265625,1,B1,7.6,90,0,4.9316330610845185,[6200|0|0|0]
13600,0.7260779738426208,0.7456148862838745,0.12035585194826126,3.991671562194824,-8.452354431152344,22.521297454833984,3.447265625,1,B1,7.6,90,0,5.004088429525919,[6200|0|0|0]
13700,0.7443302273750305,0.7232764959335327,0.06032874435186386,0.5434890985488892,-5.006932735443115,20.459815979003906,3.3671875,1,B1,7.6,90,0,5.070687243996186,[6200|0|0|0]
13800,0.7702098488807678,0.7050938606262207,0.020625032484531403,-5.173496246337891,3.750584363937378,16.031084060668945,3.36328125,1,B1,7.6,90,0,5.121448920210069,[6200|0|0|0]
13900,0.7860284447669983,0.6933854818344116,0.006512861233204603,-4.880681991577148,9.1456937789917,9.326735496520996,3.447265625,1,B1,7.6,90,0,5.145666011017413,[6200|0|0|0]
14000,0.7842274308204651,0.6889585256576538,0.010394688695669174,-6.026547431945801,9.03164005279541,4.305534362792969,3.48828125,1,B1,7.6,90,0,5.1518231350761665,[6200|0|0|0]
14100,0.7666500210762024,0.6927015781402588,0.02322516031563282,-5.046549320220947,5.665687084197998,2.203245162963867,3.515625,1,B1,7.6,90,0,5.173904728705158,[6200|0|0|0]
14200,0.7403733134269714,0.7052609920501709,0.03766895458102226,-4.735517978668213,-0.08470460027456284,1.2204530239105225,3.53125,1,B1,7.6,90,0,5.2064136111132715,[6200|0|0|0]
14300,0.71334308385849,0.7252190709114075,0.05025220289826393,-1.4545910358428955,-2.2442150115966797,2.703472375869751,3.53125,1,B1,7.6,90,0,5.242292523590791,[6200|0|0|0]
14400,0.6915297508239746,0.7475196719169617,0.06225092336535454,1.1501295566558838,-4.797210216522217,3.473419189453125,3.53125,1,B1,7.6,90,0,5.275715683168111,[6200|0|0|0]
14500,0.6788971424102783,0.7675591707229614,0.07052606344223022,3.657813310623169,-4.544771194458008,3.571263074874878,3.537109375,1,B1,7.6,90,0,5.300808356421899,[6200|0|0|0]
14600,0.6750916838645935,0.7824216485023499,0.07353753596544266,4.438668727874756,-3.6968793869018555,3.7735776901245117,3.515625,1,B1,7.6,90,0,5.31644305268514,[6200|0|0|0]
14700,0.6774923205375671,0.7900032997131348,0.07512639462947845,4.9649834632873535,-2.2001426219940186,4.813361644744873,3.515625,1,B1,7.6,90,0,5.324552859302558,[6200|0|0|0]
14800,0.6852018237113953,0.7895544767379761,0.07559558004140854,3.3084678649902344,-0.10159442573785782,5.683914661407471,3.509765625,1,B1,7.6,90,0,5.332289655551721,[6200|0|0|0]
14900,0.6934111714363098,0.783177375793457,0.07635452598333359,2.2696564197540283,0.7334604859352112,5.420754432678223,3.509765625,1,B1,7.6,90,0,5.342712553683618,[6200|0|0|0]
15000,0.7011341452598572,0.7742817401885986,0.07717613130807877,-0.19622236490249634,1.1804590225219727,4.589545249938965,3.509765625,1,B1,7.6,90,0,5.354521520310858,[6200|0|0|0]
15100,0.7070155143737793,0.7651671767234802,0.07746680080890656,0.04159700497984886,1.7365155220031738,3.7234838008880615,3.509765625,1,B1,7.6,90,0,5.365372799432352,[6200|0|0|0]
15200,0.7116798162460327,0.7549529075622559,0.07727890461683273,-0.8711350560188293,1.5634585618972778,2.669452428817749,3.515625,1,B1,7.6,90,0,5.376603218455364,[6200|0|0|0]
15300,0.7138990163803101,0.7465630769729614,0.07612787187099457,-1.718436598777771,0.9902249574661255,1.1297956705093384,3.505859375,1,F1,7.6,90,0,5.385357587817861,[6200|0|100|0]
15400,0.714021623134613,0.7399573922157288,0.07365929335355759,-1.3525166511535645,1.520782470703125,1.111290693283081,3.505859375,1,F1,7.6,90,0,5.392410529291097,[6200|0|200|0]
15500,0.7121993899345398,0.7358787059783936,0.07078270614147186,-2.043118715286255,0.21129222214221954,1.3306219577789307,3.505859375,1,F1,7.6,90,0,5.397723811633192,[6200|0|300|0]
15600,0.7092316150665283,0.7345697283744812,0.06863387674093246,-1.4492262601852417,-0.08048272877931595,1.7706323862075806,3.505859375,1,F1,7.6,90,0,5.401614644169728,[6200|0|400|0]
15700,0.706362783908844,0.7345533967018127,0.06578758358955383,-0.8107427954673767,-0.03155733272433281,1.4932538270950317,3.509765625,1,F1,7.6,90,0,5.405655911747904,[6200|0|500|0]
15800,0.703603208065033,0.7365745902061462,0.06290286779403687,-1.0855581760406494,-0.7598893642425537,1.1330585479736328,3.505859375,1,F1,7.6,90,0,5.410130514215231,[6200|0|600|0]
15900,0.7031617164611816,0.7438191175460815,0.06402365118265152,-0.9547796845436096,-0.9234699010848999,1.0595782995224,3.505859375,1,F1,7.6,90,0,5.417474508129957,[6200|0|700|0]
16000,0.7016668915748596,0.7512643933296204,0.06528470665216446,-0.16690285503864288,-0.278353214263916,0.6528883576393127,3.515625,1,F1,7.6,90,0,5.425172358078541,[6200|0|800|0]
16100,0.7006690502166748,0.7532542943954468,0.059732068330049515,-0.5567728281021118,-0.7807652950286865,0.7294144034385681,3.494140625,1,F1,7.6,90,0,5.43115459728841,[6200|0|900|0]
16200,0.7004551291465759,0.7591549754142761,0.05664307624101639,-0.308413028717041,0.8643110394477844,0.8795999884605408,3.484375,1,F1,7.6,90,0,5.437818355299947,[6200|0|1000|0]
16300,0.7023916244506836,0.7784217596054077,0.056046634912490845,-0.47546815872192383,-0.08349491655826569,2.8076915740966797,3.5,1,F1,7.6,90,0,5.457191396604523,[6200|0|1100|0]
16400,0.6982306241989136,0.7908127307891846,0.05507764220237732,-0.4430997371673584,0.5680657625198364,2.619813919067383,3.494140625,1,F1,7.6,90,0,5.470298228290506,[6200|0|1200|0]
16500,0.6959152817726135,0.8059164881706238,0.0572533905506134,-0.406930148601532,-0.08204565942287445,2.9079599380493164,3.5,1,F1,7.6,90,0,5.485732546495832,[6200|0|1300|0]
16600,0.6927924752235413,0.8223315477371216,0.06009785830974579,0.05818770080804825,0.15237006545066833,3.2560460567474365,3.505859375,1,F1,7.6,90,0,5.502682387148397,[6200|0|1400|0]
16700,0.6893332600593567,0.838979184627533,0.06132703274488449,0.15694376826286316,-0.03178584575653076,3.3686087131500244,3.5,1,F1,7.6,90,0,5.519729992651198,[6200|0|1500|0]
16800,0.686449408531189,0.855475902557373,0.06134594976902008,0.7891027927398682,-0.2813444137573242,2.5798087120056152,3.5,1,F1,7.6,90,0,5.53647689266126,[6200|0|1600|0]
16900,0.6851218938827515,0.871755838394165,0.060187745839357376,0.4419998824596405,-0.060638390481472015,1.18147873878479,3.494140625,1,F1,7.6,90,0,5.55285187486994,[6200|0|1700|0]
17000,0.6834973692893982,0.889303982257843,0.05924209579825401,0.0007277532131411135,0.5401131510734558,1.0039538145065308,3.48828125,1,F1,7.6,90,0,5.570500407024626,[6200|0|1800|0]
17100,0.6775574684143066,0.8992741107940674,0.055196985602378845,0.18896853923797607,0.7318416833877563,1.1457757949829102,3.48828125,1,F1,7.6,90,0,5.5827905983140855,[6200|0|1900|0]
17200,0.6723931431770325,0.9129905700683594,0.053292013704776764,-0.08232878893613815,0.26146823167800903,0.8280419111251831,3.958984375,1,F1,7.6,90,0,5.597570328626588,[6200|0|2000|0]
17300,0.6678537130355835,0.9273706674575806,0.021173495799303055,-0.09121258556842804,-7.2310380935668945,1.1938048601150513,3.96484375,1,F1,7.6,90,0,5.633052617439133,[6200|0|2100|0]
17400,0.6630756258964539,0.9408175945281982,-0.05199127271771431,3.4140172004699707,-1.3757826089859009,-0.31449607014656067,3.96484375,1,F1,7.6,90,0,5.707596116931042,[6200|0|2200|0]
17500,0.6644435524940491,0.9439325928688049,-0.04936991631984711,0.34198033809661865,-2.6664271354675293,-5.827538013458252,3.96875,1,F1,7.6,90,0,5.711890991458084,[6200|0|2300|0]
17600,0.663827657699585,0.9430389404296875,-0.04936179891228676,2.1381773948669434,-0.8297069072723389,-5.8800458908081055,3.96875,1,F1,7.6,90,0,5.712976351754066,[6200|0|2400|0]
17700,0.664287805557251,0.9432985186576843,-0.04933716356754303,2.0280892848968506,-0.9088979959487915,-5.965382099151611,3.974609375,1,F1,7.6,90,0,5.7135052409745795,[6200|0|2500|0]
17800,0.6650320887565613,0.9434549808502197,-0.04976553097367287,1.1260995864868164,-1.8635742664337158,-6.014304161071777,3.974609375,1,F1,7.6,90,0,5.714378130734574,[6200|0|2600|0]
17900,0.6663959622383118,0.9451773762702942,-0.04892848804593086,0.2652924060821533,-2.6743428707122803,-6.259796142578125,3.98046875,1,F1,7.6,90,0,5.716729181078612,[6200|0|2700|0]
18000,0.6782006025314331,0.9497232437133789,-0.04918139800429344,2.6480495929718018,-0.20074211061000824,2.395223379135132,3.98046875,1,F1,7.6,90,0,5.729381390636911,[6200|0|2800|0]
18100,0.684363067150116,0.9494475722312927,-0.04906235262751579,2.4573159217834473,-0.3293323218822479,5.163628101348877,3.98046875,1,F1,7.6,90,0,5.735551166706129,[6200|0|2900|0]
18200,0.6777447462081909,0.9400615096092224,-0.04121014103293419,-13.687309265136719,0.03711877018213272,7.787904262542725,3.984375,1,F1,7.6,90,0,5.74946366362659,[6200|0|3000|0]
18300,0.6962812542915344,0.8884857892990112,0.002576990984380245,-14.834015846252441,-0.39460331201553345,23.176467895507812,3.984375,1,F1,7.6,90,0,5.819613289340079,[6200|0|3100|0]
18400,0.7381365895271301,0.799548864364624,0.020622365176677704,-12.893110275268555,2.547323703765869,12.843890190124512,3.984375,1,F1,7.6,90,0,5.919549675277379,[6200|0|3200|0]
18500,0.7641779184341431,0.7539238333702087,-0.00925133004784584,-12.675600051879883,-1.096401333808899,2.684140205383301,3.984375,1,F1,7.6,90,0,5.97998337391359,[6200|0|3300|0]
18600,0.7600868940353394,0.7516231536865234,-0.03970995172858238,-10.767732620239258,-4.391300678253174,10.406532287597656,3.990234375,1,F1,7.6,90,0,6.010801505627384,[6200|0|3400|0]
18700,0.7704622149467468,0.7464473247528076,-0.04909352585673332,-5.215015411376953,-2.487196207046509,7.614126205444336,3.990234375,1,F1,7.6,90,0,6.025717535681801,[6200|0|3500|0]
18800,0.7884281277656555,0.7353048920631409,-0.05449198558926582,-1.6022908687591553,-4.1849260330200195,0.8094878196716309,3.990234375,1,F1,7.6,90,0,6.04753659150794,[6200|0|3600|0]
18900,0.7962135076522827,0.7327324151992798,-0.06106239929795265,-1.1857877969741821,-3.5405173301696777,0.1975615918636322,3.990234375,1,F1,7.6,90,0,6.05804373733816,[6200|0|3700|0]
19000,0.8053944110870361,0.7282244563102722,-0.06760565936565399,0.6497209072113037,-2.912311553955078,0.6195632815361023,3.99609375,1,F1,7.6,90,0,6.070185604308969,[6200|0|3800|0]
19100,0.8161613345146179,0.7229887843132019,-0.07463124394416809,-0.15354934334754944,-2.8414995670318604,0.57049560546875,3.99609375,1,F1,7.6,90,0,6.084067165461309,[6200|0|3900|0]
19200,0.8279291987419128,0.7168614268302917,-0.0815938413143158,-0.10327886790037155,-2.79423189163208,0.5772109627723694,3.99609375,1,F1,7.6,90,0,6.099050653050459,[6200|0|4000|0]
19300,0.8289781808853149,0.722457766532898,-0.08641219139099121,-0.3442368507385254,-2.7211782932281494,0.5795318484306335,3.99609375,1,F1,7.6,90,0,6.106509599294101,[6200|0|4100|0]
19400,0.8412317633628845,0.7185956239700317,-0.09447237104177475,-0.3450450301170349,-2.697356939315796,0.5742380619049072,4.0859375,1,F1,7.6,90,0,6.121676435639015,[6200|0|4200|0]
19500,0.8472155332565308,0.7167590856552124,-0.09939080476760864,-0.37211692333221436,-2.62641978263855,0.601759135723114,4.0859375,1,F1,7.6,90,0,6.129636923402797,[6200|0|4300|0]
19600,0.8539814352989197,0.7149214744567871,-0.10422440618276596,-0.4037353992462158,-2.5718581676483154,0.6203898787498474,4.0859375,1,F1,7.6,90,0,6.138152670463648,[6200|0|4400|0]
19700,0.8668258786201477,0.7107585668563843,-0.11266797035932541,-0.4017087519168854,-2.546384572982788,0.6162024140357971,4.08984375,1,F1,7.6,90,0,6.154077597462709,[6200|0|4500|0]
19800,0.8804274201393127,0.7061508893966675,-0.12115883827209473,-0.40706345438957214,-2.520681381225586,0.6089162826538086,4.08984375,1,F1,7.6,90,0,6.170760746481477,[6200|0|4600|0]
19900,0.8724724054336548,0.7089902758598328,-0.11851343512535095,-0.45834243297576904,-2.4067022800445557,0.6701790690422058,4.08984375,1,F1,7.6,90,0,6.179611878175404,[6200|0|4700|0]
20000,0.8692955374717712,0.7099645137786865,-0.11620885878801346,-0.4834362864494324,-2.3459813594818115,0.6800853610038757,4.09765625,1,F1,7.6,90,0,6.183655725559318,[6200|0|4800|0]
20100,0.8803484439849854,0.7062199115753174,-0.12413030862808228,-0.47716793417930603,-2.3298611640930176,0.6733618378639221,4.09765625,1,F1,7.6,90,0,6.197760269352722,[6200|0|4900|0]
20200,0.8797062635421753,0.7066361904144287,-0.12380680441856384,-0.5053226351737976,-2.2824950218200684,0.6939659714698792,4.09765625,1,F1,7.6,90,0,6.198591135627519,[6200|0|5000|0]
20300,0.8903224468231201,0.7030463218688965,-0.13135835528373718,-0.5050998330116272,-2.2662079334259033,0.6879160404205322,4.09765625,1,F1,7.6,90,0,6.212104700075811,[6200|0|5100|0]
20400,0.9011805653572083,0.6992827653884888,-0.13900306820869446,-0.49156612157821655,-2.244473457336426,0.6812529563903809,4.1015625,1,F1,7.6,90,0,6.225907045209394,[6200|0|5200|0]
20500,0.8692941069602966,0.7098645567893982,-0.11702822148799896,-0.5387062430381775,-2.133396863937378,0.7449107766151428,4.1015625,1,F1,7.6,90,0,6.266051963029068,[6200|0|5300|0]
20600,0.8509941697120667,0.7155593037605286,-0.10300491750240326,-0.5591133832931519,-2.10153865814209,0.7851346135139465,4.1015625,1,F1,7.6,90,0,6.2898000345513365,[6200|0|5400|0]
20700,0.8340356945991516,0.7210891842842102,-0.08997553586959839,-0.6004146337509155,-2.0716142654418945,0.8428621888160706,4.1015625,1,F1,7.6,90,0,6.311889268184372,[6200|0|5500|0]
20800,0.8167559504508972,0.7262576222419739,-0.07799682766199112,-0.5903596878051758,-2.0021326541900635,0.8791934251785278,4.1015625,1,F1,7.6,90,0,6.333540867642043,[6200|0|5600|0]
20900,0.8093515038490295,0.7283507585525513,-0.07240982353687286,-0.5513152480125427,-1.9948652982711792,0.8786405920982361,4.1015625,1,F1,7.6,90,0,6.343049898307082,[6200|0|5700|0]
21000,0.7427095174789429,0.7462657690048218,-0.0260377936065197,-0.5635397434234619,-1.8150328397750854,-9.091065406799316,4.10546875,1,F1,7.6,90,0,6.42619114623323,[6200|0|5800|0]
21100,0.7422811985015869,0.7486028671264648,-0.024364396929740906,-0.5534042716026306,-1.8706361055374146,-12.982324600219727,4.10546875,1,F1,7.6,90,0,6.429097301978266,[6200|0|5900|0]
21200,0.741365373134613,0.7500818967819214,-0.02097722701728344,-0.6546309590339661,-1.9650826454162598,-10.697521209716797,4.10546875,1,F1,7.6,90,0,6.43290508149399,[6200|0|6000|0]
21300,0.7421314120292664,0.7449872493743896,-0.025252485647797585,-0.5400080680847168,-1.9612411260604858,-12.165525436401367,4.10546875,1,F1,7.6,90,0,6.439599861860288,[6200|0|6100|0]
21400,0.7402846217155457,0.744556725025177,-0.02708972431719303,-0.4744813144207001,-1.9141649007797241,-8.546298027038574,4.10546875,1,F1,7.6,90,0,6.44224020873266,[6200|0|6200|0]
21500,0.7405704259872437,0.7443796992301941,-0.02726791426539421,-0.4397972524166107,-1.8895286321640015,-6.016315460205078,4.11328125,1,F1,7.6,90,0,6.442620700350767,[6200|0|6300|0]
21600,0.7408731579780579,0.7443310618400574,-0.02685636654496193,-0.4492141604423523,-1.884366750717163,-4.219597816467285,4.11328125,1,F1,7.6,90,0,6.443133909645475,[6200|0|6400|0]
21700,0.7407190799713135,0.7442837953567505,-0.026529915630817413,-0.48388493061065674,-1.8921955823898315,-2.9295876026153564,4.11328125,1,F1,7.6,90,0,6.443497976056934,[6200|0|6500|0]
21800,0.7407177090644836,0.7440246939659119,-0.02687419392168522,-0.588787853717804,-1.9450093507766724,-1.9544929265975952,4.11328125,1,F1,7.6,90,0,6.443928862296773,[6200|0|6600|0]
21900,0.7406162619590759,0.7445756196975708,-0.026781827211380005,-0.6369207501411438,-1.9562879800796509,-1.2755273580551147,4.11328125,1,F1,7.6,90,0,6.4444966142550895,[6200|0|6700|0]
22000,0.7403903007507324,0.7444132566452026,-0.027189845219254494,-0.6664065718650818,-1.9616193771362305,-0.7583805322647095,4.11328125,1,F1,7.6,90,0,6.444990475493901,[6200|0|6800|0]
22100,0.7425794005393982,0.7481924891471863,-0.024792952463030815,-0.8085039854049683,-2.0526785850524902,-0.41021379828453064,4.1171875,1,F1,7.6,90,0,6.4499724280301685,[6200|0|6900|0]
22200,0.7427647113800049,0.7480242848396301,-0.02437315508723259,-0.8265105485916138,-2.0638315677642822,-0.08683185279369354,4.1171875,1,F1,7.6,90,0,6.4504611637802975,[6200|0|7000|0]
22300,0.7427827715873718,0.7483544945716858,-0.024631710723042488,-0.8483129739761353,-2.0701169967651367,0.13808606564998627,4.1171875,1,F1,7.6,90,0,6.45088094426465,[6200|0|7100|0]
22400,0.7423171401023865,0.7483977675437927,-0.02445955201983452,-0.8493083715438843,-2.060396432876587,0.31310275197029114,4.1171875,1,F1,7.6,90,0,6.451379265294725,[6200|0|7200|0]
22500,0.7422522902488708,0.7479410767555237,-0.0245981328189373,-0.8426344394683838,-2.060399293899536,0.42067620158195496,4.1171875,1,F1,7.6,90,0,6.451860904804598,[6200|0|7300|0]
22600,0.7426915764808655,0.7483267784118652,-0.024280449375510216,-0.8495593667030334,-2.0822269916534424,0.5137651562690735,4.1171875,1,F1,7.6,90,0,6.452526232491946,[6200|0|7400|0]
22700,0.7424848079681396,0.7484301924705505,-0.02436446212232113,-0.863163411617279,-2.07814621925354,0.5602986812591553,4.1171875,1,F1,7.6,90,0,6.452772211814279,[6200|0|7500|0]
22800,0.7426896095275879,0.7488885521888733,-0.024013876914978027,-0.9343624711036682,-2.13061261177063,0.6127963662147522,4.1171875,1,F1,7.6,90,0,6.4533845412172495,[6200|0|7600|0]
22900,0.7425170540809631,0.7487947344779968,-0.024308256804943085,-0.9117710590362549,-2.102550983428955,0.6586893200874329,4.1171875,1,F1,7.6,90,0,6.45373842914393,[6200|0|7700|0]
23001,0.7426820993423462,0.7483780980110168,-0.024965785443782806,-0.8203293085098267,-2.0721588134765625,0.7130188941955566,4.12109375,1,F1,7.6,90,0,6.45453414881493,[6200|0|7800|0]
23101,0.7426279187202454,0.7484502196311951,-0.024737222120165825,-0.8231070041656494,-2.0812838077545166,0.7249577045440674,4.12109375,1,F1,7.6,90,0,6.454779868697746,[6200|0|7900|0]
23201,0.7422886490821838,0.7482566237449646,-0.024631280452013016,-0.7972975373268127,-2.0636091232299805,0.7591286301612854,4.12109375,1,F1,7.6,90,0,6.455184599338453,[6200|0|8000|0]
23301,0.7423821687698364,0.7482185959815979,-0.024951351806521416,-0.7864552140235901,-2.0643393993377686,0.749108076095581,4.12109375,1,F1,7.6,90,0,6.455520214765306,[6200|0|8100|0]
23401,0.7424898147583008,0.7484816908836365,-0.024240508675575256,-0.7834459543228149,-2.056485652923584,0.7481569647789001,4.12109375,1,F1,7.6,90,0,6.456285789414262,[6200|0|8200|0]
23501,0.7426958084106445,0.7485325932502747,-0.024102939292788506,-0.8587527275085449,-2.1088085174560547,0.7496064901351929,4.12109375,1,F1,7.6,90,0,6.456538672333448,[6200|0|8300|0]
23601,0.7425379753112793,0.7481017708778381,-0.024487469345331192,-0.8226507306098938,-2.089324474334717,0.7735625505447388,4.12890625,1,F1,7.6,90,0,6.457137322953723,[6200|0|8400|0]
23701,0.7426032423973083,0.7482991814613342,-0.024746136739850044,-0.8060523271560669,-2.081672430038452,0.7670795321464539,4.12890625,1,F1,7.6,90,0,6.457469195748604,[6200|0|8500|0]
23801,0.7426518797874451,0.7482132911682129,-0.024419348686933517,-0.7979333400726318,-2.0742781162261963,0.7521403431892395,4.12890625,1,F1,7.6,90,0,6.457810565298653,[6200|0|8600|0]
23901,0.7427593469619751,0.748283326625824,-0.02417977899312973,-0.7914178967475891,-2.0766408443450928,0.7778562903404236,4.12890625,1,F1,7.6,90,0,6.45808231481036,[6200|0|8700|0]
24002,0.7407858967781067,0.744503915309906,-0.02699054218828678,-0.6718282699584961,-2.001413583755493,0.7728381156921387,4.12890625,1,F1,7.6,90,0,6.463189059885488,[6200|0|8800|0]
24102,0.7404510378837585,0.7449522614479065,-0.026830077171325684,-0.6723430752754211,-1.9917596578598022,0.7837374806404114,4.12890625,1,F1,7.6,90,0,6.463771205709361,[6200|0|8900|0]
24202,0.7425053119659424,0.7483596205711365,-0.024143658578395844,-0.7819415926933289,-2.087003707885742,0.7926504015922546,4.12890625,1,F1,7.6,90,0,6.468571933055903,[6200|0|9000|0]
24302,0.7424932718276978,0.7479444146156311,-0.024603314697742462,-0.7030337452888489,-2.0511412620544434,0.7889320850372314,4.12890625,1,F1,7.6,90,0,6.469191468929334,[6200|0|9100|0]
24402,0.7426059246063232,0.7482134699821472,-0.02441639080643654,-0.7165737748146057,-2.0622825622558594,0.774319052696228,4.12890625,1,F1,7.6,90,0,6.469537910814683,[6200|0|9200|0]
24502,0.7424023747444153,0.7481422424316406,-0.024317167699337006,-0.726678729057312,-2.058035373687744,0.797137439250946,4.12890625,1,F1,7.6,90,0,6.469775294755202,[6200|0|9300|0]
24602,0.7425491809844971,0.7483345866203308,-0.024792978540062904,-0.7397054433822632,-2.0737545490264893,0.7848532199859619,4.1328125,1,F1,7.6,90,0,6.470309096511664,[6200|0|9400|0]
24702,0.7426012754440308,0.7479948997497559,-0.024630006402730942,-0.728874683380127,-2.0811963081359863,0.7919712662696838,4.1328125,1,F1,7.6,90,0,6.4706894396729036,[6200|0|9500|0]
24802,0.7428839206695557,0.7480612993240356,-0.024541158229112625,-0.7395431995391846,-2.0927529335021973,0.7961392402648926,4.1328125,1,F1,7.6,90,0,6.470993069752,[6200|0|9600|0]
24902,0.7426509261131287,0.7482580542564392,-0.024288689717650414,-0.7522543668746948,-2.0850279331207275,0.7954241633415222,4.1328125,1,F1,7.6,90,0,6.471388972916965,[6200|0|9700|0]
25000,0.7426169514656067,0.7480714321136475,-0.024423042312264442,-0.7509869337081909,-2.075664520263672,0.8092125058174133,4.1328125,1,F1,7.6,90,0,6.471621422310455,[6200|0|9800|0]
25100,0.7424994707107544,0.7483329772949219,-0.02428562380373478,-0.7636028528213501,-2.0719664096832275,0.8171476721763611,4.1328125,1,F1,7.6,90,0,6.471939371136675,[6200|0|9900|0]
25200,0.7424288392066956,0.7481877207756042,-0.024669267237186432,-0.7609782814979553,-2.0622076988220215,0.8047598600387573,4.1328125,1,F1,7.6,90,0,6.472355628929155,[6200|0|10000|0]
25300,0.7424554228782654,0.7482537031173706,-0.0243249349296093,-0.7589154839515686,-2.0679543018341064,0.7817215919494629,4.1328125,1,F1,7.6,90,0,6.47270723253986,[6200|0|10100|0]
25400,0.7428058981895447,0.748036801815033,-0.024435117840766907,-0.7542131543159485,-2.0781142711639404,0.7865070104598999,4.1328125,1,F1,7.6,90,0,6.473133869847984,[6200|0|10200|0]
25500,0.742600679397583,0.7484234571456909,-0.02450626716017723,-0.7632539868354797,-2.0786993503570557,0.7753362655639648,4.1328125,1,F1,7.6,90,0,6.4735773552738465,[6200|0|10300|0]
25600,0.7425596714019775,0.748302698135376,-0.024610154330730438,-0.7581962943077087,-2.078709363937378,0.754243791103363,4.1328125,1,F1,7.6,90,0,6.473741845208132,[6200|0|10400|0]
25700,0.7430205345153809,0.748082160949707,-0.02458808571100235,-0.754954993724823,-2.093045949935913,0.7606672644615173,4.13671875,1,F1,7.6,90,0,6.474253233987375,[6200|0|10500|0]
25800,0.7421987652778625,0.748013436794281,-0.024328237399458885,-0.7514159083366394,-2.0728440284729004,0.7644503116607666,4.13671875,1,F1,7.6,90,0,6.475117843051798,[6200|0|10600|0]
25900,0.7425967454910278,0.7482106685638428,-0.024872951209545135,-0.7531716823577881,-2.0867016315460205,0.7695082426071167,4.1328125,1,F1,7.6,90,0,6.475820695636552,[6200|0|10700|0]
26000,0.7424654960632324,0.7481544017791748,-0.024579623714089394,-0.7519382834434509,-2.084812641143799,0.7743954658508301,4.13671875,1,F1,7.6,90,0,6.4761469369321345,[6200|0|10800|0]
26100,0.7423062324523926,0.7480170130729675,-0.02440105937421322,-0.7498446702957153,-2.0834996700286865,0.7675946354866028,4.13671875,1,F1,7.6,90,0,6.476422845934899,[6200|0|10900|0]
26200,0.7425478100776672,0.7482359409332275,-0.024386122822761536,-0.7547808885574341,-2.087069511413574,0.7771298885345459,4.13671875,1,F1,7.6,90,0,6.47674920809202,[6200|0|11000|0]
26300,0.742374062538147,0.7480678558349609,-0.024861842393875122,-0.7553557753562927,-2.085726261138916,0.7844236493110657,4.13671875,1,F1,7.6,90,0,6.477282827730048,[6200|0|11100|0]
26400,0.7427422404289246,0.7479076385498047,-0.02478134259581566,-0.7480241060256958,-2.089552640914917,0.8031734824180603,4.13671875,1,F1,7.6,90,0,6.477692345440541,[6200|0|11200|0]
26500,0.7425590753555298,0.7482596039772034,-0.024381743744015694,-0.7508991360664368,-2.0847928524017334,0.7942953109741211,4.13671875,1,F1,7.6,90,0,6.47825546918232,[6200|0|11300|0]
26600,0.7424918413162231,0.7480567693710327,-0.02453622594475746,-0.7505300641059875,-2.077924966812134,0.7994683384895325,4.14453125,1,F1,7.6,90,0,6.478519148995442,[6200|0|11400|0]
26700,0.7425617575645447,0.7481302618980408,-0.024620966985821724,-0.7499032616615295,-2.080632209777832,0.8007088303565979,4.14453125,1,F1,7.6,90,0,6.478651324928751,[6200|0|11500|0]
26800,0.7426491975784302,0.7483673691749573,-0.02452540583908558,-0.7613915205001831,-2.075977087020874,0.7968538999557495,4.13671875,1,F1,7.6,90,0,6.478921505515693,[6200|0|11600|0]
26900,0.742673933506012,0.7478713393211365,-0.02449585683643818,-0.7544455528259277,-2.074035882949829,0.8037188053131104,4.14453125,1,F1,7.6,90,0,6.4794190300131325,[6200|0|11700|0]
27000,0.742877721786499,0.7480026483535767,-0.024524543434381485,-0.7646098136901855,-2.079010248184204,0.8136501312255859,4.14453125,1,F1,7.6,90,0,6.479663150160121,[6200|0|11800|0]
27100,0.7422246932983398,0.7482172250747681,-0.024804098531603813,-0.7665653228759766,-2.0569379329681396,0.8022197484970093,4.14453125,1,F1,7.6,90,0,6.4804052016596865,[6200|0|11900|0]
27200,0.7426854372024536,0.7480982542037964,-0.024567749351263046,-0.7599977850914001,-2.0574791431427,0.805355429649353,4.14453125,1,F1,7.6,90,0,6.480936520724247,[6200|0|12000|0]
27300,0.7424349188804626,0.7482675909996033,-0.024150539189577103,-0.7635946273803711,-2.047861337661743,0.807106614112854,4.14453125,1,F1,7.6,90,0,6.4814517863829915,[6200|0|12100|0]
27400,0.7422096729278564,0.7482054233551025,-0.02451029047369957,-0.7565212249755859,-2.035526752471924,0.7793417572975159,4.14453125,1,F1,7.6,90,0,6.481880763703622,[6200|0|12200|0]
27500,0.7425609827041626,0.7483904957771301,-0.024835526943206787,-0.7621933221817017,-2.045712947845459,0.766850471496582,4.14453125,1,F1,7.6,90,0,6.482394036653836,[6200|0|12300|0]
27600,0.7423234581947327,0.7483296990394592,-0.02436276152729988,-0.7559785842895508,-2.049859046936035,0.7637488842010498,4.14453125,1,F1,7.6,90,0,6.482926597706081,[6200|0|12400|0]
27700,0.7425202131271362,0.7481235265731812,-0.024204371497035027,-0.749089241027832,-2.056304454803467,0.7695285677909851,4.14453125,1,F1,7.6,90,0,6.483252645234769,[6200|0|12500|0]
27800,0.7425844669342041,0.7480769157409668,-0.02467481605708599,-0.7461636066436768,-2.0549092292785645,0.7703768014907837,4.14453125,1,F1,7.6,90,0,6.483729739780414,[6200|0|12600|0]
27900,0.7425216436386108,0.7482030987739563,-0.02458970807492733,-0.7512729167938232,-2.0552077293395996,0.7675731182098389,4.14453125,1,F1,7.6,90,0,6.48389439788957,[6200|0|12700|0]
28000,0.7425306439399719,0.7485189437866211,-0.024496011435985565,-0.7558166980743408,-2.060709238052368,0.7486119270324707,4.14453125,1,F1,7.6,90,0,6.484223970548628,[6200|0|12800|0]
28100,0.7427223920822144,0.7481908202171326,-0.02470015361905098,-0.7454376220703125,-2.0636987686157227,0.7630874514579773,4.14453125,1,F1,7.6,90,0,6.484655371125603,[6200|0|12900|0]
28200,0.7422184348106384,0.7483826279640198,-0.024500137194991112,-0.7467096447944641,-2.0538346767425537,0.779050350189209,4.14453125,1,F1,7.6,90,0,6.485230496949431,[6200|0|13000|0]
28300,0.742649495601654,0.7481138110160828,-0.024491215124726295,-0.7405543327331543,-2.0715246200561523,0.7838143706321716,4.1484375,1,F1,7.6,90,0,6.485738587059931,[6200|0|13100|0]
28400,0.7423281073570251,0.7480852007865906,-0.02445281110703945,-0.7366548180580139,-2.059818983078003,0.7784970998764038,4.14453125,1,F1,7.6,90,0,6.4860635236962025,[6200|0|13200|0]
28500,0.7422828674316406,0.7485294938087463,-0.02438746765255928,-0.7418630123138428,-2.0602619647979736,0.7911759614944458,4.1484375,1,F1,7.6,90,0,6.486514869137554,[6200|0|13300|0]
28600,0.7425621747970581,0.7479400634765625,-0.02495388127863407,-0.7265127897262573,-2.073432207107544,0.7789662480354309,4.1484375,1,F1,7.6,90,0,6.487378735514187,[6200|0|13400|0]
28700,0.7422656416893005,0.7481399178504944,-0.024359500035643578,-0.7330441474914551,-2.067133665084839,0.7736937403678894,4.1484375,1,F1,7.6,90,0,6.488072394448243,[6200|0|13500|0]
28800,0.7427865266799927,0.7480915784835815,-0.024471355602145195,-0.7324120402336121,-2.0814332962036133,0.7812374234199524,4.1484375,1,F1,7.6,90,0,6.488607342609917,[6200|0|13600|0]
28900,0.7426013350486755,0.7484463453292847,-0.024932488799095154,-0.744139552116394,-2.071563482284546,0.7883646488189697,4.1484375,1,F1,7.6,90,0,6.489217915521574,[6200|0|13700|0]
29000,0.742728054523468,0.747935950756073,-0.02456725761294365,-0.7359058856964111,-2.0724871158599854,0.8054049611091614,4.1484375,1,F1,7.6,90,0,6.4898581922312815,[6200|0|13800|0]
29100,0.7430261969566345,0.7480522394180298,-0.024485787376761436,-0.737991452217102,-2.0806524753570557,0.8172271251678467,4.1484375,1,F1,7.6,90,0,6.490188418460915,[6200|0|13900|0]
29200,0.7427045702934265,0.7482567429542542,-0.024715662002563477,-0.7480149865150452,-2.069478750228882,0.8076630234718323,4.1484375,1,F1,7.6,90,0,6.490633511429183,[6200|0|14000|0]
29300,0.7424396276473999,0.7483336329460144,-0.024505464360117912,-0.7493253350257874,-2.0608646869659424,0.8069742918014526,4.1484375,1,F1,7.6,90,0,6.490980339521192,[6200|0|14100|0]
29400,0.7422473430633545,0.7478564381599426,-0.024605149403214455,-0.7400847673416138,-2.056771755218506,0.8196684718132019,4.1484375,1,F1,7.6,90,0,6.491504386592487,[6200|0|14200|0]
29500,0.7424249053001404,0.7481911182403564,-0.02460210584104061,-0.7502801418304443,-2.0652146339416504,0.7706697583198547,4.1484375,1,F1,7.6,90,0,6.49188326436622,[6200|0|14300|0]
29600,0.742637038230896,0.7479082942008972,-0.024510640650987625,-0.7427657246589661,-2.0725018978118896,0.7603356838226318,4.1484375,1,F1,7.6,90,0,6.492248443361507,[6200|0|14400|0]
29700,0.7423652410507202,0.7480273842811584,-0.024876166135072708,-0.74156254529953,-2.066556692123413,0.7558886408805847,4.1484375,1,F1,7.6,90,0,6.492719256523901,[6200|0|14500|0]
29800,0.7424580454826355,0.7481908798217773,-0.02425435371696949,-0.7450618147850037,-2.0728654861450195,0.7787513136863708,4.1484375,1,F1,7.6,90,0,6.493368867282504,[6200|0|14600|0]
29900,0.7421227097511292,0.7480435371398926,-0.024667147547006607,-0.7423874139785767,-2.061481475830078,0.7668256759643555,4.1484375,1,F1,7.6,90,0,6.493920735622642,[6200|0|14700|0]
30000,0.7426286339759827,0.7481996417045593,-0.024302400648593903,-0.7477743625640869,-2.085719347000122,0.7843009233474731,4.15234375,1,F1,7.6,90,0,6.494563672832878,[6200|0|14800|0]
30100,0.7427770495414734,0.7482011914253235,-0.024232620373368263,-0.749511182308197,-2.0962016582489014,0.7872553467750549,4.15234375,1,B1,7.6,90,0,6.494727681578148,[6200|0|14800|0]
30200,0.74334317445755,0.7481269240379333,-0.02471703290939331,-0.8447450995445251,-2.0903830528259277,0.8008743524551392,3.078125,1,B1,7.6,90,0,6.495476459629703,[6200|0|14800|0]
30300,0.744986891746521,0.7512463331222534,-0.013993112370371819,-2.7379095554351807,2.4737534523010254,1.5804204940795898,3.419921875,1,B1,7.6,90,0,6.506765170419189,[6200|0|14800|0]
30400,0.7429035902023315,0.7595218420028687,0.02279830537736416,-2.052436590194702,6.779618740081787,3.291715145111084,3.509765625,1,B1,7.6,90,0,6.544533313244136,[6200|0|14800|0]
30500,0.734318196773529,0.7727283239364624,0.0816955417394638,0.12022744864225388,2.5954434871673584,4.321751117706299,3.537109375,1,B1,7.6,90,0,6.605500555239184,[6200|0|14800|0]
30600,0.7250712513923645,0.785459578037262,0.1515055000782013,3.588829278945923,-0.5774704217910767,3.681117057800293,3.552734375,1,B1,7.6,90,0,6.67706186540828,[6200|0|14800|0]
30700,0.7189185619354248,0.7933275103569031,0.22899000346660614,4.082144737243652,-1.7650915384292603,2.6245205402374268,3.55859375,1,B1,7.6,90,0,6.755187457962115,[6200|0|14800|0]
30800,0.718574583530426,0.794685423374176,0.3120252788066864,4.661924839019775,-1.9486442804336548,2.523422956466675,3.568359375,1,B1,7.6,90,0,6.83823454821643,[6200|0|14800|0]
30900,0.7236887216567993,0.7894693613052368,0.399773508310318,3.7148892879486084,-0.9171835780143738,1.4340893030166626,3.568359375,1,B1,7.6,90,0,6.926286314202722,[6200|0|14800|0]
31000,0.7313714027404785,0.7783064246177673,0.49002182483673096,1.3339818716049194,0.04148838296532631,-0.4936133623123169,3.568359375,1,B1,7.6,90,0,7.017546345870334,[6200|0|14800|0]
31100,0.7404004335403442,0.7638658881187439,0.5822418928146362,-0.6020351052284241,1.2947663068771362,-1.1528072357177734,3.568359375,1,B1,7.6,90,0,7.111325839521207,[6200|0|14800|0]
31200,0.7469884753227234,0.751976490020752,0.6742287278175354,-2.317518949508667,2.0519776344299316,0.11613504588603973,3.5625,1,B1,7.6,90,0,7.204311526029989,[6200|0|14800|0]
31300,0.7527686953544617,0.7441572546958923,0.7663804888725281,-2.8393495082855225,3.033435106277466,1.22166907787323,3.552734375,1,B1,7.6,90,0,7.296974886913444,[6200|0|14800|0]
31400,0.7560997605323792,0.7424709796905518,0.8578776717185974,-2.6859235763549805,2.8395557403564453,1.0651589632034302,3.541015625,1,B1,7.6,90,0,7.38854821265506,[6200|0|14800|0]
31500,0.7541357278823853,0.7470369338989258,0.9511998891830444,-2.23577618598938,2.4961657524108887,1.2987977266311646,3.552734375,1,B1,7.6,90,0,7.482002702298762,[6200|0|14800|0]
31600,0.7478950023651123,0.7556451559066772,1.0470221042633057,-0.1998593807220459,1.5221583843231201,1.5880249738693237,3.552734375,1,B1,7.6,90,0,7.578412997620395,[6200|0|14800|0]
31700,0.7385041117668152,0.7653984427452087,1.1431221961975098,1.1109122037887573,1.1580697298049927,0.9532222151756287,3.60546875,1,B1,7.6,90,0,7.675462176391503,[6200|0|14800|0]
31800,0.7271368503570557,0.7733092904090881,1.2362366914749146,1.9346204996109009,0.3063378632068634,-0.2108919620513916,3.6484375,1,B1,7.6,90,0,7.769600932350379,[6200|0|14800|0]
31900,0.7138509750366211,0.7785338759422302,1.317989468574524,2.504185914993286,-0.8320306539535522,-0.9306627511978149,3.6640625,1,B1,7.6,90,0,7.852590855476754,[6200|0|14800|0]
32000,0.7002471685409546,0.7812919020652771,1.3841181993484497,2.4578475952148438,-1.4025722742080688,-1.2071861028671265,3.6484375,1,B1,7.6,90,0,7.920160665991785,[6200|0|14800|0]
32100,0.6861007213592529,0.7807224988937378,1.4320144653320312,1.9694629907608032,-2.3404574394226074,-1.558454990386963,3.615234375,1,B1,7.6,90,0,7.970105620521812,[6200|0|14800|0]
32200,0.6740331649780273,0.7779120206832886,1.463705062866211,1.4953484535217285,-2.7121992111206055,-2.079066753387451,3.58984375,1,B1,7.6,90,0,8.004132355258763,[6200|0|14800|0]
32300,0.6648630499839783,0.772896945476532,1.4842960834503174,0.173313707113266,-2.5799829959869385,-3.1513006687164307,3.578125,1,B1,7.6,90,0,8.027224174525088,[6200|0|14800|0]
32400,0.6567708253860474,0.7676537036895752,1.4984147548675537,-0.833077073097229,-2.2436671257019043,-4.0337724685668945,3.578125,1,B1,7.6,90,0,8.044321325339412,[6200|0|14800|0]
32500,0.651593029499054,0.7631741762161255,1.5070509910583496,-1.4545272588729858,-2.145177125930786,-4.3285722732543945,3.57421875,1,B1,7.6,90,0,8.055342228758642,[6200|0|14800|0]
32600,0.6481947302818298,0.7613987326622009,1.5110557079315186,-1.431319236755371,-1.6972131729125977,-4.425524711608887,3.568359375,1,B1,7.6,90,0,8.060886450490969,[6200|0|14800|0]
