time.ms,stateEstimate.x,stateEstimate.y,stateEstimate.z,stabilizer.roll,stabilizer.pitch,stabilizer.yaw,pm.vbat,drone_id,node_name,wind_speed,global_wind_direction,relative_wind_direction,travel_dist,waiting_time
0,1.2467159032821655,1.0881218910217285,-0.0450088232755661,-0.03762179613113403,0.8385939598083496,4.458846092224121,4.04296875,2,A/E1,7.6,90,0,0.07911195668035054,[100|0|0|0]
100,1.246894359588623,1.088191032409668,-0.04504990577697754,-0.03138810768723488,0.834825336933136,4.4757184982299805,4.04296875,2,A/E1,7.6,90,0,0.07930769874727248,[200|0|0|0]
200,1.2466042041778564,1.0884252786636353,-0.04484652727842331,-0.10075781494379044,0.7952335476875305,4.476555824279785,4.04296875,2,A/E1,7.6,90,0,0.07973246254465759,[300|0|0|0]
300,1.2466485500335693,1.0881149768829346,-0.04502895846962929,-0.09693275392055511,0.8100590705871582,4.451601982116699,4.04296875,2,A/E1,7.6,90,0,0.08009513993511605,[400|0|0|0]
400,1.2467206716537476,1.0876260995864868,-0.0451359786093235,-0.06073635816574097,0.8219038844108582,4.455542087554932,4.04296875,2,A/E1,7.6,90,0,0.0806007641526723,[500|0|0|0]
500,1.2469186782836914,1.087963342666626,-0.044947218149900436,-0.06099773570895195,0.831239640712738,4.433422565460205,4.04296875,2,A/E1,7.6,90,0,0.08103501066290016,[600|0|0|0]
600,1.2464665174484253,1.0879513025283813,-0.04500341787934303,-0.043852340430021286,0.8436726331710815,4.434481143951416,4.04296875,2,A/E1,7.6,90,0,0.08149080973646977,[700|0|0|0]
700,1.2470312118530273,1.088355541229248,-0.04491231590509415,-0.060402706265449524,0.8298821449279785,4.420400619506836,4.04296875,2,A/E1,7.6,90,0,0.0821912298015588,[800|0|0|0]
800,1.2466002702713013,1.0878852605819702,-0.04540679603815079,-0.03671785444021225,0.8449280261993408,4.420133590698242,4.04296875,2,A/E1,7.6,90,0,0.08299831414414781,[900|0|0|0]
900,1.2467265129089355,1.0884895324707031,-0.044890549033880234,-0.04406364634633064,0.8477976322174072,4.425228118896484,4.04296875,2,A/E1,7.6,90,0,0.08380304558288251,[1000|0|0|0]
1000,1.2464290857315063,1.0882065296173096,-0.04529876634478569,-0.027879461646080017,0.8565609455108643,4.431157112121582,4.04296875,2,A/E1,7.6,90,0,0.0843820057834363,[1100|0|0|0]
1100,1.2467321157455444,1.0882762670516968,-0.04502366855740547,-0.08569689840078354,0.7984552383422852,4.41348123550415,4.04296875,2,A/E1,7.6,90,0,0.08479717959256246,[1200|0|0|0]
1200,1.246457815170288,1.087900161743164,-0.0451994463801384,-0.06596296280622482,0.8133335709571838,4.43674898147583,4.04296875,2,A/E1,7.6,90,0,0.08529476762664003,[1300|0|0|0]
1300,1.2465872764587402,1.0880018472671509,-0.04491432011127472,-0.05706142634153366,0.8186485767364502,4.41163444519043,4.04296875,2,A/E1,7.6,90,0,0.08562400486662403,[1400|0|0|0]
1400,1.2466926574707031,1.0876363515853882,-0.045233480632305145,-0.03980939835309982,0.8299795985221863,4.442129611968994,4.04296875,2,A/E1,7.6,90,0,0.08612054861016925,[1500|0|0|0]
1500,1.246523380279541,1.0878376960754395,-0.04517999291419983,-0.036484431475400925,0.8416788578033447,4.441029071807861,4.04296875,2,A/E1,7.6,90,0,0.08638897980639997,[1600|0|0|0]
1600,1.2465813159942627,1.0880109071731567,-0.04514206573367119,-0.05009795352816582,0.8354470729827881,4.416867733001709,4.04296875,2,A/E1,7.6,90,0,0.08657551962101226,[1700|0|0|0]
1700,1.246801495552063,1.0881953239440918,-0.04501975327730179,-0.03860863298177719,0.8379542827606201,4.429876327514648,4.04296875,2,A/E1,7.6,90,0,0.08688768771684904,[1800|0|0|0]
1800,1.2465085983276367,1.0881236791610718,-0.04525307938456535,-0.031068596988916397,0.8459412455558777,4.433422565460205,4.0390625,2,A/E1,7.6,90,0,0.08726895249537096,[1900|0|0|0]
1900,1.2468544244766235,1.0880099534988403,-0.044994477182626724,-0.026057416573166847,0.8414806723594666,4.433038234710693,4.04296875,2,A/E1,7.6,90,0,0.08771549963781008,[2000|0|0|0]
2000,1.2466213703155518,1.0883148908615112,-0.0453651137650013,-0.02942400611937046,0.8488667011260986,4.441549777984619,4.04296875,2,A/E1,7.6,90,0,0.08824904674289065,[2100|0|0|0]
2100,1.2468117475509644,1.0880727767944336,-0.04494660720229149,-0.08918226510286331,0.7931305170059204,4.40836238861084,4.0390625,2,A/E1,7.6,90,0,0.08876867204661575,[2200|0|0|0]
2200,1.2464277744293213,1.0877470970153809,-0.044976718723773956,-0.0687960684299469,0.8164781928062439,4.457030773162842,4.04296875,2,A/E1,7.6,90,0,0.08927306215392769,[2300|0|0|0]
2300,1.2468756437301636,1.0879565477371216,-0.04489047825336456,-0.06742523610591888,0.8098188638687134,4.437960624694824,4.04296875,2,A/E1,7.6,90,0,0.08977495251467503,[2400|0|0|0]
2400,1.2463912963867188,1.0875364542007446,-0.04509413242340088,-0.055287618190050125,0.8244978189468384,4.4594526290893555,4.04296875,2,A/E1,7.6,90,0,0.09044766787006758,[2500|0|0|0]
2500,1.246834397315979,1.088090181350708,-0.044802553951740265,-0.07088545709848404,0.806011438369751,4.446999549865723,4.04296875,2,A/E1,7.6,90,0,0.091214460016124,[2600|0|0|0]
2600,1.246473789215088,1.0880227088928223,-0.0450918972492218,-0.06005560979247093,0.818746030330658,4.4298224449157715,4.0390625,2,A/E1,7.6,90,0,0.09168169687126165,[2700|0|0|0]
2700,1.2464722394943237,1.0879156589508057,-0.04493319243192673,-0.05138302221894264,0.8256852626800537,4.456985950469971,4.04296875,2,A/E1,7.6,90,0,0.09187313696829691,[2800|0|0|0]
2800,1.2466182708740234,1.0879237651824951,-0.04523826390504837,-0.0362134613096714,0.829342246055603,4.44830846786499,4.04296875,2,A/E1,7.6,90,0,0.09221145557340431,[2900|0|0|0]
2900,1.2465081214904785,1.0881372690200806,-0.0449950285255909,-0.037217382341623306,0.8316044807434082,4.448921203613281,4.04296875,2,A/E1,7.6,90,0,0.09255333307365675,[3000|0|0|0]
3000,1.2463520765304565,1.0875688791275024,-0.045165933668613434,-0.01719830557703972,0.8338004350662231,4.4345245361328125,4.0390625,2,A/E1,7.6,90,0,0.09316703142581748,[3100|0|0|0]
3100,1.2465893030166626,1.0879528522491455,-0.0450231209397316,-0.035060860216617584,0.8237165212631226,4.429137229919434,4.04296875,2,A/E1,7.6,90,0,0.09364043108723757,[3200|0|0|0]
3200,1.2467467784881592,1.0879533290863037,-0.04538869857788086,-0.02888125367462635,0.8317738175392151,4.414455890655518,4.0390625,2,A/E1,7.6,90,0,0.09403848354736254,[3300|0|0|0]
3300,1.2467211484909058,1.0883889198303223,-0.04502085968852043,-0.030516386032104492,0.8328253030776978,4.397232532501221,4.0390625,2,A/E1,7.6,90,0,0.09460918630849109,[3400|0|0|0]
3400,1.2468019723892212,1.0882433652877808,-0.04540441930294037,-0.021265409886837006,0.832173764705658,4.403430938720703,4.04296875,2,A/E1,7.6,90,0,0.09502732098202026,[3500|0|0|0]
3500,1.2441210746765137,1.085073471069336,-0.04773928225040436,0.0063778553158044815,0.8633639812469482,4.3115668296813965,4.04296875,2,A/E1,7.6,90,0,0.09979041103844062,[3600|0|0|0]
3600,1.246665596961975,1.0881567001342773,-0.04517287388443947,-0.06939949840307236,0.7897168397903442,4.386805534362793,4.0390625,2,A/E1,7.6,90,0,0.10454092122462104,[3700|0|0|0]
3700,1.2464700937271118,1.0877007246017456,-0.045194633305072784,-0.04871232435107231,0.7989665269851685,4.396207809448242,4.0390625,2,A/E1,7.6,90,0,0.10503751831834583,[3800|0|0|0]
3800,1.2465159893035889,1.0878393650054932,-0.04509821534156799,-0.0517776720225811,0.7993350625038147,4.409290313720703,4.0390625,2,A/E1,7.6,90,0,0.10521251543025874,[3900|0|0|0]
3900,1.2442249059677124,1.0851973295211792,-0.04772283136844635,0.02528592012822628,0.8673673272132874,4.360089302062988,4.0390625,2,A/E1,7.6,90,0,0.10958493165482516,[4000|0|0|0]
4000,1.2440199851989746,1.0849775075912476,-0.04825003445148468,0.03196128085255623,0.8818762302398682,4.3196187019348145,4.04296875,2,A/E1,7.6,90,0,0.11019177372085559,[4100|0|0|0]
4100,0.7875313758850098,1.170433759689331,0.2551172375679016,0.0002510407939553261,0.0001725572074064985,2.8013687133789062,4.04296875,2,A/E1,7.6,90,0,0.6649136167994685,[4200|0|0|0]
4200,1.264660120010376,1.0943900346755981,-0.0708213597536087,0.06478733569383621,-8.988689422607422,5.903480052947998,4.0390625,2,A/E1,7.6,90,0,1.2477261559649595,[4300|0|0|0]
4300,1.2660017013549805,1.0854144096374512,-0.058056868612766266,2.08960223197937,0.987093985080719,5.910067081451416,4.04296875,2,A/E1,7.6,90,0,1.2633880179045325,[4400|0|0|0]
4400,1.2559763193130493,1.0862925052642822,-0.05271800979971886,2.618786334991455,7.772387504577637,5.123103618621826,4.0390625,2,A/E1,7.6,90,0,1.274780241148579,[4500|0|0|0]
4500,1.2442424297332764,1.0857551097869873,-0.05499252304434776,2.9075939655303955,9.842899322509766,4.022713661193848,4.0390625,2,A/E1,7.6,90,0,1.2867446203246713,[4600|0|0|0]
4600,1.2409322261810303,1.0847996473312378,-0.0527278408408165,2.6685078144073486,9.160347938537598,3.5204200744628906,4.04296875,2,A/E1,7.6,90,0,1.2908676218459711,[4700|0|0|0]
4700,1.241308331489563,1.084611415863037,-0.05071442574262619,2.3698842525482178,8.057894706726074,3.262460231781006,4.0390625,2,A/E1,7.6,90,0,1.2929244948722778,[4800|0|0|0]
4800,1.2411118745803833,1.0843313932418823,-0.049419380724430084,1.9414739608764648,6.903954982757568,3.1104540824890137,4.0390625,2,A/E1,7.6,90,0,1.2942639535631963,[4900|0|0|0]
4901,1.240885615348816,1.0837953090667725,-0.04845051467418671,1.672492265701294,5.980827808380127,3.0257694721221924,4.04296875,2,A/E1,7.6,90,0,1.2953941220931011,[5000|0|0|0]
5000,1.2410050630569458,1.0837738513946533,-0.04857373610138893,1.4170472621917725,5.190334320068359,3.0230512619018555,4.0390625,2,A/E1,7.6,90,0,1.2955670721055093,[5100|0|0|0]
5100,1.241356372833252,1.0838267803192139,-0.04874425381422043,1.1997231245040894,4.509885311126709,3.0541083812713623,4.0390625,2,A/E1,7.6,90,0,1.2959611486467708,[5200|0|0|0]
5201,1.2415095567703247,1.0837092399597168,-0.04855404049158096,1.0195567607879639,3.9254982471466064,3.1664717197418213,4.04296875,2,A/E1,7.6,90,0,1.2962321876897098,[5300|0|0|0]
5301,1.2418673038482666,1.0838630199432373,-0.04841723293066025,0.8579757213592529,3.3973548412323,3.2956881523132324,4.0390625,2,A/E1,7.6,90,0,1.2966449195201186,[5400|0|0|0]
5401,1.240767240524292,1.0839215517044067,-0.048140641301870346,0.6816495060920715,2.98763370513916,3.3836636543273926,4.0390625,2,A/E1,7.6,90,0,1.2977807312179526,[5500|0|0|0]
5501,1.2414722442626953,1.0842238664627075,-0.04802614822983742,0.5618594884872437,2.5918467044830322,3.4817910194396973,4.04296875,2,A/E1,7.6,90,0,1.29855631689845,[5600|0|0|0]
5601,1.2418804168701172,1.084150791168213,-0.048094917088747025,0.46635621786117554,2.280665874481201,3.571119785308838,4.04296875,2,A/E1,7.6,90,0,1.2989766430005074,[5700|0|0|0]
5701,1.2423374652862549,1.0840940475463867,-0.04833684861660004,0.38103631138801575,2.0156760215759277,3.664454698562622,4.0390625,2,A/E1,7.6,90,0,1.2994968775221236,[5800|0|0|0]
5801,1.2424269914627075,1.0843439102172852,-0.04785873740911484,0.3093981146812439,1.7960284948349,3.7440381050109863,4.04296875,2,A/E1,7.6,90,0,1.3000437199283996,[5900|0|0|0]
5901,1.2428550720214844,1.0845379829406738,-0.04805879294872284,0.24288834631443024,1.6027859449386597,3.844217538833618,4.0390625,2,A/E1,7.6,90,0,1.3005545422122655,[6000|0|0|0]
6001,1.2430150508880615,1.0844941139221191,-0.04789739102125168,0.19662831723690033,1.4518612623214722,3.9393258094787598,4.0390625,2,A/E1,7.6,90,0,1.3007859905018069,[6100|0|0|0]
6101,1.243161678314209,1.0846138000488281,-0.04773023724555969,0.1454154998064041,1.3362481594085693,4.003891944885254,4.0390625,2,A/E1,7.6,90,0,1.301038507344321,[6200|0|0|0]
6202,1.243456482887268,1.0844908952713013,-0.04788913577795029,0.1161828562617302,1.2303876876831055,4.06123685836792,4.0390625,2,C1,7.6,90,0,1.3013952482366102,[6200|0|0|0]
6302,1.2430098056793213,1.0851901769638062,-0.048076506704092026,0.16330604255199432,1.2882870435714722,4.037875652313232,3.087890625,2,C1,7.6,90,0,1.3022459087314817,[6200|0|0|0]
6401,1.242444396018982,1.0863618850708008,-0.03696887195110321,-2.401529312133789,1.973875641822815,4.472760200500488,3.525390625,2,C1,7.6,90,0,1.313429474253166,[6200|0|0|0]
6502,1.2406100034713745,1.09751558303833,0.00820358470082283,-2.582202672958374,2.775300979614258,3.6019692420959473,3.615234375,2,C1,7.6,90,0,1.3599947060719781,[6200|0|0|0]
6602,1.2392035722732544,1.1149183511734009,0.06844457983970642,-0.3525410592556,0.6738110780715942,1.6976310014724731,3.658203125,2,C1,7.6,90,0,1.4227148135559506,[6200|0|0|0]
6700,1.2379677295684814,1.1369065046310425,0.1449037790298462,2.4025936126708984,0.12957239151000977,0.2971843481063843,3.66796875,2,C1,7.6,90,0,1.502282491292989,[6200|0|0|0]
6800,1.2386348247528076,1.1555863618850708,0.22540809214115143,4.2868266105651855,0.06774532794952393,0.25244393944740295,3.68359375,2,C1,7.6,90,0,1.5849282807352765,[6200|0|0|0]
6902,1.240074872970581,1.1677700281143188,0.30564236640930176,5.236387252807617,0.9610421657562256,0.104103222489357,3.716796875,2,C1,7.6,90,0,1.6660951103456043,[6200|0|0|0]
7002,1.240859866142273,1.1729774475097656,0.37980344891548157,5.118354797363281,1.2028213739395142,-0.31548011302948,3.720703125,2,C1,7.6,90,0,1.740442938757254,[6200|0|0|0]
7100,1.2401398420333862,1.1712942123413086,0.4426843822002411,3.904994010925293,1.3485833406448364,-0.6310790181159973,3.7109375,2,C1,7.6,90,0,1.8033505176815146,[6200|0|0|0]
7200,1.2364007234573364,1.1644741296768188,0.49297550320625305,2.8204619884490967,1.3695666790008545,-0.8763887286186218,3.705078125,2,C1,7.6,90,0,1.85423952815841,[6200|0|0|0]
7300,1.2307500839233398,1.154589056968689,0.5325209498405457,0.970046877861023,0.7966649532318115,-0.7102830410003662,3.6953125,2,C1,7.6,90,0,1.8953915237247718,[6200|0|0|0]
7400,1.22347092628479,1.1446101665496826,0.5636147260665894,-0.019365211948752403,0.253079891204834,-0.3271408975124359,3.6953125,2,C1,7.6,90,0,1.9288487697249534,[6200|0|0|0]
7500,1.2160106897354126,1.1357905864715576,0.5876044631004333,-0.9964442849159241,-0.46299341320991516,0.07544169574975967,3.68359375,2,C1,7.6,90,0,1.9554748397519046,[6200|0|0|0]
7600,1.2094477415084839,1.128176212310791,0.6063118577003479,-0.4310716390609741,-0.5147688388824463,0.8082585334777832,3.673828125,2,C1,7.6,90,0,1.97671201461125,[6200|0|0|0]
7700,1.2040642499923706,1.1235148906707764,0.6216672658920288,-1.0657904148101807,-1.0019875764846802,1.4238580465316772,3.673828125,2,C1,7.6,90,0,1.9936382800312673,[6200|0|0|0]
7800,1.2009437084197998,1.118773102760315,0.6332508325576782,-0.5596047043800354,-0.6786646246910095,2.0893588066101074,3.673828125,2,C1,7.6,90,0,2.0065379447165017,[6200|0|0|0]
7900,1.1997568607330322,1.1166929006576538,0.643203854560852,-0.42237022519111633,-0.4578886926174164,2.798546075820923,3.673828125,2,C1,7.6,90,0,2.0167750583338826,[6200|0|0|0]
8000,1.198857069015503,1.11619234085083,0.6511090993881226,-0.2677360773086548,-0.3656042516231537,3.4292516708374023,3.66796875,2,C1,7.6,90,0,2.0247470769637044,[6200|0|0|0]
8100,1.1987102031707764,1.1160024404525757,0.6577156186103821,-0.09349885582923889,-0.04518241062760353,3.973754405975342,3.6640625,2,C1,7.6,90,0,2.031357956479449,[6200|0|0|0]
8200,1.1987484693527222,1.1153773069381714,0.6638699769973755,0.15510140359401703,-0.09373149275779724,4.215997219085693,3.6640625,2,C1,7.6,90,0,2.037544100946487,[6200|0|0|0]
8300,1.1988754272460938,1.1146814823150635,0.6683439612388611,0.1487184762954712,0.09237173199653625,4.1317830085754395,3.658203125,2,C1,7.6,90,0,2.042073651167632,[6200|0|0|0]
8400,1.1991205215454102,1.1140096187591553,0.6712709069252014,0.05442986264824867,0.10432619601488113,3.7659342288970947,3.658203125,2,C1,7.6,90,0,2.045086703258802,[6200|0|0|0]
8500,1.1988611221313477,1.11432945728302,0.6740538477897644,-0.0370882973074913,0.46109142899513245,3.150444746017456,3.658203125,2,C1,7.6,90,0,2.0478999477545785,[6200|0|0|0]
8600,1.1978471279144287,1.1141831874847412,0.6764616370201111,0.029473794624209404,0.15193001925945282,2.398411512374878,3.658203125,2,C1,7.6,90,0,2.0505166304070235,[6200|0|0|0]
8700,1.197204351425171,1.1139161586761475,0.6786171197891235,0.694273829460144,-0.14414606988430023,1.7938041687011719,3.65234375,2,C1,7.6,90,0,2.052781706998945,[6200|0|0|0]
8800,1.196759819984436,1.112219214439392,0.6798713803291321,0.8018796443939209,-0.1741122156381607,1.1434450149536133,3.6484375,2,C1,7.6,90,0,2.0549381850180035,[6200|0|0|0]
8900,1.1965950727462769,1.1088539361953735,0.6808596849441528,-0.12813684344291687,-0.12333559989929199,0.5836119055747986,3.6484375,2,C1,7.6,90,0,2.058449450505576,[6200|0|0|0]
9000,1.1966018676757812,1.1060761213302612,0.6814963221549988,-0.04948759078979492,-0.18559589982032776,0.07085101306438446,3.6484375,2,C1,7.6,90,0,2.061299294103765,[6200|0|0|0]
9100,1.1971219778060913,1.1036573648452759,0.6820243000984192,-0.37426137924194336,-0.37810227274894714,0.04598880559206009,3.642578125,2,C1,7.6,90,0,2.063829048674874,[6200|0|0|0]
9200,1.1983227729797363,1.1006749868392944,0.6828774809837341,-0.7457590699195862,-0.06482443958520889,0.6493116021156311,3.6484375,2,C1,7.6,90,167.19573393471325,2.067155368750074,[6200|0|0|0]
9300,1.2007007598876953,1.0972849130630493,0.6863669157028198,4.739871978759766,-0.547929584980011,2.263666868209839,3.509765625,2,C1,7.6,90,167.19573393471325,2.0725704935502582,[6200|0|0|0]
9400,1.207318902015686,1.0813474655151367,0.7042732834815979,15.342159271240234,-4.966098785400391,4.491173267364502,3.5625,2,C1,7.6,90,167.19573393471325,2.097438948399678,[6200|0|0|0]
9500,1.2231370210647583,1.037066102027893,0.7361682057380676,17.08669662475586,-2.221364974975586,5.610541820526123,3.58984375,2,C1,7.6,90,167.19573393471325,2.154257414660976,[6200|0|0|0]
9600,1.2478811740875244,0.9650318026542664,0.7799062132835388,12.555571556091309,-1.32317316532135,5.07095193862915,3.626953125,2,C1,7.6,90,167.19573393471325,2.242088085267041,[6200|0|0|0]
9700,1.2736629247665405,0.8840268850326538,0.8254185914993286,8.375188827514648,1.4438042640686035,2.6400277614593506,3.65234375,2,C1,7.6,90,167.19573393471325,2.3385135586535704,[6200|0|0|0]
9800,1.3043057918548584,0.7739099264144897,0.8809729814529419,0.012774675153195858,1.9371522665023804,0.9370803236961365,3.673828125,2,C1,7.6,90,167.19573393471325,2.465600222477218,[6200|0|0|0]
9900,1.3281731605529785,0.6861408352851868,0.9208161234855652,-5.577274799346924,2.806609630584717,0.26889851689338684,3.6796875,2,C1,7.6,90,167.19573393471325,2.5649004773271815,[6200|0|0|0]
10000,1.3507109880447388,0.5991429090499878,0.955628514289856,-9.908163070678711,3.9318063259124756,-0.2849704325199127,3.673828125,2,C1,7.6,90,167.19573393471325,2.661277317858422,[6200|0|0|0]
10100,1.3678444623947144,0.5287321209907532,0.9764217734336853,-12.086599349975586,4.138444423675537,-0.9718496203422546,3.658203125,2,C1,7.6,90,167.19573393471325,2.736666936800596,[6200|0|0|0]
10200,1.3807380199432373,0.47861775755882263,0.9858036041259766,-11.367313385009766,4.4362359046936035,-1.835996389389038,3.630859375,2,C1,7.6,90,167.19573393471325,2.7892569738378854,[6200|0|0|0]
10300,1.3880895376205444,0.4470243453979492,0.9873907566070557,-9.988251686096191,4.05387544631958,-2.2248148918151855,3.62109375,2,C1,7.6,90,167.19573393471325,2.821733235277971,[6200|0|0|0]
10400,1.391343355178833,0.4313717186450958,0.9863288402557373,-7.492074966430664,3.1591148376464844,-2.249708890914917,3.615234375,2,C1,7.6,90,167.19573393471325,2.8377557107204225,[6200|0|0|0]
10500,1.3904924392700195,0.42804524302482605,0.9849429726600647,-4.371353626251221,2.2191426753997803,-1.6127227544784546,3.615234375,2,C1,7.6,90,167.19573393471325,2.84145842957673,[6200|0|0|0]
10600,1.3875845670700073,0.4305499792098999,0.9863448739051819,-1.812288522720337,1.1418031454086304,-1.236968994140625,3.62109375,2,C1,7.6,90,167.19573393471325,2.845544350671108,[6200|0|0|0]
10700,1.3841692209243774,0.43466150760650635,0.9880730509757996,-0.5950599312782288,0.7159336805343628,-1.0183559656143188,3.626953125,2,C1,7.6,90,167.19573393471325,2.851161810153648,[6200|0|0|0]
10800,1.3799214363098145,0.4384269714355469,0.9902058243751526,0.6945900321006775,0.25134631991386414,-0.5146862268447876,3.630859375,2,C1,7.6,90,167.19573393471325,2.857225729212517,[6200|0|0|0]
10900,1.3759547472000122,0.4398547410964966,0.9922389388084412,0.9946369528770447,0.042069487273693085,-0.059343643486499786,3.630859375,2,C1,7.6,90,167.19573393471325,2.861906188911884,[6200|0|0|0]
11000,1.3723993301391602,0.4391273856163025,0.9936681389808655,0.6552039384841919,0.20025070011615753,-0.09247644990682602,3.62109375,2,C1,7.6,90,167.19573393471325,2.8658065285899155,[6200|0|0|0]
11100,1.3681843280792236,0.436977744102478,0.9947521686553955,0.007759562227874994,0.4206136465072632,0.23121406137943268,3.626953125,2,C1,7.6,90,167.19573393471325,2.8706606321465453,[6200|0|0|0]
11200,1.3640737533569336,0.4344319999217987,0.9946792721748352,-0.5803981423377991,0.37589916586875916,0.06092777103185654,3.62109375,2,C1,7.6,90,167.19573393471325,2.875496224341703,[6200|0|0|0]
11300,1.3592246770858765,0.4338890016078949,0.9931357502937317,-1.5365269184112549,0.47269245982170105,-0.4974170923233032,3.615234375,2,C1,7.6,90,167.19573393471325,2.8806139237905644,[6200|0|0|0]
11400,1.3542941808700562,0.43571338057518005,0.9917065501213074,-1.369215726852417,-0.5012561082839966,-1.1572387218475342,3.615234375,2,C1,7.6,90,167.19573393471325,2.886061929359885,[6200|0|0|0]
11500,1.3503178358078003,0.43990838527679443,0.9910771250724792,-0.8136128187179565,-0.4956633448600769,-1.3888187408447266,3.615234375,2,C1,7.6,90,167.19573393471325,2.891876184290036,[6200|0|0|0]
11600,1.3474074602127075,0.4453810453414917,0.9906407594680786,0.31374621391296387,-0.628288984298706,-1.4813610315322876,3.62109375,2,C1,7.6,90,167.19573393471325,2.8980899359127634,[6200|0|0|0]
11700,1.3453136682510376,0.4505814015865326,0.9900305271148682,0.8851179480552673,-0.3515780568122864,-1.7029074430465698,3.615234375,2,C1,7.6,90,167.19573393471325,2.9037290895176047,[6200|0|0|0]
11800,1.3436033725738525,0.45506495237350464,0.9897894263267517,0.55673748254776,-0.5318946242332458,-2.19620943069458,3.611328125,2,C1,7.6,90,167.19573393471325,2.9085338234907594,[6200|0|0|0]
11900,1.3423349857330322,0.4587118327617645,0.9892956018447876,0.7136514186859131,-0.5819435119628906,-2.9013853073120117,3.615234375,2,C1,7.6,90,167.19573393471325,2.9124264324312037,[6200|0|0|0]
12000,1.3416913747787476,0.46130234003067017,0.9896275997161865,0.8146412372589111,-0.13894352316856384,-3.5075266361236572,3.62109375,2,C1,7.6,90,167.19573393471325,2.9151162624550793,[6200|0|0|0]
12100,1.3418805599212646,0.46307799220085144,0.9894965887069702,0.5608319044113159,-0.06023067235946655,-3.6671266555786133,3.615234375,2,C1,7.6,90,167.19573393471325,2.916906763930129,[6200|0|0|0]
12200,1.3414654731750488,0.46441084146499634,0.9880385994911194,1.2755669355392456,0.1219649463891983,-3.192392349243164,3.615234375,2,C1,7.6,90,167.19573393471325,2.9189253071477372,[6200|0|0|0]
12300,1.3411719799041748,0.46294155716896057,0.9849402904510498,1.3769960403442383,-0.13320955634117126,-2.517406702041626,3.837890625,2,C1,7.6,90,0,2.9223668843371087,[6200|0|0|0]
12400,1.341134786605835,0.46010497212409973,0.9566788673400879,1.155487060546875,-0.7099537253379822,-1.6947965621948242,3.794921875,2,C1,7.6,90,0,2.9507703283943876,[6200|0|0|0]
12500,1.3412717580795288,0.4563715159893036,0.8870909214019775,0.7465210556983948,-0.42145922780036926,-1.2181439399719238,3.701171875,2,C1,7.6,90,0,3.020458488621075,[6200|0|0|0]
12600,1.3415831327438354,0.45044082403182983,0.7828062772750854,-1.092781901359558,-1.3093286752700806,-1.2357468605041504,3.626953125,2,C1,7.6,90,0,3.124912100631137,[6200|0|0|0]
12700,1.3435498476028442,0.4447137117385864,0.6608920097351074,-1.4637395143508911,-1.3053709268569946,-1.113362431526184,3.60546875,2,C1,7.6,90,0,3.2469766590105675,[6200|0|0|0]
12800,1.3490521907806396,0.44006872177124023,0.5348774790763855,-2.1631758213043213,-1.006308674812317,-0.4615693688392639,3.578125,2,C1,7.6,90,0,3.3731967590318437,[6200|0|0|0]
12900,1.3583786487579346,0.4381882846355438,0.41242557764053345,-1.3265048265457153,-1.984970211982727,-1.5582146644592285,3.537109375,2,C1,7.6,90,0,3.496017714196177,[6200|0|0|0]
13000,1.374318242073059,0.4397508203983307,0.3008232116699219,-2.0715768337249756,-1.204487919807434,-3.572319507598877,3.515625,2,C1,7.6,90,0,3.6087634469016763,[6200|0|0|0]
13100,1.3932228088378906,0.44291770458221436,0.20858818292617798,0.503083348274231,4.327975273132324,-2.439268112182617,3.505859375,2,C1,7.6,90,0,3.7029691384885406,[6200|0|0|0]
13200,1.407759189605713,0.4435276389122009,0.13848669826984406,2.213827133178711,4.951502799987793,1.1954331398010254,3.53125,2,C1,7.6,90,0,3.7745645052152796,[6200|0|0|0]
13300,1.4112669229507446,0.4380751848220825,0.08768461644649506,-0.7397249937057495,8.195228576660156,6.139857769012451,3.55859375,2,C1,7.6,90,0,3.8257786142713877,[6200|0|0|0]
13400,1.4013752937316895,0.43069159984588623,0.047894902527332306,-0.4830978512763977,4.991683483123779,7.513883113861084,3.53125,2,C1,7.6,90,0,3.8674389429964084,[6200|0|0|0]
13500,1.3802108764648438,0.4225204586982727,0.02377660945057869,-0.5933422446250916,1.8964998722076416,6.633991718292236,3.541015625,2,C1,7.6,90,0,3.9005507560974086,[6200|0|0|0]
13600,1.3543542623519897,0.41304028034210205,0.01771961897611618,0.7980201840400696,-1.4135165214538574,4.756980895996094,3.57421875,2,C1,7.6,90,0,3.9287487242627495,[6200|0|0|0]
13700,1.3310154676437378,0.4015248119831085,0.028543077409267426,-0.4357304275035858,-4.861628532409668,4.073183536529541,3.615234375,2,C1,7.6,90,0,3.956934759855132,[6200|0|0|0]
13800,1.3163785934448242,0.3893565833568573,0.0423009991645813,-1.6210378408432007,-5.762149810791016,3.9933834075927734,3.615234375,2,C1,7.6,90,0,3.9804205914401725,[6200|0|0|0]
13900,1.3114079236984253,0.37796756625175476,0.052757903933525085,-3.1193196773529053,-4.376621246337891,3.2464163303375244,3.611328125,2,C1,7.6,90,0,3.996661408097436,[6200|0|0|0]
14000,1.3144359588623047,0.37195250391960144,0.05817781016230583,-4.118618011474609,-3.390097141265869,1.3866866827011108,3.599609375,2,C1,7.6,90,0,4.005305790975476,[6200|0|0|0]
14100,1.323114275932312,0.37332451343536377,0.05812898650765419,-3.5060086250305176,-2.0655479431152344,0.17583993077278137,3.58984375,2,C1,7.6,90,0,4.0140920291368385,[6200|0|0|0]
14200,1.3358955383300781,0.381132572889328,0.056385304778814316,-3.2995705604553223,-0.534866452217102,0.34349098801612854,3.583984375,2,C1,7.6,90,0,4.029170718963501,[6200|0|0|0]
14300,1.3504291772842407,0.3930707275867462,0.05484122782945633,-0.39126667380332947,1.084714651107788,0.7544390559196472,3.583984375,2,C1,7.6,90,0,4.048042135774514,[6200|0|0|0]
14400,1.3638343811035156,0.40651434659957886,0.05519360303878784,0.024446872994303703,2.2893142700195312,0.2652323842048645,3.583984375,2,C1,7.6,90,0,4.06703040978472,[6200|0|0|0]
14500,1.3747628927230835,0.41756439208984375,0.05736542493104935,0.5135688185691833,2.1117124557495117,-0.3651138246059418,3.583984375,2,C1,7.6,90,0,4.082722850063009,[6200|0|0|0]
14600,1.3836661577224731,0.4304123520851135,0.060174815356731415,1.8257815837860107,3.3479838371276855,-0.2581062316894531,3.59375,2,C1,7.6,90,0,4.098604628245987,[6200|0|0|0]
14700,1.3880635499954224,0.44034290313720703,0.06367453187704086,2.078680992126465,2.67270565032959,0.2920283377170563,3.58984375,2,C1,7.6,90,0,4.110015189964104,[6200|0|0|0]
14800,1.3891998529434204,0.44662901759147644,0.06667500734329224,1.938747763633728,1.9718960523605347,0.38465505838394165,3.58984375,2,C1,7.6,90,0,4.117072758408361,[6200|0|0|0]
14900,1.3872289657592773,0.4503525197505951,0.06944652646780014,1.5544308423995972,1.442862629890442,0.35503336787223816,3.58984375,2,C1,7.6,90,0,4.122115593214211,[6200|0|0|0]
15000,1.3830379247665405,0.453067809343338,0.07146181166172028,1.0584452152252197,0.5173084139823914,-0.3168548047542572,3.583984375,2,C1,7.6,90,0,4.127500664856083,[6200|0|0|0]
15100,1.379616141319275,0.4550669193267822,0.07142206281423569,0.6921617984771729,-0.2572135031223297,-0.6621713042259216,3.583984375,2,C1,7.6,90,0,4.131463823023096,[6200|0|0|0]
15200,1.3767285346984863,0.45662131905555725,0.07125186175107956,0.9536565542221069,0.2676616311073303,-0.711319625377655,3.583984375,2,C1,7.6,90,0,4.134747631622138,[6200|0|0|0]
15300,1.3761868476867676,0.45979559421539307,0.07269368320703506,1.3596440553665161,-0.6234721541404724,-1.31428861618042,3.583984375,2,B2,7.6,90,0,4.138275846003361,[6200|100|0|0]
15400,1.3777717351913452,0.4684019088745117,0.08094315230846405,0.794188380241394,-0.47180259227752686,-1.476632833480835,3.599609375,2,B2,7.6,90,0,4.150302244502885,[6200|200|0|0]
15500,1.3751013278961182,0.469923198223114,0.08478612452745438,1.4122031927108765,0.09174004942178726,-1.8901712894439697,3.599609375,2,B2,7.6,90,0,4.155222999717332,[6200|300|0|0]
15600,1.37138032913208,0.4688349962234497,0.08409391343593597,0.554745614528656,1.0958253145217896,-2.459087371826172,3.58984375,2,B2,7.6,90,0,4.159161168275085,[6200|400|0|0]
15700,1.3664095401763916,0.4668290317058563,0.08029505610466003,0.9683873653411865,0.9437574744224548,-3.0709662437438965,3.578125,2,B2,7.6,90,0,4.16573109624358,[6200|500|0|0]
15800,1.3595587015151978,0.4636269807815552,0.07492665946483612,0.2916519343852997,0.8281044363975525,-3.8846139907836914,3.57421875,2,B2,7.6,90,0,4.175005081523167,[6200|600|0|0]
15900,1.3512070178985596,0.4596827030181885,0.07123516499996185,0.05263791233301163,0.2795708179473877,-5.8646321296691895,3.57421875,2,B2,7.6,90,0,4.184951692890422,[6200|700|0|0]
16000,1.3696544170379639,0.43511977791786194,0.04156734421849251,-0.30193236470222473,0.34198641777038574,-6.5680670738220215,3.541015625,2,B2,7.6,90,0,4.2276579385040804,[6200|800|0|0]
16100,1.3643351793289185,0.43108707666397095,0.045808225870132446,-0.9061784148216248,0.3505055904388428,-4.425525188446045,3.568359375,2,B2,7.6,90,0,4.235566291454707,[6200|900|0|0]
16200,1.3601187467575073,0.42960378527641296,0.056305304169654846,0.334815114736557,0.06390132009983063,-2.4661593437194824,3.58984375,2,B2,7.6,90,0,4.246975371601501,[6200|1000|0|0]
16300,1.3551002740859985,0.4289238154888153,0.06748735159635544,-0.45928633213043213,0.738193154335022,-2.3303346633911133,3.599609375,2,B2,7.6,90,0,4.259250778377641,[6200|1100|0|0]
16400,1.3490809202194214,0.4295148551464081,0.07579879462718964,-0.43322503566741943,0.4389157295227051,-2.884291648864746,3.58984375,2,B2,7.6,90,0,4.269529982340144,[6200|1200|0|0]
16500,1.342627763748169,0.4315166175365448,0.0810713917016983,-0.8532704710960388,0.00409287866204977,-3.229755401611328,3.58984375,2,B2,7.6,90,0,4.278100312614944,[6200|1300|0|0]
16600,1.335483431816101,0.4363071024417877,0.08357197791337967,-1.7845710515975952,0.5037970542907715,-2.8477485179901123,3.578125,2,B2,7.6,90,0,4.287058167033552,[6200|1400|0|0]
16700,1.3287043571472168,0.444100558757782,0.08358287066221237,-0.018524866551160812,-0.05425846204161644,-0.32910898327827454,3.583984375,2,B2,7.6,90,0,4.297387442582573,[6200|1500|0|0]
16800,1.322239875793457,0.4528424143791199,0.08225638419389725,-1.083690881729126,0.6007659435272217,1.866353154182434,3.583984375,2,B2,7.6,90,0,4.308340484407931,[6200|1600|0|0]
16900,1.3139331340789795,0.4629051983356476,0.08220811933279037,-0.2440253049135208,0.4657791256904602,2.311053991317749,3.57421875,2,B2,7.6,90,0,4.321389005717398,[6200|1700|0|0]
17000,1.3061202764511108,0.47304922342300415,0.08022185415029526,1.5229970216751099,0.068723164498806,2.6992616653442383,3.578125,2,B2,7.6,90,0,4.334346136520993,[6200|1800|0|0]
17100,1.2980061769485474,0.48179811239242554,0.07785449922084808,-0.018632719293236732,0.2612653970718384,1.529603362083435,3.568359375,2,B2,7.6,90,0,4.346511087745669,[6200|1900|0|0]
17200,1.2892402410507202,0.4901066720485687,0.07588494569063187,-0.125209242105484,0.7748851776123047,-1.2977917194366455,3.912109375,2,B2,7.6,90,0,4.35874844599134,[6200|2000|0|0]
17300,1.2804490327835083,0.4993022382259369,0.04229915887117386,-5.6135454177856445,-0.4488915205001831,-4.727252960205078,3.921875,2,B2,7.6,90,0,4.3946629118289655,[6200|2100|0|0]
17400,1.2673238515853882,0.5124539732933044,-0.016370190307497978,0.3307841420173645,12.015447616577148,-7.526378154754639,3.921875,2,B2,7.6,90,0,4.456204207312687,[6200|2200|0|0]
17500,1.2643766403198242,0.515123724937439,-0.01601804420351982,-1.4481114149093628,14.686039924621582,-9.167510986328125,3.927734375,2,B2,7.6,90,0,4.460196404071837,[6200|2300|0|0]
17600,1.264345645904541,0.5149732828140259,-0.015868542715907097,-1.286850094795227,14.70635986328125,-9.114730834960938,3.927734375,2,B2,7.6,90,0,4.46041075000969,[6200|2400|0|0]
17700,1.2645858526229858,0.5151066780090332,-0.015723593533039093,-1.1292543411254883,14.725378036499023,-9.060965538024902,3.927734375,2,B2,7.6,90,0,4.4607214006353955,[6200|2500|0|0]
17800,1.2649177312850952,0.5149153470993042,-0.015843573957681656,-0.9484137892723083,14.734452247619629,-9.007345199584961,3.931640625,2,B2,7.6,90,0,4.461122830910385,[6200|2600|0|0]
17900,1.264591097831726,0.5149245262145996,-0.015704773366451263,-0.774373471736908,14.773394584655762,-9.001880645751953,3.931640625,2,B2,7.6,90,0,4.461477851012835,[6200|2700|0|0]
18000,1.2640984058380127,0.5147383213043213,-0.01628435030579567,-0.5765620470046997,14.849491119384766,-9.006753921508789,3.931640625,2,B2,7.6,90,0,4.462261003040158,[6200|2800|0|0]
18100,1.2641383409500122,0.514726996421814,-0.016020990908145905,-0.41932809352874756,14.88528823852539,-8.990667343139648,3.9375,2,B2,7.6,90,0,4.462527613689729,[6200|2900|0|0]
18200,1.2642954587936401,0.5146501064300537,-0.015676351264119148,-0.35693275928497314,14.8652925491333,-8.974197387695312,3.9375,2,B2,7.6,90,0,4.462914103756683,[6200|3000|0|0]
18300,1.264499306678772,0.5145112872123718,-0.015562087297439575,-0.18760012090206146,14.911895751953125,-8.967103958129883,3.9375,2,B2,7.6,90,0,4.463185914333283,[6200|3100|0|0]
18400,1.2645624876022339,0.5147667527198792,-0.015783892944455147,-0.08213513344526291,14.934069633483887,-8.951333045959473,3.9375,2,B2,7.6,90,0,4.4635300831867015,[6200|3200|0|0]
18500,1.2643016576766968,0.5146816968917847,-0.01573929190635681,0.03865610063076019,14.975289344787598,-8.990999221801758,3.943359375,2,B2,7.6,90,0,4.4638080328162175,[6200|3300|0|0]
18600,1.2643601894378662,0.514382004737854,-0.015523119829595089,0.12881803512573242,14.999730110168457,-8.970905303955078,3.943359375,2,B2,7.6,90,0,4.464182160763536,[6200|3400|0|0]
18700,1.264728307723999,0.514585554599762,-0.015698755159974098,0.12468282878398895,14.959773063659668,-8.981979370117188,3.943359375,2,B2,7.6,90,0,4.464638002170327,[6200|3500|0|0]
18800,1.2644689083099365,0.514043390750885,-0.015514135360717773,0.22219906747341156,15.00059700012207,-8.968167304992676,3.943359375,2,B2,7.6,90,0,4.465266742311659,[6200|3600|0|0]
18900,1.2644402980804443,0.5144425630569458,-0.015211767517030239,0.27407121658325195,15.029231071472168,-8.953812599182129,3.943359375,2,B2,7.6,90,0,4.465768323200503,[6200|3700|0|0]
19000,1.2643934488296509,0.5140479207038879,-0.01577642373740673,0.33066028356552124,15.042952537536621,-8.943852424621582,3.943359375,2,B2,7.6,90,0,4.466458811496087,[6200|3800|0|0]
19100,1.2647268772125244,0.513948917388916,-0.015533695928752422,0.3637069761753082,15.047271728515625,-8.943634033203125,3.94921875,2,B2,7.6,90,0,4.466882949365152,[6200|3900|0|0]
19200,1.2646644115447998,0.5142368674278259,-0.015768226236104965,0.38560715317726135,15.057323455810547,-8.950428009033203,3.94921875,2,B2,7.6,90,0,4.467259541518043,[6200|4000|0|0]
19300,1.2643390893936157,0.5140335559844971,-0.015692925080657005,0.4096783995628357,15.069561958312988,-8.945297241210938,3.94921875,2,B2,7.6,90,0,4.4676504894801194,[6200|4100|0|0]
19400,1.263134241104126,0.5130836367607117,-0.017091678455471992,0.583246111869812,15.095956802368164,-8.949162483215332,3.94921875,2,B2,7.6,90,0,4.469726667925235,[6200|4200|0|0]
19500,1.2627321481704712,0.5127254128456116,-0.01821308583021164,0.5862425565719604,15.016570091247559,-8.911367416381836,3.94921875,2,B2,7.6,90,0,4.470970676607184,[6200|4300|0|0]
19600,1.2632263898849487,0.5121933221817017,-0.017775312066078186,0.5844148993492126,14.932438850402832,-9.019294738769531,3.94921875,2,B2,7.6,90,0,4.471818639587221,[6200|4400|0|0]
19700,1.260960340499878,0.5131796002388,-0.012838320806622505,-5.348640441894531,15.366015434265137,-10.963431358337402,3.953125,2,B2,7.6,90,0,4.477339654613232,[6200|4500|0|0]
19800,1.2756623029708862,0.5240505933761597,0.0038405354134738445,-23.662565231323242,6.097261428833008,-11.181754112243652,3.953125,2,B2,7.6,90,0,4.502088602815167,[6200|4600|0|0]
19900,1.2963199615478516,0.5385703444480896,0.008188178762793541,-14.92483139038086,5.538669586181641,-10.238016128540039,3.953125,2,B2,7.6,90,0,4.527710156861832,[6200|4700|0|0]
20000,1.3219908475875854,0.5366649031639099,0.001189353526569903,-10.32514476776123,-2.9855408668518066,-11.209266662597656,3.953125,2,B2,7.6,90,0,4.554386150774706,[6200|4800|0|0]
20100,1.3323935270309448,0.5307380557060242,-0.013837877660989761,-4.506373405456543,-0.9980415105819702,-6.258948802947998,3.953125,2,B2,7.6,90,0,4.573599712067571,[6200|4900|0|0]
20200,1.3344894647598267,0.5321808457374573,-0.034762319177389145,0.972492516040802,-4.27862024307251,-10.310042381286621,3.953125,2,B2,7.6,90,0,4.594678299563212,[6200|5000|0|0]
20300,1.330611228942871,0.5353342294692993,-0.03600621595978737,0.8603132963180542,-3.860372304916382,-10.661702156066895,3.953125,2,B2,7.6,90,0,4.599829204456279,[6200|5100|0|0]
20400,1.3306535482406616,0.5344433188438416,-0.03478068858385086,0.7868512868881226,-3.880908489227295,-10.580862998962402,3.953125,2,B2,7.6,90,0,4.6013449320092015,[6200|5200|0|0]
20500,1.3313491344451904,0.5321869850158691,-0.03257760405540466,0.7203577756881714,-3.933180093765259,-10.596256256103516,3.958984375,2,B2,7.6,90,0,4.604574245241246,[6200|5300|0|0]
20600,1.3398829698562622,0.5160112977027893,-0.011017421260476112,0.5262911915779114,-3.9962120056152344,-11.176400184631348,3.958984375,2,B2,7.6,90,0,4.632846505303444,[6200|5400|0|0]
20700,1.3400324583053589,0.5161794424057007,-0.011031580157577991,0.45686134696006775,-3.8187952041625977,-10.740507125854492,3.958984375,2,B2,7.6,90,0,4.633071938024888,[6200|5500|0|0]
20800,1.3396623134613037,0.5165397524833679,-0.011731832288205624,0.41325023770332336,-3.6828207969665527,-10.444218635559082,3.958984375,2,B2,7.6,90,0,4.633942101000484,[6200|5600|0|0]
20900,1.3395766019821167,0.5162743330001831,-0.011591903865337372,0.4007064700126648,-3.6048238277435303,-10.230015754699707,3.958984375,2,B2,7.6,90,0,4.634254148950717,[6200|5700|0|0]
21000,1.3397027254104614,0.5164874792098999,-0.011600026860833168,0.26550766825675964,-3.618253231048584,-10.079170227050781,3.958984375,2,B2,7.6,90,0,4.6345019480809615,[6200|5800|0|0]
21100,1.342429280281067,0.5280083417892456,-0.0012107288930565119,0.06878095865249634,-3.736732244491577,-9.792591094970703,3.958984375,2,B2,7.6,90,0,4.650253198453482,[6200|5900|0|0]
21200,1.339961290359497,0.5163808465003967,-0.011222124099731445,0.24079503118991852,-3.7793147563934326,-9.80632495880127,3.958984375,2,B2,7.6,90,0,4.665794036749063,[6200|6000|0|0]
21300,1.3440818786621094,0.522331178188324,-0.007917363196611404,0.2276737242937088,-3.8808858394622803,-9.659757614135742,3.958984375,2,B2,7.6,90,0,4.673750615145759,[6200|6100|0|0]
21400,1.3437343835830688,0.5224447846412659,-0.007638663984835148,0.1322939693927765,-3.861187219619751,-9.616273880004883,4.02734375,2,B2,7.6,90,0,4.674210324300282,[6200|6200|0|0]
21500,1.3365837335586548,0.5185690522193909,-0.011691396124660969,0.30392715334892273,-3.7335424423217773,-9.63565731048584,4.02734375,2,B2,7.6,90,0,4.6832975535465815,[6200|6300|0|0]
21600,1.3442105054855347,0.5220951437950134,-0.007601892575621605,0.1003381684422493,-4.054028034210205,-9.616764068603516,4.02734375,2,B2,7.6,90,0,4.692642338782312,[6200|6400|0|0]
21700,1.3436411619186401,0.5222466588020325,-0.007051429245620966,0.12917354702949524,-4.040839195251465,-9.540995597839355,4.03125,2,B2,7.6,90,0,4.693448638213163,[6200|6500|0|0]
21800,1.3445830345153809,0.5230618715286255,-0.006940706633031368,0.004810871556401253,-3.9748432636260986,-9.7119722366333,4.03125,2,B2,7.6,90,0,4.694699220187697,[6200|6600|0|0]
21900,1.344408392906189,0.5233864784240723,-0.006787484046071768,-0.058050140738487244,-3.9170074462890625,-9.712244033813477,4.03125,2,B2,7.6,90,0,4.69509840246359,[6200|6700|0|0]
22000,1.3439559936523438,0.5234435796737671,-0.007111361715942621,-0.06942035257816315,-3.883946657180786,-9.721454620361328,4.03125,2,B2,7.6,90,0,4.695657707731433,[6200|6800|0|0]
22100,1.3439007997512817,0.5233848094940186,-0.007044608239084482,-0.07799238711595535,-3.8836026191711426,-9.731246948242188,4.03125,2,B2,7.6,90,0,4.695762380208307,[6200|6900|0|0]
22200,1.3439152240753174,0.5230304002761841,-0.0067155989818274975,-0.06912659853696823,-3.90124249458313,-9.727116584777832,4.03125,2,B2,7.6,90,0,4.696246178767804,[6200|7000|0|0]
22300,1.3438456058502197,0.5234344005584717,-0.006836185697466135,-0.07543029636144638,-3.914215564727783,-9.726873397827148,4.03125,2,B2,7.6,90,0,4.696673500755703,[6200|7100|0|0]
22401,1.343430995941162,0.523265540599823,-0.006792314816266298,-0.05974353477358818,-3.913287401199341,-9.711946487426758,4.0390625,2,B2,7.6,90,0,4.697123322627716,[6200|7200|0|0]
22500,1.3431679010391235,0.5228656530380249,-0.006963706575334072,-0.0620720274746418,-3.887007474899292,-9.70090103149414,4.0390625,2,B2,7.6,90,0,4.697631755636711,[6200|7300|0|0]
22600,1.3436630964279175,0.5232333540916443,-0.006702817976474762,-0.05461892485618591,-3.91235613822937,-9.671546936035156,4.0390625,2,B2,7.6,90,0,4.698301446161453,[6200|7400|0|0]
22700,1.343401312828064,0.5228896737098694,-0.006768831051886082,-0.03774576634168625,-3.9137306213378906,-9.650771141052246,4.0390625,2,B2,7.6,90,0,4.698738486873624,[6200|7500|0|0]
22800,1.3399237394332886,0.5165751576423645,-0.011482604779303074,0.09165868908166885,-3.8609678745269775,-9.677861213684082,4.0390625,2,B2,7.6,90,0,4.707351633373952,[6200|7600|0|0]
22900,1.3433889150619507,0.5233965516090393,-0.006992161273956299,-0.04928078502416611,-3.934303045272827,-9.631114959716797,4.0390625,2,B2,7.6,90,0,4.716223101158978,[6200|7700|0|0]
23001,1.3435717821121216,0.5231446623802185,-0.007159788627177477,-0.03718579560518265,-3.9513661861419678,-9.628557205200195,4.0390625,2,B2,7.6,90,0,4.716576636830704,[6200|7800|0|0]
23101,1.3434709310531616,0.5235607028007507,-0.006885326001793146,-0.05971900746226311,-3.970454454421997,-9.618626594543457,4.0390625,2,B2,7.6,90,0,4.71708515457901,[6200|7900|0|0]
23201,1.3430479764938354,0.5238961577415466,-0.006258578039705753,-0.1558317095041275,-4.013913154602051,-9.60571575164795,4.0390625,2,B2,7.6,90,0,4.717912338708778,[6200|8000|0|0]
23302,1.343079924583435,0.5238040089607239,-0.006648439913988113,-0.1162571907043457,-4.007503986358643,-9.579140663146973,4.04296875,2,B2,7.6,90,0,4.718314214758394,[6200|8100|0|0]
23401,1.34365713596344,0.5232506990432739,-0.006403027102351189,-0.0971866026520729,-4.0125837326049805,-9.551775932312012,4.04296875,2,B2,7.6,90,0,4.719150607184274,[6200|8200|0|0]
23501,1.3437925577163696,0.5233302712440491,-0.006543071009218693,-0.07776062935590744,-4.013164043426514,-9.570507049560547,4.04296875,2,B2,7.6,90,0,4.719361042642678,[6200|8300|0|0]
23602,1.3434784412384033,0.5229073166847229,-0.006896127015352249,-0.041095759719610214,-4.003417491912842,-9.582937240600586,4.04296875,2,B2,7.6,90,0,4.719995241558202,[6200|8400|0|0]
23702,1.3434113264083862,0.5230967402458191,-0.00717166718095541,-0.017714858055114746,-3.997823476791382,-9.579540252685547,4.04296875,2,B2,7.6,90,0,4.720336281246166,[6200|8500|0|0]
23801,1.3436588048934937,0.5229920744895935,-0.006891400087624788,0.0006273891194723547,-4.000291347503662,-9.576319694519043,4.04296875,2,B2,7.6,90,0,4.720724546831457,[6200|8600|0|0]
23902,1.3437093496322632,0.5230668187141418,-0.006741320714354515,-0.0014514829963445663,-3.999723196029663,-9.60450553894043,4.04296875,2,B2,7.6,90,0,4.720899661902202,[6200|8700|0|0]
24002,1.343489408493042,0.5226417779922485,-0.006942382548004389,0.01588001847267151,-3.988781690597534,-9.631845474243164,4.04296875,2,B2,7.6,90,0,4.721418756865518,[6200|8800|0|0]
24102,1.3401083946228027,0.5166764855384827,-0.011639001779258251,0.1411868929862976,-3.925333023071289,-9.708799362182617,4.04296875,2,B2,7.6,90,0,4.729729845906858,[6200|8900|0|0]
24200,1.343649983406067,0.5230312943458557,-0.006715380121022463,0.011672756634652615,-3.993591785430908,-9.675450325012207,4.046875,2,B2,7.6,90,0,4.738514406016588,[6200|9000|0|0]
24302,1.3435988426208496,0.5228294730186462,-0.006975231692194939,0.016962142661213875,-3.9945778846740723,-9.654359817504883,4.046875,2,B2,7.6,90,0,4.738847377587551,[6200|9100|0|0]
24402,1.3437933921813965,0.5231111645698547,-0.006809503771364689,0.008269155398011208,-4.00199031829834,-9.631495475769043,4.046875,2,B2,7.6,90,0,4.7392277266447,[6200|9200|0|0]
24502,1.3436204195022583,0.5229432582855225,-0.006832697428762913,0.005224773194640875,-3.990912675857544,-9.626816749572754,4.046875,2,B2,7.6,90,0,4.739469904293936,[6200|9300|0|0]
24600,1.343612551689148,0.5231639742851257,-0.007087309379130602,-0.010308288969099522,-3.9974756240844727,-9.596588134765625,4.046875,2,B2,7.6,90,0,4.739806957257481,[6200|9400|0|0]
24700,1.3437466621398926,0.523353099822998,-0.006799959111958742,-0.025075117126107216,-4.008685111999512,-9.567551612854004,4.046875,2,B2,7.6,90,0,4.740176178408173,[6200|9500|0|0]
24800,1.3439042568206787,0.5233849883079529,-0.006693788804113865,-0.009644142352044582,-3.9982354640960693,-9.562948226928711,4.046875,2,B2,7.6,90,0,4.740368857138583,[6200|9600|0|0]
24900,1.3438224792480469,0.5235451459884644,-0.006708378437906504,-0.0033046924509108067,-3.988245964050293,-9.554743766784668,4.046875,2,B2,7.6,90,0,4.740549275849992,[6200|9700|0|0]
25000,1.343564748764038,0.5232922434806824,-0.006839366164058447,0.0043163481168448925,-3.977445602416992,-9.596431732177734,4.046875,2,B2,7.6,90,0,4.740933388418431,[6200|9800|0|0]
25100,1.3437249660491943,0.5233237147331238,-0.00634386669844389,-0.12854516506195068,-4.027508735656738,-9.628440856933594,4.0546875,2,B2,7.6,90,0,4.741455096898923,[6200|9900|0|0]
25200,1.343643307685852,0.5232240557670593,-0.006827057339251041,-0.09844350814819336,-4.021666049957275,-9.619874954223633,4.0546875,2,B2,7.6,90,0,4.741955170086751,[6200|10000|0|0]
25300,1.343745231628418,0.5233104825019836,-0.006531686522066593,-0.09209653735160828,-4.0146894454956055,-9.610099792480469,4.0546875,2,B2,7.6,90,0,4.742279364457803,[6200|10100|0|0]
25400,1.3439571857452393,0.5231106877326965,-0.006395959760993719,-0.08009926229715347,-4.013856887817383,-9.591958999633789,4.0546875,2,B2,7.6,90,0,4.742600712012864,[6200|10200|0|0]
25500,1.3437906503677368,0.5234299302101135,-0.006860385183244944,-0.0665384978055954,-4.005359172821045,-9.603846549987793,4.0546875,2,B2,7.6,90,0,4.743188369025228,[6200|10300|0|0]
25600,1.343702793121338,0.5232758522033691,-0.006926106754690409,-0.045799124985933304,-3.991593837738037,-9.63772201538086,4.0546875,2,B2,7.6,90,0,4.74337752042718,[6200|10400|0|0]
25700,1.3440392017364502,0.5229610204696655,-0.006909284740686417,-0.01573810540139675,-4.003550052642822,-9.594937324523926,4.0546875,2,B2,7.6,90,0,4.743838576559363,[6200|10500|0|0]
25800,1.3432626724243164,0.5229302048683167,-0.006759494077414274,-0.006727259606122971,-3.9805378913879395,-9.575578689575195,4.0546875,2,B2,7.6,90,0,4.744630021198421,[6200|10600|0|0]
25900,1.3436754941940308,0.5236714482307434,-0.007114540319889784,-0.03847542777657509,-3.9964356422424316,-9.562896728515625,4.0546875,2,B2,7.6,90,0,4.745549761036738,[6200|10700|0|0]
26000,1.3435794115066528,0.5233728885650635,-0.007029059808701277,-0.00012942518515046686,-3.981560707092285,-9.570311546325684,4.0546875,2,B2,7.6,90,0,4.745874840526367,[6200|10800|0|0]
26100,1.3434348106384277,0.5232173204421997,-0.006847258657217026,0.014857758767902851,-3.9738004207611084,-9.57732105255127,4.0546875,2,B2,7.6,90,0,4.746154416116546,[6200|10900|0|0]
26200,1.3437232971191406,0.5234414935112,-0.006831590551882982,0.015095594339072704,-3.977694511413574,-9.55372428894043,4.0546875,2,B2,7.6,90,0,4.7465200983610485,[6200|11000|0|0]
26300,1.3434157371520996,0.5232507586479187,-0.007184021640568972,0.03731117397546768,-3.9621472358703613,-9.561688423156738,4.05859375,2,B2,7.6,90,0,4.747025252390697,[6200|11100|0|0]
26400,1.3442264795303345,0.5225650668144226,-0.007178250700235367,0.033858828246593475,-3.9749419689178467,-9.584305763244629,4.05859375,2,B2,7.6,90,0,4.748087095033531,[6200|11200|0|0]
26500,1.343654751777649,0.5234857201576233,-0.006427180487662554,-0.1224161684513092,-4.025791645050049,-9.570670127868652,4.05859375,2,B2,7.6,90,0,4.749405647901547,[6200|11300|0|0]
26600,1.3436917066574097,0.5230833292007446,-0.00660486426204443,-0.08837790787220001,-4.013732433319092,-9.60253620147705,4.05859375,2,B2,7.6,90,0,4.74984707249193,[6200|11400|0|0]
26700,1.3436498641967773,0.5231345295906067,-0.006819500587880611,-0.07169412821531296,-3.998441219329834,-9.654932975769043,4.05859375,2,B2,7.6,90,0,4.750071663283821,[6200|11500|0|0]
26800,1.3437503576278687,0.5233772397041321,-0.006665471475571394,-0.07406606525182724,-3.989682674407959,-9.668041229248047,4.05859375,2,B2,7.6,90,0,4.750376182735316,[6200|11600|0|0]
26900,1.3437209129333496,0.5229654312133789,-0.006617900915443897,-0.05790059268474579,-3.991853952407837,-9.676407814025879,4.05859375,2,B2,7.6,90,0,4.750791774098656,[6200|11700|0|0]
27000,1.3437753915786743,0.5230193734169006,-0.0065986686386168,-0.05644821375608444,-3.9917168617248535,-9.66670036315918,4.05859375,2,B2,7.6,90,0,4.750870815635769,[6200|11800|0|0]
27100,1.3434064388275146,0.5231735706329346,-0.007068964187055826,-0.05123646929860115,-3.9763832092285156,-9.646317481994629,4.05859375,2,B2,7.6,90,0,4.75148813307186,[6200|11900|0|0]
27200,1.3436522483825684,0.5230289697647095,-0.006877277046442032,-0.022735735401511192,-3.9770562648773193,-9.65778923034668,4.05859375,2,B2,7.6,90,0,4.751831754532662,[6200|12000|0|0]
27300,1.3435133695602417,0.5230781435966492,-0.006552354898303747,-0.00486402353271842,-3.96756911277771,-9.642712593078613,4.05859375,2,B2,7.6,90,0,4.752188517472707,[6200|12100|0|0]
27400,1.3433696031570435,0.5231053829193115,-0.006892162840813398,0.003255026414990425,-3.965526819229126,-9.639360427856445,4.05859375,2,B2,7.6,90,0,4.752558490711172,[6200|12200|0|0]
27500,1.3434842824935913,0.5232294797897339,-0.007168780080974102,-0.005204170010983944,-3.9660468101501465,-9.622674942016602,4.05859375,2,B2,7.6,90,0,4.752882633397398,[6200|12300|0|0]
27600,1.3441197872161865,0.5230920910835266,-0.006996548734605312,-0.021478643640875816,-3.988046884536743,-9.617400169372559,4.06640625,2,B2,7.6,90,0,4.753555244388764,[6200|12400|0|0]
27700,1.34419846534729,0.5228360891342163,-0.006763592828065157,0.004714927636086941,-3.976790428161621,-9.616253852844238,4.05859375,2,B2,7.6,90,0,4.753910203119825,[6200|12500|0|0]
27800,1.344238042831421,0.5228005051612854,-0.007290794048458338,0.01570919156074524,-3.9689817428588867,-9.611857414245605,4.06640625,2,B2,7.6,90,0,4.754440083977343,[6200|12600|0|0]
27900,1.3440735340118408,0.5228283405303955,-0.0071430504322052,0.024593867361545563,-3.963804006576538,-9.6204195022583,4.06640625,2,B2,7.6,90,0,4.754662942981282,[6200|12700|0|0]
28000,1.343703269958496,0.5237021446228027,-0.006538184359669685,-0.11056103557348251,-4.018280029296875,-9.594538688659668,4.06640625,2,B2,7.6,90,0,4.755788328260558,[6200|12800|0|0]
28100,1.3439205884933472,0.523180365562439,-0.006816389039158821,-0.06510868668556213,-4.009409427642822,-9.575604438781738,4.06640625,2,B2,7.6,90,0,4.756418311258038,[6200|12900|0|0]
28200,1.3434336185455322,0.5233982801437378,-0.0067668878473341465,-0.05210050940513611,-3.9956305027008057,-9.54434585571289,4.06640625,2,B2,7.6,90,0,4.756954106800022,[6200|13000|0|0]
28300,1.3436753749847412,0.5230847597122192,-0.006584678776562214,-0.036656271666288376,-3.9982285499572754,-9.581785202026367,4.06640625,2,B2,7.6,90,0,4.757389929450133,[6200|13100|0|0]
28400,1.3435649871826172,0.5229527354240417,-0.006714635528624058,-0.035722486674785614,-3.9895968437194824,-9.599721908569336,4.06640625,2,B2,7.6,90,0,4.7576055787880245,[6200|13200|0|0]
28500,1.3435585498809814,0.5235111713409424,-0.006786382291465998,-0.05227845907211304,-3.9900898933410645,-9.59926700592041,4.06640625,2,B2,7.6,90,0,4.758168641582138,[6200|13300|0|0]
28600,1.3435670137405396,0.5230184197425842,-0.006878311280161142,-0.02915978617966175,-3.9928627014160156,-9.570897102355957,4.06640625,2,B2,7.6,90,0,4.7586699665401895,[6200|13400|0|0]
28700,1.3433880805969238,0.523110568523407,-0.006803798954933882,-0.019296808168292046,-3.9932148456573486,-9.585180282592773,4.06640625,2,B2,7.6,90,0,4.7588845837676015,[6200|13500|0|0]
28800,1.3438222408294678,0.5229899883270264,-0.0067647285759449005,0.003346336307004094,-3.9968724250793457,-9.5582914352417,4.06640625,2,B2,7.6,90,0,4.759336868175685,[6200|13600|0|0]
28900,1.3435781002044678,0.5233940482139587,-0.007105217315256596,-0.0034251019824296236,-3.9878790378570557,-9.575288772583008,4.06640625,2,B2,7.6,90,0,4.759918934854513,[6200|13700|0|0]
29000,1.3436293601989746,0.522779643535614,-0.006873199250549078,0.016044586896896362,-3.986449956893921,-9.554546356201172,4.06640625,2,B2,7.6,90,0,4.760577686004917,[6200|13800|0|0]
29100,1.343980312347412,0.5229001045227051,-0.006678324658423662,0.01120706181973219,-3.994577407836914,-9.576510429382324,4.06640625,2,B2,7.6,90,0,4.760996797406051,[6200|13900|0|0]
29200,1.3437646627426147,0.5231238603591919,-0.007025792263448238,-6.993066563154571e-06,-3.986670732498169,-9.587492942810059,4.06640625,2,B2,7.6,90,0,4.761462957424663,[6200|14000|0|0]
29300,1.343595027923584,0.5232337713241577,-0.006969652138650417,-0.006431789603084326,-3.984208822250366,-9.573548316955566,4.0703125,2,B2,7.6,90,0,4.761672738514515,[6200|14100|0|0]
29400,1.3433815240859985,0.5227348208427429,-0.0069004809483885765,0.007554599083960056,-3.992173194885254,-9.597390174865723,4.06640625,2,B2,7.6,90,0,4.762219840081987,[6200|14200|0|0]
29500,1.3435155153274536,0.5231164693832397,-0.007067140657454729,0.0023840211797505617,-3.9936318397521973,-9.573718070983887,4.0703125,2,B2,7.6,90,0,4.7626573154754395,[6200|14300|0|0]
29600,1.3441359996795654,0.5227537155151367,-0.0069521572440862656,-0.019015733152627945,-4.011664390563965,-9.603500366210938,4.0703125,2,B2,7.6,90,0,4.763385197598718,[6200|14400|0|0]
29700,1.343848705291748,0.5227382183074951,-0.007422223687171936,0.001240201760083437,-3.993893623352051,-9.610953330993652,4.0703125,2,B2,7.6,90,0,4.763936324344241,[6200|14500|0|0]
29800,1.3441413640975952,0.5229666233062744,-0.006984987296164036,0.013767382130026817,-3.9917497634887695,-9.615318298339844,4.0703125,2,B2,7.6,90,0,4.7645099040525025,[6200|14600|0|0]
29900,1.3437784910202026,0.5227166414260864,-0.007431096397340298,0.023838022723793983,-3.976142644882202,-9.608675956726074,4.0703125,2,B2,7.6,90,0,4.765136945630766,[6200|14700|0|0]
30000,1.34422767162323,0.5228369832038879,-0.006878700572997332,0.02029590494930744,-3.9777960777282715,-9.595023155212402,4.0703125,2,B2,7.6,90,0,4.765859016613684,[6200|14800|0|0]
30100,1.344289779663086,0.5227617621421814,-0.006837682798504829,0.026064155623316765,-3.9764671325683594,-9.57253360748291,4.0703125,2,B2,7.6,90,0,4.765964837568902,[6200|14900|0|0]
30200,1.343966007232666,0.5226520895957947,-0.0072206975892186165,0.03028814122080803,-3.9609951972961426,-9.569955825805664,4.0703125,2,B2,7.6,90,0,4.766478215581712,[6200|15000|0|0]
30300,1.3440412282943726,0.5228846669197083,-0.007290184963494539,0.025302549824118614,-3.9638073444366455,-9.578328132629395,4.0703125,2,B2,7.6,90,0,4.766732339399774,[6200|15100|0|0]
30400,1.3439210653305054,0.5230428576469421,-0.00719226012006402,0.02132425829768181,-3.956263542175293,-9.572330474853516,4.0703125,2,B2,7.6,90,0,4.766953817884122,[6200|15200|0|0]
30500,1.3440146446228027,0.523115336894989,-0.007230819668620825,0.017160391435027122,-3.9562981128692627,-9.586301803588867,4.0703125,2,B2,7.6,90,0,4.76707830549045,[6200|15300|0|0]
30600,1.344150185585022,0.5227885246276855,-0.007168680429458618,0.020991617813706398,-3.950302839279175,-9.602718353271484,4.0703125,2,B2,7.6,90,0,4.7674375253333645,[6200|15400|0|0]
30700,1.343980312347412,0.5224968194961548,-0.007060980424284935,0.03025748021900654,-3.9429502487182617,-9.589533805847168,4.0703125,2,B2,7.6,90,0,4.767791852994904,[6200|15500|0|0]
30800,1.343806505203247,0.5226305723190308,-0.007015061564743519,0.02129390835762024,-3.9358603954315186,-9.614972114562988,4.0703125,2,B2,7.6,90,0,4.768015922811371,[6200|15600|0|0]
30900,1.344199776649475,0.5228222608566284,-0.0069005233235657215,0.012213625013828278,-3.9539635181427,-9.608314514160156,4.0703125,2,B2,7.6,90,0,4.768468168247564,[6200|15700|0|0]
31000,1.3439284563064575,0.5229173898696899,-0.007266407832503319,0.005280038341879845,-3.954739570617676,-9.611420631408691,4.0703125,2,B2,7.6,90,0,4.768933502247548,[6200|15800|0|0]
31100,1.343805193901062,0.5233763456344604,-0.006537397392094135,-0.13280482590198517,-4.021085262298584,-9.611045837402344,4.07421875,2,B2,7.6,90,0,4.769803726492686,[6200|15900|0|0]
31200,1.3437057733535767,0.5235539078712463,-0.006736487615853548,-0.10463493317365646,-4.000936985015869,-9.589144706726074,4.0703125,2,B2,7.6,90,0,4.770088418800961,[6200|16000|0|0]
31300,1.3437974452972412,0.5231742262840271,-0.006676808465272188,-0.08349935710430145,-3.996309280395508,-9.618382453918457,4.0703125,2,B2,7.6,90,0,4.770483543406551,[6200|16100|0|0]
31400,1.3437809944152832,0.5230782628059387,-0.006531806197017431,-0.07842104136943817,-3.9991610050201416,-9.63338565826416,4.07421875,2,B2,7.6,90,0,4.770658201010002,[6200|16200|0|0]
31500,1.343746542930603,0.5232735872268677,-0.006572718266397715,-0.07026214897632599,-3.9889075756073,-9.642542839050293,4.07421875,2,B2,7.6,90,0,4.770860716025813,[6200|16300|0|0]
31600,1.343610405921936,0.5233640670776367,-0.006780111696571112,-0.0704372301697731,-3.9817848205566406,-9.628127098083496,4.07421875,2,B2,7.6,90,0,4.7711247840537965,[6200|16400|0|0]
31700,1.3435612916946411,0.5233522057533264,-0.00680085364729166,-0.0605069138109684,-3.979534387588501,-9.607949256896973,4.07421875,2,B2,7.6,90,0,4.771179402062336,[6200|16500|0|0]
31800,1.3436923027038574,0.5230810642242432,-0.006528285797685385,-0.054036933928728104,-3.982663869857788,-9.595698356628418,4.07421875,2,B2,7.6,90,0,4.771585573018916,[6200|16600|0|0]
31900,1.3436557054519653,0.5229017734527588,-0.00676604313775897,-0.04183479771018028,-3.9776039123535156,-9.584822654724121,4.07421875,2,B2,7.6,90,0,4.771885594838697,[6200|16700|0|0]
32000,1.3440603017807007,0.5231075882911682,-0.0064843883737921715,-0.053868480026721954,-3.9916937351226807,-9.582467079162598,4.07421875,2,B2,7.6,90,0,4.772419811408077,[6200|16800|0|0]
32100,1.3440313339233398,0.5225508213043213,-0.006749337539076805,-0.03220705687999725,-3.9825563430786133,-9.563048362731934,4.07421875,2,B2,7.6,90,0,4.773037084989714,[6200|16900|0|0]
32200,1.344011664390564,0.5226871967315674,-0.007010744418948889,-0.01986626908183098,-3.9769697189331055,-9.588825225830078,4.07421875,2,B2,7.6,90,0,4.773332582374678,[6200|17000|0|0]
32300,1.3442068099975586,0.5226825475692749,-0.007319939322769642,0.0010988230351358652,-3.9747352600097656,-9.571773529052734,4.07421875,2,B2,7.6,90,0,4.773698239196285,[6200|17100|0|0]
32400,1.344233512878418,0.5232642889022827,-0.007230366114526987,-0.014615118503570557,-3.9807229042053223,-9.558794021606445,4.07421875,2,B2,7.6,90,0,4.774287441523174,[6200|17200|0|0]
