time.ms,stateEstimate.x,stateEstimate.y,stateEstimate.z,stabilizer.roll,stabilizer.pitch,stabilizer.yaw,pm.vbat,drone_id,node_name,wind_speed,global_wind_direction,relative_wind_direction,travel_dist,waiting_time
0,0.02689116820693016,0.5301541686058044,-0.03254556283354759,0.10279757529497147,-0.24644745886325836,0.6187856197357178,4.1171875,2,J1,6.1,270,0,0.035086733947325574,[100|0|0|0]
100,0.026851553469896317,0.530404269695282,-0.03248852863907814,0.09113654494285583,-0.24488070607185364,0.6322056651115417,4.1171875,2,J1,6.1,270,0,0.03534629662123477,[200|0|0|0]
200,0.026977049186825752,0.5302335023880005,-0.032850299030542374,0.09732645004987717,-0.24628233909606934,0.6455668807029724,4.1171875,2,J1,6.1,270,0,0.03576556797053495,[300|0|0|0]
300,0.02681085094809532,0.530137300491333,-0.033103570342063904,0.10302954912185669,-0.24670585989952087,0.6477113366127014,4.1171875,2,J1,6.1,270,0,0.03608340915213254,[400|0|0|0]
400,0.02693687565624714,0.5304223895072937,-0.032779160887002945,0.0942499116063118,-0.2587835490703583,0.6429650783538818,4.1171875,2,J1,6.1,270,0,0.03653329743673121,[500|0|0|0]
500,0.02653553895652294,0.5303369760513306,-0.03246473893523216,0.09683932363986969,-0.2502621114253998,0.6246575117111206,4.1171875,2,J1,6.1,270,0,0.03705023821550614,[600|0|0|0]
600,0.026795940473675728,0.529922366142273,-0.032872773706912994,0.10251406580209732,-0.26404863595962524,0.6310500502586365,4.1171875,2,J1,6.1,270,0,0.037687578549805534,[700|0|0|0]
700,0.026767248287796974,0.5300217866897583,-0.03269518166780472,0.10127989202737808,-0.25364354252815247,0.6373986601829529,4.1171875,2,J1,6.1,270,0,0.03789311837355613,[800|0|0|0]
800,0.02696054056286812,0.530115008354187,-0.032754164189100266,0.09120197594165802,-0.2594718635082245,0.6303845643997192,4.1171875,2,J1,6.1,270,0,0.03811567425449262,[900|0|0|0]
900,0.02676633931696415,0.5300903916358948,-0.03241167217493057,0.09089845418930054,-0.25220581889152527,0.6229383945465088,4.1171875,2,J1,6.1,270,0,0.03851016238676043,[1000|0|0|0]
1000,0.02702067792415619,0.5300699472427368,-0.03247074782848358,0.09627194702625275,-0.25931280851364136,0.6283283233642578,4.1171875,2,J1,6.1,270,0,0.03877207083099753,[1100|0|0|0]
1100,0.026916449889540672,0.5302507281303406,-0.03268660232424736,0.09855041652917862,-0.25428226590156555,0.6285895109176636,4.1171875,2,J1,6.1,270,0,0.039072301368858114,[1200|0|0|0]
1200,0.026849176734685898,0.5300460457801819,-0.03243689239025116,0.10752513259649277,-0.24716249108314514,0.6342182755470276,4.1171875,2,J1,6.1,270,0,0.039402112819488605,[1300|0|0|0]
1300,0.02704307995736599,0.5301117897033691,-0.03284737095236778,0.11134880036115646,-0.2581869065761566,0.6297804117202759,4.1171875,2,J1,6.1,270,0,0.039860821194340326,[1400|0|0|0]
1400,0.027030443772673607,0.5301982760429382,-0.03285185620188713,0.11370600759983063,-0.25324350595474243,0.6222859621047974,4.1171875,2,J1,6.1,270,0,0.039948340778199545,[1500|0|0|0]
1500,0.02676420472562313,0.530007541179657,-0.03250045329332352,0.11868197470903397,-0.23898932337760925,0.6076045632362366,4.1171875,2,J1,6.1,270,0,0.040428702123847,[1600|0|0|0]
1600,0.027042973786592484,0.5298804044723511,-0.03263939544558525,0.12182941287755966,-0.25978800654411316,0.612109899520874,4.1171875,2,J1,6.1,270,0,0.04076512574574868,[1700|0|0|0]
1700,0.02669304795563221,0.5299786925315857,-0.032472237944602966,0.12371055036783218,-0.25370100140571594,0.623960554599762,4.1171875,2,J1,6.1,270,0,0.04116518856568573,[1800|0|0|0]
1800,0.026903511956334114,0.530090868473053,-0.0328403040766716,0.12723597884178162,-0.26207736134529114,0.6469036936759949,4.1171875,2,J1,6.1,270,0,0.04160376719604919,[1900|0|0|0]
1900,0.026645837351679802,0.5301737785339355,-0.033031634986400604,0.1206774041056633,-0.258735328912735,0.6651386022567749,4.1171875,2,J1,6.1,270,0,0.041935245396082066,[2000|0|0|0]
2000,0.02696339413523674,0.5298699140548706,-0.03264831006526947,0.13109588623046875,-0.266681045293808,0.6536505818367004,4.1171875,2,J1,6.1,270,0,0.0425184382694787,[2100|0|0|0]
2100,0.02690611407160759,0.5301052927970886,-0.03259348124265671,0.12246907502412796,-0.2626788914203644,0.6429891586303711,4.1171875,2,J1,6.1,270,0,0.04276681370660282,[2200|0|0|0]
2200,0.02700367383658886,0.5304038524627686,-0.032637108117341995,0.11403337866067886,-0.26806971430778503,0.6821675896644592,4.1171875,2,J1,6.1,270,0,0.04308392423293223,[2300|0|0|0]
2300,0.026713993400335312,0.5301487445831299,-0.03271239250898361,0.1158393919467926,-0.26236769556999207,0.6934167742729187,4.1171875,2,J1,6.1,270,0,0.043477195799444014,[2400|0|0|0]
2400,0.026704518124461174,0.5300472378730774,-0.03251318633556366,0.1153586357831955,-0.2626369893550873,0.6920381188392639,4.1171875,2,J1,6.1,270,0,0.04370097357440657,[2500|0|0|0]
2500,0.02728262171149254,0.5301960706710815,-0.03281157836318016,0.11181586235761642,-0.2797241508960724,0.6950674653053284,4.1171875,2,J1,6.1,270,0,0.04436835109968395,[2600|0|0|0]
2600,0.026928676292300224,0.530168354511261,-0.03257768973708153,0.1097131296992302,-0.2635243237018585,0.6842031478881836,4.1171875,2,J1,6.1,270,0,0.04479349746824509,[2700|0|0|0]
2700,0.02708304300904274,0.5301786065101624,-0.03254767134785652,0.11106155812740326,-0.2720572054386139,0.696179211139679,4.1171875,2,J1,6.1,270,0,0.04495108963305985,[2800|0|0|0]
2800,0.026782410219311714,0.5303364396095276,-0.03269701078534126,0.1037641167640686,-0.26687854528427124,0.6568306684494019,4.1171875,2,J1,6.1,270,0,0.04532202578538927,[2900|0|0|0]
2900,0.026930995285511017,0.5304959416389465,-0.03257317468523979,0.09819071739912033,-0.2623078227043152,0.6484842300415039,4.1171875,2,J1,6.1,270,0,0.045572732384773,[3000|0|0|0]
3000,0.026790788397192955,0.5302553772926331,-0.0326109305024147,0.10664378851652145,-0.25122562050819397,0.6488128304481506,4.1171875,2,J1,6.1,270,0,0.045853721135401225,[3100|0|0|0]
3100,0.026767831295728683,0.5301336050033569,-0.03256385028362274,0.11541467905044556,-0.24801485240459442,0.6705259680747986,4.1171875,2,J1,6.1,270,0,0.045986280804775764,[3200|0|0|0]
3200,0.026822803542017937,0.5301588773727417,-0.03234907612204552,0.12351559847593307,-0.24787521362304688,0.6792464852333069,4.1171875,2,J1,6.1,270,0,0.046209414354466544,[3300|0|0|0]
3300,0.0267698522657156,0.5299158096313477,-0.03288218379020691,0.13236288726329803,-0.2493024468421936,0.6602773666381836,4.1171875,2,J1,6.1,270,0,0.04679770811647743,[3400|0|0|0]
3400,0.026699217036366463,0.5301538705825806,-0.03265784680843353,0.12407577037811279,-0.25128358602523804,0.6605367660522461,4.1171875,2,J1,6.1,270,0,0.04713235634001718,[3500|0|0|0]
3500,0.026900310069322586,0.5300476551055908,-0.03268745541572571,0.1275610774755478,-0.2584388554096222,0.6557374596595764,4.1171875,2,J1,6.1,270,0,0.04736169627348154,[3600|0|0|0]
3600,0.02690170146524906,0.529981255531311,-0.03273625671863556,0.12964332103729248,-0.25573527812957764,0.6408727169036865,4.1171875,2,J1,6.1,270,0,0.04744411233146091,[3700|0|0|0]
3700,0.02668941207230091,0.5303436517715454,-0.03267703950405121,0.12041591852903366,-0.24605312943458557,0.6321184039115906,4.1171875,2,J1,6.1,270,0,0.047868263837172534,[3800|0|0|0]
3800,0.026718394830822945,0.5301406383514404,-0.03252646327018738,0.12026388198137283,-0.24973054230213165,0.655070424079895,4.1171875,2,J1,6.1,270,0,0.04812268013232456,[3900|0|0|0]
3900,0.02683955989778042,0.5300971269607544,-0.03259024769067764,0.12087704241275787,-0.25152117013931274,0.6685138940811157,4.1171875,2,J1,6.1,270,0,0.048266355693459786,[4000|0|0|0]
4000,0.02671061083674431,0.5303024649620056,-0.03265988081693649,0.11056793481111526,-0.2541765570640564,0.6490015983581543,4.1171875,2,J1,6.1,270,0,0.048518626039264684,[4100|0|0|0]
4100,0.026690686121582985,0.5301092863082886,-0.032690394669771194,0.11140326410531998,-0.25666308403015137,0.6508589386940002,4.1171875,2,J1,6.1,270,0,0.048715212106270986,[4200|0|0|0]
4200,0.02678685635328293,0.5301093459129333,-0.032407838851213455,0.11050639301538467,-0.2549022138118744,0.6510211229324341,4.1171875,2,J1,6.1,270,0,0.04901368573595838,[4300|0|0|0]
4300,0.02785532735288143,0.5265157222747803,-0.03101177141070366,-0.18951034545898438,-0.13384738564491272,0.0744892954826355,4.1171875,2,J1,6.1,270,0,0.053014281370126766,[4400|0|0|0]
4400,0.02690129168331623,0.5311196446418762,-0.03290695697069168,-0.0776943787932396,-0.07141494005918503,0.4996609687805176,4.1171875,2,J1,6.1,270,0,0.058083602185367816,[4500|0|0|0]
4500,0.02682965062558651,0.5304744839668274,-0.032863881438970566,0.3020108938217163,-0.034481968730688095,0.5334803462028503,4.1171875,2,J1,6.1,270,0,0.05873415597961942,[4600|0|0|0]
4600,0.02678833343088627,0.5305989980697632,-0.032565888017416,0.40867578983306885,-0.06072332710027695,0.569808840751648,4.1171875,2,J1,6.1,270,0,0.0590597492100429,[4700|0|0|0]
4700,0.026805954053997993,0.5300931930541992,-0.03252968192100525,0.44431933760643005,-0.08036574721336365,0.5894580483436584,4.1171875,2,J1,6.1,270,0,0.059567154453951374,[4800|0|0|0]
4800,0.026789352297782898,0.5300520658493042,-0.03258749470114708,0.4311358332633972,-0.10790223628282547,0.5993802547454834,4.1171875,2,J1,6.1,270,0,0.05964001996595555,[4900|0|0|0]
4900,0.026738563552498817,0.530062735080719,-0.032603852450847626,0.4169382154941559,-0.11717739701271057,0.6238149404525757,4.1171875,2,J1,6.1,270,0,0.059694434165589276,[5000|0|0|0]
5000,0.026510389521718025,0.5300291180610657,-0.032647114247083664,0.37112581729888916,-0.13664059340953827,0.6216817498207092,4.1171875,2,J1,6.1,270,0,0.05992909365367082,[5100|0|0|0]
5100,0.02701020985841751,0.5301810503005981,-0.032568853348493576,0.32602712512016296,-0.17524151504039764,0.62577223777771,4.1171875,2,J1,6.1,270,0,0.060457325177375974,[5200|0|0|0]
5200,0.026836629956960678,0.5300542712211609,-0.03251030668616295,0.2983514070510864,-0.17984066903591156,0.6147284507751465,4.1171875,2,J1,6.1,270,0,0.06068010450505872,[5300|0|0|0]
5300,0.027031419798731804,0.5303235650062561,-0.032396357506513596,0.2663184106349945,-0.1906486451625824,0.6363751292228699,4.1171875,2,J1,6.1,270,0,0.06103145424632928,[5400|0|0|0]
5400,0.026594597846269608,0.5301042795181274,-0.03253426030278206,0.2537205219268799,-0.18648603558540344,0.626850962638855,4.1171875,2,J1,6.1,270,0,0.06153930926961385,[5500|0|0|0]
5500,0.026673635467886925,0.529998779296875,-0.03272859752178192,0.2321218103170395,-0.20631682872772217,0.6479194760322571,4.1171875,2,J1,6.1,270,0,0.061774137285412305,[5600|0|0|0]
5600,0.026973383501172066,0.530145525932312,-0.03258049488067627,0.21144822239875793,-0.22894267737865448,0.6420480608940125,4.1171875,2,J1,6.1,270,0,0.062139264456097895,[5700|0|0|0]
5700,0.026947418227791786,0.5300569534301758,-0.03246617317199707,0.19916604459285736,-0.23191910982131958,0.622541069984436,4.1171875,2,J1,6.1,270,0,0.062286195516911176,[5800|0|0|0]
5800,0.02683156356215477,0.5301244854927063,-0.032412901520729065,0.1845400482416153,-0.23682095110416412,0.6131132245063782,4.1171875,2,J1,6.1,270,0,0.062430489494083856,[5900|0|0|0]
5900,0.026797370985150337,0.5299724340438843,-0.03290638327598572,0.17221380770206451,-0.2452298402786255,0.6166087985038757,4.1171875,2,J1,6.1,270,0,0.06294799603334908,[6000|0|0|0]
6000,0.02695104479789734,0.5300028324127197,-0.03265112265944481,0.16507065296173096,-0.2506469190120697,0.6284447908401489,4.1171875,2,J1,6.1,270,0,0.06324749174936001,[6100|0|0|0]
6100,0.026641657575964928,0.5301876068115234,-0.032492924481630325,0.155917227268219,-0.2521636188030243,0.6249549388885498,4.1171875,2,J1,6.1,270,0,0.06364105076019848,[6200|0|0|0]
6200,0.026697710156440735,0.5300499796867371,-0.03250972926616669,0.15620438754558563,-0.2555771768093109,0.6277846097946167,4.11328125,2,J1,6.1,270,0,0.06379060181515389,[6300|0|0|0]
6300,0.026740223169326782,0.5300676226615906,-0.03256772831082344,0.1560472846031189,-0.2662702798843384,0.6001649498939514,4.1171875,2,J1,6.1,270,0,0.06386464585615266,[6400|0|0|0]
6400,0.02682309038937092,0.5301621556282043,-0.03246019035577774,0.15267321467399597,-0.26137909293174744,0.6069276332855225,3.416015625,2,A/E1,6.1,270,0,0.06403007822816628,[6400|0|0|0]
6500,0.026847077533602715,0.5303148031234741,-0.03217639401555061,-0.07104901224374771,-0.1792573779821396,0.5384690165519714,3.41015625,2,A/E1,6.1,270,0,0.06435321442797504,[6400|0|0|0]
6600,0.02577132172882557,0.5347337126731873,-0.009261737577617168,-4.483875751495361,3.889857053756714,1.828654170036316,3.7265625,2,A/E1,6.1,270,0,0.08771483876851656,[6400|0|0|0]
6700,0.018841175362467766,0.5514443516731262,0.03992651030421257,-2.1339058876037598,2.836623191833496,2.8015506267547607,3.720703125,2,A/E1,6.1,270,0,0.14012434281243735,[6400|0|0|0]
6800,0.009957748465240002,0.5721062421798706,0.10351090878248215,3.354172706604004,-2.3281397819519043,2.741772174835205,3.736328125,2,A/E1,6.1,270,0,0.20756917006104444,[6400|0|0|0]
6900,0.005401437170803547,0.5895031690597534,0.17748099565505981,4.590206623077393,-3.499340057373047,2.1077847480773926,3.7421875,2,A/E1,6.1,270,0,0.28369398066450335,[6400|0|0|0]
7000,0.008360914885997772,0.5999151468276978,0.2579946517944336,4.676076412200928,-3.2902159690856934,1.300715446472168,3.748046875,2,A/E1,6.1,270,0,0.3649320051008239,[6400|0|0|0]
7100,0.016131430864334106,0.6029343605041504,0.34259486198425293,4.416182994842529,-2.0382707118988037,0.7972896695137024,3.75390625,2,A/E1,6.1,270,0,0.44994195824723654,[6400|0|0|0]
7200,0.026255721226334572,0.6009761691093445,0.42972612380981445,2.1858222484588623,-0.3463873565196991,0.4456672966480255,3.748046875,2,A/E1,6.1,270,0,0.5376813026497755,[6400|0|0|0]
7300,0.03308253735303879,0.598800003528595,0.5089894533157349,1.9831494092941284,1.0391052961349487,0.05087588354945183,3.7421875,2,A/E1,6.1,270,0,0.6172678374369289,[6400|0|0|0]
7400,0.04042345657944679,0.5939468741416931,0.5996659994125366,1.4832271337509155,0.9151719808578491,0.5338408946990967,3.7421875,2,A/E1,6.1,270,0,0.7083704058528637,[6400|0|0|0]
7500,0.04519277811050415,0.5873831510543823,0.692952036857605,0.7972880005836487,1.4213886260986328,1.6719785928726196,3.748046875,2,A/E1,6.1,270,0,0.802008612108837,[6400|0|0|0]
7600,0.045366451144218445,0.5810014605522156,0.7852005958557129,0.49383193254470825,0.9240158796310425,2.390939474105835,3.7421875,2,A/E1,6.1,270,0,0.8944778111602805,[6400|0|0|0]
7700,0.041747111827135086,0.5750712752342224,0.8860248923301697,-0.7046927809715271,0.3274368941783905,2.333087205886841,3.748046875,2,A/E1,6.1,270,0,0.9955411847165154,[6400|0|0|0]
7800,0.039592403918504715,0.567986249923706,0.9816311001777649,-1.1058661937713623,0.030047724023461342,1.7126288414001465,3.7421875,2,A/E1,6.1,270,0,1.0914337669573735,[6400|0|0|0]
7900,0.038468942046165466,0.5626499056816101,1.0763689279556274,-0.9937412142753601,-0.6339789628982544,0.7444067597389221,3.732421875,2,A/E1,6.1,270,0,1.1863284177471662,[6400|0|0|0]
8000,0.04537714645266533,0.5539506077766418,1.1789531707763672,-1.0086110830307007,-1.300244927406311,0.47774332761764526,3.736328125,2,A/E1,6.1,270,0,1.2895123697322781,[6400|0|0|0]
8100,0.04757881909608841,0.5550724267959595,1.2674434185028076,-0.7550126314163208,-0.38865792751312256,0.31905654072761536,3.779296875,2,A/E1,6.1,270,0,1.3780371108108471,[6400|0|0|0]
8200,0.05275183916091919,0.5567283630371094,1.3625867366790771,-0.33823561668395996,0.07777934521436691,-0.0737018957734108,3.806640625,2,A/E1,6.1,270,0,1.4733353440317036,[6400|0|0|0]
8300,0.05803196504712105,0.558742105960846,1.4472750425338745,0.7683343887329102,0.863005518913269,0.15045952796936035,3.81640625,2,A/E1,6.1,270,0,1.558211984154253,[6400|0|0|0]
8400,0.061967410147190094,0.5609596967697144,1.5167213678359985,1.2799891233444214,1.4165756702423096,0.5832406878471375,3.810546875,2,A/E1,6.1,270,0,1.6278050695514363,[6400|0|0|0]
8500,0.06365781277418137,0.562807559967041,1.5688010454177856,1.0126292705535889,1.6263376474380493,0.6655601859092712,3.80078125,2,A/E1,6.1,270,0,1.679944928358881,[6400|0|0|0]
8600,0.06364035606384277,0.5636953711509705,1.6046284437179565,0.7922986745834351,1.2931101322174072,0.4000210165977478,3.78515625,2,A/E1,6.1,270,0,1.71578332930527,[6400|0|0|0]
8700,0.06216906011104584,0.5643547177314758,1.6277483701705933,0.4510073959827423,0.8222410082817078,-0.01733374409377575,3.7734375,2,A/E1,6.1,270,0,1.7389594042289769,[6400|0|0|0]
8800,0.06047871708869934,0.565423309803009,1.6405235528945923,0.25141799449920654,0.446238249540329,-0.459446519613266,3.763671875,2,A/E1,6.1,270,0,1.7518901598983143,[6400|0|0|0]
8900,0.058685336261987686,0.567095160484314,1.6464262008666992,0.3090952932834625,0.2674728035926819,-0.8208511471748352,3.7578125,2,A/E1,6.1,270,0,1.758281760055772,[6400|0|0|0]
9000,0.0572824589908123,0.5682430863380432,1.6482563018798828,0.2300935536623001,0.19142067432403564,-0.7899905443191528,3.75390625,2,A/E1,6.1,270,0,1.760857622653446,[6400|0|0|0]
9100,0.05612378939986229,0.5700317621231079,1.6460975408554077,0.5608546733856201,0.31722530722618103,-0.39417898654937744,3.748046875,2,A/E1,6.1,270,0,1.7638911231802075,[6400|0|0|0]
9200,0.05495091527700424,0.5714219808578491,1.6427741050720215,0.6636882424354553,0.20643071830272675,-0.10551644116640091,3.7421875,2,A/E1,6.1,270,0,1.7676797333798437,[6400|0|0|0]
9300,0.054893191903829575,0.5715708136558533,1.6383421421051025,0.7511333227157593,0.30395758152008057,0.2622966170310974,3.7421875,2,A/E1,6.1,270,0,1.7721145703475025,[6400|0|0|0]
9400,0.05469595640897751,0.5709472894668579,1.6329113245010376,0.7972235679626465,0.41697126626968384,0.7680696845054626,3.7578125,2,A/E1,6.1,270,250.78732818281438,1.7775846219106337,[6400|0|0|0]
9500,0.0578937903046608,0.5721036791801453,1.6243222951889038,-6.787778377532959,-12.346174240112305,-0.15881513059139252,3.76953125,2,A/E1,6.1,270,250.78732818281438,1.786822305782583,[6400|0|0|0]
9600,0.07684122025966644,0.5812358856201172,1.6078016757965088,-5.779684543609619,-14.618781089782715,3.055589437484741,3.748046875,2,A/E1,6.1,270,250.78732818281438,1.8135680187375687,[6400|0|0|0]
9700,0.11671923846006393,0.602504312992096,1.5819039344787598,-5.064354419708252,-17.587114334106445,5.915449142456055,3.720703125,2,A/E1,6.1,270,250.78732818281438,1.8656573203630409,[6400|0|0|0]
9800,0.1781199723482132,0.6382170915603638,1.551078200340271,-1.3755496740341187,-13.575715065002441,7.7044878005981445,3.701171875,2,A/E1,6.1,270,250.78732818281438,1.9430890874889837,[6400|0|0|0]
9900,0.2583021819591522,0.6808976531028748,1.5233615636825562,2.2085843086242676,-7.387369155883789,7.369068622589111,3.7109375,2,A/E1,6.1,270,250.78732818281438,2.0380576560750816,[6400|0|0|0]
10000,0.3492898643016815,0.7230920195579529,1.5046412944793701,4.521909236907959,-1.064305305480957,1.4652111530303955,3.7109375,2,A/E1,6.1,270,250.78732818281438,2.140084963094576,[6400|0|0|0]
10100,0.43857070803642273,0.7596532106399536,1.4940705299377441,6.599067211151123,4.611186981201172,-0.8549774289131165,3.720703125,2,A/E1,6.1,270,250.78732818281438,2.237139230462458,[6400|0|0|0]
10200,0.5161377191543579,0.7883396744728088,1.4892209768295288,7.562260150909424,7.970486164093018,-1.9170175790786743,3.736328125,2,A/E1,6.1,270,250.78732818281438,2.3199828939881195,[6400|0|0|0]
10300,0.5775066018104553,0.8065795302391052,1.4859462976455688,7.327095985412598,8.912138938903809,-2.2043464183807373,3.732421875,2,A/E1,6.1,270,250.78732818281438,2.3840887097975374,[6400|0|0|0]
10400,0.6228691935539246,0.8147858381271362,1.481912612915039,6.046912670135498,8.330780029296875,-2.2474541664123535,3.732421875,2,A/E1,6.1,270,250.78732818281438,2.4303637444419666,[6400|0|0|0]
10500,0.6540747284889221,0.8151222467422485,1.4767255783081055,4.67317008972168,6.578527927398682,-2.2824013233184814,3.732421875,2,A/E1,6.1,270,250.78732818281438,2.4619992294129482,[6400|0|0|0]
10600,0.674670398235321,0.8095325827598572,1.4693201780319214,3.2030954360961914,4.485398292541504,-2.183676242828369,3.7109375,2,A/E1,6.1,270,250.78732818281438,2.484588295551,[6400|0|0|0]
10700,0.6876273155212402,0.8008228540420532,1.4635673761367798,1.7098051309585571,2.507819652557373,-2.187230110168457,3.716796875,2,A/E1,6.1,270,250.78732818281438,2.5012266791725133,[6400|0|0|0]
10800,0.6966855525970459,0.7915571928024292,1.459704041481018,0.8218140006065369,1.3889734745025635,-2.2068779468536377,3.7265625,2,A/E1,6.1,270,250.78732818281438,2.5147481247975705,[6400|0|0|0]
10900,0.7072556018829346,0.7880949378013611,1.4665415287017822,0.19891415536403656,0.5540475845336914,-2.1353564262390137,3.720703125,2,A/E1,6.1,270,250.78732818281438,2.527804325741668,[6400|0|0|0]
11000,0.7148523330688477,0.7716668248176575,1.4487110376358032,-0.06471668928861618,0.6093847751617432,-2.1704728603363037,3.720703125,2,A/E1,6.1,270,250.78732818281438,2.5532114041366807,[6400|0|0|0]
11100,0.724144697189331,0.763122022151947,1.4426153898239136,-0.17292237281799316,0.8996810913085938,-1.9185547828674316,3.720703125,2,A/E1,6.1,270,250.78732818281438,2.5672299135364054,[6400|0|0|0]
11200,0.7345076203346252,0.7630332112312317,1.447401523590088,-0.3865232467651367,1.286158800125122,-1.715075969696045,3.7109375,2,A/E1,6.1,270,250.78732818281438,2.5786450412151756,[6400|0|0|0]
11300,0.7426239848136902,0.7567729353904724,1.440783977508545,-0.43409767746925354,1.6760351657867432,-1.5719705820083618,3.7109375,2,A/E1,6.1,270,250.78732818281438,2.5908457929174586,[6400|0|0|0]
11400,0.7470657229423523,0.744070291519165,1.421460509300232,-0.18977968394756317,1.9858075380325317,-1.3256776332855225,3.7109375,2,A/E1,6.1,270,250.78732818281438,2.6143932476105367,[6400|0|0|0]
11500,0.752487301826477,0.7471041083335876,1.4275405406951904,-0.20198579132556915,1.8390754461288452,-1.3115676641464233,3.7109375,2,A/E1,6.1,270,250.78732818281438,2.6230860229915036,[6400|0|0|0]
11600,0.7542082667350769,0.7426644563674927,1.4216339588165283,-0.17054373025894165,1.7452093362808228,-1.305247187614441,3.7109375,2,A/E1,6.1,270,250.78732818281438,2.6306728496855847,[6400|0|0|0]
11700,0.7537309527397156,0.7386983633041382,1.4166090488433838,-0.24262428283691406,1.3148926496505737,-1.4402186870574951,3.705078125,2,A/E1,6.1,270,250.78732818281438,2.6370921520678974,[6400|0|0|0]
11800,0.7519243359565735,0.7352931499481201,1.412482738494873,-0.3218518793582916,0.9637081623077393,-1.5575648546218872,3.7109375,2,A/E1,6.1,270,250.78732818281438,2.642738901512787,[6400|0|0|0]
11900,0.7488617897033691,0.7314872145652771,1.4083309173583984,-0.37951892614364624,0.5811845660209656,-1.7381888628005981,3.7109375,2,A/E1,6.1,270,250.78732818281438,2.6491499819553233,[6400|0|0|0]
12000,0.7457772493362427,0.7290984392166138,1.4044703245162964,-0.54520183801651,0.26657184958457947,-1.7976975440979004,3.705078125,2,A/E1,6.1,270,250.78732818281438,2.6546385896144025,[6400|0|0|0]
12100,0.7409346699714661,0.7195741534233093,1.3885157108306885,-0.3073730766773224,0.2705586850643158,-1.6817878484725952,3.705078125,2,A/E1,6.1,270,250.78732818281438,2.673840472142782,[6400|0|0|0]
12200,0.7381434440612793,0.7172061204910278,1.3842763900756836,-0.23562785983085632,0.2494729608297348,-1.538714051246643,3.705078125,2,A/E1,6.1,270,250.78732818281438,2.6794413972908164,[6400|0|0|0]
12300,0.7371858954429626,0.723261296749115,1.3916457891464233,-0.4757786691188812,0.07804937660694122,-1.6121585369110107,3.705078125,2,A/E1,6.1,270,250.78732818281438,2.689027329772154,[6400|0|0|0]
12400,0.7348852753639221,0.7218945026397705,1.3864046335220337,-0.47497299313545227,0.02306751161813736,-1.5747781991958618,3.705078125,2,A/E1,6.1,270,0,2.6949121144890738,[6400|0|0|0]
12501,0.7318833470344543,0.722544252872467,1.3749908208847046,-0.34874454140663147,-0.1233711913228035,-1.6346687078475952,3.927734375,2,A/E1,6.1,270,0,2.7067319650795088,[6400|0|0|0]
12601,0.7285640239715576,0.7224244475364685,1.3286874294281006,0.46285179257392883,-0.08081129938364029,-1.652428150177002,3.853515625,2,A/E1,6.1,270,0,2.753154333818059,[6400|0|0|0]
12701,0.7244235873222351,0.7223495841026306,1.2429862022399902,-0.11585262417793274,-0.3046278655529022,-1.3898667097091675,3.76953125,2,A/E1,6.1,270,0,2.838955552700595,[6400|0|0|0]
12801,0.7201483249664307,0.7209916114807129,1.128541111946106,-0.5372660160064697,-0.21415002644062042,-1.418914794921875,3.716796875,2,A/E1,6.1,270,0,2.9534885202262298,[6400|0|0|0]
12901,0.7150049209594727,0.7195984125137329,1.0018701553344727,-0.18211321532726288,-0.33483338356018066,-1.7520958185195923,3.701171875,2,A/E1,6.1,270,0,3.0802715114239714,[6400|0|0|0]
13001,0.7105316519737244,0.7179968357086182,0.8739621639251709,-0.4751518964767456,0.06746137142181396,-0.4784102737903595,3.705078125,2,A/E1,6.1,270,0,3.208267720157057,[6400|0|0|0]
13101,0.7040136456489563,0.7178012728691101,0.7499123811721802,-1.2782087326049805,0.40152689814567566,3.2875635623931885,3.716796875,2,A/E1,6.1,270,0,3.3324887781638943,[6400|0|0|0]
13201,0.6944531798362732,0.7137884497642517,0.6231792569160461,-0.7693625688552856,0.4650631248950958,7.152359485626221,3.720703125,2,A/E1,6.1,270,0,3.459645335366215,[6400|0|0|0]
13300,0.6890097260475159,0.7215033173561096,0.5083036422729492,0.1845625936985016,-2.6692306995391846,9.287057876586914,3.689453125,2,A/E1,6.1,270,0,3.5749083268714656,[6400|0|0|0]
13401,0.6843295693397522,0.723939836025238,0.39107850193977356,-1.9812324047088623,0.9181746244430542,11.578056335449219,3.66796875,2,A/E1,6.1,270,0,3.692252155069488,[6400|0|0|0]
13501,0.6765117049217224,0.7301023006439209,0.2809504270553589,-2.9616904258728027,1.1764521598815918,13.443947792053223,3.642578125,2,A/E1,6.1,270,0,3.802829222547254,[6400|0|0|0]
13601,0.6694744825363159,0.7382808923721313,0.18018384277820587,-0.7752331495285034,-1.1659187078475952,15.682381629943848,3.630859375,2,A/E1,6.1,270,0,3.9041717919267747,[6400|0|0|0]
13701,0.659610390663147,0.7478795051574707,0.10758110880851746,2.9835896492004395,-2.0791099071502686,17.647380828857422,3.63671875,2,A/E1,6.1,270,0,3.978067601386842,[6400|0|0|0]
13801,0.6552892327308655,0.7552359104156494,0.0423034206032753,3.3167262077331543,-3.254953622817993,18.281431198120117,3.62109375,2,A/E1,6.1,270,0,4.043900463102091,[6400|0|0|0]
13901,0.6583575010299683,0.7588515281677246,-0.00308804027736187,-0.4879453182220459,-0.49668440222740173,16.156225204467773,3.63671875,2,A/E1,6.1,270,0,4.0895389521542365,[6400|0|0|0]
14002,0.6619223952293396,0.7649509906768799,-0.025736529380083084,-0.9815672039985657,0.9014410376548767,12.160889625549316,3.60546875,2,A/E1,6.1,270,0,4.113263748722161,[6400|0|0|0]
14101,0.6683840155601501,0.7710280418395996,-0.021485451608896255,1.7147642374038696,-3.841301679611206,6.324914455413818,3.673828125,2,A/E1,6.1,270,0,4.123100147979538,[6400|0|0|0]
14202,0.6809459328651428,0.7748872637748718,0.004871603101491928,4.398687362670898,-2.7571303844451904,1.9678391218185425,3.716796875,2,A/E1,6.1,270,0,4.152551628304465,[6400|0|0|0]
14302,0.6962817907333374,0.7741959691047668,0.03964465856552124,2.0917911529541016,-1.9831310510635376,-0.5187827944755554,3.736328125,2,A/E1,6.1,270,0,4.19056257161266,[6400|0|0|0]
14400,0.7127239108085632,0.7686655521392822,0.07058892399072647,3.7612926959991455,0.6479015946388245,-2.7723515033721924,3.732421875,2,A/E1,6.1,270,0,4.226037582353825,[6400|0|0|0]
14502,0.7271900177001953,0.7589541077613831,0.09244786202907562,1.7628179788589478,1.1072496175765991,-4.1727705001831055,3.720703125,2,A/E1,6.1,270,0,4.253991000260577,[6400|0|0|0]
14602,0.7376201152801514,0.7476997971534729,0.10480543971061707,-0.7983869910240173,3.0376734733581543,-4.463869094848633,3.705078125,2,A/E1,6.1,270,0,4.273692679603772,[6400|0|0|0]
14700,0.7436122894287109,0.7383859157562256,0.10963770002126694,-1.5910155773162842,1.9999990463256836,-3.8865575790405273,3.6953125,2,A/E1,6.1,270,0,4.285775943956526,[6400|0|0|0]
14800,0.7468148469924927,0.732286274433136,0.11334272474050522,-0.6857777237892151,1.9745856523513794,-3.4460432529449463,3.6953125,2,A/E1,6.1,270,0,4.293598297016178,[6400|0|0|0]
14900,0.7464005351066589,0.7301234006881714,0.1140732690691948,-1.9496065378189087,1.629371166229248,-2.783656597137451,3.701171875,2,A/E1,6.1,270,0,4.295918506530765,[6400|0|0|0]
15002,0.7439498901367188,0.7305538058280945,0.11220825463533401,-0.4647413492202759,0.9751850962638855,-2.0168943405151367,3.689453125,2,A/E1,6.1,270,0,4.29902803835914,[6400|0|0|0]
15100,0.7404049038887024,0.7317943572998047,0.10902979969978333,0.7918362021446228,0.7451706528663635,-1.5932124853134155,3.68359375,2,A/E1,6.1,270,0,4.303948248845482,[6400|0|0|0]
15200,0.736233115196228,0.731604814529419,0.10710542649030685,1.2140218019485474,0.6883052587509155,-1.4464706182479858,3.68359375,2,A/E1,6.1,270,0,4.30854639625567,[6400|0|0|0]
15300,0.732155442237854,0.7293837666511536,0.10645466297864914,0.2736491560935974,-0.3698025941848755,-2.025822401046753,3.68359375,2,A/E1,6.1,270,0,4.313235102215859,[6400|0|0|0]
15400,0.7274488806724548,0.7246648073196411,0.10705114156007767,0.2924773097038269,0.2424963265657425,-2.393660545349121,3.689453125,2,F1,6.1,270,0,4.319926595744172,[6400|0|100|0]
15500,0.7222219705581665,0.718307614326477,0.1083299070596695,-0.31757527589797974,-0.42468973994255066,-2.41060471534729,3.689453125,2,F1,6.1,270,0,4.3282554452024184,[6400|0|200|0]
15600,0.7169485092163086,0.711603045463562,0.11004327237606049,-2.09010910987854,-1.2088741064071655,-2.4613828659057617,3.689453125,2,F1,6.1,270,0,4.336955804900101,[6400|0|300|0]
15700,0.7139047384262085,0.7079775333404541,0.11044493317604065,-2.7525634765625,-0.8469319939613342,-2.0187149047851562,3.689453125,2,F1,6.1,270,0,4.34170661642822,[6400|0|400|0]
15800,0.711380124092102,0.7084294557571411,0.10877753794193268,-1.803550362586975,-0.8963218331336975,-1.8600130081176758,3.68359375,2,F1,6.1,270,0,4.344765720590129,[6400|0|500|0]
15900,0.7116854786872864,0.7108229398727417,0.1063803881406784,-0.4194503128528595,-0.4442208409309387,-1.9222477674484253,3.6796875,2,F1,6.1,270,0,4.348166946076638,[6400|0|600|0]
16000,0.7118775844573975,0.7135639786720276,0.10445330291986465,-0.36390334367752075,-0.12022438645362854,-1.9162161350250244,3.6796875,2,F1,6.1,270,0,4.351523112904193,[6400|0|700|0]
16100,0.7123046517372131,0.7160916328430176,0.10331649333238602,-0.5708345770835876,-0.17513227462768555,-1.7333635091781616,3.68359375,2,F1,6.1,270,0,4.354327352214201,[6400|0|800|0]
16200,0.7120453119277954,0.7210146188735962,0.10292498767375946,-2.05928111076355,0.7261095643043518,-1.8615928888320923,3.673828125,2,F1,6.1,270,0,4.359272685901098,[6400|0|900|0]
16300,0.7098749876022339,0.728910505771637,0.10370345413684845,-1.4752084016799927,0.42644861340522766,-3.606978416442871,3.68359375,2,F1,6.1,270,0,4.36749833770621,[6400|0|1000|0]
16400,0.7062269449234009,0.7408885955810547,0.10509899258613586,-0.5658729672431946,0.42695313692092896,-5.357034683227539,3.68359375,2,F1,6.1,270,0,4.380097162192348,[6400|0|1100|0]
16500,0.7026729583740234,0.7503839135169983,0.10760167986154556,-0.5235204100608826,-0.3272472023963928,-6.719214916229248,3.68359375,2,F1,6.1,270,0,4.390540118033311,[6400|0|1200|0]
16600,0.6987167000770569,0.763037919998169,0.10988380759954453,-0.020712515339255333,-0.5990424752235413,-8.324569702148438,3.68359375,2,F1,6.1,270,0,4.403993146196158,[6400|0|1300|0]
16700,0.696326732635498,0.7754754424095154,0.10988082736730576,-0.03432539477944374,0.32075485587120056,-9.089588165283203,3.68359375,2,F1,6.1,270,0,4.416658212993702,[6400|0|1400|0]
16800,0.6942591071128845,0.7878269553184509,0.10806701332330704,0.12289568036794662,0.3582879602909088,-9.163902282714844,3.6796875,2,F1,6.1,270,0,4.42931225850601,[6400|0|1500|0]
16900,0.6921201944351196,0.7992661595344543,0.1065014898777008,1.0130661725997925,-0.3302074372768402,-9.067670822143555,3.673828125,2,F1,6.1,270,0,4.4410545412567055,[6400|0|1600|0]
17000,0.690609335899353,0.8097238540649414,0.10544496774673462,0.3534429669380188,-0.09515611082315445,-8.105777740478516,3.673828125,2,F1,6.1,270,0,4.451673501065524,[6400|0|1700|0]
17100,0.6899155378341675,0.8184641003608704,0.10609323531389236,0.03082522563636303,-0.06848809868097305,-6.464493274688721,3.673828125,2,F1,6.1,270,0,4.460465173938611,[6400|0|1800|0]
17200,0.6902203559875488,0.8275833129882812,0.10807725042104721,-0.15409104526042938,0.09739653021097183,-4.623378276824951,3.673828125,2,F1,6.1,270,0,4.46980269336274,[6400|0|1900|0]
17300,0.6904529333114624,0.8372372984886169,0.11084543168544769,-0.38280364871025085,0.21372267603874207,-3.2675464153289795,3.68359375,2,F1,6.1,270,0,4.47984840666568,[6400|0|2000|0]
17400,0.6904221773147583,0.8477680683135986,0.10947860032320023,-0.328594833612442,-0.26393139362335205,-2.0860774517059326,4.015625,2,F1,6.1,270,0,4.490467553854175,[6400|0|2100|0]
17500,0.691636323928833,0.8578990697860718,0.06088319793343544,-1.2791937589645386,-0.8084688782691956,-0.8155223727226257,4.0234375,2,F1,6.1,270,0,4.540122608745484,[6400|0|2200|0]
17600,0.6921709179878235,0.8675970435142517,-0.05855979770421982,-2.4723517894744873,0.6947734355926514,1.042157769203186,4.0234375,2,F1,6.1,270,0,4.6599598554267105,[6400|0|2300|0]
17700,0.6940069198608398,0.8807571530342102,-0.05178632214665413,15.755213737487793,-12.187479972839355,-9.434310913085938,4.02734375,2,F1,6.1,270,0,4.674874256406434,[6400|0|2400|0]
17800,0.6915692687034607,0.8982958197593689,-0.06714918464422226,-4.892043113708496,-0.3958830237388611,-19.373672485351562,4.02734375,2,F1,6.1,270,0,4.69831704885487,[6400|0|2500|0]
17900,0.6909052133560181,0.9003427624702454,-0.06227795407176018,-4.25385856628418,0.2705583870410919,-19.239755630493164,4.02734375,2,F1,6.1,270,0,4.703642443793854,[6400|0|2600|0]
18000,0.6904252171516418,0.9010842442512512,-0.060308851301670074,-4.196025371551514,0.33099186420440674,-19.12874984741211,4.03125,2,F1,6.1,270,0,4.705800581256334,[6400|0|2700|0]
18100,0.6909672021865845,0.901176393032074,-0.05956534296274185,-4.099737167358398,0.36211663484573364,-19.093164443969727,4.03125,2,F1,6.1,270,0,4.706725267054843,[6400|0|2800|0]
18200,0.6884787082672119,0.9084371328353882,-0.06553540378808975,-3.9684715270996094,0.4252753257751465,-19.168954849243164,4.03125,2,F1,6.1,270,0,4.716449081673424,[6400|0|2900|0]
18300,0.6884586811065674,0.9247459769248962,-0.06821923702955246,-8.626301765441895,-0.3486103415489197,-19.062950134277344,4.0390625,2,F1,6.1,270,0,4.732977292631995,[6400|0|3000|0]
18400,0.7051573395729065,0.8945333957672119,-0.034516021609306335,-4.883158206939697,6.03960657119751,-22.536237716674805,4.0390625,2,F1,6.1,270,0,4.781222002025343,[6400|0|3100|0]
18500,0.7444674968719482,0.7919885516166687,0.011077030561864376,-3.246890068054199,14.908085823059082,-10.389691352844238,4.0390625,2,F1,6.1,270,0,4.90013146310821,[6400|0|3200|0]
18600,0.7617522478103638,0.7743628621101379,-0.010876461863517761,0.7352339029312134,13.683749198913574,-10.798277854919434,4.0390625,2,F1,6.1,270,0,4.933167555117632,[6400|0|3300|0]
18700,0.7650331258773804,0.7661939263343811,-0.029711877927184105,3.73209547996521,9.655702590942383,-7.964188098907471,4.0390625,2,F1,6.1,270,0,4.953958624616109,[6400|0|3400|0]
18800,0.7665489315986633,0.760588526725769,-0.03199870511889458,8.925267219543457,-0.21829506754875183,-11.25473403930664,4.04296875,2,F1,6.1,270,0,4.960199437893371,[6400|0|3500|0]
18900,0.7664229273796082,0.7604086995124817,-0.030400998890399933,8.491992950439453,-0.32519465684890747,-8.6520414352417,4.04296875,2,F1,6.1,270,0,4.961812162321917,[6400|0|3600|0]
19000,0.7662175297737122,0.7559905648231506,-0.028620801866054535,8.549079895019531,-0.3507770597934723,-8.580244064331055,4.04296875,2,F1,6.1,270,0,4.966579887539992,[6400|0|3700|0]
19100,0.7687221765518188,0.7603772282600403,-0.034284017980098724,8.128278732299805,-0.5831166505813599,-10.770028114318848,4.04296875,2,F1,6.1,270,0,4.974168569134709,[6400|0|3800|0]
19200,0.7711425423622131,0.7658830285072327,-0.03170277178287506,7.872783184051514,-0.3926323652267456,-9.953899383544922,4.04296875,2,F1,6.1,270,0,4.980713402130958,[6400|0|3900|0]
19300,0.7696014642715454,0.765794575214386,-0.032646916806697845,7.8450188636779785,-0.19587373733520508,-8.741734504699707,4.04296875,2,F1,6.1,270,0,4.982522864894476,[6400|0|4000|0]
19400,0.7699324488639832,0.7651638388633728,-0.032651424407958984,7.194469451904297,-0.0685153678059578,-8.149419784545898,4.04296875,2,F1,6.1,270,0,4.983235184670553,[6400|0|4100|0]
19500,0.7694836854934692,0.7653706073760986,-0.03241207078099251,7.033830642700195,-0.013258913531899452,-7.573022365570068,4.07421875,2,F1,6.1,270,0,4.98378421284771,[6400|0|4200|0]
19600,0.7692163586616516,0.7655370235443115,-0.03264406695961952,6.932114601135254,0.03789111599326134,-7.150739669799805,4.1171875,2,F1,6.1,270,0,4.984175339685129,[6400|0|4300|0]
19700,0.7691655158996582,0.7656630873680115,-0.032660111784935,6.9403395652771,0.08688335865736008,-6.844546794891357,4.1171875,2,F1,6.1,270,0,4.984312213753208,[6400|0|4400|0]
19800,0.7696448564529419,0.76526939868927,-0.03239632770419121,6.997278690338135,0.11755966395139694,-6.60111665725708,4.1171875,2,F1,6.1,270,0,4.984986261365061,[6400|0|4500|0]
19900,0.7690316438674927,0.7657040953636169,-0.03220314532518387,6.991398811340332,0.1412590891122818,-6.424628257751465,4.1171875,2,F1,6.1,270,0,4.985762347897093,[6400|0|4600|0]
20000,0.7692034244537354,0.7656872272491455,-0.03237362205982208,6.977202892303467,0.14188002049922943,-6.291238307952881,4.12109375,2,F1,6.1,270,0,4.986004949257659,[6400|0|4700|0]
20100,0.7692709565162659,0.7657115459442139,-0.03240638226270676,6.97140645980835,0.1368473619222641,-6.193243503570557,4.12109375,2,F1,6.1,270,0,4.986083849253175,[6400|0|4800|0]
20200,0.7690603137016296,0.7656489610671997,-0.03238625451922417,6.980079174041748,0.13959574699401855,-6.1553425788879395,4.12109375,2,F1,6.1,270,0,4.986304512771334,[6400|0|4900|0]
20300,0.76923006772995,0.7656458616256714,-0.03223422169685364,7.000852108001709,0.128792867064476,-6.094336986541748,4.12109375,2,F1,6.1,270,0,4.986532416294227,[6400|0|5000|0]
20400,0.7692722678184509,0.7646806836128235,-0.032440390437841415,7.022933006286621,0.12224869430065155,-6.045755863189697,4.12109375,2,F1,6.1,270,0,4.987520270025159,[6400|0|5100|0]
20500,0.7694395184516907,0.7648744583129883,-0.0325949564576149,7.037715435028076,0.10865254700183868,-6.030829429626465,4.12890625,2,F1,6.1,270,0,4.98781928852494,[6400|0|5200|0]
20600,0.7691984176635742,0.7647895812988281,-0.032242149114608765,7.052731513977051,0.10274062305688858,-5.980828762054443,4.12890625,2,F1,6.1,270,0,4.988254956654187,[6400|0|5300|0]
20700,0.7694128155708313,0.765658438205719,-0.03221496194601059,7.0355095863342285,0.0899365097284317,-5.950428485870361,4.12890625,2,F1,6.1,270,0,4.989150287838401,[6400|0|5400|0]
20800,0.7699234485626221,0.7653664946556091,-0.03200347349047661,7.118293285369873,0.0845642015337944,-5.962913513183594,4.12890625,2,F1,6.1,270,0,4.989775351399633,[6400|0|5500|0]
20900,0.7696479558944702,0.7651708126068115,-0.03182638809084892,7.258865833282471,0.10985541343688965,-5.932936668395996,4.12890625,2,F1,6.1,270,0,4.990156857511233,[6400|0|5600|0]
21000,0.7696697115898132,0.7652390003204346,-0.0316968634724617,7.314343452453613,0.10201503336429596,-5.943662643432617,4.12890625,2,F1,6.1,270,0,4.990304842312268,[6400|0|5700|0]
21100,0.7695609331130981,0.7652136087417603,-0.03162150830030441,7.322707653045654,0.09726087003946304,-5.887448787689209,4.1328125,2,F1,6.1,270,0,4.990439586110771,[6400|0|5800|0]
21200,0.7699017524719238,0.7651424407958984,-0.031634584069252014,7.320827960968018,0.08488858491182327,-5.864728927612305,4.1328125,2,F1,6.1,270,0,4.9907880020799835,[6400|0|5900|0]
21300,0.7693193554878235,0.7655598521232605,-0.03198299556970596,7.270971775054932,0.1004626527428627,-5.830573081970215,4.1328125,2,F1,6.1,270,0,4.991584751122623,[6400|0|6000|0]
21400,0.7689311504364014,0.7652878761291504,-0.031784240156412125,7.260026931762695,0.11027876287698746,-5.818749904632568,4.1328125,2,F1,6.1,270,0,4.992098733435194,[6400|0|6100|0]
21500,0.7689028978347778,0.7652524709701538,-0.03190208971500397,7.264340400695801,0.09096390008926392,-5.820727825164795,4.1328125,2,F1,6.1,270,0,4.992224988150917,[6400|0|6200|0]
21600,0.7689685225486755,0.7654479146003723,-0.031543344259262085,7.25894021987915,0.08631294220685959,-5.800614833831787,4.1328125,2,F1,6.1,270,0,4.992638755135683,[6400|0|6300|0]
21700,0.7692182660102844,0.76569664478302,-0.031062565743923187,7.124167442321777,0.013750478625297546,-5.805155277252197,4.1328125,2,F1,6.1,270,0,4.993234898139658,[6400|0|6400|0]
21800,0.7692132592201233,0.7655476331710815,-0.03145262971520424,7.1617865562438965,0.02904868684709072,-5.785282135009766,4.1328125,2,F1,6.1,270,0,4.993652485771338,[6400|0|6500|0]
21900,0.7690878510475159,0.7658618092536926,-0.03161623328924179,7.1718034744262695,0.04087308049201965,-5.7742919921875,4.1328125,2,F1,6.1,270,0,4.994028251589474,[6400|0|6600|0]
22000,0.769140899181366,0.7656024694442749,-0.03166048973798752,7.1840105056762695,0.03852669894695282,-5.776485919952393,4.1328125,2,F1,6.1,270,0,4.994296635408862,[6400|0|6700|0]
22100,0.7690080404281616,0.765532374382019,-0.03160320222377777,7.198782444000244,0.04908137395977974,-5.806185245513916,4.13671875,2,F1,6.1,270,0,4.994457404265734,[6400|0|6800|0]
22200,0.7691364884376526,0.7646642327308655,-0.031636133790016174,7.227119445800781,0.05418449267745018,-5.8347554206848145,4.13671875,2,F1,6.1,270,0,4.995335614551295,[6400|0|6900|0]
22300,0.7692944407463074,0.7647622227668762,-0.031497251242399216,7.247661113739014,0.07257934659719467,-5.835906505584717,4.13671875,2,F1,6.1,270,0,4.995567647611438,[6400|0|7000|0]
22400,0.7692689299583435,0.7646753787994385,-0.03176922723650932,7.275562286376953,0.0916573703289032,-5.851719379425049,4.13671875,2,F1,6.1,270,0,4.995854289576884,[6400|0|7100|0]
22500,0.7689970135688782,0.7654474973678589,-0.03145260363817215,7.244393825531006,0.08479606360197067,-5.85244083404541,4.13671875,2,F1,6.1,270,0,4.996731988904434,[6400|0|7200|0]
22600,0.7691815495491028,0.7652516961097717,-0.03166712448000908,7.274170875549316,0.08374252915382385,-5.849279403686523,4.13671875,2,F1,6.1,270,0,4.997076097684108,[6400|0|7300|0]
22700,0.7695872187614441,0.7654135823249817,-0.03173316270112991,7.287170886993408,0.07731529325246811,-5.827947616577148,4.13671875,2,F1,6.1,270,0,4.997517839354279,[6400|0|7400|0]
22800,0.7693279981613159,0.7654191851615906,-0.03138052299618721,7.301149845123291,0.0909106433391571,-5.820331573486328,4.14453125,2,F1,6.1,270,0,4.99795553956311,[6400|0|7500|0]
22900,0.7694326043128967,0.7653359770774841,-0.031527888029813766,7.309914588928223,0.09098484367132187,-5.824046611785889,4.14453125,2,F1,6.1,270,0,4.998154493038437,[6400|0|7600|0]
23000,0.7691913843154907,0.7652568817138672,-0.03173072263598442,7.307462692260742,0.09834203124046326,-5.810379505157471,4.14453125,2,F1,6.1,270,0,4.998479431557476,[6400|0|7700|0]
23100,0.7691918611526489,0.7651311159133911,-0.03203161805868149,7.3112101554870605,0.0965198427438736,-5.8042893409729,4.14453125,2,F1,6.1,270,0,4.998805553190219,[6400|0|7800|0]
23200,0.7692590355873108,0.7652833461761475,-0.03148575499653816,7.304740905761719,0.09426462650299072,-5.801400184631348,4.14453125,2,F1,6.1,270,0,4.999376213281852,[6400|0|7900|0]
23300,0.7692844867706299,0.7652447819709778,-0.03181767463684082,7.296387672424316,0.09537605941295624,-5.77612829208374,4.14453125,2,F1,6.1,270,0,4.999711333571109,[6400|0|8000|0]
23400,0.7691296339035034,0.7650959491729736,-0.03171944245696068,7.300324440002441,0.10239740461111069,-5.773674964904785,4.14453125,2,F1,6.1,270,0,4.999947511837219,[6400|0|8100|0]
23500,0.7694270610809326,0.7653278112411499,-0.03162262588739395,7.291569709777832,0.1003921777009964,-5.774196624755859,4.14453125,2,F1,6.1,270,0,5.000336865651475,[6400|0|8200|0]
23600,0.7690905332565308,0.7651047110557556,-0.03169591352343559,7.290501594543457,0.1072172001004219,-5.767674922943115,4.14453125,2,F1,6.1,270,0,5.00074722615995,[6400|0|8300|0]
23700,0.7691165804862976,0.7653945088386536,-0.03161216527223587,7.274628162384033,0.10224457085132599,-5.796658992767334,4.14453125,2,F1,6.1,270,0,5.001050004928575,[6400|0|8400|0]
23800,0.7692553997039795,0.7657124400138855,-0.0312421303242445,7.138230323791504,0.029125472530722618,-5.803715705871582,4.14453125,2,F1,6.1,270,0,5.001557229602775,[6400|0|8500|0]
23900,0.7694188356399536,0.7644665241241455,-0.03158365190029144,7.185748100280762,0.04112078994512558,-5.808969974517822,4.14453125,2,F1,6.1,270,0,5.00285940266976,[6400|0|8600|0]
24000,0.7692274451255798,0.7649935483932495,-0.03190344199538231,7.217044830322266,0.06552617251873016,-5.831289291381836,4.1484375,2,F1,6.1,270,0,5.00350488745977,[6400|0|8700|0]
24100,0.7691119909286499,0.7646821737289429,-0.03195086121559143,7.250068664550781,0.0853499248623848,-5.84456205368042,4.1484375,2,F1,6.1,270,0,5.003840346005057,[6400|0|8800|0]
24200,0.7690384984016418,0.764636754989624,-0.03194628655910492,7.279743194580078,0.09163326770067215,-5.862628936767578,4.1484375,2,F1,6.1,270,0,5.003926861557932,[6400|0|8900|0]
24300,0.7692749500274658,0.7645670175552368,-0.03171131759881973,7.288875102996826,0.08961787074804306,-5.84801721572876,4.1484375,2,F1,6.1,270,0,5.004267424464614,[6400|0|9000|0]
24400,0.7690894603729248,0.7648123502731323,-0.03176324814558029,7.2780914306640625,0.09770924597978592,-5.838974952697754,4.1484375,2,F1,6.1,270,0,5.004579340055918,[6400|0|9100|0]
24500,0.769295871257782,0.7646806240081787,-0.03172794356942177,7.2812910079956055,0.09404240548610687,-5.839388847351074,4.1484375,2,F1,6.1,270,0,5.004826733821733,[6400|0|9200|0]
24600,0.7690180540084839,0.765389621257782,-0.031620610505342484,7.238434314727783,0.0987306460738182,-5.822892189025879,4.1484375,2,F1,6.1,270,0,5.005595746117211,[6400|0|9300|0]
24700,0.7694240808486938,0.765185534954071,-0.03176695853471756,7.266503810882568,0.09802190214395523,-5.800132751464844,4.1484375,2,F1,6.1,270,0,5.00607316287439,[6400|0|9400|0]
24800,0.769241213798523,0.7654173374176025,-0.03150266408920288,7.272767066955566,0.11330287903547287,-5.838774681091309,4.1484375,2,F1,6.1,270,0,5.006469425784675,[6400|0|9500|0]
24900,0.7691914439201355,0.7655286192893982,-0.03182165324687958,7.275492191314697,0.11352119594812393,-5.817768573760986,4.1484375,2,F1,6.1,270,0,5.0068109148452615,[6400|0|9600|0]
25000,0.7692440152168274,0.7652585506439209,-0.03173122927546501,7.290116786956787,0.10968504846096039,-5.783624172210693,4.1484375,2,F1,6.1,270,0,5.00710053064095,[6400|0|9700|0]
25100,0.7693738341331482,0.765258252620697,-0.03167768195271492,7.290966987609863,0.10933670401573181,-5.813470363616943,4.1484375,2,F1,6.1,270,0,5.00724095982462,[6400|0|9800|0]
25200,0.7692588567733765,0.7650549411773682,-0.0319102443754673,7.300241470336914,0.11724255234003067,-5.804934978485107,4.1484375,2,F1,6.1,270,0,5.007570566585359,[6400|0|9900|0]
25300,0.7694954872131348,0.765446662902832,-0.03150416165590286,7.286102294921875,0.11274595558643341,-5.83998966217041,4.1484375,2,F1,6.1,270,0,5.0081824023887815,[6400|0|10000|0]
25400,0.7691269516944885,0.7649676203727722,-0.03169316053390503,7.297104835510254,0.11894385516643524,-5.833919525146484,4.15234375,2,F1,6.1,270,0,5.008815664380374,[6400|0|10100|0]
25500,0.7692736387252808,0.7645337581634521,-0.031703557819128036,7.149531841278076,0.046544793993234634,-5.865065097808838,3.21484375,2,A/E1,6.1,270,0,5.0092737709238975,[6400|0|10100|0]
25600,0.7689401507377625,0.7632509469985962,-0.030320260673761368,3.199949264526367,2.6207845211029053,-6.9127888679504395,3.568359375,2,A/E1,6.1,270,0,5.011189581382914,[6400|0|10100|0]
25700,0.7614841461181641,0.7649922370910645,-0.009522642008960247,-2.7987635135650635,3.5164382457733154,-8.577789306640625,3.63671875,2,A/E1,6.1,270,0,5.033351824911043,[6400|0|10100|0]
25800,0.7514078617095947,0.772807240486145,0.039416637271642685,-2.2043697834014893,0.3164081871509552,-7.522389888763428,3.673828125,2,A/E1,6.1,270,0,5.08392512658349,[6400|0|10100|0]
25900,0.7418098449707031,0.7857402563095093,0.10759282112121582,-0.7383410334587097,0.306008517742157,-4.642136573791504,3.6953125,2,A/E1,6.1,270,0,5.153977798680264,[6400|0|10100|0]
26000,0.7341011166572571,0.7989376187324524,0.18694007396697998,1.7185986042022705,-1.2312294244766235,-2.4925215244293213,3.7109375,2,A/E1,6.1,270,0,5.234783623973387,[6400|0|10100|0]
26100,0.7297946810722351,0.8083540201187134,0.27281656861305237,3.1998989582061768,-0.872822105884552,-1.0941720008850098,3.716796875,2,A/E1,6.1,270,0,5.321282099886041,[6400|0|10100|0]
26200,0.7270264625549316,0.8122769594192505,0.36249998211860657,3.3710503578186035,-0.6519202589988708,-0.23655609786510468,3.716796875,2,A/E1,6.1,270,0,5.411093942894206,[6400|0|10100|0]
26300,0.726398229598999,0.8102681636810303,0.4541153907775879,2.575911283493042,-0.11532186716794968,0.5841476917266846,3.716796875,2,A/E1,6.1,270,0,5.502733525175647,[6400|0|10100|0]
26400,0.7267386317253113,0.8037804365158081,0.5464543700218201,2.016033887863159,0.188317209482193,1.225226640701294,3.705078125,2,A/E1,6.1,270,0,5.595300763252867,[6400|0|10100|0]
26500,0.7265592217445374,0.7948258519172668,0.6410418152809143,0.7381123304367065,0.14833404123783112,1.4041097164154053,3.701171875,2,A/E1,6.1,270,0,5.690311297268395,[6400|0|10100|0]
26600,0.7267545461654663,0.7850431799888611,0.7359734177589417,0.09269155561923981,0.4665384590625763,1.4556738138198853,3.701171875,2,A/E1,6.1,270,0,5.785745819170768,[6400|0|10100|0]
26700,0.7270941138267517,0.7748333811759949,0.8337510228157043,-0.7478533387184143,0.4378525912761688,1.3394801616668701,3.701171875,2,A/E1,6.1,270,0,5.884055611911024,[6400|0|10100|0]
26800,0.7258542776107788,0.7665177583694458,0.9324216842651367,-1.0801341533660889,0.2503467798233032,1.2059502601623535,3.701171875,2,A/E1,6.1,270,0,5.983083821060598,[6400|0|10100|0]
26900,0.7242131233215332,0.7600682973861694,1.0323702096939087,-1.3030019998550415,0.23202556371688843,1.1518642902374268,3.701171875,2,A/E1,6.1,270,0,6.08325366018277,[6400|0|10100|0]
27000,0.7222996354103088,0.7561235427856445,1.13338041305542,-0.7722367644309998,0.009230882860720158,1.021206259727478,3.736328125,2,A/E1,6.1,270,0,6.184358970171804,[6400|0|10100|0]
27100,0.7210789322853088,0.7523616552352905,1.2303733825683594,-0.5174664258956909,-0.13457125425338745,0.9914094805717468,3.76953125,2,A/E1,6.1,270,0,6.281432540462583,[6400|0|10100|0]
27200,0.7171005606651306,0.7489211559295654,1.3152432441711426,-0.09322631359100342,-0.2226887345314026,0.6035182476043701,3.779296875,2,A/E1,6.1,270,0,6.366465227616974,[6400|0|10100|0]
27300,0.7159421443939209,0.7413080334663391,1.374267578125,0.0024278725031763315,-0.08299713581800461,0.4998358190059662,3.7734375,2,A/E1,6.1,270,0,6.425989790283103,[6400|0|10100|0]
27400,0.7182690501213074,0.740970253944397,1.435511589050293,-0.11078017950057983,-0.19689156115055084,0.5594567656517029,3.7578125,2,A/E1,6.1,270,0,6.4872789203102705,[6400|0|10100|0]
27500,0.7142018675804138,0.7319859862327576,1.4593309164047241,-0.3064069449901581,-0.27719998359680176,0.6868468523025513,3.748046875,2,A/E1,6.1,270,0,6.513059133570694,[6400|0|10100|0]
27600,0.7162021994590759,0.730954110622406,1.492639422416687,-0.543232798576355,-0.2894097864627838,0.6001800298690796,3.736328125,2,A/E1,6.1,270,0,6.546443601031611,[6400|0|10100|0]
27700,0.7120662927627563,0.7243726849555969,1.494592308998108,-0.7161070108413696,-0.17428824305534363,0.5699129104614258,3.720703125,2,A/E1,6.1,270,0,6.554458253488723,[6400|0|10100|0]
27800,0.7108273506164551,0.7220180630683899,1.499658226966858,-0.7000049352645874,-0.053636759519577026,0.32414510846138,3.705078125,2,A/E1,6.1,270,0,6.560180381304466,[6400|0|10100|0]
27900,0.7139512896537781,0.7251872420310974,1.514126181602478,-0.9059460163116455,-0.3679285943508148,0.15951800346374512,3.716796875,2,A/E1,6.1,270,0,6.575317237046163,[6400|0|10100|0]
28000,0.7139987349510193,0.7235273718833923,1.5124812126159668,-0.5954524278640747,-0.31434670090675354,0.21337957680225372,3.716796875,2,A/E1,6.1,270,0,6.577654616546813,[6400|0|10100|0]
28100,0.7127879858016968,0.721966564655304,1.5035412311553955,-0.2773439884185791,-0.10581508278846741,0.3634026348590851,3.7109375,2,A/E1,6.1,270,0,6.5868102323765205,[6400|0|10100|0]
28200,0.7144665122032166,0.7238900065422058,1.5020219087600708,0.0039591314271092415,0.10678403824567795,0.6752131581306458,3.716796875,2,A/E1,6.1,270,0,6.589780993240983,[6400|0|10100|0]
28300,0.7157735824584961,0.7249059081077576,1.4994583129882812,0.15945351123809814,0.30647245049476624,0.8536347150802612,3.705078125,2,A/E1,6.1,270,0,6.592832634098663,[6400|0|10100|0]
28400,0.7166771292686462,0.7262905240058899,1.4951657056808472,0.26258864998817444,0.3045024275779724,0.9499024152755737,3.705078125,2,A/E1,6.1,270,0,6.597432637959458,[6400|0|10100|0]
28500,0.7179730534553528,0.7266551852226257,1.4901567697525024,-0.2992320954799652,-0.4108266830444336,1.110077977180481,3.900390625,2,A/E1,6.1,270,233.69550287742476,6.602619335987582,[6400|0|10100|0]
28600,0.7249327898025513,0.7371573448181152,1.4762974977493286,-12.764765739440918,-14.508235931396484,-1.806522011756897,3.900390625,2,A/E1,6.1,270,233.69550287742476,6.621349330826066,[6400|0|10100|0]
28700,0.737716019153595,0.7456196546554565,1.4044880867004395,-11.575716018676758,-14.544241905212402,-0.8055400252342224,3.806640625,2,A/E1,6.1,270,233.69550287742476,6.6947769356869955,[6400|0|10100|0]
28800,0.7687157988548279,0.776100754737854,1.3063298463821411,-13.34031867980957,-16.51323890686035,-5.2467780113220215,3.6953125,2,A/E1,6.1,270,233.69550287742476,6.802132065728102,[6400|0|10100|0]
28900,0.8180714249610901,0.8119465112686157,1.1774533987045288,-8.941777229309082,-9.66722583770752,-4.993459224700928,3.615234375,2,A/E1,6.1,270,233.69550287742476,6.944715496938058,[6400|0|10100|0]
29000,0.8838438987731934,0.8639256954193115,1.0549054145812988,-4.374076843261719,-4.763850212097168,2.823551893234253,3.62109375,2,A/E1,6.1,270,233.69550287742476,7.093193988003273,[6400|0|10100|0]
29101,0.9585263729095459,0.9220767617225647,0.9530702829360962,-4.311375617980957,4.582666873931885,6.774845123291016,3.658203125,2,A/E1,6.1,270,233.69550287742476,7.232224245474545,[6400|0|10100|0]
29201,1.0272955894470215,0.9780619144439697,0.8715491890907288,0.6551430821418762,10.93691635131836,10.78778076171875,3.658203125,2,A/E1,6.1,270,233.69550287742476,7.352678515677649,[6400|0|10100|0]
29301,1.077972650527954,1.0193686485290527,0.8055931925773621,-2.4710233211517334,17.14459800720215,14.909632682800293,3.705078125,2,A/E1,6.1,270,233.69550287742476,7.4455472632553334,[6400|0|10100|0]
29401,1.1001266241073608,1.0436627864837646,0.746446967124939,1.570892572402954,13.376138687133789,16.43146514892578,3.62109375,2,A/E1,6.1,270,233.69550287742476,7.513217638380557,[6400|0|10100|0]
29502,1.1016757488250732,1.0525790452957153,0.6962273120880127,3.569814920425415,4.263249397277832,16.434494018554688,3.63671875,2,A/E1,6.1,270,233.69550287742476,7.5642461912761725,[6400|0|10100|0]
29601,1.0976735353469849,1.0479241609573364,0.6646462082862854,1.4345989227294922,-2.838078022003174,16.024621963500977,3.63671875,2,A/E1,6.1,270,233.69550287742476,7.596418411875058,[6400|0|10100|0]
29700,1.1013164520263672,1.0394129753112793,0.6495963931083679,3.134885787963867,-7.795636177062988,13.003281593322754,3.626953125,2,A/E1,6.1,270,233.69550287742476,7.614087822163012,[6400|0|10100|0]
29800,1.1252188682556152,1.031607747077942,0.6515806913375854,3.3395426273345947,-11.486149787902832,10.723520278930664,3.642578125,2,A/E1,6.1,270,233.69550287742476,7.639310520845611,[6400|0|10100|0]
29901,1.1647303104400635,1.022447109222412,0.6571997404098511,3.2901926040649414,-6.235795497894287,8.561633110046387,3.673828125,2,A/E1,6.1,270,233.69550287742476,7.680257377402516,[6400|0|10100|0]
30002,1.2203115224838257,1.013643503189087,0.6747652888298035,-0.14245343208312988,-0.3018243908882141,5.887411594390869,3.6953125,2,A/E1,6.1,270,233.69550287742476,7.739209248473223,[6400|0|10100|0]
30102,1.276353120803833,1.0051937103271484,0.6978402733802795,-1.851479172706604,5.00555419921875,3.7933285236358643,3.7109375,2,A/E1,6.1,270,233.69550287742476,7.800401687987231,[6400|0|10100|0]
30202,1.32557213306427,0.9990451335906982,0.7206010818481445,-2.7285895347595215,8.530396461486816,1.231378436088562,3.720703125,2,A/E1,6.1,270,233.69550287742476,7.854976137740644,[6400|0|10100|0]
30300,1.3642257452011108,0.9977918267250061,0.7382693886756897,-2.095534086227417,10.467851638793945,-1.4782601594924927,3.716796875,2,A/E1,6.1,270,233.69550287742476,7.897494858035089,[6400|0|10100|0]
30400,1.385388970375061,0.9988793134689331,0.7478232383728027,-1.0906742811203003,10.279630661010742,-3.706801176071167,3.701171875,2,A/E1,6.1,270,233.69550287742476,7.920740089185081,[6400|0|10100|0]
30500,1.3953070640563965,1.0015134811401367,0.7536528706550598,-0.4068189859390259,8.862892150878906,-4.683358669281006,3.701171875,2,A/E1,6.1,270,233.69550287742476,7.932542293815492,[6400|0|10100|0]
30600,1.3901492357254028,1.0046459436416626,0.7515864372253418,-0.19037888944149017,6.973612308502197,-4.132553577423096,3.68359375,2,A/E1,6.1,270,233.69550287742476,7.938920825114695,[6400|0|10100|0]
30700,1.3800662755966187,1.0088801383972168,0.7486963272094727,-0.28209227323532104,4.044516563415527,-3.4082632064819336,3.673828125,2,A/E1,6.1,270,233.69550287742476,7.950232201073899,[6400|0|10100|0]
30800,1.3665566444396973,1.0147531032562256,0.7459911108016968,-0.35402393341064453,2.3700199127197266,-3.017910957336426,3.68359375,2,A/E1,6.1,270,233.69550287742476,7.9652095187925065,[6400|0|10100|0]
30900,1.35304856300354,1.0210018157958984,0.7441892623901367,-0.024733897298574448,1.139405369758606,-2.8395540714263916,3.6796875,2,A/E1,6.1,270,233.69550287742476,7.980201561021221,[6400|0|10100|0]
31000,1.3407918214797974,1.027183175086975,0.7420030236244202,-0.6333092451095581,0.26308774948120117,-2.648775815963745,3.6796875,2,A/E1,6.1,270,233.69550287742476,7.9941017968251895,[6400|0|10100|0]
31100,1.3311110734939575,1.035571813583374,0.7393227815628052,-0.04842424765229225,0.2330193817615509,-2.4048399925231934,3.68359375,2,A/E1,6.1,270,233.69550287742476,8.007188806984026,[6400|0|10100|0]
31200,1.3228577375411987,1.044266939163208,0.7360528707504272,-0.4165286123752594,0.6916213631629944,-1.974089503288269,3.673828125,2,A/E1,6.1,270,233.69550287742476,8.019615193422531,[6400|0|10100|0]
31300,1.3154464960098267,1.0533599853515625,0.733003556728363,0.3724932372570038,1.2116037607192993,-1.6022142171859741,3.673828125,2,A/E1,6.1,270,233.69550287742476,8.031735767089856,[6400|0|10100|0]
31400,1.308414340019226,1.0630656480789185,0.7288133502006531,1.0466269254684448,1.4143518209457397,-1.2443008422851562,3.6796875,2,A/E1,6.1,270,233.69550287742476,8.04443257525562,[6400|0|10100|0]
31500,1.298299789428711,1.071969985961914,0.725400447845459,1.2991993427276611,1.0619174242019653,-0.6807639002799988,3.869140625,2,A/E1,6.1,270,233.69550287742476,8.058333628067142,[6400|0|10100|0]
31600,1.2877401113510132,1.0780918598175049,0.7100352644920349,2.074758529663086,0.8623356223106384,-0.25996264815330505,3.859375,2,A/E1,6.1,270,233.69550287742476,8.077956905063932,[6400|0|10100|0]
31700,1.2756119966506958,1.0834598541259766,0.6572306156158447,2.2390408515930176,0.03738224133849144,-0.27452707290649414,3.748046875,2,A/E1,6.1,270,233.69550287742476,8.132401716313652,[6400|0|10100|0]
31800,1.2626780271530151,1.0850355625152588,0.5732284784317017,1.6643723249435425,0.21814435720443726,-0.13445304334163666,3.65234375,2,A/E1,6.1,270,233.69550287742476,8.217408360026944,[6400|0|10100|0]
31900,1.2488243579864502,1.0835802555084229,0.47635728120803833,0.5186179280281067,0.29447877407073975,1.1209627389907837,3.599609375,2,A/E1,6.1,270,233.69550287742476,8.315275979388032,[6400|0|10100|0]
