,time.ms,stateEstimate.x,stateEstimate.y,stateEstimate.z,stabilizer.roll,stabilizer.pitch,stabilizer.yaw,pm.vbat,drone_id,node_name,wind_speed,global_wind_direction,relative_wind_direction,travel_dist,waiting_time
0,0,1.2395412921905518,1.097517967224121,0.0,-0.0054054819047451,0.9939998388290404,4.129763603210449,4.1171875,2,A/E1,6.1,90,450.0,0.0,[6200|0|0|0]
1,100,1.2395546436309814,1.097215175628662,0.0,0.0024362378753721,0.9631513953208924,4.112281799316406,4.1171875,2,A/E1,6.1,90,450.0,0.00030308581498,[6300|0|0|0]
2,200,1.2393072843551636,1.097277045249939,0.0,0.0019106904510408,0.9394652843475342,4.128131866455078,4.1171875,2,A/E1,6.1,90,450.0,0.0005580651501625,[6400|0|0|0]
3,300,1.2390514612197876,1.0978363752365112,0.0,-0.0730310454964637,0.8686961531639099,4.135198593139648,4.1171875,2,A/E1,6.1,90,450.0,0.0011731224730784,[6500|0|0|0]
4,400,1.2395410537719729,1.097810983657837,0.0,-0.055232185870409,0.8417495489120483,4.178842067718506,4.1171875,2,A/E1,6.1,90,450.0,0.0016633730206792,[6600|0|0|0]
5,500,1.2394235134124756,1.0977813005447388,0.0,-0.0472289212048053,0.837457537651062,4.1581196784973145,4.1171875,2,A/E1,6.1,90,450.0,0.0017846034760687,[6700|0|0|0]
6,600,1.239609718322754,1.0975260734558103,0.0,-0.038462046533823,0.829974353313446,4.195680618286133,4.1171875,2,A/E1,6.1,90,450.0,0.0021005356452675,[6800|0|0|0]
7,700,1.2393592596054075,1.0974222421646118,0.0,-0.0336338654160499,0.8297732472419739,4.204654693603516,4.1171875,2,C1,6.1,90,450.0,0.0023716638550258,[6800|0|0|0]
8,800,1.2393215894699097,1.097425103187561,0.0,0.025461783632636,0.9063884615898132,4.480696678161621,3.134765625,2,C1,6.1,90,450.0,0.0024094424807386,[6800|0|0|0]
9,900,1.237661600112915,1.100000500679016,0.0,-1.4654773473739624,2.04260516166687,4.935030937194824,3.537109375,2,C1,6.1,90,450.0,0.0054734654741783,[6800|0|0|0]
10,1000,1.2311880588531494,1.1118720769882202,0.0035262077581137,-7.806656360626221,4.745231628417969,5.856448650360107,3.6953125,2,C1,6.1,90,450.0,0.0194475558438779,[6800|0|0|0]
11,1100,1.2194708585739136,1.1386860609054563,0.0607445575296878,-0.8249542117118835,1.4712233543395996,5.429084300994873,3.6640625,2,C1,6.1,90,450.0,0.0837143596112951,[6800|0|0|0]
12,1200,1.2098878622055054,1.1718857288360596,0.1318280845880508,5.2300214767456055,-1.7493658065795898,3.4969735145568848,3.6796875,2,C1,6.1,90,450.0,0.1627518164855916,[6800|0|0|0]
13,1300,1.201832294464111,1.1993348598480225,0.2096497565507888,6.711856842041016,-1.836986064910889,1.7762432098388672,3.705078125,2,C1,6.1,90,450.0,0.2456647804419241,[6800|0|0|0]
14,1400,1.203073501586914,1.2184805870056152,0.2807742953300476,7.3992509841918945,-2.174435615539551,0.8133103847503662,3.736328125,2,C1,6.1,90,450.0,0.3193315944091168,[6800|0|0|0]
15,1500,1.2071901559829712,1.2304612398147583,0.3568644821643829,7.859047412872314,-0.4620308876037597,0.4540078341960907,3.75390625,2,C1,6.1,90,450.0,0.3964691301335217,[6800|0|0|0]
16,1600,1.2132580280303955,1.2350106239318848,0.4232392907142639,6.659465789794922,0.002909819362685,1.1465383768081665,3.75390625,2,C1,6.1,90,450.0,0.4632758002874999,[6800|0|0|0]
17,1700,1.2196614742279053,1.2332313060760498,0.4798661172389984,6.172939300537109,1.171696424484253,1.9575239419937127,3.748046875,2,C1,6.1,90,450.0,0.520291303245019,[6800|0|0|0]
18,1800,1.2244532108306885,1.2228933572769165,0.5252601504325867,4.18994665145874,1.6960514783859253,0.7369802594184875,3.7421875,2,C1,6.1,90,450.0,0.5670935700130352,[6800|0|0|0]
19,1900,1.225129246711731,1.207768440246582,0.5601673126220703,2.6035189628601074,1.5737367868423462,-1.095030665397644,3.732421875,2,C1,6.1,90,450.0,0.6051426187765703,[6800|0|0|0]
20,2000,1.2228585481643677,1.188485860824585,0.5883350968360901,1.0724058151245115,1.4904214143753052,-2.161799669265747,3.732421875,2,C1,6.1,90,450.0,0.6393536989785488,[6800|0|0|0]
21,2100,1.2177871465682983,1.1682915687561035,0.6088228225708008,-0.3690910041332245,0.6601545810699463,-2.309816598892212,3.7265625,2,C1,6.1,90,450.0,0.6685645779806684,[6800|0|0|0]
22,2200,1.2106890678405762,1.148699402809143,0.6244428157806396,-1.1874332427978516,-0.2010025382041931,-2.330458164215088,3.716796875,2,C1,6.1,90,450.0,0.6946072329143266,[6800|0|0|0]
23,2300,1.203526258468628,1.1283631324768066,0.6365278959274292,-1.9567095041275024,-0.4626982808113098,-2.3298282623291016,3.716796875,2,C1,6.1,90,450.0,0.7193240063947601,[6800|0|0|0]
24,2400,1.1966317892074585,1.1125439405441284,0.6447068452835083,-2.7083897590637207,-1.1977266073226929,-2.253125667572021,3.7109375,2,C1,6.1,90,450.0,0.738420491735404,[6800|0|0|0]
25,2500,1.1924574375152588,1.099809646606445,0.6513676047325134,-2.801903247833252,-1.36706280708313,-2.19482970237732,3.7109375,2,C1,6.1,90,450.0,0.7533855567395729,[6800|0|0|0]
26,2600,1.1898547410964966,1.08958899974823,0.657674252986908,-2.4954934120178223,-1.0291396379470823,-1.9479600191116333,3.7109375,2,C1,6.1,90,450.0,0.7656741475071603,[6800|0|0|0]
27,2700,1.188480257987976,1.0841742753982544,0.6619120836257935,-2.313746213912964,-1.0590099096298218,-1.6703035831451416,3.7109375,2,C1,6.1,90,450.0,0.7726861124333207,[6800|0|0|0]
28,2800,1.18997323513031,1.080397605895996,0.6658856868743896,-1.4451587200164795,-0.5439391136169434,-1.367207169532776,3.705078125,2,C1,6.1,90,450.0,0.7783678142957977,[6800|0|0|0]
29,2900,1.1914509534835815,1.077544331550598,0.6687943339347839,-1.2029619216918943,-0.5693727731704712,-1.0399192571640017,3.705078125,2,C1,6.1,90,450.0,0.7827019870823445,[6800|0|0|0]
30,3000,1.1946834325790403,1.0754890441894531,0.6716504693031311,-0.8764992952346802,-0.0412138849496841,-0.7145013809204102,3.701171875,2,C1,6.1,90,450.0,0.7874801286124568,[6800|0|0|0]
31,3100,1.197361707687378,1.0741512775421145,0.6749786734580994,-1.272716403007507,0.4491921067237854,-0.2315358817577362,3.705078125,2,C1,6.1,90,450.0,0.7919567032020085,[6800|0|0|0]
32,3200,1.198750615119934,1.0744603872299194,0.6782069206237793,-1.5069727897644043,0.4797121286392212,0.2663024067878723,3.705078125,2,C1,6.1,90,450.0,0.7954846193600295,[6800|0|0|0]
33,3300,1.1986570358276367,1.0770525932312012,0.680979311466217,-0.9392719864845276,0.8603159189224243,0.6213343739509583,3.701171875,2,C1,6.1,90,450.0,0.799281254715217,[6800|0|0|0]
34,3400,1.1974221467971802,1.0807405710220337,0.682889461517334,-0.8422186970710754,0.466521680355072,0.4660203158855438,3.701171875,2,C1,6.1,90,450.0,0.8036142449438003,[6800|0|0|0]
35,3500,1.19569194316864,1.083688735961914,0.6850700378417969,-0.6466447710990906,0.134688451886177,0.4465530216693878,3.6953125,2,C1,6.1,90,450.0,0.8076688958801649,[6800|0|0|0]
36,3600,1.1915332078933716,1.0902283191680908,0.6867400407791138,-0.7447267174720764,0.0468343012034893,0.466541975736618,3.701171875,2,C1,6.1,90,450.0,0.8155967037367491,[6800|0|0|0]
37,3700,1.1884738206863403,1.0969969034194946,0.6900248527526855,-0.4039276838302612,-0.8741392493247986,-0.1744246184825897,3.701171875,2,C1,6.1,90,167.0,0.8237184998775432,[6800|0|0|0]
38,3800,1.1856741905212402,1.1044344902038574,0.6928779482841492,5.0780768394470215,-2.2352335453033447,0.3369187116622925,3.541015625,2,C1,6.1,90,167.0,0.8321621827439187,[6800|0|0|0]
39,3900,1.1888575553894043,1.0986071825027466,0.7086179256439209,14.80882740020752,-5.738680362701416,3.423248529434204,3.59375,2,C1,6.1,90,167.0,0.8492454556801395,[6800|0|0|0]
40,4000,1.2035421133041382,1.069247126579285,0.7427878975868225,16.83041763305664,-2.100153923034668,7.224782466888428,3.6640625,2,C1,6.1,90,167.0,0.8966293781386977,[6800|0|0|0]
41,4100,1.2254152297973633,1.002905249595642,0.7835301160812378,15.731938362121582,-2.436671018600464,5.7929301261901855,3.6796875,2,C1,6.1,90,167.0,0.9774972100292936,[6800|0|0|0]
42,4200,1.2573922872543335,0.9278374314308168,0.8335884809494019,11.393054962158203,-0.4608837962150574,3.88611364364624,3.7109375,2,C1,6.1,90,167.0,1.073223640135654,[6800|0|0|0]
43,4300,1.288443684577942,0.8299894332885742,0.8797664642333984,4.371390342712402,1.1568766832351685,2.919965982437134,3.720703125,2,C1,6.1,90,167.0,1.1857884044110254,[6800|0|0|0]
44,4400,1.317543625831604,0.7287576198577881,0.919206202030182,-2.44739842414856,2.2860329151153564,1.325247287750244,3.732421875,2,C1,6.1,90,167.0,1.2982614213925714,[6800|0|0|0]
45,4500,1.342868447303772,0.6333250403404236,0.9509974122047424,-8.781593322753906,3.5791475772857666,0.5148112177848816,3.732421875,2,C1,6.1,90,167.0,1.4019889725074914,[6800|0|0|0]
46,4600,1.3609894514083862,0.5541839599609375,0.9712600708007812,-11.165281295776367,3.9536736011505127,0.12591053545475,3.720703125,2,C1,6.1,90,167.0,1.4856684605960986,[6800|0|0|0]
47,4700,1.377324461936951,0.4927392601966858,0.984308660030365,-12.360669136047363,4.1324968338012695,-0.373091846704483,3.705078125,2,C1,6.1,90,167.0,1.5505726159250894,[6800|0|0|0]
48,4800,1.389078140258789,0.4498293995857239,0.9896535873413086,-11.323580741882324,3.712488412857056,0.056627582758665,3.68359375,2,C1,6.1,90,167.0,1.5953830314521151,[6800|0|0|0]
49,4900,1.3966771364212036,0.4243677258491516,0.990345060825348,-9.210723876953123,3.267646312713623,0.0833626389503479,3.6796875,2,C1,6.1,90,167.0,1.621963469893254,[6800|0|0|0]
50,5000,1.3999265432357788,0.4115952253341675,0.9902356863021852,-6.384796142578125,2.65889573097229,0.074844866991043,3.6796875,2,C1,6.1,90,167.0,1.6351432793318688,[6800|0|0|0]
51,5100,1.4002259969711304,0.4083211719989776,0.9922142028808594,-3.8003203868865967,2.257294178009033,-0.2516156136989593,3.689453125,2,C1,6.1,90,167.0,1.638980417019439,[6800|0|0|0]
52,5200,1.3977904319763184,0.4088374972343445,0.994373857975006,-2.0281131267547607,1.4856046438217163,-0.4807407557964325,3.689453125,2,C1,6.1,90,167.0,1.6422762748316488,[6800|0|0|0]
53,5300,1.3943750858306885,0.4105644822120666,0.9957926869392396,-0.8417237997055054,0.9443501234054564,-0.5961679220199585,3.689453125,2,C1,6.1,90,167.0,1.646357958557453,[6800|0|0|0]
54,5400,1.389751672744751,0.4108839929103851,0.9975181221961976,-0.3915126323699951,0.7317799925804138,-0.6806795597076416,3.689453125,2,C1,6.1,90,167.0,1.6513031746776556,[6800|0|0|0]
55,5500,1.385251522064209,0.4105108976364136,0.99738609790802,-0.336109459400177,0.4838681221008301,-0.790562093257904,3.689453125,2,C1,6.1,90,167.0,1.6558206946437113,[6800|0|0|0]
56,5600,1.3812404870986938,0.4093320071697235,0.9970462322235109,-0.8531666398048401,0.2868080735206604,-0.9761441946029664,3.68359375,2,C1,6.1,90,167.0,1.6600151782723054,[6800|0|0|0]
57,5700,1.3765579462051392,0.4087446928024292,0.996078372001648,-0.9439975023269652,0.1105151250958442,-0.6280980706214905,3.673828125,2,C1,6.1,90,167.0,1.664832634114854,[6800|0|0|0]
58,5801,1.372612237930298,0.4088770449161529,0.9966685175895692,-1.2432959079742432,0.1150504872202873,-0.2806091010570526,3.6796875,2,C1,6.1,90,167.0,1.6688244260291576,[6800|0|0|0]
59,5900,1.3685420751571655,0.4093898832798004,0.9982674717903136,-1.318995714187622,0.084535002708435,0.1795381605625152,3.68359375,2,C1,6.1,90,167.0,1.6732273662653068,[6800|0|0|0]
60,6000,1.3652900457382202,0.4119890928268432,0.9999243021011353,-0.9198938608169556,0.0447471067309379,0.4405734241008758,3.68359375,2,C1,6.1,90,167.0,1.6777080662429869,[6800|0|0|0]
61,6100,1.3620426654815674,0.414506196975708,1.0010979175567627,-0.5518683195114136,-0.2849021553993225,0.5058157444000244,3.689453125,2,C1,6.1,90,167.0,1.6819810821644663,[6800|0|0|0]
62,6201,1.3591684103012085,0.4183488488197326,1.000563383102417,-0.2086247205734253,-0.0152907520532608,0.4453155398368835,3.689453125,2,C1,6.1,90,167.0,1.6868094403863767,[6800|0|0|0]
63,6301,1.3562439680099487,0.4210321009159088,1.0002789497375488,-0.0845471248030662,0.1651850044727325,0.3289867341518402,3.68359375,2,C1,6.1,90,167.0,1.6907885240579763,[6800|0|0|0]
64,6401,1.3531315326690674,0.4226072132587433,0.9986897706985474,-0.4713669717311859,-0.0193790551275014,0.1080012694001197,3.68359375,2,C1,6.1,90,167.0,1.6946217632445808,[6800|0|0|0]
65,6501,1.34943687915802,0.4250306189060211,0.996383011341095,-0.5432709455490112,-0.0988710448145866,-0.0925191193819046,3.6796875,2,C1,6.1,90,167.0,1.699606188811399,[6800|0|0|0]
66,6601,1.345638871192932,0.4279188811779022,0.9940263628959656,-0.5782178640365601,-0.0916687473654747,-0.4367485642433166,3.68359375,2,C1,6.1,90,167.0,1.7049279099002923,[6800|0|0|0]
67,6701,1.3418833017349243,0.4310346245765686,0.9911805987358092,-0.4770770967006683,-0.459924966096878,-0.4687689244747162,3.68359375,2,C1,6.1,90,450.0,1.7105768507333583,[6800|0|0|0]
68,6801,1.3382885456085205,0.4350464940071106,0.9855021238327026,-0.1893998831510543,-0.6410084366798401,-0.2077068090438842,3.927734375,2,C1,6.1,90,450.0,1.7184038837064106,[6800|0|0|0]
69,6901,1.3358285427093506,0.4395008385181427,0.9554477334022522,-0.0310769155621528,-1.5397719144821167,0.3670364022254944,3.869140625,2,C1,6.1,90,450.0,1.7488859962223249,[6800|0|0|0]
70,7001,1.3337340354919434,0.4440453946590423,0.8852893710136414,0.2740098237991333,-1.4355895519256592,0.7960938811302185,3.779296875,2,C1,6.1,90,450.0,1.8192225853069055,[6800|0|0|0]
71,7101,1.3329477310180664,0.447532057762146,0.7790457606315613,0.515106201171875,-1.356165647506714,1.0413455963134766,3.6953125,2,C1,6.1,90,450.0,1.9255263003941,[6800|0|0|0]
72,7201,1.336670994758606,0.4447803795337677,0.6475595831871033,1.2867681980133057,-0.9477429389953612,1.0414141416549685,3.658203125,2,C1,6.1,90,450.0,2.057093960876871,[6800|0|0|0]
73,7301,1.3389766216278076,0.4484544992446899,0.5204336643218994,-0.7153803110122681,0.3962685465812683,-0.1480823010206222,3.630859375,2,C1,6.1,90,450.0,2.184293859926487,[6800|0|0|0]
74,7402,1.3432708978652954,0.4538463652133941,0.4012003242969513,-1.1278588771820068,-1.3407485485076904,-2.660353899002075,3.59375,2,C1,6.1,90,450.0,2.3037262776384853,[6800|0|0|0]
75,7501,1.3522504568099976,0.4648972451686859,0.2936828434467315,-3.611859798431397,-3.5163514614105225,-4.540024757385254,3.611328125,2,C1,6.1,90,450.0,2.41218255046309,[6800|0|0|0]
76,7602,1.3700175285339355,0.4832727909088135,0.2008567601442337,-1.519698977470398,-2.088056325912476,-4.3238301277160645,3.57421875,2,C1,6.1,90,450.0,2.50846344815403,[6800|0|0|0]
77,7702,1.394526720046997,0.5082800984382629,0.1265181452035904,2.4210305213928223,1.8775174617767327,-1.1974347829818726,3.552734375,2,C1,6.1,90,450.0,2.5906358009850745,[6800|0|0|0]
78,7800,1.415336847305298,0.5307886004447937,0.0715288966894149,5.526802062988281,7.169398307800293,0.865013837814331,3.583984375,2,C1,6.1,90,450.0,2.6535922264811145,[6800|0|0|0]
79,7900,1.4259932041168213,0.544086217880249,0.037518136203289,6.840904235839844,6.081952095031738,1.1659656763076782,3.58984375,2,C1,6.1,90,450.0,2.6916332096282263,[6800|0|0|0]
80,8002,1.4265793561935425,0.5472546815872192,0.0228223670274019,6.299920082092285,6.858794689178467,0.8302634954452515,3.615234375,2,C1,6.1,90,450.0,2.706678088098669,[6800|0|0|0]
81,8100,1.4190468788146973,0.5406875610351562,0.0223958510905504,5.309082984924316,4.928478717803955,-0.3177677094936371,3.65234375,2,C1,6.1,90,450.0,2.716680448002838,[6800|0|0|0]
82,8200,1.4026278257369995,0.527228593826294,0.0315507352352142,3.788551092147827,1.9581540822982788,-1.7892515659332275,3.673828125,2,C1,6.1,90,450.0,2.739800590865712,[6800|0|0|0]
83,8300,1.3836787939071655,0.5100910067558289,0.0436119101941585,1.2020530700683594,-0.312751442193985,-2.457944631576538,3.6796875,2,C1,6.1,90,450.0,2.76805363741429,[6800|0|0|0]
84,8400,1.366094946861267,0.4917476177215576,0.0543466359376907,1.1628422737121582,-2.8752949237823486,-2.4073760509490967,3.6796875,2,C1,6.1,90,450.0,2.7956381608828043,[6800|0|0|0]
85,8500,1.352476716041565,0.4737900495529175,0.0637256801128387,-0.0179805438965559,-2.21761441230774,0.236703023314476,3.6796875,2,C1,6.1,90,450.0,2.8200491611660663,[6800|0|0|0]
86,8600,1.3455219268798828,0.453944444656372,0.0722676143050193,-1.768161058425903,-3.103020429611206,1.0774725675582886,3.673828125,2,C1,6.1,90,450.0,2.842746777026257,[6800|0|0|0]
87,8700,1.344122290611267,0.4376313686370849,0.0762274637818336,-2.648106098175049,-3.094290256500244,1.0407629013061523,3.673828125,2,C1,6.1,90,450.0,2.859591830863348,[6800|0|0|0]
88,8800,1.3485499620437622,0.4270315170288086,0.0773207247257232,-3.3438663482666016,-0.4878464043140411,1.462945580482483,3.6640625,2,C1,6.1,90,450.0,2.8711311700092024,[6800|0|0|0]
89,8900,1.3533707857131958,0.4223472476005554,0.075901098549366,-1.642987608909607,0.0086066732183098,0.6413845419883728,3.658203125,2,C1,6.1,90,450.0,2.8780012543906954,[6800|0|0|0]
90,9000,1.3570057153701782,0.4206597506999969,0.0737737789750099,-2.376777410507202,1.5896856784820557,-1.5914989709854126,3.658203125,2,C1,6.1,90,450.0,2.8825384173778543,[6800|0|0|0]
91,9100,1.3574206829071045,0.4209313094615936,0.0707042887806892,0.3605474829673767,1.7808151245117188,-3.199540138244629,3.65234375,2,C1,6.1,90,450.0,2.885647711875121,[6800|0|0|0]
92,9200,1.3531569242477417,0.4215403199195862,0.068847432732582,-0.5259813070297241,1.4297816753387451,-4.178074359893799,3.658203125,2,C1,6.1,90,450.0,2.890337961977901,[6800|0|0|0]
93,9300,1.345023274421692,0.4223837852478027,0.0684935748577117,-1.0416690111160278,-0.6949518918991089,-5.59970760345459,3.6640625,2,C1,6.1,90,450.0,2.8985228815650634,[6800|0|0|0]
94,9400,1.3384225368499756,0.4232344329357147,0.0687613412737846,-0.1346660107374191,-0.912875771522522,-6.338667869567871,3.658203125,2,C1,6.1,90,450.0,2.9051835899983454,[6800|0|0|0]
95,9500,1.3331354856491089,0.4257390797138214,0.0685102567076683,-0.7056088447570801,-1.3589056730270386,-5.576435565948486,3.65234375,2,C1,6.1,90,450.0,2.9110392888757644,[6800|0|0|0]
96,9600,1.3306593894958496,0.4293029308319092,0.0690439939498901,0.8080949783325195,-1.2573084831237793,-4.677964687347412,3.658203125,2,C1,6.1,90,450.0,2.915411583741829,[6800|0|0|0]
97,9700,1.3312700986862185,0.4325911402702331,0.0686793327331543,0.5451749563217163,-0.8568231463432312,-4.362639427185059,3.65234375,2,C1,6.1,90,450.0,2.9187758466370965,[6800|0|0|0]
98,9800,1.334906816482544,0.4342337846755981,0.0674617514014244,1.6932562589645386,-2.0052318572998047,-3.907806396484375,3.642578125,2,B2,6.1,90,450.0,2.922947956567571,[6800|100|0|0]
99,9900,1.3394335508346558,0.4344173669815063,0.0661153942346572,0.7587568759918213,0.7749689221382141,-2.7185773849487305,3.65234375,2,B2,6.1,90,450.0,2.9276742345934745,[6800|200|0|0]
100,10000,1.3433812856674194,0.4321055114269256,0.0650032609701156,0.392782986164093,0.6597870588302612,-1.888514518737793,3.6484375,2,B2,6.1,90,450.0,2.9323823262252464,[6800|300|0|0]
101,10100,1.345407247543335,0.4304724931716919,0.0650091841816902,-0.994641661643982,0.4548174142837524,-1.0979684591293335,3.642578125,2,B2,6.1,90,450.0,2.934984499399542,[6800|400|0|0]
102,10200,1.3467262983322144,0.4300725162029266,0.0665553659200668,0.0305885709822177,0.462787389755249,1.1576323509216309,3.65234375,2,B2,6.1,90,450.0,2.9370558647770832,[6800|500|0|0]
103,10300,1.3483083248138428,0.4284764230251312,0.0701846182346344,0.0632070079445838,-0.4743504822254181,1.9993910789489744,3.658203125,2,B2,6.1,90,450.0,2.9413245640618277,[6800|600|0|0]
104,10400,1.353055119514465,0.4258517622947693,0.0745448097586631,-0.8877385258674622,-0.8216304183006287,0.9450879693031312,3.658203125,2,B2,6.1,90,450.0,2.948283886874111,[6800|700|0|0]
105,10500,1.3594399690628052,0.4262272715568542,0.0766927152872085,-0.4123785197734833,0.2424200475215912,0.2048234194517135,3.658203125,2,B2,6.1,90,450.0,2.955030797954036,[6800|800|0|0]
106,10600,1.3665266036987305,0.4277405738830566,0.0770376175642013,-0.9441696405410768,-0.5408903360366821,0.034142468124628,3.658203125,2,B2,6.1,90,450.0,2.962285412483717,[6800|900|0|0]
107,10700,1.3746678829193115,0.4323500990867615,0.0763196647167205,-0.3388127386569977,-1.049842119216919,0.6919916272163391,3.6484375,2,B2,6.1,90,450.0,2.971668567936029,[6800|1000|0|0]
108,10800,1.383894681930542,0.437488853931427,0.0744427219033241,-0.5468869805335999,-0.4575408399105072,1.188778281211853,3.6484375,2,B2,6.1,90,450.0,2.982395335187721,[6800|1100|0|0]
109,10900,1.3957042694091797,0.4457603693008423,0.0723711028695106,0.2076352536678314,-0.1256192028522491,1.294378638267517,3.6484375,2,B2,6.1,90,450.0,2.99696159511755,[6800|1200|0|0]
110,11000,1.4085285663604736,0.4554081559181213,0.0706584900617599,-0.3214718401432037,1.0002374649047852,1.504400372505188,3.63671875,2,B2,6.1,90,450.0,3.013100846077145,[6800|1300|0|0]
111,11100,1.4213320016860962,0.4673591256141662,0.0697826743125915,0.3416505455970764,0.4477610886096954,2.144873142242432,3.642578125,2,B2,6.1,90,450.0,3.0306371138111774,[6800|1400|0|0]
112,11200,1.4337037801742554,0.4866121411323547,0.0781825855374336,0.5683762431144714,0.7501586079597473,2.2186968326568604,3.6484375,2,B2,6.1,90,450.0,3.055015342173569,[6800|1500|0|0]
113,11300,1.4428263902664185,0.485938012599945,0.068562738597393,1.4712659120559692,-0.3208660185337066,2.3217475414276123,3.642578125,2,B2,6.1,90,450.0,3.0682900519376903,[6800|1600|0|0]
114,11400,1.4524149894714355,0.49100062251091,0.0660770311951637,0.4377133548259735,0.473970502614975,2.0393638610839844,3.626953125,2,B2,6.1,90,450.0,3.0794143494487494,[6800|1700|0|0]
115,11500,1.461319088935852,0.4979724586009979,0.0725560635328292,0.054189808666706,-0.2928931713104248,1.4655447006225586,3.6484375,2,B2,6.1,90,450.0,3.0924476662089524,[6800|1800|0|0]
116,11600,1.4686315059661863,0.5012869834899902,0.0788154676556587,-0.1404626369476318,0.1733421683311462,1.1291983127593994,3.6640625,2,B2,6.1,90,450.0,3.102627924459025,[6800|1900|0|0]
117,11700,1.4688224792480469,0.4916380941867828,0.0690443068742752,-1.123639464378357,1.113416314125061,1.403650164604187,4.015625,2,B2,6.1,90,450.0,3.1163615735952006,[6800|2000|0|0]
118,11800,1.4730448722839355,0.4958550333976745,0.0345749109983444,-7.770270347595215,3.35877537727356,-1.117863655090332,4.0234375,2,B2,6.1,90,450.0,3.151343718059334,[6800|2100|0|0]
119,11900,1.4731991291046145,0.5026582479476929,0.0,-3.473228454589844,-1.5848345756530762,-7.20348072052002,4.0234375,2,B2,6.1,90,450.0,3.1865819358622214,[6800|2200|0|0]
120,12000,1.473481059074402,0.5026605725288391,0.0,-2.2666847705841064,-0.672800600528717,-8.64120864868164,4.0234375,2,B2,6.1,90,450.0,3.1868638754152143,[6800|2300|0|0]
121,12100,1.4731253385543823,0.5031924843788147,0.0,-2.0431125164031982,-0.5456245541572571,-8.594934463500977,4.02734375,2,B2,6.1,90,450.0,3.1875037717384638,[6800|2400|0|0]
122,12200,1.47306227684021,0.5038794875144958,0.0,-1.7539397478103638,-0.4173197150230407,-8.570208549499512,4.02734375,2,B2,6.1,90,450.0,3.1881936630981933,[6800|2500|0|0]
123,12300,1.472954034805298,0.5037803649902344,0.0,-1.4694150686264038,-0.3187394440174103,-8.554633140563965,4.02734375,2,B2,6.1,90,450.0,3.188340433711525,[6800|2600|0|0]
124,12400,1.4729700088500977,0.5037656426429749,0.0,-1.2136509418487549,-0.2372699826955795,-8.518913269042969,4.03125,2,B2,6.1,90,450.0,3.188362157376411,[6800|2700|0|0]
125,12500,1.4731603860855105,0.5031997561454773,0.0,-0.9432460069656372,-0.1527014523744583,-8.487778663635254,4.03125,2,B2,6.1,90,450.0,3.188959209317044,[6800|2800|0|0]
126,12600,1.4728336334228516,0.5031528472900391,0.0,-0.7313817143440247,-0.0760929957032203,-8.4878568649292,4.03125,2,B2,6.1,90,450.0,3.1892893119424097,[6800|2900|0|0]
127,12700,1.4728541374206543,0.5029478669166565,0.0,-0.5465289950370789,-0.0526610650122165,-8.476944923400879,4.03125,2,B2,6.1,90,450.0,3.18949531526131,[6800|3000|0|0]
128,12800,1.4728189706802368,0.5027259588241577,0.0,-0.3796864151954651,-0.0014704861678183,-8.47819995880127,4.0390625,2,B2,6.1,90,450.0,3.189719992588043,[6800|3100|0|0]
129,12900,1.4728152751922607,0.5028253197669983,0.0,-0.2440945357084274,0.0412188656628131,-8.462482452392578,4.0390625,2,B2,6.1,90,450.0,3.1898194222294665,[6800|3200|0|0]
130,13000,1.4729809761047363,0.5028138160705566,0.0,-0.2140497863292694,0.0281567964702844,-8.439897537231445,4.0390625,2,B2,6.1,90,450.0,3.189985521980902,[6800|3300|0|0]
131,13100,1.472915530204773,0.5025285482406616,0.0,-0.0972513779997825,0.0785241201519966,-8.42990779876709,4.04296875,2,B2,6.1,90,450.0,3.190278200816138,[6800|3400|0|0]
132,13200,1.472942352294922,0.5024831295013428,0.0,0.0062231509946286,0.1273693889379501,-8.407733917236328,4.04296875,2,B2,6.1,90,450.0,3.190330948199024,[6800|3500|0|0]
133,13300,1.4729033708572388,0.5026979446411133,0.0,0.0734851509332656,0.1604683697223663,-8.41656494140625,4.04296875,2,B2,6.1,90,450.0,3.190549271575597,[6800|3600|0|0]
134,13400,1.4727774858474731,0.5020042061805725,0.0,0.151220366358757,0.1868906766176223,-8.421531677246094,4.04296875,2,B2,6.1,90,450.0,3.191254339010185,[6800|3700|0|0]
135,13500,1.4733247756958008,0.5017128586769104,0.0,0.1998004466295242,0.202955350279808,-8.419732093811035,4.04296875,2,B2,6.1,90,450.0,3.1918743467085027,[6800|3800|0|0]
136,13600,1.4728477001190186,0.5057075619697571,0.0,0.1693963408470153,0.1992091536521911,-8.347396850585938,4.04296875,2,B2,6.1,90,450.0,3.1958974370012805,[6800|3900|0|0]
137,13700,1.475555181503296,0.5088196992874146,0.0,0.0731509700417518,-0.1428309381008148,-8.190690994262695,4.04296875,2,B2,6.1,90,450.0,3.2000224647745403,[6800|4000|0|0]
138,13800,1.483205795288086,0.5164744853973389,0.0,-0.0372894406318664,-0.0143556464463472,-10.285163879394531,4.04296875,2,B2,6.1,90,450.0,3.210845017230995,[6800|4100|0|0]
139,13900,1.4788633584976196,0.5182971358299255,0.0005587353371083,4.291416645050049,4.769320487976074,-11.777981758117676,4.046875,2,B2,6.1,90,450.0,3.2155874846326262,[6800|4200|0|0]
140,14000,1.4424711465835571,0.5306560397148132,0.0438324809074401,13.463438034057615,-0.1458998620510101,-15.500896453857422,4.046875,2,B2,6.1,90,450.0,3.27346453231925,[6800|4300|0|0]
141,14100,1.3628257513046265,0.539078950881958,0.0648861601948738,9.69018840789795,-10.149663925170898,-12.36092472076416,4.046875,2,B2,6.1,90,450.0,3.3562751103464854,[6800|4400|0|0]
142,14200,1.3277249336242676,0.5457691550254822,0.0471402332186698,8.269615173339844,-7.74376916885376,-11.243921279907228,4.046875,2,B2,6.1,90,450.0,3.3961717788484616,[6800|4500|0|0]
143,14300,1.3251841068267822,0.55999356508255,0.0349879190325737,1.4601138830184937,1.6226152181625366,-14.935056686401367,4.046875,2,B2,6.1,90,450.0,3.415052149140488,[6800|4600|0|0]
144,14400,1.3262733221054075,0.5732520818710327,0.0422205254435539,-1.1188390254974363,2.6177096366882324,-15.912158012390137,4.046875,2,B2,6.1,90,450.0,3.430194317177127,[6800|4700|0|0]
145,14500,1.3288642168045044,0.5827083587646484,0.047508630901575,-3.642712116241455,-2.28214693069458,-16.323911666870117,4.046875,2,B2,6.1,90,450.0,3.441334243898865,[6800|4800|0|0]
146,14600,1.3177944421768188,0.5192067623138428,0.0,-2.8615810871124268,-2.0133955478668213,-19.75371551513672,4.046875,2,B2,6.1,90,450.0,3.521409600109442,[6800|4900|0|0]
147,14700,1.3147356510162354,0.5167014002799988,0.0,-2.864819288253784,-1.7079746723175049,-23.19745445251465,4.046875,2,B2,6.1,90,450.0,3.525363464331275,[6800|5000|0|0]
148,14800,1.3148186206817627,0.5170714855194092,0.0,-2.90236759185791,-1.7181196212768557,-21.58802032470703,4.0546875,2,B2,6.1,90,450.0,3.525742736067405,[6800|5100|0|0]
149,14900,1.3148207664489746,0.5168991684913635,0.0,-2.917292594909668,-1.744942307472229,-20.574949264526367,4.0546875,2,B2,6.1,90,450.0,3.52591506645495,[6800|5200|0|0]
150,15000,1.314685583114624,0.5171653628349304,0.0,-2.9471898078918457,-1.78359854221344,-19.904211044311523,4.0546875,2,B2,6.1,90,450.0,3.526213619569878,[6800|5300|0|0]
151,15100,1.3143938779830933,0.5175420641899109,0.0,-2.9308876991271973,-1.8052549362182613,-19.39798355102539,4.0546875,2,B2,6.1,90,450.0,3.5266900603265365,[6800|5400|0|0]
152,15200,1.314496994018555,0.5176424980163574,0.0,-2.910832405090332,-1.83431363105774,-19.12528419494629,4.0546875,2,B2,6.1,90,450.0,3.526834004309613,[6800|5500|0|0]
153,15300,1.3150817155838013,0.5176369547843933,0.0,-2.817280530929565,-1.9770512580871584,-18.849077224731445,4.1328125,2,B2,6.1,90,450.0,3.5274187521495275,[6800|5600|0|0]
154,15400,1.3150455951690674,0.5170377492904663,0.0,-2.842839241027832,-2.1602182388305664,-18.654504776000977,4.1328125,2,B2,6.1,90,450.0,3.5280190453348235,[6800|5700|0|0]
155,15500,1.3161979913711548,0.5172178149223328,0.0,-2.9055447578430176,-2.167520761489868,-18.50678443908692,4.1328125,2,B2,6.1,90,450.0,3.529185424620633,[6800|5800|0|0]
156,15600,1.3160995244979858,0.5170217156410217,0.0,-2.852872371673584,-2.169732093811035,-18.34751510620117,4.1328125,2,B2,6.1,90,450.0,3.5294048571916936,[6800|5900|0|0]
157,15700,1.3198333978652954,0.5248680710792542,0.0,-3.0304923057556152,-2.25974702835083,-18.161664962768555,4.1328125,2,B2,6.1,90,450.0,3.5380943395690383,[6800|6000|0|0]
158,15800,1.3159993886947632,0.5170484781265259,0.0,-2.768795728683472,-2.201467990875244,-18.057252883911133,4.13671875,2,B2,6.1,90,450.0,3.5468032809665955,[6800|6100|0|0]
159,15900,1.3160566091537476,0.5172136425971985,0.0,-2.7715768814086914,-2.1757795810699463,-18.002534866333008,4.13671875,2,B2,6.1,90,450.0,3.5469780765137324,[6800|6200|0|0]
160,16000,1.316171646118164,0.517507791519165,0.0,-2.778492450714112,-2.169064521789551,-17.941452026367188,4.13671875,2,B2,6.1,90,450.0,3.5472939199741305,[6800|6300|0|0]
161,16100,1.3163814544677734,0.517577588558197,0.0,-2.798958778381348,-2.092448234558105,-17.87684440612793,4.13671875,2,B2,6.1,90,450.0,3.547515033452289,[6800|6400|0|0]
162,16200,1.3161505460739136,0.5177028179168701,0.0,-2.7744710445404053,-2.08890438079834,-17.779306411743164,4.13671875,2,B2,6.1,90,450.0,3.547777714016147,[6800|6500|0|0]
163,16300,1.3162004947662354,0.5176663398742676,0.0,-2.767401218414306,-2.0951790809631348,-17.73786163330078,4.13671875,2,B2,6.1,90,450.0,3.547839564799948,[6800|6600|0|0]
164,16400,1.3161965608596802,0.5176126956939697,0.0,-2.7504358291625977,-2.091201066970825,-17.712818145751953,4.14453125,2,B2,6.1,90,450.0,3.5478933530300787,[6800|6700|0|0]
165,16500,1.316134333610535,0.5177243947982788,0.0,-2.753813028335572,-2.0890746116638184,-17.68162727355957,4.14453125,2,B2,6.1,90,450.0,3.54802121592712,[6800|6800|0|0]
166,16600,1.3160104751586914,0.5174394249916077,0.0,-2.7399275302886963,-2.097721576690674,-17.645740509033203,4.14453125,2,B2,6.1,90,450.0,3.54833193880495,[6800|6900|0|0]
167,16700,1.3159948587417605,0.5176010727882385,0.0,-2.716308355331421,-2.0880188941955566,-17.621559143066406,4.14453125,2,B2,6.1,90,450.0,3.5484943391825152,[6800|7000|0|0]
168,16800,1.3154475688934326,0.5178481936454773,0.0,-2.6813559532165527,-2.049425840377808,-17.64838981628418,4.14453125,2,B2,6.1,90,450.0,3.5490948347246847,[6800|7100|0|0]
169,16900,1.31541645526886,0.5178278088569641,0.0,-2.667736530303955,-2.034259796142578,-17.67852020263672,4.14453125,2,B2,6.1,90,450.0,3.549132031461595,[6800|7200|0|0]
170,17000,1.3162530660629272,0.5174319744110107,0.0,-2.650529623031616,-2.0400710105896,-17.709218978881836,4.14453125,2,B2,6.1,90,450.0,3.5500575597050066,[6800|7300|0|0]
171,17100,1.3161683082580566,0.5173697471618652,0.0,-2.632820606231689,-2.026756763458252,-17.71021842956543,4.14453125,2,B2,6.1,90,450.0,3.550162707772144,[6800|7400|0|0]
172,17200,1.3161016702651978,0.5175345540046692,0.0,-2.6295816898345947,-2.020761489868164,-17.69698715209961,4.14453125,2,B2,6.1,90,450.0,3.550340477053876,[6800|7500|0|0]
173,17300,1.3162550926208496,0.517314612865448,0.0,-2.6243605613708496,-2.0300538539886475,-17.69265365600586,4.1484375,2,B2,6.1,90,450.0,3.550608642159614,[6800|7600|0|0]
174,17400,1.3162931203842163,0.5176661610603333,0.0,-2.739251136779785,-2.064751386642456,-17.699020385742188,4.1484375,2,B2,6.1,90,450.0,3.55096224114733,[6800|7700|0|0]
175,17500,1.3163715600967407,0.5175155997276306,0.0,-2.709879159927368,-2.0498971939086914,-17.718013763427734,4.1484375,2,B2,6.1,90,450.0,3.551132010118011,[6800|7800|0|0]
176,17600,1.316324234008789,0.5174791216850281,0.0,-2.6920061111450195,-2.040074586868286,-17.727266311645508,4.1484375,2,B2,6.1,90,450.0,3.551191762994033,[6800|7900|0|0]
177,17700,1.3161897659301758,0.5174400806427002,0.0,-2.677373170852661,-2.03031849861145,-17.74620819091797,4.1484375,2,B2,6.1,90,450.0,3.5513317839465794,[6800|8000|0|0]
178,17800,1.3162875175476074,0.5176420211791992,0.0,-2.6682662963867188,-2.027815580368042,-17.747745513916016,4.1484375,2,B2,6.1,90,450.0,3.5515561393766277,[6800|8100|0|0]
179,17900,1.3162078857421875,0.5173621773719788,0.0,-2.660450220108032,-2.028388023376465,-17.74883270263672,4.1484375,2,B2,6.1,90,450.0,3.551847092604611,[6800|8200|0|0]
180,18000,1.316150426864624,0.5176300406455994,0.0,-2.6660852432250977,-2.0222842693328857,-17.761415481567383,4.1484375,2,B2,6.1,90,450.0,3.552121049272655,[6800|8300|0|0]
181,18100,1.3164334297180176,0.5175760984420776,0.0,-2.66402268409729,-2.026926755905152,-17.75293731689453,4.1484375,2,B2,6.1,90,450.0,3.552409147131636,[6800|8400|0|0]
182,18200,1.316195011138916,0.5175709128379822,0.0,-2.6543455123901367,-2.025470733642578,-17.734140396118164,4.15234375,2,B2,6.1,90,450.0,3.5526476220975143,[6800|8500|0|0]
183,18300,1.315682291984558,0.5174683928489685,0.0,-2.72489070892334,-2.032276630401612,-17.746028900146484,4.15234375,2,B2,6.1,90,450.0,3.5531704904168766,[6800|8600|0|0]
184,18400,1.3157843351364136,0.5174078941345215,0.0,-2.697324275970459,-2.032895803451538,-17.74623680114746,4.15234375,2,B2,6.1,90,450.0,3.553289119668288,[6800|8700|0|0]
185,18500,1.316372036933899,0.5175632238388062,0.0,-2.673839569091797,-2.026761293411255,-17.755281448364258,4.15234375,2,B2,6.1,90,450.0,3.5538970018277567,[6800|8800|0|0]
186,18600,1.3160622119903564,0.5175321698188782,0.0,-2.650631904602051,-2.00474500656128,-17.759679794311523,4.15234375,2,B2,6.1,90,450.0,3.554208379167643,[6800|8900|0|0]
187,18700,1.3162975311279297,0.5173253417015076,0.0,-2.630603790283203,-2.005144596099853,-17.75143814086914,4.15234375,2,B2,6.1,90,450.0,3.554521672906239,[6800|9000|0|0]
188,18800,1.3162633180618286,0.5172196626663208,0.0,-2.6168882846832275,-2.000566244125366,-17.767349243164062,4.15234375,2,B2,6.1,90,450.0,3.554632752122882,[6800|9100|0|0]
189,18900,1.3161619901657104,0.517332911491394,0.0,-2.610564708709717,-1.9978464841842647,-17.761140823364258,4.15234375,2,B2,6.1,90,450.0,3.554784714746287,[6800|9200|0|0]
190,19000,1.3162164688110352,0.5176446437835693,0.0,-2.6109721660614014,-1.9985435009002688,-17.757278442382812,4.15234375,2,B2,6.1,90,450.0,3.555101171607141,[6800|9300|0|0]
191,19100,1.3160769939422607,0.5177655220031738,0.0,-2.604579448699951,-2.0014307498931885,-17.76913833618164,4.15234375,2,B2,6.1,90,450.0,3.5552857380802454,[6800|9400|0|0]
192,19200,1.3164819478988647,0.5172799825668335,0.0,-2.7026255130767822,-2.061326026916504,-17.755657196044922,4.15234375,2,B2,6.1,90,450.0,3.55591798506617,[6800|9500|0|0]
193,19300,1.3163310289382937,0.5175299644470215,0.0,-2.687227487564087,-2.0437514781951904,-17.750165939331055,4.15234375,2,B2,6.1,90,450.0,3.556209991013168,[6800|9600|0|0]
194,19400,1.3160295486450195,0.5174782872200012,0.0,-2.6708664894104004,-2.0313720703125,-17.748153686523438,4.16015625,2,B2,6.1,90,450.0,3.55651586828108,[6800|9700|0|0]
195,19500,1.3162665367126465,0.5174458622932434,0.0,-2.660217523574829,-2.0370032787323,-17.737497329711914,4.16015625,2,B2,6.1,90,450.0,3.5567550642678203,[6800|9800|0|0]
196,19600,1.3162086009979248,0.517219066619873,0.0,-2.65183687210083,-2.031426191329956,-17.74919891357422,4.16015625,2,B2,6.1,90,450.0,3.556989142939424,[6800|9900|0|0]
197,19700,1.316260576248169,0.5176756978034973,0.0,-2.6584227085113525,-2.02540135383606,-17.760629653930664,4.16015625,2,B2,6.1,90,450.0,3.557448722600088,[6800|10000|0|0]
198,19800,1.3161814212799072,0.5175707340240479,0.0,-2.649475812911988,-2.032711982727051,-17.861522674560547,3.2890625,2,C1,6.1,90,450.0,3.5575801870591515,[6800|10000|0|0]
199,19900,1.3168545961380005,0.5187733173370361,0.0,-1.8731067180633545,-2.052242517471313,-17.2674560546875,3.48828125,2,C1,6.1,90,450.0,3.558958363758362,[6800|10000|0|0]
200,20000,1.3203752040863037,0.5190520286560059,0.0032805176451802,2.2766032218933105,-2.5070629119873047,-16.69423484802246,3.611328125,2,C1,6.1,90,450.0,3.5637785459484164,[6800|10000|0|0]
201,20100,1.3272465467453003,0.5193893313407898,0.0424585714936256,-2.805781602859497,-4.698026180267334,-15.1350679397583,3.6796875,2,C1,6.1,90,450.0,3.603556039916616,[6800|10000|0|0]
202,20200,1.3460685014724731,0.5282681584358215,0.0945370122790336,-0.5969099402427673,-3.266733407974243,-12.311259269714355,3.62109375,2,C1,6.1,90,450.0,3.659638689149463,[6800|10000|0|0]
203,20300,1.3752772808074951,0.5431957244873047,0.1566162854433059,4.961989879608154,4.445162296295166,-8.392088890075684,3.642578125,2,C1,6.1,90,450.0,3.72985137443544,[6800|10000|0|0]
204,20400,1.400153875350952,0.5566703081130981,0.2291730493307113,8.541523933410645,7.136911392211914,-4.72517204284668,3.65234375,2,C1,6.1,90,450.0,3.807728799571231,[6800|10000|0|0]
205,20500,1.4120347499847412,0.5602819919586182,0.3099550902843475,8.008166313171387,8.203695297241211,-1.4587538242340088,3.6640625,2,C1,6.1,90,450.0,3.889459684693679,[6800|10000|0|0]
206,20600,1.4103068113327026,0.551405668258667,0.3966024816036224,5.326723098754883,6.295538425445557,1.045444369316101,3.673828125,2,C1,6.1,90,450.0,3.97657768120902,[6800|10000|0|0]
207,20700,1.3931339979171753,0.5371205806732178,0.4907644689083099,3.204026222229004,3.305470466613769,2.2455384731292725,3.66796875,2,C1,6.1,90,450.0,4.073352931666442,[6800|10000|0|0]
208,20800,1.3757907152175903,0.5164685249328613,0.5820646286010742,0.653344452381134,-0.1981438100337982,2.5091092586517334,3.68359375,2,C1,6.1,90,450.0,4.168552805726362,[6800|10000|0|0]
209,20900,1.3614336252212524,0.4991766512393951,0.6643721461296082,-0.5475850105285645,-2.3434319496154785,2.7045509815216064,3.7265625,2,C1,6.1,90,450.0,4.253873743196034,[6800|10000|0|0]
210,21000,1.3494242429733276,0.4815176427364349,0.7509157061576843,-1.923365592956543,-3.341972827911377,2.395982265472412,3.748046875,2,C1,6.1,90,450.0,4.343013260951167,[6800|10000|0|0]
211,21100,1.3435981273651123,0.4686820805072784,0.8257940411567688,-2.2287960052490234,-3.2422194480896,2.750645875930786,3.748046875,2,C1,6.1,90,450.0,4.4192068324191975,[6800|10000|0|0]
212,21200,1.3446086645126345,0.455750972032547,0.8890384435653687,-1.1703834533691406,-2.634306192398072,3.2792844772338867,3.7421875,2,C1,6.1,90,450.0,4.483767572716476,[6800|10000|0|0]
213,21300,1.3467587232589722,0.44949471950531,0.9336773157119752,-1.408009648323059,-0.9906838536262512,4.253774642944336,3.720703125,2,C1,6.1,90,450.0,4.528893976903142,[6800|10000|0|0]
214,21400,1.3509650230407717,0.4468780159950256,0.9673588275909424,-0.9562061429023744,-0.3440517783164978,3.0985026359558105,3.7109375,2,C1,6.1,90,450.0,4.562937835931874,[6800|10000|0|0]
215,21500,1.3539351224899292,0.4419000446796417,0.9898821711540222,-1.0049113035202026,0.5370965600013733,2.4416844844818115,3.705078125,2,C1,6.1,90,450.0,4.586195150790111,[6800|10000|0|0]
216,21600,1.356780171394348,0.4386761486530304,1.0072963237762451,-0.4785163104534149,0.9291427135467528,2.008955478668213,3.6953125,2,C1,6.1,90,450.0,4.604132277661742,[6800|10000|0|0]
217,21700,1.358305811882019,0.4362833499908447,1.020923733711243,-0.6600319147109985,1.0527799129486084,1.7462284564971924,3.689453125,2,C1,6.1,90,450.0,4.618052024996801,[6800|10000|0|0]
218,21800,1.3571215867996216,0.4333605468273163,1.0291789770126345,-0.8663179278373718,0.781484842300415,1.773112177848816,3.689453125,2,C1,6.1,90,450.0,4.626889117807431,[6800|10000|0|0]
219,21900,1.353968620300293,0.4301070868968963,1.0337393283843994,-0.777396023273468,0.8456048369407654,1.7580437660217283,3.6796875,2,C1,6.1,90,450.0,4.633317414930207,[6800|10000|0|0]
220,22000,1.348995804786682,0.4276873171329498,1.0366270542144775,-0.9098644852638244,0.2156504541635513,1.5810797214508057,3.673828125,2,C1,6.1,90,450.0,4.639556256193825,[6800|10000|0|0]
221,22100,1.3444021940231323,0.4267062842845917,1.0386234521865845,-1.0379040241241455,-0.4003801941871643,1.3890962600708008,3.673828125,2,C1,6.1,90,450.0,4.644660106716675,[6800|10000|0|0]
222,22200,1.3403149843215942,0.4259359836578369,1.0407118797302246,-1.1335512399673462,-1.0783954858779907,1.1065391302108765,3.66796875,2,C1,6.1,90,450.0,4.649314156115312,[6800|10000|0|0]
223,22300,1.3384015560150146,0.4259890913963318,1.040220856666565,-0.9570963382720948,-1.39414644241333,0.9644200801849364,3.66796875,2,C1,6.1,90,450.0,4.6512902967897976,[6800|10000|0|0]
224,22400,1.3398089408874512,0.4289311468601227,1.0412383079528809,-0.7877058386802673,-1.0914270877838137,1.048735499382019,3.6640625,2,C1,6.1,90,450.0,4.654706673474417,[6800|10000|0|0]
225,22500,1.341972589492798,0.4320778548717499,1.0404188632965088,-0.4567519724369049,-0.5533630847930908,1.0339537858963013,3.658203125,2,C1,6.1,90,450.0,4.65861239186451,[6800|10000|0|0]
226,22600,1.3460599184036257,0.4347166717052459,1.0398271083831787,-0.2184337377548217,0.0789028853178024,0.8538578748703003,3.65234375,2,C1,6.1,90,450.0,4.66351339031212,[6800|10000|0|0]
227,22701,1.3504756689071655,0.4370122253894806,1.039299726486206,-0.1059724017977714,0.3833532035350799,0.6159672737121582,3.6484375,2,C1,6.1,90,450.0,4.668518043236347,[6800|10000|0|0]
228,22800,1.3552671670913696,0.4381783008575439,1.0378384590148926,0.2107150256633758,0.785211443901062,0.8276722431182861,3.435546875,2,C1,6.1,90,183.0,4.673661338820811,[6800|10000|0|0]
229,22900,1.3586593866348269,0.4387926757335663,1.0443522930145264,5.88171911239624,3.5589640140533447,0.6447756886482239,3.330078125,2,C1,6.1,90,183.0,4.681031185718412,[6800|10000|0|0]
230,23001,1.3539793491363523,0.4236852824687958,1.0718084573745728,14.220026016235352,8.1801176071167,-0.0663410797715187,3.453125,2,C1,6.1,90,183.0,4.71271678250322,[6800|10000|0|0]
231,23101,1.3359166383743286,0.3785404860973358,1.1225745677947998,16.95865249633789,4.726840496063232,3.381936550140381,3.447265625,2,C1,6.1,90,183.0,4.783012672331088,[6800|10000|0|0]
232,23201,1.3132123947143557,0.2986919283866882,1.1942099332809448,13.146647453308104,-0.4430471360683441,10.837204933166504,3.541015625,2,C1,6.1,90,183.0,4.892661659727122,[6800|10000|0|0]
233,23302,1.295807719230652,0.2005593329668045,1.2802025079727173,7.309752464294434,-4.488801956176758,6.842292308807373,3.521484375,2,C1,6.1,90,183.0,5.024296198943301,[6800|10000|0|0]
234,23401,1.2961934804916382,0.0834745168685913,1.3728110790252686,3.867000102996826,-4.935717582702637,13.748931884765623,3.552734375,2,C1,6.1,90,183.0,5.173578985643236,[6800|10000|0|0]
235,23501,1.3001798391342163,-0.0218937136232852,1.447418212890625,-3.9496002197265625,-2.5779342651367188,13.980737686157228,3.546875,2,C1,6.1,90,183.0,5.302747787897571,[6800|10000|0|0]
236,23602,1.3094186782836914,-0.1185624375939369,1.508023023605347,-8.302095413208008,-1.0860852003097534,11.892542839050291,3.568359375,2,C1,6.1,90,183.0,5.417216741875107,[6800|10000|0|0]
237,23702,1.32595694065094,-0.2029111683368683,1.5528103113174438,-10.50886058807373,2.737780332565308,2.7816903591156006,3.546875,2,C1,6.1,90,183.0,5.514140029276421,[6800|10000|0|0]
238,23801,1.3473851680755615,-0.2679955661296844,1.582121968269348,-11.0383939743042,4.297084808349609,-1.9379198551177976,3.505859375,2,C1,6.1,90,183.0,5.588667346415044,[6800|10000|0|0]
239,23901,1.3685877323150637,-0.313419908285141,1.5976706743240356,-10.582871437072754,5.7755537033081055,-3.3210878372192383,3.484375,2,C1,6.1,90,183.0,5.641152409533624,[6800|10000|0|0]
240,24002,1.3903203010559082,-0.3402832150459289,1.603286862373352,-8.39837646484375,6.504213809967041,-3.5758402347564697,3.47265625,2,C1,6.1,90,183.0,5.6761593140298086,[6800|10000|0|0]
241,24102,1.4086002111434937,-0.3515116572380066,1.6039093732833862,-5.659648418426514,7.007284641265869,-3.1819067001342773,3.46875,2,C1,6.1,90,183.0,5.6976213863133545,[6800|10000|0|0]
242,24200,1.4201308488845823,-0.3524372279644012,1.6028248071670532,-2.941032648086548,7.1216888427734375,-2.0810203552246094,3.462890625,2,C1,6.1,90,183.0,5.7092398445392325,[6800|10000|0|0]
243,24302,1.4241957664489746,-0.3492569625377655,1.6029877662658691,-0.6267433166503906,6.257560729980469,-1.292546272277832,3.478515625,2,C1,6.1,90,183.0,5.714403583364643,[6800|10000|0|0]
244,24402,1.4206231832504272,-0.3431285321712494,1.6037086248397827,1.0195895433425903,5.498658657073975,-1.1400518417358398,3.484375,2,C1,6.1,90,183.0,5.721533846091314,[6800|10000|0|0]
245,24502,1.4110593795776367,-0.3385497629642486,1.6066526174545288,1.6082042455673218,4.203863143920898,-0.9373125433921814,3.494140625,2,C1,6.1,90,183.0,5.732538325209307,[6800|10000|0|0]
246,24600,1.3929752111434937,-0.3401767015457153,1.6048651933670044,1.5985190868377686,2.396777391433716,-0.744449257850647,3.48828125,2,C1,6.1,90,183.0,5.75078329607722,[6800|10000|0|0]
247,24700,1.372125267982483,-0.3436269462108612,1.6046725511550903,1.468591570854187,1.1892584562301636,-0.7198347449302673,3.494140625,2,C1,6.1,90,183.0,5.771917662145039,[6800|10000|0|0]
248,24800,1.35377836227417,-0.3477078080177307,1.6069709062576294,0.1512389481067657,-0.4996729791164398,-0.4185220897197723,3.478515625,2,C1,6.1,90,183.0,5.790852941871884,[6800|10000|0|0]
249,24900,1.3348160982131958,-0.3525559306144714,1.6058262586593628,-0.3220062255859375,-1.220475673675537,-0.3130815327167511,3.478515625,2,C1,6.1,90,183.0,5.810458603532623,[6800|10000|0|0]
250,25000,1.32380211353302,-0.3560003638267517,1.6111831665039062,-0.7016697525978088,-2.173246622085572,-0.5280666351318359,3.494140625,2,C1,6.1,90,183.0,5.82318135639291,[6800|10000|0|0]
251,25100,1.3111777305603027,-0.3583202064037323,1.608999490737915,-0.595343828201294,-1.581620454788208,-0.3581211268901825,3.48828125,2,C1,6.1,90,183.0,5.836201538990507,[6800|10000|0|0]
252,25200,1.305579662322998,-0.3587678968906402,1.6100248098373413,-0.4925138056278229,-1.5572293996810913,-0.6977375149726868,3.48828125,2,C1,6.1,90,183.0,5.841910310663751,[6800|10000|0|0]
253,25300,1.2999695539474487,-0.3600804507732391,1.6058465242385864,-0.0208743456751108,-1.1869478225708008,-0.7764933109283447,3.478515625,2,C1,6.1,90,183.0,5.849027485961922,[6800|10000|0|0]
254,25400,1.2974284887313845,-0.3613400161266327,1.6013120412826538,0.1272651851177215,-0.5837599039077759,-0.6678423881530762,3.48828125,2,C1,6.1,90,183.0,5.854375855151629,[6800|10000|0|0]
255,25500,1.2968814373016355,-0.3636927604675293,1.5978379249572754,0.2072008997201919,-0.4385705590248108,-0.8895150423049927,3.48828125,2,C1,6.1,90,183.0,5.858607185373045,[6800|10000|0|0]
256,25600,1.2998746633529663,-0.3642686903476715,1.5982764959335327,-0.2733612656593323,-0.1773376166820526,-1.0331697463989258,3.5,2,C1,6.1,90,183.0,5.861686705128205,[6800|10000|0|0]
257,25700,1.2976739406585691,-0.3668706715106964,1.5926517248153689,-0.3364977836608886,0.3046134412288666,-0.7009535431861877,3.505859375,2,C1,6.1,90,183.0,5.868263295162722,[6800|10000|0|0]
258,25800,1.2991007566452026,-0.3677355051040649,1.5920536518096924,-0.6353465914726257,0.0423391200602054,-0.4921188950538635,3.494140625,2,C1,6.1,90,450.0,5.8700357037849225,[6800|10000|0|0]
259,25900,1.2974982261657717,-0.3713305592536926,1.5803003311157229,-0.3489647209644317,0.0880883187055587,-0.342121422290802,3.84375,2,C1,6.1,90,450.0,5.882430584406031,[6800|10000|0|0]
260,26000,1.2992193698883057,-0.3717314302921295,1.5368614196777344,-0.4471150934696197,0.0464556217193603,-0.7697792053222656,3.736328125,2,C1,6.1,90,450.0,5.925905428399086,[6800|10000|0|0]
261,26100,1.2977389097213743,-0.3723541796207428,1.4539570808410645,-0.8405174612998962,0.4846040308475494,2.095571994781494,3.57421875,2,C1,6.1,90,450.0,6.008825323339791,[6800|10000|0|0]
262,26200,1.2949516773223877,-0.3717048168182373,1.3442760705947876,-0.9604986906051636,0.7798212170600891,3.171730756759644,3.48828125,2,C1,6.1,90,450.0,6.118543664309472,[6800|10000|0|0]
263,26300,1.2919325828552246,-0.3709582984447479,1.2223522663116455,-0.3816379606723785,-0.1498973071575164,5.204856872558594,3.45703125,2,C1,6.1,90,450.0,6.240507127166008,[6800|10000|0|0]
264,26400,1.290258526802063,-0.3708276152610779,1.1017121076583862,-0.8077404499053955,0.2383735924959182,7.0872297286987305,3.47265625,2,C1,6.1,90,450.0,6.36115897100458,[6800|10000|0|0]
265,26500,1.28912615776062,-0.3679902255535126,0.9816206097602844,0.4875077605247497,0.0318551547825336,8.946104049682617,3.48828125,2,C1,6.1,90,450.0,6.481289320656149,[6800|10000|0|0]
266,26600,1.284360408782959,-0.3613668978214264,0.8568724393844604,0.4765315353870392,-1.7152228355407717,8.042866706848145,3.48828125,2,C1,6.1,90,450.0,6.606304067169032,[6800|10000|0|0]
267,26700,1.2867895364761353,-0.3569560050964355,0.737008273601532,-0.5837820768356323,0.7355848550796509,4.16090202331543,3.46875,2,C1,6.1,90,450.0,6.72627395870361,[6800|10000|0|0]
268,26800,1.2903205156326294,-0.3502659499645233,0.6202325224876404,-1.9161179065704343,-1.3947365283966064,1.2068558931350708,3.5,2,C1,6.1,90,450.0,6.843294472715834,[6800|10000|0|0]
269,26900,1.2951650619506836,-0.3415456712245941,0.504201352596283,0.1930591613054275,-0.7106590270996094,1.957345962524414,3.494140625,2,C1,6.1,90,450.0,6.959753672767556,[6800|10000|0|0]
270,27000,1.302390456199646,-0.3340063393115997,0.4011775553226471,1.6803297996520996,-0.3556216359138489,2.785534381866455,3.462890625,2,C1,6.1,90,450.0,7.063305353837572,[6800|10000|0|0]
271,27100,1.3101879358291626,-0.3280105292797088,0.2897484302520752,1.7370778322219849,1.2395180463790894,1.7733347415924072,3.388671875,2,C1,6.1,90,450.0,7.175167770852871,[6800|10000|0|0]
272,27200,1.3158622980117798,-0.3249325156211853,0.1768520325422287,0.8506365418434143,0.2620420157909393,0.4385493099689483,3.36328125,2,C1,6.1,90,450.0,7.288248578995196,[6800|10000|0|0]
273,27300,1.3228906393051147,-0.3224542438983917,0.0982590764760971,0.4651956260204315,-0.6007536053657532,-0.0486973263323307,3.36328125,2,C1,6.1,90,450.0,7.367194080167083,[6800|10000|0|0]
274,27400,1.3329983949661257,-0.3182588517665863,0.0283307917416095,-1.3629915714263916,-2.0906102657318115,-0.5983533263206482,3.37890625,2,C1,6.1,90,450.0,7.437973547850515,[6800|10000|0|0]
275,27500,1.3481074571609497,-0.3121406137943268,0.0048036086373031,0.4614192247390747,0.3098922371864319,-1.6308681964874268,3.55859375,2,C1,6.1,90,450.0,7.466596003040729,[6800|10000|0|0]
276,27600,1.3575990200042725,-0.3078783452510834,0.0289278589189052,2.053359270095825,4.719264984130859,-1.8970917463302608,3.705078125,2,C1,6.1,90,450.0,7.492868348767611,[6800|10000|0|0]
277,27700,1.364428162574768,-0.3067969977855682,0.0431044809520244,5.968784809112549,3.313010931015014,-1.5591660737991333,3.673828125,2,C1,6.1,90,450.0,7.508641208776476,[6800|10000|0|0]
278,27800,1.3677971363067627,-0.3118333518505096,0.0356973111629486,2.368373394012451,3.57566785812378,-2.0164954662323,3.5625,2,C1,6.1,90,450.0,7.5182110055642095,[6800|10000|0|0]
279,27900,1.3671598434448242,-0.3212940394878387,0.0140143483877182,1.44607412815094,1.768213987350464,-1.7588595151901243,3.494140625,2,C1,6.1,90,450.0,7.541876626778854,[6800|10000|0|0]
280,28000,1.361977219581604,-0.3272314965724945,0.0015694345347583,-5.936913967132568,-2.281023025512696,4.353789329528809,3.453125,2,C1,6.1,90,450.0,7.556607168776599,[6800|10000|0|0]
281,28100,1.3577067852020264,-0.3173949420452118,0.0062293740920722,-3.839051961898804,-3.1016767024993896,6.558035373687744,3.630859375,2,C1,6.1,90,450.0,7.568299450480198,[6800|10000|0|0]
282,28200,1.356442093849182,-0.3054125308990478,0.007194347679615,3.046622037887573,0.8395205140113831,4.456155300140381,3.62109375,2,C1,6.1,90,450.0,7.580386997589447,[6800|10000|0|0]
283,28300,1.3563965559005735,-0.2984385192394256,0.0013876971788704,1.3934322595596311,1.719815373420715,2.2165355682373047,3.583984375,2,C1,6.1,90,450.0,7.589462023890848,[6800|10000|0|0]
284,28400,1.3544669151306152,-0.2968402206897735,0.0037698345258831,3.709636926651001,0.7491807341575623,0.8487277030944824,3.630859375,2,C1,6.1,90,450.0,7.592919284380735,[6800|10000|0|0]
285,28500,1.351592779159546,-0.3019542396068573,0.0017461796524003,2.660433292388916,-0.3397928774356842,0.4714620113372803,3.611328125,2,C1,6.1,90,450.0,7.599124848505894,[6800|10000|0|0]
286,28600,1.3475035429000854,-0.3103501498699188,0.0,-0.2154678404331207,-0.8686850070953369,0.9637898206710817,3.615234375,2,C1,6.1,90,450.0,7.60862549615274,[6800|10000|0|0]
287,28700,1.344022274017334,-0.3183451294898987,0.0025756880640983,2.475653648376465,-0.8510701060295105,1.1005617380142212,3.63671875,2,C1,6.1,90,450.0,7.617717971127215,[6800|10000|0|0]
288,28800,1.3406896591186523,-0.3289334774017334,0.0009059218573383,0.7271025776863098,-0.3254747092723846,2.0812361240386963,3.62109375,2,C1,6.1,90,450.0,7.628943279708729,[6800|10000|0|100]
289,28900,1.3362325429916382,-0.3386269509792328,0.0,-1.7034159898757937,-0.4788502752780914,3.865988969802856,3.626953125,2,C1,6.1,90,450.0,7.63965075413452,[6800|10000|0|200]
290,29000,1.3318606615066528,-0.345550924539566,0.0,-1.717424988746643,-0.8062801361083984,3.731417179107666,3.626953125,2,C1,6.1,90,450.0,7.647839451074995,[6800|10000|0|300]
291,29100,1.328027606010437,-0.3524568974971771,0.0016670213080942,0.0682758688926696,-0.3345604836940765,2.765864133834839,3.642578125,2,C1,6.1,90,450.0,7.655911856972246,[6800|10000|0|400]
292,29200,1.3246653079986572,-0.3601134121417999,0.0015533987898379,-0.2007540613412857,-0.7428345084190369,1.2305855751037598,3.63671875,2,C1,6.1,90,450.0,7.664274881215903,[6800|10000|0|500]
293,29300,1.321882247924805,-0.3690961003303528,0.001337208552286,-0.3765024542808532,-0.5284011960029602,0.166795939207077,3.630859375,2,C1,6.1,90,450.0,7.673681307141101,[6800|10000|0|600]
294,29400,1.3196651935577393,-0.3780123293399811,0.0006902153254486,-0.7782554030418396,0.0271473117172718,-0.613723635673523,3.63671875,2,C1,6.1,90,450.0,7.682891794101856,[6800|10000|0|700]
295,29500,1.314992070198059,-0.3868502378463745,0.0013548472197726,0.5236108899116516,1.418249249458313,-0.0753512904047966,3.642578125,2,C1,6.1,90,450.0,7.692911197490138,[6800|10000|0|800]
296,29600,1.3092554807662964,-0.3979475498199463,0.0008437248761765,0.683674156665802,1.8161088228225708,0.1591867506504058,3.63671875,2,C1,6.1,90,450.0,7.705413998672174,[6800|10000|0|900]
297,29700,1.300001621246338,-0.4109548032283783,0.0008765448583289,1.941389560699463,-0.1930199414491653,1.206720232963562,3.626953125,2,C1,6.1,90,450.0,7.721377194918463,[6800|10000|0|1000]
298,29800,1.2969926595687866,-0.41838538646698,0.0054591046646237,3.813556432723999,2.5134902000427246,-0.3585084676742553,3.65234375,2,C1,6.1,90,450.0,7.73061122285978,[6800|10000|0|1100]
299,29900,1.301729679107666,-0.4187523424625397,0.0059217857196927,0.8134164214134216,-0.3135739266872406,-1.3197228908538818,3.626953125,2,C1,6.1,90,450.0,7.735384909545469,[6800|10000|0|1200]
300,30000,1.3051791191101074,-0.4233473539352417,0.0,-0.0853953957557678,-1.3524762392044067,-3.4709744453430176,3.568359375,2,C1,6.1,90,450.0,7.743635989043005,[6800|10000|0|1300]
301,30100,1.3105579614639282,-0.4222632348537445,0.001189719303511,-0.224783644080162,0.6426177620887756,-5.202795505523682,3.6484375,2,C1,6.1,90,450.0,7.74925049625836,[6800|10000|0|1400]
302,30200,1.3144166469573977,-0.4246284067630768,0.0026123309507966,-0.0035421983338892,-2.4863879680633545,-4.524350166320801,3.642578125,2,C1,6.1,90,450.0,7.753994683838673,[6800|10000|0|1500]
303,30300,1.319600224494934,-0.4296455085277557,0.0011994820088148,-1.5645596981048584,-3.336874485015869,-4.86188554763794,3.611328125,2,C1,6.1,90,450.0,7.761345665292715,[6800|10000|0|1600]
304,30400,1.3277831077575684,-0.4336143732070923,0.0019353767856955,-1.1897683143615725,-3.151688814163208,-4.817551136016846,3.63671875,2,C1,6.1,90,450.0,7.770469973839417,[6800|10000|0|1700]
305,30500,1.3367066383361816,-0.440455287694931,0.0010131129529327,-1.4819269180297852,-3.296049356460572,-4.579776763916016,3.62109375,2,C1,6.1,90,450.0,7.781751732549591,[6800|10000|0|1800]
306,30600,1.3476932048797607,-0.4478425979614258,0.001309546874836,-1.7079209089279177,-2.4295427799224854,-5.355152606964111,3.62109375,2,C1,6.1,90,450.0,7.794994272731143,[6800|10000|0|1900]
307,30700,1.3586149215698242,-0.4574940204620361,0.0037787607870996,0.4443027675151825,-1.2383477687835691,-5.903182029724121,3.626953125,2,C1,6.1,90,450.0,7.809777062355832,[6800|10000|0|2000]
308,30800,1.3693135976791382,-0.4687942564487457,0.0011111632920801,-2.299604177474976,-1.6178466081619265,-6.88456916809082,3.990234375,2,C1,6.1,90,450.0,7.825565446701381,[6800|10000|0|2100]
309,30900,1.3710954189300537,-0.4724538922309875,0.0009537802543491,-1.873977541923523,-1.4848657846450806,-6.006040096282959,3.99609375,2,C1,6.1,90,450.0,7.829638847056053,[6800|10000|0|2200]
310,31000,1.3706350326538086,-0.4713862240314483,0.0005966984899714,-2.2093000411987305,-0.6009654998779297,-5.9748854637146,3.99609375,2,C1,6.1,90,450.0,7.830855144015727,[6800|10000|0|2300]
311,31100,1.3710479736328125,-0.470272034406662,0.0010554969776421,-1.9600157737731927,-0.483429491519928,-5.912863254547119,4.0,2,C1,6.1,90,450.0,7.832128892352099,[6800|10000|0|2400]
312,31200,1.3706130981445312,-0.4708400070667267,0.0005800781073048,-1.5321810245513916,-0.3844413757324219,-5.895510673522949,4.0,2,C1,6.1,90,450.0,7.832987806046926,[6800|10000|0|2500]
313,31300,1.370799541473389,-0.4708743989467621,0.0009845496388152,-1.2419875860214231,-0.252159059047699,-5.847141742706299,4.0,2,C1,6.1,90,450.0,7.83343450632238,[6800|10000|0|2600]
314,31400,1.3707250356674194,-0.4710356593132019,0.0007244071457535,-0.9060009717941284,-0.2205229103565216,-5.823330402374268,4.0078125,2,C1,6.1,90,450.0,7.833749514477201,[6800|10000|0|2700]
315,31500,1.3705298900604248,-0.4716999530792236,0.0010356637649238,-0.6731324195861816,-0.1173449233174324,-5.776289939880371,4.0078125,2,C1,6.1,90,450.0,7.834508624942471,[6800|10000|0|2800]
316,31600,1.3703889846801758,-0.4715873897075653,0.0007063268567435,-0.4434427618980407,-0.0883819833397865,-5.723423480987549,4.0078125,2,C1,6.1,90,450.0,7.834884108148369,[6800|10000|0|2900]
317,31700,1.370284914970398,-0.4720448553562164,0.0009316850337199,-0.2567915022373199,-0.0387530550360679,-5.671354293823242,4.01171875,2,C1,6.1,90,450.0,7.835404580656883,[6800|10000|0|3000]
318,31800,1.3702008724212646,-0.4720399379730224,0.0008632495300844,-0.0946817100048065,-0.0154336690902709,-5.641496658325195,4.01171875,2,C1,6.1,90,450.0,7.83551307373906,[6800|10000|0|3100]
319,31900,1.3704123497009275,-0.4717041254043579,0.0005052266642451,0.022498995065689,0.0186384338885545,-5.604013919830322,4.01171875,2,C1,6.1,90,450.0,7.836047557689755,[6800|10000|0|3200]
320,32000,1.3705583810806274,-0.4721650183200836,0.0009549842798151,0.1587174981832504,0.0211895052343606,-5.564141750335693,4.01171875,2,C1,6.1,90,450.0,7.836707882879632,[6800|10000|0|3300]
321,32100,1.370228290557861,-0.4722833633422851,0.0008017836371436,0.2623814344406128,0.0562556944787502,-5.551665782928467,4.01171875,2,C1,6.1,90,450.0,7.837090552102872,[6800|10000|0|3400]
322,32200,1.3703209161758425,-0.4723468422889709,0.0006066522328183,0.3238397538661957,0.0751704797148704,-5.551449775695801,4.015625,2,C1,6.1,90,450.0,7.837315686166782,[6800|10000|0|3500]
323,32300,1.3701248168945312,-0.4724664092063904,0.0006307380390353,0.38242107629776,0.0889056548476219,-5.525666236877441,4.015625,2,C1,6.1,90,450.0,7.837546621876306,[6800|10000|0|3600]
324,32400,1.3706108331680298,-0.4722998142242431,0.0006100028404034,0.4266904890537262,0.0912531316280365,-5.509891033172607,4.015625,2,C1,6.1,90,450.0,7.838060816056207,[6800|10000|0|3700]
325,32500,1.3702934980392456,-0.4722015559673309,0.0006835629465058,0.4359587728977203,0.1298641562461853,-5.48419713973999,4.015625,2,C1,6.1,90,450.0,7.838401062082226,[6800|10000|0|3800]
326,32600,1.369792938232422,-0.4716472327709198,0.0014605843462049,0.1670144945383072,-0.0598341152071952,-5.464733123779297,4.015625,2,C1,6.1,90,450.0,7.839478835983319,[6800|10000|0|3900]
