,time.ms,stateEstimate.x,stateEstimate.y,stateEstimate.z,stabilizer.roll,stabilizer.pitch,stabilizer.yaw,pm.vbat,drone_id,node_name,wind_speed,global_wind_direction,relative_wind_direction,travel_dist,waiting_time
0,0,0.0057409023866057,0.5196518898010254,0.0,-0.4942887425422668,-0.1608555316925048,1.5729378461837769,4.12109375,1,J1,6.1,90,450.0,0.0,[6200|0|0|0]
1,100,0.0057571707293391,0.5194321274757385,0.0,-0.4901299774646759,-0.1640879809856414,1.5504274368286133,4.12109375,1,J1,6.1,90,450.0,0.0002203636507929,[6300|0|0|0]
2,200,0.0056116599589586,0.5194483995437622,0.0,-0.4947260916233063,-0.1577835530042648,1.54622483253479,4.12109375,1,J1,6.1,90,450.0,0.0003667814246268,[6400|0|0|0]
3,300,0.0055309776216745,0.5198779106140137,0.0,-0.5054371953010559,-0.1589158922433853,1.5542680025100708,4.12109375,1,J1,6.1,90,450.0,0.0008038047638413,[6500|0|0|0]
4,400,0.0059296158142387,0.5196065306663513,0.0,-0.4977190196514129,-0.170320376753807,1.548631191253662,4.12109375,1,J1,6.1,90,450.0,0.0012860489805657,[6600|0|0|0]
5,500,0.0058205430395901,0.5197867155075073,0.0,-0.5025291442871094,-0.1706918776035308,1.552489995956421,4.12109375,1,J1,6.1,90,450.0,0.0014966753016938,[6700|0|0|0]
6,600,0.0058858837001025,0.5199270844459534,0.0,-0.5003310441970825,-0.1673610508441925,1.578449010848999,4.12109375,1,J1,6.1,90,450.0,0.0016515069547776,[6800|0|0|0]
7,700,0.005657447502017,0.5198785066604614,0.0,-0.4982733130455017,-0.1630439460277557,1.571727275848389,4.12109375,1,B1,6.1,90,450.0,0.0018850511643805,[6800|0|0|0]
8,800,0.0058294772170484,0.520007312297821,0.0,-0.5999183654785156,-0.2036702334880828,1.3097660541534424,3.3671875,1,B1,6.1,90,450.0,0.0020999583887109,[6800|0|0|0]
9,900,0.0081537021324038,0.5215404629707336,0.0,-0.92084938287735,-6.577215671539307,1.1047680377960205,3.568359375,1,B1,6.1,90,450.0,0.0048843025561965,[6800|0|0|0]
10,1000,0.0259629562497138,0.5235432386398315,0.0067793289199471,0.8841702938079834,-18.95038795471192,1.4311379194259644,3.673828125,1,B1,6.1,90,450.0,0.0240451987565439,[6800|0|0|0]
11,1100,0.0762533769011497,0.5274626016616821,0.0564068667590618,0.9889747500419616,-12.536800384521484,1.8980027437210083,3.673828125,1,B1,6.1,90,450.0,0.0948080444297372,[6800|0|0|0]
12,1200,0.1491381227970123,0.5325936079025269,0.1198275610804557,-0.5205350518226624,-5.263664722442627,2.460160255432129,3.701171875,1,B1,6.1,90,450.0,0.1915587440528187,[6800|0|0|0]
13,1300,0.2296524494886398,0.5385711789131165,0.1948018670082092,0.6613031029701233,2.6759042739868164,2.250683784484864,3.716796875,1,B1,6.1,90,450.0,0.3017378469133028,[6800|0|0|0]
14,1400,0.3029660880565643,0.5455734133720398,0.2777735888957977,0.8539988398551941,7.525347709655762,1.8312876224517824,3.7265625,1,B1,6.1,90,450.0,0.4126802983035499,[6800|0|0|0]
15,1500,0.3620480895042419,0.5499164462089539,0.3643564879894256,1.2231857776641846,9.592562675476074,1.5147477388381958,3.7265625,1,B1,6.1,90,450.0,0.5175904658029075,[6800|0|0|0]
16,1600,0.4011214673519134,0.553579568862915,0.4554009437561035,1.6779422760009766,9.699727058410645,0.9847838878631592,3.720703125,1,B1,6.1,90,450.0,0.6167329907347219,[6800|0|0|0]
17,1700,0.425779789686203,0.5524373650550842,0.5431342720985413,1.3991328477859497,8.21770191192627,0.7715238332748413,3.716796875,1,B1,6.1,90,450.0,0.7078728524414545,[6800|0|0|0]
18,1800,0.4381472170352936,0.5481746792793274,0.6306102871894836,0.4811420738697052,5.743907928466797,2.385873556137085,3.720703125,1,B1,6.1,90,450.0,0.7963215775054635,[6800|0|0|0]
19,1900,0.4397611320018768,0.5438006520271301,0.7209557890892029,-0.0867411941289901,3.152119398117065,2.7481935024261475,3.716796875,1,B1,6.1,90,450.0,0.8867872978056661,[6800|0|0|0]
20,2000,0.4388659000396728,0.5388621687889099,0.8138564229011536,-0.8609218597412109,1.3961479663848877,2.266730070114136,3.7109375,1,B1,6.1,90,450.0,0.9798234081049606,[6800|0|0|0]
21,2100,0.4375355243682861,0.534935712814331,0.9092907309532166,-0.3479808270931244,0.491886556148529,1.1233972311019895,3.720703125,1,B1,6.1,90,450.0,1.0753477197189334,[6800|0|0|0]
22,2200,0.436739981174469,0.5322088599205017,1.0061157941818235,-0.5899229049682617,-0.3428334295749664,0.2397385090589523,3.716796875,1,B1,6.1,90,450.0,1.1722144399323355,[6800|0|0|0]
23,2300,0.4370162785053253,0.5301145911216736,1.1045299768447876,-0.4770086407661438,0.7376977205276489,-0.4166130423545837,3.7109375,1,B1,6.1,90,450.0,1.27065129101584,[6800|0|0|0]
24,2400,0.4376756250858307,0.5289283394813538,1.2037044763565063,-0.4360871911048889,0.7188445925712585,-0.6286184191703796,3.732421875,1,B1,6.1,90,450.0,1.3698350764057277,[6800|0|0|0]
25,2500,0.4383560121059418,0.5281646847724915,1.301738142967224,-0.8268191814422607,0.5553823113441467,-0.913776159286499,3.76953125,1,B1,6.1,90,450.0,1.467874078257811,[6800|0|0|0]
26,2600,0.4379431307315826,0.5282281637191772,1.393850326538086,-0.4679228961467743,0.923995077610016,-1.2685635089874268,3.794921875,1,B1,6.1,90,450.0,1.559987209041637,[6800|0|0|0]
27,2700,0.4363912940025329,0.5295301079750061,1.473183512687683,-0.2250184118747711,0.9638561606407166,-1.4212212562561035,3.806640625,1,B1,6.1,90,450.0,1.6393462518831778,[6800|0|0|0]
28,2800,0.43414968252182,0.531508207321167,1.5359498262405396,0.2499952018260955,0.5743338465690613,0.601329505443573,3.7890625,1,B1,6.1,90,450.0,1.702183723315988,[6800|0|0|0]
29,2900,0.4294411540031433,0.5315659046173096,1.5796831846237185,-0.283203125,0.8927619457244873,-0.3764722943305969,3.76953125,1,B1,6.1,90,450.0,1.746169859828084,[6800|0|0|0]
30,3000,0.4239426851272583,0.5321710705757141,1.6106038093566897,-0.6027065515518188,0.4754840135574341,0.1835378110408783,3.76953125,1,B1,6.1,90,450.0,1.7775813930554436,[6800|0|0|0]
31,3100,0.4173986911773681,0.5342323780059814,1.630607843399048,-0.2631276845932007,0.287888616323471,3.58337950706482,3.75390625,1,B1,6.1,90,450.0,1.798729306028267,[6800|0|0|0]
32,3200,0.4098761081695556,0.535873293876648,1.6415635347366333,-0.4191139042377472,0.4786833226680755,6.574927806854248,3.7421875,1,B1,6.1,90,450.0,1.8121199383019304,[6800|0|0|0]
33,3300,0.4013117849826813,0.5379778146743774,1.6466697454452517,-0.093414232134819,-0.1463021039962768,7.877325057983398,3.7421875,1,B1,6.1,90,450.0,1.8223106216567464,[6800|0|0|0]
34,3400,0.3946904838085174,0.5369589924812317,1.6462247371673584,0.1032590046525001,-0.4767859578132629,1.3370540142059326,3.720703125,1,B1,6.1,90,450.0,1.8290246115485784,[6800|0|0|0]
35,3500,0.3885923624038696,0.5369077920913696,1.643827199935913,0.3942485451698303,-0.3027179837226867,-1.9783940315246584,3.7265625,1,B1,6.1,90,450.0,1.8355773125887531,[6800|0|0|0]
36,3600,0.3826515674591064,0.5362668633460999,1.6403874158859253,-0.0203532502055168,-1.2158660888671875,-2.938395500183105,3.732421875,1,B1,6.1,90,450.0,1.8424719444529492,[6800|0|0|0]
37,3700,0.3775486052036285,0.5357443690299988,1.635282039642334,-0.0696390271186828,-0.9555501341819764,-2.7016563415527344,3.720703125,1,B1,6.1,90,52.0,1.8497092153943897,[6800|0|0|0]
38,3800,0.3775370419025421,0.5420498251914978,1.6374739408493042,-6.391761302947998,-8.805932998657227,-2.425888538360596,3.748046875,1,B1,6.1,90,52.0,1.856384793422968,[6800|0|0|0]
39,3900,0.3912287950515747,0.5504668354988098,1.624255657196045,-7.358360290527344,-10.483099937438965,-0.0486882999539375,3.736328125,1,B1,6.1,90,52.0,1.8771942429482549,[6800|0|0|0]
40,4000,0.4173920154571533,0.5637804269790649,1.600413203239441,-7.764769554138184,-10.336207389831545,2.678784132003784,3.7109375,1,B1,6.1,90,52.0,1.915012603975232,[6800|0|0|0]
41,4100,0.4548519551753998,0.5939913392066956,1.5716875791549685,-5.354945659637451,-6.4268798828125,2.210820436477661,3.689453125,1,B1,6.1,90,52.0,1.971058190602215,[6800|0|0|0]
42,4200,0.4921071529388428,0.6287113428115845,1.541703462600708,-2.6539435386657715,-2.127041339874268,-1.6779954433441162,3.68359375,1,B1,6.1,90,52.0,2.0301553619072465,[6800|0|0|0]
43,4300,0.5433821678161621,0.6680981516838074,1.5216537714004517,1.6729415655136108,1.471140742301941,-3.599949598312378,3.689453125,1,B1,6.1,90,52.0,2.0978490690079217,[6800|0|0|0]
44,4400,0.5923104286193848,0.7051559090614319,1.5069364309310913,4.417940616607666,4.2534027099609375,-4.385374069213867,3.6953125,1,B1,6.1,90,52.0,2.1609668335245624,[6800|0|0|0]
45,4500,0.6329119801521301,0.7339169979095459,1.495666742324829,5.802037715911865,4.782347202301025,-5.571011066436768,3.705078125,1,B1,6.1,90,52.0,2.211983420041865,[6800|0|0|0]
46,4600,0.6663061380386353,0.7528291344642639,1.4858587980270386,4.665340900421143,5.483280181884766,-4.917209148406982,3.701171875,1,B1,6.1,90,52.0,2.2515944596818653,[6800|0|0|0]
47,4700,0.6899343132972717,0.7634828686714172,1.476933479309082,2.963715076446533,4.744789123535156,-2.8145220279693604,3.6953125,1,B1,6.1,90,52.0,2.279007121588849,[6800|0|0|0]
48,4800,0.7063926458358765,0.769022524356842,1.46909761428833,1.992167592048645,4.292666435241699,-2.2904906272888184,3.701171875,1,B1,6.1,90,52.0,2.298058769173449,[6800|0|0|0]
49,4900,0.7159079313278198,0.7723413705825806,1.461905002593994,0.6075173616409302,2.567226886749268,-2.1276957988739014,3.701171875,1,B1,6.1,90,52.0,2.31043976514505,[6800|0|0|0]
50,5000,0.7220052480697632,0.7750058770179749,1.4563618898391724,0.1296998411417007,1.920383095741272,-2.0088601112365723,3.705078125,1,B1,6.1,90,52.0,2.3191001903660484,[6800|0|0|0]
51,5100,0.7252770662307739,0.7784584760665894,1.4508976936340332,-0.1082028597593307,0.931416392326355,-2.216994285583496,3.6953125,1,B1,6.1,90,52.0,2.326344683063089,[6800|0|0|0]
52,5200,0.7268586754798889,0.7831624150276184,1.446366310119629,0.5921050906181335,1.3482986688613892,-2.369807004928589,3.701171875,1,B1,6.1,90,52.0,2.3330649483942043,[6800|0|0|0]
53,5300,0.7275118827819824,0.7879682183265686,1.4424107074737549,0.4769096076488495,0.594437301158905,-2.4874463081359863,3.701171875,1,B1,6.1,90,52.0,2.339323479964769,[6800|0|0|0]
54,5400,0.727544903755188,0.7927972674369812,1.4387627840042114,0.7295163869857788,0.4430493116378784,-2.5655431747436523,3.701171875,1,B1,6.1,90,52.0,2.3453755995385297,[6800|0|0|0]
55,5500,0.7272661924362183,0.7981618642807007,1.434682846069336,1.0924023389816284,0.5111960172653198,-2.6663804054260254,3.701171875,1,B1,6.1,90,52.0,2.3521211516173,[6800|0|0|0]
56,5600,0.7269420623779297,0.8020340800285339,1.430281639099121,1.1681362390518188,0.1561863869428634,-2.632953643798828,3.701171875,1,B1,6.1,90,52.0,2.3579922450322544,[6800|0|0|0]
57,5700,0.7257868647575378,0.8045744299888611,1.4255529642105105,1.6500458717346191,0.7512988448143005,-3.0822970867156982,3.701171875,1,B1,6.1,90,52.0,2.363482985024757,[6800|0|0|0]
58,5800,0.7239345908164978,0.8051542639732361,1.421000599861145,1.1377986669540403,0.436385303735733,-3.3540587425231934,3.6953125,1,B1,6.1,90,52.0,2.368431838161744,[6800|0|0|0]
59,5900,0.7217759490013123,0.8052157163619995,1.4164483547210691,1.167925477027893,0.5369024276733398,-3.5800774097442627,3.6953125,1,B1,6.1,90,52.0,2.3734703346336787,[6800|0|0|0]
60,6000,0.7186269760131836,0.8036925792694092,1.412125587463379,0.8233681321144104,0.0487295314669609,-3.601029634475708,3.6953125,1,B1,6.1,90,52.0,2.379031116435453,[6800|0|0|0]
61,6100,0.7157496809959412,0.8014734387397766,1.406973361968994,0.7327248454093933,-0.2294369488954544,-3.4607183933258057,3.689453125,1,B1,6.1,90,52.0,2.385335784456174,[6800|0|0|0]
62,6200,0.713331401348114,0.7984999418258667,1.402609944343567,0.8518531322479248,-0.0634751170873642,-2.83400821685791,3.689453125,1,B1,6.1,90,52.0,2.3911434667586087,[6800|0|0|0]
63,6300,0.7107482552528381,0.7943577170372009,1.4009599685668943,0.6988087296485901,-0.180204227566719,-2.2155542373657227,3.6953125,1,B1,6.1,90,52.0,2.3962964358069323,[6800|0|0|0]
64,6400,0.7089496850967407,0.7894923090934753,1.398490071296692,-0.1955614387989044,0.2180449813604354,-1.485107183456421,3.6953125,1,B1,6.1,90,52.0,2.4020416461242857,[6800|0|0|0]
65,6500,0.7065925002098083,0.7855437397956848,1.3967792987823486,-0.5152323842048645,-0.0410599559545517,-1.021705150604248,3.6953125,1,B1,6.1,90,52.0,2.406948199159408,[6800|0|0|0]
66,6600,0.7040311098098755,0.7818204760551453,1.3941446542739868,-0.7023739814758301,-0.1147048398852348,-0.5917624235153198,3.6953125,1,B1,6.1,90,52.0,2.4121793333909034,[6800|0|0|0]
67,6700,0.7021613121032715,0.7796526551246643,1.3910393714904783,-0.3971405327320099,-0.591448962688446,-0.4792768061161041,3.689453125,1,B1,6.1,90,450.0,2.4164028831083577,[6800|0|0|0]
68,6800,0.7008259892463684,0.7781683802604675,1.3820778131484983,0.1964592039585113,-0.1606048792600631,-0.7115007042884827,3.927734375,1,B1,6.1,90,450.0,2.425584151371586,[6800|0|0|0]
69,6900,0.7005183696746826,0.7774709463119507,1.3416401147842407,0.1781278103590011,-0.9049913883209229,-0.5166404843330383,3.84765625,1,B1,6.1,90,450.0,2.4660290335312878,[6800|0|0|0]
70,7000,0.6980835199356079,0.7753375768661499,1.2624584436416626,0.1451452225446701,0.0953527837991714,-0.1878683269023895,3.763671875,1,B1,6.1,90,450.0,2.545276852450016,[6800|0|0|0]
71,7100,0.6959093809127808,0.7727069854736328,1.153328776359558,0.2682189643383026,0.7970380783081055,-0.1522061675786972,3.689453125,1,B1,6.1,90,450.0,2.654459869319251,[6800|0|0|0]
72,7200,0.6920077204704285,0.7684561610221863,1.030362606048584,-0.093330331146717,-0.8026981949806213,-1.251181721687317,3.6796875,1,B1,6.1,90,450.0,2.7775613376438484,[6800|0|0|0]
73,7300,0.6891947388648987,0.7635636925697327,0.904099702835083,-0.368756502866745,0.0489944070577621,-2.6728031635284424,3.68359375,1,B1,6.1,90,450.0,2.903950300140473,[6800|0|0|0]
74,7400,0.6865544319152832,0.7585641145706177,0.7791852355003357,-0.4268722534179687,0.2966074645519256,-3.323516130447388,3.689453125,1,B1,6.1,90,450.0,3.0289926575657917,[6800|0|0|0]
75,7500,0.6838791370391846,0.7545603513717651,0.6558546423912048,-0.3205977082252502,0.3852187991142273,-1.3259702920913696,3.6953125,1,B1,6.1,90,450.0,3.1524172196232545,[6800|0|0|0]
76,7600,0.681713879108429,0.7499959468841553,0.5338083505630493,-1.1595085859298706,-0.6575103402137756,0.3948562145233154,3.68359375,1,B1,6.1,90,450.0,3.274568025921193,[6800|0|0|0]
77,7700,0.6813820600509644,0.749534010887146,0.4114675223827362,-2.3417835235595703,0.0259215924888849,2.046921491622925,3.626953125,1,B1,6.1,90,450.0,3.3969101761744773,[6800|0|0|0]
78,7800,0.6809360384941101,0.7555445432662964,0.2959588766098022,-2.701467037200928,-0.673566460609436,3.698648452758789,3.60546875,1,B1,6.1,90,450.0,3.512575956260928,[6800|0|0|0]
79,7900,0.6784399747848511,0.76986163854599,0.1955415308475494,-5.718937397003174,2.82298231124878,7.028448104858398,3.63671875,1,B1,6.1,90,450.0,3.614039510708938,[6800|0|0|0]
80,8000,0.6701070666313171,0.7969337105751038,0.1084405705332756,-3.7860512733459473,1.532502293586731,9.307029724121094,3.60546875,1,B1,6.1,90,450.0,3.70563051315958,[6800|0|0|0]
81,8100,0.6574051976203918,0.8320404887199402,0.0370778255164623,0.2207608371973037,2.422010660171509,12.824996948242188,3.630859375,1,B1,6.1,90,450.0,3.786169104682005,[6800|0|0|0]
82,8200,0.6423413157463074,0.866009533405304,0.0,4.156606674194336,3.9157848358154297,16.17418098449707,3.6484375,1,B1,6.1,90,450.0,3.838662739334045,[6800|0|0|0]
83,8300,0.6264459490776062,0.89145427942276,0.0,-4.376120567321777,-0.7064181566238403,17.943126678466797,3.630859375,1,B1,6.1,90,450.0,3.868664368980205,[6800|0|0|0]
84,8400,0.6049335598945618,0.91056227684021,0.0,4.179324150085449,6.775715351104736,18.64038848876953,3.736328125,1,B1,6.1,90,450.0,3.897437593576486,[6800|0|0|0]
85,8500,0.5848715305328369,0.9176879525184632,0.0,17.887264251708984,-8.45710277557373,17.663192749023438,3.701171875,1,B1,6.1,90,450.0,3.918727503768461,[6800|0|0|0]
86,8600,0.5842479467391968,0.9049170017242432,0.004919771105051,16.54068946838379,-12.715174674987791,11.744455337524414,3.673828125,1,B1,6.1,90,450.0,3.93242751065394,[6800|0|0|0]
87,8700,0.605000376701355,0.8725423812866211,0.008620198816061,10.056974411010742,-12.63963794708252,5.357244968414307,3.658203125,1,B1,6.1,90,450.0,3.971060043098226,[6800|0|0|0]
88,8800,0.6467661261558533,0.827950656414032,0.0122385751456022,4.261340141296387,-6.274405002593994,0.4536546766757965,3.658203125,1,B1,6.1,90,450.0,4.032263739080338,[6800|0|0|0]
89,8900,0.6963940262794495,0.7800527215003967,0.0203830432146787,-1.22287118434906,0.0345645733177661,-0.6291571259498596,3.6796875,1,B1,6.1,90,450.0,4.101714966569826,[6800|0|0|0]
90,9000,0.741626501083374,0.7374423146247864,0.0297846030443906,-5.233304977416992,6.8631205558776855,-0.154316246509552,3.6953125,1,B1,6.1,90,450.0,4.164564094473278,[6800|0|0|0]
91,9100,0.7750115990638733,0.7052199840545654,0.0367583893239498,-6.93712854385376,9.183672904968262,-2.040332555770874,3.689453125,1,B1,6.1,90,450.0,4.21148399483141,[6800|0|0|0]
92,9200,0.7912710905075073,0.6855137944221497,0.0383678451180458,-5.726987361907959,9.053943634033203,-3.532910346984864,3.6796875,1,B1,6.1,90,450.0,4.237082731514839,[6800|0|0|0]
93,9300,0.7923994660377502,0.6762595176696777,0.0359598658978939,-4.458261966705322,8.153369903564453,-4.700078010559082,3.66796875,1,B1,6.1,90,450.0,4.246711502644805,[6800|0|0|0]
94,9400,0.7793833017349243,0.6757773756980896,0.0306496955454349,-4.689146041870117,5.1101250648498535,-6.3741374015808105,3.658203125,1,B1,6.1,90,450.0,4.260777451002846,[6800|0|0|0]
95,9500,0.760875940322876,0.6822316646575928,0.0294658541679382,-2.144141674041748,0.6022326350212097,-6.395559787750244,3.66796875,1,B1,6.1,90,450.0,4.28041368671176,[6800|0|0|0]
96,9600,0.7410182356834412,0.6932152509689331,0.0317131727933883,-0.9232533574104308,-1.6418278217315674,-5.410184383392334,3.6796875,1,B1,6.1,90,450.0,4.30321759082509,[6800|0|0|0]
97,9700,0.724574089050293,0.7047415971755981,0.0358171090483665,0.6861535310745239,-2.598132848739624,-3.8957579135894775,3.68359375,1,B1,6.1,90,450.0,4.323714149271652,[6800|0|0|0]
98,9800,0.71495521068573,0.7142209410667419,0.0402451530098915,1.126698017120361,-3.0298640727996826,-3.016037940979004,3.68359375,1,F1,6.1,90,450.0,4.337926409996956,[6800|0|100|0]
99,9900,0.7089213728904724,0.7209601998329163,0.0440339855849742,1.7278624773025513,-3.006622552871704,-1.7063497304916382,3.6796875,1,F1,6.1,90,450.0,4.347733553288402,[6800|0|200|0]
100,10000,0.7075766324996948,0.7245638370513916,0.0453609600663185,0.3959527015686035,-2.36030912399292,-1.6622897386550903,3.673828125,1,F1,6.1,90,450.0,4.351802384717093,[6800|0|300|0]
101,10100,0.7099579572677612,0.7263806462287903,0.0445515513420105,-0.2255279570817947,-0.4622572660446167,-0.8631294369697571,3.658203125,1,F1,6.1,90,450.0,4.354905068349221,[6800|0|400|0]
102,10200,0.7122406959533691,0.7285512685775757,0.0461686588823795,-0.2177173644304275,-0.0650103613734245,-0.2099936455488205,3.673828125,1,F1,6.1,90,450.0,4.358445906397613,[6800|0|500|0]
103,10300,0.714218020439148,0.7312523722648621,0.0508054085075855,0.0382130965590477,0.3517679870128631,0.5471698641777039,3.6796875,1,F1,6.1,90,450.0,4.364164754213246,[6800|0|600|0]
104,10400,0.7155372500419617,0.7337151765823364,0.0547338277101516,0.2640369236469269,1.146036148071289,1.895501613616944,3.6796875,1,F1,6.1,90,450.0,4.368985360947072,[6800|0|700|0]
105,10500,0.7138704657554626,0.7331798076629639,0.054660115391016,-0.2835780382156372,-0.2018312364816665,1.6609598398208618,3.673828125,1,F1,6.1,90,450.0,4.370737566198617,[6800|0|800|0]
106,10600,0.7151916027069092,0.7348195910453796,0.0536495260894298,-0.4184536933898926,0.2497071921825409,1.1803841590881348,3.66796875,1,F1,6.1,90,450.0,4.373073285171911,[6800|0|900|0]
107,10700,0.7173675298690796,0.7370758652687073,0.0503050498664379,-0.5246556401252747,-0.1396905332803726,-0.48634934425354,3.658203125,1,F1,6.1,90,450.0,4.377657055845939,[6800|0|1000|0]
108,10800,0.7204759120941162,0.740912675857544,0.0472666546702384,-0.2569458186626434,0.3073838949203491,-1.5990992784500122,3.658203125,1,F1,6.1,90,450.0,4.383454900352289,[6800|0|1100|0]
109,10900,0.7242870926856995,0.7457205653190613,0.0455693937838077,-0.593148410320282,-0.1526635587215423,-2.3410325050354004,3.6640625,1,F1,6.1,90,450.0,4.389820557670465,[6800|0|1200|0]
110,11000,0.7285455465316772,0.7528097629547119,0.0459934212267398,0.6826157569885254,1.7330042123794556,-2.9502267837524414,3.6640625,1,F1,6.1,90,450.0,4.398101315579497,[6800|0|1300|0]
111,11100,0.7294144630432129,0.7593485116958618,0.0477528981864452,0.8450005054473877,-0.5818061828613281,-3.006050109863281,3.6640625,1,F1,6.1,90,450.0,4.404928175046019,[6800|0|1400|0]
112,11200,0.7285206317901611,0.7659327983856201,0.0503006763756275,-0.2899115085601806,1.1469404697418213,-2.638356685638428,3.66796875,1,F1,6.1,90,450.0,4.412044560309841,[6800|0|1500|0]
113,11300,0.725301206111908,0.7731277346611023,0.0520177409052848,-0.5045207738876343,-0.0331373140215873,-2.37446665763855,3.66796875,1,F1,6.1,90,450.0,4.4201117853782925,[6800|0|1600|0]
114,11400,0.7225314378738403,0.7810233235359192,0.0528802126646041,0.1257978677749633,0.0942308232188224,-2.238092422485352,3.66796875,1,F1,6.1,90,450.0,4.428523431906076,[6800|0|1700|0]
115,11500,0.7179603576660156,0.7904666662216187,0.0522597320377826,-0.3447597920894623,0.0441701896488666,-1.4013819694519043,3.658203125,1,F1,6.1,90,450.0,4.439033260237413,[6800|0|1800|0]
116,11601,0.7133811116218567,0.8031539916992188,0.0507781282067298,-0.5119174718856812,0.991235613822937,-0.2269282788038253,3.658203125,1,F1,6.1,90,450.0,4.452602817047409,[6800|0|1900|0]
117,11701,0.707885205745697,0.8172556757926941,0.0467096641659736,1.995135307312012,-0.4764980971813202,0.3764772117137909,4.015625,1,F1,6.1,90,450.0,4.468274922053524,[6800|0|2000|0]
118,11801,0.7033235430717468,0.8365501165390015,0.0076052127406001,2.3266260623931885,-7.02477502822876,1.2211699485778809,4.0234375,1,F1,6.1,90,450.0,4.512118306176366,[6800|0|2100|0]
119,11901,0.6963207721710205,0.8456748127937317,0.0,-1.79310941696167,-3.2361598014831543,4.944179534912109,4.02734375,1,F1,6.1,90,450.0,4.525907364986123,[6800|0|2200|0]
120,12001,0.6959079504013062,0.8520287275314331,0.0,-2.4188032150268555,-0.1059976294636726,10.391429901123049,4.02734375,1,F1,6.1,90,450.0,4.532274676373792,[6800|0|2300|0]
121,12101,0.6969245076179504,0.8505622148513794,0.0,-2.1031854152679443,-0.1314347684383392,10.870118141174316,4.02734375,1,F1,6.1,90,450.0,4.5340590664700064,[6800|0|2400|0]
122,12201,0.6956517696380615,0.850501537322998,0.0,-1.8083330392837524,-0.0912754014134407,11.262077331542969,4.03125,1,F1,6.1,90,450.0,4.535333250023464,[6800|0|2500|0]
123,12301,0.6930230855941772,0.8504706025123596,0.0,-1.5628647804260254,0.0456648096442222,11.725519180297852,4.03125,1,F1,6.1,90,450.0,4.53796211608416,[6800|0|2600|0]
124,12401,0.6900538206100464,0.8506817817687988,0.0,-1.4558334350585938,0.1338772028684616,12.203231811523438,4.0390625,1,F1,6.1,90,450.0,4.540938881312447,[6800|0|2700|0]
125,12500,0.6879792213439941,0.8518349528312683,0.0,-1.372443914413452,0.1412950158119201,12.3864107131958,4.0390625,1,F1,6.1,90,450.0,4.543312436791895,[6800|0|2800|0]
126,12600,0.6859791874885559,0.8527660965919495,0.0,-1.3102846145629885,0.0212280079722404,13.016407012939451,4.0390625,1,F1,6.1,90,450.0,4.545518601818804,[6800|0|2900|0]
127,12700,0.6893276572227478,0.8441067337989807,0.0,-3.272604465484619,-0.3507157564163208,19.280929565429688,4.0390625,1,F1,6.1,90,450.0,4.554802825725036,[6800|0|3000|0]
128,12800,0.6935794949531555,0.8179827928543091,0.0170661676675081,-1.029695987701416,9.235925674438477,10.42140007019043,4.04296875,1,F1,6.1,90,450.0,4.586295562878576,[6800|0|3100|0]
129,12900,0.697844922542572,0.7824082970619202,0.0409984327852726,2.508000612258911,8.238533973693848,3.690157651901245,4.04296875,1,F1,6.1,90,450.0,4.629382590358667,[6800|0|3200|0]
130,13000,0.6990969181060791,0.7700376510620117,0.0350575111806392,-2.055318832397461,4.679611682891846,5.522192001342773,4.04296875,1,F1,6.1,90,450.0,4.643162827107667,[6800|0|3300|0]
131,13100,0.6887111067771912,0.7740103006362915,0.01722745411098,-5.809309005737305,-3.6795828342437744,8.461355209350586,4.04296875,1,F1,6.1,90,450.0,4.6641761075918415,[6800|0|3400|0]
132,13200,0.6825376749038696,0.7833796739578247,0.015199257992208,-0.3577928245067596,2.06286883354187,13.558640480041504,4.04296875,1,F1,6.1,90,450.0,4.675578300233128,[6800|0|3500|0]
133,13300,0.6800863742828369,0.7938744425773621,0.0192338339984416,-0.8090070486068726,-0.4601502418518066,9.361900329589844,4.046875,1,F1,6.1,90,450.0,4.687085986649709,[6800|0|3600|0]
134,13400,0.6782410740852356,0.8014543056488037,0.0225550811737775,-4.105265140533447,-2.02498722076416,9.43906593322754,4.046875,1,F1,6.1,90,450.0,4.695564791978336,[6800|0|3700|0]
135,13500,0.67685467004776,0.8095024228096008,0.0270571913570165,-4.071243762969971,-2.0073983669281006,9.349431037902832,4.046875,1,F1,6.1,90,450.0,4.704890203609523,[6800|0|3800|0]
136,13600,0.6763300895690918,0.8186628222465515,0.031872883439064,-4.032227993011475,-1.9832420349121087,9.259695053100586,4.046875,1,F1,6.1,90,450.0,4.715252587155415,[6800|0|3900|0]
137,13700,0.6766265034675598,0.8288199305534363,0.0369345806539058,-3.988665580749512,-1.962282061576844,9.17108917236328,4.046875,1,F1,6.1,90,450.0,4.726604921234878,[6800|0|4000|0]
138,13800,0.677750825881958,0.8399205207824707,0.0422118566930294,-3.9520671367645264,-1.9432528018951416,9.083046913146973,4.046875,1,F1,6.1,90,450.0,4.738947402619006,[6800|0|4100|0]
139,13900,0.6797245144844055,0.851933479309082,0.0476989187300205,-3.9110612869262695,-1.9243236780166624,8.994565963745117,4.0546875,1,F1,6.1,90,450.0,4.752300846708802,[6800|0|4200|0]
140,14000,0.6825050115585327,0.8647603392601013,0.0534629262983799,-3.876464605331421,-1.90359628200531,8.905951499938965,4.07421875,1,F1,6.1,90,450.0,4.766635534826455,[6800|0|4300|0]
141,14100,0.6860543489456177,0.8783153891563416,0.0595265440642833,-3.83691143989563,-1.8880281448364256,8.81617546081543,4.12109375,1,F1,6.1,90,450.0,4.781903299364458,[6800|0|4400|0]
142,14200,0.6903548836708069,0.8925620317459106,0.0658340156078338,-3.799079179763794,-1.869992733001709,8.730965614318848,4.12109375,1,F1,6.1,90,450.0,4.798066393785707,[6800|0|4500|0]
143,14300,0.6953230500221252,0.9075048565864564,0.0723732486367225,-3.762810707092285,-1.8512778282165527,8.645658493041992,4.12890625,1,F1,6.1,90,450.0,4.815117266482308,[6800|0|4600|0]
144,14400,0.7009673118591309,0.9230383038520812,0.0791819915175437,-3.715723037719727,-1.8265578746795648,8.564634323120117,4.12890625,1,F1,6.1,90,450.0,4.832991959633682,[6800|0|4700|0]
145,14500,0.7072767615318298,0.9390535950660706,0.0863057300448417,-3.677791595458984,-1.80049729347229,8.483846664428711,4.12890625,1,F1,6.1,90,450.0,4.851621139928223,[6800|0|4800|0]
146,14600,0.7141960263252258,0.9554455280303956,0.0937278047204017,-3.643144130706787,-1.7823694944381714,8.401185989379883,4.12890625,1,F1,6.1,90,450.0,4.87089959640372,[6800|0|4900|0]
147,14700,0.7216814160346985,0.9721717834472656,0.1014677807688713,-3.616122961044312,-1.7704747915267944,8.32255744934082,4.1328125,1,F1,6.1,90,450.0,4.890791954449059,[6800|0|5000|0]
148,14800,0.6360594034194946,0.7795053720474243,0.0373875312507152,-3.2449517250061035,-1.4769713878631592,9.797940254211426,4.1328125,1,F1,6.1,90,450.0,5.111150193469705,[6800|0|5100|0]
149,14900,0.6379612684249878,0.7784573435783386,0.0348385982215404,-3.2355589866638184,-1.4441741704940796,10.76148509979248,4.1328125,1,F1,6.1,90,450.0,5.114498702654156,[6800|0|5200|0]
150,15000,0.7126255035400391,0.7490912079811096,0.0,-3.155852794647217,-1.279804229736328,10.78128719329834,4.1328125,1,F1,6.1,90,450.0,5.201967816353063,[6800|0|5300|0]
151,15100,0.7117257118225098,0.7494872212409973,0.0,-3.224135160446167,-1.1623107194900513,10.737407684326172,4.1328125,1,F1,6.1,90,450.0,5.202950899074375,[6800|0|5400|0]
152,15200,0.7116435170173645,0.7494370937347412,0.0,-3.247526168823242,-1.1683436632156372,10.706384658813477,4.1328125,1,F1,6.1,90,450.0,5.203047173436882,[6800|0|5500|0]
153,15300,0.7130193710327148,0.7508475184440613,0.0,-3.2931103706359863,-1.2305874824523926,10.740687370300291,4.13671875,1,F1,6.1,90,450.0,5.205017521663013,[6800|0|5600|0]
154,15400,0.7146435379981995,0.7547252774238586,0.0,-3.5148744583129883,-1.4150453805923462,10.898274421691896,4.13671875,1,F1,6.1,90,450.0,5.209221678301052,[6800|0|5700|0]
155,15500,0.7119362950325012,0.7497105002403259,0.0,-3.445882558822632,-1.3109394311904907,10.882438659667969,4.13671875,1,F1,6.1,90,450.0,5.214920551406834,[6800|0|5800|0]
156,15600,0.7115402817726135,0.7498437762260437,0.0,-3.4851975440979004,-1.3130855560302734,10.786946296691896,4.13671875,1,F1,6.1,90,450.0,5.21533838988086,[6800|0|5900|0]
157,15700,0.7116485834121704,0.7496600151062012,0.0,-3.5080487728118896,-1.312811255455017,10.718544006347656,4.13671875,1,F1,6.1,90,450.0,5.215551691062986,[6800|0|6000|0]
158,15800,0.7115311622619629,0.7502104640007019,0.0,-3.5336804389953613,-1.31736958026886,10.6508150100708,4.13671875,1,F1,6.1,90,450.0,5.216114524708012,[6800|0|6100|0]
159,15900,0.7116380929946899,0.7504746913909912,0.0,-3.542222023010254,-1.3264704942703247,10.620244026184082,4.14453125,1,F1,6.1,90,450.0,5.2163995690824185,[6800|0|6200|0]
160,16000,0.7119235396385193,0.7507292628288269,0.0,-3.541728973388672,-1.3372843265533447,10.579278945922852,4.14453125,1,F1,6.1,90,450.0,5.216782043138316,[6800|0|6300|0]
161,16100,0.7119243741035461,0.7501989006996155,0.0,-3.51820707321167,-1.3420504331588743,10.566162109375,4.14453125,1,F1,6.1,90,450.0,5.217312405923996,[6800|0|6400|0]
162,16200,0.7115471959114075,0.7504146695137024,0.0,-3.510438919067383,-1.3344416618347168,10.545762062072754,4.14453125,1,F1,6.1,90,450.0,5.217746939662337,[6800|0|6500|0]
163,16300,0.7117606401443481,0.7505229711532593,0.0,-3.490079164505005,-1.3472892045974731,10.546727180480955,4.14453125,1,F1,6.1,90,450.0,5.217986288123177,[6800|0|6600|0]
164,16400,0.7119594216346741,0.7502222061157227,0.0,-3.4696969985961914,-1.3496320247650146,10.543643951416016,4.14453125,1,F1,6.1,90,450.0,5.218346806761669,[6800|0|6700|0]
165,16500,0.7118253111839294,0.7503268718719482,0.0,-3.462684631347656,-1.349003791809082,10.51535415649414,4.14453125,1,F1,6.1,90,450.0,5.218516925936148,[6800|0|6800|0]
166,16600,0.7117809057235718,0.7502329349517822,0.0,-3.4456980228424072,-1.353068709373474,10.508254051208496,4.14453125,1,F1,6.1,90,450.0,5.218620829689111,[6800|0|6900|0]
167,16700,0.711786687374115,0.7503814101219177,0.0,-3.43814468383789,-1.3597869873046875,10.525035858154297,4.1484375,1,F1,6.1,90,450.0,5.218769417385875,[6800|0|7000|0]
168,16800,0.7117036581039429,0.7504662871360779,0.0,-3.4262259006500244,-1.3611384630203247,10.532118797302246,4.1484375,1,F1,6.1,90,450.0,5.218888152246965,[6800|0|7100|0]
169,16900,0.7117350101470947,0.7504066228866577,0.0,-3.416451930999756,-1.3671034574508667,10.508124351501465,4.1484375,1,F1,6.1,90,450.0,5.218955552345397,[6800|0|7200|0]
170,17000,0.7120437026023865,0.7503831386566162,0.0,-3.409365653991699,-1.3773348331451416,10.512572288513184,4.1484375,1,F1,6.1,90,450.0,5.219265136810471,[6800|0|7300|0]
171,17100,0.7119468450546265,0.7502298355102539,0.0,-3.3973913192749023,-1.3767902851104736,10.524163246154783,4.1484375,1,F1,6.1,90,450.0,5.219446474173534,[6800|0|7400|0]
172,17200,0.7118269205093384,0.7503756880760193,0.0,-3.390479564666748,-1.3715983629226685,10.51955223083496,4.1484375,1,F1,6.1,90,450.0,5.219635299138787,[6800|0|7500|0]
173,17300,0.7120382785797119,0.7501116394996643,0.0,-3.376793146133423,-1.3722327947616575,10.511445999145508,4.1484375,1,F1,6.1,90,450.0,5.219973520788873,[6800|0|7600|0]
174,17400,0.711875319480896,0.7504739165306091,0.0,-3.383230447769165,-1.3670573234558103,10.50501537322998,4.1484375,1,F1,6.1,90,450.0,5.220370761666725,[6800|0|7700|0]
175,17500,0.7121835350990295,0.7502267956733704,0.0,-3.375255823135376,-1.3664586544036863,10.503738403320312,4.1484375,1,F1,6.1,90,450.0,5.220765813037238,[6800|0|7800|0]
176,17600,0.7121157050132751,0.7503845691680908,0.0,-3.3733317852020264,-1.3667311668395996,10.512117385864258,4.15234375,1,F1,6.1,90,450.0,5.220937549452041,[6800|0|7900|0]
177,17700,0.7119484543800354,0.7501797080039978,0.0,-3.369315385818481,-1.3703638315200806,10.525094985961914,4.15234375,1,F1,6.1,90,450.0,5.221202012815993,[6800|0|8000|0]
178,17800,0.7120314836502075,0.7504515647888184,0.0,-3.355604410171509,-1.3657151460647583,10.545450210571287,4.15234375,1,F1,6.1,90,450.0,5.221486266173331,[6800|0|8100|0]
179,17900,0.7119050621986389,0.7502720952033997,0.0,-3.344120740890503,-1.343754529953003,10.537836074829102,4.15234375,1,F1,6.1,90,450.0,5.2217057922891055,[6800|0|8200|0]
180,18000,0.711758553981781,0.7504163980484009,0.0,-3.341667413711548,-1.3342455625534058,10.540360450744627,4.15234375,1,F1,6.1,90,450.0,5.221911432675904,[6800|0|8300|0]
181,18100,0.7121407389640808,0.7503028512001038,0.0,-3.326733350753784,-1.340155005455017,10.538399696350098,4.15234375,1,F1,6.1,90,450.0,5.222310128358666,[6800|0|8400|0]
182,18200,0.7120056748390198,0.7505641579627991,0.0,-3.3845012187957764,-1.3842120170593262,10.545740127563477,4.15234375,1,F1,6.1,90,450.0,5.222604277202126,[6800|0|8500|0]
183,18300,0.7117361426353455,0.7502918243408203,0.0,-3.361745834350586,-1.3536944389343262,10.549439430236816,4.15234375,1,F1,6.1,90,450.0,5.222987439322484,[6800|0|8600|0]
184,18400,0.7118810415267944,0.7502650022506714,0.0,-3.3602945804595947,-1.3600778579711914,10.55622100830078,4.15234375,1,F1,6.1,90,450.0,5.223134799809939,[6800|0|8700|0]
185,18500,0.7120791673660278,0.7503286600112915,0.0,-3.3678054809570312,-1.3662283420562744,10.54019832611084,4.15234375,1,F1,6.1,90,450.0,5.223342901128193,[6800|0|8800|0]
186,18600,0.7117322683334351,0.7502968311309814,0.0,-3.3695778846740723,-1.3486634492874146,10.5223388671875,4.15234375,1,F1,6.1,90,450.0,5.223691257291388,[6800|0|8900|0]
187,18700,0.7122328281402588,0.7502265572547913,0.0,-3.370089530944824,-1.3656206130981443,10.542346954345703,4.15234375,1,F1,6.1,90,450.0,5.224196725923335,[6800|0|9000|0]
188,18800,0.7119612097740173,0.7501780986785889,0.0,-3.371502637863159,-1.3535758256912231,10.518056869506836,4.16015625,1,F1,6.1,90,450.0,5.224472633100638,[6800|0|9100|0]
189,18900,0.7118188142776489,0.750220775604248,0.0,-3.372387170791626,-1.3583089113235474,10.53159236907959,4.16015625,1,F1,6.1,90,450.0,5.224621286379679,[6800|0|9200|0]
190,19000,0.7118431329727173,0.750514805316925,0.0,-3.381593704223633,-1.3546103239059448,10.528668403625488,4.16015625,1,F1,6.1,90,450.0,5.224916320057192,[6800|0|9300|0]
191,19100,0.711764395236969,0.7506586313247681,0.0,-3.3851921558380127,-1.3496229648590088,10.52384090423584,4.16015625,1,F1,6.1,90,450.0,5.225080288199106,[6800|0|9400|0]
192,19200,0.71218341588974,0.7502014636993408,0.0,-3.369671583175659,-1.3558366298675537,10.51394271850586,4.16015625,1,F1,6.1,90,450.0,5.225700433782971,[6800|0|9500|0]
193,19300,0.7120476961135864,0.7503412961959839,0.0,-3.366468906402588,-1.3461593389511108,10.507787704467772,4.16015625,1,F1,6.1,90,450.0,5.22589530036491,[6800|0|9600|0]
194,19400,0.7116190791130066,0.7503352165222168,0.0,-3.363891363143921,-1.334397554397583,10.513091087341309,4.16015625,1,F1,6.1,90,450.0,5.226323960481575,[6800|0|9700|0]
195,19500,0.7119547724723816,0.7503477931022644,0.0,-3.3618760108947754,-1.3474829196929932,10.494220733642578,4.16015625,1,F1,6.1,90,450.0,5.226659889345911,[6800|0|9800|0]
196,19600,0.7118933200836182,0.7501108050346375,0.0,-3.36156964302063,-1.3437927961349487,10.473130226135254,4.16015625,1,F1,6.1,90,450.0,5.226904715284656,[6800|0|9900|0]
197,19700,0.7119070887565613,0.7504407167434692,0.0,-3.372364997863769,-1.3486417531967163,10.483766555786133,4.16015625,1,F1,6.1,90,450.0,5.22723491418226,[6800|0|10000|0]
198,19800,0.7117465734481812,0.7506158947944641,0.0,-3.3863601684570312,-1.349903583526611,10.510522842407228,3.505859375,1,B1,6.1,90,450.0,5.227472511559718,[6800|0|10000|0]
199,19900,0.7120073437690735,0.7524887919425964,0.0,-3.6483616828918457,-1.842462658882141,10.120304107666016,3.494140625,1,B1,6.1,90,450.0,5.229363475569883,[6800|0|10000|0]
200,20000,0.7100860476493835,0.7549876570701599,0.0,-2.355295419692993,2.2677981853485107,6.338132381439209,3.599609375,1,B1,6.1,90,450.0,5.232515571016612,[6800|0|10000|0]
201,20100,0.7048957347869873,0.7612702250480652,0.0219506081193685,3.360471248626709,5.833571434020996,2.888349294662476,3.6484375,1,B1,6.1,90,450.0,5.255930079442301,[6800|0|10000|0]
202,20200,0.6931165456771851,0.7676248550415039,0.0799242183566093,1.128617763519287,0.1747483909130096,1.9432915449142456,3.66796875,1,B1,6.1,90,450.0,5.315428567678369,[6800|0|10000|0]
203,20300,0.6813814043998718,0.7768998742103577,0.1508870273828506,1.8455703258514404,-1.3259198665618896,1.44037926197052,3.68359375,1,B1,6.1,90,450.0,5.387950700757009,[6800|0|10000|0]
204,20400,0.6742185354232788,0.7902136445045471,0.2277208417654037,0.7120459675788879,-3.9901351928710938,2.68437123298645,3.6953125,1,B1,6.1,90,450.0,5.466257777091111,[6800|0|10000|0]
205,20500,0.6751313209533691,0.8062474131584167,0.3086296319961548,2.598764419555664,-3.4533474445343018,3.518728256225586,3.6953125,1,B1,6.1,90,450.0,5.548745032174994,[6800|0|10000|0]
206,20600,0.6827916502952576,0.8230977058410645,0.3915532827377319,2.2845935821533203,-1.4660468101501465,4.3095526695251465,3.6953125,1,B1,6.1,90,450.0,5.633709406246884,[6800|0|10000|0]
207,20700,0.6931813359260559,0.8383336663246155,0.4748891592025757,5.1359944343566895,0.3758588135242462,4.482403755187988,3.68359375,1,B1,6.1,90,450.0,5.719061315221006,[6800|0|10000|0]
208,20800,0.7031652927398682,0.8490315675735474,0.5599099397659302,4.750759601593018,0.7002317905426025,4.749936103820801,3.68359375,1,B1,6.1,90,450.0,5.805332153934873,[6800|0|10000|0]
209,20900,0.7124830484390259,0.8520409464836121,0.647331714630127,4.894047260284424,1.8754955530166624,4.390308856964111,3.6796875,1,B1,6.1,90,450.0,5.893300578117075,[6800|0|10000|0]
210,21000,0.7191631197929382,0.8472694158554077,0.7359484434127808,3.3595290184021,2.036853551864624,3.369856834411621,3.68359375,1,B1,6.1,90,450.0,5.982296732404593,[6800|0|10000|0]
211,21100,0.7219753861427307,0.8379846811294556,0.826797604560852,2.5464096069335938,2.065345287322998,2.0811569690704346,3.673828125,1,B1,6.1,90,450.0,6.073662400038895,[6800|0|10000|0]
212,21200,0.7251224517822266,0.8195555210113525,0.916895031929016,1.591823935508728,1.436145901679993,1.313623070716858,3.6796875,1,B1,6.1,90,450.0,6.165679161463972,[6800|0|10000|0]
213,21300,0.7184719443321228,0.8064748644828796,1.0108352899551392,0.2417031228542328,0.8051824569702148,0.3396755158901214,3.6796875,1,B1,6.1,90,450.0,6.260758627714968,[6800|0|10000|0]
214,21400,0.7136595249176025,0.7883909940719604,1.1086983680725098,-0.9766034483909608,-0.4359500706195831,-1.1486839056015017,3.6953125,1,B1,6.1,90,450.0,6.360394804921175,[6800|0|10000|0]
215,21500,0.7086701393127441,0.7706008553504944,1.205859661102295,-1.7774887084960938,-0.8314154744148254,-2.299240827560425,3.7421875,1,B1,6.1,90,450.0,6.459297281470869,[6800|0|10000|0]
216,21600,0.705376923084259,0.7539842128753662,1.2948302030563354,-2.2169551849365234,-0.9845199584960938,-2.500187635421753,3.763671875,1,B1,6.1,90,450.0,6.549866124987111,[6800|0|10000|0]
217,21700,0.7034778594970703,0.7383594512939453,1.3698430061340332,-2.696535110473633,-0.9788025617599488,-2.225156307220459,3.763671875,1,B1,6.1,90,450.0,6.626512457205672,[6800|0|10000|0]
218,21800,0.7012335062026978,0.7251813411712646,1.4265245199203491,-3.010500907897949,-0.3471238017082214,-0.0308209061622619,3.748046875,1,B1,6.1,90,450.0,6.684748989667897,[6800|0|10000|0]
219,21900,0.7001652121543884,0.7156709432601929,1.4659477472305298,-4.419834613800049,-0.8048192858695984,-0.9887791275978088,3.732421875,1,B1,6.1,90,450.0,6.725317201018051,[6800|0|10000|0]
220,22000,0.6981998682022095,0.711519181728363,1.4910110235214231,-3.786490678787232,0.094085469841957,-1.2901843786239624,3.720703125,1,B1,6.1,90,450.0,6.750797929404445,[6800|0|10000|0]
221,22100,0.6966208219528198,0.713397741317749,1.506238579750061,-3.511425018310547,-0.0060443165712058,-1.0467501878738403,3.705078125,1,B1,6.1,90,450.0,6.766221963957211,[6800|0|10000|0]
222,22200,0.6951422691345215,0.7192888259887695,1.5142204761505127,-2.3261523246765137,0.0318578220903873,-1.0847769975662231,3.701171875,1,B1,6.1,90,450.0,6.776252002201663,[6800|0|10000|0]
223,22300,0.6934455633163452,0.728079617023468,1.5178207159042358,-1.2833759784698486,-0.1272539645433426,-1.0787204504013062,3.701171875,1,B1,6.1,90,450.0,6.785901797221945,[6800|0|10000|0]
224,22400,0.6918050050735474,0.7385163903236389,1.518567681312561,-0.1818247586488723,-0.0356200449168682,-1.4473490715026855,3.6953125,1,B1,6.1,90,450.0,6.796493096745063,[6800|0|10000|0]
225,22500,0.6896197199821472,0.7493012547492981,1.5172317028045654,0.8310835361480713,-0.187679260969162,-1.6435778141021729,3.689453125,1,B1,6.1,90,450.0,6.807577933693993,[6800|0|10000|0]
226,22600,0.689037561416626,0.7574071288108826,1.515676975250244,1.217052936553955,-0.4347154498100281,-1.6632177829742432,3.6953125,1,B1,6.1,90,450.0,6.815852066921459,[6800|0|10000|0]
227,22700,0.6887313723564148,0.7637773752212524,1.5129202604293823,1.2216534614562988,-0.7230134010314941,-1.78336501121521,3.689453125,1,B1,6.1,90,450.0,6.822799963558067,[6800|0|10000|0]
228,22800,0.6894650459289551,0.7680032253265381,1.5085844993591309,1.3765051364898682,-0.9341237545013428,-2.063958168029785,3.806640625,1,B1,6.1,90,128.0,6.828898726554093,[6800|0|10000|0]
229,22900,0.6948610544204712,0.7679543495178223,1.4930245876312256,13.3386869430542,-12.699864387512209,-1.1374636888504028,3.84765625,1,B1,6.1,90,128.0,6.845367792995923,[6800|0|10000|0]
230,23000,0.7128191590309143,0.7537580132484436,1.4444187879562378,14.511296272277832,-16.05547523498535,-0.8898065090179443,3.7421875,1,B1,6.1,90,128.0,6.899094446034409,[6800|0|10000|0]
231,23100,0.7477499842643738,0.7228841185569763,1.3699262142181396,18.48594093322754,-17.757356643676758,-1.1276179552078247,3.6484375,1,B1,6.1,90,128.0,6.986972221763181,[6800|0|10000|0]
232,23200,0.8043798804283142,0.6693165302276611,1.278908133506775,15.885499000549316,-14.531400680541992,-2.5684561729431152,3.599609375,1,B1,6.1,90,128.0,7.106808454494931,[6800|0|10000|0]
233,23300,0.8823780417442322,0.5916419625282288,1.1916513442993164,10.829992294311523,-8.264411926269531,-3.266188144683838,3.59375,1,B1,6.1,90,128.0,7.247274816655956,[6800|0|10000|0]
234,23400,0.9745796322822572,0.4957063496112823,1.1217886209487915,3.6847872734069824,-2.837334632873535,-0.4589917361736297,3.642578125,1,B1,6.1,90,128.0,7.397559796735283,[6800|0|10000|0]
235,23500,1.075995922088623,0.3864295184612274,1.0749040842056274,-2.4632251262664795,0.6391036510467529,4.652591705322266,3.65234375,1,B1,6.1,90,128.0,7.553844311163001,[6800|0|10000|0]
236,23600,1.171128273010254,0.2947805821895599,1.0240046977996826,-5.134149551391602,-2.1295742988586426,8.103331565856934,3.6484375,1,B1,6.1,90,128.0,7.695408569533912,[6800|0|10000|0]
237,23700,1.265588641166687,0.213599607348442,0.978563904762268,-3.854391574859619,-0.679498553276062,9.211938858032228,3.62109375,1,B1,6.1,90,128.0,7.827990534748915,[6800|0|10000|0]
238,23800,1.358956217765808,0.1416666209697723,0.9439883828163148,-5.652047634124756,-2.1409480571746826,8.694852828979492,3.626953125,1,B1,6.1,90,128.0,7.950821009824043,[6800|0|10000|0]
239,23900,1.450976848602295,0.0804892256855964,0.9221147298812866,-4.91929292678833,-0.8200342059135437,9.364738464355469,3.63671875,1,B1,6.1,90,128.0,8.063466146807507,[6800|0|10000|0]
240,24000,1.5421777963638306,0.0283982194960117,0.9134634137153624,-3.107167959213257,0.9477366209030152,7.248411655426025,3.615234375,1,B1,6.1,90,128.0,8.168850828188855,[6800|0|10000|0]
241,24100,1.63067626953125,-0.0183790326118469,0.91547030210495,-0.0273456610739231,1.4389675855636597,6.615499973297119,3.630859375,1,B1,6.1,90,128.0,8.268971348906312,[6800|0|10000|0]
242,24200,1.7175941467285156,-0.0664563253521919,0.9279636740684508,-0.4780934154987335,3.6590402126312256,3.5617270469665527,3.66796875,1,B1,6.1,90,128.0,8.369082426199178,[6800|0|10000|0]
243,24300,1.7986514568328855,-0.1146053001284599,0.9449877738952636,-0.9215479493141174,6.550690174102783,-0.3137842416763305,3.6796875,1,B1,6.1,90,128.0,8.464886555902835,[6800|0|10000|0]
244,24400,1.869923114776612,-0.1608372777700424,0.9617409110069276,-3.0815846920013428,9.23929214477539,-2.541699171066284,3.68359375,1,B1,6.1,90,128.0,8.551475888882027,[6800|0|10000|0]
245,24500,1.92857825756073,-0.2016802281141281,0.9740809202194214,-4.187747001647949,10.25279140472412,-3.613522529602051,3.68359375,1,B1,6.1,90,128.0,8.6240075936407,[6800|0|10000|0]
246,24600,1.9733017683029173,-0.2356450110673904,0.9809054732322692,-5.749996662139893,10.693881034851074,-4.0853705406188965,3.66796875,1,B1,6.1,90,128.0,8.680579436619286,[6800|0|10000|0]
247,24700,2.0046989917755127,-0.2603696882724762,0.9818968772888184,-6.425222396850586,10.185876846313477,-4.470214366912842,3.66796875,1,B1,6.1,90,128.0,8.720555406734933,[6800|0|10000|0]
248,24800,2.0198733806610107,-0.2742687165737152,0.9807621836662292,-6.1124372482299805,8.411162376403809,-4.911353588104248,3.6640625,1,B1,6.1,90,128.0,8.741164448327984,[6800|0|10000|0]
249,24900,2.024964094161988,-0.2780502140522003,0.9773170948028564,-4.928695201873779,6.667381286621094,-4.9957804679870605,3.658203125,1,B1,6.1,90,128.0,8.748381353787067,[6800|0|10000|0]
250,25000,2.023808717727661,-0.2760364413261413,0.975222945213318,-3.867133855819702,4.840924263000488,-4.903409957885742,3.658203125,1,B1,6.1,90,128.0,8.75150795542472,[6800|0|10000|0]
251,25100,2.017009735107422,-0.2679737210273742,0.9743810296058656,-2.576555728912353,2.963496685028076,-5.054545402526856,3.6640625,1,B1,6.1,90,128.0,8.762088241109737,[6800|0|10000|0]
252,25200,2.007999420166016,-0.2575232684612274,0.97536039352417,-1.4473899602890017,1.9573092460632324,-5.220447540283203,3.66796875,1,B1,6.1,90,128.0,8.77592142179478,[6800|0|10000|0]
253,25300,1.9981359243392944,-0.244487464427948,0.9754213690757751,-0.2508646845817566,1.410773992538452,-5.635840892791748,3.6640625,1,B1,6.1,90,128.0,8.792268423193683,[6800|0|10000|0]
254,25400,1.9878029823303225,-0.2325358241796493,0.9751593470573424,0.5133272409439087,0.5689045786857605,-5.104018211364746,3.6640625,1,B1,6.1,90,128.0,8.808069690570816,[6800|0|10000|0]
255,25500,1.9775903224945068,-0.2197014987468719,0.9720364809036256,0.2665581107139587,0.4771672487258911,-4.57455587387085,3.658203125,1,B1,6.1,90,128.0,8.824766116034088,[6800|0|10000|0]
256,25600,1.96843421459198,-0.2141126990318298,0.9752050042152404,0.2501887083053589,0.7309441566467285,-4.534636974334717,3.66796875,1,B1,6.1,90,128.0,8.835951308663354,[6800|0|10000|0]
257,25700,1.9588464498519893,-0.2057069391012191,0.9750025272369384,0.4615792632102966,0.5263415575027466,-4.665332317352295,3.66796875,1,B1,6.1,90,128.0,8.84870368215409,[6800|0|10000|0]
258,25800,1.94936752319336,-0.197306826710701,0.97440105676651,0.2678534090518951,0.2975264489650726,-4.4810709953308105,3.7734375,1,B1,6.1,90,128.0,8.861383339306387,[6800|0|10000|0]
259,25900,1.9391793012619016,-0.191456988453865,0.9620354771614076,0.9314599633216858,-0.281697928905487,-3.965086460113525,3.87890625,1,B1,6.1,90,128.0,8.878439951887025,[6800|0|10000|0]
260,26000,1.930608868598938,-0.1834234297275543,0.9111350178718568,-0.2049374431371688,-0.1132802814245224,-3.814021825790405,3.78515625,1,B1,6.1,90,128.0,8.930678320331365,[6800|0|10000|0]
261,26100,1.9216833114624023,-0.1773304790258407,0.8225528001785278,0.2907958328723907,-0.3561991453170776,-3.167449474334717,3.701171875,1,B1,6.1,90,128.0,9.019917319148696,[6800|0|10000|0]
262,26200,1.913107872009277,-0.172819897532463,0.7098190784454346,-0.0636520311236381,-0.354805588722229,-3.020665168762207,3.658203125,1,B1,6.1,90,128.0,9.133066669668338,[6800|0|10000|0]
263,26300,1.906165361404419,-0.1690869629383087,0.5873246788978577,0.2212710380554199,-0.726971447467804,-2.175443887710572,3.626953125,1,B1,6.1,90,128.0,9.255814423923576,[6800|0|10000|0]
264,26400,1.901824951171875,-0.1654051095247268,0.4681529700756073,0.1412447988986969,-1.2706230878829956,-0.3704725205898285,3.583984375,1,B1,6.1,90,128.0,9.375121973513538,[6800|0|10000|0]
265,26500,1.9014685153961184,-0.1634542346000671,0.3602145612239837,-0.2605803608894348,-1.316892147064209,1.5294322967529297,3.57421875,1,B1,6.1,90,128.0,9.483078599363248,[6800|0|10000|0]
266,26600,1.9050719738006592,-0.1615048348903656,0.2718196511268616,-0.0696041285991668,-0.5044698715209961,3.050884962081909,3.57421875,1,B1,6.1,90,128.0,9.571568402181311,[6800|0|10000|0]
267,26700,1.910110592842102,-0.1624065488576889,0.2020388841629028,1.775384783744812,-1.0075641870498655,1.519864559173584,3.583984375,1,B1,6.1,90,128.0,9.641536653610098,[6800|0|10000|0]
268,26801,1.9178560972213743,-0.1626095026731491,0.1525805592536926,0.2436490505933761,2.6562724113464355,-3.130230188369751,3.60546875,1,B1,6.1,90,128.0,9.691598215023676,[6800|0|10000|0]
269,26901,1.9207746982574463,-0.1653472632169723,0.1161150708794593,0.5709763169288635,2.6929826736450195,-8.456748008728027,3.62109375,1,B1,6.1,90,128.0,9.72828261780162,[6800|0|10000|0]
270,27001,1.91847574710846,-0.1658419966697693,0.0852878391742706,-0.999718964099884,1.0369446277618408,-12.301165580749512,3.615234375,1,B1,6.1,90,128.0,9.75919941181685,[6800|0|10000|0]
271,27101,1.915663719177246,-0.163496732711792,0.060280792415142,-2.362938404083252,-2.5986363887786865,-14.816633224487305,3.615234375,1,B1,6.1,90,128.0,9.784473116565694,[6800|0|10000|0]
272,27201,1.917177557945252,-0.1583195626735687,0.042530458420515,-6.2155585289001465,-3.5213160514831543,-14.891314506530762,3.630859375,1,B1,6.1,90,128.0,9.803024913091663,[6800|0|10000|0]
273,27301,1.928522109985352,-0.1452698856592178,0.0299619957804679,-1.6905372142791748,-4.217534065246582,-13.123052597045898,3.58984375,1,B1,6.1,90,128.0,9.82440151675791,[6800|0|10000|0]
274,27401,1.943081259727478,-0.1291585266590118,0.0265803504735231,3.828695297241211,4.4655442237854,-10.088562965393066,3.60546875,1,B1,6.1,90,128.0,9.846378328515511,[6800|0|10000|0]
275,27501,1.949975848197937,-0.1204977482557296,0.0385381318628788,3.8723742961883545,4.581008434295654,-7.951191902160644,3.642578125,1,B1,6.1,90,128.0,9.862673510885877,[6800|0|10000|0]
276,27601,1.948139786720276,-0.1160454824566841,0.0572986528277397,5.842174053192139,2.3317153453826904,-6.196096897125244,3.658203125,1,B1,6.1,90,128.0,9.882042324462551,[6800|0|10000|0]
277,27701,1.939388394355774,-0.1204979047179222,0.0753104537725448,2.727917432785034,0.4325628280639648,-7.940907478332519,3.68359375,1,B1,6.1,90,128.0,9.902556609865297,[6800|0|10000|0]
278,27802,1.9326813220977783,-0.1264396607875824,0.0891772136092186,-1.1683393716812134,-3.353322982788086,-9.989730834960938,3.65234375,1,B1,6.1,90,128.0,9.919066495141497,[6800|0|10000|0]
279,27902,1.9306167364120483,-0.1313236504793167,0.0912747755646705,1.8145124912261963,-0.8095654845237732,-7.108166217803955,3.62109375,1,B1,6.1,90,128.0,9.924768743427885,[6800|0|10000|0]
280,28002,1.9328068494796755,-0.1389167010784149,0.0888791605830192,0.9246307015419006,0.3565616011619568,-3.404263734817505,3.62109375,1,B1,6.1,90,128.0,9.933026466103644,[6800|0|10000|0]
281,28100,1.934201717376709,-0.1473806053400039,0.0897258147597312,-0.2871924340724945,1.0142637491226196,0.1240808516740799,3.63671875,1,B1,6.1,90,128.0,9.941646219875908,[6800|0|10000|0]
282,28200,1.933612823486328,-0.1565610915422439,0.0934904366731643,-0.0213410407304763,2.8838038444519043,3.681962251663208,3.642578125,1,B1,6.1,90,128.0,9.951586063993132,[6800|0|10000|0]
283,28300,1.929178595542908,-0.1648513376712799,0.0963159501552581,-1.267237663269043,0.7426397800445557,5.88554573059082,3.642578125,1,B1,6.1,90,128.0,9.961403094336964,[6800|0|10000|0]
284,28400,1.922560453414917,-0.1725352257490158,0.0992768853902816,-0.6026492118835449,-0.0792888328433036,6.676286697387695,3.642578125,1,B1,6.1,90,128.0,9.971967614140697,[6800|0|10000|0]
285,28500,1.9163016080856323,-0.1785475462675094,0.1012357845902443,-0.6409265995025635,-0.4656237959861755,6.417272567749023,3.642578125,1,B1,6.1,90,128.0,9.980864716418887,[6800|0|10000|0]
286,28600,1.910283207893372,-0.1851270198822021,0.0995443984866142,-1.1556241512298584,-1.703014850616455,4.784277439117432,3.626953125,1,B1,6.1,90,128.0,9.989940585571327,[6800|0|10000|0]
287,28700,1.9070616960525515,-0.1900776624679565,0.0976043194532394,-0.538887083530426,-1.7895265817642212,3.1554462909698486,3.630859375,1,B1,6.1,90,128.0,9.996157570950768,[6800|0|10000|0]
288,28800,1.905361533164978,-0.1961376368999481,0.0935551896691322,-1.695870876312256,-2.8510007858276367,1.1932244300842283,3.630859375,1,B1,6.1,90,128.0,10.003641506811611,[6800|0|10000|0]
289,28900,1.910261511802673,-0.1972056478261947,0.0930202826857566,-1.3856892585754397,-1.5086920261383057,-0.503119707107544,3.626953125,1,B1,6.1,90,128.0,10.00868497421701,[6800|0|10000|0]
290,29000,1.915863275527954,-0.1986158937215805,0.0917325392365455,-1.338526725769043,0.513780415058136,-1.588298201560974,3.630859375,1,B1,6.1,90,128.0,10.014603321411144,[6800|0|10000|0]
291,29100,1.9206396341323853,-0.1997385770082473,0.0911973938345909,-1.0451793670654297,0.7194971442222595,-2.576918601989746,3.630859375,1,B1,6.1,90,128.0,10.01953894699272,[6800|0|10000|0]
292,29200,1.9239903688430784,-0.1993752419948578,0.0907565802335739,-0.9945667386054992,1.3018351793289185,-3.4853219985961914,3.630859375,1,B1,6.1,90,128.0,10.022938028054456,[6800|0|10000|0]
293,29300,1.924838900566101,-0.1985605955123901,0.0902295857667923,-0.5785167813301086,0.9397605657577516,-4.085499286651611,3.630859375,1,B1,6.1,90,128.0,10.024226972639918,[6800|0|10000|0]
294,29400,1.9241483211517327,-0.1977475881576538,0.0895695760846138,-0.2312072515487671,0.7699310779571533,-3.780125617980957,3.626953125,1,B1,6.1,90,128.0,10.025481362398716,[6800|0|10000|0]
295,29500,1.9216448068618768,-0.1968965530395507,0.0905848443508148,-0.3529825508594513,0.2379695475101471,-3.0714519023895264,3.626953125,1,B1,6.1,90,128.0,10.028313784370122,[6800|0|10000|0]
296,29600,1.919673204421997,-0.1959486752748489,0.093632735311985,-0.6516560316085815,-0.193756952881813,-2.423116683959961,3.63671875,1,B1,6.1,90,128.0,10.032065494346778,[6800|0|10000|0]
297,29700,1.9171596765518188,-0.1949810087680816,0.0957119613885879,0.0570070520043373,0.0327401682734489,-1.685679912567139,3.63671875,1,B1,6.1,90,128.0,10.035468049548404,[6800|0|10000|0]
298,29800,1.9154911041259768,-0.1951867640018463,0.0975280553102493,0.1774209439754486,-0.4545032382011413,-0.922387957572937,3.630859375,1,B1,6.1,90,128.0,10.037942855861791,[6800|0|10000|0]
299,29900,1.9139853715896609,-0.1961545050144195,0.0989442318677902,-0.013213301077485,-0.0357033163309097,-0.2759401202201843,3.630859375,1,B1,6.1,90,128.0,10.040225246972112,[6800|0|10000|0]
300,30000,1.9118527173995967,-0.1976823806762695,0.1007147580385208,-0.060562115162611,-0.442454069852829,0.5598108172416687,3.63671875,1,B1,6.1,90,128.0,10.043390271593458,[6800|0|10000|0]
301,30100,1.910649657249451,-0.1999767273664474,0.1017789766192436,0.2484572976827621,-0.0904220789670944,1.2747151851654053,3.630859375,1,B1,6.1,90,128.0,10.046190975370576,[6800|0|10000|0]
302,30200,1.909454226493836,-0.2024584114551544,0.1026288643479347,-0.2974811494350433,0.2880549728870392,1.3469886779785156,3.630859375,1,B1,6.1,90,128.0,10.049073703203549,[6800|0|10000|0]
303,30300,1.907685399055481,-0.2055292278528213,0.1031260564923286,-0.7314339280128479,-0.160647839307785,0.8615483045578003,3.63671875,1,B1,6.1,90,128.0,10.052652231376316,[6800|0|10000|0]
304,30400,1.9065892696380613,-0.2069722712039947,0.1007257848978042,-0.3092435896396637,0.0777521654963493,0.4173251986503601,3.626953125,1,B1,6.1,90,128.0,10.055659751540931,[6800|0|10000|0]
305,30500,1.904345750808716,-0.2096064835786819,0.098190426826477,-0.384429931640625,0.3885981738567352,-0.0635277479887008,3.62109375,1,B1,6.1,90,128.0,10.059949331021771,[6800|0|10000|0]
306,30600,1.9025297164916992,-0.2108508646488189,0.0958670377731323,-0.1233318373560905,0.6330869197845459,-0.3951570689678192,3.62109375,1,B1,6.1,90,128.0,10.063150049938123,[6800|0|10000|0]
307,30700,1.8999099731445312,-0.2125539034605026,0.0939958915114402,-0.3579376339912414,-0.5238636136054993,-0.5723596811294556,3.62109375,1,B1,6.1,90,128.0,10.066792107698756,[6800|0|10000|0]
308,30800,1.897342562675476,-0.2131626009941101,0.0816462337970733,0.8380538821220398,1.822880506515503,-0.9933547973632812,3.990234375,1,B1,6.1,90,128.0,10.079420494565891,[6800|0|10000|0]
309,30900,1.892672061920166,-0.2149978727102279,0.0149709740653634,5.592037200927734,5.8950700759887695,-1.818727135658264,3.99609375,1,B1,6.1,90,128.0,10.146284326791308,[6800|0|10000|0]
310,31000,1.8924229145050049,-0.22113998234272,0.0,-1.7323583364486694,0.3960391581058502,0.6828704476356506,3.99609375,1,B1,6.1,90,128.0,10.16246819683644,[6800|0|10000|0]
311,31100,1.891666293144226,-0.221045434474945,0.0,-1.3389225006103516,0.0959063991904258,0.3679768443107605,3.99609375,1,B1,6.1,90,128.0,10.16323070269405,[6800|0|10000|0]
312,31200,1.8917728662490845,-0.2212183773517608,0.0,-1.0499470233917236,-0.1444891840219497,0.4074362516403198,4.0,1,B1,6.1,90,128.0,10.163433845661736,[6800|0|10000|0]
313,31300,1.8919421434402464,-0.2210341095924377,0.0,-0.9815713167190552,-0.1732874512672424,0.4005756080150604,4.0,1,B1,6.1,90,128.0,10.163684064315264,[6800|0|10000|0]
314,31400,1.8918277025222776,-0.2208678722381591,0.0,-0.9571740031242372,-0.1602122038602829,0.4124034643173218,4.0078125,1,B1,6.1,90,128.0,10.163885884982353,[6800|0|10000|0]
315,31500,1.8918101787567136,-0.2211633175611496,0.0,-0.953486144542694,-0.1155772507190704,0.4569741487503052,4.0078125,1,B1,6.1,90,128.0,10.164181849543128,[6800|0|10000|0]
316,31600,1.891584753990173,-0.2210732847452163,0.0,-0.9514012336730956,-0.070208802819252,0.4543692469596863,4.0078125,1,B1,6.1,90,128.0,10.164424588566186,[6800|0|10000|0]
317,31700,1.8915235996246336,-0.2213150411844253,0.0,-0.9276809096336364,-0.0569362267851829,0.4749853014945984,4.01171875,1,B1,6.1,90,128.0,10.164673959840242,[6800|0|10000|0]
318,31800,1.891700863838196,-0.2212619930505752,0.0,-0.929202139377594,-0.0356227345764637,0.4743295013904571,4.01171875,1,B1,6.1,90,128.0,10.164858991475144,[6800|0|10000|0]
319,31900,1.8918498754501345,-0.2205487042665481,0.0,-0.9369952082633972,-0.0013287380570545,0.480817049741745,4.01171875,1,B1,6.1,90,128.0,10.16558767889092,[6800|0|10000|0]
320,32000,1.891908884048462,-0.2209388464689254,0.0,-0.9109457731246948,0.0336003601551055,0.4750230312347412,4.01171875,1,B1,6.1,90,128.0,10.165982258354086,[6800|0|10000|0]
321,32100,1.891798615455628,-0.2211323082447052,0.0,-0.8890801072120667,0.0502757355570793,0.4666962921619415,4.01171875,1,B1,6.1,90,128.0,10.1662049388904,[6800|0|10000|0]
322,32200,1.8917750120162964,-0.2211444079875946,0.0,-0.8873037099838257,0.0791097432374954,0.4669355154037475,4.015625,1,B1,6.1,90,128.0,10.166231462957326,[6800|0|10000|0]
323,32300,1.8915513753890991,-0.2211553454399109,0.0,-0.8818974494934082,0.1143769919872284,0.4737311601638794,4.015625,1,B1,6.1,90,128.0,10.166455366885131,[6800|0|10000|0]
324,32400,1.8919976949691768,-0.2209943532943725,0.0,-0.8769476413726807,0.1173877492547035,0.4923115670681,4.015625,1,B1,6.1,90,128.0,10.166929834627435,[6800|0|10000|0]
325,32500,1.8915609121322632,-0.2208574414253235,0.0,-0.8754549026489258,0.148853451013565,0.4961363673210144,4.015625,1,B1,6.1,90,128.0,10.167387572660058,[6800|0|10000|0]
326,32600,1.8906347751617432,-0.2201024144887924,0.0,-1.1035630702972412,-0.0059851817786693,0.4997562170028686,4.015625,1,B1,6.1,90,128.0,10.168582476573787,[6800|0|10000|0]
327,32700,1.8908075094223025,-0.2203765511512756,0.0,-1.0452936887741089,0.0336007960140705,0.4769249260425567,4.0234375,1,B1,6.1,90,128.0,10.168906495145,[6800|0|10000|0]
