,time.ms,stateEstimate.x,stateEstimate.y,stateEstimate.z,stabilizer.roll,stabilizer.pitch,stabilizer.yaw,pm.vbat,drone_id,node_name,wind_speed,global_wind_direction,relative_wind_direction,travel_dist,waiting_time
0,0,0.8380008935928345,-0.1934514194726944,0.0,-0.0607795938849449,0.1290851980447769,-3.201002359390259,4.14453125,1,"['C1', 'F1', 'J1']",7.6,0,450.0,0.0,[6200|0|0]
1,100,0.8380928635597229,-0.1932138055562973,0.0,-0.0651230439543724,0.1269377917051315,-3.210260391235352,4.14453125,1,"['C1', 'F1', 'J1']",7.6,0,450.0,0.0002547917739547,[6300|0|0]
2,200,0.838053822517395,-0.1931204050779342,0.0,-0.063095636665821,0.130175694823265,-3.2046055793762207,4.14453125,1,"['C1', 'F1', 'J1']",7.6,0,450.0,0.0003560234505412,[6400|0|0]
3,300,0.8379707336425781,-0.1934304237365722,0.0,-0.0539254024624824,0.1271708756685257,-3.207033395767212,4.14453125,1,"['C1', 'F1', 'J1']",7.6,0,450.0,0.0006769834633497,[6500|0|0]
4,400,0.8379188179969788,-0.1933703124523162,0.0,-0.0604680366814136,0.126583069562912,-3.216907262802124,4.14453125,1,"['C1', 'F1', 'J1']",7.6,0,450.0,0.0007564101638534,[6600|0|0]
5,500,0.8380241394042969,-0.1933690756559372,0.0,-0.0594408437609672,0.1286156475543975,-3.1851580142974854,4.14453125,1,"['C1', 'F1', 'J1']",7.6,0,450.0,0.0008617388328128,[6700|0|0]
6,600,0.8379822373390198,-0.1936553418636322,0.0,-0.0486573278903961,0.1287157386541366,-3.1877763271331787,4.14453125,1,"['C1', 'F1', 'J1']",7.6,0,450.0,0.0011510554841527,[6800|0|0]
7,700,0.8376305103302002,-0.1933672875165939,0.0,-0.0564293786883354,0.1405185610055923,-3.177298784255981,4.14453125,1,"['C1', 'F1', 'J1']",7.6,0,450.0,0.0016056841189535,[6900|0|0]
8,800,0.8376410007476807,-0.1935452818870544,0.0,-0.0507771745324134,0.1408375799655914,-3.176097869873047,4.14453125,1,"['C1', 'F1', 'J1']",7.6,0,450.0,0.001783987357215,[7000|0|0]
9,900,0.8379549980163574,-0.1932113915681839,0.0,-0.0641544014215469,0.1241017803549766,-3.202558755874634,4.14453125,1,"['C1', 'F1', 'J1']",7.6,0,450.0,0.0022423289653763,[7100|0|0]
10,1000,0.8379713892936707,-0.193656712770462,0.0,-0.0554404705762863,0.1189319863915443,-3.2127389907836914,4.14453125,1,"['C1', 'F1', 'J1']",7.6,0,450.0,0.0026879517286755,[7200|0|0]
11,1100,0.8376091122627258,-0.1927317827939987,0.0,-0.2967721223831177,-0.0131836794316768,-3.2490451335906982,4.14453125,1,"['C1', 'F1', 'J1']",7.6,0,450.0,0.0036812996579081,[7300|0|0]
12,1200,0.8377828001976013,-0.1929520368576049,0.0,-0.2492690235376358,0.0094906706362962,-3.2490768432617188,4.14453125,1,"['C1', 'F1', 'J1']",7.6,0,450.0,0.0039617980558649,[7400|0|0]
13,1300,0.8377698659896851,-0.1928877979516983,0.0,-0.2198454737663269,0.0330470651388168,-3.225616693496704,4.14453125,1,"['C1', 'F1', 'J1']",7.6,0,450.0,0.0040273261472952,[7500|0|0]
14,1400,0.8376634120941162,-0.1930799633264541,0.0,-0.1940830647945404,0.0543361343443393,-3.2206602096557617,4.14453125,1,"['C1', 'F1', 'J1']",7.6,0,450.0,0.0042470076511521,[7600|0|0]
15,1500,0.8377481698989868,-0.1931200325489044,0.0,-0.1830299645662307,0.0626533254981041,-3.2362072467803955,4.14453125,1,"['C1', 'F1', 'J1']",7.6,0,450.0,0.0043407596008612,[7700|0|0]
16,1600,0.8377777338027954,-0.19341741502285,0.0,-0.173376590013504,0.0653474554419517,-3.2268474102020264,4.14453125,1,"['C1', 'F1', 'J1']",7.6,0,450.0,0.0046396079908826,[7800|0|0]
17,1700,0.8377466797828674,-0.1926503926515579,0.0,-0.1876101940870285,0.0672764182090759,-3.2280142307281494,4.14453125,1,"['C1', 'F1', 'J1']",7.6,0,450.0,0.0054072587384341,[7900|0|0]
18,1800,0.8377113938331604,-0.1932466924190521,0.0,-0.1744889318943023,0.0624497421085834,-3.236856937408448,4.14453125,1,"['C1', 'F1', 'J1']",7.6,0,450.0,0.0060046016139757,[8000|0|0]
19,1900,0.8376884460449219,-0.1933379471302032,0.0,-0.1800839900970459,0.0692053288221359,-3.2083330154418945,4.14453125,1,"['C1', 'F1', 'J1']",7.6,0,450.0,0.0060986974337145,[8100|0|0]
20,2000,0.8376172184944153,-0.1927184015512466,0.0,-0.1983335614204406,0.0669982731342315,-3.2102558612823486,4.14453125,1,"['C1', 'F1', 'J1']",7.6,0,450.0,0.0067223239953327,[8200|0|0]
21,2100,0.8376659154891968,-0.1926326304674148,0.0,-0.1937936544418335,0.0706885755062103,-3.213146686553955,4.14453125,1,"['C1', 'F1', 'J1']",7.6,0,450.0,0.006820955005276,[8300|0|0]
22,2200,0.8377320170402527,-0.1931156516075134,0.0,-0.1862490028142929,0.0677891224622726,-3.2251415252685547,4.14453125,1,"['C1', 'F1', 'J1']",7.6,0,450.0,0.0073084781707094,[8400|0|0]
23,2300,0.8377393484115601,-0.1931243240833282,0.0,-0.1906495988368988,0.0657664909958839,-3.233666181564331,4.14453125,1,"['C1', 'F1', 'J1']",7.6,0,450.0,0.0073198342634355,[8500|0|0]
24,2400,0.8379121422767639,-0.1929887235164642,0.0,-0.1978711038827896,0.0643334537744522,-3.237521886825561,4.14453125,1,"['C1', 'F1', 'J1']",7.6,0,450.0,0.0075394822399477,[8600|0|0]
25,2500,0.8376768231391907,-0.1931743770837783,0.0,-0.1920546144247055,0.0735156461596489,-3.264126300811768,4.14453125,1,"['C1', 'F1', 'J1']",7.6,0,450.0,0.0078392193640493,[8700|0|0]
26,2600,0.8376681208610535,-0.1932445764541626,0.0,-0.1955759823322296,0.0690373629331588,-3.2352631092071533,4.14453125,1,"['C1', 'F1', 'J1']",7.6,0,450.0,0.0079099560677266,[8800|0|0]
27,2700,0.837971031665802,-0.1928714364767074,0.0,-0.2042899876832962,0.0586312338709831,-3.246711254119873,4.14453125,1,"['C1', 'F1', 'J1']",7.6,0,450.0,0.008390568591917,[8900|0|0]
28,2800,0.8375218510627747,-0.1931272596120834,0.0,-0.1936194747686386,0.066990777850151,-3.2432243824005127,4.14453125,1,"['C1', 'F1', 'J1']",7.6,0,450.0,0.008907490917542,[9000|0|0]
29,2900,0.8380037546157837,-0.1929813623428344,0.0,-0.1942247748374939,0.0515378341078758,-3.2508420944213867,4.14453125,1,"['C1', 'F1', 'J1']",7.6,0,450.0,0.009410995681747,[9100|0|0]
30,3000,0.8374389410018921,-0.1930766105651855,0.0,-0.1911883205175399,0.0727187097072601,-3.235891342163086,4.14453125,1,"['C1', 'F1', 'J1']",7.6,0,450.0,0.009983784161291,[9200|0|0]
31,3100,0.8378393054008484,-0.1928073614835739,0.0,-0.2014725357294082,0.0594113282859325,-3.2221519947052,4.14453125,1,"['C1', 'F1', 'J1']",7.6,0,450.0,0.0104662639224212,[9300|0|0]
32,3200,0.8376595973968506,-0.1926466077566146,0.0,-0.2064600586891174,0.060616910457611,-3.227560043334961,4.14453125,1,"['C1', 'F1', 'J1']",7.6,0,450.0,0.0107073795117807,[9400|0|0]
33,3300,0.8375325798988342,-0.1930956542491912,0.0,-0.1919644773006439,0.0593969039618968,-3.2115867137908936,4.14453125,1,"['C1', 'F1', 'J1']",7.6,0,450.0,0.0111740444850728,[9500|0|0]
34,3400,0.8376142382621765,-0.1928319633007049,0.0,-0.2018457800149917,0.0541743896901607,-3.210091114044189,4.14453125,1,"['C1', 'F1', 'J1']",7.6,0,450.0,0.011450089779576,[9600|0|0]
35,3500,0.8378498554229736,-0.1928879767656326,0.0,-0.1982405185699463,0.0562542602419853,-3.2314038276672363,4.14453125,1,"['C1', 'F1', 'J1']",7.6,0,450.0,0.0116922735005716,[9700|0|0]
36,3600,0.8376761674880981,-0.1925941109657287,0.0,-0.1988240927457809,0.0726623833179473,-3.236622810363769,4.14453125,1,"['C1', 'F1', 'J1']",7.6,0,450.0,0.0120336305088115,[9800|0|0]
37,3700,0.8376582860946655,-0.1932781040668487,0.0,-0.1839127391576767,0.0698258131742477,-3.2193777561187744,4.14453125,1,"['C1', 'F1', 'J1']",7.6,0,450.0,0.0127178573035301,[9900|0|0]
38,3800,0.8376230001449585,-0.1928612291812896,0.0,-0.200395792722702,0.0624257661402225,-3.2237465381622314,4.14453125,1,"['C1', 'F1', 'J1']",7.6,0,450.0,0.0131362228953952,[10000|0|0]
39,3900,0.8378427624702454,-0.1929334998130798,0.0,-0.1948647946119308,0.0550228618085384,-3.228545665740967,4.14453125,1,"['C1', 'F1', 'J1']",7.6,0,450.0,0.013367563604815,[10100|0|0]
40,4000,0.8375314474105835,-0.192807137966156,0.0,-0.200943186879158,0.0591115951538085,-3.225561141967773,4.14453125,1,"['C1', 'F1', 'J1']",7.6,0,450.0,0.0137035463167664,[10200|0|0]
41,4100,0.8376770615577698,-0.1927841156721115,0.0,-0.2049091160297393,0.0526742376387119,-3.242039203643799,4.14453125,1,"['C1', 'F1', 'J1']",7.6,0,450.0,0.0138509691979072,[10300|0|0]
42,4200,0.8376750349998474,-0.1929261535406112,0.0,-0.1969774216413498,0.0546601265668869,-3.2531774044036865,4.14453125,1,"['C1', 'F1', 'J1']",7.6,0,450.0,0.0139930215228616,[10400|0|0]
43,4300,0.8379106521606445,-0.1931009441614151,0.0,-0.191022589802742,0.0457696057856082,-3.2490005493164062,4.14453125,1,"['C1', 'F1', 'J1']",7.6,0,450.0,0.0142863936544337,[10500|0|0]
44,4400,0.8377152681350708,-0.1931157410144806,0.0,-0.1940281689167022,0.0484204441308975,-3.225161552429199,4.14453125,1,"['C1', 'F1', 'J1']",7.6,0,450.0,0.0144823371777,[10600|0|0]
45,4500,0.8378145694732666,-0.1931525617837906,0.0,-0.1996325999498367,0.0495921447873115,-3.2229506969451904,4.14453125,1,"['C1', 'F1', 'J1']",7.6,0,450.0,0.0145882452738025,[10700|0|0]
46,4600,0.837956428527832,-0.1937462985515594,0.0,-0.1934850513935089,0.0406851395964622,-3.213284969329834,4.14453125,1,"['C1', 'F1', 'J1']",7.6,0,450.0,0.0151986937489114,[10800|0|0]
47,4700,0.8378862142562866,-0.1932732909917831,0.0,-0.2103304117918014,0.0390342622995376,-3.2344541549682617,4.14453125,1,"['C1', 'F1', 'J1']",7.6,0,450.0,0.0156768842920364,[10900|0|0]
48,4800,0.8376591801643372,-0.1935850530862808,0.0,-0.2055050134658813,0.046000313013792,-3.223666191101074,4.14453125,1,"['C1', 'F1', 'J1']",7.6,0,450.0,0.0160625526501797,[11000|0|0]
49,4900,0.837935745716095,-0.1937829107046127,0.0,-0.2042351812124252,0.0363129414618015,-3.219170570373535,4.14453125,1,"['C1', 'F1', 'J1']",7.6,0,450.0,0.0164026057953659,[11100|0|0]
50,5000,0.8377668261528015,-0.1935804784297943,0.0,-0.2063101679086685,0.0436581037938594,-3.2173309326171875,4.14453125,1,"['C1', 'F1', 'J1']",7.6,0,450.0,0.0166662583029425,[11200|0|0]
51,5100,0.8379605412483215,-0.1932426691055297,0.0,-0.2142879068851471,0.0324486456811428,-3.206960916519165,4.14453125,1,"['C1', 'F1', 'J1']",7.6,0,450.0,0.0170556689830637,[11300|0|0]
52,5200,0.8381655216217041,-0.1933718472719192,0.0,-0.2077119648456573,0.0301128849387168,-3.212592840194702,4.14453125,1,"['C1', 'F1', 'J1']",7.6,0,450.0,0.0172979579678397,[11400|0|0]
53,5300,0.838182806968689,-0.1934801042079925,0.0,-0.2034093290567398,0.0283790733665227,-3.1987130641937256,4.14453125,1,"['C1', 'F1', 'J1']",7.6,0,450.0,0.0174075861915249,[11500|0|0]
54,5400,0.8382378816604614,-0.1933683902025222,0.0,-0.2172329872846603,0.0222145728766918,-3.212681770324707,4.14453125,1,"['C1', 'F1', 'J1']",7.6,0,450.0,0.0175321383520523,[11600|0|0]
55,5500,0.8379104137420654,-0.1934066861867904,0.0,-0.2156903445720672,0.0328708030283451,-3.2213780879974365,4.14453125,1,"['C1', 'F1', 'J1']",7.6,0,450.0,0.0178618379425733,[11700|0|0]
56,5600,0.8376930952072144,-0.1936787962913513,0.0,-0.2067609429359436,0.0387357547879219,-3.2115895748138428,4.14453125,1,"['C1', 'F1', 'J1']",7.6,0,450.0,0.0182100781679837,[11800|0|0]
57,5700,0.8376855850219727,-0.1934309303760528,0.0,-0.2152989357709884,0.039932083338499,-3.221714973449707,4.14453125,1,"['C1', 'F1', 'J1']",7.6,0,450.0,0.0184580578341847,[11900|0|0]
58,5800,0.8380378484725952,-0.1933932602405548,0.0,-0.2238256633281707,0.0323749370872974,-3.232627391815185,4.14453125,1,"['C1', 'F1', 'J1']",7.6,0,450.0,0.0188123297322417,[12000|0|0]
59,5900,0.8379033207893372,-0.1936229020357132,0.0,-0.2101132273674011,0.0493691600859165,-3.220197916030884,4.14453125,1,"['C1', 'F1', 'J1']",7.6,0,450.0,0.0190784745267547,[12100|0|0]
60,6000,0.8376447558403015,-0.1937328279018402,0.0,-0.2032619714736938,0.0552933923900127,-3.2126080989837646,4.14453125,1,"['C1', 'F1', 'J1']",7.6,0,450.0,0.0193594363193771,[12200|0|0]
61,6100,0.8379760384559631,-0.1932611018419265,0.0,-0.2197818756103515,0.0398500002920627,-3.1990907192230225,4.14453125,1,"['C1', 'F1', 'J1']",7.6,0,450.0,0.0199358681427884,[12300|0|0]
62,6200,0.8380010724067688,-0.1933184117078781,0.0,-0.2189899235963821,0.0393020622432231,-3.1984639167785645,4.14453125,1,"['C1', 'F1', 'J1']",7.6,0,450.0,0.0199984070860824,[12400|0|0]
63,6300,0.8380656242370605,-0.1935001462697982,0.0,-0.2050125747919082,0.0441991575062274,-3.1801180839538574,4.14453125,1,"['C1', 'F1', 'J1']",7.6,0,450.0,0.0201912655569628,[12500|0|0]
64,6400,0.8376060724258423,-0.1933499425649643,0.0,-0.2006774842739105,0.0660310313105583,-3.2020938396453857,4.14453125,1,"['C1', 'F1', 'J1']",7.6,0,450.0,0.0206747415337598,[12600|0|0]
65,6500,0.8377784490585327,-0.1936337202787399,0.0,-0.1973205059766769,0.0606800764799118,-3.200354814529419,4.14453125,1,"['C1', 'F1', 'J1']",7.6,0,450.0,0.0210067708913976,[12700|0|0]
66,6600,0.8379483819007874,-0.1931536793708801,0.0,-0.2049122005701065,0.0594289377331733,-3.211216926574707,4.14453125,1,"['C1', 'F1', 'J1']",7.6,0,450.0,0.0215160021199133,[12800|0|0]
67,6700,0.8376814126968384,-0.1931959837675094,0.0,-0.2003908902406692,0.0617556981742382,-3.2075257301330566,4.14453125,1,"['C1', 'F1', 'J1']",7.6,0,450.0,0.0217863023563751,[12900|0|0]
68,6800,0.8378954529762268,-0.193244382739067,0.0,-0.2002121955156326,0.0492695644497871,-3.2235143184661865,4.14453125,1,"['C1', 'F1', 'J1']",7.6,0,450.0,0.0220057464304544,[13000|0|0]
69,6900,0.8376280069351196,-0.1934616267681121,0.0,-0.1921018213033676,0.0566683486104011,-3.227797269821167,4.14453125,1,"['C1', 'F1', 'J1']",7.6,0,450.0,0.0223503075325243,[13100|0|0]
70,7000,0.8376518487930298,-0.1936383694410324,0.0,-0.1856416165828704,0.0571061931550502,-3.246345043182373,4.14453125,1,"['C1', 'F1', 'J1']",7.6,0,450.0,0.0225286510398904,[13200|0|0]
71,7100,0.8377158641815186,-0.1937083899974823,0.0,-0.1801621317863464,0.0591410361230373,-3.2242298126220703,4.14453125,1,"['C1', 'F1', 'J1']",7.6,0,450.0,0.0226235238404653,[13300|0|0]
72,7200,0.8380194306373596,-0.1931166797876358,0.0,-0.1967102736234665,0.0578529797494411,-3.208165645599365,4.14453125,1,"['C1', 'F1', 'J1']",7.6,0,450.0,0.0232885603549128,[13400|0|0]
73,7300,0.8378205299377441,-0.1938226819038391,0.0,0.0005493185017257,0.1763780117034912,-3.193682909011841,4.14453125,1,"['C1', 'F1', 'J1']",7.6,0,450.0,0.0240220455124934,[13500|0|0]
74,7400,0.8377517461776733,-0.1936757415533065,0.0,-0.0429716892540454,0.1583658009767532,-3.1998209953308105,4.14453125,1,"['C1', 'F1', 'J1']",7.6,0,450.0,0.0241842881464221,[13600|0|0]
75,7500,0.8381211757659912,-0.1936719119548797,0.0,-0.0670705214142799,0.1404830068349838,-3.185110330581665,4.14453125,1,"['C1', 'F1', 'J1']",7.6,0,450.0,0.0245537375834887,[13700|0|0]
76,7600,0.8378178477287292,-0.193569928407669,0.0,-0.0744729936122894,0.1489473432302475,-3.184077262878418,4.14453125,1,"['C1', 'F1', 'J1']",7.6,0,450.0,0.0248737509302274,[13800|0|0]
77,7700,0.8377727270126343,-0.1937529295682907,0.0,-0.0831785202026367,0.1343764513731002,-3.1937222480773926,4.14453125,1,"['C1', 'F1', 'J1']",7.6,0,450.0,0.0250622325044191,[13900|0|0]
78,7800,0.8380434513092041,-0.193535566329956,0.0,-0.1016173362731933,0.1160159856081008,-3.1796412467956543,4.14453125,1,"['C1', 'F1', 'J1']",7.6,0,450.0,0.0254094189415571,[14000|0|0]
79,7900,0.8375094532966614,-0.1935037523508072,0.0,-0.1174242869019508,0.1200951859354972,-3.19242262840271,4.14453125,1,"['C1', 'F1', 'J1']",7.6,0,450.0,0.0259443638047616,[14100|0|0]
80,8000,0.8376665711402893,-0.1937234699726104,0.0,-0.102881409227848,0.1212701871991157,-3.206594944000244,4.14453125,1,"['C1', 'F1', 'J1']",7.6,0,450.0,0.0262144783177318,[14200|0|0]
81,8100,0.8375723958015442,-0.1934278309345245,0.0,-0.1086592599749565,0.1274612545967102,-3.206777811050415,4.14453125,1,"['C1', 'F1', 'J1']",7.6,0,450.0,0.026524754703021,[14300|0|0]
82,8200,0.8379847407341003,-0.1935890316963195,0.0,-0.1070654466748237,0.1117795631289482,-3.219794511795044,4.14453125,1,"['C1', 'F1', 'J1']",7.6,0,450.0,0.0269674894193106,[14400|0|0]
83,8300,0.8379712104797363,-0.1936758905649185,0.0,-0.1015718132257461,0.1034980788826942,-3.232108354568481,4.14453125,1,"['C1', 'F1', 'J1']",7.6,0,450.0,0.027055395794719,[14500|0|0]
84,8400,0.8379166722297668,-0.1932901889085769,0.0,-0.1079169437289238,0.1140390336513519,-3.2012839317321777,4.14453125,1,"['C1', 'F1', 'J1']",7.6,0,450.0,0.0274449342246773,[14600|0|0]
85,8500,0.8376340270042419,-0.1936594843864441,0.0,-0.1018231958150863,0.1170172095298767,-3.229548692703247,4.14453125,1,"['C1', 'F1', 'J1']",7.6,0,450.0,0.0279099798928489,[14700|0|0]
86,8600,0.8379723429679871,-0.1935352683067321,0.0,-0.1034414246678352,0.1100281924009323,-3.222259759902954,4.14453125,1,"['C1', 'F1', 'J1']",7.6,0,450.0,0.0282703787354994,[14800|0|0]
87,8700,0.837827205657959,-0.1934550255537033,0.0,-0.1061038970947265,0.1143094226717948,-3.2254440784454346,4.14453125,1,"['C1', 'F1', 'J1']",7.6,0,450.0,0.0284362212456584,[14900|0|0]
88,8800,0.8378283977508545,-0.193531185388565,0.0,-0.1180475503206253,0.1016860678791999,-3.2177517414093018,4.14453125,1,"['C1', 'F1', 'J1']",7.6,0,450.0,0.0285123904095742,[15000|0|0]
89,8900,0.8377121686935425,-0.19329434633255,0.0,-0.1186328455805778,0.1078610494732856,-3.194611072540283,4.14453125,1,"['C1', 'F1', 'J1']",7.6,0,450.0,0.0287762121907404,[15100|0|0]
90,9000,0.83760005235672,-0.1932556629180908,0.0,-0.1178561747074127,0.1097199022769928,-3.189917802810669,4.14453125,1,"['C1', 'F1', 'J1']",7.6,0,450.0,0.0288948143810099,[15200|0|0]
91,9100,0.8306505084037781,-0.2027516663074493,0.0,0.225651130080223,0.3361185193061828,-3.2023825645446777,4.14453125,1,"['C1', 'F1', 'J1']",7.6,0,450.0,0.040662152292559,[15300|0|0]
92,9200,0.8307942152023315,-0.2030137926340103,0.0,0.2364721000194549,0.3287843763828277,-3.2170958518981934,4.14453125,1,"['C1', 'F1', 'J1']",7.6,0,450.0,0.0409610868255705,[15400|0|0]
93,9300,0.8306881189346313,-0.2029363512992859,0.0,0.2338561862707138,0.338099718093872,-3.217972040176392,4.14453125,1,"['C1', 'F1', 'J1']",7.6,0,450.0,0.0410924397027518,[15500|0|0]
94,9400,0.8309752941131592,-0.202959656715393,0.0,0.2370617687702179,0.3321721255779266,-3.2031772136688232,4.14453125,1,"['C1', 'F1', 'J1']",7.6,0,450.0,0.0413805589932938,[15600|0|0]
95,9500,0.8309072256088257,-0.2027760297060012,0.0,0.2292386591434478,0.3307258188724518,-3.23314905166626,4.14453125,1,"['C1', 'F1', 'J1']",7.6,0,450.0,0.0415763961702046,[15700|0|0]
96,9600,0.8307992815971375,-0.2027261555194854,0.0,0.2197096794843673,0.3266118764877319,-3.2366724014282227,4.14453125,1,"['C1', 'F1', 'J1']",7.6,0,450.0,0.0416953051443822,[15800|0|0]
97,9700,0.8307095170021057,-0.2025714069604873,0.0,0.2176069468259811,0.3274026215076446,-3.233426570892334,4.14453125,1,"['C1', 'F1', 'J1']",7.6,0,450.0,0.0418742039957848,[15900|0|0]
98,9800,0.830908477306366,-0.2029623389244079,0.0,0.2328138351440429,0.3223832845687866,-3.2288737297058105,4.13671875,1,"['C1', 'F1', 'J1']",7.6,0,450.0,0.042312853061766,[16000|0|0]
99,9900,0.8308457136154175,-0.2030135989189148,0.0,0.2294294238090515,0.3203935623168945,-3.223654270172119,4.14453125,1,"['C1', 'F1', 'J1']",7.6,0,450.0,0.0423938892755122,[16100|0|0]
100,10000,0.8307858109474182,-0.2029670625925064,0.0,0.2227711975574493,0.322487860918045,-3.209523677825928,4.14453125,1,"['C1', 'F1', 'J1']",7.6,0,450.0,0.0424697441323707,[16200|0|0]
101,10101,0.8310591578483582,-0.2030004560947418,0.0,0.2190069556236267,0.3106939494609833,-3.2169926166534424,4.14453125,1,"['C1', 'F1', 'J1']",7.6,0,450.0,0.0427451232424081,[16300|0|0]
102,10201,0.8309457302093506,-0.2027656137943267,0.0,0.2126307338476181,0.31781005859375,-3.234844446182251,4.14453125,1,"['C1', 'F1', 'J1']",7.6,0,450.0,0.0430059234252207,[16400|0|0]
103,10301,0.8308387398719788,-0.2027780711650848,0.0,0.221472293138504,0.3219018578529358,-3.232569456100464,4.14453125,1,"['C1', 'F1', 'J1']",7.6,0,450.0,0.0431136365552335,[16500|0|0]
104,10401,0.8308575749397278,-0.2029890865087509,0.0,0.2270198613405227,0.3245850801467895,-3.250543594360352,4.13671875,1,"['C1', 'F1', 'J1']",7.6,0,450.0,0.0433254908330747,[16600|0|0]
105,10501,0.8305505514144897,-0.202804297208786,0.0,0.2201113253831863,0.3285288512706756,-3.2644155025482178,4.14453125,1,"['C1', 'F1', 'J1']",7.6,0,450.0,0.0436838349839005,[16700|0|0]
106,10601,0.8305887579917908,-0.2027981877326965,0.0,0.2193353027105331,0.3269193172454834,-3.258648633956909,4.14453125,1,"['C1', 'F1', 'J1']",7.6,0,450.0,0.0437225269500841,[16800|0|0]
107,10701,0.8308578133583069,-0.2025660723447799,0.0,0.2136252522468567,0.315753698348999,-3.275155544281006,4.14453125,1,"['C1', 'F1', 'J1']",7.6,0,450.0,0.0440778695222012,[16900|0|0]
108,10801,0.8309097290039062,-0.2030021399259567,0.0,0.2276993691921234,0.3248392343521118,-3.265209913253784,4.14453125,1,"['C1', 'F1', 'J1']",7.6,0,450.0,0.0445170166155667,[17000|0|0]
109,10901,0.8308860659599304,-0.2028370052576065,0.0,0.2236630916595459,0.3265277445316314,-3.251804113388061,4.14453125,1,"['C1', 'F1', 'J1']",7.6,0,450.0,0.0446838380720443,[17100|0|0]
110,11002,0.8307135701179504,-0.2029902040958404,0.0,0.2258681803941726,0.3265046775341034,-3.2313127517700195,4.14453125,1,"['C1', 'F1', 'J1']",7.6,0,450.0,0.0449145428607605,[17200|0|0]
111,11102,0.8308191299438477,-0.2028525322675705,0.0,0.2219661474227905,0.3237684667110443,-3.2560691833496094,4.14453125,1,"['C1', 'F1', 'J1']",7.6,0,450.0,0.045088026027502,[17300|0|0]
112,11202,0.830788254737854,-0.2029393315315246,0.0,0.2263974398374557,0.3262989819049835,-3.2342920303344727,4.14453125,1,"['C1', 'F1', 'J1']",7.6,0,450.0,0.045180153062449,[17400|0|0]
113,11302,0.8307711482048035,-0.2022990584373474,0.0,0.2109843343496322,0.3213436901569366,-3.2433438301086426,4.14453125,1,"['C1', 'F1', 'J1']",7.6,0,450.0,0.0458206546382474,[17500|0|0]
114,11402,0.8308215737342834,-0.2027577757835388,0.0,0.2220519036054611,0.3159899115562439,-3.2569260597229004,4.14453125,1,"['C1', 'F1', 'J1']",7.6,0,450.0,0.0462821352312523,[17600|0|0]
115,11502,0.830756664276123,-0.2026573270559311,0.0,0.2212891578674316,0.3230364024639129,-3.2578818798065186,4.14453125,1,"['C1', 'F1', 'J1']",7.6,0,450.0,0.046401731153577,[17700|0|0]
116,11602,0.8308255076408386,-0.2026482224464416,0.0,0.2250096052885055,0.3275595903396606,-3.274713516235352,4.13671875,1,"['C1', 'F1', 'J1']",7.6,0,450.0,0.0464711739557909,[17800|0|0]
117,11702,0.8309987187385559,-0.2028535157442093,0.0,0.2397149950265884,0.3289940059185028,-3.2799479961395264,4.14453125,1,"['C1', 'F1', 'J1']",7.6,0,450.0,0.046739776678191,[17900|0|0]
118,11802,0.8312408924102783,-0.2023197412490844,0.0,0.0438891649246215,0.2092232555150985,-3.2765066623687744,4.14453125,1,"['C1', 'F1', 'J1']",7.6,0,450.0,0.047325919407329,[18000|0|0]
119,11902,0.830813467502594,-0.2024882286787033,0.0,0.085878811776638,0.2446483373641967,-3.269989252090454,4.14453125,1,"['C1', 'F1', 'J1']",7.6,0,450.0,0.0477853539137045,[18100|0|0]
120,12000,0.8310194611549377,-0.2025133520364761,0.0,0.1135067418217659,0.248874545097351,-3.2731950283050537,4.14453125,1,"['C1', 'F1', 'J1']",7.6,0,450.0,0.0479928739558973,[18200|0|0]
121,12100,0.830959677696228,-0.2027813345193863,0.0,0.1448564231395721,0.2675999701023102,-3.2619316577911377,4.14453125,1,"['C1', 'F1', 'J1']",7.6,0,450.0,0.0482674439343764,[18300|0|0]
122,12200,0.8307719230651855,-0.2026119083166122,0.0,0.1549887508153915,0.287099152803421,-3.249345541000366,4.13671875,1,"['C1', 'F1', 'J1']",7.6,0,450.0,0.0485203412251178,[18400|0|0]
123,12300,0.830924928188324,-0.2028084397315979,0.0,0.1595642864704132,0.2849930226802826,-3.240584373474121,4.14453125,1,"['C1', 'F1', 'J1']",7.6,0,450.0,0.0487694098196513,[18500|0|0]
124,12400,0.8308686017990112,-0.2025756984949112,0.0,0.1505495011806488,0.2806955873966217,-3.230234384536743,4.14453125,1,"['C1', 'F1', 'J1']",7.6,0,450.0,0.0490088699319612,[18600|0|0]
125,12500,0.8311775326728821,-0.2026406079530716,0.0,0.1583594679832458,0.2701225876808166,-3.2471866607666016,4.14453125,1,"['C1', 'F1', 'J1']",7.6,0,450.0,0.0493245462259544,[18700|0|0]
126,12600,0.8309106826782227,-0.2027458101511001,0.0,0.1599633246660232,0.2775047421455383,-3.2409846782684326,4.14453125,1,"['C1', 'F1', 'J1']",7.6,0,450.0,0.0496113848951045,[18800|0|0]
127,12700,0.8306604027748108,-0.202516570687294,0.0,0.1557023823261261,0.2842981815338135,-3.240522861480713,4.14453125,1,"['C1', 'F1', 'J1']",7.6,0,450.0,0.0499507825406737,[18900|0|0]
128,12800,0.8307612538337708,-0.2023929059505462,0.0,0.1489607691764831,0.280263602733612,-3.260914087295532,4.14453125,1,"['C1', 'F1', 'J1']",7.6,0,450.0,0.0501103566714351,[19000|0|0]
129,12900,0.8307912945747375,-0.2027715295553207,0.0,0.1592292785644531,0.2781513333320617,-3.2710273265838623,4.14453125,1,"['C1', 'F1', 'J1']",7.6,0,450.0,0.050490170152252,[19100|0|0]
130,13000,0.8311371207237244,-0.2028888911008834,0.0,0.1546540111303329,0.2677102386951446,-3.2512965202331543,4.14453125,1,"['C1', 'F1', 'J1']",7.6,0,450.0,0.0508553679858983,[19200|0|0]
131,13100,0.8307263255119324,-0.2026353031396865,0.0,0.0207948051393032,0.2037810832262039,-3.253230333328247,4.14453125,1,"['C1', 'F1', 'J1']",7.6,0,450.0,0.051338130412041,[19300|0|0]
132,13200,0.8308929800987244,-0.2026337385177612,0.0,0.0553434044122695,0.2145359218120575,-3.265828847885132,4.14453125,1,"['C1', 'F1', 'J1']",7.6,0,450.0,0.0515047923433288,[19400|0|0]
133,13300,0.8305554389953613,-0.2025154680013656,0.0,0.079885721206665,0.2426583915948867,-3.259429454803467,4.14453125,1,"['C1', 'F1', 'J1']",7.6,0,450.0,0.0518624540710941,[19500|0|0]
134,13400,0.8304942846298218,-0.2027729153633117,0.0,0.1104400157928466,0.2625528573989868,-3.255798578262329,4.14453125,1,"['C1', 'F1', 'J1']",7.6,0,450.0,0.0521270651075184,[19600|0|0]
135,13500,0.8304892778396606,-0.2025344520807266,0.0,0.1110815778374672,0.2694165408611297,-3.261343717575073,4.14453125,1,"['C1', 'F1', 'J1']",7.6,0,450.0,0.0523655809457535,[19700|0|0]
136,13600,0.8305808901786804,-0.2027640640735626,0.0,0.1227567121386528,0.2613110244274139,-3.2737410068511963,4.14453125,1,"['C1', 'F1', 'J1']",7.6,0,450.0,0.0526127943918174,[19800|0|0]
137,13700,0.8309032320976257,-0.2026853114366531,0.0,0.1305494308471679,0.2705825567245483,-3.239043951034546,4.14453125,1,"['C1', 'F1', 'J1']",7.6,0,450.0,0.0529446170711652,[19900|0|0]
138,13800,0.8311875462532043,-0.2026101797819137,0.0,0.1772822439670562,0.2889006435871124,-3.2266414165496826,4.14453125,1,"['C1', 'F1', 'J1']",7.6,0,450.0,0.0532386907092327,[20000|0|0]
139,13900,0.8308852910995483,-0.2028955817222595,0.0,0.2219672501087188,0.3297103643417358,-3.2171597480773926,4.14453125,1,"['C1', 'F1', 'J1']",7.6,0,450.0,0.0536543978723473,[20100|0|0]
140,14000,0.8309548497200012,-0.2026860117912292,0.0,0.237160250544548,0.339703619480133,-3.2381887435913086,4.14453125,1,"['C1', 'F1', 'J1']",7.6,0,450.0,0.0538752099138472,[20200|0|0]
141,14100,0.8308067321777344,-0.2029999643564224,0.0,0.2604031860828399,0.3546436429023742,-3.2437517642974854,4.13671875,1,"['C1', 'F1', 'J1']",7.6,0,450.0,0.0542223482429302,[20300|0|0]
142,14200,0.831100583076477,-0.2026586085557937,0.0,0.0960252210497856,0.2383635342121124,-3.2630419731140137,4.14453125,1,"['C1', 'F1', 'J1']",7.6,0,450.0,0.0546727615346021,[20400|0|0]
143,14300,0.830878496170044,-0.2025462538003921,0.0,0.1196174398064613,0.2620338797569275,-3.2592835426330566,4.14453125,1,"['C1', 'F1', 'J1']",7.6,0,450.0,0.0549216514401234,[20500|0|0]
144,14400,0.8309196829795837,-0.2023797482252121,0.0,0.1404760181903839,0.2704498767852783,-3.2705740928649902,4.14453125,1,"['C1', 'F1', 'J1']",7.6,0,450.0,0.0550931753738647,[20600|0|0]
145,14500,0.8310428261756897,-0.2027350962162017,0.0,0.1707490384578704,0.2814933359622955,-3.2533750534057617,4.14453125,1,"['C1', 'F1', 'J1']",7.6,0,450.0,0.0554692557395414,[20700|0|0]
146,14600,0.8307085633277893,-0.2026316672563552,0.0,0.1771184056997299,0.3033273220062256,-3.2773470878601074,4.14453125,1,"['C1', 'F1', 'J1']",7.6,0,450.0,0.0558191545838113,[20800|0|0]
147,14700,0.8311129212379456,-0.2025269567966461,0.0,0.173315167427063,0.289701372385025,-3.248962163925171,4.14453125,1,"['C1', 'F1', 'J1']",7.6,0,450.0,0.0562368501665967,[20900|0|0]
148,14800,0.8307756781578064,-0.2026508301496505,0.0,0.1748690605163574,0.2908231019973755,-3.232309341430664,4.14453125,1,"['C1', 'F1', 'J1']",7.6,0,450.0,0.0565961237429787,[21000|0|0]
149,14900,0.8308493494987488,-0.2028072625398636,0.0,0.1779941767454147,0.2934614717960357,-3.2304604053497314,4.13671875,1,"['C1', 'F1', 'J1']",7.6,0,450.0,0.0567690357413594,[21100|0|0]
150,15000,0.8309118151664734,-0.2028537839651107,0.0,0.1914858222007751,0.2961759865283966,-3.2278549671173096,4.14453125,1,"['C1', 'F1', 'J1']",7.6,0,450.0,0.0568469215722358,[21200|0|0]
151,15100,0.8309252858161926,-0.2026901543140411,0.0,0.1723498553037643,0.2855121791362762,-3.2358217239379883,4.14453125,1,"['C1', 'F1', 'J1']",7.6,0,450.0,0.0570111047659951,[21300|0|0]
152,15200,0.8309341073036194,-0.2032414823770523,0.0,0.2205508202314376,0.3300159871578216,-3.233011245727539,4.14453125,1,"['C1', 'F1', 'J1']",7.6,0,450.0,0.0575625033982968,[21400|0|0]
153,15300,0.8303298950195312,-0.2028537541627884,0.0,0.1718979775905609,0.3048574328422546,-3.225459575653076,4.14453125,1,"['C1', 'F1', 'J1']",7.6,0,450.0,0.0582804209787886,[21500|0|0]
154,15400,0.8308663368225098,-0.2029730379581451,0.0,0.1542400270700454,0.2820565104484558,-3.235631227493286,4.13671875,1,"['C1', 'F1', 'J1']",7.6,0,450.0,0.058829964818548,[21600|0|0]
155,15500,0.8310671448707581,-0.2027138322591781,0.0,0.1131905689835548,0.2588019967079162,-3.2365598678588867,4.13671875,1,"['C1', 'F1', 'J1']",7.6,0,450.0,0.0591578542307258,[21700|0|0]
156,15600,0.8308953046798706,-0.2028672248125076,0.0,0.1133820116519928,0.2663286924362182,-3.238389730453491,4.14453125,1,"['C1', 'F1', 'J1']",7.6,0,450.0,0.0593881981618835,[21800|0|0]
157,15700,0.8308543562889099,-0.202816903591156,0.0,0.1120379492640495,0.2603050470352173,-3.2375640869140625,4.14453125,1,"['C1', 'F1', 'J1']",7.6,0,450.0,0.0594530749377018,[21900|0|0]
158,15800,0.8311623334884644,-0.2029137015342712,0.0,0.1093801632523536,0.248116135597229,-3.247704029083252,4.14453125,1,"['C1', 'F1', 'J1']",7.6,0,450.0,0.0597759058489181,[22000|0|0]
159,15900,0.831016480922699,-0.2029071599245071,0.0,0.1108513996005058,0.2529807090759277,-3.275956392288208,4.14453125,1,"['C1', 'F1', 'J1']",7.6,0,450.0,0.0599219050393222,[22100|0|0]
160,16000,0.8308507800102234,-0.2027417719364166,0.0,0.112453319132328,0.2601702511310577,-3.2699854373931885,4.14453125,1,"['C1', 'F1', 'J1']",7.6,0,450.0,0.0601560203506538,[22200|0|0]
161,16100,0.8308784365653992,-0.2026172578334808,0.0,0.1157288625836372,0.2615378499031067,-3.291781425476074,4.13671875,1,"['C1', 'F1', 'J1']",7.6,0,450.0,0.0602835689565814,[22300|0|0]
162,16200,0.8309809565544128,-0.2030962109565735,0.0,0.1300816088914871,0.259116917848587,-3.304616928100586,4.13671875,1,"['C1', 'F1', 'J1']",7.6,0,450.0,0.0607733714088697,[22400|0|0]
163,16300,0.830900251865387,-0.2027841508388519,0.0,0.1217011287808418,0.2677983939647674,-3.3079617023468018,4.14453125,1,"['C1', 'F1', 'J1']",7.6,0,450.0,0.0610956985158638,[22500|0|0]
164,16400,0.8309869170188904,-0.2028114348649978,0.0,0.1198238134384155,0.2619996964931488,-3.283978223800659,4.13671875,1,"['C1', 'F1', 'J1']",7.6,0,450.0,0.0611865570152708,[22600|0|0]
165,16500,0.8310382962226868,-0.2027055323123932,0.0,0.1097566932439804,0.2604034841060638,-3.289020538330078,4.14453125,1,"['C1', 'F1', 'J1']",7.6,0,450.0,0.0613042650151303,[22700|0|0]
166,16600,0.8308079838752747,-0.2027247846126556,0.0,0.1066518276929855,0.2739768028259277,-3.261785984039306,4.14453125,1,"['C1', 'F1', 'J1']",7.6,0,450.0,0.0615353806321619,[22800|0|0]
167,16700,0.8309369683265686,-0.2027895599603653,0.0,0.1071301102638244,0.2664071023464203,-3.2650887966156006,4.13671875,1,"['C1', 'F1', 'J1']",7.6,0,450.0,0.0616797164709079,[22900|0|0]
168,16800,0.8311223387718201,-0.2028311043977737,0.0,0.1055595353245735,0.2582967281341553,-3.2723605632781982,4.13671875,1,"['C1', 'F1', 'J1']",7.6,0,450.0,0.0618696852637458,[23000|0|0]
169,16900,0.8308821320533752,-0.2026505321264267,0.0,0.1074633374810218,0.2734333872795105,-3.2706503868103027,4.13671875,1,"['C1', 'F1', 'J1']",7.6,0,450.0,0.062170194186684,[23100|0|0]
170,17000,0.8309120535850525,-0.202732503414154,0.0,0.1126787066459655,0.2750807404518127,-3.261645555496216,4.14453125,1,"['C1', 'F1', 'J1']",7.6,0,450.0,0.0622574558052203,[23200|0|0]
171,17100,0.8311549425125122,-0.202868178486824,0.0,0.1181939616799354,0.263691782951355,-3.265331983566284,4.14453125,1,"['C1', 'F1', 'J1']",7.6,0,450.0,0.0625356693139264,[23300|0|0]
172,17200,0.8309167623519897,-0.2028407752513885,0.0,0.1117912605404853,0.2705339789390564,-3.27917218208313,4.14453125,1,"['C1', 'F1', 'J1']",7.6,0,450.0,0.0627754206980284,[23400|0|0]
173,17300,0.830751359462738,-0.202821746468544,0.0,0.1120385229587555,0.2726813554763794,-3.281773805618286,4.14453125,1,"['C1', 'F1', 'J1']",7.6,0,450.0,0.0629419145728387,[23500|0|0]
174,17400,0.8314031958580017,-0.2030844688415527,0.0,0.1039232015609741,0.2439314424991607,-3.278185606002808,4.13671875,1,"['C1', 'F1', 'J1']",7.6,0,450.0,0.0636447045353949,[23600|0|0]
175,17500,0.83086097240448,-0.2025956511497497,0.0,0.1013643890619278,0.2694891393184662,-3.2737979888916016,4.13671875,1,"['C1', 'F1', 'J1']",7.6,0,450.0,0.0643747381026838,[23700|0|0]
176,17600,0.83106529712677,-0.2025901526212692,0.0,0.107929803431034,0.2683596014976501,-3.2681360244750977,4.13671875,1,"['C1', 'F1', 'J1']",7.6,0,450.0,0.0645791367963058,[23800|0|0]
177,17700,0.8310019969940186,-0.2030072212219238,0.0,0.1255377978086471,0.2742935121059418,-3.2361080646514893,4.14453125,1,"['C1', 'F1', 'J1']",7.6,0,450.0,0.0650009817019978,[23900|0|0]
178,17800,0.830897331237793,-0.2029637992382049,0.0,0.1165913343429565,0.2766900658607483,-3.229987382888794,4.13671875,1,"['C1', 'F1', 'J1']",7.6,0,450.0,0.0651142971431184,[24000|0|0]
179,17900,0.8306707739830017,-0.2026129513978958,0.0,0.1024302765727043,0.287150114774704,-3.2235379219055176,4.14453125,1,"['C1', 'F1', 'J1']",7.6,0,450.0,0.0655319362178565,[24100|0|0]
180,18000,0.8310303688049316,-0.2027057856321334,0.0,0.1072211042046547,0.2810792624950409,-3.242820501327514,4.13671875,1,"['C1', 'F1', 'J1']",7.6,0,450.0,0.0659033209658004,[24200|0|0]
181,18100,0.8309904336929321,-0.2028922140598297,0.0,0.1129821687936782,0.2839368879795074,-3.2518606185913086,4.14453125,1,"['C1', 'F1', 'J1']",7.6,0,450.0,0.0660939787005601,[24300|0|0]
182,18200,0.8309897184371948,-0.2026433497667312,0.0,0.1058826744556427,0.2879979908466339,-3.254020929336548,4.13671875,1,"['C1', 'F1', 'J1']",7.6,0,450.0,0.0663428440215074,[24400|0|0]
183,18300,0.8309175968170166,-0.2025808244943618,0.0,0.1085841432213783,0.2876642644405365,-3.2598354816436768,4.14453125,1,"['C1', 'F1', 'J1']",7.6,0,450.0,0.0664382952539877,[24500|0|0]
184,18400,0.8310087323188782,-0.2030272632837295,0.0,0.1192987337708473,0.2790002524852752,-3.244647979736328,4.13671875,1,"['C1', 'F1', 'J1']",7.6,0,450.0,0.0668939412485401,[24600|0|0]
185,18500,0.8308166265487671,-0.2028870582580566,0.0,0.1157294809818267,0.2810704708099365,-3.254064083099365,4.13671875,1,"['C1', 'F1', 'J1']",7.6,0,450.0,0.0671317690773026,[24700|0|0]
186,18600,0.8308511972427368,-0.2028161585330963,0.0,0.1111105531454086,0.2733494937419891,-3.251060485839844,4.14453125,1,"['C1', 'F1', 'J1']",7.6,0,450.0,0.0672106481231957,[24800|0|0]
187,18700,0.8308099508285522,-0.2026608139276504,0.0,0.1028860062360763,0.2665975391864776,-3.282887935638428,4.13671875,1,"['C1', 'F1', 'J1']",7.6,0,450.0,0.0673713752619254,[24900|0|0]
188,18800,0.8307064175605774,-0.2025142908096313,0.0,0.0992875769734382,0.2651674449443817,-3.2678072452545166,4.14453125,1,"['C1', 'F1', 'J1']",7.6,0,450.0,0.0675507858571855,[25000|0|0]
189,18900,0.8308905959129333,-0.2027803510427475,0.0,0.1059779375791549,0.266432911157608,-3.2638401985168457,4.13671875,1,"['C1', 'F1', 'J1']",7.6,0,450.0,0.0678743746597149,[25100|0|0]
190,19000,0.8310115933418274,-0.2029348462820053,0.0,0.1061224341392517,0.2637301683425903,-3.262786626815796,4.14453125,1,"['C1', 'F1', 'J1']",7.6,0,450.0,0.0680706121605966,[25200|0|0]
191,19100,0.830859363079071,-0.2026041895151138,0.0,0.097071886062622,0.2720952033996582,-3.274751663208008,4.14453125,1,"['C1', 'F1', 'J1']",7.6,0,450.0,0.0684346285755974,[25300|0|0]
192,19200,0.830996036529541,-0.2026688456535339,0.0,0.0997550040483474,0.2605689167976379,-3.280425786972046,4.13671875,1,"['C1', 'F1', 'J1']",7.6,0,450.0,0.0685858239733407,[25400|0|0]
193,19300,0.830867350101471,-0.2027278393507003,0.0,0.1096881479024887,0.2666850090026855,-3.2541561126708984,4.14453125,1,"['C1', 'F1', 'J1']",7.6,0,450.0,0.068727388280547,[25500|0|0]
194,19400,0.8311341404914856,-0.2027151137590408,0.0,0.1102548688650131,0.261168360710144,-3.2602007389068604,4.13671875,1,"['C1', 'F1', 'J1']",7.6,0,450.0,0.0689944819960988,[25600|0|0]
195,19500,0.830966055393219,-0.2029028832912445,0.0,0.1135239973664283,0.2661618292331695,-3.248560667037964,4.13671875,1,"['C1', 'F1', 'J1']",7.6,0,450.0,0.0692464938955862,[25700|0|0]
196,19600,0.8309685587882996,-0.2026431411504745,0.0,0.1097979620099067,0.2733587622642517,-3.246500253677368,4.14453125,1,"['C1', 'F1', 'J1']",7.6,0,450.0,0.0695062480999386,[25800|0|0]
197,19700,0.8310266137123108,-0.2028364837169647,0.0,0.111895278096199,0.2679302394390106,-3.276336908340454,4.14453125,1,"['C1', 'F1', 'J1']",7.6,0,450.0,0.0697081186580172,[25900|0|0]
198,19800,0.8309606313705444,-0.2027701139450073,0.0,0.1062835752964019,0.2676816284656524,-3.272944211959839,4.13671875,1,"['C1', 'F1', 'J1']",7.6,0,450.0,0.069801706136104,[26000|0|0]
199,19900,0.8310194611549377,-0.2028763890266418,0.0,0.1038520187139511,0.2590943276882171,-3.2640206813812256,4.13671875,1,"['C1', 'F1', 'J1']",7.6,0,450.0,0.0699231776821886,[26100|0|0]
200,20000,0.8308786749839783,-0.2027232199907302,0.0,0.0989523530006408,0.2659034132957458,-3.2458059787750244,4.14453125,1,"['C1', 'F1', 'J1']",7.6,0,450.0,0.0701312197440307,[26200|0|0]
201,20100,0.8308730125427246,-0.2028197348117828,0.0,0.1025123670697212,0.2642607986927032,-3.2398760318756104,4.14453125,1,"['C1', 'F1', 'J1']",7.6,0,450.0,0.0702279005276631,[26300|0|0]
202,20200,0.8307268619537354,-0.2024542689323425,0.0,0.0862462744116783,0.2569102942943573,-3.24881911277771,4.14453125,1,"['C1', 'F1', 'J1']",7.6,0,450.0,0.0706215060455321,[26400|0|0]
203,20300,0.8310317993164062,-0.202744647860527,0.0,0.0929475352168083,0.2567513287067413,-3.224388360977173,4.14453125,1,"['C1', 'F1', 'J1']",7.6,0,450.0,0.0710425840870948,[26500|0|0]
204,20400,0.8311384320259094,-0.2029559016227722,0.0,0.1005403101444244,0.2598370611667633,-3.212618827819824,4.13671875,1,"['C1', 'F1', 'J1']",7.6,0,450.0,0.0712792245037584,[26600|0|0]
205,20500,0.8310825228691101,-0.2026351243257522,0.0,0.0952044650912284,0.2651348710060119,-3.235257625579834,4.13671875,1,"['C1', 'F1', 'J1']",7.6,0,450.0,0.0716048376301791,[26700|0|0]
206,20600,0.8311741352081299,-0.2027649283409118,0.0,0.0962262228131294,0.2636419236660003,-3.2272050380706787,4.14453125,1,"['C1', 'F1', 'J1']",7.6,0,450.0,0.0717637146361058,[26800|0|0]
207,20700,0.8308312892913818,-0.2025352567434311,0.0,0.0884973555803299,0.2766319215297699,-3.223822116851806,4.13671875,1,"['C1', 'F1', 'J1']",7.6,0,450.0,0.0721763795913906,[26900|0|0]
208,20800,0.8308194875717163,-0.2027622610330581,0.0,0.0977551341056823,0.2736111879348755,-3.2257182598114014,4.13671875,1,"['C1', 'F1', 'J1']",7.6,0,450.0,0.072403690453639,[27000|0|0]
209,20900,0.8310507535934448,-0.202841430902481,0.0,0.0993876457214355,0.265257328748703,-3.2314019203186035,4.13671875,1,"['C1', 'F1', 'J1']",7.6,0,450.0,0.0726481323506832,[27100|0|0]
210,21000,0.8309010863304138,-0.2028468698263168,0.0,0.0987468957901001,0.2650924026966095,-3.2303130626678467,4.13671875,1,"['C1', 'F1', 'J1']",7.6,0,450.0,0.0727978984066361,[27200|0|0]
211,21100,0.8309281468391418,-0.2025409191846847,0.0,0.0908903777599334,0.2665847539901733,-3.217031240463257,4.13671875,1,"['C1', 'F1', 'J1']",7.6,0,450.0,0.0731050434314171,[27300|0|0]
212,21200,0.8311161994934082,-0.2028528451919555,0.0,0.0949125066399574,0.2579648196697235,-3.218008518218994,4.14453125,1,"['C1', 'F1', 'J1']",7.6,0,450.0,0.073469270880669,[27400|0|0]
213,21300,0.8310337662696838,-0.2028457224369049,0.0,0.0964293554425239,0.2583984732627868,-3.231851100921631,4.14453125,1,"['C1', 'F1', 'J1']",7.6,0,450.0,0.0735520112578321,[27500|0|0]
214,21400,0.8309499025344849,-0.2025887370109558,0.0,0.0896774381399154,0.2584233283996582,-3.240016222000122,4.13671875,1,"['C1', 'F1', 'J1']",7.6,0,450.0,0.0738223344629621,[27600|0|0]
215,21500,0.8309990167617798,-0.2024190872907638,0.0,0.0945980101823806,0.2578255832195282,-3.225015878677368,4.14453125,1,"['C1', 'F1', 'J1']",7.6,0,450.0,0.0739989505292868,[27700|0|0]
216,21600,0.8311780691146851,-0.2027527689933776,0.0,0.1058680340647697,0.2488264143466949,-3.2386515140533447,4.13671875,1,"['C1', 'F1', 'J1']",7.6,0,450.0,0.0743776367103658,[27800|0|0]
217,21700,0.8309147953987122,-0.2028534263372421,0.0,0.1096671149134635,0.2483610361814499,-3.23785138130188,4.14453125,1,"['C1', 'F1', 'J1']",7.6,0,450.0,0.0746594965166455,[27900|0|0]
218,21800,0.8308737277984619,-0.2027175426483154,0.0,0.1073706820607185,0.2518159747123718,-3.2192254066467285,4.14453125,1,"['C1', 'F1', 'J1']",7.6,0,450.0,0.0748014504694141,[28000|0|0]
219,21900,0.8309485912322998,-0.2025353908538818,0.0,0.1067061126232147,0.2595985233783722,-3.221023797988892,4.13671875,1,"['C1', 'F1', 'J1']",7.6,0,450.0,0.0749983865248773,[28100|0|0]
220,22000,0.831352710723877,-0.2028556615114212,0.0,0.1150609850883483,0.246635764837265,-3.206040859222412,4.14453125,1,"['C1', 'F1', 'J1']",7.6,0,450.0,0.0755140277349772,[28200|0|0]
221,22100,0.8312149047851562,-0.2029749006032943,0.0,0.1133301630616188,0.2512880861759186,-3.2141361236572266,4.13671875,1,"['C1', 'F1', 'J1']",7.6,0,450.0,0.0756962595592489,[28300|0|0]
222,22200,0.8309357166290283,-0.202639490365982,0.0,0.1052299290895462,0.2622790932655334,-3.219233512878418,4.13671875,1,"['C1', 'F1', 'J1']",7.6,0,450.0,0.0761326608124735,[28400|0|0]
223,22300,0.8308065533638,-0.2027370929718017,0.0,0.1069511398673057,0.2600300014019012,-3.2305142879486084,4.14453125,1,"['C1', 'F1', 'J1']",7.6,0,450.0,0.0762945540419404,[28500|0|0]
224,22400,0.8310264348983765,-0.2029645889997482,0.0,0.1112050563097,0.2548421621322632,-3.208301305770874,4.13671875,1,"['C1', 'F1', 'J1']",7.6,0,450.0,0.0766109435676506,[28600|0|0]
225,22500,0.8306819200515747,-0.2025984525680542,0.0,0.1010041683912277,0.2688216865062713,-3.2070415019989014,4.14453125,1,"['C1', 'F1', 'J1']",7.6,0,450.0,0.0771136824325501,[28700|0|0]
226,22600,0.8309527039527893,-0.202903613448143,0.0,0.1062199622392654,0.2637652456760406,-3.238254308700561,4.13671875,1,"['C1', 'F1', 'J1']",7.6,0,450.0,0.0775216617015008,[28800|0|0]
227,22700,0.8310312032699585,-0.2028862088918686,0.0,0.110319122672081,0.2630449533462524,-3.256797790527344,4.13671875,1,"['C1', 'F1', 'J1']",7.6,0,450.0,0.0776020673068722,[28900|0|0]
228,22800,0.8306862115859985,-0.2027705460786819,0.0,0.1053700819611549,0.2777856588363647,-3.2298696041107178,4.13671875,1,"['C1', 'F1', 'J1']",7.6,0,450.0,0.0779659314963108,[29000|0|0]
229,22900,0.8313666582107544,-0.2028794139623642,0.0,0.1104941591620445,0.2576174139976501,-3.233198404312134,4.13671875,1,"['C1', 'F1', 'J1']",7.6,0,450.0,0.0786550322329518,[29100|0|0]
230,23000,0.8306975960731506,-0.2028292268514633,0.0,0.1122788488864898,0.2708992958068847,-3.251883745193481,4.13671875,1,"['C1', 'F1', 'J1']",7.6,0,450.0,0.0793259740263105,[29200|0|0]
231,23100,0.8308440446853638,-0.2027795761823654,0.0,0.10368163138628,0.2603852450847626,-3.248823881149292,4.13671875,1,"['C1', 'F1', 'J1']",7.6,0,450.0,0.0794806103252866,[29300|0|0]
232,23200,0.8309850692749023,-0.2029159814119339,0.0,0.1136532202363014,0.2646574974060058,-3.2501468658447266,4.13671875,1,"['C1', 'F1', 'J1']",7.6,0,450.0,0.0796768100233194,[29400|0|0]
233,23300,0.8310723900794983,-0.2028273344039917,0.0,0.1069513335824012,0.2575768828392029,-3.249887228012085,4.14453125,1,"['C1', 'F1', 'J1']",7.6,0,450.0,0.0798012415905859,[29500|0|0]
234,23400,0.8309492468833923,-0.2028445452451706,0.0,0.1070532649755477,0.2578769326210022,-3.2299420833587646,4.13671875,1,"['C1', 'F1', 'J1']",7.6,0,450.0,0.0799255816879048,[29600|0|0]
235,23500,0.8310863375663757,-0.2030263990163803,0.0,0.1099640950560569,0.2581442296504974,-3.226942539215088,4.13671875,1,"['C1', 'F1', 'J1']",7.6,0,450.0,0.0801533198038715,[29700|0|0]
236,23600,0.8310450315475464,-0.2025839537382125,0.0,0.0997487008571624,0.2575191855430603,-3.240744113922119,4.13671875,1,"['C1', 'F1', 'J1']",7.6,0,450.0,0.0805976890325142,[29800|0|0]
237,23700,0.8307714462280273,-0.2028056979179382,0.0,0.1002921313047409,0.2692757248878479,-3.227050542831421,4.13671875,1,"['C1', 'F1', 'J1']",7.6,0,450.0,0.0809498529266012,[29900|0|0]
238,23800,0.8311911225318909,-0.2027862519025802,0.0,0.0985029488801956,0.2589617073535919,-3.208944320678711,4.14453125,1,"['C1', 'F1', 'J1']",7.6,0,450.0,0.081369979511737,[30000|0|0]
239,23900,0.8308367133140564,-0.2027787864208221,0.0,0.0968230590224266,0.2698094248771667,-3.2179410457611084,4.14453125,1,"['C1', 'F1', 'J1']",7.6,0,450.0,0.0817244673494747,[30100|0|0]
240,24000,0.8309589624404907,-0.2028418630361557,0.0,0.0954152718186378,0.2651258707046509,-3.2096974849700928,4.13671875,1,"['C1', 'F1', 'J1']",7.6,0,450.0,0.0818620300926717,[30200|0|0]
241,24100,0.8309018611907959,-0.2027395814657211,0.0,0.0975313857197761,0.2706182301044464,-3.214256525039673,4.14453125,1,"['C1', 'F1', 'J1']",7.6,0,450.0,0.081979171342312,[30300|0|0]
242,24200,0.8308771848678589,-0.2029027640819549,0.0,0.1045106276869773,0.2836118042469024,-3.2224762439727783,4.13671875,1,"['C1', 'F1', 'J1']",7.6,0,450.0,0.0821442091778364,[30400|0|0]
243,24300,0.8311278820037842,-0.2026781290769577,0.0,0.1009994745254516,0.2800888121128082,-3.210137367248535,4.13671875,1,"['C1', 'F1', 'J1']",7.6,0,450.0,0.0824808245955333,[30500|0|0]
244,24400,0.8308271169662476,-0.2028645277023315,0.0,0.106256790459156,0.2874493300914764,-3.24216103553772,4.13671875,1,"['C1', 'F1', 'J1']",7.6,0,450.0,0.0828346664462882,[30600|0|0]
245,24500,0.8308269381523132,-0.2028626650571823,0.0,0.1074380949139595,0.2830332517623901,-3.2327444553375244,4.13671875,1,"['C1', 'F1', 'J1']",7.6,0,450.0,0.0828365376548214,[30700|0|0]
246,24600,0.8376610279083252,-0.1930928975343704,0.0,0.096290573477745,0.2756635248661041,-3.2430202960968018,4.13671875,1,"['C1', 'F1', 'J1']",7.6,0,450.0,0.0947593368329934,[30800|0|0]
247,24700,0.8307927846908569,-0.2024867683649063,0.0,0.0892332047224044,0.2696840167045593,-3.26499342918396,4.13671875,1,"['C1', 'F1', 'J1']",7.6,0,450.0,0.1063962425245891,[30900|0|0]
248,24800,0.8310101628303528,-0.202718585729599,0.0,0.0955256670713424,0.2597532868385315,-3.241618394851685,4.13671875,1,"['C1', 'F1', 'J1']",7.6,0,450.0,0.1067140357688593,[31000|0|0]
249,24900,0.8373960256576538,-0.1932334750890731,0.0,-0.0818007588386535,0.1356496810913086,-3.193507671356201,4.13671875,1,"['C1', 'F1', 'J1']",7.6,0,450.0,0.1181484823191792,[31100|0|0]
250,25000,0.8375419974327087,-0.1929917484521865,0.0,-0.090948075056076,0.1354294866323471,-3.18827223777771,4.13671875,1,"['C1', 'F1', 'J1']",7.6,0,450.0,0.1184308641990744,[31200|0|0]
251,25100,0.8375982046127319,-0.193050280213356,0.0,-0.0947247967123985,0.1266654580831527,-3.179880142211914,4.13671875,1,"['C1', 'F1', 'J1']",7.6,0,450.0,0.1185120135314917,[31300|0|0]
252,25200,0.8377074003219604,-0.1931803375482559,0.0,-0.092681810259819,0.1246441975235939,-3.187645196914673,4.13671875,1,"['C1', 'F1', 'J1']",7.6,0,450.0,0.1186818328863226,[31400|0|0]
253,25300,0.8373375535011292,-0.1932609230279922,0.0,-0.091313861310482,0.1303424090147018,-3.184565305709839,4.13671875,1,"['C1', 'F1', 'J1']",7.6,0,450.0,0.119060357245411,[31500|0|0]
254,25400,0.8374027609825134,-0.1932696849107742,0.0,-0.0969411358237266,0.1232190579175949,-3.1907052993774414,4.13671875,1,"['C1', 'F1', 'J1']",7.6,0,450.0,0.1191261507573888,[31600|0|0]
255,25500,0.8373959064483643,-0.1931303590536117,0.0,-0.0987618640065193,0.1214340329170227,-3.2127039432525635,4.13671875,1,"['C1', 'F1', 'J1']",7.6,0,450.0,0.1192656451268539,[31700|0|0]
256,25600,0.837400496006012,-0.1933572590351104,0.0,-0.0905131846666336,0.1208107396960258,-3.1884844303131104,4.13671875,1,"['C1', 'F1', 'J1']",7.6,0,450.0,0.1194925915206202,[31800|0|0]
257,25701,0.8376937508583069,-0.1932521760463714,0.0,-0.0963544473052024,0.1070273593068122,-3.1842827796936035,4.13671875,1,"['C1', 'F1', 'J1']",7.6,0,450.0,0.1198041053131187,[31900|0|0]
258,25801,0.8373547792434692,-0.1935779601335525,0.0,-0.0859356001019477,0.1142910867929458,-3.199864149093628,4.13671875,1,"['C1', 'F1', 'J1']",7.6,0,450.0,0.1202742510640578,[32000|0|0]
259,25901,0.8374808430671692,-0.1928385347127914,0.0,-0.113032765686512,0.1061898991465568,-3.20469069480896,4.13671875,1,"['C1', 'F1', 'J1']",7.6,0,450.0,0.1210243457517563,[32100|0|0]
260,26001,0.8376553058624268,-0.1936079859733581,0.0,-0.0950837135314941,0.0967353656888008,-3.1950294971466064,4.13671875,1,"['C1', 'F1', 'J1']",7.6,0,450.0,0.1218133276966174,[32200|0|0]
261,26101,0.8375018239021301,-0.1934614479541778,0.0,-0.097655288875103,0.1039489954710006,-3.1912782192230225,4.13671875,1,"['C1', 'F1', 'J1']",7.6,0,450.0,0.1220255306730381,[32300|0|0]
262,26201,0.8374617695808411,-0.1932854950428009,0.0,-0.108603835105896,0.1034238114953041,-3.1885406970977783,4.13671875,1,"['C1', 'F1', 'J1']",7.6,0,450.0,0.122205985032021,[32400|0|0]
263,26301,0.8375686407089233,-0.1934659630060196,0.0,-0.0964086949825286,0.1050723791122436,-3.1873295307159424,4.13671875,1,"['C1', 'F1', 'J1']",7.6,0,450.0,0.1224157232587844,[32500|0|0]
264,26401,0.8375145792961121,-0.1935185492038726,0.0,-0.0884297043085098,0.1136535108089447,-3.18478798866272,4.13671875,1,"['C1', 'F1', 'J1']",7.6,0,450.0,0.1224911417217745,[32600|0|0]
265,26501,0.8376689553260803,-0.193092405796051,0.0,-0.0948528572916984,0.1098155677318573,-3.1802403926849365,4.13671875,1,"['C1', 'F1', 'J1']",7.6,0,450.0,0.1229443857649329,[32700|0|0]
266,26601,0.837529718875885,-0.1934998333454132,0.0,-0.0791114419698715,0.1139077916741371,-3.206636428833008,4.13671875,1,"['C1', 'F1', 'J1']",7.6,0,450.0,0.1233749481843825,[32800|0|0]
267,26702,0.8377637267112732,-0.1932569444179535,0.0,-0.0807157084345817,0.111193761229515,-3.202600717544556,4.13671875,1,"['C1', 'F1', 'J1']",7.6,0,450.0,0.1237122235883265,[32900|0|0]
268,26800,0.8378082513809204,-0.1934167295694351,0.0,-0.0831003561615943,0.1049841120839119,-3.191429853439331,4.13671875,1,"['C1', 'F1', 'J1']",7.6,0,450.0,0.1238780962528653,[33000|0|0]
269,26900,0.837651789188385,-0.1935135871171951,0.0,-0.0817086324095726,0.1085022315382957,-3.2081875801086426,4.13671875,1,"['C1', 'F1', 'J1']",7.6,0,450.0,0.1240621120191764,[33100|0|0]
270,27000,0.8378397822380066,-0.1931295096874237,0.0,-0.0907346457242965,0.108053982257843,-3.2079532146453857,4.13671875,1,"['C1', 'F1', 'J1']",7.6,0,450.0,0.1244897296740573,[33200|0|0]
271,27100,0.8375794887542725,-0.1935284733772277,0.0,-0.0784809589385986,0.1220228150486946,-3.2123446464538574,4.13671875,1,"['C1', 'F1', 'J1']",7.6,0,450.0,0.1249660958393718,[33300|0|0]
272,27202,0.8378523588180542,-0.1931828409433365,0.0,-0.084174171090126,0.1114020571112632,-3.199704647064209,4.13671875,1,"['C1', 'F1', 'J1']",7.6,0,450.0,0.1254064591564928,[33400|0|0]
273,27302,0.8374922275543213,-0.1934046447277069,0.0,-0.0792889073491096,0.1171451658010482,-3.2083327770233154,4.13671875,1,"['C1', 'F1', 'J1']",7.6,0,450.0,0.1258294147639493,[33500|0|0]
274,27402,0.8375939726829529,-0.1931117326021194,0.0,-0.0862868949770927,0.1131838709115982,-3.215867280960083,4.13671875,1,"['C1', 'F1', 'J1']",7.6,0,450.0,0.1261394947286624,[33600|0|0]
275,27500,0.8374759554862976,-0.1932268291711807,0.0,-0.0876757130026817,0.1230211034417152,-3.2072103023529053,4.13671875,1,"['C1', 'F1', 'J1']",7.6,0,450.0,0.126304343989856,[33700|0|0]
276,27600,0.8374067544937134,-0.1935790777206421,0.0,-0.0808326452970504,0.1275146156549453,-3.20860242843628,4.13671875,1,"['C1', 'F1', 'J1']",7.6,0,450.0,0.1266633256300164,[33800|0|0]
277,27700,0.8377212285995483,-0.1933241635560989,0.0,-0.0860836878418922,0.1254811584949493,-3.2116756439208984,4.13671875,1,"['C1', 'F1', 'J1']",7.6,0,450.0,0.1270681406427388,[33900|0|0]
278,27800,0.8376086354255676,-0.1931300908327102,0.0,-0.096837006509304,0.122732326388359,-3.212277412414551,4.13671875,1,"['C1', 'F1', 'J1']",7.6,0,450.0,0.1272925096352279,[34000|0|0]
279,27900,0.8374931812286377,-0.1930881440639495,0.0,-0.0961658731102943,0.1282927095890045,-3.228282928466797,4.13671875,1,"['C1', 'F1', 'J1']",7.6,0,450.0,0.127415347752269,[34100|0|0]
280,28000,0.8375786542892456,-0.1930496841669082,0.0,-0.0881906375288963,0.1246537342667579,-3.2180333137512207,4.13671875,1,"['C1', 'F1', 'J1']",7.6,0,450.0,0.1275090750576293,[34200|0|0]
281,28100,0.8378164172172546,-0.1932138055562973,0.0,-0.0788653865456581,0.1213569417595863,-3.2041523456573486,4.13671875,1,"['C1', 'F1', 'J1']",7.6,0,450.0,0.1277979816868202,[34300|0|0]
282,28200,0.8376249074935913,-0.1932387799024582,0.0,-0.0753829851746559,0.1309012770652771,-3.1920859813690186,4.13671875,1,"['C1', 'F1', 'J1']",7.6,0,450.0,0.1279911129691744,[34400|0|0]
283,28300,0.8373982906341553,-0.1935067027807235,0.0,-0.0610103607177734,0.1430079787969589,-3.2089784145355225,4.13671875,1,"['C1', 'F1', 'J1']",7.6,0,450.0,0.1283420230284183,[34500|0|0]
284,28400,0.8373137712478638,-0.1931551396846771,0.0,-0.0660881698131561,0.147933080792427,-3.196993350982666,4.13671875,1,"['C1', 'F1', 'J1']",7.6,0,450.0,0.1287036030847832,[34600|0|0]
285,28500,0.8372136354446411,-0.1929368823766708,0.0,-0.0735018998384475,0.143941268324852,-3.1952240467071533,4.13671875,1,"['C1', 'F1', 'J1']",7.6,0,450.0,0.128943735197557,[34700|0|0]
286,28600,0.8372360467910767,-0.1934094429016113,0.0,-0.0577845051884651,0.1461495012044906,-3.186481475830078,4.13671875,1,"['C1', 'F1', 'J1']",7.6,0,450.0,0.1294168268569435,[34800|0|0]
287,28700,0.8376488089561462,-0.193284586071968,0.0,-0.0616165995597839,0.1315774619579315,-3.187422752380371,4.13671875,1,"['C1', 'F1', 'J1']",7.6,0,450.0,0.1298480597787172,[34900|0|0]
288,28800,0.8376874327659607,-0.1933901607990265,0.0,-0.0645266398787498,0.1194832548499107,-3.186286211013794,4.13671875,1,"['C1', 'F1', 'J1']",7.6,0,450.0,0.1299604778452281,[35000|0|0]
289,28900,0.8373913168907166,-0.1934787929058075,0.0,-0.0659943670034408,0.1196000874042511,-3.210036039352417,4.13671875,1,"['C1', 'F1', 'J1']",7.6,0,450.0,0.1302695737234343,[35100|0|0]
290,29000,0.8376219272613525,-0.1933342218399047,0.0,-0.0744224339723587,0.1058382466435432,-3.1979305744171143,4.13671875,1,"['C1', 'F1', 'J1']",7.6,0,450.0,0.1305417536935665,[35200|0|0]
291,29100,0.8372805714607239,-0.1932927966117859,0.0,-0.073863536119461,0.1130821034312248,-3.20515513420105,4.13671875,1,"['C1', 'F1', 'J1']",7.6,0,450.0,0.1308856138863011,[35300|0|0]
292,29200,0.8376627564430237,-0.1932789981365203,0.0,-0.0814678892493248,0.0967676416039466,-3.206407308578491,4.13671875,1,"['C1', 'F1', 'J1']",7.6,0,450.0,0.1312680478787955,[35400|0|0]
293,29300,0.8373758792877197,-0.1930663734674453,0.0,-0.0915322303771972,0.1100056618452072,-3.220221757888794,4.13671875,1,"['C1', 'F1', 'J1']",7.6,0,450.0,0.1316251301552172,[35500|0|0]
294,29400,0.8375145196914673,-0.1930581480264663,0.0,-0.093923345208168,0.1074078902602195,-3.247080087661743,4.13671875,1,"['C1', 'F1', 'J1']",7.6,0,450.0,0.1317640143495324,[35600|0|0]
295,29500,0.8377206921577454,-0.1930982619524002,0.0,-0.0931264236569404,0.0967061147093772,-3.230868101119995,4.13671875,1,"['C1', 'F1', 'J1']",7.6,0,450.0,0.13197405294814,[35700|0|0]
296,29600,0.8377670049667358,-0.1938521116971969,0.0,-0.0740182772278785,0.095055840909481,-3.2232069969177246,4.13671875,1,"['C1', 'F1', 'J1']",7.6,0,450.0,0.1327293239683748,[35800|0|0]
297,29700,0.8376773595809937,-0.1931915581226349,0.0,-0.0968805402517318,0.0907293558120727,-3.246187686920166,4.13671875,1,"['C1', 'F1', 'J1']",7.6,0,450.0,0.1333959327892372,[35900|0|0]
298,29800,0.8378761410713196,-0.1932437866926193,0.0,-0.0964449569582939,0.0858059078454971,-3.235480070114136,4.13671875,1,"['C1', 'F1', 'J1']",7.6,0,450.0,0.1336014611435312,[36000|0|0]
299,29900,0.8377496004104614,-0.1931184530258178,0.0,-0.105617307126522,0.0884580686688423,-3.2193052768707275,4.13671875,1,"['C1', 'F1', 'J1']",7.6,0,450.0,0.1337795652335582,[36100|0|0]
300,30000,0.8372067809104919,-0.1934961378574371,0.0,-0.0960698127746582,0.1094547510147094,-3.2224724292755127,4.13671875,1,"['C1', 'F1', 'J1']",7.6,0,450.0,0.1344408509823706,[36200|0|0]
301,30100,0.8377846479415894,-0.1931415498256683,0.0,-0.1072203740477562,0.0983198210597038,-3.2315969467163086,4.13671875,1,"['C1', 'F1', 'J1']",7.6,0,450.0,0.135118835479172,[36300|0|0]
302,30200,0.8374533653259277,-0.1929947882890701,0.0,-0.1142618134617805,0.1062273234128952,-3.2285430431365967,4.13671875,1,"['C1', 'F1', 'J1']",7.6,0,450.0,0.1354811711247608,[36400|0|0]
303,30300,0.8372042179107666,-0.1931894719600677,0.0,-0.1147316321730613,0.1106556132435798,-3.22724723815918,4.13671875,1,"['C1', 'F1', 'J1']",7.6,0,450.0,0.13579736120404,[36500|0|0]
304,30400,0.8374804854393005,-0.1932450532913208,0.0,-0.1108253076672554,0.1016278117895126,-3.246462106704712,4.13671875,1,"['C1', 'F1', 'J1']",7.6,0,450.0,0.1360791643830606,[36600|0|0]
305,30500,0.8376376628875732,-0.1935308277606964,0.0,-0.1021637171506881,0.09395682066679,-3.254016637802124,4.13671875,1,"['C1', 'F1', 'J1']",7.6,0,450.0,0.1364053112787877,[36700|0|0]
306,30600,0.8375844955444336,-0.1932241916656494,0.0,-0.1129827722907066,0.0987669304013252,-3.241720199584961,4.13671875,1,"['C1', 'F1', 'J1']",7.6,0,450.0,0.1367165225593709,[36800|0|0]
307,30700,0.8376854658126831,-0.1930223405361175,0.0,-0.1105898767709732,0.1080875769257545,-3.238741397857666,4.13671875,1,"['C1', 'F1', 'J1']",7.6,0,450.0,0.1369422189784024,[36900|0|0]
308,30800,0.837236225605011,-0.1928789764642715,0.0,-0.1106588542461395,0.116515539586544,-3.231281280517578,4.13671875,1,"['C1', 'F1', 'J1']",7.6,0,450.0,0.1374137802377162,[37000|0|0]
309,30900,0.8374622464179993,-0.1931707561016082,0.0,-0.1017445102334022,0.1089819595217704,-3.2504637241363525,4.13671875,1,"['C1', 'F1', 'J1']",7.6,0,450.0,0.1377828612107671,[37100|0|0]
310,31000,0.8374985456466675,-0.1932200789451599,0.0,-0.0972439274191856,0.1104105785489082,-3.24633526802063,4.13671875,1,"['C1', 'F1', 'J1']",7.6,0,450.0,0.1378441015316181,[37200|0|0]
311,31100,0.8375919461250305,-0.1933422237634658,0.0,-0.0910231247544288,0.1083297654986381,-3.2319905757904053,4.13671875,1,"['C1', 'F1', 'J1']",7.6,0,450.0,0.1379978643554652,[37300|0|0]
312,31200,0.8376758694648743,-0.1930990517139434,0.0,-0.0932129845023155,0.1094518527388572,-3.20115613937378,4.13671875,1,"['C1', 'F1', 'J1']",7.6,0,450.0,0.1382551108766068,[37400|0|0]
313,31300,0.8375661373138428,-0.1934795677661895,0.0,-0.0877469852566719,0.1113931387662887,-3.217859029769897,4.13671875,1,"['C1', 'F1', 'J1']",7.6,0,450.0,0.1386511331120771,[37500|0|0]
314,31400,0.8377317786216736,-0.1934049576520919,0.0,-0.0886992588639259,0.1078492924571037,-3.193195581436157,4.13671875,1,"['C1', 'F1', 'J1']",7.6,0,450.0,0.1388328023499397,[37600|0|0]
315,31500,0.8373292684555054,-0.1933268010616302,0.0,-0.0825951993465423,0.1206370517611503,-3.2052371501922607,4.13671875,1,"['C1', 'F1', 'J1']",7.6,0,450.0,0.1392428302593573,[37700|0|0]
316,31600,0.837851345539093,-0.1933436244726181,0.0,-0.0809382125735282,0.1136880815029144,-3.193790912628174,4.13671875,1,"['C1', 'F1', 'J1']",7.6,0,450.0,0.139765178331398,[37800|0|0]
317,31700,0.837394118309021,-0.1932868957519531,0.0,-0.0870841667056083,0.1314287632703781,-3.1973977088928223,4.13671875,1,"['C1', 'F1', 'J1']",7.6,0,450.0,0.1402259113209566,[37900|0|0]
318,31800,0.8376011848449707,-0.1931068897247314,0.0,-0.0928735956549644,0.1242323592305183,-3.1836137771606445,4.13671875,1,"['C1', 'F1', 'J1']",7.6,0,450.0,0.1405002809988482,[38000|0|0]
319,31900,0.8376084566116333,-0.1930625587701797,0.0,-0.0966071113944053,0.1241173669695854,-3.191184759140014,4.13671875,1,"['C1', 'F1', 'J1']",7.6,0,450.0,0.1405452044016786,[38100|0|0]
