,time.ms,stateEstimate.x,stateEstimate.y,stateEstimate.z,stabilizer.roll,stabilizer.pitch,stabilizer.yaw,pm.vbat,drone_id,node_name,wind_speed,global_wind_direction,relative_wind_direction,travel_dist,waiting_time
0,0,0.8374341130256653,-0.1933844238519668,-0.0125158187001943,-0.0928313732147216,0.1240562126040458,-3.2275214195251465,4.14453125,1,"['C1', 'F1', 'J1']",7.6,90,0.0,0.5637671232242385,[100|0|0]
1,100,0.8374241590499878,-0.1934007853269577,-0.0125601515173912,-0.092826060950756,0.118899755179882,-3.243635892868042,4.14453125,1,"['C1', 'F1', 'J1']",7.6,90,0.0,0.5638154158549007,[200|0|0]
2,200,0.8377652764320374,-0.1931007951498031,-0.0122900670394301,-0.0968112200498581,0.108414389193058,-3.2385618686676025,4.14453125,1,"['C1', 'F1', 'J1']",7.6,90,0.0,0.5643439050222079,[300|0|0]
3,300,0.8375659584999084,-0.1931348741054535,-0.0124998092651367,-0.1010205745697021,0.1059033349156379,-3.26062273979187,4.14453125,1,"['C1', 'F1', 'J1']",7.6,90,0.0,0.5646352481438544,[400|0|0]
4,401,0.8374757766723633,-0.1929273456335067,-0.0123618086799979,-0.1041975691914558,0.107071042060852,-3.238178253173828,4.14453125,1,"['C1', 'F1', 'J1']",7.6,90,0.0,0.5649002858585037,[500|0|0]
5,501,0.837846040725708,-0.1935602575540542,-0.0122295813634991,-0.0871828347444534,0.0999227240681648,-3.246138095855713,4.14453125,1,"['C1', 'F1', 'J1']",7.6,90,0.0,0.5656453744650458,[600|0|0]
6,601,0.83749920129776,-0.1930354982614517,-0.0125064412131905,-0.0967373475432396,0.1113484427332878,-3.2481019496917725,4.14453125,1,"['C1', 'F1', 'J1']",7.6,90,0.0,0.5663326308075579,[700|0|0]
7,701,0.8374068140983582,-0.1929290741682052,-0.0124650662764906,-0.0941288322210311,0.1096035987138748,-3.2534797191619877,4.14453125,1,"['C1', 'F1', 'J1']",7.6,90,0.0,0.5664795095589945,[800|0|0]
8,801,0.8375366926193237,-0.1933770030736923,-0.0122615434229373,-0.0785487294197082,0.1029365882277488,-3.2400808334350586,4.14453125,1,"['C1', 'F1', 'J1']",7.6,90,0.0,0.5669883614888303,[900|0|0]
9,901,0.8375322222709656,-0.1932556182146072,-0.0121762538328766,-0.0843484178185463,0.1006202772259712,-3.2183682918548584,4.14453125,1,"['C1', 'F1', 'J1']",7.6,90,0.0,0.5671367817778822,[1000|0|0]
10,1000,0.8375453352928162,-0.1930855512619018,-0.0122712645679712,-0.0821422636508941,0.1004898026585578,-3.1926283836364746,4.14453125,1,"['C1', 'F1', 'J1']",7.6,90,0.0,0.5673320297216043,[1100|0|0]
11,1101,0.8375934958457947,-0.1933865398168563,-0.0121810147538781,-0.0747038573026657,0.1023154333233833,-3.198765516281128,4.14453125,1,"['C1', 'F1', 'J1']",7.6,90,0.0,0.5676499268402145,[1200|0|0]
12,1201,0.8376277685165405,-0.1934502869844436,-0.0121241007000207,-0.0772160217165947,0.1030732989311218,-3.2104971408843994,4.14453125,1,"['C1', 'F1', 'J1']",7.6,90,0.0,0.5677420003264194,[1300|0|0]
13,1301,0.8376062512397766,-0.1931426525115966,-0.012120914645493,-0.0880924686789512,0.102727934718132,-3.225996732711792,4.14453125,1,"['C1', 'F1', 'J1']",7.6,90,0.0,0.5680504028442863,[1400|0|0]
14,1402,0.8375176787376404,-0.1933040916919708,-0.0121636176481843,-0.0800523310899734,0.1049343347549438,-3.2200632095336914,4.14453125,1,"['C1', 'F1', 'J1']",7.6,90,0.0,0.5682394299416386,[1500|0|0]
15,1502,0.8374954462051392,-0.1932262927293777,-0.012543810531497,-0.078867919743061,0.1076570004224777,-3.202239990234375,4.14453125,1,"['C1', 'F1', 'J1']",7.6,90,0.0,0.5686281375343141,[1600|0|0]
16,1602,0.837581992149353,-0.1931054443120956,-0.0124073028564453,-0.0808715298771858,0.103952407836914,-3.200311183929444,4.14453125,1,"['C1', 'F1', 'J1']",7.6,90,0.0,0.5688299515223513,[1700|0|0]
17,1702,0.8375726342201233,-0.1934490352869033,-0.0122110629454255,-0.0733135715126991,0.1113256588578224,-3.2020139694213867,4.14453125,1,"['C1', 'F1', 'J1']",7.6,90,0.0,0.5692257449425667,[1800|0|0]
18,1802,0.8376055359840393,-0.1930983066558838,-0.012357223778963,-0.0879821702837944,0.1023009493947029,-3.2212185859680176,4.14453125,1,"['C1', 'F1', 'J1']",7.6,90,0.0,0.5696071320004831,[1900|0|0]
19,1902,0.8374996781349182,-0.1933303028345108,-0.0122311851009726,-0.0881220921874046,0.1008835434913635,-3.2111291885375977,4.14453125,1,"['C1', 'F1', 'J1']",7.6,90,0.0,0.5698915856161529,[2000|0|0]
20,2002,0.8377376794815063,-0.1932238787412643,-0.0122357858344912,-0.0944809317588806,0.0948629006743431,-3.207819938659668,4.14453125,1,"['C1', 'F1', 'J1']",7.6,90,0.0,0.570152338171941,[2100|0|0]
21,2102,0.837735652923584,-0.1933224499225616,-0.0118020912632346,-0.0951611623167991,0.0886983275413513,-3.207484006881714,4.14453125,1,"['C1', 'F1', 'J1']",7.6,90,0.0,0.5705970980688032,[2200|0|0]
22,2202,0.8376147150993347,-0.1929507404565811,-0.0122946528717875,-0.1018325090408325,0.1051529720425605,-3.2180864810943604,4.14453125,1,"['C1', 'F1', 'J1']",7.6,90,0.0,0.5712259150713198,[2300|0|0]
23,2300,0.8373261094093323,-0.1932385265827179,-0.0122018018737435,-0.0941298902034759,0.1131596565246582,-3.231609582901001,4.14453125,1,"['C1', 'F1', 'J1']",7.6,90,0.0,0.5716439287152794,[2400|0|0]
24,2400,0.8374641537666321,-0.1931323558092117,-0.0121929049491882,-0.0945649147033691,0.1125937551259994,-3.2151880264282227,4.14453125,1,"['C1', 'F1', 'J1']",7.6,90,0.0,0.5718183065607637,[2500|0|0]
25,2500,0.8377643823623657,-0.1931643486022949,-0.0121869379654526,-0.0926546826958656,0.0969676226377487,-3.209101915359497,4.14453125,1,"['C1', 'F1', 'J1']",7.6,90,0.0,0.5721202939005652,[2600|0|0]
26,2600,0.8374060988426208,-0.1932328194379806,-0.0123317884281277,-0.0884967818856239,0.1064810752868652,-3.218282461166382,4.14453125,1,"['C1', 'F1', 'J1']",7.6,90,0.0,0.5725127693678207,[2700|0|0]
27,2700,0.8373550772666931,-0.1932396739721298,-0.0124372206628322,-0.0898210927844047,0.1138447597622871,-3.2182912826538086,4.14453125,1,"['C1', 'F1', 'J1']",7.6,90,0.0,0.5726300985711903,[2800|0|0]
28,2800,0.8376757502555847,-0.1934627145528793,-0.0122364163398742,-0.0821354314684867,0.1153553277254104,-3.194587469100952,4.14453125,1,"['C1', 'F1', 'J1']",7.6,90,0.0,0.5730693031278429,[2900|0|0]
29,2900,0.8374982476234436,-0.1931765228509903,-0.0125787388533353,-0.0885265618562698,0.1205465495586395,-3.180626153945923,4.14453125,1,"['C1', 'F1', 'J1']",7.6,90,0.0,0.5735495088940198,[3000|0|0]
30,3000,0.8374099731445312,-0.1933398097753524,-0.0123221334069967,-0.0881128311157226,0.1252749115228653,-3.1851391792297363,4.14453125,1,"['C1', 'F1', 'J1']",7.6,90,0.0,0.5738662127910364,[3100|0|0]
31,3100,0.8396401405334473,-0.1947785913944244,-0.0165584851056337,-0.1444649696350097,0.0033721553627401,-2.7140562534332275,4.14453125,1,"['C1', 'F1', 'J1']",7.6,90,0.0,0.5788652541835945,[3200|0|0]
32,3200,0.8371530175209045,-0.1935171335935592,-0.0107513470575213,-0.6672695875167847,-0.0582715608179569,-2.928618192672729,4.14453125,1,"['C1', 'F1', 'J1']",7.6,90,0.0,0.5853072964818659,[3300|0|0]
33,3300,0.8373433351516724,-0.1930920183658599,-0.0113604143261909,-0.8626524806022644,-0.0632926151156425,-2.960110664367676,4.14453125,1,"['C1', 'F1', 'J1']",7.6,90,0.0,0.5860740472204814,[3400|0|0]
34,3400,0.8374075889587402,-0.1930357068777084,-0.0115942889824509,-0.7637009024620056,0.015534846112132,-2.993926763534546,4.14453125,1,"['C1', 'F1', 'J1']",7.6,90,0.0,0.5863230389678573,[3500|0|0]
35,3500,0.8373116254806519,-0.1930940896272659,-0.0122653609141707,-0.60478675365448,0.0730826929211616,-3.029963970184326,4.14453125,1,"['C1', 'F1', 'J1']",7.6,90,0.0,0.5870034469867069,[3600|0|0]
36,3600,0.8373603224754333,-0.1930040866136551,-0.0124466409906744,-0.4960137605667114,0.0965359434485435,-3.0994393825531006,4.14453125,1,"['C1', 'F1', 'J1']",7.6,90,0.0,0.5872116161628521,[3700|0|0]
37,3700,0.8372973799705505,-0.193142369389534,-0.0121707860380411,-0.4012466669082641,0.1201900988817215,-3.13484263420105,4.14453125,1,"['C1', 'F1', 'J1']",7.6,90,0.0,0.5875265444720243,[3800|0|0]
38,3800,0.8376150131225586,-0.193032830953598,-0.0120388697832822,-0.3549879193305969,0.1186014413833618,-3.147490262985229,4.14453125,1,"['C1', 'F1', 'J1']",7.6,90,0.0,0.5878875034537265,[3900|0|0]
39,3900,0.8377665877342224,-0.1922008246183395,-0.0120973140001297,-0.3711827099323272,0.1017383188009262,-3.181432247161865,4.14453125,1,"['C1', 'F1', 'J1']",7.6,90,0.0,0.5887352210548734,[4000|0|0]
40,4000,0.8377097845077515,-0.1925561130046844,-0.012116240337491,-0.2701264023780823,0.137946605682373,-3.2057347297668457,4.14453125,1,"['C1', 'F1', 'J1']",7.6,90,0.0,0.5890955190568871,[4100|0|0]
41,4100,0.8375458121299744,-0.1928929686546325,-0.0120785068720579,-0.2046106904745102,0.1553542912006378,-3.2087364196777344,4.14453125,1,"['C1', 'F1', 'J1']",7.6,90,0.0,0.5894720592061268,[4200|0|0]
42,4200,0.8376622200012207,-0.192628726363182,-0.0120639484375715,-0.1667352616786956,0.1642365753650665,-3.2107841968536377,4.14453125,1,"['C1', 'F1', 'J1']",7.6,90,0.0,0.5897611729019175,[4300|0|0]
43,4300,0.8376055955886841,-0.1932426393032074,-0.0119945965707302,-0.1179355904459953,0.1713441610336303,-3.186244487762451,4.14453125,1,"['C1', 'F1', 'J1']",7.6,90,0.0,0.5903815801096932,[4400|0|0]
44,4400,0.837313175201416,-0.1928182989358902,-0.0121481791138648,-0.1065835282206535,0.1868981420993805,-3.2019338607788086,4.14453125,1,"['C1', 'F1', 'J1']",7.6,90,0.0,0.5909193179898733,[4500|0|0]
45,4500,0.8377991914749146,-0.1932533681392669,-0.0120244622230529,-0.0725628361105918,0.1756235212087631,-3.216048240661621,4.14453125,1,"['C1', 'F1', 'J1']",7.6,90,0.0,0.5915832478799253,[4600|0|0]
46,4600,0.837705135345459,-0.192954272031784,-0.0118396691977977,-0.0723361149430275,0.1802705526351928,-3.206836700439453,4.14453125,1,"['C1', 'F1', 'J1']",7.6,90,0.0,0.5919471894949991,[4700|0|0]
47,4700,0.8376539945602417,-0.1930629462003708,-0.0120362360030412,-0.0625174716114997,0.1742160767316818,-3.1732630729675293,4.14453125,1,"['C1', 'F1', 'J1']",7.6,90,0.0,0.5921775456621714,[4800|0|0]
48,4800,0.8371373414993286,-0.1930171549320221,-0.0124885942786932,-0.0609548799693584,0.1825780421495437,-3.1885459423065186,4.14453125,1,"['C1', 'F1', 'J1']",7.6,90,0.0,0.5928657718133445,[4900|0|0]
49,4900,0.8377222418785095,-0.1938385367393493,-0.0122082745656371,-0.0438635312020778,0.1695884764194488,-3.1815075874328613,4.14453125,1,"['C1', 'F1', 'J1']",7.6,90,0.0,0.5939123642213535,[5000|0|0]
50,5000,0.838318407535553,-0.1935043185949325,-0.0121659198775887,-0.0511917062103748,0.1568048149347305,-3.170251607894897,4.14453125,1,"['C1', 'F1', 'J1']",7.6,90,0.0,0.5945971336557584,[5100|0|0]
51,5100,0.8378939032554626,-0.193191573023796,-0.0122066373005509,-0.0610810592770576,0.1689600050449371,-3.172959327697754,4.14453125,1,"['C1', 'F1', 'J1']",7.6,90,0.0,0.5951259735035509,[5200|0|0]
52,5200,0.8377304077148438,-0.1933721005916595,-0.0122345304116606,-0.0592929422855377,0.1703697443008422,-3.1510162353515625,4.14453125,1,"['C1', 'F1', 'J1']",7.6,90,0.0,0.5953711245186586,[5300|0|0]
53,5300,0.8377624154090881,-0.1934553831815719,-0.0122201582416892,-0.0636516511440277,0.1582686901092529,-3.1729702949523926,4.14453125,1,"['C1', 'F1', 'J1']",7.6,90,0.0,0.5954614962041749,[5400|0|0]
54,5400,0.8380377888679504,-0.1933975666761398,-0.0121635450050234,-0.0685453340411186,0.1383673399686813,-3.18438720703125,4.14453125,1,"['C1', 'F1', 'J1']",7.6,90,0.0,0.5957485124906674,[5500|0|0]
55,5500,0.8379441499710083,-0.1937111169099807,-0.0121996011584997,-0.0602884441614151,0.1362769454717636,-3.184755563735962,4.14453125,1,"['C1', 'F1', 'J1']",7.6,90,0.0,0.596077726764911,[5600|0|0]
56,5600,0.8379327654838562,-0.1937224268913269,-0.0121131166815757,-0.0610291697084903,0.1269970685243606,-3.2169971466064453,4.14453125,1,"['C1', 'F1', 'J1']",7.6,90,0.0,0.5961656874775876,[5700|0|0]
57,5700,0.8379635214805603,-0.1931158602237701,-0.0125502729788422,-0.0753021910786628,0.1313699632883072,-3.227508306503296,4.14453125,1,"['C1', 'F1', 'J1']",7.6,90,0.0,0.5969140020382931,[5800|0|0]
58,5800,0.8377206325531006,-0.1933292001485824,-0.0124685671180486,-0.064126580953598,0.1413331180810928,-3.225268840789795,4.14453125,1,"['C1', 'F1', 'J1']",7.6,90,0.0,0.5972474458900725,[5900|0|0]
59,5900,0.8380190134048462,-0.1937374025583267,-0.0121379625052213,-0.055346842855215,0.1310887485742569,-3.2254621982574463,4.14453125,1,"['C1', 'F1', 'J1']",7.6,90,0.0,0.5978515648767234,[6000|0|0]
60,6000,0.8379107713699341,-0.1936645209789276,-0.0124388625845313,-0.0616549253463745,0.1254726350307464,-3.214820146560669,4.14453125,1,"['C1', 'F1', 'J1']",7.6,90,0.0,0.5981795418888239,[6100|0|0]
61,6100,0.8380008935928345,-0.1934514194726944,-0.0124181173741817,-0.0607795938849449,0.1290851980447769,-3.201002359390259,4.14453125,1,"['C1', 'F1', 'J1']",7.6,90,0.0,0.5984118447746687,[6200|0|0]
62,6200,0.8380928635597229,-0.1932138055562973,-0.0125905703753232,-0.0651230439543724,0.1269377917051315,-3.210260391235352,4.14453125,1,"['C1', 'F1', 'J1']",7.6,90,0.0,0.5987195116166873,[6300|0|0]
63,6300,0.838053822517395,-0.1931204050779342,-0.0124488519504666,-0.063095636665821,0.130175694823265,-3.2046055793762207,4.14453125,1,"['C1', 'F1', 'J1']",7.6,90,0.0,0.5988936723593602,[6400|0|0]
64,6400,0.8379707336425781,-0.1934304237365722,-0.0122291650623083,-0.0539254024624824,0.1271708756685257,-3.207033395767212,4.14453125,1,"['C1', 'F1', 'J1']",7.6,90,0.0,0.5992826166466955,[6500|0|0]
65,6500,0.8379188179969788,-0.1933703124523162,-0.0122388992458581,-0.0604680366814136,0.126583069562912,-3.216907262802124,4.14453125,1,"['C1', 'F1', 'J1']",7.6,90,0.0,0.5993626376132123,[6600|0|0]
66,6600,0.8380241394042969,-0.1933690756559372,-0.0124443359673023,-0.0594408437609672,0.1286156475543975,-3.1851580142974854,4.14453125,1,"['C1', 'F1', 'J1']",7.6,90,0.0,0.5995935020215183,[6700|0|0]
67,6700,0.8379822373390198,-0.1936553418636322,-0.0123071912676095,-0.0486573278903961,0.1287157386541366,-3.1877763271331787,4.14453125,1,"['C1', 'F1', 'J1']",7.6,90,0.0,0.5999136782126949,[6800|0|0]
68,6800,0.8376305103302002,-0.1933672875165939,-0.0123153766617178,-0.0564293786883354,0.1405185610055923,-3.177298784255981,4.14453125,1,"['C1', 'F1', 'J1']",7.6,90,0.0,0.6003683805287848,[6900|0|0]
69,6900,0.8376410007476807,-0.1935452818870544,-0.0123219201341271,-0.0507771745324134,0.1408375799655914,-3.176097869873047,4.14453125,1,"['C1', 'F1', 'J1']",7.6,90,0.0,0.6005468037946604,[7000|0|0]
70,7000,0.8379549980163574,-0.1932113915681839,-0.0122474450618028,-0.0641544014215469,0.1241017803549766,-3.202558755874634,4.14453125,1,"['C1', 'F1', 'J1']",7.6,90,0.0,0.6010111566412863,[7100|0|0]
71,7100,0.8379713892936707,-0.193656712770462,-0.0122587652876973,-0.0554404705762863,0.1189319863915443,-3.2127389907836914,4.14453125,1,"['C1', 'F1', 'J1']",7.6,90,0.0,0.6014569231661452,[7200|0|0]
72,7200,0.8376091122627258,-0.1927317827939987,-0.0118300048634409,-0.2967721223831177,-0.0131836794316768,-3.2490451335906982,4.14453125,1,"['C1', 'F1', 'J1']",7.6,90,0.0,0.6025388545918461,[7300|0|0]
73,7300,0.8377828001976013,-0.1929520368576049,-0.0119381723925471,-0.2492690235376358,0.0094906706362962,-3.2490768432617188,4.14453125,1,"['C1', 'F1', 'J1']",7.6,90,0.0,0.6028394865356067,[7400|0|0]
74,7400,0.8377698659896851,-0.1928877979516983,-0.0121381282806396,-0.2198454737663269,0.0330470651388168,-3.225616693496704,4.14453125,1,"['C1', 'F1', 'J1']",7.6,90,0.0,0.6030499058501892,[7500|0|0]
75,7500,0.8376634120941162,-0.1930799633264541,-0.0122789964079856,-0.1940830647945404,0.0543361343443393,-3.2206602096557617,4.14453125,1,"['C1', 'F1', 'J1']",7.6,90,0.0,0.6033108728834307,[7600|0|0]
76,7600,0.8377481698989868,-0.1931200325489044,-0.0122934449464082,-0.1830299645662307,0.0626533254981041,-3.2362072467803955,4.14453125,1,"['C1', 'F1', 'J1']",7.6,90,0.0,0.6034057316644517,[7700|0|0]
77,7700,0.8377777338027954,-0.19341741502285,-0.0119559988379478,-0.173376590013504,0.0653474554419517,-3.2268474102020264,4.14453125,1,"['C1', 'F1', 'J1']",7.6,90,0.0,0.6038564868489293,[7800|0|0]
78,7800,0.8377466797828674,-0.1926503926515579,-0.0123026585206389,-0.1876101940870285,0.0672764182090759,-3.2280142307281494,4.14453125,1,"['C1', 'F1', 'J1']",7.6,90,0.0,0.6046987816938737,[7900|0|0]
79,7900,0.8377113938331604,-0.1932466924190521,-0.0120473755523562,-0.1744889318943023,0.0624497421085834,-3.2368569374084477,4.14453125,1,"['C1', 'F1', 'J1']",7.6,90,0.0,0.605348387655096,[8000|0|0]
80,8000,0.8376884460449219,-0.1933379471302032,-0.0122237959876656,-0.1800839900970459,0.0692053288221359,-3.2083330154418945,4.14453125,1,"['C1', 'F1', 'J1']",7.6,90,0.0,0.6055483331308815,[8100|0|0]
81,8100,0.8376172184944153,-0.1927184015512466,-0.0118201375007629,-0.1983335614204406,0.0669982731342315,-3.2102558612823486,4.14453125,1,"['C1', 'F1', 'J1']",7.6,90,0.0,0.6062911993788727,[8200|0|0]
82,8200,0.8376659154891968,-0.1926326304674148,-0.0122060440480709,-0.1937936544418335,0.0706885755062103,-3.213146686553955,4.14453125,1,"['C1', 'F1', 'J1']",7.6,90,0.0,0.6066895107387127,[8300|0|0]
83,8300,0.8377320170402527,-0.1931156516075134,-0.0123246777802705,-0.1862490028142929,0.0677891224622726,-3.2251415252685547,4.14453125,1,"['C1', 'F1', 'J1']",7.6,90,0.0,0.6071912604763805,[8400|0|0]
84,8400,0.8377393484115601,-0.1931243240833282,-0.0121058216318488,-0.1906495988368988,0.0657664909958839,-3.233666181564331,4.14453125,1,"['C1', 'F1', 'J1']",7.6,90,0.0,0.6074104110514288,[8500|0|0]
85,8500,0.8379121422767639,-0.1929887235164642,-0.0123517615720629,-0.1978711038827896,0.0643334537744522,-3.237521886825561,4.14453125,1,"['C1', 'F1', 'J1']",7.6,90,0.0,0.6077401559342981,[8600|0|0]
86,8600,0.8376768231391907,-0.1931743770837783,-0.0122057739645242,-0.1920546144247055,0.0735156461596489,-3.264126300811768,4.14453125,1,"['C1', 'F1', 'J1']",7.6,90,0.0,0.6080735546822255,[8700|0|0]
87,8700,0.8376681208610535,-0.1932445764541626,-0.0121412752196192,-0.1955759823322296,0.0690373629331588,-3.2352631092071533,4.14453125,1,"['C1', 'F1', 'J1']",7.6,90,0.0,0.6081692822610177,[8800|0|0]
88,8800,0.837971031665802,-0.1928714364767074,-0.0122671565040946,-0.2042899876832962,0.0586312338709831,-3.246711254119873,4.14453125,1,"['C1', 'F1', 'J1']",7.6,90,0.0,0.6086661066728473,[8900|0|0]
89,8900,0.8375218510627747,-0.1931272596120834,-0.0121554713696241,-0.1936194747686386,0.066990777850151,-3.2432243824005127,4.14453125,1,"['C1', 'F1', 'J1']",7.6,90,0.0,0.6091949566137486,[9000|0|0]
90,9000,0.8380037546157837,-0.1929813623428344,-0.0120563702657818,-0.1942247748374939,0.0515378341078758,-3.2508420944213867,4.14453125,1,"['C1', 'F1', 'J1']",7.6,90,0.0,0.6097081213790626,[9100|0|0]
91,9100,0.8374389410018921,-0.1930766105651855,-0.0120690390467643,-0.1911883205175399,0.0727187097072601,-3.235891342163086,4.14453125,1,"['C1', 'F1', 'J1']",7.6,90,0.0,0.6102810499438156,[9200|0|0]
92,9200,0.8378393054008484,-0.1928073614835739,-0.0120027801021933,-0.2014725357294082,0.0594113282859325,-3.2221519947052,4.14453125,1,"['C1', 'F1', 'J1']",7.6,90,0.0,0.6107680581240713,[9300|0|0]
93,9300,0.8376595973968506,-0.1926466077566146,-0.012127362191677,-0.2064600586891174,0.060616910457611,-3.227560043334961,4.14453125,1,"['C1', 'F1', 'J1']",7.6,90,0.0,0.6110394571374304,[9400|0|0]
94,9400,0.8375325798988342,-0.1930956542491912,-0.0119081148877739,-0.1919644773006439,0.0593969039618968,-3.2115867137908936,4.14453125,1,"['C1', 'F1', 'J1']",7.6,90,0.0,0.6115550592878977,[9500|0|0]
95,9500,0.8376142382621765,-0.1928319633007049,-0.0121726430952548,-0.2018457800149917,0.0541743896901607,-3.210091114044189,4.14453125,1,"['C1', 'F1', 'J1']",7.6,90,0.0,0.6119373892202472,[9600|0|0]
96,9600,0.8378498554229736,-0.1928879767656326,-0.0121042132377624,-0.1982405185699463,0.0562542602419853,-3.2314038276672363,4.14453125,1,"['C1', 'F1', 'J1']",7.6,90,0.0,0.6121890548716813,[9700|0|0]
97,9700,0.8376761674880981,-0.1925941109657287,-0.0122543331235647,-0.1988240927457809,0.0726623833179473,-3.236622810363769,4.14453125,1,"['C1', 'F1', 'J1']",7.6,90,0.0,0.6125619631542224,[9800|0|0]
98,9800,0.8376582860946655,-0.1932781040668487,-0.0121905412524938,-0.1839127391576767,0.0698258131742477,-3.2193777561187744,4.14453125,1,"['C1', 'F1', 'J1']",7.6,90,0.0,0.6132491572384705,[9900|0|0]
99,9900,0.8376230001449585,-0.1928612291812896,-0.0119443424046039,-0.200395792722702,0.0624257661402225,-3.2237465381622314,4.14453125,1,"['C1', 'F1', 'J1']",7.6,90,0.0,0.6137345886354351,[10000|0|0]
100,10000,0.8378427624702454,-0.1929334998130798,-0.012326892465353,-0.1948647946119308,0.0550228618085384,-3.228545665740967,4.14453125,1,"['C1', 'F1', 'J1']",7.6,90,0.0,0.6141816491154755,[10100|0|0]
101,10100,0.8375314474105835,-0.192807137966156,-0.0120005141943693,-0.200943186879158,0.0591115951538085,-3.225561141967773,4.14453125,1,"['C1', 'F1', 'J1']",7.6,90,0.0,0.6146500582939728,[10200|0|0]
102,10200,0.8376770615577698,-0.1927841156721115,-0.012325239367783,-0.2049091160297393,0.0526742376387119,-3.242039203643799,4.14453125,1,"['C1', 'F1', 'J1']",7.6,90,0.0,0.6150066812659368,[10300|0|0]
103,10300,0.8376750349998474,-0.1929261535406112,-0.0119920317083597,-0.1969774216413498,0.0546601265668869,-3.2531774044036865,4.14453125,1,"['C1', 'F1', 'J1']",7.6,90,0.0,0.6153689052399134,[10400|0|0]
104,10400,0.8379106521606445,-0.1931009441614151,-0.0121928350999951,-0.191022589802742,0.0457696057856082,-3.2490005493164062,4.14453125,1,"['C1', 'F1', 'J1']",7.6,90,0.0,0.6157244178412026,[10500|0|0]
105,10500,0.8377152681350708,-0.1931157410144806,-0.0122046442702412,-0.1940281689167022,0.0484204441308975,-3.225161552429199,4.14453125,1,"['C1', 'F1', 'J1']",7.6,90,0.0,0.6159207169008334,[10600|0|0]
106,10600,0.8378145694732666,-0.1931525617837906,-0.0120323961600661,-0.1996325999498367,0.0495921447873115,-3.2229506969451904,4.14453125,1,"['C1', 'F1', 'J1']",7.6,90,0.0,0.616122919611693,[10700|0|0]
107,10700,0.837956428527832,-0.1937462985515594,-0.0124574843794107,-0.1934850513935089,0.0406851395964622,-3.213284969329834,4.14453125,1,"['C1', 'F1', 'J1']",7.6,90,0.0,0.616866792809885,[10800|0|0]
108,10800,0.8378862142562866,-0.1932732909917831,-0.0126556809991598,-0.2103304117918014,0.0390342622995376,-3.2344541549682617,4.14453125,1,"['C1', 'F1', 'J1']",7.6,90,0.0,0.6173844298406451,[10900|0|0]
109,10900,0.8376591801643372,-0.1935850530862808,-0.0123190265148878,-0.2055050134658813,0.046000313013792,-3.223666191101074,4.14453125,1,"['C1', 'F1', 'J1']",7.6,90,0.0,0.6178963637467828,[11000|0|0]
110,11000,0.837935745716095,-0.1937829107046127,-0.0122418943792581,-0.2042351812124252,0.0363129414618015,-3.219170570373535,4.14453125,1,"['C1', 'F1', 'J1']",7.6,90,0.0,0.6182450548821704,[11100|0|0]
111,11100,0.8377668261528015,-0.1935804784297943,-0.0122409909963607,-0.2063101679086685,0.0436581037938594,-3.2173309326171875,4.14453125,1,"['C1', 'F1', 'J1']",7.6,90,0.0,0.6185087089374248,[11200|0|0]
112,11200,0.8379605412483215,-0.1932426691055297,-0.0123982429504394,-0.2142879068851471,0.0324486456811428,-3.206960916519165,4.14453125,1,"['C1', 'F1', 'J1']",7.6,90,0.0,0.6189286718582333,[11300|0|0]
113,11300,0.8381655216217041,-0.1933718472719192,-0.0124042918905615,-0.2077119648456573,0.0301128849387168,-3.212592840194702,4.14453125,1,"['C1', 'F1', 'J1']",7.6,90,0.0,0.619171036339584,[11400|0|0]
114,11400,0.838182806968689,-0.1934801042079925,-0.0120717315003275,-0.2034093290567398,0.0283790733665227,-3.1987130641937256,4.14453125,1,"['C1', 'F1', 'J1']",7.6,90,0.0,0.6195212002448927,[11500|0|0]
115,11500,0.8382378816604614,-0.1933683902025222,-0.0120731517672538,-0.2172329872846603,0.0222145728766918,-3.212681770324707,4.14453125,1,"['C1', 'F1', 'J1']",7.6,90,0.0,0.619645760502801,[11600|0|0]
116,11600,0.8379104137420654,-0.1934066861867904,-0.0121964579448103,-0.2156903445720672,0.0328708030283451,-3.2213780879974365,4.14453125,1,"['C1', 'F1', 'J1']",7.6,90,0.0,0.6199977636752487,[11700|0|0]
117,11700,0.8376930952072144,-0.1936787962913513,-0.0120452903211116,-0.2067609429359436,0.0387357547879219,-3.2115895748138428,4.14453125,1,"['C1', 'F1', 'J1']",7.6,90,0.0,0.6203773989015497,[11800|0|0]
118,11800,0.8376855850219727,-0.1934309303760528,-0.0123132159933447,-0.2152989357709884,0.039932083338499,-3.221714973449707,4.14453125,1,"['C1', 'F1', 'J1']",7.6,90,0.0,0.6207424716075833,[11900|0|0]
119,11900,0.8380378484725952,-0.1933932602405548,-0.0122824609279632,-0.2238256633281707,0.0323749370872974,-3.232627391815185,4.14453125,1,"['C1', 'F1', 'J1']",7.6,90,0.0,0.6210980759548566,[12000|0|0]
120,12000,0.8379033207893372,-0.1936229020357132,-0.0124947177246212,-0.2101132273674011,0.0493691600859165,-3.220197916030884,4.14453125,1,"['C1', 'F1', 'J1']",7.6,90,0.0,0.6214384962823546,[12100|0|0]
121,12100,0.8376447558403015,-0.1937328279018402,-0.012182462029159,-0.2032619714736938,0.0552933923900127,-3.2126080989837646,4.14453125,1,"['C1', 'F1', 'J1']",7.6,90,0.0,0.6218585476461926,[12200|0|0]
122,12200,0.8379760384559631,-0.1932611018419265,-0.0123645141720771,-0.2197818756103515,0.0398500002920627,-3.1990907192230225,4.14453125,1,"['C1', 'F1', 'J1']",7.6,90,0.0,0.6224630446517951,[12300|0|0]
123,12300,0.8380010724067688,-0.1933184117078781,-0.0124169690534472,-0.2189899235963821,0.0393020622432231,-3.1984639167785645,4.14453125,1,"['C1', 'F1', 'J1']",7.6,90,0.0,0.6225446696112614,[12400|0|0]
124,12400,0.8380656242370605,-0.1935001462697982,-0.0120839914306998,-0.2050125747919082,0.0441991575062274,-3.1801180839538574,4.14453125,1,"['C1', 'F1', 'J1']",7.6,90,0.0,0.6229294662939925,[12500|0|0]
125,12500,0.8376060724258423,-0.1933499425649643,-0.0121719082817435,-0.2006774842739105,0.0660310313105583,-3.2020938396453857,4.14453125,1,"['C1', 'F1', 'J1']",7.6,90,0.0,0.6234208708043882,[12600|0|0]
126,12600,0.8377784490585327,-0.1936337202787399,-0.0122345788404345,-0.1973205059766769,0.0606800764799118,-3.200354814529419,4.14453125,1,"['C1', 'F1', 'J1']",7.6,90,0.0,0.6237587629369691,[12700|0|0]
127,12700,0.8379483819007874,-0.1931536793708801,-0.0126804988831281,-0.2049122005701065,0.0594289377331733,-3.211216926574707,4.14453125,1,"['C1', 'F1', 'J1']",7.6,90,0.0,0.6244356389437616,[12800|0|0]
128,12800,0.8376814126968384,-0.1931959837675094,-0.0126011911779642,-0.2003908902406692,0.0617556981742382,-3.2075257301330566,4.14453125,1,"['C1', 'F1', 'J1']",7.6,90,0.0,0.6247173336897718,[12900|0|0]
129,12900,0.8378954529762268,-0.193244382739067,-0.0122597236186265,-0.2002121955156326,0.0492695644497871,-3.2235143184661865,4.14453125,1,"['C1', 'F1', 'J1']",7.6,90,0.0,0.6251232349040204,[13000|0|0]
130,13000,0.8376280069351196,-0.1934616267681121,-0.0127313639968633,-0.1921018213033676,0.0566683486104011,-3.227797269821167,4.14453125,1,"['C1', 'F1', 'J1']",7.6,90,0.0,0.625707329930059,[13100|0|0]
131,13100,0.8376518487930298,-0.1936383694410324,-0.0122468890622258,-0.1856416165828704,0.0571061931550502,-3.246345043182373,4.14453125,1,"['C1', 'F1', 'J1']",7.6,90,0.0,0.626223587974947,[13200|0|0]
132,13200,0.8377158641815186,-0.1937083899974823,-0.0124483099207282,-0.1801621317863464,0.0591410361230373,-3.2242298126220703,4.14453125,1,"['C1', 'F1', 'J1']",7.6,90,0.0,0.6264462339058076,[13300|0|0]
133,13300,0.8380194306373596,-0.1931166797876358,-0.0126265520229935,-0.1967102736234665,0.0578529797494411,-3.208165645599365,4.14453125,1,"['C1', 'F1', 'J1']",7.6,90,0.0,0.6271347423026833,[13400|0|0]
134,13400,0.8378205299377441,-0.1938226819038391,-0.0121731627732515,0.0005493185017257,0.1763780117034912,-3.193682909011841,4.14453125,1,"['C1', 'F1', 'J1']",7.6,90,0.0,0.6279970428814682,[13500|0|0]
135,13500,0.8377517461776733,-0.1936757415533065,-0.0126416534185409,-0.0429716892540454,0.1583658009767532,-3.1998209953308105,4.14453125,1,"['C1', 'F1', 'J1']",7.6,90,0.0,0.6284928313010464,[13600|0|0]
136,13600,0.8381211757659912,-0.1936719119548797,-0.0122863594442605,-0.0670705214142799,0.1404830068349838,-3.185110330581665,4.14453125,1,"['C1', 'F1', 'J1']",7.6,90,0.0,0.629005400022984,[13700|0|0]
137,13700,0.8378178477287292,-0.193569928407669,-0.0124327354133129,-0.0744729936122894,0.1489473432302475,-3.184077262878418,4.14453125,1,"['C1', 'F1', 'J1']",7.6,90,0.0,0.6293573012398146,[13800|0|0]
138,13800,0.8377727270126343,-0.1937529295682907,-0.0122671509161591,-0.0831785202026367,0.1343764513731002,-3.1937222480773926,4.14453125,1,"['C1', 'F1', 'J1']",7.6,90,0.0,0.6296081867306415,[13900|0|0]
139,13900,0.8380434513092041,-0.193535566329956,-0.01228510402143,-0.1016173362731933,0.1160159856081008,-3.1796412467956543,4.14453125,1,"['C1', 'F1', 'J1']",7.6,90,0.0,0.6299558370378776,[14000|0|0]
140,14000,0.8375094532966614,-0.1935037523508072,-0.012223670259118,-0.1174242869019508,0.1200951859354972,-3.19242262840271,4.14453125,1,"['C1', 'F1', 'J1']",7.6,90,0.0,0.6304942979127985,[14100|0|0]
141,14100,0.8376665711402893,-0.1937234699726104,-0.0122189577668905,-0.102881409227848,0.1212701871991157,-3.206594944000244,4.14453125,1,"['C1', 'F1', 'J1']",7.6,90,0.0,0.6307644535303603,[14200|0|0]
142,14200,0.8375723958015442,-0.1934278309345245,-0.0123187052085995,-0.1086592599749565,0.1274612545967102,-3.206777811050415,4.14453125,1,"['C1', 'F1', 'J1']",7.6,90,0.0,0.6310903691442784,[14300|0|0]
143,14300,0.8379847407341003,-0.1935890316963195,-0.0124857500195503,-0.1070654466748237,0.1117795631289482,-3.219794511795044,4.14453125,1,"['C1', 'F1', 'J1']",7.6,90,0.0,0.631563568888439,[14400|0|0]
144,14400,0.8379712104797363,-0.1936758905649185,-0.0122015010565519,-0.1015718132257461,0.1034980788826942,-3.232108354568481,4.14453125,1,"['C1', 'F1', 'J1']",7.6,90,0.0,0.6318611004057664,[14500|0|0]
145,14500,0.8379166722297668,-0.1932901889085769,-0.0124559663236141,-0.1079169437289238,0.1140390336513519,-3.2012839317321777,4.14453125,1,"['C1', 'F1', 'J1']",7.6,90,0.0,0.632326388231263,[14600|0|0]
146,14600,0.8376340270042419,-0.1936594843864441,-0.0125240245833992,-0.1018231958150863,0.1170172095298767,-3.229548692703247,4.14453125,1,"['C1', 'F1', 'J1']",7.6,90,0.0,0.6327963875931882,[14700|0|0]
147,14700,0.8379723429679871,-0.1935352683067321,-0.0120128560811281,-0.1034414246678352,0.1100281924009323,-3.222259759902954,4.14453125,1,"['C1', 'F1', 'J1']",7.6,90,0.0,0.6334218318860697,[14800|0|0]
148,14800,0.837827205657959,-0.1934550255537033,-0.0123210307210683,-0.1061038970947265,0.1143094226717948,-3.2254440784454346,4.14453125,1,"['C1', 'F1', 'J1']",7.6,90,0.0,0.6337717966655521,[14900|0|0]
149,14900,0.8378283977508545,-0.193531185388565,-0.0123301493003964,-0.1180475503206253,0.1016860678791999,-3.2177517414093018,4.14453125,1,"['C1', 'F1', 'J1']",7.6,90,0.0,0.633848509702388,[15000|0|0]
150,15000,0.8377121686935425,-0.19329434633255,-0.0123089756816625,-0.1186328455805778,0.1078610494732856,-3.194611072540283,4.14453125,1,"['C1', 'F1', 'J1']",7.6,90,0.0,0.6341131797882459,[15100|0|0]
151,15100,0.83760005235672,-0.1932556629180908,-0.0127001628279685,-0.1178561747074127,0.1097199022769928,-3.189917802810669,4.14453125,1,"['C1', 'F1', 'J1']",7.6,90,0.0,0.6345219509503547,[15200|0|0]
152,15200,0.8306505084037781,-0.2027516663074493,-0.0155021091923117,0.225651130080223,0.3361185193061828,-3.2023825645446777,4.14453125,1,"['C1', 'F1', 'J1']",7.6,90,0.0,0.6466182786969576,[15300|0|0]
153,15300,0.8307942152023315,-0.2030137926340103,-0.0153804989531636,0.2364721000194549,0.3287843763828277,-3.2170958518981934,4.14453125,1,"['C1', 'F1', 'J1']",7.6,90,0.0,0.646941002890802,[15400|0|0]
154,15400,0.8306881189346313,-0.2029363512992859,-0.0153190549463033,0.2338561862707138,0.338099718093872,-3.217972040176392,4.14453125,1,"['C1', 'F1', 'J1']",7.6,90,0.0,0.6470860164912775,[15500|0|0]
155,15500,0.8309752941131592,-0.202959656715393,-0.0152022615075111,0.2370617687702179,0.3321721255779266,-3.2031772136688232,4.14453125,1,"['C1', 'F1', 'J1']",7.6,90,0.0,0.6473969078435653,[15600|0|0]
156,15600,0.8309072256088257,-0.2027760297060012,-0.015335370786488,0.2292386591434478,0.3307258188724518,-3.23314905166626,4.14453125,1,"['C1', 'F1', 'J1']",7.6,90,0.0,0.6476336994819526,[15700|0|0]
157,15700,0.8307992815971375,-0.2027261555194854,-0.0154944146052002,0.2197096794843673,0.3266118764877319,-3.2366724014282227,4.14453125,1,"['C1', 'F1', 'J1']",7.6,90,0.0,0.6478322801466975,[15800|0|0]
158,15800,0.8307095170021057,-0.2025714069604873,-0.0155272418633103,0.2176069468259811,0.3274026215076446,-3.233426570892334,4.14453125,1,"['C1', 'F1', 'J1']",7.6,90,0.0,0.6480141659017973,[15900|0|0]
159,15900,0.830908477306366,-0.2029623389244079,-0.0150648849084973,0.2328138351440429,0.3223832845687866,-3.2288737297058105,4.13671875,1,"['C1', 'F1', 'J1']",7.6,90,0.0,0.6486514938838835,[16000|0|0]
160,16000,0.8308457136154175,-0.2030135989189148,-0.0148478699848055,0.2294294238090515,0.3203935623168945,-3.223654270172119,4.14453125,1,"['C1', 'F1', 'J1']",7.6,90,0.0,0.6488831452275948,[16100|0|0]
161,16100,0.8307858109474182,-0.2029670625925064,-0.0152052510529756,0.2227711975574493,0.322487860918045,-3.209523677825928,4.14453125,1,"['C1', 'F1', 'J1']",7.6,90,0.0,0.6492484877890291,[16200|0|0]
162,16201,0.8310591578483582,-0.2030004560947418,-0.0152472676709294,0.2190069556236267,0.3106939494609833,-3.2169926166534424,4.14453125,1,"['C1', 'F1', 'J1']",7.6,90,0.0,0.6495270538501875,[16300|0|0]
163,16301,0.8309457302093506,-0.2027656137943267,-0.015291130170226,0.2126307338476181,0.31781005859375,-3.234844446182251,4.14453125,1,"['C1', 'F1', 'J1']",7.6,90,0.0,0.6497915168044923,[16400|0|0]
164,16401,0.8308387398719788,-0.2027780711650848,-0.0150898480787873,0.221472293138504,0.3219018578529358,-3.232569456100464,4.14453125,1,"['C1', 'F1', 'J1']",7.6,90,0.0,0.6500198074059439,[16500|0|0]
165,16501,0.8308575749397278,-0.2029890865087509,-0.0153068397194147,0.2270198613405227,0.3245850801467895,-3.250543594360352,4.13671875,1,"['C1', 'F1', 'J1']",7.6,90,0.0,0.6503230690209594,[16600|0|0]
166,16601,0.8305505514144897,-0.202804297208786,-0.015221731737256,0.2201113253831863,0.3285288512706756,-3.2644155025482178,4.14453125,1,"['C1', 'F1', 'J1']",7.6,90,0.0,0.650691381251354,[16700|0|0]
167,16701,0.8305887579917908,-0.2027981877326965,-0.0154372053220868,0.2193353027105331,0.3269193172454834,-3.258648633956909,4.14453125,1,"['C1', 'F1', 'J1']",7.6,90,0.0,0.6509103011773703,[16800|0|0]
168,16801,0.8308578133583069,-0.2025660723447799,-0.0154241798445582,0.2136252522468567,0.315753698348999,-3.275155544281006,4.14453125,1,"['C1', 'F1', 'J1']",7.6,90,0.0,0.651265882401036,[16900|0|0]
169,16901,0.8309097290039062,-0.2030021399259567,-0.0151306940242648,0.2276993691921234,0.3248392343521118,-3.265209913253784,4.14453125,1,"['C1', 'F1', 'J1']",7.6,90,0.0,0.6517940718522035,[17000|0|0]
170,17001,0.8308860659599304,-0.2028370052576065,-0.015187444165349,0.2236630916595459,0.3265277445316314,-3.251804113388061,4.14453125,1,"['C1', 'F1', 'J1']",7.6,90,0.0,0.6519702818883945,[17100|0|0]
171,17102,0.8307135701179504,-0.2029902040958404,-0.0151680642738938,0.2258681803941726,0.3265046775341034,-3.2313127517700195,4.14453125,1,"['C1', 'F1', 'J1']",7.6,90,0.0,0.652201799230573,[17200|0|0]
172,17202,0.8308191299438477,-0.2028525322675705,-0.0148911206051707,0.2219661474227905,0.3237684667110443,-3.2560691833496094,4.14453125,1,"['C1', 'F1', 'J1']",7.6,90,0.0,0.6525285930566904,[17300|0|0]
173,17302,0.830788254737854,-0.2029393315315246,-0.0151030756533145,0.2263974398374557,0.3262989819049835,-3.2342920303344727,4.14453125,1,"['C1', 'F1', 'J1']",7.6,90,0.0,0.6527597041403749,[17400|0|0]
174,17402,0.8307711482048035,-0.2022990584373474,-0.015467656776309,0.2109843343496322,0.3213436901569366,-3.2433438301086426,4.14453125,1,"['C1', 'F1', 'J1']",7.6,90,0.0,0.6534966991633189,[17500|0|0]
175,17502,0.8308215737342834,-0.2027577757835388,-0.0149863688275218,0.2220519036054611,0.3159899115562439,-3.2569260597229004,4.14453125,1,"['C1', 'F1', 'J1']",7.6,90,0.0,0.6541634843066507,[17600|0|0]
176,17602,0.830756664276123,-0.2026573270559311,-0.0155250811949372,0.2212891578674316,0.3230364024639129,-3.2578818798065186,4.14453125,1,"['C1', 'F1', 'J1']",7.6,90,0.0,0.6547153123590755,[17700|0|0]
177,17702,0.8308255076408386,-0.2026482224464416,-0.0152114480733871,0.2250096052885055,0.3275595903396606,-3.274713516235352,4.13671875,1,"['C1', 'F1', 'J1']",7.6,90,0.0,0.655036541308133,[17800|0|0]
178,17802,0.8309987187385559,-0.2028535157442093,-0.0153209334239363,0.2397149950265884,0.3289940059185028,-3.2799479961395264,4.14453125,1,"['C1', 'F1', 'J1']",7.6,90,0.0,0.655326600723539,[17900|0|0]
179,17902,0.8312408924102783,-0.2023197412490844,-0.0150034660473465,0.0438891649246215,0.2092232555150985,-3.2765066623687744,4.14453125,1,"['C1', 'F1', 'J1']",7.6,90,0.0,0.6559931956786055,[18000|0|0]
180,18002,0.830813467502594,-0.2024882286787033,-0.0154049145057797,0.085878811776638,0.2446483373641967,-3.269989252090454,4.14453125,1,"['C1', 'F1', 'J1']",7.6,90,0.0,0.6566033111844131,[18100|0|0]
181,18100,0.8310194611549377,-0.2025133520364761,-0.0151558713987469,0.1135067418217659,0.248874545097351,-3.2731950283050537,4.14453125,1,"['C1', 'F1', 'J1']",7.6,90,0.0,0.6569274824926318,[18200|0|0]
182,18200,0.830959677696228,-0.2027813345193863,-0.0149546638131141,0.1448564231395721,0.2675999701023102,-3.2619316577911377,4.14453125,1,"['C1', 'F1', 'J1']",7.6,90,0.0,0.6572678839697117,[18300|0|0]
183,18300,0.8307719230651855,-0.2026119083166122,-0.0154823446646332,0.1549887508153915,0.287099152803421,-3.249345541000366,4.13671875,1,"['C1', 'F1', 'J1']",7.6,90,0.0,0.6578530370443206,[18400|0|0]
184,18400,0.830924928188324,-0.2028084397315979,-0.0148902898654341,0.1595642864704132,0.2849930226802826,-3.240584373474121,4.14453125,1,"['C1', 'F1', 'J1']",7.6,90,0.0,0.6584953485342051,[18500|0|0]
185,18500,0.8308686017990112,-0.2025756984949112,-0.0153335342183709,0.1505495011806488,0.2806955873966217,-3.230234384536743,4.14453125,1,"['C1', 'F1', 'J1']",7.6,90,0.0,0.6589991408543111,[18600|0|0]
186,18600,0.8311775326728821,-0.2026406079530716,-0.0151061909273266,0.1583594679832458,0.2701225876808166,-3.2471866607666016,4.14453125,1,"['C1', 'F1', 'J1']",7.6,90,0.0,0.6593881607697037,[18700|0|0]
187,18700,0.8309106826782227,-0.2027458101511001,-0.0151353506371378,0.1599633246660232,0.2775047421455383,-3.2409846782684326,4.14453125,1,"['C1', 'F1', 'J1']",7.6,90,0.0,0.6596764778014519,[18800|0|0]
188,18800,0.8306604027748108,-0.202516570687294,-0.0154271461069583,0.1557023823261261,0.2842981815338135,-3.240522861480713,4.14453125,1,"['C1', 'F1', 'J1']",7.6,90,0.0,0.66012406618158,[18900|0|0]
189,18900,0.8307612538337708,-0.2023929059505462,-0.0153451198711991,0.1489607691764831,0.280263602733612,-3.260914087295532,4.14453125,1,"['C1', 'F1', 'J1']",7.6,90,0.0,0.6603034880491466,[19000|0|0]
190,19000,0.8307912945747375,-0.2027715295553207,-0.0150866732001304,0.1592292785644531,0.2781513333320617,-3.2710273265838623,4.14453125,1,"['C1', 'F1', 'J1']",7.6,90,0.0,0.6607628930578228,[19100|0|0]
191,19100,0.8311371207237244,-0.2028888911008834,-0.0148054845631122,0.1546540111303329,0.2677102386951446,-3.2512965202331543,4.14453125,1,"['C1', 'F1', 'J1']",7.6,90,0.0,0.6612238014080271,[19200|0|0]
192,19200,0.8307263255119324,-0.2026353031396865,-0.0146894780918955,0.0207948051393032,0.2037810832262039,-3.253230333328247,4.14453125,1,"['C1', 'F1', 'J1']",7.6,90,0.0,0.6617203062533804,[19300|0|0]
193,19300,0.8308929800987244,-0.2026337385177612,-0.0148477815091609,0.0553434044122695,0.2145359218120575,-3.265828847885132,4.14453125,1,"['C1', 'F1', 'J1']",7.6,90,0.0,0.6619501674533653,[19400|0|0]
194,19400,0.8305554389953613,-0.2025154680013656,-0.0151537526398897,0.079885721206665,0.2426583915948867,-3.259429454803467,4.14453125,1,"['C1', 'F1', 'J1']",7.6,90,0.0,0.6624208480715635,[19500|0|0]
195,19500,0.8304942846298218,-0.2027729153633117,-0.0152709754183888,0.1104400157928466,0.2625528573989868,-3.255798578262329,4.14453125,1,"['C1', 'F1', 'J1']",7.6,90,0.0,0.6627102615826452,[19600|0|0]
196,19600,0.8304892778396606,-0.2025344520807266,-0.0150320744141936,0.1110815778374672,0.2694165408611297,-3.261343717575073,4.14453125,1,"['C1', 'F1', 'J1']",7.6,90,0.0,0.6630478463792437,[19700|0|0]
197,19700,0.8305808901786804,-0.2027640640735626,-0.0150869479402899,0.1227567121386528,0.2613110244274139,-3.2737410068511963,4.14453125,1,"['C1', 'F1', 'J1']",7.6,90,0.0,0.6633010766929525,[19800|0|0]
198,19800,0.8309032320976257,-0.2026853114366531,-0.014958607032895,0.1305494308471679,0.2705825567245483,-3.239043951034546,4.14453125,1,"['C1', 'F1', 'J1']",7.6,90,0.0,0.6636568542625665,[19900|0|0]
199,19900,0.8311875462532043,-0.2026101797819137,-0.0151047371327877,0.1772822439670562,0.2889006435871124,-3.2266414165496826,4.14453125,1,"['C1', 'F1', 'J1']",7.6,90,0.0,0.6639852340894452,[20000|0|0]
200,20000,0.8308852910995483,-0.2028955817222595,-0.0151041271165013,0.2219672501087188,0.3297103643417358,-3.2171597480773926,4.14453125,1,"['C1', 'F1', 'J1']",7.6,90,0.0,0.6644009417001341,[20100|0|0]
201,20100,0.8309548497200012,-0.2026860117912292,-0.0153959551826119,0.237160250544548,0.339703619480133,-3.2381887435913086,4.14453125,1,"['C1', 'F1', 'J1']",7.6,90,0.0,0.6647668946723057,[20200|0|0]
202,20200,0.8308067321777344,-0.2029999643564224,-0.0154677052050828,0.2604031860828399,0.3546436429023742,-3.2437517642974854,4.13671875,1,"['C1', 'F1', 'J1']",7.6,90,0.0,0.6651213704616666,[20300|0|0]
203,20300,0.831100583076477,-0.2026586085557937,-0.0153332659974694,0.0960252210497856,0.2383635342121124,-3.2630419731140137,4.14453125,1,"['C1', 'F1', 'J1']",7.6,90,0.0,0.6655914194313054,[20400|0|0]
204,20400,0.830878496170044,-0.2025462538003921,-0.0150825288146734,0.1196174398064613,0.2620338797569275,-3.2592835426330566,4.14453125,1,"['C1', 'F1', 'J1']",7.6,90,0.0,0.6659447115482665,[20500|0|0]
205,20500,0.8309196829795837,-0.2023797482252121,-0.0153124490752816,0.1404760181903839,0.2704498767852783,-3.2705740928649902,4.14453125,1,"['C1', 'F1', 'J1']",7.6,90,0.0,0.6662315630535515,[20600|0|0]
206,20600,0.8310428261756897,-0.2027350962162017,-0.0148566681891679,0.1707490384578704,0.2814933359622955,-3.2533750534057617,4.14453125,1,"['C1', 'F1', 'J1']",7.6,90,0.0,0.6668224713862005,[20700|0|0]
207,20700,0.8307085633277893,-0.2026316672563552,-0.0154290786013007,0.1771184056997299,0.3033273220062256,-3.2773470878601074,4.14453125,1,"['C1', 'F1', 'J1']",7.6,90,0.0,0.6674933535525601,[20800|0|0]
208,20800,0.8311129212379456,-0.2025269567966461,-0.0149593390524387,0.173315167427063,0.289701372385025,-3.248962163925171,4.14453125,1,"['C1', 'F1', 'J1']",7.6,90,0.0,0.6681219431194824,[20900|0|0]
209,20900,0.8307756781578064,-0.2026508301496505,-0.0153600871562957,0.1748690605163574,0.2908231019973755,-3.232309341430664,4.14453125,1,"['C1', 'F1', 'J1']",7.6,90,0.0,0.6686601591963802,[21000|0|0]
210,21000,0.8308493494987488,-0.2028072625398636,-0.0151893943548202,0.1779941767454147,0.2934614717960357,-3.2304604053497314,4.13671875,1,"['C1', 'F1', 'J1']",7.6,90,0.0,0.6689031295477805,[21100|0|0]
211,21100,0.8309118151664734,-0.2028537839651107,-0.0151388822123408,0.1914858222007751,0.2961759865283966,-3.2278549671173096,4.14453125,1,"['C1', 'F1', 'J1']",7.6,90,0.0,0.6689959610035979,[21200|0|0]
212,21200,0.8309252858161926,-0.2026901543140411,-0.0153291281312704,0.1723498553037643,0.2855121791362762,-3.2358217239379883,4.14453125,1,"['C1', 'F1', 'J1']",7.6,90,0.0,0.6692472569064344,[21300|0|0]
213,21300,0.8309341073036194,-0.2032414823770523,-0.0154060665518045,0.2205508202314376,0.3300159871578216,-3.233011245727539,4.14453125,1,"['C1', 'F1', 'J1']",7.6,90,0.0,0.6698039973955838,[21400|0|0]
214,21400,0.8303298950195312,-0.2028537541627884,-0.0153363328427076,0.1718979775905609,0.3048574328422546,-3.225459575653076,4.14453125,1,"['C1', 'F1', 'J1']",7.6,90,0.0,0.6705252937580893,[21500|0|0]
215,21500,0.8308663368225098,-0.2029730379581451,-0.0154032716527581,0.1542400270700454,0.2820565104484558,-3.235631227493286,4.13671875,1,"['C1', 'F1', 'J1']",7.6,90,0.0,0.6710788994265109,[21600|0|0]
216,21600,0.8310671448707581,-0.2027138322591781,-0.0150477010756731,0.1131905689835548,0.2588019967079162,-3.2365598678588867,4.13671875,1,"['C1', 'F1', 'J1']",7.6,90,0.0,0.6715625748361679,[21700|0|0]
217,21700,0.8308953046798706,-0.2028672248125076,-0.0153323700651526,0.1133820116519928,0.2663286924362182,-3.238389730453491,4.14453125,1,"['C1', 'F1', 'J1']",7.6,90,0.0,0.6719287643502073,[21800|0|0]
218,21800,0.8308543562889099,-0.202816903591156,-0.015200063586235,0.1120379492640495,0.2603050470352173,-3.2375640869140625,4.14453125,1,"['C1', 'F1', 'J1']",7.6,90,0.0,0.6720761210616397,[21900|0|0]
219,21900,0.8311623334884644,-0.2029137015342712,-0.0149502418935298,0.1093801632523536,0.248116135597229,-3.247704029083252,4.14453125,1,"['C1', 'F1', 'J1']",7.6,90,0.0,0.6724843252695832,[22000|0|0]
220,22000,0.831016480922699,-0.2029071599245071,-0.015192188322544,0.1108513996005058,0.2529807090759277,-3.275956392288208,4.14453125,1,"['C1', 'F1', 'J1']",7.6,90,0.0,0.6727669094837768,[22100|0|0]
221,22100,0.8308507800102234,-0.2027417719364166,-0.0151991071179509,0.112453319132328,0.2601702511310577,-3.2699854373931885,4.14453125,1,"['C1', 'F1', 'J1']",7.6,90,0.0,0.6730011270081634,[22200|0|0]
222,22200,0.8308784365653992,-0.2026172578334808,-0.0151251712813973,0.1157288625836372,0.2615378499031067,-3.291781425476074,4.13671875,1,"['C1', 'F1', 'J1']",7.6,90,0.0,0.6731485554816716,[22300|0|0]
223,22300,0.8309809565544128,-0.2030962109565735,-0.0149256000295281,0.1300816088914871,0.259116917848587,-3.304616928100586,4.13671875,1,"['C1', 'F1', 'J1']",7.6,90,0.0,0.6736774554030558,[22400|0|0]
224,22400,0.830900251865387,-0.2027841508388519,-0.015284227207303,0.1217011287808418,0.2677983939647674,-3.3079617023468018,4.14453125,1,"['C1', 'F1', 'J1']",7.6,90,0.0,0.6741596464611873,[22500|0|0]
225,22500,0.8309869170188904,-0.2028114348649978,-0.0150554506108164,0.1198238134384155,0.2619996964931488,-3.283978223800659,4.13671875,1,"['C1', 'F1', 'J1']",7.6,90,0.0,0.6744058049426875,[22600|0|0]
226,22600,0.8310382962226868,-0.2027055323123932,-0.014810599386692,0.1097566932439804,0.2604034841060638,-3.289020538330078,4.14453125,1,"['C1', 'F1', 'J1']",7.6,90,0.0,0.6746774799234756,[22700|0|0]
227,22700,0.8308079838752747,-0.2027247846126556,-0.0152302747592329,0.1066518276929855,0.2739768028259277,-3.261785984039306,4.14453125,1,"['C1', 'F1', 'J1']",7.6,90,0.0,0.6751565851799206,[22800|0|0]
228,22800,0.8309369683265686,-0.2027895599603653,-0.0151158031076192,0.1071301102638244,0.2664071023464203,-3.2650887966156006,4.13671875,1,"['C1', 'F1', 'J1']",7.6,90,0.0,0.6753408040534642,[22900|0|0]
229,22900,0.8311223387718201,-0.2028311043977737,-0.0153245143592357,0.1055595353245735,0.2582967281341553,-3.2723605632781982,4.13671875,1,"['C1', 'F1', 'J1']",7.6,90,0.0,0.6756230247628454,[23000|0|0]
230,23000,0.8308821320533752,-0.2026505321264267,-0.0152015527710318,0.1074633374810218,0.2734333872795105,-3.2706503868103027,4.13671875,1,"['C1', 'F1', 'J1']",7.6,90,0.0,0.6759477171787395,[23100|0|0]
231,23100,0.8309120535850525,-0.202732503414154,-0.0153710292652249,0.1126787066459655,0.2750807404518127,-3.261645555496216,4.14453125,1,"['C1', 'F1', 'J1']",7.6,90,0.0,0.6761383395073203,[23200|0|0]
232,23200,0.8311549425125122,-0.202868178486824,-0.0147543447092175,0.1181939616799354,0.263691782951355,-3.265331983566284,4.14453125,1,"['C1', 'F1', 'J1']",7.6,90,0.0,0.676814876718451,[23300|0|0]
233,23300,0.8309167623519897,-0.2028407752513885,-0.0148661993443965,0.1117912605404853,0.2705339789390564,-3.27917218208313,4.14453125,1,"['C1', 'F1', 'J1']",7.6,90,0.0,0.6770794370812983,[23400|0|0]
234,23400,0.830751359462738,-0.202821746468544,-0.0151443881914019,0.1120385229587555,0.2726813554763794,-3.281773805618286,4.14453125,1,"['C1', 'F1', 'J1']",7.6,90,0.0,0.6774036426410093,[23500|0|0]
235,23500,0.8314031958580017,-0.2030844688415527,-0.0150088611990213,0.1039232015609741,0.2439314424991607,-3.278185606002808,4.13671875,1,"['C1', 'F1', 'J1']",7.6,90,0.0,0.6781193809291659,[23600|0|0]
236,23600,0.83086097240448,-0.2025956511497497,-0.0150984330102801,0.1013643890619278,0.2694891393184662,-3.2737979888916016,4.13671875,1,"['C1', 'F1', 'J1']",7.6,90,0.0,0.6788548889976063,[23700|0|0]
237,23700,0.83106529712677,-0.2025901526212692,-0.0148942647501826,0.107929803431034,0.2683596014976501,-3.2681360244750977,4.13671875,1,"['C1', 'F1', 'J1']",7.6,90,0.0,0.6791437895070997,[23800|0|0]
238,23800,0.8310019969940186,-0.2030072212219238,-0.0148050934076309,0.1255377978086471,0.2742935121059418,-3.2361080646514893,4.14453125,1,"['C1', 'F1', 'J1']",7.6,90,0.0,0.679574956125463,[23900|0|0]
239,23900,0.830897331237793,-0.2029637992382049,-0.0152389295399189,0.1165913343429565,0.2766900658607483,-3.229987382888794,4.13671875,1,"['C1', 'F1', 'J1']",7.6,90,0.0,0.6800233467797757,[24000|0|0]
240,24000,0.8306707739830017,-0.2026129513978958,-0.0152253685519099,0.1024302765727043,0.287150114774704,-3.2235379219055176,4.14453125,1,"['C1', 'F1', 'J1']",7.6,90,0.0,0.6804412059631664,[24100|0|0]
241,24100,0.8310303688049316,-0.2027057856321334,-0.0150335961952805,0.1072211042046547,0.2810792624950409,-3.242820501327514,4.13671875,1,"['C1', 'F1', 'J1']",7.6,90,0.0,0.6808591811631155,[24200|0|0]
242,24200,0.8309904336929321,-0.2028922140598297,-0.015220234170556,0.1129821687936782,0.2839368879795074,-3.2518606185913086,4.14453125,1,"['C1', 'F1', 'J1']",7.6,90,0.0,0.6811259846594169,[24300|0|0]
243,24300,0.8309897184371948,-0.2026433497667312,-0.0150716276839375,0.1058826744556427,0.2879979908466339,-3.254020929336548,4.13671875,1,"['C1', 'F1', 'J1']",7.6,90,0.0,0.6814158429624466,[24400|0|0]
244,24400,0.8309175968170166,-0.2025808244943618,-0.0153103210031986,0.1085841432213783,0.2876642644405365,-3.2598354816436768,4.14453125,1,"['C1', 'F1', 'J1']",7.6,90,0.0,0.681672913844582,[24500|0|0]
245,24500,0.8310087323188782,-0.2030272632837295,-0.0148449819535017,0.1192987337708473,0.2790002524852752,-3.244647979736328,4.13671875,1,"['C1', 'F1', 'J1']",7.6,90,0.0,0.6823241846818874,[24600|0|0]
246,24600,0.8308166265487671,-0.2028870582580566,-0.0151048488914966,0.1157294809818267,0.2810704708099365,-3.254064083099365,4.13671875,1,"['C1', 'F1', 'J1']",7.6,90,0.0,0.6826764529058259,[24700|0|0]
247,24700,0.8308511972427368,-0.2028161585330963,-0.0152882449328899,0.1111105531454086,0.2733494937419891,-3.251060485839844,4.14453125,1,"['C1', 'F1', 'J1']",7.6,90,0.0,0.6828760926109942,[24800|0|0]
248,24800,0.8308099508285522,-0.2026608139276504,-0.0151580478996038,0.1028860062360763,0.2665975391864776,-3.282887935638428,4.13671875,1,"['C1', 'F1', 'J1']",7.6,90,0.0,0.6830829367083253,[24900|0|0]
249,24900,0.8307064175605774,-0.2025142908096313,-0.0151219991967082,0.0992875769734382,0.2651674449443817,-3.2678072452545166,4.14453125,1,"['C1', 'F1', 'J1']",7.6,90,0.0,0.6832659330762457,[25000|0|0]
250,25000,0.8308905959129333,-0.2027803510427475,-0.0149539755657315,0.1059779375791549,0.266432911157608,-3.2638401985168457,4.13671875,1,"['C1', 'F1', 'J1']",7.6,90,0.0,0.683630544724015,[25100|0|0]
251,25100,0.8310115933418274,-0.2029348462820053,-0.0148232318460941,0.1061224341392517,0.2637301683425903,-3.262786626815796,4.14453125,1,"['C1', 'F1', 'J1']",7.6,90,0.0,0.6838663477710202,[25200|0|0]
252,25200,0.830859363079071,-0.2026041895151138,-0.0153064476326107,0.097071886062622,0.2720952033996582,-3.274751663208008,4.14453125,1,"['C1', 'F1', 'J1']",7.6,90,0.0,0.6844713316110762,[25300|0|0]
253,25300,0.830996036529541,-0.2026688456535339,-0.0152794616296887,0.0997550040483474,0.2605689167976379,-3.280425786972046,4.13671875,1,"['C1', 'F1', 'J1']",7.6,90,0.0,0.6846249164171362,[25400|0|0]
254,25400,0.830867350101471,-0.2027278393507003,-0.0150711610913276,0.1096881479024887,0.2666850090026855,-3.2541561126708984,4.14453125,1,"['C1', 'F1', 'J1']",7.6,90,0.0,0.6848767686900191,[25500|0|0]
255,25500,0.8311341404914856,-0.2027151137590408,-0.0151166478171944,0.1102548688650131,0.261168360710144,-3.2602007389068604,4.13671875,1,"['C1', 'F1', 'J1']",7.6,90,0.0,0.6851477079731018,[25600|0|0]
256,25600,0.830966055393219,-0.2029028832912445,-0.0149158779531717,0.1135239973664283,0.2661618292331695,-3.248560667037964,4.13671875,1,"['C1', 'F1', 'J1']",7.6,90,0.0,0.6854699168118741,[25700|0|0]
257,25700,0.8309685587882996,-0.2026431411504745,-0.0151445930823683,0.1097979620099067,0.2733587622642517,-3.246500253677368,4.14453125,1,"['C1', 'F1', 'J1']",7.6,90,0.0,0.6858160134125539,[25800|0|0]
258,25800,0.8310266137123108,-0.2028364837169647,-0.0149688106030225,0.111895278096199,0.2679302394390106,-3.276336908340454,4.14453125,1,"['C1', 'F1', 'J1']",7.6,90,0.0,0.6860836908345826,[25900|0|0]
259,25900,0.8309606313705444,-0.2027701139450073,-0.0151946432888507,0.1062835752964019,0.2676816284656524,-3.272944211959839,4.13671875,1,"['C1', 'F1', 'J1']",7.6,90,0.0,0.6863281474115918,[26000|0|0]
260,26000,0.8310194611549377,-0.2028763890266418,-0.0149360233917832,0.1038520187139511,0.2590943276882171,-3.2640206813812256,4.13671875,1,"['C1', 'F1', 'J1']",7.6,90,0.0,0.6866138738326092,[26100|0|0]
261,26100,0.8308786749839783,-0.2027232199907302,-0.0150276198983192,0.0989523530006408,0.2659034132957458,-3.2458059787750244,4.14453125,1,"['C1', 'F1', 'J1']",7.6,90,0.0,0.6868411873155026,[26200|0|0]
262,26200,0.8308730125427246,-0.2028197348117828,-0.015019959770143,0.1025123670697212,0.2642607986927032,-3.2398760318756104,4.14453125,1,"['C1', 'F1', 'J1']",7.6,90,0.0,0.6869381710846985,[26300|0|0]
263,26300,0.8307268619537354,-0.2024542689323425,-0.0152887431904673,0.0862462744116783,0.2569102942943573,-3.24881911277771,4.14453125,1,"['C1', 'F1', 'J1']",7.6,90,0.0,0.6874147944483078,[26400|0|0]
264,26400,0.8310317993164062,-0.202744647860527,-0.0152574609965085,0.0929475352168083,0.2567513287067413,-3.224388360977173,4.14453125,1,"['C1', 'F1', 'J1']",7.6,90,0.0,0.6878370328794638,[26500|0|0]
265,26500,0.8311384320259094,-0.2029559016227722,-0.0150950457900762,0.1005403101444244,0.2598370611667633,-3.212618827819824,4.13671875,1,"['C1', 'F1', 'J1']",7.6,90,0.0,0.688124047488986,[26600|0|0]
266,26600,0.8310825228691101,-0.2026351243257522,-0.0149661684408783,0.0952044650912284,0.2651348710060119,-3.235257625579834,4.13671875,1,"['C1', 'F1', 'J1']",7.6,90,0.0,0.6884742378361313,[26700|0|0]
267,26700,0.8311741352081299,-0.2027649283409118,-0.0151882991194725,0.0962262228131294,0.2636419236660003,-3.2272050380706787,4.14453125,1,"['C1', 'F1', 'J1']",7.6,90,0.0,0.6887473384428404,[26800|0|0]
268,26800,0.8308312892913818,-0.2025352567434311,-0.0151048088446259,0.0884973555803299,0.2766319215297699,-3.223822116851806,4.13671875,1,"['C1', 'F1', 'J1']",7.6,90,0.0,0.6891683645599805,[26900|0|0]
269,26900,0.8308194875717163,-0.2027622610330581,-0.015255169942975,0.0977551341056823,0.2736111879348755,-3.2257182598114014,4.13671875,1,"['C1', 'F1', 'J1']",7.6,90,0.0,0.6894409057275,[27000|0|0]
270,27000,0.8310507535934448,-0.202841430902481,-0.0149321146309375,0.0993876457214355,0.265257328748703,-3.2314019203186035,4.13671875,1,"['C1', 'F1', 'J1']",7.6,90,0.0,0.6898460187681026,[27100|0|0]
271,27100,0.8309010863304138,-0.2028468698263168,-0.0152343343943357,0.0987468957901001,0.2650924026966095,-3.2303130626678467,4.13671875,1,"['C1', 'F1', 'J1']",7.6,90,0.0,0.6901833119001171,[27200|0|0]
272,27200,0.8309281468391418,-0.2025409191846847,-0.0151827130466699,0.0908903777599334,0.2665847539901733,-3.217031240463257,4.13671875,1,"['C1', 'F1', 'J1']",7.6,90,0.0,0.6904947646730739,[27300|0|0]
273,27300,0.8311161994934082,-0.2028528451919555,-0.0151753444224596,0.0949125066399574,0.2579648196697235,-3.218008518218994,4.14453125,1,"['C1', 'F1', 'J1']",7.6,90,0.0,0.6908590666513986,[27400|0|0]
274,27400,0.8310337662696838,-0.2028457224369049,-0.015107125043869,0.0964293554425239,0.2583984732627868,-3.231851100921631,4.14453125,1,"['C1', 'F1', 'J1']",7.6,90,0.0,0.690966304021883,[27500|0|0]
275,27500,0.8309499025344849,-0.2025887370109558,-0.0151601508259773,0.0896774381399154,0.2584233283996582,-3.240016222000122,4.13671875,1,"['C1', 'F1', 'J1']",7.6,90,0.0,0.6912417788279904,[27600|0|0]
276,27600,0.8309990167617798,-0.2024190872907638,-0.0152824893593788,0.0945980101823806,0.2578255832195282,-3.225015878677368,4.14453125,1,"['C1', 'F1', 'J1']",7.6,90,0.0,0.6914566274994753,[27700|0|0]
277,27700,0.8311780691146851,-0.2027527689933776,-0.0149518847465515,0.1058680340647697,0.2488264143466949,-3.2386515140533447,4.13671875,1,"['C1', 'F1', 'J1']",7.6,90,0.0,0.6919593228682255,[27800|0|0]
278,27800,0.8309147953987122,-0.2028534263372421,-0.0150193851441144,0.1096671149134635,0.2483610361814499,-3.23785138130188,4.14453125,1,"['C1', 'F1', 'J1']",7.6,90,0.0,0.6922491525666127,[27900|0|0]
279,27900,0.8308737277984619,-0.2027175426483154,-0.015366043895483,0.1073706820607185,0.2518159747123718,-3.2192254066467285,4.14453125,1,"['C1', 'F1', 'J1']",7.6,90,0.0,0.6926237499699767,[28000|0|0]
280,28000,0.8309485912322998,-0.2025353908538818,-0.0149503517895936,0.1067061126232147,0.2595985233783722,-3.221023797988892,4.13671875,1,"['C1', 'F1', 'J1']",7.6,90,0.0,0.6930837322922893,[28100|0|0]
281,28100,0.831352710723877,-0.2028556615114212,-0.0151544557884335,0.1150609850883483,0.246635764837265,-3.206040859222412,4.14453125,1,"['C1', 'F1', 'J1']",7.6,90,0.0,0.6936382990600419,[28200|0|0]
282,28200,0.8312149047851562,-0.2029749006032943,-0.0152187822386622,0.1133301630616188,0.2512880861759186,-3.2141361236572266,4.13671875,1,"['C1', 'F1', 'J1']",7.6,90,0.0,0.6938315510457406,[28300|0|0]
283,28300,0.8309357166290283,-0.202639490365982,-0.0153361912816762,0.1052299290895462,0.2622790932655334,-3.219233512878418,4.13671875,1,"['C1', 'F1', 'J1']",7.6,90,0.0,0.6942834702168292,[28400|0|0]
284,28400,0.8308065533638,-0.2027370929718017,-0.0153553402051329,0.1069511398673057,0.2600300014019012,-3.2305142879486084,4.14453125,1,"['C1', 'F1', 'J1']",7.6,90,0.0,0.6944464919914999,[28500|0|0]
285,28500,0.8310264348983765,-0.2029645889997482,-0.0148973288014531,0.1112050563097,0.2548421621322632,-3.208301305770874,4.13671875,1,"['C1', 'F1', 'J1']",7.6,90,0.0,0.695003157760054,[28600|0|0]
286,28600,0.8306819200515747,-0.2025984525680542,-0.0151909021660685,0.1010041683912277,0.2688216865062713,-3.2070415019989014,4.14453125,1,"['C1', 'F1', 'J1']",7.6,90,0.0,0.6955853361577055,[28700|0|0]
287,28700,0.8309527039527893,-0.202903613448143,-0.0150972567498683,0.1062199622392654,0.2637652456760406,-3.238254308700561,4.13671875,1,"['C1', 'F1', 'J1']",7.6,90,0.0,0.6960039249151618,[28800|0|0]
288,28800,0.8310312032699585,-0.2028862088918686,-0.0151005499064922,0.110319122672081,0.2630449533462524,-3.256797790527344,4.13671875,1,"['C1', 'F1', 'J1']",7.6,90,0.0,0.6960843979308609,[28900|0|0]
289,28900,0.8306862115859985,-0.2027705460786819,-0.0150571446865797,0.1053700819611549,0.2777856588363647,-3.2298696041107178,4.13671875,1,"['C1', 'F1', 'J1']",7.6,90,0.0,0.696450841871282,[29000|0|0]
290,29000,0.8313666582107544,-0.2028794139623642,-0.0148376896977424,0.1104941591620445,0.2576174139976501,-3.233198404312134,4.13671875,1,"['C1', 'F1', 'J1']",7.6,90,0.0,0.6971740433075116,[29100|0|0]
291,29100,0.8306975960731506,-0.2028292268514633,-0.0153795406222343,0.1122788488864898,0.2708992958068847,-3.251883745193481,4.13671875,1,"['C1', 'F1', 'J1']",7.6,90,0.0,0.6980364616018725,[29200|0|0]
292,29200,0.8308440446853638,-0.2027795761823654,-0.0150663563981652,0.10368163138628,0.2603852450847626,-3.248823881149292,4.13671875,1,"['C1', 'F1', 'J1']",7.6,90,0.0,0.6983857419236297,[29300|0|0]
293,29300,0.8309850692749023,-0.2029159814119339,-0.0149460472166538,0.1136532202363014,0.2646574974060058,-3.2501468658447266,4.13671875,1,"['C1', 'F1', 'J1']",7.6,90,0.0,0.698615891050641,[29400|0|0]
294,29400,0.8310723900794983,-0.2028273344039917,-0.0147945638746023,0.1069513335824012,0.2575768828392029,-3.249887228012085,4.14453125,1,"['C1', 'F1', 'J1']",7.6,90,0.0,0.6988119278274241,[29500|0|0]
295,29500,0.8309492468833923,-0.2028445452451706,-0.0151432454586029,0.1070532649755477,0.2578769326210022,-3.2299420833587646,4.13671875,1,"['C1', 'F1', 'J1']",7.6,90,0.0,0.6991821160320206,[29600|0|0]
296,29600,0.8310863375663757,-0.2030263990163803,-0.014856643974781,0.1099640950560569,0.2581442296504974,-3.226942539215088,4.13671875,1,"['C1', 'F1', 'J1']",7.6,90,0.0,0.6995481830477335,[29700|0|0]
