time.ms,stateEstimate.x,stateEstimate.y,stateEstimate.z,stabilizer.roll,stabilizer.pitch,stabilizer.yaw,pm.vbat,drone_id,node_name,wind_speed,global_wind_direction,relative_wind_direction,travel_dist,waiting_time,curr_node_role
0,0.6668494343757629,0.373454749584198,0.0,-0.3364326953887939,0.7400197982788086,4.364989757537842,4.06640625,0,F2,7.6,0,270.0,0.0,[6200|0|0|0],start
100,0.6671841144561768,0.3734444677829742,0.0,-0.3332975208759308,0.7331749796867371,4.375388622283936,4.06640625,0,F2,7.6,0,270.0,0.0003348379782255,[6300|0|0|0],start
200,0.6669446229934692,0.3734177052974701,0.0,-0.3266160786151886,0.7423263192176819,4.374057292938232,4.06640625,0,F2,7.6,0,270.0,0.0005758201172735,[6400|0|0|0],start
300,0.6670995950698853,0.3736329078674316,0.0,-0.3285123109817505,0.7331516146659851,4.382923603057861,4.06640625,0,F2,7.6,0,270.0,0.0008410153106439,[6500|0|0|0],start
400,0.6672602891921997,0.3734109103679657,0.0,-0.325914591550827,0.7279736399650574,4.368834972381592,4.06640625,0,F2,7.6,0,270.0,0.0011150691205344,[6600|0|0|0],start
500,0.6671963930130005,0.373575210571289,0.0,-0.332633763551712,0.7253787517547607,4.374034404754639,4.06640625,0,F2,7.6,0,270.0,0.0012913566088265,[6700|0|0|0],start
600,0.666852593421936,0.3734733462333679,0.0,-0.317562997341156,0.7426139116287231,4.379800796508789,4.06640625,0,F2,7.6,0,270.0,0.0016499294775104,[6800|0|0|0],start
700,0.6672589778900146,0.373231291770935,0.0,-0.3125981986522674,0.7275148630142212,4.374329566955566,4.06640625,0,F2,7.6,0,270.0,0.0021229397297029,[6900|0|0|0],start
800,0.6674327254295349,0.3733508586883545,0.0,-0.3179176747798919,0.7230026721954346,4.3687052726745605,4.06640625,0,F2,7.6,0,270.0,0.0023338531129448,[7000|0|0|0],start
900,0.667291522026062,0.3733798265457153,0.0,-0.3249329924583435,0.7338559627532959,4.363149642944336,4.06640625,0,F2,7.6,0,270.0,0.0024779972696505,[7100|0|0|0],start
1000,0.6672144532203674,0.3735466003417969,0.0,-0.3320318460464477,0.7350698709487915,4.37425708770752,4.06640625,0,fly,7.6,0,270.0,0.0026617174369448,[7100|0|0|0],fly
1100,0.6668449640274048,0.3733411729335785,0.0,-0.3269439339637756,0.7474937438964844,4.410976409912109,2.998046875,0,fly,7.6,0,270.0,0.0030844734939843,[7100|0|0|0],fly
1200,0.6666327118873596,0.3739975392818451,0.0,3.0810766220092773,-1.014712691307068,4.206517696380615,3.419921875,0,fly,7.6,0,270.0,0.0037743051793181,[7100|0|0|0],fly
1300,0.6727116703987122,0.368559181690216,0.0045725256204605,8.485276222229004,-7.519101142883301,6.679831504821777,3.611328125,0,fly,7.6,0,270.0,0.0131251051679257,[7100|0|0|0],fly
1400,0.6946027278900146,0.3512069284915924,0.053329911082983,5.529910087585449,-3.162869453430176,6.75902795791626,3.583984375,0,fly,7.6,0,270.0,0.0693176467219225,[7100|0|0|0],fly
1500,0.7230195999145508,0.3265160918235779,0.1148665472865104,-1.056584715843201,2.972484827041626,5.814517021179199,3.611328125,0,fly,7.6,0,270.0,0.1414558032430779,[7100|0|0|0],fly
1600,0.7480565309524536,0.3045885860919952,0.18609519302845,-3.635487079620361,5.330960750579834,3.941497802734375,3.62109375,0,fly,7.6,0,270.0,0.2200763056431263,[7100|0|0|0],fly
1700,0.7648580074310303,0.2896522879600525,0.2559283077716827,-4.389678478240967,6.718108177185059,2.563826322555542,3.615234375,0,fly,7.6,0,270.0,0.2934387383214934,[7100|0|0|0],fly
1800,0.7728577256202698,0.2804780006408691,0.3359021842479706,-4.537636280059815,5.956860065460205,1.3220688104629517,3.630859375,0,fly,7.6,0,270.0,0.3743336328301503,[7100|0|0|0],fly
1900,0.7720756530761719,0.2761611044406891,0.4194112420082092,-2.1583127975463867,4.030778884887695,1.5836457014083862,3.62109375,0,fly,7.6,0,270.0,0.457957851560553,[7100|0|0|0],fly
2000,0.7657286524772644,0.2746601998806,0.5052693486213684,-1.766956806182861,2.3981926441192627,1.8963494300842283,3.62109375,0,fly,7.6,0,270.0,0.5440633194606675,[7100|0|0|0],fly
2100,0.7558480501174927,0.2745778560638428,0.5936152338981628,-0.4750421941280365,1.2759807109832764,1.4263873100280762,3.626953125,0,fly,7.6,0,270.0,0.6329600490340135,[7100|0|0|0],fly
2200,0.7434003949165344,0.2750883102416992,0.6867601871490479,-0.9180253744125366,1.3396602869033811,-0.2940147817134857,3.630859375,0,fly,7.6,0,270.0,0.7269344444807477,[7100|0|0|0],fly
2300,0.7305851578712463,0.2775836884975433,0.7802174687385559,-2.51472544670105,-0.5290952920913696,-2.256735324859619,3.62109375,0,fly,7.6,0,270.0,0.821299272119372,[7100|0|0|0],fly
2400,0.7185749411582947,0.2831659615039825,0.8735517263412476,-0.5457472205162048,-1.242357850074768,-3.429754734039306,3.626953125,0,fly,7.6,0,270.0,0.915568518003998,[7100|0|0|0],fly
2500,0.7085486650466919,0.291633665561676,0.967229187488556,-1.5109714269638062,-1.5323283672332764,-4.666729927062988,3.62109375,0,fly,7.6,0,270.0,1.010160774302705,[7100|0|0|0],fly
2600,0.7015074491500854,0.3036534190177917,1.062322020530701,0.7829723954200745,-1.2209477424621582,-4.983451843261719,3.611328125,0,fly,7.6,0,270.0,1.1062685268018124,[7100|0|0|0],fly
2700,0.6949857473373413,0.3168661296367645,1.1591404676437378,1.0671005249023438,-1.6209887266159058,-4.969945430755615,3.615234375,0,fly,7.6,0,270.0,1.204201769461366,[7100|0|0|0],fly
2800,0.689940333366394,0.328772097826004,1.2564520835876465,2.52761459350586,-1.6573776006698608,-4.635678768157959,3.611328125,0,fly,7.6,0,270.0,1.3023687643133843,[7100|0|0|0],fly
2900,0.6866670846939087,0.3380821347236633,1.3544259071350098,2.674130439758301,-1.2837730646133425,-1.1719939708709717,3.611328125,0,fly,7.6,0,270.0,1.4008383588306643,[7100|0|0|0],fly
3000,0.6835588216781616,0.343328595161438,1.4523717164993286,2.817575693130493,-1.0541367530822754,2.47867751121521,3.626953125,0,fly,7.6,0,270.0,1.498973817346594,[7100|0|0|0],fly
3100,0.6813753247261047,0.346449077129364,1.5512778759002686,2.444540023803711,-0.9985636472702026,-1.693761110305786,3.673828125,0,fly,7.6,0,270.0,1.5979532770041205,[7100|0|0|0],fly
3200,0.681729257106781,0.343599408864975,1.642137885093689,2.6728081703186035,-0.963988184928894,-2.639703750610352,3.701171875,0,fly,7.6,0,270.0,1.6888586516965751,[7100|0|0|0],fly
3300,0.6757487654685974,0.3390222191810608,1.7154948711395264,1.7134863138198853,-0.703881025314331,-0.0134581523016095,3.689453125,0,fly,7.6,0,270.0,1.762601206218141,[7100|0|0|0],fly
3400,0.6713268756866455,0.3354963362216949,1.774526596069336,0.4589619636535644,-0.887248158454895,-3.1267130374908447,3.68359375,0,fly,7.6,0,270.0,1.821903225644764,[7100|0|0|0],fly
3500,0.667059063911438,0.3315489590167999,1.8187470436096191,-0.3890141248703003,-1.0918192863464355,-5.367355346679688,3.6796875,0,fly,7.6,0,270.0,1.8665041671685625,[7100|0|0|0],fly
3600,0.6639105081558228,0.3301329016685486,1.847654700279236,-1.0750879049301147,-1.2545372247695925,-7.026165962219238,3.6640625,0,fly,7.6,0,270.0,1.895617243884845,[7100|0|0|0],fly
3700,0.6622360348701477,0.3284439444541931,1.864491820335388,-1.0464084148406982,-1.5206832885742188,-7.365077972412109,3.6484375,0,fly,7.6,0,270.0,1.9126215094979688,[7100|0|0|0],fly
3800,0.6626446843147278,0.3282881677150726,1.873283863067627,-0.6891990900039673,-1.2895796298980713,-7.678857803344727,3.63671875,0,fly,7.6,0,270.0,1.921424422434408,[7100|0|0|0],fly
3900,0.6658094525337219,0.3272969126701355,1.876996755599976,-0.7304627299308777,-0.2029684036970138,-8.713991165161133,3.63671875,0,fly,7.6,0,270.0,1.9264027670790504,[7100|0|0|0],fly
4000,0.6701847314834595,0.3258717358112335,1.8786942958831787,-0.3467666506767273,-0.1191069409251213,-9.811634063720703,3.630859375,0,fly,7.6,0,272.0,1.9313074421937,[7100|0|0|0],fly
4100,0.6765233278274536,0.3226294815540313,1.878552913665772,-3.841376781463623,0.4912024736404419,-10.558443069458008,3.76953125,0,fly,7.6,0,272.0,1.938428537980996,[7100|0|0|0],fly
4200,0.6955392956733704,0.3169223666191101,1.891452670097351,-15.062772750854492,2.7278974056243896,-9.45197868347168,3.748046875,0,fly,7.6,0,272.0,1.9621051490136456,[7100|0|0|0],fly
4300,0.7025710344314575,0.348287433385849,1.8566001653671265,-12.369690895080566,2.064971208572388,-5.692773342132568,3.701171875,0,fly,7.6,0,272.0,2.009517276673289,[7100|0|0|0],fly
4400,0.7036448121070862,0.380758136510849,1.7899545431137085,-11.280343055725098,1.290791153907776,1.4439020156860352,3.568359375,0,fly,7.6,0,272.0,2.083659966977012,[7100|0|0|0],fly
4500,0.6993906497955322,0.4169026911258697,1.6909819841384888,-7.482416152954102,0.5746868848800659,-0.9766055941581726,3.53125,0,fly,7.6,0,272.0,2.1891118240274907,[7100|0|0|0],fly
4600,0.6971632838249207,0.4724056720733642,1.6231083869934082,-5.01357364654541,0.1021569147706031,-5.187927722930908,3.537109375,0,fly,7.6,0,272.0,2.2768179654466505,[7100|0|0|0],fly
4700,0.6924395561218262,0.5410600900650024,1.5664275884628296,-2.3976354598999023,-3.689084053039551,-11.530147552490234,3.5625,0,fly,7.6,0,272.0,2.365972077159165,[7100|0|0|0],fly
4800,0.6973987221717834,0.6089442372322083,1.5246241092681885,1.2639691829681396,-4.301259517669678,-16.134037017822266,3.55859375,0,fly,7.6,0,272.0,2.445849368283156,[7100|0|0|0],fly
4900,0.7037999033927917,0.6719760298728943,1.4924787282943726,8.020434379577637,-2.393704414367676,-13.788516998291016,3.525390625,0,fly,7.6,0,272.0,2.516893773569388,[7100|0|0|0],fly
5000,0.7109019160270691,0.7182751893997192,1.4737437963485718,10.749401092529297,-0.0757470950484275,-11.604613304138184,3.546875,0,fly,7.6,0,272.0,2.567342246602391,[7100|0|0|0],fly
5100,0.713589608669281,0.744636058807373,1.4685537815093994,10.720744132995604,1.4182873964309692,-9.920003890991213,3.57421875,0,fly,7.6,0,272.0,2.594343272169899,[7100|0|0|0],fly
5200,0.7102417945861816,0.7534787058830261,1.4711110591888428,7.251609802246094,1.2933070659637451,-9.086545944213867,3.58984375,0,fly,7.6,0,272.0,2.604138165511296,[7100|0|0|0],fly
5300,0.7024238109588623,0.7526436448097229,1.476720094680786,2.6898231506347656,-0.3322526812553406,-7.991378307342529,3.60546875,0,fly,7.6,0,272.0,2.613796295461915,[7100|0|0|0],fly
5400,0.695081889629364,0.7484948039054871,1.4811643362045288,1.0092395544052124,-1.4620933532714844,-6.678262233734131,3.599609375,0,fly,7.6,0,272.0,2.623328764836561,[7100|0|0|0],fly
5500,0.6880905032157898,0.7462183237075806,1.4825993776321411,0.1888381093740463,-1.882884740829468,-5.951061248779297,3.59375,0,fly,7.6,0,272.0,2.6308201725797247,[7100|0|0|0],fly
5600,0.6833223104476929,0.7458082437515259,1.4824427366256714,0.1085677742958068,-1.5619944334030151,-5.5359086990356445,3.60546875,0,fly,7.6,0,272.0,2.635608529735263,[7100|0|0|0],fly
5700,0.6814131736755371,0.7470878958702087,1.4815642833709717,1.1073567867279053,-1.984359860420227,-5.271172523498535,3.615234375,0,fly,7.6,0,272.0,2.638069016044988,[7100|0|0|0],fly
5800,0.6820115447044373,0.7510117888450623,1.4795167446136477,0.785992443561554,-1.9145262241363523,-4.1373610496521,3.583984375,0,fly,7.6,0,272.0,2.6425352671495577,[7100|0|0|0],fly
5900,0.6847694516181946,0.7525165677070618,1.4763526916503906,1.146041750907898,-1.2226150035858154,-1.6026837825775146,3.58984375,0,fly,7.6,0,272.0,2.646994150543724,[7100|0|0|0],fly
6000,0.6900413036346436,0.7520391941070557,1.4755403995513916,2.14419937133789,-0.6804868578910828,-0.0273953210562467,3.626953125,0,fly,7.6,0,272.0,2.652349533601117,[7100|0|0|0],fly
6100,0.6953219771385193,0.7503824830055237,1.4731640815734863,0.9549357295036316,-0.4800530970096588,1.2477787733078003,3.615234375,0,fly,7.6,0,272.0,2.658372580293664,[7100|0|0|0],fly
6200,0.7020776271820068,0.7468702793121338,1.4681251049041748,1.1024665832519531,-0.2240309417247772,2.6893553733825684,3.599609375,0,fly,7.6,0,272.0,2.6675030604654726,[7100|0|0|0],fly
6300,0.7078647017478943,0.7420366406440735,1.4604599475860596,1.003456473350525,1.2727195024490356,5.078935146331787,3.583984375,0,fly,7.6,0,272.0,2.6782552198539844,[7100|0|0|0],fly
6400,0.7130885124206543,0.732430100440979,1.4536409378051758,1.4902222156524658,1.8730683326721191,6.925631046295166,3.59375,0,fly,7.6,0,272.0,2.691142139851032,[7100|0|0|0],fly
6500,0.7130621671676636,0.7209190130233765,1.4460866451263428,0.321451187133789,2.473286390304565,7.82622480392456,3.58984375,0,fly,7.6,0,272.0,2.7049106969826093,[7100|0|0|0],fly
6600,0.7118844985961914,0.706217348575592,1.4376708269119265,-0.8107708692550659,1.2601557970046997,7.648687839508057,3.578125,0,fly,7.6,0,272.0,2.7218916226646086,[7100|0|0|0],fly
6700,0.710197389125824,0.689652144908905,1.4290419816970823,-1.3719780445098877,-0.741849422454834,7.429121971130371,3.578125,0,fly,7.6,0,272.0,2.74064553640616,[7100|0|0|0],fly
6800,0.7102953791618347,0.6735624670982361,1.4221770763397217,-2.08612060546875,-0.9702724814414978,7.796807289123535,3.57421875,0,fly,7.6,0,272.0,2.758138799671309,[7100|0|0|0],fly
6900,0.7127018570899963,0.6608588099479675,1.4165059328079224,-2.2976491451263428,-1.273679494857788,8.802217483520508,3.57421875,0,fly,7.6,0,272.0,2.772257436644068,[7100|0|0|0],fly
7000,0.7167356610298157,0.6478458046913147,1.4114022254943848,-3.457337141036988,-0.5987270474433899,8.355912208557129,3.5625,0,fly,7.6,0,272.0,2.786805897331606,[7100|0|0|0],fly
7100,0.7210516929626465,0.639802873134613,1.4056675434112549,-2.6682722568511963,-0.4363560080528259,7.091156005859375,3.84765625,0,fly,7.6,0,270.0,2.797585668120708,[7100|0|0|0],fly
7200,0.7264347076416016,0.6330117583274841,1.3767279386520386,-3.432216167449951,0.4952733218669891,5.270681381225586,3.794921875,0,fly,7.6,0,270.0,2.827794885438889,[7100|0|0|0],fly
7300,0.7312765121459961,0.6268739104270935,1.3074476718902588,-3.2579996585845947,-0.0198760908097028,5.692037105560303,3.689453125,0,fly,7.6,0,270.0,2.897514836746176,[7100|0|0|0],fly
7400,0.7340019345283508,0.6229586005210876,1.2039178609848022,-3.660193920135498,0.3314847350120544,4.677753448486328,3.599609375,0,fly,7.6,0,270.0,3.0011544977111844,[7100|0|0|0],fly
7500,0.7369465231895447,0.6215189099311829,1.081697702407837,-2.5067176818847656,-1.5455033779144287,3.977938175201416,3.57421875,0,fly,7.6,0,270.0,3.1234185990408747,[7100|0|0|0],fly
7600,0.7404454946517944,0.6238319873809814,0.953826665878296,-2.675691843032837,0.5288842916488647,2.11214017868042,3.568359375,0,fly,7.6,0,270.0,3.2513584095445704,[7100|0|0|0],fly
7700,0.7433907985687256,0.6313998699188232,0.8276928067207336,-2.400615692138672,-0.6468051671981812,1.7185910940170288,3.578125,0,fly,7.6,0,270.0,3.377753417702525,[7100|0|0|0],fly
7800,0.7483724355697632,0.6433348655700684,0.7046895027160645,-1.3829025030136108,0.3344770967960357,1.2276248931884766,3.59375,0,fly,7.6,0,270.0,3.501434756733401,[7100|0|0|0],fly
7900,0.7542454600334167,0.6589979529380798,0.581551194190979,-0.572171151638031,1.1873199939727783,1.0264390707015991,3.546875,0,fly,7.6,0,270.0,3.6257040922456976,[7100|0|0|0],fly
8000,0.7603477239608765,0.6761335134506226,0.4621338248252868,1.2940478324890137,1.4237432479858398,1.88765561580658,3.48828125,0,fly,7.6,0,270.0,3.7464988486109534,[7100|0|0|0],fly
8100,0.7648552656173706,0.6910058856010437,0.3554130494594574,2.0725347995758057,2.3107588291168213,2.4926023483276367,3.46875,0,fly,7.6,0,270.0,3.854345171125212,[7100|0|0|0],fly
8200,0.7647215127944946,0.703130841255188,0.2686699628829956,1.7184906005859375,2.78487491607666,2.0357885360717773,3.47265625,0,fly,7.6,0,270.0,3.941931674127925,[7100|0|0|0],fly
8300,0.7596362829208374,0.7113369703292847,0.2024058848619461,2.004830837249756,2.250677585601806,1.974211812019348,3.484375,0,fly,7.6,0,270.0,4.008895307192659,[7100|0|0|0],fly
8400,0.7502521872520447,0.716239333152771,0.1559871435165405,1.871678590774536,0.7715782523155212,2.2170417308807373,3.515625,0,fly,7.6,0,270.0,4.056506166887331,[7100|0|0|0],fly
8500,0.7398106455802917,0.7178475856781006,0.1257618516683578,1.5184158086776731,-0.4874966740608215,2.6132609844207764,3.525390625,0,fly,7.6,0,270.0,4.088524607448608,[7100|0|0|0],fly
8600,0.7288137078285217,0.7159951329231262,0.1066034883260726,0.89268559217453,-0.7481371760368347,2.314104557037353,3.537109375,0,fly,7.6,0,270.0,4.11069231159407,[7100|0|0|0],fly
8700,0.7176108956336975,0.7126404643058777,0.0974468141794204,1.421563982963562,-0.2916513681411743,2.5827157497406006,3.5625,0,fly,7.6,0,270.0,4.125544970751003,[7100|0|0|0],fly
8800,0.7061548829078674,0.7071373462677002,0.0948537215590477,0.6763416528701782,-1.168683409690857,3.0488061904907227,3.568359375,0,fly,7.6,0,270.0,4.1385160410636,[7100|0|0|0],fly
8900,0.6960384249687195,0.6995494961738586,0.0936778783798217,-0.0815838873386383,-2.8374056816101074,2.419152021408081,3.5625,0,fly,7.6,0,270.0,4.151216466153466,[7100|0|0|0],fly
9000,0.689756453037262,0.6916391849517822,0.0935475975275039,-0.971041977405548,-2.593271255493164,1.386410355567932,3.568359375,0,fly,7.6,0,270.0,4.161318602961003,[7100|0|0|0],fly
9100,0.6880897283554077,0.6859431862831116,0.0928527191281318,-1.567793607711792,-2.094821691513061,0.7723982930183411,3.55859375,0,fly,7.6,0,270.0,4.167293988135912,[7100|0|0|0],fly
9200,0.688579797744751,0.6826940178871155,0.0915989726781845,-1.410014510154724,-1.70251202583313,0.6977378726005554,3.55859375,0,fly,7.6,0,270.0,4.170810967441035,[7100|0|0|0],fly
9300,0.6917921900749207,0.6811254024505615,0.0892134085297584,-1.6060926914215088,-1.0585273504257202,0.7385459542274475,3.55859375,0,fly,7.6,0,270.0,4.175108750029415,[7100|0|0|0],fly
9400,0.6965145468711853,0.682185173034668,0.0871929451823234,-1.4896730184555054,-0.7664438486099243,0.7278807163238525,3.546875,0,fly,7.6,0,270.0,4.1803533700862445,[7100|0|0|0],fly
9500,0.7019844055175781,0.6854383945465088,0.086673304438591,-1.0343705415725708,-0.1109042465686798,0.8963987827301025,3.546875,0,fly,7.6,0,270.0,4.186738730711861,[7100|0|0|0],fly
9600,0.7073736786842346,0.6905155777931213,0.0889680907130241,-0.2112456113100052,0.4358500838279724,1.0152186155319214,3.5625,0,fly,7.6,0,270.0,4.1944903820862365,[7100|0|0|0],fly
9700,0.712368905544281,0.6965808272361755,0.0924892649054527,0.3468017876148224,0.385098785161972,1.059747576713562,3.5625,0,fly,7.6,0,270.0,4.203100736892122,[7100|0|0|0],fly
9800,0.7165147066116333,0.7025893926620483,0.095666654407978,0.7976941466331482,0.7473747730255127,1.119068622589111,3.5625,0,fly,7.6,0,270.0,4.211062290070855,[7100|0|0|0],fly
9900,0.7199847102165222,0.7078957557678223,0.0971492677927017,1.045143485069275,0.7844178080558777,1.648489236831665,3.5625,0,fly,7.6,0,270.0,4.217573553917208,[7100|0|0|0],fly
10000,0.7228062152862549,0.7113770842552185,0.0976174771785736,1.2481271028518677,0.1584098935127258,1.910173296928405,3.546875,0,fly,7.6,0,270.0,4.22207907929442,[7100|0|0|0],fly
10100,0.7250347137451172,0.7134661078453064,0.0975367352366447,1.0891064405441284,0.5402341485023499,1.6492869853973389,3.541015625,0,F1,7.6,0,270.0,4.225134687941201,[7100|0|100|0],second_intermediate
10200,0.7264094948768616,0.7143192291259766,0.0974356606602668,0.9141104221343994,0.172800526022911,1.0323525667190552,3.552734375,0,F1,7.6,0,270.0,4.226755815681301,[7100|0|200|0],second_intermediate
10300,0.7268341779708862,0.7136979103088379,0.0992057397961616,0.6914554834365845,0.561183512210846,0.6296180486679077,3.546875,0,F1,7.6,0,270.0,4.228679243077958,[7100|0|300|0],second_intermediate
10400,0.726841390132904,0.712666928768158,0.101947121322155,0.3689727187156677,0.2076192051172256,0.6503623723983765,3.552734375,0,F1,7.6,0,270.0,4.231608090568621,[7100|0|400|0],second_intermediate
10500,0.7261236906051636,0.7112778425216675,0.1050333827733993,0.5429397225379944,0.0139568960294127,1.0279645919799805,3.568359375,0,F1,7.6,0,270.0,4.235067810637895,[7100|0|500|0],second_intermediate
10600,0.724911630153656,0.7091498374938965,0.1077070236206054,0.6895459294319153,-0.5283548831939697,1.395583987236023,3.55859375,0,F1,7.6,0,270.0,4.23869353143743,[7100|0|600|0],second_intermediate
10700,0.7243053317070007,0.7056137919425964,0.1088996231555938,0.4169730246067047,-0.1179578974843025,1.362301468849182,3.546875,0,F1,7.6,0,270.0,4.242474207249787,[7100|0|700|0],second_intermediate
10800,0.7233757972717285,0.7015916109085083,0.1090269535779953,0.2055880427360534,0.0205013640224933,0.982679009437561,3.546875,0,F1,7.6,0,270.0,4.246604363127451,[7100|0|800|0],second_intermediate
10900,0.721911609172821,0.6964743137359619,0.1085745096206665,-0.0067871012724936,-0.3893354535102844,0.6223582029342651,3.552734375,0,F1,7.6,0,270.0,4.2519462057567,[7100|0|900|0],second_intermediate
11000,0.720227062702179,0.6927276849746704,0.1090929061174392,-0.1813801229000091,0.3356590270996094,0.9828292727470398,3.546875,0,F1,7.6,0,270.0,4.2560866959226775,[7100|0|1000|0],second_intermediate
11100,0.7180007100105286,0.6882321834564209,0.1100915297865867,0.1156726479530334,-0.0931381508708,2.031272649765014,3.541015625,0,F1,7.6,0,270.0,4.261201715907075,[7100|0|1100|0],second_intermediate
11200,0.7156866788864136,0.6839628219604492,0.1097254380583763,0.8589321970939636,-0.3533022999763489,3.109820604324341,3.552734375,0,F1,7.6,0,270.0,4.266071645144766,[7100|0|1200|0],second_intermediate
11300,0.7129534482955933,0.6774307489395142,0.10746830701828,0.7789183259010315,0.0167139954864978,3.637204885482788,3.537109375,0,F1,7.6,0,270.0,4.27350354718567,[7100|0|1300|0],second_intermediate
11400,0.7102712392807007,0.6691269278526306,0.1050022467970848,0.5975728034973145,-0.0380371659994125,3.989295959472656,3.525390625,0,F1,7.6,0,270.0,4.282571575794861,[7100|0|1400|0],second_intermediate
11500,0.7076727747917175,0.6594126224517822,0.1044226661324501,1.0335808992385864,-0.3872239291667938,4.307826995849609,3.541015625,0,F1,7.6,0,270.0,4.292644095880136,[7100|0|1500|0],second_intermediate
11600,0.7046210169792175,0.6473221182823181,0.1052873358130455,0.7849119901657104,0.130417913198471,4.713625431060791,3.541015625,0,F1,7.6,0,270.0,4.305143742694128,[7100|0|1600|0],second_intermediate
11700,0.7011735439300537,0.631958544254303,0.1066532731056213,1.3664077520370483,-0.2606443762779236,4.508502960205078,3.546875,0,F1,7.6,0,270.0,4.320948497106211,[7100|0|1700|0],second_intermediate
11800,0.6978371143341064,0.613612711429596,0.1084801703691482,0.3698356747627258,0.485614150762558,3.310739755630493,3.541015625,0,F1,7.6,0,270.0,4.339684529185931,[7100|0|1800|0],second_intermediate
11900,0.6948091983795166,0.5935739278793335,0.1103813871741294,0.2942955791950226,-0.1362787187099456,1.9568819999694824,3.546875,0,F1,7.6,0,270.0,4.36003976798438,[7100|0|1900|0],second_intermediate
12000,0.6925338506698608,0.5720430612564087,0.1110268235206604,0.0431080646812915,-0.0923168063163757,0.7447577118873596,3.9375,0,F1,7.6,0,270.0,4.38170014685483,[7100|0|2000|0],second_intermediate
12100,0.7003639936447144,0.5688799023628235,0.0949608907103538,-3.0498242378234863,-0.3301987051963806,-1.6918519735336304,3.94921875,0,F1,7.6,0,270.0,4.3998503785409,[7100|0|2100|0],second_intermediate
12200,0.7007192373275757,0.5481687784194946,0.003714844584465,-7.993011474609375,-4.421718597412109,-5.453279495239258,3.94921875,0,F1,7.6,0,270.0,4.493418096193293,[7100|0|2200|0],second_intermediate
12300,0.6972842812538147,0.5189809799194336,0.0,5.399280071258545,-26.11029052734375,-16.33641242980957,3.953125,0,F1,7.6,0,270.0,4.523041171232788,[7100|0|2300|0],second_intermediate
12400,0.7007260918617249,0.5186435580253601,0.0,1.30103600025177,0.7407961487770081,-8.932172775268555,3.953125,0,F1,7.6,0,270.0,4.526499482062561,[7100|0|2400|0],second_intermediate
12500,0.6903356909751892,0.5190020203590393,0.0,1.7257041931152344,1.195420265197754,-13.053099632263184,3.958984375,0,F1,7.6,0,270.0,4.536896064473507,[7100|0|2500|0],second_intermediate
12600,0.689754843711853,0.5195573568344116,0.0,1.75798237323761,1.205736756324768,-13.01479434967041,3.958984375,0,F1,7.6,0,270.0,4.5376996701879,[7100|0|2600|0],second_intermediate
12700,0.689781904220581,0.5200785994529724,0.0,1.2360731363296509,0.655240535736084,-12.977580070495604,3.958984375,0,F1,7.6,0,270.0,4.5382216147621,[7100|0|2700|0],second_intermediate
12800,0.6895946860313416,0.5199803709983826,0.0,0.730623185634613,0.0559030398726463,-12.932592391967772,3.958984375,0,F1,7.6,0,270.0,4.538433037276684,[7100|0|2800|0],second_intermediate
12900,0.6901372075080872,0.5208719372749329,0.0,0.7652161717414856,-0.0088773593306541,-12.92004108428955,3.96484375,0,F1,7.6,0,270.0,4.539476694298034,[7100|0|2900|0],second_intermediate
13000,0.6818276047706604,0.5333859920501709,0.0,0.8140568137168884,0.0582647323608398,-13.011876106262209,3.96484375,0,F1,7.6,0,270.0,4.554498380773643,[7100|0|3000|0],second_intermediate
13100,0.6776975989341736,0.5554300546646118,0.0,-0.6433076858520508,-1.391698956489563,-9.368602752685549,3.96484375,0,F1,7.6,0,270.0,4.576925989758081,[7100|0|3100|0],second_intermediate
13200,0.6743913292884827,0.5928459167480469,0.0096909794956445,-0.1675256937742233,7.158895969390869,-12.580577850341797,3.96875,0,F1,7.6,0,270.0,4.615717654300887,[7100|0|3200|0],second_intermediate
13300,0.6928686499595642,0.6843249797821045,0.049823448061943,6.338190078735352,12.794700622558594,-19.432870864868164,3.96875,0,F1,7.6,0,270.0,4.717307247202896,[7100|0|3300|0],second_intermediate
13400,0.705426037311554,0.7891385555267334,0.05516067892313,3.165621519088745,10.24900722503662,-10.990041732788086,3.96875,0,F1,7.6,0,270.0,4.823005211567157,[7100|0|3400|0],second_intermediate
13500,0.6982693672180176,0.8424950242042542,0.0407207533717155,2.3245017528533936,10.302285194396973,-9.986849784851074,3.96875,0,F1,7.6,0,270.0,4.8787424713355865,[7100|0|3500|0],second_intermediate
13600,0.633991539478302,0.9094616770744324,0.0188010614365339,1.720835566520691,7.5820698738098145,-1.0475339889526367,3.96875,0,F1,7.6,0,270.0,4.974118802938897,[7100|0|3600|0],second_intermediate
13700,0.710030734539032,0.7925066351890564,0.0265744347125291,-1.0773025751113892,1.2944837808609009,4.785460472106934,3.974609375,0,F1,7.6,0,270.0,5.113835896882272,[7100|0|3700|0],second_intermediate
13800,0.7194132804870605,0.7927784323692322,0.0255723223090171,-1.5043967962265017,0.8441516757011414,9.593419075012209,3.974609375,0,F1,7.6,0,270.0,5.123275720579953,[7100|0|3800|0],second_intermediate
13900,0.7132249474525452,0.7882051467895508,0.0236150100827217,-1.2852931022644043,0.675437867641449,12.498273849487305,3.974609375,0,F1,7.6,0,270.0,5.131215586944735,[7100|0|3900|0],second_intermediate
14000,0.7140633463859558,0.7850958704948425,0.022466292604804,-1.3827940225601196,-0.0415925085544586,16.425020217895508,3.974609375,0,F1,7.6,0,270.0,5.134634660458488,[7100|0|4000|0],second_intermediate
14100,0.7169378399848938,0.784928023815155,0.0199015904217958,-1.7438888549804688,-0.0413779728114604,10.042097091674805,3.974609375,0,F1,7.6,0,270.0,5.13849064065109,[7100|0|4100|0],second_intermediate
14200,0.7182043194770813,0.7852579951286316,0.0183315314352512,-2.012358427047729,0.0968323573470115,4.14633321762085,3.98046875,0,F1,7.6,0,270.0,5.140534640796168,[7100|0|4200|0],second_intermediate
14300,0.7178404927253723,0.7862280607223511,0.0190117917954921,-2.0997636318206787,0.2931242287158966,0.3670493066310882,3.974609375,0,F1,7.6,0,270.0,5.141774056512984,[7100|0|4300|0],second_intermediate
14400,0.717014491558075,0.7867481708526611,0.019676424562931,-2.058545112609864,0.458882063627243,-2.271527051925659,3.98046875,0,F1,7.6,0,270.0,5.14295495836817,[7100|0|4400|0],second_intermediate
14500,0.7164088487625122,0.7869619727134705,0.0204977039247751,-1.9710891246795648,0.5509917140007019,-4.147004127502441,3.98046875,0,F1,7.6,0,270.0,5.143997558110015,[7100|0|4500|0],second_intermediate
14600,0.7157580256462097,0.7871822714805603,0.0210523642599582,-1.8851863145828247,0.6058101058006287,-5.524983882904053,3.98046875,0,F1,7.6,0,270.0,5.144880592856172,[7100|0|4600|0],second_intermediate
14700,0.7157229781150818,0.7870042324066162,0.0207721143960952,-1.7976045608520508,0.6068064570426941,-6.5345330238342285,3.98046875,0,F1,7.6,0,270.0,5.14521445843913,[7100|0|4700|0],second_intermediate
14801,0.7150709629058838,0.7871924638748169,0.0206530205905437,-1.7351641654968262,0.6157727241516113,-7.302648544311523,3.98046875,0,F1,7.6,0,270.0,5.145903470959457,[7100|0|4800|0],second_intermediate
14901,0.7150670886039734,0.7873989343643188,0.0208907611668109,-1.7019630670547483,0.5915932655334473,-7.903578758239746,3.984375,0,F1,7.6,0,270.0,5.146218376746724,[7100|0|4900|0],second_intermediate
15001,0.7152284979820251,0.7872136831283569,0.0211535226553678,-1.6648985147476196,0.566210150718689,-8.367008209228516,3.984375,0,F1,7.6,0,270.0,5.146578119165152,[7100|0|5000|0],second_intermediate
15100,0.7154944539070129,0.7868292927742004,0.0204817075282335,-1.6377240419387815,0.5357791781425476,-8.710996627807617,3.984375,0,F1,7.6,0,270.0,5.147396546964932,[7100|0|5100|0],second_intermediate
15200,0.7157412171363831,0.7868279218673706,0.0208027437329292,-1.631506085395813,0.5152802467346191,-8.957707405090332,3.984375,0,F1,7.6,0,270.0,5.147801464506513,[7100|0|5200|0],second_intermediate
15300,0.7155234217643738,0.7866906523704529,0.0211521014571189,-1.6197495460510254,0.5155994892120361,-9.131074905395508,3.984375,0,F1,7.6,0,270.0,5.148235432890504,[7100|0|5300|0],second_intermediate
15400,0.7151327133178711,0.7872785329818726,0.0212406367063522,-1.636701226234436,0.5176430344581604,-9.273584365844728,3.984375,0,F1,7.6,0,270.0,5.148946836569022,[7100|0|5400|0],second_intermediate
15500,0.7162274122238159,0.7826618552207947,0.021126726642251,1.4123282432556152,2.591207504272461,-6.137368679046631,3.984375,0,F1,7.6,0,270.0,5.15369289332669,[7100|0|5500|0],second_intermediate
15600,0.7552491426467896,0.7343103885650635,0.0,1.8216536045074463,-1.4456539154052734,-6.546352386474609,3.984375,0,F1,7.6,0,270.0,5.219319856928398,[7100|0|5600|0],second_intermediate
15700,0.7670308947563171,0.7157662510871887,0.0,2.682604551315308,-1.6206244230270386,-5.869248867034912,3.990234375,0,F1,7.6,0,270.0,5.241290171390615,[7100|0|5700|0],second_intermediate
15800,0.7822008728981018,0.6971896886825562,0.0,2.8871216773986816,-1.7723758220672607,-9.832415580749512,3.984375,0,F1,7.6,0,270.0,5.265273851416738,[7100|0|5800|0],second_intermediate
15900,0.7966848611831665,0.6754998564720154,0.0,2.97262978553772,-1.996567249298096,-10.627187728881836,3.990234375,0,F1,7.6,0,270.0,5.29135516154417,[7100|0|5900|0],second_intermediate
16000,0.8121107220649719,0.6512815952301025,0.0,3.099394559860229,-2.158275842666626,-10.40731143951416,3.990234375,0,F1,7.6,0,270.0,5.320068945020514,[7100|0|6000|0],second_intermediate
16100,0.7581422924995422,0.7315146923065186,0.0,1.7559419870376587,-0.7868961095809937,-10.352920532226562,3.990234375,0,F1,7.6,0,270.0,5.416764039292315,[7100|0|6100|0],second_intermediate
16200,0.7043581008911133,0.8304952383041382,0.0,1.1196354627609253,-0.2908430993556976,-9.816384315490724,3.990234375,0,F1,7.6,0,270.0,5.529413441212427,[7100|0|6200|0],second_intermediate
16300,0.7008519768714905,0.8344971537590027,0.0,1.613302230834961,-0.6283831596374512,-9.46416187286377,3.990234375,0,F1,7.6,0,270.0,5.534733989393664,[7100|0|6300|0],second_intermediate
16400,0.7011675238609314,0.8331376314163208,0.0,1.9938606023788448,-0.965572476387024,-9.219292640686035,3.990234375,0,F1,7.6,0,270.0,5.53612965085075,[7100|0|6400|0],second_intermediate
16500,0.7032196521759033,0.8304883241653442,0.0,2.162656307220459,-1.2255947589874268,-8.987737655639648,4.06640625,0,F1,7.6,0,270.0,5.539480778949046,[7100|0|6500|0],second_intermediate
16600,0.7062154412269592,0.8273192048072815,0.0,2.233483076095581,-1.4040478467941284,-8.815793991088867,4.0703125,0,F1,7.6,0,270.0,5.543841750118874,[7100|0|6600|0],second_intermediate
16700,0.7083484530448914,0.8246647715568542,0.0,2.252825736999512,-1.4529627561569214,-8.664746284484863,4.0703125,0,F1,7.6,0,270.0,5.5472470041911,[7100|0|6700|0],second_intermediate
16800,0.7093236446380615,0.8237054347991943,0.0,2.193886041641236,-1.4465348720550537,-8.562640190124512,4.0703125,0,F1,7.6,0,270.0,5.54861496824691,[7100|0|6800|0],second_intermediate
16900,0.7104269862174988,0.8225060105323792,0.0,2.149867534637451,-1.434424877166748,-8.489237785339355,4.0703125,0,F1,7.6,0,270.0,5.550244686385957,[7100|0|6900|0],second_intermediate
17000,0.7107093334197998,0.8222298622131348,0.0,2.076246500015259,-1.3800601959228516,-8.439713478088379,4.0703125,0,F1,7.6,0,270.0,5.550639626681279,[7100|0|7000|0],second_intermediate
17100,0.7109843492507935,0.8219675421714783,0.0,2.0333504676818848,-1.33197820186615,-8.394356727600098,4.07421875,0,F1,7.6,0,270.0,5.551019686560182,[7100|0|7100|0],second_intermediate
17200,0.7107731103897095,0.8224485516548157,0.0,1.9681545495986936,-1.277296781539917,-8.344123840332031,4.07421875,0,F1,7.6,0,270.0,5.551545035948202,[7100|0|7200|0],second_intermediate
17300,0.7101946473121643,0.8230605125427246,0.0,1.925503611564636,-1.228196144104004,-8.32386302947998,4.07421875,0,F1,7.6,0,270.0,5.552387126003014,[7100|0|7300|0],second_intermediate
17400,0.7103688716888428,0.8225268125534058,0.0,1.9329737424850464,-1.2193806171417236,-8.324745178222656,4.07421875,0,F1,7.6,0,270.0,5.552948543683558,[7100|0|7400|0],second_intermediate
17500,0.7103317975997925,0.8227470517158508,0.0,1.892139196395874,-1.2053498029708862,-8.332867622375488,4.07421875,0,F1,7.6,0,270.0,5.553171881492165,[7100|0|7500|0],second_intermediate
17600,0.7097415328025818,0.8230537176132202,0.0,1.877680778503418,-1.1740589141845703,-8.308635711669922,4.07421875,0,F1,7.6,0,270.0,5.553837055532124,[7100|0|7600|0],second_intermediate
17700,0.7090050578117371,0.8242222666740417,0.0,1.8275933265686035,-1.1581705808639526,-8.304078102111816,4.08203125,0,F1,7.6,0,270.0,5.5552183239056445,[7100|0|7700|0],second_intermediate
17800,0.7088228464126587,0.8242096304893494,0.0,1.836507797241211,-1.15533447265625,-8.302423477172852,4.08203125,0,F1,7.6,0,270.0,5.555400972932791,[7100|0|7800|0],second_intermediate
17900,0.7090721130371094,0.8238661885261536,0.0,1.848128080368042,-1.1721426248550415,-8.303194046020508,4.08203125,0,F1,7.6,0,270.0,5.555825338614897,[7100|0|7900|0],second_intermediate
18000,0.7088879346847534,0.824425458908081,0.0,1.8204141855239868,-1.1776140928268433,-8.275239944458008,4.08203125,0,F1,7.6,0,270.0,5.556414155246436,[7100|0|8000|0],second_intermediate
18100,0.7094351053237915,0.8235984444618225,0.0,1.843782544136048,-1.1878031492233276,-8.292145729064941,4.08203125,0,F1,7.6,0,270.0,5.557405794597484,[7100|0|8100|0],second_intermediate
18200,0.7095721960067749,0.8235354423522949,0.0,1.835841178894043,-1.179039716720581,-8.28157901763916,4.08203125,0,F1,7.6,0,270.0,5.557556669118745,[7100|0|8200|0],second_intermediate
18300,0.709770679473877,0.8234564661979675,0.0,1.8238455057144165,-1.187150955200195,-8.280522346496582,4.08203125,0,F1,7.6,0,270.0,5.557770287750108,[7100|0|8300|0],second_intermediate
18400,0.7096692323684692,0.8236414790153503,0.0,1.8182287216186523,-1.1659799814224243,-8.314250946044922,4.0859375,0,F1,7.6,0,270.0,5.557981288360987,[7100|0|8400|0],second_intermediate
18500,0.7094364166259766,0.8238431215286255,0.0,1.8161461353302,-1.1516737937927246,-8.335596084594727,4.08203125,0,F1,7.6,0,270.0,5.558289286531619,[7100|0|8500|0],second_intermediate
18600,0.7089953422546387,0.8244487047195435,0.0,1.803913235664368,-1.138043761253357,-8.337809562683105,4.0859375,0,F1,7.6,0,270.0,5.55903847115651,[7100|0|8600|0],second_intermediate
18700,0.7090591788291931,0.8242693543434143,0.0,1.814570903778076,-1.1464496850967407,-8.338253021240234,4.0859375,0,F1,7.6,0,270.0,5.559228843595872,[7100|0|8700|0],second_intermediate
18800,0.7092576622962952,0.8240737915039062,0.0,1.822585105895996,-1.1654382944107056,-8.323433876037598,4.0859375,0,F1,7.6,0,270.0,5.559507484064773,[7100|0|8800|0],second_intermediate
18900,0.7093652486801147,0.8238152861595154,0.0,1.824280023574829,-1.169933795928955,-8.323590278625488,4.0859375,0,F1,7.6,0,270.0,5.559787483784526,[7100|0|8900|0],second_intermediate
19000,0.7097011804580688,0.8234979510307312,0.0,1.821216464042664,-1.1863783597946167,-8.338427543640137,4.0859375,0,F1,7.6,0,270.0,5.560249600375226,[7100|0|9000|0],second_intermediate
19100,0.7094705104827881,0.8237091898918152,0.0,1.824668884277344,-1.1671136617660522,-8.319131851196289,4.0859375,0,F1,7.6,0,270.0,5.560562379041263,[7100|0|9100|0],second_intermediate
19200,0.7098773717880249,0.8235068321228027,0.0,1.8165743350982664,-1.1709349155426023,-8.297382354736328,4.0859375,0,F1,7.6,0,270.0,5.561016785014352,[7100|0|9200|0],second_intermediate
19300,0.7100265622138977,0.8232029676437378,0.0,1.8233271837234497,-1.168614625930786,-8.306157112121582,4.08984375,0,F1,7.6,0,270.0,5.561355298536696,[7100|0|9300|0],second_intermediate
19400,0.7093961834907532,0.823882520198822,0.0,1.7955152988433838,-1.1259597539901731,-8.296581268310547,4.08984375,0,F1,7.6,0,270.0,5.562282212238027,[7100|0|9400|0],second_intermediate
19500,0.709118664264679,0.8241043090820312,0.0,1.785796284675598,-1.1182178258895874,-8.290367126464844,4.08984375,0,F1,7.6,0,270.0,5.562637468806659,[7100|0|9500|0],second_intermediate
19600,0.70911705493927,0.8239506483078003,0.0,1.798939824104309,-1.1304848194122314,-8.289671897888184,4.08984375,0,F1,7.6,0,270.0,5.56279113800808,[7100|0|9600|0],second_intermediate
19700,0.7095062732696533,0.8234161138534546,0.0,1.8078107833862305,-1.1534323692321775,-8.306859016418457,4.08984375,0,F1,7.6,0,270.0,5.563452362623162,[7100|0|9700|0],second_intermediate
19800,0.7099553346633911,0.8233450055122375,0.0,1.8015702962875368,-1.1681824922561646,-8.308761596679688,4.08984375,0,F1,7.6,0,270.0,5.563907019121561,[7100|0|9800|0],second_intermediate
19900,0.7097192406654358,0.8236320614814758,0.0,1.7991571426391602,-1.1418265104293823,-8.304095268249512,4.08984375,0,F1,7.6,0,270.0,5.564278693044975,[7100|0|9900|0],second_intermediate
20000,0.7092850208282471,0.8239815831184387,0.0,1.8085509538650515,-1.130129098892212,-8.303215026855469,4.08984375,0,F1,7.6,0,270.0,5.564836108726234,[7100|0|10000|0],second_intermediate
20100,0.7089322805404663,0.8242117166519165,0.0,1.8065258264541624,-1.1253182888031006,-8.294880867004395,4.08984375,0,F1,7.6,0,270.0,5.565257282269865,[7100|0|10100|0],second_intermediate
20200,0.7088346481323242,0.8242250680923462,0.0,1.8089721202850344,-1.137891411781311,-8.276498794555664,4.08984375,0,F1,7.6,0,270.0,5.565355823368302,[7100|0|10200|0],second_intermediate
20300,0.7090179920196533,0.8239208459854126,0.0,1.8182833194732664,-1.146846055984497,-8.277745246887207,4.08984375,0,F1,7.6,0,270.0,5.565711022004797,[7100|0|10300|0],second_intermediate
20400,0.7094675302505493,0.8232375979423523,0.0,1.8283649682998653,-1.1595314741134644,-8.296866416931152,4.09765625,0,F1,7.6,0,270.0,5.566528892721587,[7100|0|10400|0],second_intermediate
20500,0.7096710801124573,0.8236785531044006,0.0,1.7979902029037476,-1.1678346395492554,-8.298067092895508,4.08984375,0,F1,7.6,0,270.0,5.567014561334141,[7100|0|10500|0],second_intermediate
20600,0.7094442248344421,0.8238546252250671,0.0,1.8016936779022217,-1.1427597999572754,-8.306761741638184,4.09765625,0,F1,7.6,0,270.0,5.567301728025871,[7100|0|10600|0],second_intermediate
20700,0.7091344594955444,0.8240751624107361,0.0,1.8016774654388428,-1.134859561920166,-8.313989639282227,4.09765625,0,F1,7.6,0,270.0,5.567681979541904,[7100|0|10700|0],second_intermediate
20800,0.709368109703064,0.82390296459198,0.0,1.8154300451278689,-1.1418336629867554,-8.319418907165527,4.09765625,0,F1,7.6,0,270.0,5.567972228587136,[7100|0|10800|0],second_intermediate
20900,0.7092985510826111,0.8235776424407959,0.0,1.8270514011383057,-1.1327338218688965,-8.331436157226562,4.09765625,0,F1,7.6,0,270.0,5.568304903960031,[7100|0|10900|0],second_intermediate
21000,0.7097888588905334,0.8230197429656982,0.0,1.8306214809417725,-1.146357536315918,-8.322943687438965,4.09765625,0,F1,7.6,0,270.0,5.569047637809282,[7100|0|11000|0],second_intermediate
21100,0.7091946601867676,0.8241865038871765,0.0,1.783894181251526,-1.119956135749817,-8.31875228881836,4.09765625,0,F1,7.6,0,270.0,5.570356989995459,[7100|0|11100|0],second_intermediate
21200,0.709174633026123,0.8240871429443359,0.0,1.790946364402771,-1.1229757070541382,-8.323901176452637,4.09765625,0,F1,7.6,0,270.0,5.5704583491791855,[7100|0|11200|0],second_intermediate
21300,0.7093819379806519,0.8238993287086487,0.0,1.8074662685394287,-1.132662057876587,-8.332389831542969,4.09765625,0,F1,7.6,0,270.0,5.570738080356031,[7100|0|11300|0],second_intermediate
21400,0.7094559669494629,0.8238129019737244,0.0,1.811598539352417,-1.132189154624939,-8.314523696899414,4.1015625,0,F1,7.6,0,270.0,5.570851877846042,[7100|0|11400|0],second_intermediate
21500,0.7093284726142883,0.8241092562675476,0.0,1.7943909168243408,-1.123543381690979,-8.307730674743652,4.09765625,0,F1,7.6,0,270.0,5.571174493209857,[7100|0|11500|0],second_intermediate
21600,0.7088876962661743,0.8244553804397583,0.0,1.792306900024414,-1.1072522401809692,-8.305088996887207,4.09765625,0,F1,7.6,0,270.0,5.571734926731022,[7100|0|11600|0],second_intermediate
21700,0.7088298797607422,0.8243541121482849,0.0,1.802822947502136,-1.1117746829986572,-8.306873321533203,4.1015625,0,F1,7.6,0,270.0,5.57185153725867,[7100|0|11700|0],second_intermediate
21800,0.7094811797142029,0.8238107562065125,0.0,1.817657351493836,-1.1511648893356323,-8.31883716583252,4.1015625,0,F1,7.6,0,270.0,5.572699727867459,[7100|0|11800|0],second_intermediate
21900,0.7092456221580505,0.8238663673400879,0.0,1.8201255798339844,-1.130207896232605,-8.324071884155273,4.1015625,0,F1,7.6,0,270.0,5.572941760841324,[7100|0|11900|0],second_intermediate
22000,0.7092231512069702,0.8237521052360535,0.0,1.8253449201583865,-1.1438605785369873,-8.327934265136719,4.1015625,0,F1,7.6,0,270.0,5.573058211569363,[7100|0|12000|0],second_intermediate
22100,0.7095034122467041,0.8234801888465881,0.0,1.823366045951844,-1.1500109434127808,-8.322175979614258,4.1015625,0,F1,7.6,0,270.0,5.57344870455682,[7100|0|12100|0],second_intermediate
22200,0.7094431519508362,0.8236974477767944,0.0,1.8178895711898804,-1.142340064048767,-8.310602188110352,4.1015625,0,F1,7.6,0,270.0,5.573674165741977,[7100|0|12200|0],second_intermediate
22300,0.7091198563575745,0.8240877985954285,0.0,1.808884620666504,-1.13922381401062,-8.320518493652344,4.1015625,0,F1,7.6,0,270.0,5.5741810126638685,[7100|0|12300|0],second_intermediate
22400,0.7090150117874146,0.8241329193115234,0.0,1.807184696197509,-1.140236258506775,-8.313633918762207,4.1015625,0,F1,7.6,0,270.0,5.57429515408016,[7100|0|12400|0],second_intermediate
22500,0.709109365940094,0.8241546154022217,0.0,1.8048439025878904,-1.150303840637207,-8.3112211227417,4.1015625,0,F1,7.6,0,270.0,5.574391970537849,[7100|0|12500|0],second_intermediate
22600,0.709347128868103,0.8238974213600159,0.0,1.815589904785156,-1.1671286821365356,-8.311514854431152,4.1015625,0,F1,7.6,0,270.0,5.574742227565304,[7100|0|12600|0],second_intermediate
22700,0.7095435857772827,0.8238094449043274,0.0,1.8143969774246216,-1.175595760345459,-8.313827514648438,4.1015625,0,F1,7.6,0,270.0,5.574957483631235,[7100|0|12700|0],second_intermediate
22800,0.7094083428382874,0.8237327337265015,0.0,1.8161463737487795,-1.1591953039169312,-8.29755687713623,4.1015625,0,F1,7.6,0,270.0,5.5751129675768745,[7100|0|12800|0],second_intermediate
22900,0.7091537714004517,0.8240090012550354,0.0,1.8092167377471924,-1.1522963047027588,-8.31067943572998,4.10546875,0,F1,7.6,0,270.0,5.575488640791629,[7100|0|12900|0],second_intermediate
23000,0.7092015147209167,0.8239802718162537,0.0,1.813405513763428,-1.1557821035385132,-8.314046859741211,4.1015625,0,F1,7.6,0,270.0,5.57554436157143,[7100|0|13000|0],second_intermediate
23100,0.7091543674468994,0.8241040706634521,0.0,1.810549259185791,-1.1527020931243896,-8.306215286254883,4.1015625,0,F1,7.6,0,270.0,5.575676834285659,[7100|0|13100|0],second_intermediate
23200,0.7097998261451721,0.8232113718986511,0.0,1.842961668968201,-1.1710129976272583,-8.288575172424316,4.10546875,0,F1,7.6,0,270.0,5.576778436761988,[7100|0|13200|0],second_intermediate
23300,0.7098230719566345,0.8234391212463379,0.0,1.8172404766082764,-1.1700729131698608,-8.287958145141602,4.10546875,0,F1,7.6,0,270.0,5.577007369357138,[7100|0|13300|0],second_intermediate
23400,0.7093180418014526,0.8238722681999207,0.0,1.811354160308838,-1.1455127000808716,-8.297040939331055,4.10546875,0,F1,7.6,0,270.0,5.577672705167869,[7100|0|13400|0],second_intermediate
23500,0.7094063758850098,0.8234601020812988,0.0,1.828722596168518,-1.1442242860794067,-8.299131393432617,4.10546875,0,F1,7.6,0,270.0,5.578094230753875,[7100|0|13500|0],second_intermediate
23600,0.7096338868141174,0.8235067129135132,0.0,1.8123464584350584,-1.1572259664535522,-8.301509857177734,4.10546875,0,F1,7.6,0,270.0,5.57832646725519,[7100|0|13600|0],second_intermediate
23700,0.7096373438835144,0.8237800002098083,0.0,1.7929356098175049,-1.1553353071212769,-8.288976669311523,4.10546875,0,F1,7.6,0,270.0,5.57859977641648,[7100|0|13700|0],second_intermediate
23800,0.7092621326446533,0.8238826394081116,0.0,1.8113126754760744,-1.142383098602295,-8.279905319213867,4.10546875,0,F1,7.6,0,270.0,5.578988772918773,[7100|0|13800|0],second_intermediate
23900,0.709312915802002,0.8239030838012695,0.0,1.809637188911438,-1.1499483585357666,-8.290419578552246,4.10546875,0,F1,7.6,0,270.0,5.579043516889052,[7100|0|13900|0],second_intermediate
24000,0.7094045877456665,0.8239060044288635,0.0,1.8042731285095213,-1.161103367805481,-8.310194969177246,4.10546875,0,F1,7.6,0,270.0,5.579135235345868,[7100|0|14000|0],second_intermediate
24100,0.7094842791557312,0.8237668871879578,0.0,1.806240677833557,-1.1669983863830566,-8.310050010681152,4.10546875,0,F1,7.6,0,270.0,5.579295561037993,[7100|0|14100|0],second_intermediate
24200,0.7090401649475098,0.8242186307907104,0.0,1.796521544456482,-1.155900001525879,-8.31973648071289,4.10546875,0,F1,7.6,0,270.0,5.579929051142551,[7100|0|14200|0],second_intermediate
24300,0.7092193961143494,0.8238873481750488,0.0,1.8207296133041384,-1.158598780632019,-8.322684288024902,4.10546875,0,F1,7.6,0,270.0,5.580305710116433,[7100|0|14300|0],second_intermediate
24400,0.709374725818634,0.8235318064689636,0.0,1.834611177444458,-1.1579474210739136,-8.325447082519531,4.10546875,0,F1,7.6,0,270.0,5.58069370138154,[7100|0|14400|0],second_intermediate
24500,0.7091279029846191,0.8241463899612427,0.0,1.799576759338379,-1.1540945768356323,-8.316075325012207,4.10546875,0,F1,7.6,0,270.0,5.581355996165131,[7100|0|14500|0],second_intermediate
24600,0.7090837359428406,0.824297308921814,0.0,1.799988865852356,-1.1503841876983645,-8.315579414367676,4.10546875,0,F1,7.6,0,270.0,5.581513245204045,[7100|0|14600|0],second_intermediate
24700,0.7090110182762146,0.8241220712661743,0.0,1.8146353960037231,-1.1466798782348633,-8.310159683227539,4.11328125,0,F1,7.6,0,270.0,5.58170297157278,[7100|0|14700|0],second_intermediate
24800,0.7088006138801575,0.8245214223861694,0.0,1.8009517192840576,-1.1493343114852903,-8.310158729553223,4.11328125,0,F1,7.6,0,270.0,5.582154359794737,[7100|0|14800|0],second_intermediate
24900,0.709314227104187,0.824207603931427,0.0,1.8129318952560425,-1.1668182611465454,-8.311729431152344,4.10546875,0,F1,7.6,0,270.0,5.582756257266434,[7100|0|14900|0],second_intermediate
25000,0.7094053626060486,0.8238101005554199,0.0,1.8189070224761963,-1.1524823904037476,-8.307730674743652,4.10546875,0,F1,7.6,0,270.0,5.583164074153819,[7100|0|15000|0],second_intermediate
25100,0.7089646458625793,0.8240094184875488,0.0,1.8153510093688965,-1.1373929977416992,-8.306493759155273,4.11328125,0,F1,7.6,0,270.0,5.583647767120526,[7100|0|15100|0],second_intermediate
25200,0.7089253664016724,0.8241704702377319,0.0,1.807960629463196,-1.1425281763076782,-8.32083511352539,4.11328125,0,F1,7.6,0,270.0,5.583813539682448,[7100|0|15200|0],second_intermediate
25300,0.7095097899436951,0.8238337635993958,0.0,1.8075881004333496,-1.1709637641906738,-8.333362579345703,4.11328125,0,F1,7.6,0,270.0,5.584488018916206,[7100|0|15300|0],second_intermediate
25400,0.7090632319450378,0.8241214156150818,0.0,1.8043986558914185,-1.1458494663238523,-8.325525283813477,4.11328125,0,F1,7.6,0,270.0,5.585019204127119,[7100|0|15400|0],second_intermediate
25500,0.7091139554977417,0.8243367075920105,0.0,1.7921911478042605,-1.1490031480789185,-8.33126449584961,4.11328125,0,F1,7.6,0,270.0,5.585240390731887,[7100|0|15500|0],second_intermediate
25600,0.7090840339660645,0.8241999745368958,0.0,1.809917449951172,-1.1390835046768188,-8.325967788696289,4.11328125,0,F1,7.6,0,270.0,5.585380359394161,[7100|0|15600|0],second_intermediate
25700,0.7096673250198364,0.8238789439201355,0.0,1.8185821771621704,-1.165991187095642,-8.321622848510742,4.11328125,0,F1,7.6,0,270.0,5.586046158996375,[7100|0|15700|0],second_intermediate
25800,0.7095222473144531,0.8235896229743958,0.0,1.8311879634857176,-1.153564453125,-8.3104248046875,4.11328125,0,F1,7.6,0,270.0,5.586369816454567,[7100|0|15800|0],second_intermediate
25900,0.7093862891197205,0.8238321542739868,0.0,1.812140703201294,-1.153492450714111,-8.313761711120605,4.11328125,0,F1,7.6,0,270.0,5.586647856131584,[7100|0|15900|0],second_intermediate
26000,0.7092177271842957,0.824040949344635,0.0,1.8052937984466555,-1.1458109617233276,-8.314767837524414,4.11328125,0,F1,7.6,0,270.0,5.586916200141395,[7100|0|16000|0],second_intermediate
26100,0.709095299243927,0.8241705894470215,0.0,1.8058491945266724,-1.1428544521331787,-8.328081130981445,4.11328125,0,F1,7.6,0,270.0,5.587094512106023,[7100|0|16100|0],second_intermediate
26200,0.7089353203773499,0.8243959546089172,0.0,1.7983763217926023,-1.143928289413452,-8.321089744567871,4.11328125,0,F1,7.6,0,270.0,5.587370886297921,[7100|0|16200|0],second_intermediate
26300,0.7089207768440247,0.8242999911308289,0.0,1.8050445318222048,-1.1527612209320068,-8.297201156616211,4.11328125,0,F1,7.6,0,270.0,5.58746794557614,[7100|0|16300|0],second_intermediate
26400,0.7091635465621948,0.8241069316864014,0.0,1.80545175075531,-1.163682460784912,-8.289090156555176,4.11328125,0,F1,7.6,0,270.0,5.587778121470018,[7100|0|16400|0],second_intermediate
26500,0.7097758650779724,0.8235588073730469,0.0,1.8268275260925293,-1.1841230392456057,-8.295326232910156,4.11328125,0,F1,7.6,0,270.0,5.588599933022416,[7100|0|16500|0],second_intermediate
26600,0.7097985744476318,0.8233633041381836,0.0,1.8162319660186768,-1.1773208379745483,-8.299407005310059,4.11328125,0,F1,7.6,0,270.0,5.588796750781555,[7100|0|16600|0],second_intermediate
26700,0.7097138166427612,0.8232515454292297,0.0,1.817849397659301,-1.1637417078018188,-8.317195892333984,4.11328125,0,F1,7.6,0,270.0,5.588937014442257,[7100|0|16700|0],second_intermediate
26800,0.7095429301261902,0.8234145045280457,0.0,1.8173555135726929,-1.1625369787216189,-8.313831329345703,4.1171875,0,F1,7.6,0,270.0,5.589173145485182,[7100|0|16800|0],second_intermediate
26900,0.7099323272705078,0.8232919573783875,0.0,1.8122164011001587,-1.179456353187561,-8.337801933288574,4.1171875,0,F1,7.6,0,270.0,5.58958137083948,[7100|0|16900|0],second_intermediate
27000,0.7096000909805298,0.8238347768783569,0.0,1.792846441268921,-1.172892689704895,-8.3294095993042,4.11328125,0,F1,7.6,0,270.0,5.590217793624997,[7100|0|17000|0],second_intermediate
27100,0.7092546820640564,0.8239028453826904,0.0,1.8056215047836304,-1.1546357870101929,-8.321747779846191,4.1171875,0,F1,7.6,0,270.0,5.590569845667828,[7100|0|17100|0],second_intermediate
27200,0.7090473175048828,0.8242706060409546,0.0,1.7987957000732422,-1.1560566425323486,-8.31125259399414,4.1171875,0,F1,7.6,0,270.0,5.590992039891105,[7100|0|17200|0],second_intermediate
27300,0.709114670753479,0.824444055557251,0.0,1.7982864379882812,-1.1565462350845337,-8.31224536895752,4.1171875,0,F1,7.6,0,270.0,5.591178107606735,[7100|0|17300|0],second_intermediate
27400,0.7092591524124146,0.8239997029304504,0.0,1.8238369226455688,-1.1672511100769043,-8.320045471191406,4.1171875,0,F1,7.6,0,270.0,5.59164535936619,[7100|0|17400|0],second_intermediate
27500,0.709120512008667,0.8239902257919312,0.0,1.82784116268158,-1.1616053581237793,-8.320484161376953,4.1171875,0,F1,7.6,0,270.0,5.591784323310096,[7100|0|17500|0],second_intermediate
27600,0.7092041373252869,0.8238999843597412,0.0,1.8181190490722656,-1.1628822088241575,-8.316730499267578,4.1171875,0,F1,7.6,0,270.0,5.5919073546462,[7100|0|17600|0],second_intermediate
27700,0.7095238566398621,0.8238714337348938,0.0,1.812684774398804,-1.1763275861740112,-8.305808067321777,4.1171875,0,F1,7.6,0,270.0,5.592228346201059,[7100|0|17700|0],second_intermediate
27800,0.7092047333717346,0.8238925337791443,0.0,1.826529145240784,-1.1613638401031494,-8.306222915649414,4.1171875,0,F1,7.6,0,270.0,5.592548166263168,[7100|0|17800|0],second_intermediate
27900,0.7096805572509766,0.8237974047660828,0.0,1.814813137054444,-1.1792477369308472,-8.295014381408691,4.1171875,0,F1,7.6,0,270.0,5.593033406299834,[7100|0|17900|0],second_intermediate
28000,0.7098280787467957,0.8235239386558533,0.0,1.81654953956604,-1.1787992715835571,-8.27979564666748,4.1171875,0,F1,7.6,0,270.0,5.593344125313048,[7100|0|18000|0],second_intermediate
28100,0.7094512581825256,0.8239307999610901,0.0,1.80372953414917,-1.1497821807861328,-8.268747329711914,4.1171875,0,F1,7.6,0,270.0,5.593898679060989,[7100|0|18100|0],second_intermediate
28200,0.7095471620559692,0.8237618207931519,0.0,1.813754320144653,-1.1625326871871948,-8.292756080627441,4.1171875,0,F1,7.6,0,270.0,5.594092976544602,[7100|0|18200|0],second_intermediate
28300,0.7093297243118286,0.8236923813819885,0.0,1.8198753595352173,-1.1485991477966309,-8.292340278625488,4.1171875,0,F1,7.6,0,270.0,5.594321232988979,[7100|0|18300|0],second_intermediate
28400,0.709571361541748,0.8233242630958557,0.0,1.82598614692688,-1.166087627410889,-8.289229393005371,4.1171875,0,F1,7.6,0,270.0,5.59476157333856,[7100|0|18400|0],second_intermediate
28500,0.7099012732505798,0.8232952356338501,0.0,1.8216004371643064,-1.1732650995254517,-8.287603378295898,4.1171875,0,F1,7.6,0,270.0,5.595092759584009,[7100|0|18500|0],second_intermediate
28600,0.7095636129379272,0.8234962821006775,0.0,1.81417715549469,-1.1525357961654663,-8.299449920654297,4.1171875,0,F1,7.6,0,270.0,5.595485740714046,[7100|0|18600|0],second_intermediate
28700,0.7095692157745361,0.8236331343650818,0.0,1.8002413511276243,-1.1519899368286133,-8.321878433227539,4.12109375,0,F1,7.6,0,270.0,5.595622707622643,[7100|0|18700|0],second_intermediate
28800,0.7093954682350159,0.8238914608955383,0.0,1.8044437170028689,-1.140998363494873,-8.319162368774414,4.1171875,0,F1,7.6,0,270.0,5.595934028684936,[7100|0|18800|0],second_intermediate
28900,0.7090273499488831,0.8237756490707397,0.0,1.830259919166565,-1.13076913356781,-8.31046199798584,4.12109375,0,F1,7.6,0,270.0,5.596319934698556,[7100|0|18900|0],second_intermediate
29000,0.7090579867362976,0.8239400386810303,0.0,1.8126540184021,-1.1406166553497314,-8.322972297668457,4.1171875,0,F1,7.6,0,270.0,5.596487154783219,[7100|0|19000|0],second_intermediate
29100,0.7092715501785278,0.8237583041191101,0.0,1.832305073738098,-1.1488051414489746,-8.319195747375488,4.12109375,0,F1,7.6,0,270.0,5.596767577312367,[7100|0|19100|0],second_intermediate
29200,0.7092391848564148,0.8238347172737122,0.0,1.820165753364563,-1.1521987915039062,-8.31989860534668,4.12109375,0,F1,7.6,0,270.0,5.596850562155993,[7100|0|19200|0],second_intermediate
29300,0.7094996571540833,0.8235130906105042,0.0,1.8288270235061648,-1.1680026054382324,-8.329093933105469,4.12109375,0,F1,7.6,0,270.0,5.597264433547054,[7100|0|19300|0],second_intermediate
29400,0.7095366716384888,0.8239753842353821,0.0,1.8022018671035769,-1.1733121871948242,-8.320362091064453,4.12109375,0,F1,7.6,0,270.0,5.597728206624818,[7100|0|19400|0],second_intermediate
29500,0.709137499332428,0.8240262269973755,0.0,1.8139328956604004,-1.1486730575561523,-8.322053909301758,4.1171875,0,F1,7.6,0,270.0,5.598130603837001,[7100|0|19500|0],second_intermediate
29600,0.7092217803001404,0.823905348777771,0.0,1.81143057346344,-1.159281611442566,-8.323036193847656,4.12109375,0,F1,7.6,0,270.0,5.598277963348039,[7100|0|19600|0],second_intermediate
29700,0.7097441554069519,0.8237329125404358,0.0,1.807480931282044,-1.1725022792816162,-8.335360527038574,4.12109375,0,F1,7.6,0,270.0,5.598828063346369,[7100|0|19700|0],second_intermediate
29800,0.7098622918128967,0.8234414458274841,0.0,1.821475982666016,-1.1610885858535769,-8.410538673400879,4.12109375,0,F1,7.6,0,270.0,5.59914256144679,[7100|0|19800|0],second_intermediate
29900,0.709928572177887,0.8234719634056091,0.0,1.8066797256469729,-1.165999412536621,-8.404936790466309,4.12109375,0,F1,7.6,0,270.0,5.599215529997261,[7100|0|19900|0],second_intermediate
30000,0.7095763087272644,0.8239536881446838,0.0,1.7914550304412842,-1.1532251834869385,-8.405921936035156,4.12109375,0,F1,7.6,0,270.0,5.599812311584512,[7100|0|20000|0],second_intermediate
30100,0.7091439366340637,0.8243127465248108,0.0,1.7887722253799438,-1.1450097560882568,-8.408429145812988,4.12109375,0,F1,7.6,0,270.0,5.600374333423338,[7100|0|20100|0],second_intermediate
30200,0.7087443470954895,0.8246192336082458,0.0,1.7913999557495115,-1.1333868503570557,-8.412457466125488,4.12109375,0,F1,7.6,0,270.0,5.600877926643756,[7100|0|20200|0],second_intermediate
30300,0.7088925242424011,0.8243768811225891,0.0,1.7968956232070925,-1.1446994543075562,-8.40701961517334,4.12109375,0,F1,7.6,0,270.0,5.601161988598567,[7100|0|20300|0],second_intermediate
30400,0.7091870903968811,0.8241669535636902,0.0,1.801317811012268,-1.1652567386627195,-8.399989128112793,4.12109375,0,F1,7.6,0,270.0,5.601523705061215,[7100|0|20400|0],second_intermediate
30500,0.7089594006538391,0.8244743347167969,0.0,1.79151451587677,-1.1526875495910645,-8.398179054260254,4.12109375,0,F1,7.6,0,270.0,5.601906230605946,[7100|0|20500|0],second_intermediate
30600,0.7092549204826355,0.8241298794746399,0.0,1.80371367931366,-1.1672910451889038,-8.397207260131836,4.12109375,0,F1,7.6,0,270.0,5.602360082325191,[7100|0|20600|0],second_intermediate
30700,0.7091724276542664,0.82412189245224,0.0,1.8009098768234253,-1.1597429513931274,-8.374566078186035,4.12109375,0,F1,7.6,0,270.0,5.602442960906617,[7100|0|20700|0],second_intermediate
30801,0.709118664264679,0.8239439725875854,0.0,1.8120708465576167,-1.1493453979492188,-8.357715606689453,4.12109375,0,F1,7.6,0,270.0,5.602628826396417,[7100|0|20800|0],second_intermediate
30901,0.7091942429542542,0.8239472508430481,0.0,1.812501549720764,-1.1548506021499634,-8.365245819091797,4.12109375,0,F1,7.6,0,270.0,5.602704476150394,[7100|0|20900|0],second_intermediate
31001,0.7092921733856201,0.8241189122200012,0.0,1.8003743886947632,-1.1473405361175537,-8.372835159301758,4.12109375,0,F1,7.6,0,270.0,5.602902107113871,[7100|0|21000|0],second_intermediate
31101,0.709008514881134,0.8242530226707458,0.0,1.8004432916641235,-1.1303225755691528,-8.362943649291992,4.12109375,0,F1,7.6,0,270.0,5.603215870974387,[7100|0|21100|0],second_intermediate
31201,0.7090029120445251,0.8244890570640564,0.0,1.7942397594451904,-1.134878635406494,-8.391467094421387,4.12109375,0,F1,7.6,0,270.0,5.603451971856647,[7100|0|21200|0],second_intermediate
31301,0.7094089984893799,0.8239910006523132,0.0,1.8075275421142576,-1.1602784395217896,-8.411249160766602,4.12109375,0,F1,7.6,0,270.0,5.60409459646711,[7100|0|21300|0],second_intermediate
31401,0.7092766761779785,0.82435142993927,0.0,1.794217228889465,-1.1469223499298096,-8.413281440734863,4.12109375,0,F1,7.6,0,270.0,5.60447854759029,[7100|0|21400|0],second_intermediate
31501,0.7095457315444946,0.8239526152610779,0.0,1.808958888053894,-1.1550427675247192,-8.416390419006348,4.12109375,0,F1,7.6,0,270.0,5.604959633796486,[7100|0|21500|0],second_intermediate
31601,0.7091848850250244,0.824212908744812,0.0,1.8103314638137813,-1.1337406635284424,-8.42288875579834,4.12890625,0,F1,7.6,0,270.0,5.605404564025048,[7100|0|21600|0],second_intermediate
31701,0.7092933654785156,0.8239870667457581,0.0,1.8059431314468384,-1.1403264999389648,-8.418570518493652,4.12890625,0,F1,7.6,0,270.0,5.605655108666432,[7100|0|21700|0],second_intermediate
31800,0.7093529105186462,0.8233686089515686,0.0,1.827591180801392,-1.1314902305603027,-8.40549373626709,4.12890625,0,F1,7.6,0,270.0,5.606276426342824,[7100|0|21800|0],second_intermediate
