time.ms,stateEstimate.x,stateEstimate.y,stateEstimate.z,stabilizer.roll,stabilizer.pitch,stabilizer.yaw,pm.vbat,drone_id,node_name,wind_speed,global_wind_direction,relative_wind_direction,travel_dist,waiting_time,curr_node_role
0,1.7909891605377195,-0.1438269317150116,0.0,0.2423272579908371,0.5129737257957458,-4.150225162506104,4.0859375,1,B1,7.6,0,270.0,0.0,[6200|0|0|0],start
100,1.7911298274993896,-0.1439838707447052,0.0,0.2557734251022339,0.4998345375061035,-4.1646037101745605,4.0859375,1,B1,7.6,0,270.0,0.0002107535364986,[6300|0|0|0],start
200,1.7910099029541016,-0.1438887864351272,0.0,0.2622255384922027,0.4984999299049377,-4.167355060577393,4.0859375,1,B1,7.6,0,270.0,0.0003637990280705,[6400|0|0|0],start
300,1.7911126613616943,-0.1437755674123764,0.0,0.271511435508728,0.4954758882522583,-4.178043842315674,4.0859375,1,B1,7.6,0,270.0,0.0005166971557361,[6500|0|0|0],start
400,1.7911900281906128,-0.1439813822507858,0.0,0.2899663746356964,0.4819122850894928,-4.163962841033936,4.0859375,1,B1,7.6,0,270.0,0.0007365729705188,[6600|0|0|0],start
500,1.7911962270736694,-0.1438577771186828,0.0,0.29168900847435,0.4836515486240387,-4.162753105163574,4.0859375,1,B1,7.6,0,270.0,0.0008603334441497,[6700|0|0|0],start
600,1.7909626960754397,-0.1438533067703247,0.0,0.2937404215335846,0.488613873720169,-4.157076358795166,4.0859375,1,B1,7.6,0,270.0,0.0010939072251026,[6800|0|0|0],start
700,1.791153907775879,-0.1439531445503235,0.0,0.2951340973377228,0.479107528924942,-4.177745819091797,4.0859375,1,B1,7.6,0,270.0,0.0013096141946237,[6900|0|0|0],start
800,1.7913508415222168,-0.1439710259437561,0.0,0.2979703545570373,0.4746532440185547,-4.167388916015625,4.0859375,1,B1,7.6,0,270.0,0.0015073580811986,[7000|0|0|0],start
900,1.7911670207977295,-0.144042819738388,0.0,0.2962491512298584,0.4708160161972046,-4.194427013397217,4.0859375,1,B1,7.6,0,270.0,0.0017047014563058,[7100|0|0|0],start
1000,1.7910923957824707,-0.1439352035522461,0.0,0.2914189398288727,0.4609209895133972,-4.182265281677246,4.0859375,1,fly,7.6,0,270.0,0.0018356599857039,[7100|0|0|0],fly
1100,1.7910194396972656,-0.144079715013504,0.0,0.2648054659366607,0.5094081163406372,-4.175278186798096,3.078125,1,fly,7.6,0,270.0,0.0019975431312235,[7100|0|0|0],fly
1200,1.7920461893081665,-0.1443878710269928,0.0,2.071500539779663,-1.690452218055725,-1.3741774559020996,3.45703125,1,fly,7.6,0,270.0,0.0030695388831435,[7100|0|0|0],fly
1300,1.7992151975631714,-0.1500142961740493,0.0244933180510997,2.4060137271881104,-6.163466930389404,1.8764562606811523,3.583984375,1,fly,7.6,0,270.0,0.029203309534316,[7100|0|0|0],fly
1400,1.8169903755187988,-0.1572583168745041,0.0840346366167068,-2.078413963317871,1.0710787773132324,3.1158807277679443,3.626953125,1,fly,7.6,0,270.0,0.0917620931205875,[7100|0|0|0],fly
1500,1.835729598999024,-0.1616318970918655,0.1553276479244232,-3.121306896209717,2.217487335205078,1.7391725778579712,3.63671875,1,fly,7.6,0,270.0,0.165606389866387,[7100|0|0|0],fly
1600,1.849987864494324,-0.161118596792221,0.2255214005708694,-2.36780309677124,2.954261064529419,0.6403378248214722,3.642578125,1,fly,7.6,0,270.0,0.2372354658252638,[7100|0|0|0],fly
1700,1.8604114055633545,-0.1569343656301498,0.3079199492931366,-1.365436553955078,2.1103196144104004,0.6099808216094971,3.65234375,1,fly,7.6,0,270.0,0.3203960263715423,[7100|0|0|0],fly
1800,1.867440223693848,-0.149795651435852,0.3936567008495331,-0.075340487062931,2.0460283756256104,0.4811829030513763,3.65234375,1,fly,7.6,0,270.0,0.4067161056816465,[7100|0|0|0],fly
1900,1.8705904483795168,-0.1434568017721176,0.4835368990898132,1.717139720916748,1.0847556591033936,0.5327510833740234,3.658203125,1,fly,7.6,0,270.0,0.4968746048170119,[7100|0|0|0],fly
2000,1.873504877090454,-0.140768215060234,0.5758994817733765,2.061753273010254,0.4714142978191376,-0.4702926576137543,3.7109375,1,fly,7.6,0,270.0,0.5893222606726176,[7100|0|0|0],fly
2100,1.876856565475464,-0.1423074156045913,0.6629241108894348,2.035361289978028,-0.4451629817485809,-0.0901917517185211,3.736328125,1,fly,7.6,0,270.0,0.676425010492204,[7100|0|0|0],fly
2200,1.8816264867782595,-0.1464258134365081,0.7385352849960327,0.8995667099952698,-0.431469589471817,-1.7154206037521362,3.748046875,1,fly,7.6,0,270.0,0.7522983457274174,[7100|0|0|0],fly
2300,1.888824224472046,-0.1514752209186554,0.7987042665481567,0.157777801156044,-0.1545637995004654,-5.500216007232666,3.732421875,1,fly,7.6,0,270.0,0.8131063245200821,[7100|0|0|0],fly
2400,1.8960731029510496,-0.1580500900745391,0.8425679802894592,-0.7376156449317932,0.9902106523513794,-4.003239631652832,3.716796875,1,fly,7.6,0,270.0,0.8580485154635518,[7100|0|0|0],fly
2500,1.902119517326355,-0.1632796674966812,0.8718929290771484,-0.3577924370765686,1.823258757591248,-3.383925199508667,3.68359375,1,fly,7.6,0,270.0,0.8884435846066328,[7100|0|0|0],fly
2600,1.90546190738678,-0.1682895720005035,0.89034104347229,-0.9620471596717834,2.488483190536499,-3.1213626861572266,3.673828125,1,fly,7.6,0,270.0,0.9078498629512736,[7100|0|0|0],fly
2700,1.904376983642578,-0.1712819188833236,0.9027003049850464,-1.227029800415039,2.309590578079224,-2.9069249629974365,3.673828125,1,fly,7.6,0,270.0,0.920612407546242,[7100|0|0|0],fly
2800,1.898890376091004,-0.1720899194478988,0.911196231842041,-0.823279857635498,1.4936529397964478,-2.9730031490325928,3.66796875,1,fly,7.6,0,270.0,0.9307581702330362,[7100|0|0|0],fly
2900,1.8919888734817505,-0.171237051486969,0.9169654846191406,-0.981081247329712,0.688907265663147,-2.870436668395996,3.6640625,1,fly,7.6,0,270.0,0.9397937886197536,[7100|0|0|0],fly
3000,1.8832322359085083,-0.1680066585540771,0.9216172695159912,-0.6262495517730713,0.1171905100345611,-3.0964601039886475,3.658203125,1,fly,7.6,0,270.0,0.9502222709070552,[7100|0|0|0],fly
3100,1.8743866682052608,-0.1642226129770279,0.9261678457260132,0.3611562848091125,-0.8275614380836487,-2.8988661766052246,3.6640625,1,fly,7.6,0,270.0,0.960865147058037,[7100|0|0|0],fly
3200,1.8668224811553955,-0.1617113351821899,0.931153118610382,0.7333604097366333,-1.0088462829589844,-2.3260974884033203,3.6640625,1,fly,7.6,0,270.0,0.9702660186995296,[7100|0|0|0],fly
3300,1.860790014266968,-0.159669429063797,0.936116337776184,0.4420095980167389,-1.491940975189209,-1.1065491437911987,3.66796875,1,fly,7.6,0,270.0,0.978340272958846,[7100|0|0|0],fly
3400,1.8574284315109253,-0.1593156158924102,0.9416372776031494,-0.0494950264692306,-1.4723681211471558,1.5313093662261963,3.6640625,1,fly,7.6,0,270.0,0.9848137727046514,[7100|0|0|0],fly
3500,1.856206178665161,-0.1591779738664627,0.9462559819221495,0.5704173445701599,-1.4606505632400513,5.142954349517822,3.673828125,1,fly,7.6,0,270.0,0.9895934460128007,[7100|0|0|0],fly
3600,1.857630014419556,-0.1603672057390213,0.9478334784507751,0.4303847253322601,-1.3679866790771484,6.882708549499512,3.65234375,1,fly,7.6,0,270.0,0.9920286207498638,[7100|0|0|0],fly
3700,1.8602843284606927,-0.1635431349277496,0.9479107856750488,0.311679869890213,-0.1317949295043945,5.426289081573486,3.6484375,1,fly,7.6,0,270.0,0.9961684136973088,[7100|0|0|0],fly
3800,1.862290382385254,-0.1660804003477096,0.946070909500122,-0.2685951292514801,0.7516399025917053,1.5317378044128418,3.65234375,1,fly,7.6,0,270.0,0.9998895845478122,[7100|0|0|0],fly
3900,1.8626141548156736,-0.1685456782579422,0.9431568384170532,0.5412511825561523,1.4074182510375977,-0.873767614364624,3.6484375,1,fly,7.6,0,270.0,1.0037202808342016,[7100|0|0|0],fly
4000,1.860479474067688,-0.1714574247598648,0.940242350101471,0.23774453997612,0.9192156791687012,-2.594853639602661,3.6484375,1,fly,7.6,0,270.0,1.0083602562359624,[7100|0|0|0],fly
4100,1.854881167411804,-0.1734018623828888,0.937660038471222,-4.250240325927734,4.907646656036377,-3.0284695625305176,3.599609375,1,fly,7.6,0,230.0,1.0148247909012624,[7100|0|0|0],fly
4200,1.83716893196106,-0.1627474129199981,0.936860978603363,-13.911561965942385,14.285943031311035,-2.7380220890045166,3.599609375,1,fly,7.6,0,230.0,1.0355100289876926,[7100|0|0|0],fly
4300,1.801998496055603,-0.1247960031032562,0.937628448009491,-18.44424629211425,17.398681640625,-3.813011884689331,3.599609375,1,fly,7.6,0,230.0,1.087258053859638,[7100|0|0|0],fly
4400,1.7452964782714844,-0.0527924038469791,0.9362725615501404,-15.159103393554688,12.439142227172852,-5.9059271812438965,3.59375,1,fly,7.6,0,230.0,1.1789176172163316,[7100|0|0|0],fly
4500,1.675541639328003,0.0463143959641456,0.9383384585380554,-7.9952569007873535,6.529265880584717,-5.806502819061279,3.59375,1,fly,7.6,0,230.0,1.3001288512468374,[7100|0|0|0],fly
4600,1.6088727712631226,0.1447759568691253,0.9468469023704528,-0.2283694148063659,0.1856396496295929,-4.665885925292969,3.615234375,1,fly,7.6,0,230.0,1.4193421498395131,[7100|0|0|0],fly
4700,1.5485174655914309,0.2815365791320801,0.9723882079124452,8.310477256774902,-3.950425863265991,-2.5246007442474365,3.63671875,1,fly,7.6,0,230.0,1.5709950067636853,[7100|0|0|0],fly
4800,1.462715744972229,0.3637700378894806,0.9622282385826112,15.10337257385254,-6.812436103820801,1.26096773147583,3.630859375,1,fly,7.6,0,230.0,1.6902740995553551,[7100|0|0|0],fly
4900,1.40419602394104,0.4414786100387573,0.962639331817627,16.730321884155273,-9.222987174987791,1.5103907585144043,3.599609375,1,fly,7.6,0,230.0,1.7875538453028408,[7100|0|0|0],fly
5000,1.3520731925964355,0.5140107870101929,0.9478269815444946,15.379884719848633,-9.229236602783203,-0.9369195103645324,3.578125,1,fly,7.6,0,230.0,1.8780917487698845,[7100|0|0|0],fly
5100,1.316317796707153,0.5436379313468933,0.9447899460792542,13.143559455871582,-8.917581558227539,-3.5402719974517822,3.58984375,1,fly,7.6,0,230.0,1.9246260329178555,[7100|0|0|0],fly
5200,1.2944469451904297,0.5474274158477783,0.9478968381881714,7.549684524536133,-9.970759391784668,-7.444725513458252,3.62109375,1,fly,7.6,0,230.0,1.947039134386092,[7100|0|0|0],fly
5300,1.355814814567566,0.343751460313797,1.080717921257019,2.2731966972351074,-7.531530380249023,-10.517311096191406,3.7265625,1,fly,7.6,0,230.0,2.197820613690588,[7100|0|0|0],fly
5400,1.3656797409057615,0.3049698173999786,1.092957615852356,-12.93297004699707,3.9878318309783936,-10.179088592529297,3.7265625,1,fly,7.6,0,230.0,2.2396672709351044,[7100|0|0|0],fly
5500,1.3713032007217407,0.2931224405765533,1.0945260524749756,-14.10037612915039,6.900277137756348,-8.029998779296875,3.6796875,1,fly,7.6,0,230.0,2.2528749819910496,[7100|0|0|0],fly
5600,1.3662561178207395,0.3064936697483063,1.0760266780853271,-14.14849853515625,7.584317684173584,-6.932421684265137,3.62109375,1,fly,7.6,0,230.0,2.2762521004657783,[7100|0|0|0],fly
5700,1.364525556564331,0.3684251010417938,1.0567845106124878,-9.04217529296875,5.1832051277160645,-9.056185722351074,3.59375,1,fly,7.6,0,230.0,2.341127041956117,[7100|0|0|0],fly
5801,1.3414767980575562,0.4185551702976227,1.02721107006073,-2.1300079822540283,0.0166561305522918,-10.882274627685549,3.59375,1,fly,7.6,0,230.0,2.4037278206922177,[7100|0|0|0],fly
5900,1.3215651512145996,0.4631417393684387,1.0003763437271118,5.387976169586182,-1.559203028678894,-11.34469223022461,3.57421875,1,fly,7.6,0,230.0,2.459446205081084,[7100|0|0|0],fly
6000,1.302887201309204,0.4902419745922088,0.9717813730239868,7.270636081695557,-7.6480183601379395,-13.942756652832031,3.57421875,1,fly,7.6,0,230.0,2.5030462155325126,[7100|0|0|0],fly
6100,1.2976683378219604,0.5081614851951599,0.9634249210357666,7.998280048370361,-7.321527004241943,-11.5471773147583,3.583984375,1,fly,7.6,0,230.0,2.5234955599273627,[7100|0|0|0],fly
6200,1.3008500337600708,0.5067206621170044,0.956384539604187,5.17882776260376,-6.94404411315918,-9.91635799407959,3.58984375,1,fly,7.6,0,230.0,2.53135470306687,[7100|0|0|0],fly
6300,1.314520239830017,0.4952675998210907,0.953075110912323,2.551187038421631,-6.432901382446289,-8.370622634887695,3.583984375,1,fly,7.6,0,230.0,2.5494930461062824,[7100|0|0|0],fly
6400,1.336582064628601,0.4799683392047882,0.951833724975586,0.6601651906967163,-1.0456314086914062,-5.767651081085205,3.59375,1,fly,7.6,0,230.0,2.576369290782444,[7100|0|0|0],fly
6501,1.3614287376403809,0.4671955108642578,0.9572861790657043,0.5409368872642517,1.4687451124191284,-3.216105937957764,3.58984375,1,fly,7.6,0,230.0,2.604833857513308,[7100|0|0|0],fly
6601,1.3730065822601318,0.4350013136863708,0.9402085542678832,-0.2162072956562042,2.5074892044067383,-1.2315568923950195,3.59375,1,fly,7.6,0,230.0,2.643072033289656,[7100|0|0|0],fly
6701,1.3892406225204468,0.4183734357357025,0.9465969204902648,-0.5794126987457275,3.3963735103607178,0.6015801429748535,3.611328125,1,fly,7.6,0,230.0,2.66717268911698,[7100|0|0|0],fly
6801,1.4003442525863647,0.4037918150424957,0.9523577094078064,-1.6286221742630005,3.288614511489868,1.7222329378128052,3.60546875,1,fly,7.6,0,230.0,2.686384689315652,[7100|0|0|0],fly
6901,1.4159270524978638,0.4083095192909241,0.9774694442749025,-0.9725178480148317,3.0670244693756104,1.8012027740478516,3.60546875,1,fly,7.6,0,230.0,2.716281721489321,[7100|0|0|0],fly
7001,1.419058918952942,0.3958789408206939,0.979538083076477,-1.6125850677490234,0.7183554768562317,2.086095094680786,3.599609375,1,fly,7.6,0,230.0,2.7292666025087366,[7100|0|0|0],fly
7101,1.4196206331253052,0.3849141895771026,0.9786423444747924,-1.6315401792526243,0.6988003253936768,3.0693724155426025,3.86328125,1,fly,7.6,0,270.0,2.740282211447321,[7100|0|0|0],fly
7201,1.4207755327224731,0.374737411737442,0.9554973244667052,-1.6687577962875366,-2.4634292125701904,4.265113353729248,3.810546875,1,fly,7.6,0,270.0,2.765592141345527,[7100|0|0|0],fly
7301,1.4225513935089111,0.3616184890270233,0.8874533772468567,-2.528481721878052,-2.162149906158448,9.018545150756836,3.716796875,1,fly,7.6,0,270.0,2.8349119694459506,[7100|0|0|0],fly
7401,1.4273864030838013,0.3559631109237671,0.7928207516670227,-1.962609887123108,0.1604886949062347,8.588798522949219,3.626953125,1,fly,7.6,0,270.0,2.92983664718158,[7100|0|0|0],fly
7502,1.43056321144104,0.3469972312450409,0.6761751174926758,0.2294533103704452,-0.8956868648529053,9.096314430236816,3.599609375,1,fly,7.6,0,270.0,3.046869476258244,[7100|0|0|0],fly
7602,1.436604619026184,0.3368952572345733,0.5503122210502625,-2.799735307693481,-1.3249669075012207,9.073125839233398,3.525390625,1,fly,7.6,0,270.0,3.1732815689764315,[7100|0|0|0],fly
7700,1.4439083337783811,0.3278301954269409,0.4289622604846954,-2.049175262451172,0.6325268745422363,9.857383728027344,3.509765625,1,fly,7.6,0,270.0,3.295188634087615,[7100|0|0|0],fly
7800,1.4522711038589478,0.3177574574947357,0.3227849006652832,0.2538204491138458,1.4493378400802612,6.860283374786377,3.484375,1,fly,7.6,0,270.0,3.402170070379582,[7100|0|0|0],fly
7900,1.4601645469665527,0.3091346025466919,0.2350881099700927,-10.89910125732422,-3.986075162887573,-1.5560712814331057,3.583984375,1,fly,7.6,0,270.0,3.4906425924968136,[7100|0|0|0],fly
8000,1.4793187379837036,0.3179177939891815,0.1589941680431366,-14.85093116760254,-4.1505208015441895,-8.257153511047363,3.521484375,1,fly,7.6,0,270.0,3.569600274095376,[7100|0|0|0],fly
8100,1.5071122646331787,0.3476526439189911,0.0908242985606193,-1.0751293897628784,7.609870910644531,-8.82190990447998,3.494140625,1,fly,7.6,0,270.0,3.648996574571071,[7100|0|0|0],fly
8200,1.5205246210098269,0.3805642426013946,0.034683272242546,10.556334495544434,17.93964195251465,-10.353848457336426,3.521484375,1,fly,7.6,0,270.0,3.715441133922852,[7100|0|0|0],fly
8300,1.502297043800354,0.4009330868721008,0.0,8.203290939331055,13.75202751159668,-5.622749328613281,3.46875,1,fly,7.6,0,270.0,3.75960066020317,[7100|0|0|0],fly
8400,1.4602994918823242,0.4151454269886017,0.0,3.554628610610962,-1.5171256065368652,-2.7927463054656982,3.58984375,1,fly,7.6,0,270.0,3.803937833982007,[7100|0|0|0],fly
8500,1.4186798334121704,0.4198222458362579,0.0260722748935222,6.845776557922363,-2.458310604095459,-3.874206066131592,3.57421875,1,fly,7.6,0,270.0,3.8532717181168414,[7100|0|0|0],fly
8600,1.383090257644653,0.4140529930591583,0.0641283765435218,1.1575584411621094,-10.127943992614746,-1.0202646255493164,3.599609375,1,fly,7.6,0,270.0,3.9056947002307294,[7100|0|0|0],fly
8700,1.361297845840454,0.4054522812366485,0.0956769362092018,-2.714831113815308,-9.3336763381958,0.8099584579467773,3.60546875,1,fly,7.6,0,270.0,3.944990922352922,[7100|0|0|0],fly
8800,1.3552742004394531,0.399548202753067,0.1196416988968849,-1.285717248916626,-10.108878135681152,2.452754020690918,3.599609375,1,fly,7.6,0,270.0,3.9703966755858864,[7100|0|0|0],fly
8900,1.3634968996047974,0.396302729845047,0.1361051499843597,-1.5822973251342771,-6.440906047821045,3.0632195472717285,3.58984375,1,fly,7.6,0,270.0,3.98908333119009,[7100|0|0|0],fly
9000,1.3824293613433838,0.3954505324363708,0.1482574343681335,-2.054595470428467,-3.180043458938598,2.989168405532837,3.583984375,1,fly,7.6,0,270.0,4.011596490978323,[7100|0|0|0],fly
9100,1.4054299592971802,0.3980072736740112,0.1572405397891998,-1.9962629079818728,0.088359460234642,2.3206095695495605,3.59375,1,fly,7.6,0,270.0,4.036421087953791,[7100|0|0|0],fly
9200,1.4277976751327517,0.4056038856506347,0.1626662760972976,-1.812660217285156,2.8847575187683105,2.367086410522461,3.578125,1,fly,7.6,0,270.0,4.0606587000413965,[7100|0|0|0],fly
9300,1.444672465324402,0.4170564413070678,0.1649973839521408,-0.4862353801727295,3.906992673873901,2.9717776775360107,3.578125,1,fly,7.6,0,270.0,4.081185600414001,[7100|0|0|0],fly
9400,1.455133080482483,0.4291272461414337,0.1665585786104202,0.0986703634262085,3.856114149093628,3.656502723693848,3.583984375,1,fly,7.6,0,270.0,4.097234467277299,[7100|0|0|0],fly
9500,1.4581577777862549,0.4404518008232116,0.1678374409675598,2.2437360286712646,3.693160772323608,5.410963535308838,3.57421875,1,fly,7.6,0,270.0,4.109025558043149,[7100|0|0|0],fly
9600,1.4570772647857666,0.4465179741382599,0.1700717061758041,4.570148468017578,2.10090708732605,6.376798152923584,3.578125,1,fly,7.6,0,270.0,4.115579786300786,[7100|0|0|0],fly
9700,1.4529221057891846,0.4443553984165191,0.1694032251834869,3.133068561553955,0.7337056994438171,5.928483009338379,3.578125,1,fly,7.6,0,270.0,4.120311482283858,[7100|0|0|0],fly
9800,1.4470539093017578,0.4359027743339538,0.1665831953287124,0.4855198562145233,0.9021939635276794,4.7234625816345215,3.57421875,1,fly,7.6,0,270.0,4.130980838041261,[7100|0|0|0],fly
9900,1.4391921758651731,0.4241068363189697,0.1608436405658722,-1.2697973251342771,-0.6533552408218384,4.389673709869385,3.57421875,1,fly,7.6,0,270.0,4.146274414966131,[7100|0|0|0],fly
10000,1.4321494102478027,0.4135619401931762,0.1574178636074066,-1.8495289087295528,-0.4952299296855926,5.391471862792969,3.578125,1,fly,7.6,0,270.0,4.159409533146572,[7100|0|0|0],fly
10100,1.424652099609375,0.4067533016204834,0.1529918015003204,-3.232191562652588,-1.325851559638977,6.576234340667725,3.55859375,1,B2,7.6,0,270.0,4.170462010325848,[7100|100|0|0],first_intermediate
10200,1.4182385206222534,0.406462162733078,0.1465139687061309,-2.17181134223938,-1.8754475116729736,7.462804317474365,3.552734375,1,B2,7.6,0,270.0,4.179582376271647,[7100|200|0|0],first_intermediate
10300,1.4135392904281616,0.4099870026111603,0.140524536371231,-1.306135654449463,-1.977641224861145,8.35959529876709,3.552734375,1,B2,7.6,0,270.0,4.187971688536519,[7100|300|0|0],first_intermediate
10400,1.4117085933685305,0.4154010117053985,0.1386309266090393,1.6292099952697754,-1.1542034149169922,8.872797012329102,3.55859375,1,B2,7.6,0,270.0,4.19399237820865,[7100|400|0|0],first_intermediate
10500,1.4110430479049685,0.418098896741867,0.1387971043586731,1.8222222328186035,-0.3017710745334625,8.024008750915527,3.55859375,1,B2,7.6,0,270.0,4.19677610762771,[7100|500|0|0],first_intermediate
10600,1.4100991487503052,0.417086660861969,0.1396859139204025,-0.5818099975585938,-1.3678205013275146,5.568427562713623,3.568359375,1,B2,7.6,0,270.0,4.19842096310092,[7100|600|0|0],first_intermediate
10700,1.4113842248916626,0.4151557683944702,0.1418691128492355,-0.1018968224525451,-0.2898389995098114,5.563693523406982,3.5625,1,B2,7.6,0,270.0,4.201606261198899,[7100|700|0|0],first_intermediate
10800,1.4117447137832642,0.415958434343338,0.1460270583629608,-0.0593502186238765,0.0446890331804752,5.793875694274902,3.599609375,1,B2,7.6,0,270.0,4.205856288935461,[7100|800|0|0],first_intermediate
10900,1.4131077527999878,0.416018009185791,0.1515300571918487,-0.218345507979393,-1.7478551864624023,6.537763595581055,3.578125,1,B2,7.6,0,270.0,4.211525893915855,[7100|900|0|0],first_intermediate
11000,1.417887568473816,0.4156298637390136,0.1563955843448639,0.5821608901023865,-0.6495973467826843,6.2379655838012695,3.58984375,1,B2,7.6,0,270.0,4.218357485914822,[7100|1000|0|0],first_intermediate
11100,1.426539421081543,0.4153012335300445,0.1582416892051696,-0.8351772427558899,-2.6584341526031494,5.508128643035889,3.599609375,1,B2,7.6,0,270.0,4.227210206090866,[7100|1100|0|0],first_intermediate
11200,1.4400259256362915,0.4160950779914856,0.156416043639183,0.4069584906101227,-1.0738072395324707,4.61067008972168,3.568359375,1,B2,7.6,0,270.0,4.240842849850123,[7100|1200|0|0],first_intermediate
11300,1.457531213760376,0.415901243686676,0.1545809805393219,0.2054611593484878,0.5042845606803894,3.097222089767456,3.578125,1,B2,7.6,0,270.0,4.2584451264251975,[7100|1300|0|0],first_intermediate
11400,1.4764289855957031,0.416187971830368,0.1552459448575973,1.4772244691848757,-0.6573194861412048,2.4053359031677246,3.59375,1,B2,7.6,0,270.0,4.277356767573258,[7100|1400|0|0],first_intermediate
11500,1.4950618743896484,0.4115274846553802,0.1523894816637039,0.2311264723539352,0.4032332599163055,0.9831966161727904,3.57421875,1,B2,7.6,0,270.0,4.296774905164022,[7100|1500|0|0],first_intermediate
11600,1.5130832195281982,0.4054751992225647,0.1481112986803054,-0.3473393023014068,-0.4376850426197052,-0.6437963247299194,3.568359375,1,B2,7.6,0,270.0,4.3162608459727805,[7100|1600|0|0],first_intermediate
11700,1.5307836532592771,0.3986379504203796,0.142946645617485,-0.0388143025338649,-0.3670521974563598,-1.1262513399124146,3.57421875,1,B2,7.6,0,270.0,4.335926220790226,[7100|1700|0|0],first_intermediate
11800,1.5494378805160522,0.3917077481746673,0.139604389667511,-0.8127835392951965,0.0142737887799739,-1.07423198223114,3.55859375,1,B2,7.6,0,270.0,4.356104887063026,[7100|1800|0|0],first_intermediate
11900,1.5661301612854004,0.3849330246448517,0.1397253274917602,-0.4474635720252991,0.5781775116920471,-0.6321154236793518,3.568359375,1,B2,7.6,0,270.0,4.374119984679901,[7100|1900|0|0],first_intermediate
12000,1.5807619094848633,0.3799261152744293,0.1390952616930008,-0.9898391962051392,0.40553018450737,-0.1864546686410904,3.931640625,1,B2,7.6,0,270.0,4.389597522588977,[7100|2000|0|0],first_intermediate
12100,1.5739977359771729,0.3415093421936035,0.0994167476892471,-4.548584938049316,-0.9885542392730712,0.7812185287475586,3.96484375,1,B2,7.6,0,270.0,4.445239116479985,[7100|2100|0|0],first_intermediate
12200,1.590817093849182,0.3400001227855682,0.0058791590854525,-14.83265495300293,-6.397418022155762,2.570432186126709,3.96875,1,B2,7.6,0,270.0,4.540288835176365,[7100|2200|0|0],first_intermediate
12300,1.6001394987106323,0.327449083328247,0.0,8.949433326721191,6.503294944763184,16.61852264404297,3.96875,1,B2,7.6,0,270.0,4.55699213830515,[7100|2300|0|0],first_intermediate
12400,1.6054530143737793,0.3251254260540008,0.0,-0.1482875794172287,-1.980886459350586,29.3765869140625,3.974609375,1,B2,7.6,0,270.0,4.562791520326595,[7100|2400|0|0],first_intermediate
12500,1.606702446937561,0.3260817527770996,0.0,0.0033354298211634,-1.297747015953064,27.887269973754883,3.974609375,1,B2,7.6,0,270.0,4.564364937795912,[7100|2500|0|0],first_intermediate
12600,1.6074470281600952,0.3270608186721802,0.0,-0.0207528043538332,-1.194093942642212,27.844173431396484,3.974609375,1,B2,7.6,0,270.0,4.56559496674836,[7100|2600|0|0],first_intermediate
12700,1.6076732873916626,0.3272551596164703,0.0,-0.0736916437745094,-1.1180570125579834,27.746471405029297,3.98046875,1,B2,7.6,0,270.0,4.565893231131914,[7100|2700|0|0],first_intermediate
12800,1.607874631881714,0.3276189565658569,0.0,-0.1903603076934814,-1.0711126327514648,27.70315170288086,3.98046875,1,B2,7.6,0,270.0,4.566309028948234,[7100|2800|0|0],first_intermediate
12900,1.6079307794570925,0.3276212215423584,0.0,-0.170966625213623,-0.8969168066978455,27.63714027404785,3.984375,1,B2,7.6,0,270.0,4.566365222189282,[7100|2900|0|0],first_intermediate
13000,1.6078674793243408,0.3278245329856872,0.0,-0.1434177011251449,-0.7068599462509155,27.61187744140625,3.984375,1,B2,7.6,0,270.0,4.5665781598557365,[7100|3000|0|0],first_intermediate
13100,1.6077532768249512,0.3277086913585663,0.0,-0.1691574454307556,-0.5848619341850281,27.63834953308105,3.984375,1,B2,7.6,0,270.0,4.566740829746745,[7100|3100|0|0],first_intermediate
13200,1.6079094409942627,0.3280355036258697,0.0,-0.1813093572854995,-0.4728483557701111,27.61823463439941,3.990234375,1,B2,7.6,0,270.0,4.567103036187655,[7100|3200|0|0],first_intermediate
13300,1.6078526973724363,0.3276373744010925,0.0,-0.164637804031372,-0.3338266909122467,27.60625648498535,3.990234375,1,B2,7.6,0,270.0,4.567505188793316,[7100|3300|0|0],first_intermediate
13400,1.6074227094650269,0.3277594745159149,0.0,-0.1884635388851165,-0.2282469868659973,27.612398147583008,3.990234375,1,B2,7.6,0,270.0,4.567952176532027,[7100|3400|0|0],first_intermediate
13500,1.6073837280273438,0.3277426064014435,0.0,-0.1838831156492233,-0.1316247731447219,27.61174774169922,3.990234375,1,B2,7.6,0,270.0,4.567994651062862,[7100|3500|0|0],first_intermediate
13600,1.607210993766785,0.3278886079788208,0.0,-0.1952977031469345,-0.0554734468460083,27.622690200805664,3.990234375,1,B2,7.6,0,270.0,4.56822082264677,[7100|3600|0|0],first_intermediate
13700,1.6072101593017578,0.3279284238815307,0.0,-0.1924534440040588,0.0167628694325685,27.65508079528809,3.99609375,1,B2,7.6,0,270.0,4.568260647292914,[7100|3700|0|0],first_intermediate
13800,1.6069873571395874,0.3276896178722381,0.0,-0.1994190216064453,0.0789486542344093,27.651227951049805,3.99609375,1,B2,7.6,0,270.0,4.568587249671261,[7100|3800|0|0],first_intermediate
13900,1.6070592403411863,0.3274089395999908,0.0,-0.1824120432138443,0.1487797051668167,27.650619506835938,3.99609375,1,B2,7.6,0,270.0,4.568876986598808,[7100|3900|0|0],first_intermediate
14000,1.6066806316375732,0.3274430930614471,0.0,-0.1982806026935577,0.1938676983118057,27.65680503845215,4.0,1,B2,7.6,0,270.0,4.5692571326357205,[7100|4000|0|0],first_intermediate
14100,1.6066222190856934,0.3273161351680755,0.0,-0.1980103403329849,0.2330427318811416,27.667137145996094,3.99609375,1,B2,7.6,0,270.0,4.569396883603182,[7100|4100|0|0],first_intermediate
14200,1.606619954109192,0.3278970122337341,0.0,-0.2074149847030639,0.2551789879798889,27.68825340270996,4.0,1,B2,7.6,0,270.0,4.569977765084662,[7100|4200|0|0],first_intermediate
14300,1.606458067893982,0.3275931477546692,0.0,-0.2008046954870224,0.2796022891998291,27.69745445251465,4.0,1,B2,7.6,0,270.0,4.57032206258438,[7100|4300|0|0],first_intermediate
14400,1.607085347175598,0.3271105587482452,0.0,-0.1337628811597824,0.2518182694911957,27.55841445922852,4.0,1,B2,7.6,0,270.0,4.571113498902896,[7100|4400|0|0],first_intermediate
14500,1.6053546667099,0.3362680971622467,0.0,0.6321123242378235,1.0924131870269775,35.73655700683594,4.0078125,1,B2,7.6,0,270.0,4.580433142923901,[7100|4500|0|0],first_intermediate
14600,1.597073316574097,0.354600727558136,0.0,-4.376596927642822,1.6324732303619385,34.75551986694336,4.0078125,1,B2,7.6,0,270.0,4.600549457131629,[7100|4600|0|0],first_intermediate
14700,1.5336418151855469,0.3855708837509155,0.0112633146345615,-7.947943210601807,-2.9524803161621094,28.04302406311035,4.0078125,1,B2,7.6,0,270.0,4.6720307008223205,[7100|4700|0|0],first_intermediate
14800,1.4216029644012451,0.4673497974872589,0.0431067571043968,-9.864019393920898,-3.464742422103882,10.355567932128906,4.0078125,1,B2,7.6,0,270.0,4.814349004793711,[7100|4800|0|0],first_intermediate
14900,1.3545901775360107,0.5397815704345703,0.0282337870448827,-1.962148904800415,1.8029049634933472,2.78752064704895,4.0078125,1,B2,7.6,0,270.0,4.914140189645518,[7100|4900|0|0],first_intermediate
15000,1.3398172855377195,0.5617544054985046,0.0089666005223989,3.0061821937561035,-7.54293966293335,2.4962124824523926,4.0078125,1,B2,7.6,0,270.0,4.946885697661614,[7100|5000|0|0],first_intermediate
15100,1.3389195203781128,0.5706914067268372,0.0,2.443931818008423,-3.7000832557678223,3.752065658569336,4.0078125,1,B2,7.6,0,270.0,4.959577265656361,[7100|5100|0|0],first_intermediate
15200,1.35888934135437,0.590410053730011,0.0068503082729876,-3.2657740116119385,0.0090331882238388,1.6100053787231443,4.01171875,1,B2,7.6,0,270.0,4.98846576705215,[7100|5200|0|0],first_intermediate
15300,1.2971560955047607,0.6099802255630493,0.0443987622857093,-4.390808582305908,9.0076322555542,3.1515088081359863,4.01171875,1,B2,7.6,0,270.0,5.063324778984238,[7100|5300|0|0],first_intermediate
15400,1.296959400177002,0.6096758842468262,0.0463178977370262,-8.548542976379395,4.8964362144470215,5.776831150054932,4.01171875,1,B2,7.6,0,270.0,5.065277826236412,[7100|5400|0|0],first_intermediate
15500,1.29931378364563,0.6103129982948303,0.0444883964955806,-5.490623950958252,6.657402515411377,5.538739204406738,4.01171875,1,B2,7.6,0,270.0,5.068326778617143,[7100|5500|0|0],first_intermediate
15600,1.30257248878479,0.6090417504310608,0.0434677563607692,-3.994150638580322,6.873342514038086,7.073446750640869,4.01171875,1,B2,7.6,0,270.0,5.071970531709754,[7100|5600|0|0],first_intermediate
15700,1.3042010068893433,0.6061127781867981,0.0423094108700752,-3.343398094177246,5.633203506469727,8.960790634155273,4.015625,1,B2,7.6,0,270.0,5.0755163340026535,[7100|5700|0|0],first_intermediate
15800,1.3033243417739868,0.6060971617698669,0.0428625084459781,-4.009045124053955,4.988003730773926,15.133237838745115,4.015625,1,B2,7.6,0,270.0,5.076553012605419,[7100|5800|0|0],first_intermediate
15900,1.304438591003418,0.6059504747390747,0.043677669018507,-4.207285404205322,4.30591344833374,21.244049072265625,4.015625,1,B2,7.6,0,270.0,5.077941376818908,[7100|5900|0|0],first_intermediate
16000,1.3106777667999268,0.6012248992919922,0.0490700379014015,-1.6954435110092163,1.7924154996871948,18.38591194152832,4.015625,1,B2,7.6,0,270.0,5.087445903114048,[7100|6000|0|0],first_intermediate
16100,1.3212090730667114,0.5941358208656311,0.0559560693800449,-6.792801856994629,0.0466834530234336,19.703876495361328,4.015625,1,B2,7.6,0,270.0,5.101888232363335,[7100|6100|0|0],first_intermediate
16200,1.34177827835083,0.5917566418647766,0.0506410934031009,-7.870164394378662,0.6193253397941589,13.772804260253906,4.015625,1,B2,7.6,0,270.0,5.1232658297113485,[7100|6200|0|0],first_intermediate
16300,1.3311783075332642,0.5797432661056519,0.04093923792243,0.911936581134796,-3.009793281555176,23.16239356994629,4.015625,1,B2,7.6,0,270.0,5.14199566095007,[7100|6300|0|0],first_intermediate
16400,1.3319897651672363,0.5821864008903503,0.0421715080738067,-0.0755756795406341,-3.473431348800659,19.9746150970459,4.015625,1,B2,7.6,0,270.0,5.1448497563923965,[7100|6400|0|0],first_intermediate
16500,1.336671233177185,0.5822181701660156,0.0432680435478687,0.0352053865790367,-3.070681571960449,19.023038864135746,4.0234375,1,B2,7.6,0,270.0,5.149658034884843,[7100|6500|0|0],first_intermediate
16600,1.343766689300537,0.5822851061820984,0.0444061793386936,-0.0721162110567092,-2.991793394088745,18.52182579040528,4.015625,1,B2,7.6,0,270.0,5.156844503496548,[7100|6600|0|0],first_intermediate
16700,1.3531620502471924,0.5822240710258484,0.0453684888780117,-0.0779956579208374,-3.1539740562438965,18.455543518066406,4.0234375,1,B2,7.6,0,270.0,5.166289214834524,[7100|6700|0|0],first_intermediate
16800,1.3314623832702637,0.5779716968536377,0.0432354323565959,-0.4474760890007019,-2.7089719772338867,11.963353157043455,4.0234375,1,B2,7.6,0,270.0,5.188504258456666,[7100|6800|0|0],first_intermediate
16900,1.331881761550903,0.5776754021644592,0.0426702983677387,-0.5606687068939209,-2.545754194259644,9.1138334274292,4.0234375,1,B2,7.6,0,270.0,5.189267832363023,[7100|6900|0|0],first_intermediate
17000,1.3315094709396362,0.5780919194221497,0.0428129881620407,-0.587704062461853,-2.362548351287842,7.46638822555542,4.0234375,1,B2,7.6,0,270.0,5.189844414796496,[7100|7000|0|0],first_intermediate
17100,1.331276535987854,0.5781710743904114,0.0426153503358364,-0.5558286309242249,-2.2156736850738525,6.416052341461182,4.0234375,1,B2,7.6,0,270.0,5.190159985566861,[7100|7100|0|0],first_intermediate
17200,1.331012725830078,0.5785872936248779,0.0428405106067657,-0.5255212187767029,-2.1046783924102783,5.682021617889404,4.08984375,1,B2,7.6,0,270.0,5.190701770946962,[7100|7200|0|0],first_intermediate
17300,1.3305786848068235,0.5787339210510254,0.0434568859636783,-0.4769833087921142,-2.0138187408447266,5.127584934234619,4.09765625,1,B2,7.6,0,270.0,5.191469761697281,[7100|7300|0|0],first_intermediate
17400,1.3307230472564695,0.5780460238456726,0.0431832745671272,-0.4163098633289337,-1.9509782791137693,4.69818639755249,4.09765625,1,B2,7.6,0,270.0,5.192224020458133,[7100|7400|0|0],first_intermediate
17500,1.3305482864379885,0.5784741044044495,0.043269395828247,-0.4078974425792694,-1.892729997634888,4.38544511795044,4.09765625,1,B2,7.6,0,270.0,5.192694351384287,[7100|7500|0|0],first_intermediate
17600,1.330151081085205,0.578384280204773,0.0434331446886062,-0.3809333741664886,-1.8352725505828853,4.149851322174072,4.09765625,1,B2,7.6,0,270.0,5.193133275259687,[7100|7600|0|0],first_intermediate
17700,1.3297795057296753,0.5790289044380188,0.0437179133296012,-0.376499742269516,-1.797966718673706,3.97013258934021,4.09765625,1,B2,7.6,0,270.0,5.193929957019123,[7100|7700|0|0],first_intermediate
17800,1.3297336101531982,0.5786270499229431,0.0440340712666511,-0.3429687023162842,-1.7806802988052368,3.8474180698394775,4.09765625,1,B2,7.6,0,270.0,5.194443327544559,[7100|7800|0|0],first_intermediate
17900,1.329763650894165,0.578723132610321,0.0434469692409038,-0.33737513422966,-1.7624162435531616,3.780093193054199,4.1015625,1,B2,7.6,0,270.0,5.195038997854016,[7100|7900|0|0],first_intermediate
18000,1.3297048807144165,0.5789631605148315,0.0439073480665683,-0.3327993750572204,-1.752405047416687,3.7237257957458496,4.1015625,1,B2,7.6,0,270.0,5.195561507176508,[7100|8000|0|0],first_intermediate
18100,1.3300330638885498,0.5785530209541321,0.0433505028486251,-0.3143240809440613,-1.7564243078231812,3.6365065574646,4.1015625,1,B2,7.6,0,270.0,5.196327010443504,[7100|8100|0|0],first_intermediate
18200,1.329970121383667,0.5784919261932373,0.0434812493622303,-0.3079378306865692,-1.7425813674926758,3.6036105155944815,4.1015625,1,B2,7.6,0,270.0,5.196484455607132,[7100|8200|0|0],first_intermediate
18300,1.3302146196365356,0.5786744356155396,0.0434835702180862,-0.3166115880012512,-1.751367211341858,3.5662553310394287,4.1015625,1,B2,7.6,0,270.0,5.196789569473183,[7100|8300|0|0],first_intermediate
18400,1.329959511756897,0.5787850618362427,0.04355114325881,-0.3227092027664184,-1.7280683517456057,3.5453097820281982,4.1015625,1,B2,7.6,0,270.0,5.197075723814044,[7100|8400|0|0],first_intermediate
18500,1.3298499584197998,0.5788485407829285,0.0437251888215541,-0.3263255357742309,-1.7154611349105835,3.532604455947876,4.1015625,1,B2,7.6,0,270.0,5.197290952455847,[7100|8500|0|0],first_intermediate
18600,1.3295769691467283,0.5790086984634399,0.0442844256758689,-0.3243744969367981,-1.7064638137817385,3.525540590286255,4.1015625,1,B2,7.6,0,270.0,5.197933540570476,[7100|8600|0|0],first_intermediate
18700,1.3297983407974243,0.5789047479629517,0.0437849350273609,-0.3157628178596496,-1.7136608362197876,3.5237977504730225,4.10546875,1,B2,7.6,0,270.0,5.198489689851003,[7100|8700|0|0],first_intermediate
18800,1.3300238847732544,0.5787179470062256,0.0434973910450935,-0.3061752021312713,-1.7265726327896118,3.497545957565308,4.10546875,1,B2,7.6,0,270.0,5.19890011185846,[7100|8800|0|0],first_intermediate
18900,1.3300220966339111,0.5787836313247681,0.043217658996582,-0.3087198138236999,-1.721773624420166,3.4901018142700195,4.10546875,1,B2,7.6,0,270.0,5.199187457723419,[7100|8900|0|0],first_intermediate
19000,1.3302888870239258,0.5785530805587769,0.0435671173036098,-0.3003664910793304,-1.7244884967803955,3.48907732963562,4.10546875,1,B2,7.6,0,270.0,5.199683896920355,[7100|9000|0|0],first_intermediate
19100,1.329830765724182,0.5785043835639954,0.0441332794725894,-0.3049000203609466,-1.6926252841949463,3.42691421508789,4.10546875,1,B2,7.6,0,270.0,5.200413818919039,[7100|9100|0|0],first_intermediate
19200,1.3302371501922607,0.5783331394195557,0.0430751666426658,-0.305103451013565,-1.707468032836914,3.423032760620117,4.10546875,1,B2,7.6,0,270.0,5.201560150308189,[7100|9200|0|0],first_intermediate
19300,1.3304438591003418,0.5781888961791992,0.0429329983890056,-0.2990951538085937,-1.7111799716949463,3.417653799057007,4.11328125,1,B2,7.6,0,270.0,5.201849540179154,[7100|9300|0|0],first_intermediate
19400,1.3298890590667725,0.5785419940948486,0.0436594933271408,-0.3181130588054657,-1.685372233390808,3.4095888137817383,4.11328125,1,B2,7.6,0,270.0,5.202829476968146,[7100|9400|0|0],first_intermediate
19500,1.329674243927002,0.5788232088088989,0.043745033442974,-0.3215258419513702,-1.6866990327835083,3.400418996810913,4.11328125,1,B2,7.6,0,270.0,5.203193543405888,[7100|9500|0|0],first_intermediate
19600,1.329580783843994,0.5789315104484558,0.0436607077717781,-0.3207418024539947,-1.68547523021698,3.3819470405578613,4.11328125,1,B2,7.6,0,270.0,5.203359600176509,[7100|9600|0|0],first_intermediate
19700,1.3300925493240356,0.5782504677772522,0.0433154366910457,-0.294616162776947,-1.7062398195266724,3.391479015350342,4.11328125,1,B2,7.6,0,270.0,5.204278803715315,[7100|9700|0|0],first_intermediate
19800,1.330272555351257,0.5782852172851562,0.0432783253490924,-0.2944563329219818,-1.7127364873886108,3.398193597793579,4.11328125,1,B2,7.6,0,270.0,5.204465851703375,[7100|9800|0|0],first_intermediate
19900,1.329914689064026,0.5786051154136658,0.0434444993734359,-0.3117242157459259,-1.6958792209625244,3.37600040435791,4.11328125,1,B2,7.6,0,270.0,5.204973805341542,[7100|9900|0|0],first_intermediate
20000,1.3297080993652344,0.5788771510124207,0.043895773589611,-0.3170229196548462,-1.686972737312317,3.3925204277038574,4.11328125,1,B2,7.6,0,270.0,5.205539783334772,[7100|10000|0|0],first_intermediate
20100,1.329559564590454,0.5790373086929321,0.0438504293560981,-0.3222201466560364,-1.6913306713104248,3.3793349266052246,4.11328125,1,B2,7.6,0,270.0,5.205762873364712,[7100|10100|0|0],first_intermediate
20200,1.3297711610794067,0.578494668006897,0.0436053276062011,-0.307387113571167,-1.7067546844482422,3.377789258956909,4.1171875,1,B2,7.6,0,270.0,5.206394780680764,[7100|10200|0|0],first_intermediate
20300,1.329672932624817,0.5788057446479797,0.0436244532465934,-0.3093721568584442,-1.6972684860229492,3.387402057647705,4.1171875,1,B2,7.6,0,270.0,5.206721557815887,[7100|10300|0|0],first_intermediate
20400,1.3301455974578855,0.5783966183662415,0.0431287214159965,-0.2972068190574646,-1.7159945964813232,3.427420854568481,4.1171875,1,B2,7.6,0,270.0,5.207519396400248,[7100|10400|0|0],first_intermediate
20500,1.330152988433838,0.5787228345870972,0.0434141531586647,-0.3099675178527832,-1.7145203351974487,3.440736770629883,4.1171875,1,B2,7.6,0,270.0,5.207952920250801,[7100|10500|0|0],first_intermediate
20600,1.3300316333770752,0.5783434510231018,0.0434530712664127,-0.3007630705833435,-1.7007050514221191,3.3930439949035645,4.1171875,1,B2,7.6,0,270.0,5.208353137138928,[7100|10600|0|0],first_intermediate
20700,1.3298509120941162,0.5784642696380615,0.0438819341361522,-0.3041986525058746,-1.6924611330032349,3.4043045043945312,4.1171875,1,B2,7.6,0,270.0,5.208833949660474,[7100|10700|0|0],first_intermediate
20800,1.329826831817627,0.5788605809211731,0.0439396500587463,-0.3081287443637848,-1.6863713264465332,3.408815860748291,4.1171875,1,B2,7.6,0,270.0,5.2092351648403445,[7100|10800|0|0],first_intermediate
20901,1.329909086227417,0.5782794952392578,0.0432824715971946,-0.2908216416835785,-1.6853896379470823,3.424940824508667,4.1171875,1,B2,7.6,0,270.0,5.210116249335716,[7100|10900|0|0],first_intermediate
21001,1.3302726745605469,0.5782637596130371,0.0431485772132873,-0.295597642660141,-1.698043942451477,3.482363224029541,4.1171875,1,B2,7.6,0,270.0,5.210504027354642,[7100|11000|0|0],first_intermediate
21101,1.3297791481018066,0.5787255167961121,0.0436849482357502,-0.3124501705169678,-1.683042049407959,3.4286341667175293,4.1171875,1,B2,7.6,0,270.0,5.211366861020731,[7100|11100|0|0],first_intermediate
21201,1.329805850982666,0.5785626769065857,0.0436010882258415,-0.3098090589046478,-1.6862645149230957,3.420248746871948,4.1171875,1,B2,7.6,0,270.0,5.211551962005951,[7100|11200|0|0],first_intermediate
21301,1.3298057317733765,0.5788993835449219,0.0438408181071281,-0.3193583488464355,-1.6870561838150024,3.4238905906677246,4.1171875,1,B2,7.6,0,270.0,5.211965292128845,[7100|11300|0|0],first_intermediate
21401,1.3298815488815308,0.5787467956542969,0.0438282154500484,-0.3180865049362182,-1.6834248304367063,3.413858652114868,4.12109375,1,B2,7.6,0,270.0,5.212136143307418,[7100|11400|0|0],first_intermediate
21501,1.3298946619033811,0.5788852572441101,0.0431585051119327,-0.3192472457885742,-1.685973048210144,3.4301724433898926,4.12109375,1,B2,7.6,0,270.0,5.212820142942048,[7100|11500|0|0],first_intermediate
21602,1.3297247886657717,0.5786906480789185,0.0437318831682205,-0.3070640563964844,-1.684669852256775,3.433982610702514,4.12109375,1,B2,7.6,0,270.0,5.2134490245203,[7100|11600|0|0],first_intermediate
21701,1.329677700996399,0.5787694454193115,0.043837122619152,-0.313789427280426,-1.6903640031814575,3.430348873138428,4.12109375,1,B2,7.6,0,270.0,5.213588672690687,[7100|11700|0|0],first_intermediate
21802,1.3299328088760376,0.5788782238960266,0.0436563901603221,-0.3172512948513031,-1.700222134590149,3.417841672897339,4.12109375,1,B2,7.6,0,270.0,5.21391969687247,[7100|11800|0|0],first_intermediate
21902,1.3298698663711548,0.5783910751342773,0.0437162928283214,-0.3108662068843841,-1.6898958683013916,3.4254343509674072,4.12109375,1,B2,7.6,0,270.0,5.214414534224161,[7100|11900|0|0],first_intermediate
22002,1.329767107963562,0.5786298513412476,0.0436624139547348,-0.320793867111206,-1.6823174953460691,3.460930824279785,4.12109375,1,B2,7.6,0,270.0,5.214680007952362,[7100|12000|0|0],first_intermediate
22102,1.3299775123596191,0.5785301923751831,0.0436490103602409,-0.3179537653923034,-1.6820905208587646,3.484307289123535,4.12109375,1,B2,7.6,0,270.0,5.214913206528135,[7100|12100|0|0],first_intermediate
22202,1.3297377824783323,0.5785955190658569,0.0438907518982887,-0.3150528371334076,-1.674306035041809,3.5016026496887207,4.12109375,1,B2,7.6,0,270.0,5.2152598720206695,[7100|12200|0|0],first_intermediate
22300,1.3297468423843384,0.5786493420600891,0.0436525084078311,-0.3190604448318481,-1.6823971271514893,3.4576897621154785,4.12109375,1,B2,7.6,0,270.0,5.215504287563036,[7100|12300|0|0],first_intermediate
22400,1.3297771215438845,0.5784898400306702,0.0434795469045639,-0.3095720112323761,-1.6867222785949707,3.4476356506347656,4.12109375,1,B2,7.6,0,270.0,5.215741507727659,[7100|12400|0|0],first_intermediate
22500,1.3298139572143557,0.5787143707275391,0.0437554121017456,-0.3113305270671844,-1.6937702894210815,3.4388961791992188,4.12109375,1,B2,7.6,0,270.0,5.2160991003834445,[7100|12500|0|0],first_intermediate
22600,1.3297666311264038,0.578938364982605,0.0437841266393661,-0.315990686416626,-1.6900068521499634,3.4140660762786865,4.12890625,1,B2,7.6,0,270.0,5.216329833366727,[7100|12600|0|0],first_intermediate
22700,1.3298574686050415,0.5788596272468567,0.0439028963446617,-0.3123674392700195,-1.7008442878723145,3.401535987854004,4.12890625,1,B2,7.6,0,270.0,5.216498822483098,[7100|12700|0|0],first_intermediate
22800,1.3299615383148191,0.5783599615097046,0.0433600768446922,-0.2977738082408905,-1.7059038877487185,3.402718067169189,4.12890625,1,B2,7.6,0,270.0,5.217243905943473,[7100|12800|0|0],first_intermediate
22900,1.3297220468521118,0.5788267254829407,0.0439582504332065,-0.3125061094760895,-1.6971040964126587,3.4170408248901367,4.12890625,1,B2,7.6,0,270.0,5.218039541795743,[7100|12900|0|0],first_intermediate
23000,1.3297334909439087,0.5783647894859314,0.0438789948821067,-0.2950974106788635,-1.6993755102157593,3.416534900665283,4.12890625,1,B2,7.6,0,270.0,5.218508367216288,[7100|13000|0|0],first_intermediate
23100,1.3296946287155151,0.5786934494972229,0.0436237379908561,-0.3080984354019165,-1.6950217485427856,3.4261693954467773,4.12890625,1,B2,7.6,0,270.0,5.218926319075178,[7100|13100|0|0],first_intermediate
23200,1.3302218914031982,0.5784515738487244,0.0431691221892833,-0.3015594482421875,-1.7218613624572754,3.444283962249756,4.12890625,1,B2,7.6,0,270.0,5.219663330132217,[7100|13200|0|0],first_intermediate
23300,1.3302687406539917,0.578421950340271,0.0429234020411968,-0.3033667802810669,-1.7190437316894531,3.4439361095428467,4.12890625,1,B2,7.6,0,270.0,5.2199152245460665,[7100|13300|0|0],first_intermediate
23400,1.3298017978668213,0.5787513256072998,0.04410070925951,-0.3134612441062927,-1.7066744565963743,3.4733004570007324,4.12890625,1,B2,7.6,0,270.0,5.221223878785854,[7100|13400|0|0],first_intermediate
23500,1.3299278020858765,0.5783064365386963,0.0438077300786972,-0.2991392910480499,-1.7025898694992063,3.442943811416626,4.12890625,1,B2,7.6,0,270.0,5.221771272745423,[7100|13500|0|0],first_intermediate
23600,1.3300381898880005,0.5785769820213318,0.0433823801577091,-0.311888724565506,-1.7008469104766846,3.43217134475708,4.12890625,1,B2,7.6,0,270.0,5.222287318170087,[7100|13600|0|0],first_intermediate
23700,1.3301399946212769,0.578525960445404,0.0435340031981468,-0.312867671251297,-1.701587438583374,3.421698808670044,4.12890625,1,B2,7.6,0,270.0,5.222476941352529,[7100|13700|0|0],first_intermediate
23800,1.3296676874160769,0.5788231492042542,0.0438910089433193,-0.3199561536312103,-1.6809345483779907,3.4144322872161865,4.12890625,1,B2,7.6,0,270.0,5.223139397657923,[7100|13800|0|0],first_intermediate
23900,1.3299344778060913,0.578570544719696,0.043705977499485,-0.3121231496334076,-1.6930456161499023,3.4033234119415283,4.12890625,1,B2,7.6,0,270.0,5.223550764614582,[7100|13900|0|0],first_intermediate
24000,1.330087184906006,0.5783414244651794,0.043388370424509,-0.3034778833389282,-1.701560139656067,3.423945188522339,4.1328125,1,B2,7.6,0,270.0,5.223971109477128,[7100|14000|0|0],first_intermediate
24100,1.3301879167556765,0.5784375667572021,0.0435090288519859,-0.3087790012359619,-1.7033178806304932,3.42535400390625,4.1328125,1,B2,7.6,0,270.0,5.224155361212464,[7100|14100|0|0],first_intermediate
24200,1.3298494815826416,0.578542947769165,0.0435191020369529,-0.3098817467689514,-1.6876263618469238,3.4358975887298584,4.1328125,1,B2,7.6,0,270.0,5.224509966617224,[7100|14200|0|0],first_intermediate
24300,1.329692006111145,0.5788353681564331,0.0437985658645629,-0.3118877708911896,-1.6801085472106934,3.415393114089966,4.1328125,1,B2,7.6,0,270.0,5.224944026795028,[7100|14300|0|0],first_intermediate
24400,1.3298741579055786,0.5783935785293579,0.0433705002069473,-0.2989510595798492,-1.6887762546539309,3.4073312282562256,4.1328125,1,B2,7.6,0,270.0,5.225585585489176,[7100|14400|0|0],first_intermediate
24500,1.3297076225280762,0.5786914229393005,0.0437934547662735,-0.3094977736473083,-1.683796525001526,3.4086709022521973,4.1328125,1,B2,7.6,0,270.0,5.226129033631825,[7100|14500|0|0],first_intermediate
24600,1.3297388553619385,0.5786849856376648,0.0437058918178081,-0.3015692830085754,-1.6914108991622925,3.4411041736602783,4.1328125,1,B2,7.6,0,270.0,5.2262222226800406,[7100|14600|0|0],first_intermediate
24700,1.3295937776565552,0.5788795351982117,0.0438630618155002,-0.3066381216049194,-1.6922123432159424,3.429280996322632,4.1328125,1,B2,7.6,0,270.0,5.226511358427196,[7100|14700|0|0],first_intermediate
24800,1.329513669013977,0.5787832140922546,0.0442219637334346,-0.3042083382606506,-1.694784164428711,3.417054414749145,4.1328125,1,B2,7.6,0,270.0,5.226891497529059,[7100|14800|0|0],first_intermediate
24900,1.3299217224121094,0.578768789768219,0.0437516346573829,-0.2957776188850403,-1.71397066116333,3.418632745742798,4.1328125,1,B2,7.6,0,270.0,5.227514333845141,[7100|14900|0|0],first_intermediate
25000,1.3299897909164429,0.5785710215568542,0.0432844050228595,-0.2967938780784607,-1.7120288610458374,3.414245367050171,4.1328125,1,B2,7.6,0,270.0,5.228026241178636,[7100|15000|0|0],first_intermediate
25100,1.329633116722107,0.5788344144821167,0.0434879399836063,-0.3116232752799988,-1.697003722190857,3.403470993041992,4.1328125,1,B2,7.6,0,270.0,5.2285141128771695,[7100|15100|0|0],first_intermediate
25200,1.3295996189117432,0.5786826610565186,0.0440193079411983,-0.3105091452598572,-1.7013598680496216,3.398504734039306,4.1328125,1,B2,7.6,0,270.0,5.22906774010901,[7100|15200|0|0],first_intermediate
25300,1.3299649953842163,0.5789164304733276,0.043629128485918,-0.3206881284713745,-1.721260905265808,3.4068310260772705,4.1328125,1,B2,7.6,0,270.0,5.229651168008751,[7100|15300|0|0],first_intermediate
25400,1.329720139503479,0.5786080360412598,0.0437797233462333,-0.3148469924926758,-1.7110679149627686,3.397594451904297,4.1328125,1,B2,7.6,0,270.0,5.230072760632044,[7100|15400|0|0],first_intermediate
25500,1.3297433853149414,0.5788598656654358,0.0439039394259452,-0.3164877295494079,-1.7180768251419067,3.3984453678131104,4.1328125,1,B2,7.6,0,270.0,5.230354519681272,[7100|15500|0|0],first_intermediate
25600,1.3298121690750122,0.5786721110343933,0.0437239594757556,-0.3071368932723999,-1.718921184539795,3.4250307083129883,4.1328125,1,B2,7.6,0,270.0,5.230623547169826,[7100|15600|0|0],first_intermediate
25700,1.33006751537323,0.578985869884491,0.0435567088425159,-0.3168163001537323,-1.7273428440093994,3.421213150024414,4.1328125,1,B2,7.6,0,270.0,5.231061290384905,[7100|15700|0|0],first_intermediate
25800,1.3300732374191284,0.5785119533538818,0.043519239872694,-0.3022074997425079,-1.7211333513259888,3.41703200340271,4.1328125,1,B2,7.6,0,270.0,5.231536720236191,[7100|15800|0|0],first_intermediate
25900,1.330011248588562,0.578643798828125,0.0432597175240516,-0.3076298236846924,-1.7140097618103027,3.393065929412842,4.1328125,1,B2,7.6,0,270.0,5.231834340285311,[7100|15900|0|0],first_intermediate
26000,1.329825520515442,0.5785710215568542,0.0436828359961509,-0.3021624386310577,-1.70068621635437,3.375426769256592,4.13671875,1,B2,7.6,0,270.0,5.232302123023118,[7100|16000|0|0],first_intermediate
26100,1.3296458721160889,0.5788525342941284,0.044014636427164,-0.3133207857608795,-1.6958558559417725,3.3970651626586914,4.1328125,1,B2,7.6,0,270.0,5.232772882510179,[7100|16100|0|0],first_intermediate
26200,1.3296144008636477,0.5788555145263672,0.0435447543859481,-0.3182262480258941,-1.6951133012771606,3.398875951766968,4.13671875,1,B2,7.6,0,270.0,5.233243826725742,[7100|16200|0|0],first_intermediate
26300,1.3296135663986206,0.5789058208465576,0.0435316897928714,-0.3186533153057098,-1.6956040859222412,3.3833770751953125,4.13671875,1,B2,7.6,0,270.0,5.233295808508852,[7100|16300|0|0],first_intermediate
26400,1.3299567699432373,0.5787495374679565,0.0433954335749149,-0.313837319612503,-1.7143858671188354,3.415898084640503,4.13671875,1,B2,7.6,0,270.0,5.233696780982217,[7100|16400|0|0],first_intermediate
26500,1.3301458358764648,0.5786280632019043,0.0436588414013385,-0.3055439293384552,-1.7148468494415283,3.410252809524536,4.13671875,1,B2,7.6,0,270.0,5.234043025992927,[7100|16500|0|0],first_intermediate
26600,1.3303340673446655,0.5781353116035461,0.0427759103477001,-0.2975301444530487,-1.7087013721466064,3.408376932144165,4.13671875,1,B2,7.6,0,270.0,5.235071521237828,[7100|16600|0|0],first_intermediate
26700,1.3301303386688232,0.5784829258918762,0.0430233888328075,-0.3157928586006164,-1.6972448825836182,3.4307079315185547,4.13671875,1,B2,7.6,0,270.0,5.2355443707566,[7100|16700|0|0],first_intermediate
26800,1.3299596309661863,0.5785534381866455,0.0437303036451339,-0.3251568973064422,-1.696292281150818,3.419076442718506,4.13671875,1,B2,7.6,0,270.0,5.23627501544134,[7100|16800|0|0],first_intermediate
26900,1.3301876783370972,0.5784958004951477,0.0436234660446643,-0.3267909586429596,-1.7059401273727417,3.4256272315979004,4.13671875,1,B2,7.6,0,270.0,5.236533360133049,[7100|16900|0|0],first_intermediate
27000,1.3299795389175415,0.578603982925415,0.0439547374844551,-0.3264401257038116,-1.7017592191696167,3.434821128845215,4.13671875,1,B2,7.6,0,270.0,5.236939274191703,[7100|17000|0|0],first_intermediate
27100,1.3296831846237185,0.5786291360855103,0.0436611920595169,-0.3214496970176697,-1.699565052986145,3.42364501953125,4.13671875,1,B2,7.6,0,270.0,5.2373571587037775,[7100|17100|0|0],first_intermediate
27200,1.3296608924865725,0.578645646572113,0.0437248423695564,-0.3132175803184509,-1.7025083303451538,3.4712812900543213,4.13671875,1,B2,7.6,0,270.0,5.237426591387108,[7100|17200|0|0],first_intermediate
27300,1.3297197818756104,0.5791431665420532,0.0439047701656818,-0.323442280292511,-1.7045387029647827,3.502168893814087,4.13671875,1,B2,7.6,0,270.0,5.237958914684033,[7100|17300|0|0],first_intermediate
27400,1.3298289775848389,0.5789247155189514,0.0435824133455753,-0.3190139234066009,-1.7084134817123413,3.4793448448181152,4.13671875,1,B2,7.6,0,270.0,5.238363338313261,[7100|17400|0|0],first_intermediate
27500,1.3297641277313232,0.5785463452339172,0.0437266379594802,-0.2977806031703949,-1.7066166400909424,3.463315725326538,4.13671875,1,B2,7.6,0,270.0,5.238773424054727,[7100|17500|0|0],first_intermediate
27600,1.3298370838165283,0.5783724188804626,0.0436340197920799,-0.2906190454959869,-1.7058883905410769,3.4506161212921143,4.13671875,1,B2,7.6,0,270.0,5.238983545666483,[7100|17600|0|0],first_intermediate
27700,1.33009135723114,0.5787083506584167,0.0432292595505714,-0.3053677976131439,-1.7254890203475952,3.426277875900269,4.13671875,1,B2,7.6,0,270.0,5.239567785327858,[7100|17700|0|0],first_intermediate
27800,1.3298228979110718,0.5785253047943115,0.0435867607593536,-0.2962173521518707,-1.7150729894638062,3.427520990371704,4.13671875,1,B2,7.6,0,270.0,5.240050882946542,[7100|17800|0|0],first_intermediate
27900,1.3299851417541504,0.5788348913192749,0.0439050160348415,-0.3098136484622955,-1.7223864793777466,3.4434335231781006,4.13671875,1,B2,7.6,0,270.0,5.240523591420584,[7100|17900|0|0],first_intermediate
28000,1.3303180932998655,0.5783444046974182,0.0431996062397956,-0.2968586385250091,-1.7310880422592163,3.435098886489868,4.13671875,1,B2,7.6,0,270.0,5.241445023369759,[7100|18000|0|0],first_intermediate
28100,1.3299977779388428,0.5785735845565796,0.0434133596718311,-0.3051760494709015,-1.724215388298035,3.4459173679351807,4.13671875,1,B2,7.6,0,270.0,5.241893148205111,[7100|18100|0|0],first_intermediate
28200,1.3300589323043823,0.5785259008407593,0.0436879582703113,-0.3010135293006897,-1.7326375246047974,3.4290478229522705,4.13671875,1,B2,7.6,0,270.0,5.242178486571733,[7100|18200|0|0],first_intermediate
28300,1.32990300655365,0.5784131288528442,0.0435589924454689,-0.2985471785068512,-1.7288531064987185,3.420826911926269,4.13671875,1,B2,7.6,0,270.0,5.242410138346984,[7100|18300|0|0],first_intermediate
28400,1.3300660848617554,0.5784589052200317,0.0430889017879962,-0.3077175617218017,-1.7421282529830933,3.438217639923096,4.14453125,1,B2,7.6,0,270.0,5.242909813478055,[7100|18400|0|0],first_intermediate
28500,1.3301140069961548,0.5786700248718262,0.0432018637657165,-0.3217321038246155,-1.7406262159347534,3.4339592456817627,4.13671875,1,B2,7.6,0,270.0,5.243154002844633,[7100|18500|0|0],first_intermediate
28600,1.3300896883010864,0.5781837105751038,0.0433666706085205,-0.3095889389514923,-1.7363972663879397,3.421499967575073,4.14453125,1,B2,7.6,0,270.0,5.243668059543413,[7100|18600|0|0],first_intermediate
28700,1.3299823999404907,0.5787883996963501,0.0435285754501819,-0.3331725001335144,-1.7380380630493164,3.405418872833252,4.14453125,1,B2,7.6,0,270.0,5.244303175992127,[7100|18700|0|0],first_intermediate
28800,1.3298707008361816,0.5787053108215332,0.0438340790569782,-0.3237518966197967,-1.7296398878097534,3.4290871620178223,4.13671875,1,B2,7.6,0,270.0,5.244638903418453,[7100|18800|0|0],first_intermediate
28900,1.3297592401504517,0.5785282850265503,0.0433741137385368,-0.3120459914207458,-1.7221360206604004,3.42785120010376,4.14453125,1,B2,7.6,0,270.0,5.245144205022172,[7100|18900|0|0],first_intermediate
29000,1.3298664093017578,0.5786036849021912,0.0438983179628849,-0.3173812329769134,-1.7250087261199951,3.427489280700684,4.14453125,1,B2,7.6,0,270.0,5.245684538657127,[7100|19000|0|0],first_intermediate
29100,1.3297524452209473,0.578637957572937,0.0438742823898792,-0.3176959753036499,-1.7166916131973269,3.4548323154449463,4.14453125,1,B2,7.6,0,270.0,5.245805947620736,[7100|19100|0|0],first_intermediate
29200,1.3299736976623535,0.5785490274429321,0.0433065481483936,-0.3209899365901947,-1.7276531457901,3.464325189590454,4.14453125,1,B2,7.6,0,270.0,5.246421726298352,[7100|19200|0|0],first_intermediate
29300,1.3300293684005735,0.5784700512886047,0.0433625802397728,-0.3168883621692657,-1.7278023958206177,3.4489808082580566,4.13671875,1,B2,7.6,0,270.0,5.246533422579895,[7100|19300|0|0],first_intermediate
29400,1.3299801349639893,0.5789069533348083,0.0435955673456192,-0.3278155624866485,-1.7247108221054075,3.428433895111084,4.14453125,1,B2,7.6,0,270.0,5.2470310070659325,[7100|19400|0|0],first_intermediate
29500,1.3297961950302124,0.5786640048027039,0.0437305532395839,-0.3171776533126831,-1.7215652465820312,3.4297358989715576,4.14453125,1,B2,7.6,0,270.0,5.247364292349224,[7100|19500|0|0],first_intermediate
29600,1.3299235105514526,0.5786689519882202,0.0435530841350555,-0.314074158668518,-1.7241939306259155,3.415882110595703,4.14453125,1,B2,7.6,0,270.0,5.247582762025965,[7100|19600|0|0],first_intermediate
29700,1.330252766609192,0.5786130428314209,0.0435665473341941,-0.3075098395347595,-1.7282109260559082,3.4187943935394287,4.14453125,1,B2,7.6,0,270.0,5.247917002423139,[7100|19700|0|0],first_intermediate
29800,1.3301684856414795,0.5783920884132385,0.0434012971818447,-0.301701009273529,-1.7219669818878174,3.4162189960479736,4.14453125,1,B2,7.6,0,270.0,5.248205501555346,[7100|19800|0|0],first_intermediate
29900,1.3302216529846191,0.578628659248352,0.0433614328503608,-0.3101170361042022,-1.718196988105774,3.4203577041625977,4.14453125,1,B2,7.6,0,270.0,5.248451228418606,[7100|19900|0|0],first_intermediate
30000,1.3299537897109983,0.5789057612419128,0.0436244159936904,-0.313306599855423,-1.7056649923324585,3.423880100250244,4.14453125,1,B2,7.6,0,270.0,5.248917807867216,[7100|20000|0|0],first_intermediate
30100,1.3297860622406006,0.5789982676506042,0.043574720621109,-0.3110275864601135,-1.695988655090332,3.421982288360596,4.14453125,1,B2,7.6,0,270.0,5.249115695638519,[7100|20100|0|0],first_intermediate
30200,1.329585313796997,0.5788226127624512,0.0439669378101825,-0.3016972541809082,-1.6933600902557373,3.428740978240967,4.14453125,1,B2,7.6,0,270.0,5.249590025587759,[7100|20200|0|0],first_intermediate
30300,1.3296246528625488,0.5788834095001221,0.0436415709555149,-0.3079282641410827,-1.6885557174682615,3.4095380306243896,4.14453125,1,B2,7.6,0,270.0,5.249923353347638,[7100|20300|0|0],first_intermediate
30400,1.329963445663452,0.5786459445953369,0.0432891435921192,-0.3001563251018524,-1.709393858909607,3.4182865619659424,4.14453125,1,B2,7.6,0,270.0,5.250466837652304,[7100|20400|0|0],first_intermediate
30500,1.3296890258789062,0.5789395570755005,0.0435146167874336,-0.3084028363227844,-1.695851445198059,3.424163341522217,4.14453125,1,B2,7.6,0,270.0,5.250927655043972,[7100|20500|0|0],first_intermediate
30600,1.329871416091919,0.5787915587425232,0.0433284714818,-0.3111970722675323,-1.6988614797592163,3.422736167907715,4.14453125,1,B2,7.6,0,270.0,5.251227354512067,[7100|20600|0|0],first_intermediate
30700,1.3298460245132446,0.5788083672523499,0.0434352755546569,-0.3081575632095337,-1.6992770433425903,3.4263761043548584,4.14453125,1,B2,7.6,0,270.0,5.25133841471308,[7100|20700|0|0],first_intermediate
30800,1.3298231363296509,0.5785695910453796,0.0432267077267169,-0.2988666892051697,-1.7034832239151,3.4189724922180176,4.14453125,1,B2,7.6,0,270.0,5.251656280226803,[7100|20800|0|0],first_intermediate
