time.ms,stateEstimate.x,stateEstimate.y,stateEstimate.z,stabilizer.roll,stabilizer.pitch,stabilizer.yaw,pm.vbat,drone_id,node_name,wind_speed,global_wind_direction,relative_wind_direction,travel_dist,waiting_time,curr_node_role
0,1.6977323293685913,1.1956045627593994,0.0,0.4156191349029541,0.8626737594604492,9.69203758239746,4.08984375,0,C1,6.1,0,270.0,0.0,[6200|0|0],start
100,1.6979821920394895,1.1958836317062378,0.0,0.4106538593769073,0.8540090322494507,9.67651653289795,4.08984375,0,C1,6.1,0,270.0,0.0003745808743087,[6300|0|0],start
200,1.698161005973816,1.1958385705947876,0.0,0.4158651530742645,0.8377552628517151,9.677704811096191,4.08984375,0,C1,6.1,0,270.0,0.0005589851228346,[6400|0|0],start
300,1.6982418298721311,1.195816159248352,0.0,0.4198460876941681,0.8426440358161926,9.680362701416016,4.08984375,0,C1,6.1,0,270.0,0.0006428586644787,[6500|0|0],start
400,1.6981534957885742,1.1959573030471802,0.0,0.3815107345581054,0.7966381311416626,9.689045906066896,4.08984375,0,C1,6.1,0,270.0,0.0008093653678436,[6600|0|0],start
500,1.698121428489685,1.1956387758255005,0.0,0.3990388214588165,0.8070136308670044,9.674777030944824,4.08984375,0,C1,6.1,0,270.0,0.0011295026862072,[6700|0|0],start
600,1.69782817363739,1.1959017515182495,0.0,0.3942722082138061,0.820268988609314,9.66494083404541,4.08984375,0,C1,6.1,0,270.0,0.0015233994028367,[6800|0|0],start
700,1.698356866836548,1.195751070976257,0.0,0.3992705941200256,0.8090112805366516,9.67699146270752,4.08984375,0,C1,6.1,0,270.0,0.0020731458212618,[6900|0|0],start
800,1.6978394985198977,1.1960233449935913,0.0,0.3919486105442047,0.8233097195625305,9.707391738891602,4.08984375,0,C1,6.1,0,270.0,0.002657785125097,[7000|0|0],start
900,1.6979652643203735,1.1957285404205322,0.0,0.4017279744148254,0.8244791626930237,9.707879066467283,4.08984375,0,C1,6.1,0,270.0,0.0029782953010133,[7100|0|0],start
1000,1.6978379487991333,1.1957629919052124,0.0,0.3981377184391022,0.8284035325050354,9.713922500610352,4.08984375,0,C1,6.1,0,270.0,0.0031101897540632,[7200|0|0],start
1100,1.698034644126892,1.195879578590393,0.0,0.3998600840568542,0.8140897750854492,9.724654197692873,4.08984375,0,C1,6.1,0,270.0,0.0033388412511577,[7300|0|0],start
1200,1.6982814073562622,1.1958569288253784,0.0,0.4024534523487091,0.8096227049827576,9.699834823608398,4.08984375,0,C1,6.1,0,270.0,0.0035866417822798,[7400|0|0],start
1300,1.6981863975524902,1.1956326961517334,0.0,0.4017321467399597,0.8104926943778992,9.686585426330566,4.08984375,0,C1,6.1,0,270.0,0.003830172385578,[7500|0|0],start
1400,1.698001265525818,1.1958026885986328,0.0,0.3930950164794922,0.8110311031341553,9.704806327819824,4.08984375,0,C1,6.1,0,270.0,0.0040815113982732,[7600|0|0],start
1500,1.6979411840438845,1.1960694789886477,0.0,0.4005284309387207,0.8175702095031738,9.713748931884766,4.08984375,0,C1,6.1,0,270.0,0.0043549833285981,[7700|0|0],start
1600,1.6983585357666016,1.1957182884216309,0.0,0.421292245388031,0.8079460859298706,9.719378471374512,4.08984375,0,C1,6.1,0,270.0,0.0049004347698983,[7800|0|0],start
1700,1.6979933977127075,1.1959326267242432,0.0,0.3723304271697998,0.7825401425361633,9.714449882507324,4.08984375,0,C1,6.1,0,270.0,0.0053238337618294,[7900|0|0],start
1800,1.69826340675354,1.1960408687591553,0.0,0.3778208494186401,0.7871217727661133,9.700913429260254,4.08984375,0,C1,6.1,0,270.0,0.0056147310293539,[8000|0|0],start
1900,1.6979750394821167,1.1960461139678955,0.0,0.3842923045158386,0.8052362203598022,9.70166301727295,4.08984375,0,C1,6.1,0,270.0,0.0059031460002601,[8100|0|0],start
2000,1.6978739500045776,1.195641040802002,0.0,0.4045871198177337,0.812920331954956,9.716121673583984,4.08984375,0,C1,6.1,0,270.0,0.0063206425298219,[8200|0|0],start
2100,1.697887301445007,1.1960015296936035,0.0,0.3972473442554474,0.8078836798667908,9.73201847076416,4.08984375,0,C1,6.1,0,270.0,0.006681378585588,[8300|0|0],start
2200,1.697948336601257,1.1956413984298706,0.0,0.4074026048183441,0.8104357123374939,9.735249519348145,4.08984375,0,C1,6.1,0,270.0,0.0070466453612689,[8400|0|0],start
2300,1.6978676319122314,1.1956347227096558,0.0,0.4056705832481384,0.8165271282196045,9.715639114379885,4.08984375,0,C1,6.1,0,270.0,0.0071276256803046,[8500|0|0],start
2400,1.697913408279419,1.1956788301467896,0.0,0.4016045331954956,0.8176201581954956,9.707806587219238,4.08984375,0,C1,6.1,0,270.0,0.0071911940828596,[8600|0|0],start
2500,1.6979713439941406,1.195920467376709,0.0,0.3933301270008087,0.8156449198722839,9.733531951904297,4.08984375,0,C1,6.1,0,270.0,0.0074396796919468,[8700|0|0],start
2600,1.6979950666427612,1.195738673210144,0.0,0.3958448469638824,0.8126405477523804,9.727945327758787,4.08984375,0,C1,6.1,0,270.0,0.0076230151305685,[8800|0|0],start
2700,1.698086500167847,1.1959881782531738,0.0,0.387273371219635,0.8036552667617798,9.713956832885742,4.08984375,0,C1,6.1,0,270.0,0.0078887459266891,[8900|0|0],start
2800,1.6980308294296265,1.1958861351013184,0.0,0.3962909281253814,0.8143211007118225,9.72397518157959,4.08984375,0,C1,6.1,0,270.0,0.008004987209952,[9000|0|0],start
2900,1.6981229782104492,1.1955293416976929,0.0,0.4048801064491272,0.8088662028312683,9.724903106689451,4.08984375,0,C1,6.1,0,270.0,0.00837348813353,[9100|0|0],start
3000,1.6983846426010132,1.1956970691680908,0.0,0.3995755016803741,0.8126255869865417,9.736608505249023,4.08984375,0,C1,6.1,0,270.0,0.0086842947576796,[9200|0|0],start
3100,1.6980572938919067,1.1955571174621582,0.0,0.4011745154857635,0.8265417814254761,9.742473602294922,4.08984375,0,C1,6.1,0,270.0,0.0090403055122182,[9300|0|0],start
3200,1.6980360746383667,1.1957637071609497,0.0,0.3938029706478119,0.8253177404403687,9.72549819946289,4.08984375,0,C1,6.1,0,270.0,0.0092479820885756,[9400|0|0],start
3300,1.6982145309448242,1.1954501867294312,0.0,0.3989224135875702,0.8220528960227966,9.725455284118652,4.08984375,0,C1,6.1,0,270.0,0.0096087336849602,[9500|0|0],start
3400,1.6979998350143433,1.1951450109481812,0.0,0.4109927415847778,0.823883056640625,9.732705116271973,4.08984375,0,C1,6.1,0,270.0,0.0099818644931584,[9600|0|0],start
3500,1.6981655359268188,1.1961084604263306,0.0,0.3802017569541931,0.810437798500061,9.698369026184082,4.08984375,0,C1,6.1,0,270.0,0.0109594593424399,[9700|0|0],start
3600,1.6981879472732544,1.1961127519607544,0.0,0.3895955383777618,0.8160989880561829,9.709307670593262,4.08984375,0,C1,6.1,0,270.0,0.0109822778813231,[9800|0|0],start
3700,1.6979182958602903,1.196118712425232,0.0,0.3971475958824157,0.8305402398109436,9.729354858398438,4.08984375,0,C1,6.1,0,270.0,0.0112519951622865,[9900|0|0],start
3800,1.6981351375579834,1.1959469318389893,0.0,0.4026552140712738,0.8286898732185364,9.722308158874512,4.08984375,0,C1,6.1,0,270.0,0.0115286337200985,[10000|0|0],start
3900,1.6981194019317627,1.1960227489471436,0.0,0.3971242308616638,0.8267917633056641,9.72822380065918,4.08984375,0,C1,6.1,0,270.0,0.0116060665543579,[10100|0|0],start
4000,1.6982940435409546,1.1953938007354736,0.0,0.4145932793617248,0.8366649746894836,9.723618507385254,4.08984375,0,C1,6.1,0,270.0,0.0122588111787126,[10200|0|0],start
4100,1.69795024394989,1.1960378885269165,0.0,0.362099826335907,0.8019360899925232,9.71653652191162,4.08984375,0,C1,6.1,0,270.0,0.012988912022365,[10300|0|0],start
4200,1.697953224182129,1.1955976486206057,0.0,0.3701722323894501,0.8115037083625793,9.725767135620115,4.08984375,0,C1,6.1,0,270.0,0.0134291620159968,[10400|0|0],start
4300,1.6979104280471802,1.1957683563232422,0.0,0.3818129003047943,0.8126504421234131,9.7117338180542,4.08984375,0,C1,6.1,0,270.0,0.0136051524387645,[10500|0|0],start
4400,1.698074221611023,1.1952931880950928,0.0,0.4125509560108185,0.8172834515571594,9.70511531829834,4.08984375,0,C1,6.1,0,270.0,0.0141077588221293,[10600|0|0],start
4500,1.6980583667755127,1.1953980922698977,0.0,0.4217073619365692,0.8300566077232361,9.708288192749023,4.08984375,0,C1,6.1,0,270.0,0.0142138543531405,[10700|0|0],start
4600,1.6982511281967163,1.1956548690795898,0.0,0.4179700016975403,0.8301437497138977,9.702838897705078,4.08984375,0,C1,6.1,0,270.0,0.0145349326854834,[10800|0|0],start
4700,1.6981792449951172,1.1957181692123413,0.0,0.4144078195095062,0.8281445503234863,9.664583206176758,4.08984375,0,C1,6.1,0,270.0,0.0146307142154278,[10900|0|0],start
4800,1.6979578733444214,1.195478081703186,0.0,0.4221506714820862,0.8307055830955505,9.671489715576172,4.08984375,0,C1,6.1,0,270.0,0.0149572833808188,[11000|0|0],start
4900,1.6981269121170044,1.1960443258285522,0.0,0.4048699736595154,0.8234796524047852,9.70576000213623,4.08984375,0,C1,6.1,0,270.0,0.0155482203623559,[11100|0|0],start
5000,1.6984978914260864,1.195959448814392,0.0,0.4209135472774505,0.8144084811210632,9.716209411621094,4.08984375,0,C1,6.1,0,270.0,0.0159287854097522,[11200|0|0],start
5100,1.6982920169830322,1.1956679821014404,0.0,0.4337265491485595,0.8250274062156677,9.705161094665527,4.08984375,0,C1,6.1,0,270.0,0.0162856286961703,[11300|0|0],start
5200,1.697970271110535,1.195703148841858,0.0,0.3951074182987213,0.8014519810676575,9.709354400634766,4.08984375,0,C1,6.1,0,270.0,0.016609290720666,[11400|0|0],start
5300,1.6980763673782349,1.1955806016921997,0.0,0.3953343331813812,0.804185688495636,9.682572364807127,4.08984375,0,C1,6.1,0,270.0,0.0167713839713251,[11500|0|0],start
5400,1.6978634595870972,1.1955959796905518,0.0,0.4014327526092529,0.8075463771820068,9.68233871459961,4.08984375,0,C1,6.1,0,270.0,0.0169848464044613,[11600|0|0],start
5500,1.6981045007705688,1.1958364248275757,0.0,0.4034862816333771,0.7953940629959106,9.69938850402832,4.08984375,0,C1,6.1,0,270.0,0.0173253089076065,[11700|0|0],start
5600,1.6977379322052002,1.1954952478408811,0.0,0.4031470715999603,0.8090300559997559,9.70159149169922,4.08984375,0,C1,6.1,0,270.0,0.0178260825584373,[11800|0|0],start
5700,1.6981548070907593,1.1951535940170288,0.0,0.4122157990932464,0.7955909371376038,9.721747398376465,4.08984375,0,C1,6.1,0,270.0,0.018365074214739,[11900|0|0],start
5800,1.69805908203125,1.1953964233398438,0.0,0.4037958681583404,0.7998587489128113,9.729791641235352,4.08984375,0,C1,6.1,0,270.0,0.018626090243053,[12000|0|0],start
5900,1.6982975006103516,1.1955546140670776,0.0,0.4067905247211456,0.7951849699020386,9.723358154296877,4.08984375,0,C1,6.1,0,270.0,0.0189122156090092,[12100|0|0],start
6000,1.6981295347213743,1.1955621242523191,0.0,0.4031644463539123,0.7970448732376099,9.736510276794434,4.08984375,0,C1,6.1,0,270.0,0.0190803493139654,[12200|0|0],start
6100,1.6982109546661377,1.195334553718567,0.0,0.4037006497383117,0.7944862246513367,9.76112461090088,4.08984375,0,C1,6.1,0,270.0,0.019322046552753,[12300|0|0],start
6200,1.6981433629989624,1.1954429149627686,0.0,0.413116842508316,0.8037258982658386,9.764853477478027,4.08984375,0,C1,6.1,0,270.0,0.0194497602666465,[12400|0|0],start
6300,1.6982766389846802,1.1956062316894531,0.0,0.4107861816883087,0.8041484355926514,9.756669998168944,4.08984375,0,C1,6.1,0,270.0,0.0196605560009107,[12500|0|0],start
6400,1.6978399753570557,1.1955959796905518,0.0,0.417656272649765,0.8142223358154297,9.780475616455078,4.08984375,0,C1,6.1,0,270.0,0.0200973399602907,[12600|0|0],start
6500,1.6983567476272583,1.1955674886703491,0.0,0.4195335507392883,0.8052152395248413,9.757563591003418,4.08984375,0,C1,6.1,0,270.0,0.0206148970271757,[12700|0|0],start
6600,1.6978676319122314,1.1952720880508425,0.0,0.4242697060108185,0.8226311206817627,9.751779556274414,4.08984375,0,C1,6.1,0,270.0,0.0211862950571785,[12800|0|0],start
6700,1.698181390762329,1.1956669092178345,0.0,0.4089647233486175,0.8121589422225952,9.721233367919922,4.08984375,0,C1,6.1,0,270.0,0.0216906048527601,[12900|0|0],start
6800,1.6981736421585083,1.1955711841583252,0.0,0.4098908007144928,0.8193366527557373,9.711773872375488,4.08984375,0,C1,6.1,0,270.0,0.021786643011214,[13000|0|0],start
6900,1.6983715295791626,1.1954208612442017,0.0,0.4155726134777069,0.8202962875366211,9.716073989868164,4.08984375,0,C1,6.1,0,270.0,0.0220351513808192,[13100|0|0],start
7000,1.6981271505355835,1.1954801082611084,0.0,0.409864217042923,0.8305152058601379,9.722386360168455,4.08984375,0,C1,6.1,0,270.0,0.0222866097788754,[13200|0|0],start
7100,1.698028802871704,1.195476770401001,0.0,0.4061383903026581,0.8276322484016418,9.733969688415527,4.08984375,0,C1,6.1,0,270.0,0.0223850140689273,[13300|0|0],start
7200,1.698219895362854,1.1954281330108645,0.0,0.4061963558197021,0.8207496404647827,9.724870681762695,4.08984375,0,C1,6.1,0,270.0,0.0225821990985142,[13400|0|0],start
7300,1.6979550123214722,1.1959384679794312,0.0,0.3917604982852936,0.8209041953086853,9.720260620117188,4.08984375,0,C1,6.1,0,270.0,0.0231571815380318,[13500|0|0],start
7400,1.6981425285339355,1.1956695318222046,0.0,0.4053097069263458,0.8255159258842468,9.70966625213623,4.08984375,0,C1,6.1,0,270.0,0.0234850366685398,[13600|0|0],start
7500,1.6985450983047483,1.195602536201477,0.0,0.3612739741802215,0.7760786414146423,9.740801811218262,4.08984375,0,C1,6.1,0,270.0,0.0238931430683535,[13700|0|0],start
7600,1.6979435682296753,1.195304036140442,0.0,0.3807671964168548,0.8053167462348938,9.737043380737305,4.08984375,0,C1,6.1,0,270.0,0.0245646642650817,[13800|0|0],start
7700,1.6979408264160156,1.1957166194915771,0.0,0.3741883635520935,0.8005951046943665,9.7268648147583,4.08984375,0,C1,6.1,0,270.0,0.0249772567264478,[13900|0|0],start
7800,1.697954773902893,1.1954424381256104,0.0,0.3889614939689636,0.7986188530921936,9.708672523498535,4.08984375,0,C1,6.1,0,270.0,0.0252517926145092,[14000|0|0],start
7900,1.6980174779891968,1.195706486701965,0.0,0.3877812325954437,0.8024523258209229,9.705008506774902,4.08984375,0,C1,6.1,0,270.0,0.02552318431135,[14100|0|0],start
8000,1.698165774345398,1.1956897974014282,0.0,0.3927081227302551,0.7989609241485596,9.702516555786133,4.08984375,0,C1,6.1,0,270.0,0.0256724168212631,[14200|0|0],start
8100,1.6979258060455322,1.195544719696045,0.0,0.4033105969429016,0.8110219836235046,9.72715663909912,4.08984375,0,C1,6.1,0,270.0,0.0259528313814053,[14300|0|0],start
8200,1.6979610919952393,1.1955353021621704,0.0,0.417166143655777,0.8196617364883423,9.760530471801758,4.08984375,0,C1,6.1,0,270.0,0.0259893524464363,[14400|0|0],start
8300,1.6981967687606812,1.1957069635391235,0.0,0.4202245473861694,0.8209487199783325,9.730242729187012,4.08984375,0,C1,6.1,0,270.0,0.0262809191902646,[14500|0|0],start
8400,1.69789719581604,1.1953654289245603,0.0,0.4327250719070434,0.8311494588851929,9.742972373962402,4.08984375,0,C1,6.1,0,270.0,0.0267352206783821,[14600|0|0],start
8500,1.696139574050903,1.1940213441848757,0.0,0.4799940288066864,0.8941636085510254,9.749430656433104,4.08984375,0,C1,6.1,0,270.0,0.0289478657146986,[14700|0|0],start
8600,1.696099042892456,1.194311022758484,0.0,0.480704516172409,0.8915806412696838,9.736089706420898,4.08984375,0,C1,6.1,0,270.0,0.0292403660579682,[14800|0|0],start
8700,1.6982227563858032,1.1952975988388062,0.0,0.4434327185153961,0.8280658721923828,9.750720977783203,4.08984375,0,C1,6.1,0,270.0,0.031582051639785,[14900|0|0],start
8800,1.696420669555664,1.193655014038086,0.0,0.4678206443786621,0.8658967018127441,9.750240325927734,4.08984375,0,C1,6.1,0,270.0,0.0340204121075826,[15000|0|0],start
8900,1.696144461631775,1.193833827972412,0.0,0.4646789133548736,0.8817451596260071,9.741400718688965,4.0859375,0,C1,6.1,0,270.0,0.0343494489449251,[15100|0|0],start
9000,1.6962486505508425,1.1938059329986572,0.0,0.4701671004295349,0.8808738589286804,9.73048973083496,4.08984375,0,C1,6.1,0,270.0,0.0344573074652991,[15200|0|0],start
9100,1.6959552764892578,1.1940767765045166,0.0,0.441108226776123,0.8708133697509766,9.720819473266602,4.08984375,0,C1,6.1,0,270.0,0.0348565874982044,[15300|0|0],start
9200,1.6961697340011597,1.1942073106765747,0.0,0.4525679349899292,0.8706634640693665,9.732882499694824,4.08984375,0,C1,6.1,0,270.0,0.0351076476393779,[15400|0|0],start
9300,1.6959413290023804,1.193559646606445,0.0,0.4664795398712158,0.8846537470817566,9.73149585723877,4.08984375,0,C1,6.1,0,270.0,0.0357944063970244,[15500|0|0],start
9400,1.6960617303848269,1.1935744285583496,0.0,0.4647426009178161,0.8851479887962341,9.704181671142578,4.08984375,0,C1,6.1,0,270.0,0.0359157117926057,[15600|0|0],start
9500,1.695974349975586,1.1937322616577148,0.0,0.460184782743454,0.8896344304084778,9.697747230529783,4.08984375,0,C1,6.1,0,270.0,0.0360961186194565,[15700|0|0],start
9600,1.6960551738739014,1.1937330961227417,0.0,0.4638123512268066,0.8883907198905945,9.699031829833984,4.08984375,0,C1,6.1,0,270.0,0.0361769468253674,[15800|0|0],start
9700,1.696104645729065,1.1937600374221802,0.0,0.4667506217956543,0.8898008465766907,9.726183891296388,4.08984375,0,C1,6.1,0,270.0,0.0362332788594933,[15900|0|0],start
9800,1.695834994316101,1.1936169862747192,0.0,0.4742631912231445,0.8961319923400879,9.747021675109863,4.0859375,0,C1,6.1,0,270.0,0.0365385255061633,[16000|0|0],start
9900,1.6963974237442017,1.193605661392212,0.0,0.4803519248962402,0.8768479228019714,9.719490051269531,4.08984375,0,C1,6.1,0,270.0,0.0371010689396486,[16100|0|0],start
10000,1.6961631774902344,1.193678855895996,0.0,0.4745874404907226,0.8744588494300842,9.714305877685549,4.08984375,0,C1,6.1,0,270.0,0.0373464843892069,[16200|0|0],start
10100,1.695921778678894,1.1938778162002563,0.0,0.4789910018444061,0.8936147689819336,9.69412899017334,4.0859375,0,C1,6.1,0,270.0,0.0376593079637467,[16300|0|0],start
10201,1.6980355978012085,1.1981940269470217,0.0,0.4190491735935211,0.7757300734519958,9.463227272033691,4.08984375,0,C1,6.1,0,270.0,0.0424653361047749,[16400|0|0],start
10301,1.6964218616485596,1.193642258644104,0.0,0.574200451374054,0.8717174530029297,9.327348709106444,4.08984375,0,C1,6.1,0,270.0,0.047294698283553,[16500|0|0],start
10401,1.6975140571594238,1.196848750114441,0.0,0.4819068908691406,0.8233296871185303,9.311420440673828,4.08984375,0,C1,6.1,0,270.0,0.0506820982574704,[16600|0|0],start
10502,1.6966638565063477,1.1932388544082642,0.0,0.5791852474212646,0.8623961806297302,9.371932983398438,4.08984375,0,C1,6.1,0,270.0,0.0543907621893958,[16700|0|0],start
10601,1.6986055374145508,1.195473074913025,0.0,0.4714919924736023,0.8281201720237732,9.465435028076172,4.0859375,0,C1,6.1,0,270.0,0.0573508071237125,[16800|0|0],start
10701,1.6964313983917236,1.193140149116516,0.0,0.4802784919738769,0.8778038024902344,9.542550086975098,4.0859375,0,C1,6.1,0,270.0,0.0605397604414324,[16900|0|0],start
10801,1.6963130235671997,1.1933614015579224,0.0,0.4556730985641479,0.897881031036377,9.590001106262209,4.08984375,0,C1,6.1,0,270.0,0.060790689200066,[17000|0|0],start
10902,1.6958893537521362,1.1935064792633057,0.0,0.4383363127708435,0.9120951890945436,9.646900177001951,4.08984375,0,C1,6.1,0,270.0,0.0612385102053742,[17100|0|0],start
11002,1.6963061094284058,1.193902611732483,0.0,0.4230229258537292,0.9053570032119752,9.658122062683104,4.08984375,0,C1,6.1,0,270.0,0.0618134938806549,[17200|0|0],start
11101,1.6963541507720947,1.1936393976211548,0.0,0.4328812062740326,0.9060850739479064,9.639972686767578,4.08984375,0,C1,6.1,0,270.0,0.0620810562829197,[17300|0|0],start
11202,1.6960368156433103,1.1940503120422363,0.0,0.4159902334213257,0.9122260212898254,9.638025283813477,4.08984375,0,C1,6.1,0,270.0,0.0626002404943643,[17400|0|0],start
11302,1.69611394405365,1.1937636137008667,0.0,0.4031710028648376,0.8869083523750305,9.652016639709473,4.08984375,0,C1,6.1,0,270.0,0.0628971322770489,[17500|0|0],start
11400,1.69636070728302,1.1937603950500488,0.0,0.411199688911438,0.8801177740097046,9.665514945983888,4.08984375,0,C1,6.1,0,270.0,0.0631439164967272,[17600|0|0],start
11502,1.695862054824829,1.1938574314117432,0.0,0.4088470637798309,0.8927711248397827,9.690669059753418,4.0859375,0,C1,6.1,0,270.0,0.0636519227265618,[17700|0|0],start
11602,1.6962621212005615,1.1937729120254517,0.0,0.4157543778419494,0.8780022263526917,9.700515747070312,4.0859375,0,C1,6.1,0,270.0,0.0640608195737626,[17800|0|0],start
11702,1.6960434913635254,1.193716526031494,0.0,0.4220356941223144,0.8791105151176453,9.68768310546875,4.0859375,0,C1,6.1,0,270.0,0.0642866035102086,[17900|0|0],start
11800,1.6958277225494385,1.1936416625976562,0.0,0.4303829967975616,0.8797077536582947,9.688092231750488,4.0859375,0,C1,6.1,0,270.0,0.0645149907140061,[18000|0|0],start
11900,1.6959372758865356,1.193878173828125,0.0,0.4254615306854248,0.8733519911766052,9.70545768737793,4.0859375,0,C1,6.1,0,270.0,0.0647756427729026,[18100|0|0],start
12000,1.6960654258728027,1.1935073137283323,0.0,0.4430921971797943,0.8695523738861084,9.731922149658203,4.08984375,0,C1,6.1,0,270.0,0.0651680196741066,[18200|0|0],start
12100,1.696291446685791,1.1939617395401,0.0,0.4423171877861023,0.8714547157287598,9.739593505859377,4.0859375,0,C1,6.1,0,270.0,0.0656755511768774,[18300|0|0],start
12200,1.6962746381759644,1.1938230991363523,0.0,0.4584660828113556,0.8720345497131348,9.72215461730957,4.0859375,0,C1,6.1,0,270.0,0.065815206780252,[18400|0|0],start
12300,1.696011304855347,1.1938713788986206,0.0,0.4667095839977264,0.885850191116333,9.740248680114746,4.08984375,0,C1,6.1,0,270.0,0.0660829293478329,[18500|0|0],start
12400,1.6964986324310305,1.1937456130981443,0.0,0.4501442313194275,0.8400912880897522,9.732739448547363,4.0859375,0,C1,6.1,0,270.0,0.0665862236976831,[18600|0|0],start
12500,1.6962265968322754,1.1935958862304688,0.0,0.4655407071113586,0.8586245179176331,9.744633674621582,4.08984375,0,C1,6.1,0,270.0,0.0668967418161464,[18700|0|0],start
12600,1.6959925889968872,1.193669080734253,0.0,0.4704259037971496,0.8687071800231934,9.746006965637209,4.08984375,0,C1,6.1,0,270.0,0.067141929708195,[18800|0|0],start
12700,1.696076512336731,1.193569302558899,0.0,0.4785156548023224,0.8721827268600464,9.739352226257324,4.08984375,0,C1,6.1,0,270.0,0.0672723091975617,[18900|0|0],start
12800,1.6963016986846924,1.1937007904052734,0.0,0.4699128866195678,0.866717517375946,9.737523078918455,4.0859375,0,C1,6.1,0,270.0,0.0675330733535579,[19000|0|0],start
12900,1.696458101272583,1.1937696933746338,0.0,0.4608807563781738,0.8698535561561584,9.749871253967283,4.08984375,0,C1,6.1,0,270.0,0.0677039808978195,[19100|0|0],start
13000,1.6961575746536257,1.1935168504714966,0.0,0.4653720259666443,0.8765001893043518,9.742891311645508,4.08984375,0,C1,6.1,0,270.0,0.0680967222661127,[19200|0|0],start
13100,1.6962965726852417,1.1937518119812012,0.0,0.4616479873657226,0.8652826547622681,9.718450546264648,4.08984375,0,C1,6.1,0,270.0,0.0683697192694584,[19300|0|0],start
13200,1.6963330507278442,1.193994164466858,0.0,0.4595147669315338,0.8653197884559631,9.705897331237791,4.08984375,0,C1,6.1,0,270.0,0.0686148016533544,[19400|0|0],start
13300,1.6962785720825195,1.19403874874115,0.0,0.4368070363998413,0.8482229113578796,9.695823669433594,4.08984375,0,C1,6.1,0,270.0,0.0686851982463867,[19500|0|0],start
13400,1.696237325668335,1.193964958190918,0.0,0.4416438937187195,0.8552659749984741,9.693028450012209,4.0859375,0,C1,6.1,0,270.0,0.06876973410852,[19600|0|0],start
13500,1.696153998374939,1.1940642595291138,0.0,0.4417350590229034,0.8661155104637146,9.708136558532717,4.08984375,0,C1,6.1,0,270.0,0.0688993650986118,[19700|0|0],start
13600,1.6987252235412598,1.196851134300232,0.0,0.4193140864372253,0.781944215297699,9.614002227783203,4.08984375,0,C1,6.1,0,270.0,0.0726911812658088,[19800|0|0],start
13700,1.6987228393554688,1.1981536149978638,0.0,0.4608128666877746,0.765689492225647,9.495855331420898,4.08984375,0,C1,6.1,0,270.0,0.0739936641455601,[19900|0|0],start
13800,1.698003172874451,1.1978405714035034,0.0,0.519102931022644,0.8002158403396606,9.394216537475586,4.08984375,0,C1,6.1,0,270.0,0.0747784673921581,[20000|0|0],start
13900,1.6999129056930542,1.196758270263672,0.0,0.5814386606216431,0.7876203656196594,9.318903923034668,4.08984375,0,C1,6.1,0,270.0,0.0769735653844424,[20100|0|0],start
14000,1.7004177570343018,1.1973307132720947,0.0,0.572704553604126,0.7840104699134827,9.242897033691406,4.08984375,0,C1,6.1,0,270.0,0.077736825415265,[20200|0|0],start
14100,1.6966450214385986,1.1932923793792725,0.0,0.6022396087646484,0.9172613620758056,9.33887767791748,4.08984375,0,C1,6.1,0,270.0,0.0832632776682934,[20300|0|0],start
14200,1.6964106559753418,1.193183660507202,0.0,0.563035786151886,0.9413872957229614,9.451090812683104,4.0859375,0,C1,6.1,0,270.0,0.0835216320054195,[20400|0|0],start
14300,1.696352243423462,1.193224310874939,0.0,0.5079428553581238,0.951911687850952,9.515113830566406,4.08984375,0,C1,6.1,0,270.0,0.0835927971556988,[20500|0|0],start
14400,1.69621741771698,1.1932947635650637,0.0,0.4341475963592529,0.929774820804596,9.570711135864258,4.08984375,0,C1,6.1,0,270.0,0.083744920634078,[20600|0|0],start
14500,1.6961790323257446,1.1935856342315674,0.0,0.4099185168743133,0.9385348558425904,9.642105102539062,4.08984375,0,C1,6.1,0,270.0,0.0840383131746999,[20700|0|0],start
14600,1.6960349082946775,1.1934971809387207,0.0,0.3813657164573669,0.9170442819595336,9.669797897338867,4.08984375,0,C1,6.1,0,270.0,0.0842074158693752,[20800|0|0],start
14700,1.6962544918060305,1.1934491395950315,0.0,0.3835173845291137,0.915868639945984,9.68319034576416,4.08984375,0,C1,6.1,0,270.0,0.0844321932907537,[20900|0|0],start
14800,1.696047306060791,1.1936111450195312,0.0,0.3806489109992981,0.9154223203659058,9.67051124572754,4.08984375,0,C1,6.1,0,270.0,0.0846951984059089,[21000|0|0],start
14900,1.6959835290908811,1.1934494972229004,0.0,0.3860283195972442,0.913291335105896,9.700304985046388,4.0859375,0,C1,6.1,0,270.0,0.0848689727194494,[21100|0|0],start
15000,1.6962240934371948,1.1934648752212524,0.0,0.3872686922550201,0.9067513346672058,9.698573112487791,4.08984375,0,C1,6.1,0,270.0,0.085110028081453,[21200|0|0],start
15100,1.6961936950683594,1.1935489177703855,0.0,0.3891431093215942,0.8982552289962769,9.707003593444824,4.08984375,0,C1,6.1,0,270.0,0.0851993992786736,[21300|0|0],start
15200,1.69609534740448,1.1935354471206665,0.0,0.3990429937839508,0.8939058780670166,9.723276138305664,4.0859375,0,C1,6.1,0,270.0,0.0852986651912236,[21400|0|0],start
15300,1.6960163116455078,1.1937521696090698,0.0,0.4114934206008911,0.8958533406257629,9.744956016540527,4.08984375,0,C1,6.1,0,270.0,0.085529349582061,[21500|0|0],start
15400,1.6961089372634888,1.1937661170959473,0.0,0.4187299311161041,0.8967596888542175,9.740894317626951,4.0859375,0,C1,6.1,0,270.0,0.0856230194144327,[21600|0|0],start
15500,1.696149468421936,1.193727731704712,0.0,0.432007372379303,0.9007160067558289,9.732441902160645,4.0859375,0,C1,6.1,0,270.0,0.0856788424658127,[21700|0|0],start
15600,1.6963236331939695,1.1938767433166504,0.0,0.4138473570346832,0.8656764030456543,9.731931686401367,4.08984375,0,C1,6.1,0,270.0,0.085908053783836,[21800|0|0],start
15700,1.6959189176559448,1.1943316459655762,0.0,0.4158065319061279,0.8887197971343994,9.7390775680542,4.0859375,0,C1,6.1,0,270.0,0.0865169306898838,[21900|0|0],start
15800,1.6960505247116089,1.193758487701416,0.0,0.4417351484298706,0.8886170983314514,9.731831550598145,4.0859375,0,C1,6.1,0,270.0,0.0871050045057229,[22000|0|0],start
15900,1.696251392364502,1.1935031414031982,0.0,0.454523891210556,0.8794621229171753,9.74970817565918,4.0859375,0,C1,6.1,0,270.0,0.0874298884018955,[22100|0|0],start
16000,1.6961477994918823,1.193415641784668,0.0,0.4559358656406402,0.8900889754295349,9.74044418334961,4.08984375,0,C1,6.1,0,270.0,0.087565489532055,[22200|0|0],start
16100,1.6962602138519287,1.1936229467391968,0.0,0.4578113853931427,0.8738431930541992,9.716474533081056,4.0859375,0,C1,6.1,0,270.0,0.0878013122038167,[22300|0|0],start
16200,1.6961334943771362,1.1940973997116089,0.0,0.4301398396492004,0.8543767929077148,9.72898006439209,4.08984375,0,C1,6.1,0,270.0,0.0882923961562346,[22400|0|0],start
16300,1.6963001489639282,1.1932662725448608,0.0,0.462879329919815,0.8637281060218811,9.722956657409668,4.08984375,0,C1,6.1,0,270.0,0.0891400671529105,[22500|0|0],start
16400,1.6961157321929932,1.1937624216079712,0.0,0.45467409491539,0.8717725872993469,9.741833686828612,4.0859375,0,C1,6.1,0,270.0,0.0896693812734735,[22600|0|0],start
16500,1.6963186264038086,1.19378399848938,0.0,0.4604848325252533,0.8642195463180542,9.740431785583496,4.08984375,0,C1,6.1,0,270.0,0.0898734195605515,[22700|0|0],start
16600,1.6963117122650146,1.1936278343200684,0.0,0.462861031293869,0.8677506446838379,9.741945266723633,4.08984375,0,C1,6.1,0,270.0,0.0900297367160147,[22800|0|0],start
16700,1.6962854862213137,1.1934754848480225,0.0,0.4664938449859619,0.8720982074737549,9.763914108276367,4.0859375,0,C1,6.1,0,270.0,0.0901843270358956,[22900|0|0],start
16800,1.6961225271224976,1.1938689947128296,0.0,0.4528414607048034,0.8748184442520142,9.787150382995604,4.0859375,0,C1,6.1,0,270.0,0.090610244494551,[23000|0|0],start
16900,1.696146011352539,1.1939548254013062,0.0,0.4609376788139343,0.8859174251556396,9.782102584838867,4.0859375,0,C1,6.1,0,270.0,0.0906992299773277,[23100|0|0],start
17000,1.696492314338684,1.193539023399353,0.0,0.4751754999160766,0.8778622150421143,9.763010025024414,4.0859375,0,C1,6.1,0,270.0,0.0912403557141405,[23200|0|0],start
17100,1.6964983940124512,1.1937031745910645,0.0,0.4714689254760742,0.880297064781189,9.735645294189451,4.08984375,0,C1,6.1,0,270.0,0.0914046194538197,[23300|0|0],start
17200,1.6964560747146606,1.1936242580413818,0.0,0.4737287163734436,0.8837291598320007,9.748372077941896,4.0859375,0,C1,6.1,0,270.0,0.091494166898112,[23400|0|0],start
17300,1.6964761018753052,1.1935018301010132,0.0,0.4566082656383514,0.8554658889770508,9.759422302246094,4.0859375,0,fly,6.1,0,270.0,0.0916182220783601,[23400|0|0],fly
17400,1.6957522630691528,1.1940209865570068,0.0,0.6325876712799072,1.069404363632202,10.175660133361816,2.908203125,0,fly,6.1,0,270.0,0.0925089891877058,[23400|0|0],fly
17500,1.695532202720642,1.194818139076233,0.0,-1.019184708595276,1.89760172367096,10.680849075317385,3.134765625,0,fly,6.1,0,270.0,0.0933359587735402,[23400|0|0],fly
17600,1.6917420625686646,1.2014894485473633,0.0,-2.4926891326904297,4.580124378204346,8.769966125488281,3.39453125,0,fly,6.1,0,270.0,0.1010087374378329,[23400|0|0],fly
17700,1.6836220026016235,1.212765336036682,0.0619558691978454,0.2544434070587158,1.2318893671035769,5.940959453582764,3.478515625,0,fly,6.1,0,270.0,0.1645037036997394,[23400|0|0],fly
17800,1.6743662357330322,1.2242478132247925,0.1398316919803619,2.14082670211792,-1.08894145488739,2.9650323390960693,3.494140625,0,fly,6.1,0,270.0,0.2437637836691358,[23400|0|0],fly
17900,1.6707897186279297,1.2289308309555054,0.2240082025527954,3.3799965381622314,-2.6877312660217285,1.055697321891785,3.53125,0,fly,6.1,0,270.0,0.3281462881461912,[23400|0|0],fly
18000,1.6708605289459229,1.2345026731491089,0.300637274980545,2.372640371322632,-1.9578016996383667,-0.3929562568664551,3.578125,0,fly,6.1,0,270.0,0.4049776956607542,[23400|0|0],fly
18100,1.674680471420288,1.2366876602172852,0.3679487705230713,1.928890824317932,-0.8667219877243042,-0.9170411825180054,3.57421875,0,fly,6.1,0,270.0,0.4724328923557983,[23400|0|0],fly
18200,1.6804423332214355,1.238011360168457,0.4239008128643036,2.1554057598114014,0.092232622206211,-1.2796696424484253,3.5625,0,fly,6.1,0,270.0,0.5286963998462784,[23400|0|0],fly
18300,1.6855329275131226,1.238724708557129,0.4704186916351318,1.7681021690368652,1.1778497695922852,-1.218585968017578,3.5625,0,fly,6.1,0,270.0,0.5754974261331414,[23400|0|0],fly
18400,1.689448595046997,1.236055612564087,0.5048648715019226,1.7487035989761353,1.8318960666656487,-1.353909254074097,3.546875,0,fly,6.1,0,270.0,0.6102680435143616,[23400|0|0],fly
18500,1.689724326133728,1.2343873977661133,0.5371822118759155,1.140644073486328,1.6186537742614746,-1.460187911987305,3.53125,0,fly,6.1,0,270.0,0.6426295863869269,[23400|0|0],fly
18600,1.6876718997955322,1.2305574417114258,0.5604543089866638,0.942687690258026,1.4476782083511353,-1.6080594062805176,3.53125,0,fly,6.1,0,270.0,0.6663038661264808,[23400|0|0],fly
18700,1.6842777729034424,1.2252048254013062,0.5804579257965088,0.0210036858916282,0.7680755853652954,-0.8579337000846863,3.521484375,0,fly,6.1,0,270.0,0.6872875570362822,[23400|0|0],fly
18800,1.680011510848999,1.2218017578125,0.5953990817070007,0.4106875658035278,0.1297983527183532,0.4216884970664978,3.515625,0,fly,6.1,0,270.0,0.7031941594664932,[23400|0|0],fly
18900,1.6773309707641602,1.217178225517273,0.6078413128852844,1.015870451927185,-0.2141652852296829,1.9662203788757324,3.515625,0,fly,6.1,0,270.0,0.7167356314221297,[23400|0|0],fly
19000,1.6757168769836426,1.212002873420715,0.6187641024589539,1.1070207357406616,-0.2852328717708587,3.449225187301636,3.515625,0,fly,6.1,0,270.0,0.7289297652628874,[23400|0|0],fly
19100,1.6756170988082886,1.2038068771362305,0.627166211605072,1.0795632600784302,-0.5729662775993347,3.8661725521087646,3.505859375,0,fly,6.1,0,270.0,0.7406677271337936,[23400|0|0],fly
19200,1.6767350435256958,1.1935439109802246,0.6334347724914551,-0.097354769706726,-0.1456466764211654,4.003997325897217,3.505859375,0,fly,6.1,0,270.0,0.752745522060716,[23400|0|0],fly
19300,1.678348422050476,1.1839677095413208,0.6370280385017395,-1.2052056789398191,0.6053256988525391,3.885390043258667,3.494140625,0,fly,6.1,0,270.0,0.7631001434870817,[23400|0|0],fly
19400,1.6789740324020386,1.1750526428222656,0.6414327025413513,-1.6337661743164062,0.8623458743095398,3.228223323822021,3.5,0,fly,6.1,0,270.0,0.7730636202005104,[23400|0|0],fly
19500,1.678264617919922,1.167671799659729,0.6444642543792725,-2.0137977600097656,0.9160561561584472,3.305327177047729,3.5,0,fly,6.1,0,270.0,0.7810742644469743,[23400|0|0],fly
19600,1.6759374141693115,1.1639269590377808,0.6473758220672607,-1.5279923677444458,0.6679536700248718,3.165867328643799,3.5,0,fly,6.1,0,270.0,0.7863579123328943,[23400|0|0],fly
19700,1.6719783544540403,1.161247730255127,0.6504888534545898,-1.0929299592971802,0.1939528584480285,2.620158433914185,3.5,0,fly,6.1,0,270.0,0.7920625933158574,[23400|0|0],fly
19800,1.667920708656311,1.1591787338256836,0.6525088548660278,-0.6581482887268066,-0.4414774477481842,1.4596209526062012,3.48828125,0,fly,6.1,0,270.0,0.7970451269431489,[23400|0|0],fly
19900,1.664384365081787,1.1562035083770752,0.6542863845825195,-0.3362887799739837,-0.2893620133399963,0.1473483592271804,3.48828125,0,fly,6.1,0,270.0,0.8019966220951342,[23400|0|0],fly
20000,1.6597745418548584,1.153689980506897,0.6558099389076233,-0.888598620891571,0.0794712379574775,-1.2644680738449097,3.494140625,0,fly,6.1,0,270.0,0.8074637520843733,[23400|0|0],fly
20100,1.6546882390975952,1.1519430875778198,0.6579545140266418,-1.2934406995773315,0.2252294272184372,-2.522665977478028,3.5,0,fly,6.1,0,270.0,0.8132535114131637,[23400|0|0],fly
20200,1.6493185758590698,1.1503639221191406,0.6607129573822021,-1.899654746055603,-0.2415291368961334,-3.2113230228424072,3.5,0,fly,6.1,0,270.0,0.819493387741016,[23400|0|0],fly
20300,1.643439769744873,1.1509355306625366,0.6636103391647339,-2.1767373085021973,-0.3057301640510559,-3.279761791229248,3.5,0,fly,6.1,0,155.0,0.8260722872575725,[23400|0|0],fly
20400,1.6376982927322388,1.1543177366256714,0.6678693890571594,1.1486517190933228,2.686546564102173,-4.472686290740967,3.224609375,0,fly,6.1,0,155.0,0.8339807246158527,[23400|0|0],fly
20500,1.6216343641281128,1.1540071964263916,0.6873230338096619,11.038565635681152,16.02196502685547,-6.224013328552246,3.2578125,0,fly,6.1,0,155.0,0.8592114703751519,[23400|0|0],fly
20600,1.5718969106674194,1.1346068382263184,0.7292276620864868,18.16672706604004,20.317842483520508,-6.778437614440918,3.298828125,0,fly,6.1,0,155.0,0.9270803590213104,[23400|0|0],fly
20700,1.4819401502609253,1.0844835042953491,0.7900657653808594,13.152226448059082,13.273276329040527,-4.425899982452393,3.310546875,0,fly,6.1,0,155.0,1.0466873912545516,[23400|0|0],fly
20800,1.365447759628296,1.0135291814804075,0.8741689324378967,1.9928683042526243,2.84023380279541,-3.799603223800659,3.39453125,0,fly,6.1,0,155.0,1.2069320033650872,[23400|0|0],fly
20900,1.245076060295105,0.9415755867958068,0.9778236150741576,-3.874600887298584,-1.2956618070602417,-4.413674354553223,3.46875,0,fly,6.1,0,155.0,1.381319385422448,[23400|0|0],fly
21000,1.1323626041412354,0.8797553181648254,1.0890498161315918,-6.624858856201172,-2.978670835494995,-4.420835018157959,3.55859375,0,fly,6.1,0,155.0,1.5513115517520344,[23400|0|0],fly
21100,1.029076099395752,0.8315212726593018,1.1937105655670166,-8.525874137878418,-5.131209850311279,-4.239287376403809,3.59375,0,fly,6.1,0,155.0,1.706064573308166,[23400|0|0],fly
21200,0.9362852573394777,0.7962563037872314,1.276838779449463,-8.205585479736328,-7.155674934387207,-2.524548292160034,3.59375,0,fly,6.1,0,155.0,1.835540665087097,[23400|0|0],fly
21300,0.8542332649230957,0.7743207216262817,1.3405827283859253,-7.9509358406066895,-9.176581382751465,-3.844458818435669,3.55859375,0,fly,6.1,0,155.0,1.941733839303956,[23400|0|0],fly
21400,0.7859333753585815,0.7609789371490479,1.3831558227539062,-4.999208927154541,-10.992964744567873,-1.5769572257995603,3.53125,0,fly,6.1,0,155.0,2.0233141463126136,[23400|0|0],fly
21500,0.7323471307754517,0.7531312704086304,1.4114062786102295,-3.711061477661133,-10.007421493530272,0.7092224955558777,3.521484375,0,fly,6.1,0,155.0,2.084397366085983,[23400|0|0],fly
21600,0.6927347183227539,0.7512660622596741,1.4282430410385132,-2.299601554870605,-9.866085052490234,0.8482189774513245,3.494140625,0,fly,6.1,0,155.0,2.1274798310900658,[23400|0|0],fly
21700,0.6665100455284119,0.7528236508369446,1.4374300241470337,-0.8682168126106262,-8.179640769958496,1.044910192489624,3.484375,0,fly,6.1,0,155.0,2.15531075281362,[23400|0|0],fly
21800,0.6490969657897949,0.752317488193512,1.44413161277771,-0.0399721451103687,-6.026670932769775,1.4050692319869995,3.494140625,0,fly,6.1,0,155.0,2.1739757692020363,[23400|0|0],fly
21900,0.6392700672149658,0.7536697387695312,1.450498104095459,-0.4480659365653991,-3.807788372039795,1.486408829689026,3.484375,0,fly,6.1,0,155.0,2.1857625723699567,[23400|0|0],fly
22000,0.6326448917388916,0.7547466158866882,1.452824950218201,-0.8397548794746399,-2.628468036651612,1.0998972654342651,3.48828125,0,fly,6.1,0,155.0,2.1928665731648014,[23400|0|0],fly
22100,0.6277108192443848,0.757310688495636,1.4519370794296265,-0.4404545128345489,-1.8616373538970947,0.4580097794532776,3.48828125,0,fly,6.1,0,155.0,2.1984975459282063,[23400|0|0],fly
22200,0.6242241263389587,0.7616736888885498,1.4507123231887815,-0.1617021560668945,-1.671988844871521,-0.355178564786911,3.484375,0,fly,6.1,0,155.0,2.2042153101498934,[23400|0|0],fly
22300,0.6211711764335632,0.7668613195419312,1.4455692768096924,0.1340736895799636,-1.6274210214614868,-1.1343846321105957,3.478515625,0,fly,6.1,0,155.0,2.2121325660493967,[23400|0|0],fly
22400,0.6197984218597412,0.7708223462104797,1.442066311836243,0.2623594105243683,-1.8948495388031008,-1.9186145067214968,3.478515625,0,fly,6.1,0,155.0,2.2175956193160338,[23400|0|0],fly
22500,0.6195440292358398,0.7747020721435547,1.4373236894607544,0.265384316444397,-2.0111334323883057,-2.8432085514068604,3.484375,0,fly,6.1,0,155.0,2.2237282741994715,[23400|0|0],fly
22600,0.6223999261856079,0.7769745588302612,1.4310976266860962,0.2026644349098205,-2.1230921745300293,-3.537630558013916,3.47265625,0,fly,6.1,0,155.0,2.2309452126641487,[23400|0|0],fly
22700,0.627835214138031,0.7779853343963623,1.4240376949310305,0.2974095344543457,-1.7169387340545654,-3.962752103805542,3.46875,0,fly,6.1,0,155.0,2.2399121886737614,[23400|0|0],fly
22800,0.6352111101150513,0.7781054973602295,1.4176994562149048,0.2569983005523681,-1.1645079851150513,-4.350420951843262,3.46875,0,fly,6.1,0,155.0,2.24963800743746,[23400|0|0],fly
22900,0.644116222858429,0.7781563997268677,1.4118504524230957,0.0585440509021282,-0.4103359878063202,-4.450684070587158,3.46875,0,fly,6.1,0,155.0,2.2602923243737907,[23400|0|0],fly
23000,0.6529992818832397,0.7773948907852173,1.4072645902633667,-0.4437667429447174,-0.0363457612693309,-4.129316329956055,3.47265625,0,fly,6.1,0,155.0,2.2703182290838164,[23400|0|0],fly
23100,0.6617224216461182,0.776964008808136,1.4022562503814695,-0.4164874851703644,0.3679758906364441,-3.4538064002990723,3.47265625,0,fly,6.1,0,155.0,2.280386113418347,[23400|0|0],fly
23200,0.6698791980743408,0.7765219211578369,1.3963911533355713,-0.1531584560871124,0.5057972073554993,-2.874490261077881,3.46875,0,fly,6.1,0,155.0,2.290442345642613,[23400|0|0],fly
23300,0.6756786704063416,0.7768669724464417,1.391209602355957,-0.0964211747050285,0.6831609010696411,-2.392876625061035,3.462890625,0,fly,6.1,0,270.0,2.2982270364056268,[23400|0|0],fly
23400,0.6806747317314148,0.7772077918052673,1.3845810890197754,0.1500576585531234,0.2372236102819442,-2.317012548446656,3.81640625,0,fly,6.1,0,270.0,2.3065345014610563,[23400|0|0],fly
23500,0.6871449947357178,0.7760814428329468,1.3495724201202393,1.000324249267578,-0.2209917604923248,-2.423484563827514,3.716796875,0,fly,6.1,0,270.0,2.3421538762937177,[23400|0|0],fly
23600,0.6908334493637085,0.7739655375480652,1.2776787281036377,0.4176872968673706,1.049355149269104,-2.0077598094940186,3.583984375,0,fly,6.1,0,270.0,2.414173211923084,[23400|0|0],fly
23700,0.6928490400314331,0.7725701928138733,1.1766496896743774,-0.2411841303110122,0.5313516855239868,-1.699207782745361,3.48828125,0,fly,6.1,0,270.0,2.515231987883453,[23400|0|0],fly
23800,0.6930261254310608,0.771030843257904,1.059451699256897,-1.093894600868225,1.050445318222046,-3.018758773803711,3.453125,0,fly,6.1,0,270.0,2.6324402210165823,[23400|0|0],fly
23900,0.6924104690551758,0.7702575325965881,0.9386906623840332,-0.7335076928138733,0.3163047730922699,-5.310895442962647,3.462890625,0,fly,6.1,0,270.0,2.753205303175132,[23400|0|0],fly
24000,0.6918636560440063,0.7720051407814026,0.8168191909790039,-1.9144989252090447,-0.5816266536712646,-7.490625381469727,3.462890625,0,fly,6.1,0,270.0,2.87509053066913,[23400|0|0],fly
24100,0.6925439834594727,0.7751378417015076,0.6981838345527649,0.563657820224762,0.0022761858999729,-9.410200119018556,3.47265625,0,fly,6.1,0,270.0,2.9937691911554527,[23400|0|0],fly
24200,0.6949938535690308,0.7778769731521606,0.5807847380638123,0.0990880504250526,-0.7485920190811157,-9.661092758178713,3.47265625,0,fly,6.1,0,270.0,3.1112257897826905,[23400|0|0],fly
24300,0.7013813853263855,0.7805323004722595,0.4626462459564209,-0.9092841148376464,-2.089384317398072,-8.68111515045166,3.453125,0,fly,6.1,0,270.0,3.2295666307571245,[23400|0|0],fly
24400,0.71136474609375,0.7862564325332642,0.3445473611354828,-1.2573684453964231,-0.7780945301055908,-7.468058586120605,3.373046875,0,fly,6.1,0,270.0,3.348224878578388,[23400|0|0],fly
24500,0.7257612943649292,0.792748212814331,0.2435587495565414,1.2618277072906494,-3.9242799282073975,-6.521264553070068,3.310546875,0,fly,6.1,0,270.0,3.450440843485952,[23400|0|0],fly
24600,0.7441142201423645,0.8031160235404968,0.1412301957607269,-0.0569713190197944,2.5243728160858154,-7.308764934539795,3.357421875,0,fly,6.1,0,270.0,3.554917895060872,[23400|0|0],fly
24700,0.7679125666618347,0.8093055486679077,0.0586260221898555,1.447800636291504,-2.443061590194702,-7.878805637359619,3.345703125,0,fly,6.1,0,270.0,3.641104442791305,[23400|0|0],fly
24800,0.7904869318008423,0.8144975304603577,0.0,2.032289981842041,11.425585746765137,-4.341025352478027,3.3515625,0,fly,6.1,0,270.0,3.704140695171724,[23400|0|0],fly
24900,0.8041849732398987,0.8326845169067383,0.0,-15.19505786895752,6.215832233428955,-0.4105309545993805,3.419921875,0,fly,6.1,0,270.0,3.7269091561488494,[23400|0|0],fly
25000,0.8017703890800476,0.8617348074913025,0.0,11.477170944213867,24.29483795166016,-1.4957884550094604,3.505859375,0,fly,6.1,0,270.0,3.7560596209772648,[23400|0|0],fly
25100,0.7717200517654419,0.8785493969917297,0.0,11.328513145446776,4.956307411193848,2.593525648117065,3.416015625,0,fly,6.1,0,270.0,3.790494388187012,[23400|0|0],fly
25200,0.7275834679603577,0.8726715445518494,0.0,16.790197372436523,2.180593013763428,3.8894271850585938,3.431640625,0,fly,6.1,0,270.0,3.835020640884586,[23400|0|0],fly
25300,0.6840988993644714,0.8441170454025269,0.0,7.538854122161865,-8.643509864807129,4.733673095703125,3.453125,0,fly,6.1,0,270.0,3.8870424356213977,[23400|0|0],fly
25400,0.6553419232368469,0.8035085201263428,0.0,4.463873386383057,-10.288497924804688,4.114408493041992,3.484375,0,fly,6.1,0,270.0,3.936802017624377,[23400|0|0],fly
25500,0.6441493034362793,0.7608367204666138,0.0126470411196351,-0.7500835061073303,-8.718037605285645,4.307305812835693,3.48828125,0,fly,6.1,0,270.0,3.982694335862639,[23400|0|0],fly
25600,0.6476384997367859,0.721376359462738,0.0216649193316698,-4.954847812652588,-6.416080951690674,5.088767528533936,3.48828125,0,fly,6.1,0,270.0,4.023322118337526,[23400|0|0],fly
25700,0.6598812937736511,0.697280764579773,0.0258911177515983,-5.733011245727539,-2.951396942138672,5.54161262512207,3.478515625,0,fly,6.1,0,270.0,4.05067800347542,[23400|0|0],fly
25800,0.6780185103416443,0.6809991598129272,0.0258806217461824,-5.918884754180908,-0.5398361086845398,4.693047046661377,3.462890625,0,fly,6.1,0,270.0,4.075051131891448,[23400|0|0],fly
25900,0.697851300239563,0.6752542853355408,0.0233110934495925,-5.8674492835998535,2.625272750854492,4.225767612457275,3.453125,0,fly,6.1,0,270.0,4.095858477074409,[23400|0|0],fly
26000,0.7120628952980042,0.6787300705909729,0.0212850701063871,-3.840951919555664,2.438665866851806,4.338809013366699,3.453125,0,fly,6.1,0,270.0,4.1106285579081145,[23400|0|0],fly
26100,0.7240275740623474,0.6900613307952881,0.0192664675414562,-2.48548436164856,3.213932514190674,4.333691596984863,3.453125,0,fly,6.1,0,270.0,4.127230538273931,[23400|0|0],fly
26200,0.7296757698059082,0.7018914222717285,0.0188028700649738,-0.5628982186317444,3.053166389465332,4.265932083129883,3.45703125,0,fly,6.1,0,270.0,4.140348011434519,[23400|0|0],fly
26300,0.7309803366661072,0.7193166017532349,0.0190207939594984,0.6922720074653625,2.7628986835479736,4.678399562835693,3.45703125,0,fly,6.1,0,270.0,4.157823315880486,[23400|0|0],fly
26400,0.728108823299408,0.7294088006019592,0.01944668777287,2.578726291656494,1.547160267829895,4.628592491149902,3.45703125,0,F1,6.1,0,270.0,4.1683247182705285,[23400|100|0],intermediate
26500,0.7224674224853516,0.7327553629875183,0.0204663518816232,2.5646393299102783,0.7026912569999695,3.906663417816162,3.46875,0,F1,6.1,0,270.0,4.174962835310771,[23400|200|0],intermediate
26600,0.7179681062698364,0.7360078692436218,0.0244037210941314,0.3303999900817871,-0.2544444501399994,2.619075059890747,3.462890625,0,F1,6.1,0,270.0,4.181769120616927,[23400|300|0],intermediate
26700,0.7111117243766785,0.7356752753257751,0.0266710557043552,-0.4058238267898559,-1.079403281211853,2.3137431144714355,3.46875,0,F1,6.1,0,270.0,4.188998325110766,[23400|400|0],intermediate
26800,0.7068387866020203,0.7361128330230713,0.0288297068327665,0.135306566953659,-0.9619768261909484,2.570931196212769,3.462890625,0,F1,6.1,0,270.0,4.193805531020518,[23400|500|0],intermediate
26900,0.7041516900062561,0.7354409098625183,0.0289400573819875,1.1339166164398191,-1.272881269454956,2.347433090209961,3.447265625,0,F1,6.1,0,270.0,4.196577560257803,[23400|600|0],intermediate
27000,0.7026122808456421,0.7323077321052551,0.0269415453076362,0.0313206687569618,0.2825919985771179,2.092747449874878,3.447265625,0,F1,6.1,0,270.0,4.2006000761289615,[23400|700|0],intermediate
27100,0.6998673677444458,0.7292065620422363,0.0250443276017904,0.2129688262939453,-0.7609865665435791,1.6649726629257202,3.431640625,0,F1,6.1,0,270.0,4.205155428883278,[23400|800|0],intermediate
27200,0.6963365077972412,0.7259656190872192,0.0236206147819757,-0.2021580338478088,-1.1249234676361084,0.8595845699310303,3.447265625,0,F1,6.1,0,270.0,4.210155193017489,[23400|900|0],intermediate
27300,0.6931211948394775,0.7226887345314026,0.0246321000158786,-0.6039749979972839,0.90523499250412,0.1291590183973312,3.447265625,0,F1,6.1,0,270.0,4.214856183571289,[23400|1000|0],intermediate
27400,0.68861323595047,0.7197692394256592,0.0271254796534776,0.3270960748195648,-0.4303069114685058,0.2127776145935058,3.45703125,0,F1,6.1,0,270.0,4.220777508341527,[23400|1100|0],intermediate
27500,0.6827355623245239,0.7169399857521057,0.0293200500309467,-0.0281775668263435,0.2875458002090454,0.941640555858612,3.453125,0,F1,6.1,0,270.0,4.227659939797352,[23400|1200|0],intermediate
27600,0.6755483150482178,0.7134606838226318,0.0290091950446367,-1.1602329015731812,-0.0875820070505142,2.236824989318848,3.447265625,0,F1,6.1,0,270.0,4.235651103426619,[23400|1300|0],intermediate
27701,0.6681869029998779,0.710462749004364,0.0286335311830043,0.4111058115959167,0.4847976863384247,4.1152119636535645,3.447265625,0,F1,6.1,0,270.0,4.243608434879874,[23400|1400|0],intermediate
27801,0.6600504517555237,0.7059242725372314,0.0269980933517217,0.9423938989639282,0.1049325540661811,5.48535680770874,3.435546875,0,F1,6.1,0,270.0,4.253067518577277,[23400|1500|0],intermediate
27900,0.6524600386619568,0.6987156271934509,0.0252387095242738,1.3603568077087402,-0.7164431214332581,5.837800979614258,3.42578125,0,F1,6.1,0,270.0,4.263682336996623,[23400|1600|0],intermediate
28001,0.6457738280296326,0.688302755355835,0.0250124651938676,1.3093088865280151,0.1306912004947662,5.878781318664551,3.431640625,0,F1,6.1,0,270.0,4.276059109557491,[23400|1700|0],intermediate
28101,0.6403549313545227,0.6736376285552979,0.0267018377780914,1.5303585529327393,-0.567533552646637,4.054954528808594,3.431640625,0,F1,6.1,0,270.0,4.29178438745582,[23400|1800|0],intermediate
28201,0.6366128921508789,0.6558220386505127,0.0301433093845844,0.8726363778114319,0.2234990894794464,2.042271614074707,3.447265625,0,F1,6.1,0,270.0,4.310311174221889,[23400|1900|0],intermediate
28301,0.6328970193862915,0.636370062828064,0.0298751611262559,-0.6777529120445251,0.6827238202095032,-0.1264077574014663,3.958984375,0,F1,6.1,0,270.0,4.330116703179434,[23400|2000|0],intermediate
28401,0.6284325122833252,0.6202012896537781,0.0,-8.988191604614258,-2.492149353027344,-3.871826887130737,3.96484375,0,F1,6.1,0,270.0,4.364378727374652,[23400|2100|0],intermediate
28501,0.6283627152442932,0.6048125624656677,0.0,-4.191506385803223,-1.4893511533737185,-4.85072135925293,3.96484375,0,F1,6.1,0,270.0,4.379767612847511,[23400|2200|0],intermediate
28601,0.62714684009552,0.6041054129600525,0.0,-3.7603719234466553,-1.0165327787399292,-4.190313339233398,3.96875,0,F1,6.1,0,270.0,4.381174173475673,[23400|2300|0],intermediate
28701,0.6280922889709473,0.6043651103973389,0.0,-3.667378902435303,-0.9087085127830504,-4.194194793701172,3.974609375,0,F1,6.1,0,270.0,4.382154640882056,[23400|2400|0],intermediate
28802,0.6275496482849121,0.6042221188545227,0.0,-3.500529766082764,-0.7196011543273926,-4.20060920715332,3.974609375,0,F1,6.1,0,270.0,4.382715805292419,[23400|2500|0],intermediate
28902,0.6270268559455872,0.6039100885391235,0.0,-3.3783633708953857,-0.6212166547775269,-4.255083084106445,3.974609375,0,F1,6.1,0,270.0,4.383324635932076,[23400|2600|0],intermediate
29002,0.6222126483917236,0.6081869602203369,0.0,-3.149106979370117,-0.4547327756881714,-1.3120330572128296,3.98046875,0,F1,6.1,0,270.0,4.389764218663064,[23400|2700|0],intermediate
29102,0.623353123664856,0.6061874628067017,0.0,-3.0839524269104004,0.954251766204834,-0.911531150341034,3.98046875,0,F1,6.1,0,270.0,4.392066103489844,[23400|2800|0],intermediate
29200,0.6305432319641113,0.6171146631240845,0.0,-5.866730213165283,7.547009468078613,13.811389923095703,3.98046875,0,F1,6.1,0,270.0,4.405146675500702,[23400|2900|0],intermediate
29302,0.6757515668869019,0.6747535467147827,0.0230461917817592,4.321972846984863,-1.866923213005066,3.5240590572357178,3.984375,0,F1,6.1,0,270.0,4.481939653068412,[23400|3000|0],intermediate
29402,0.7166199684143066,0.7335317134857178,0.0125679699704051,3.5512566566467285,3.258229970932007,-4.780762672424316,3.98046875,0,F1,6.1,0,270.0,4.554292208411572,[23400|3100|0],intermediate
29502,0.7324632406234741,0.7480999827384949,0.0,-1.3904993534088137,9.121919631958008,-1.3627395629882812,3.984375,0,F1,6.1,0,270.0,4.579216044643023,[23400|3200|0],intermediate
29600,0.7384198904037476,0.7524845600128174,0.0,-1.0315476655960083,2.297921895980835,0.7447270154953003,3.984375,0,F1,6.1,0,270.0,4.586612408241396,[23400|3300|0],intermediate
29700,0.7427691221237183,0.759846031665802,0.0,-3.666555404663086,0.3736213743686676,-3.7190117835998535,3.990234375,0,F1,6.1,0,270.0,4.59516267615835,[23400|3400|0],intermediate
29800,0.7423125505447388,0.7638267278671265,0.0,-4.176708221435547,-2.122718334197998,-3.597567558288574,3.990234375,0,F1,6.1,0,270.0,4.599169470369932,[23400|3500|0],intermediate
29900,0.7424368262290955,0.7639979124069214,0.0,-4.310309886932373,-2.2004153728485107,-3.557996988296509,3.990234375,0,F1,6.1,0,270.0,4.599381009000889,[23400|3600|0],intermediate
30000,0.742158055305481,0.7641298770904541,0.0,-4.237066745758057,-2.127976417541504,-3.533212661743164,3.990234375,0,F1,6.1,0,270.0,4.59968943712145,[23400|3700|0],intermediate
30100,0.7421508431434631,0.7644224762916565,0.0,-4.177833557128906,-2.0752384662628174,-3.5400583744049072,3.99609375,0,F1,6.1,0,270.0,4.59998212519402,[23400|3800|0],intermediate
30200,0.7421244978904724,0.7635958790779114,0.0,-3.9782254695892334,-1.9562941789627075,-3.550551414489746,3.99609375,0,F1,6.1,0,270.0,4.6008091421383,[23400|3900|0],intermediate
30300,0.7420122027397156,0.763801097869873,0.0,-3.763299226760864,-1.825998067855835,-3.620298385620117,3.99609375,0,F1,6.1,0,270.0,4.601043075790129,[23400|4000|0],intermediate
30400,0.7419583797454834,0.763543426990509,0.0,-3.742257833480835,-1.8162989616394043,-3.699744701385498,3.99609375,0,F1,6.1,0,270.0,4.601306308000886,[23400|4100|0],intermediate
30500,0.74178147315979,0.7637916803359985,0.0,-3.666479825973511,-1.76878559589386,-3.745248317718506,4.0,0,F1,6.1,0,270.0,4.601611145110845,[23400|4200|0],intermediate
30600,0.7418985962867737,0.7634100317955017,0.0,-3.598328828811645,-1.7438488006591797,-3.790776491165161,4.09765625,0,F1,6.1,0,270.0,4.602010361136748,[23400|4300|0],intermediate
30700,0.7419680953025818,0.7630501389503479,0.0,-3.540700674057007,-1.7185511589050293,-3.820823907852173,4.09765625,0,F1,6.1,0,270.0,4.602376903048664,[23400|4400|0],intermediate
30800,0.7415066957473755,0.763578474521637,0.0,-3.512373685836792,-1.6845293045043943,-3.864356517791748,4.09765625,0,F1,6.1,0,270.0,4.603078350142488,[23400|4500|0],intermediate
30900,0.7416375875473022,0.7631914615631104,0.0,-3.4670393466949463,-1.6712442636489868,-3.902492046356201,4.1015625,0,F1,6.1,0,270.0,4.603486898417916,[23400|4600|0],intermediate
31000,0.7417833805084229,0.7635599970817566,0.0,-3.451630115509033,-1.666231393814087,-3.907605648040772,4.1015625,0,F1,6.1,0,270.0,4.60388322406182,[23400|4700|0],intermediate
31100,0.7415615916252136,0.7633427977561951,0.0,-3.4600062370300293,-1.667211890220642,-3.922331094741821,4.1015625,0,F1,6.1,0,270.0,4.604193652565247,[23400|4800|0],intermediate
31200,0.7417487502098083,0.7634757161140442,0.0,-3.432743549346924,-1.6570067405700684,-3.941399812698364,4.1015625,0,F1,6.1,0,270.0,4.60442320784321,[23400|4900|0],intermediate
31300,0.7417970299720764,0.7630914449691772,0.0,-3.3952252864837646,-1.6424616575241089,-3.942037105560303,4.10546875,0,F1,6.1,0,270.0,4.604810500043263,[23400|5000|0],intermediate
31400,0.7417789101600647,0.7631881237030029,0.0,-3.3827016353607178,-1.635396122932434,-3.918224573135376,4.10546875,0,F1,6.1,0,270.0,4.604908862155693,[23400|5100|0],intermediate
31500,0.7414392232894897,0.7630005478858948,0.0,-3.359720468521118,-1.620632886886597,-3.9565353393554688,4.10546875,0,F1,6.1,0,270.0,4.605296898052492,[23400|5200|0],intermediate
31600,0.7413824796676636,0.763073742389679,0.0,-3.3436458110809326,-1.618876576423645,-3.953001737594605,4.10546875,0,F1,6.1,0,270.0,4.605389511626023,[23400|5300|0],intermediate
31700,0.7415878176689148,0.7634614109992981,0.0,-3.3466098308563232,-1.6213161945343018,-3.954028844833374,4.10546875,0,F1,6.1,0,270.0,4.605828203597276,[23400|5400|0],intermediate
31800,0.7414955496788025,0.7632090449333191,0.0,-3.33384108543396,-1.617504358291626,-3.937094211578369,4.11328125,0,F1,6.1,0,270.0,4.606096907920384,[23400|5500|0],intermediate
31900,0.7416725158691406,0.763529360294342,0.0,-3.3463134765625,-1.6185184717178345,-3.928851366043091,4.11328125,0,F1,6.1,0,270.0,4.606462857319933,[23400|5600|0],intermediate
32000,0.7417688369750977,0.7632203102111816,0.0,-3.3333895206451416,-1.6184085607528689,-3.936972141265869,4.11328125,0,F1,6.1,0,270.0,4.606786569706712,[23400|5700|0],intermediate
32100,0.7416225671768188,0.7631260752677917,0.0,-3.325942277908325,-1.614245057106018,-3.9164323806762695,4.11328125,0,F1,6.1,0,270.0,4.606960567058542,[23400|5800|0],intermediate
32200,0.741844892501831,0.7630743980407715,0.0,-3.3271079063415527,-1.6197079420089722,-3.9316248893737793,4.11328125,0,F1,6.1,0,270.0,4.607188819300447,[23400|5900|0],intermediate
32300,0.7415568232536316,0.7635241150856018,0.0,-3.3408594131469727,-1.6129192113876345,-3.9263217449188232,4.1171875,0,F1,6.1,0,270.0,4.607722887940389,[23400|6000|0],intermediate
32400,0.7418665885925293,0.7631967067718506,0.0,-3.332674980163574,-1.6240346431732178,-3.905375242233277,4.1171875,0,F1,6.1,0,270.0,4.60817361043716,[23400|6100|0],intermediate
32500,0.7414332032203674,0.7631604671478271,0.0,-3.374051809310913,-1.641814112663269,-3.907249212265015,4.1171875,0,F1,6.1,0,270.0,4.608608508346046,[23400|6200|0],intermediate
32600,0.7414075136184692,0.763344407081604,0.0,-3.3678343296051025,-1.6416515111923218,-3.9321131706237793,4.1171875,0,F1,6.1,0,270.0,4.608794233559422,[23400|6300|0],intermediate
32700,0.7417361736297607,0.7630330324172974,0.0,-3.362544298171997,-1.648117184638977,-3.9520320892333984,4.1171875,0,F1,6.1,0,270.0,4.609246971435676,[23400|6400|0],intermediate
32800,0.7417721748352051,0.7632043957710266,0.0,-3.367500305175781,-1.6444144248962402,-3.958449602127075,4.12109375,0,F1,6.1,0,270.0,4.609422075649773,[23400|6500|0],intermediate
32900,0.7416785955429077,0.7633987665176392,0.0,-3.372744560241699,-1.6381882429122925,-3.945052146911621,4.12109375,0,F1,6.1,0,270.0,4.609637800175698,[23400|6600|0],intermediate
33000,0.7418107390403748,0.7630124092102051,0.0,-3.3598527908325195,-1.6419895887374878,-3.9548189640045166,4.12109375,0,F1,6.1,0,270.0,4.610046130768393,[23400|6700|0],intermediate
33100,0.7413446307182312,0.7631784081459045,0.0,-3.365004539489746,-1.6274805068969729,-3.954824924468994,4.1171875,0,F1,6.1,0,270.0,4.610540916191202,[23400|6800|0],intermediate
33200,0.74150151014328,0.7633848786354065,0.0,-3.369313955307007,-1.6380032300949097,-3.94826865196228,4.12109375,0,F1,6.1,0,270.0,4.610800225306042,[23400|6900|0],intermediate
33300,0.7415256500244141,0.7630206942558289,0.0,-3.3601715564727783,-1.64752995967865,-3.9546420574188232,4.12109375,0,F1,6.1,0,270.0,4.611165208862095,[23400|7000|0],intermediate
33400,0.7415574193000793,0.7631072402000427,0.0,-3.362278938293457,-1.6555001735687256,-3.946132659912109,4.12109375,0,F1,6.1,0,270.0,4.611257401526316,[23400|7100|0],intermediate
33500,0.7417367100715637,0.7632867097854614,0.0,-3.3655223846435547,-1.6555579900741575,-3.935331106185913,4.12109375,0,F1,6.1,0,270.0,4.611511083439014,[23400|7200|0],intermediate
33600,0.7414695024490356,0.7631213665008545,0.0,-3.365284442901612,-1.6359597444534302,-3.924187183380127,4.12109375,0,F1,6.1,0,270.0,4.611825309974019,[23400|7300|0],intermediate
33700,0.7412446141242981,0.7629470825195312,0.0,-3.35449743270874,-1.6350808143615725,-3.939056634902954,4.12109375,0,F1,6.1,0,270.0,4.612109826519671,[23400|7400|0],intermediate
33800,0.7413433790206909,0.7631646394729614,0.0,-3.361668825149536,-1.6359330415725708,-3.9282076358795166,4.12890625,0,F1,6.1,0,270.0,4.612348752308872,[23400|7500|0],intermediate
33900,0.741618275642395,0.7632554173469543,0.0,-3.371876239776612,-1.6459136009216309,-3.935833215713501,4.12890625,0,F1,6.1,0,270.0,4.612638249761418,[23400|7600|0],intermediate
34000,0.741849422454834,0.7633405923843384,0.0,-3.3758692741394043,-1.6510363817214966,-3.942475080490112,4.12890625,0,F1,6.1,0,270.0,4.612884590249147,[23400|7700|0],intermediate
34100,0.7412697672843933,0.7633916139602661,0.0,-3.372840404510498,-1.640296459197998,-3.927125930786133,4.12890625,0,F1,6.1,0,270.0,4.613466486561069,[23400|7800|0],intermediate
34200,0.7416746616363525,0.763075590133667,0.0,-3.3664588928222656,-1.644676923751831,-3.911358833312988,4.12890625,0,F1,6.1,0,270.0,4.613980111419528,[23400|7900|0],intermediate
