,time.ms,stateEstimate.x,stateEstimate.y,stateEstimate.z,stabilizer.roll,stabilizer.pitch,stabilizer.yaw,pm.vbat,drone_id,node_name,wind_speed,global_wind_direction,relative_wind_direction,travel_dist,waiting_time
0,0,0.0463103130459785,0.5324798822402954,0.0,1.1323416233062744,-3.017611026763916,4.3715033531188965,4.1015625,2,J1,7.6,90,450.0,0.0,[6200|0|0|0]
1,100,0.0427305959165096,0.5324437022209167,0.0,1.025631308555603,-2.2922346591949463,4.244390964508057,4.1015625,2,J1,7.6,90,450.0,0.0035798999596099,[6300|0|0|0]
2,200,0.0419421307742595,0.5326088666915894,0.0,0.9069653153419496,-1.723629117012024,4.166378498077393,4.1015625,2,J1,7.6,90,450.0,0.0043854783747353,[6400|0|0|0]
3,300,0.0409381687641143,0.5327968597412109,0.0,0.7960129976272583,-1.292717456817627,4.062707901000977,4.1015625,2,J1,7.6,90,450.0,0.0054068897044751,[6500|0|0|0]
4,400,0.0407317318022251,0.5329437255859375,0.0,0.6996721029281616,-0.99232280254364,3.9729390144348153,4.1015625,2,J1,7.6,90,450.0,0.0056602388619265,[6600|0|0|0]
5,500,0.0401190966367721,0.5329276323318481,0.0,0.6226155161857605,-0.745320200920105,3.9381721019744873,2.90234375,2,A/E1,7.6,90,450.0,0.0062730853669967,[6600|0|0|0]
6,600,0.0403397642076015,0.5333345532417297,0.0,0.4444498121738434,-0.5546496510505676,3.705193758010864,3.19921875,2,A/E1,7.6,90,450.0,0.0067359879525529,[6600|0|0|0]
7,700,0.0452687516808509,0.5376636981964111,0.0,-1.508211970329285,-3.3459832668304443,2.466790676116944,3.373046875,2,A/E1,7.6,90,450.0,0.0132962023964635,[6600|0|0|0]
8,800,0.0561681017279624,0.5508928298950195,0.0581947714090347,-0.9274711012840272,1.7213574647903442,1.463066577911377,3.509765625,2,A/E1,7.6,90,450.0,0.073962809160798,[6600|0|0|0]
9,900,0.0658203065395355,0.5709989666938782,0.1383084654808044,0.6158773899078369,3.009514331817627,0.6230927109718323,3.546875,2,A/E1,7.6,90,450.0,0.1571230506979898,[6600|0|0|0]
10,1000,0.0706258192658424,0.5935148596763611,0.2228177040815353,2.653204202651977,3.669721364974976,-0.0165858566761016,3.537109375,2,A/E1,7.6,90,450.0,0.2447122612106813,[6600|0|0|0]
11,1100,0.0704820901155471,0.6128476858139038,0.3102262020111084,4.643408298492432,2.8980953693389893,-0.3052391111850738,3.537109375,2,A/E1,7.6,90,450.0,0.334233344396919,[6600|0|0|0]
12,1200,0.0662141144275665,0.6266263723373413,0.3985278010368347,4.947010517120361,1.5715361833572388,-0.4981177747249603,3.53125,2,A/E1,7.6,90,450.0,0.4237053523618937,[6600|0|0|0]
13,1300,0.0601774789392948,0.6334065198898315,0.489055335521698,4.83806037902832,0.6377557516098022,-0.4485548734664917,3.57421875,2,A/E1,7.6,90,450.0,0.5146869212028403,[6600|0|0|0]
14,1400,0.0539791844785213,0.6328707933425903,0.5820807814598083,4.030673503875732,-0.3594439029693603,-0.3323200941085815,3.568359375,2,A/E1,7.6,90,450.0,0.6079201741179895,[6600|0|0|0]
15,1500,0.0488808564841747,0.6276633143424988,0.6771952509880066,2.89574933052063,-0.5015095472335815,-0.2070266157388687,3.5625,2,A/E1,7.6,90,450.0,0.7033134291180412,[6600|0|0|0]
16,1600,0.0431091375648975,0.620441198348999,0.773361086845398,1.7776267528533936,-0.7019474506378174,-0.1919531524181366,3.541015625,2,A/E1,7.6,90,450.0,0.7999226402982255,[6600|0|0|0]
17,1700,0.0395631864666938,0.6110472679138184,0.8706147074699402,0.710841953754425,-1.055553674697876,-0.2193700671195984,3.541015625,2,A/E1,7.6,90,450.0,0.8976932208569716,[6600|0|0|0]
18,1800,0.0344884395599365,0.6035168170928955,0.9683696627616882,0.0297418162226676,-0.2104712724685669,-0.1930354982614517,3.537109375,2,A/E1,7.6,90,450.0,0.9958690428796348,[6600|0|0|0]
19,1900,0.0316941067576408,0.5979346036911011,1.0571491718292236,-0.2300770133733749,-0.6269146203994751,-0.0174490772187709,3.505859375,2,A/E1,7.6,90,450.0,1.0848677542891028,[6600|0|0|0]
20,2000,0.0296286735683679,0.5915958881378174,1.1558350324630735,0.025806875899434,-0.3367809057235718,0.1185042038559913,3.525390625,2,A/E1,7.6,90,450.0,1.1837785444900129,[6600|0|0|0]
21,2100,0.0289916191250085,0.5847690105438232,1.256057858467102,-0.0506068468093872,-0.4259245991706848,-0.1786867976188659,3.615234375,2,A/E1,7.6,90,450.0,1.28423563457469,[6600|0|0|0]
22,2200,0.0276906620711088,0.5808528065681458,1.3556132316589355,0.0102534536272287,-0.0308159310370683,-0.400477260351181,3.6796875,2,A/E1,7.6,90,450.0,1.3838764970468729,[6600|0|0|0]
23,2300,0.0267503429204225,0.5745017528533936,1.4369399547576904,-0.1261353194713592,0.198553666472435,-0.2828904986381531,3.66796875,2,A/E1,7.6,90,450.0,1.4654562492736012,[6600|0|0|0]
24,2400,0.0250732414424419,0.5685518383979797,1.5002814531326294,-0.2334449142217636,0.1364566385746002,-0.1457975208759308,3.65234375,2,A/E1,7.6,90,450.0,1.529098684548947,[6600|0|0|0]
25,2500,0.0225180331617593,0.5637927055358887,1.5468919277191162,-0.5605237483978271,-0.1560227423906326,-0.349837988615036,3.60546875,2,A/E1,7.6,90,450.0,1.5760211181616044,[6600|0|0|0]
26,2600,0.0182611476629972,0.5607254505157471,1.5779584646224976,-0.549863338470459,-0.6190744042396545,-0.5155858397483826,3.568359375,2,A/E1,7.6,90,450.0,1.607527607059565,[6600|0|0|0]
27,2700,0.0144609482958912,0.5587663054466248,1.59869122505188,-0.6509951949119568,-0.9531441926956176,-0.6830472946166992,3.525390625,2,A/E1,7.6,90,450.0,1.6286966202546524,[6600|0|0|0]
28,2800,0.0119370864704251,0.5580475926399231,1.6122387647628784,-0.200650930404663,-1.0903936624526978,-0.6257185935974121,3.515625,2,A/E1,7.6,90,450.0,1.6424959774437986,[6600|0|0|0]
29,2900,0.0091721033677458,0.559695303440094,1.6190180778503418,-0.0045371600426733,-1.2069032192230225,-0.1508990079164505,3.509765625,2,A/E1,7.6,90,450.0,1.65000058725224,[6600|0|0|0]
30,3000,0.0089097861200571,0.5602148771286011,1.623052000999451,0.4872741997241974,-1.0086026191711426,1.6586064100265503,3.509765625,2,A/E1,7.6,90,450.0,1.6540762838956546,[6600|0|0|0]
31,3100,0.0105468574911355,0.5605466961860657,1.6247936487197876,0.5561820268630981,-1.1443047523498535,-0.233551949262619,3.53125,2,A/E1,7.6,90,450.0,1.6564894650622175,[6600|0|0|0]
32,3200,0.0136320954188704,0.5597043037414551,1.6242109537124634,0.6213636994361877,-0.704326868057251,-1.1102861166000366,3.552734375,2,A/E1,7.6,90,450.0,1.6597402882768868,[6600|0|0|0]
33,3300,0.0171018168330192,0.5586388111114502,1.6219769716262815,0.4442992806434631,-0.2525590062141418,-1.5301392078399658,3.525390625,2,A/E1,7.6,90,450.0,1.664002320327186,[6600|0|0|0]
34,3400,0.0207694303244352,0.5571862459182739,1.619001030921936,0.3967812359333038,-0.1630078554153442,-1.8351001739501955,3.525390625,2,A/E1,7.6,90,450.0,1.6689437328214658,[6600|0|0|0]
35,3500,0.0243534743785858,0.555307924747467,1.613715410232544,-0.2082390040159225,-0.4254114031791687,-1.954434156417847,3.58984375,2,A/E1,7.6,90,70.0,1.675600402279605,[6600|0|0|0]
36,3600,0.034962423145771,0.5561371445655823,1.6029225587844849,-8.039993286132812,-13.61005687713623,-3.998557329177856,3.55859375,2,A/E1,7.6,90,70.0,1.690757019376813,[6600|0|0|0]
37,3700,0.0629411116242408,0.564534068107605,1.582693338394165,-7.499398708343506,-15.514546394348145,-2.4196622371673584,3.462890625,2,A/E1,7.6,90,70.0,1.7262892117035749,[6600|0|0|0]
38,3800,0.1127845495939254,0.5855535268783569,1.5541887283325195,-6.946587562561035,-15.644065856933594,-3.794837474822998,3.42578125,2,A/E1,7.6,90,70.0,1.7874341113307686,[6600|0|0|0]
39,3900,0.185880109667778,0.6169018745422363,1.525652527809143,-5.112435817718506,-11.938819885253906,-3.4141862392425537,3.431640625,2,A/E1,7.6,90,70.0,1.8719325997437335,[6600|0|0|0]
40,4000,0.276819109916687,0.6541670560836792,1.5026257038116455,-1.4461064338684082,-5.60454797744751,-2.716336250305176,3.447265625,2,A/E1,7.6,90,70.0,1.9728723349573725,[6600|0|0|0]
41,4100,0.3778325617313385,0.6895194053649902,1.4890620708465576,1.6364736557006836,1.0813976526260376,-4.132059097290039,3.515625,2,A/E1,7.6,90,70.0,2.0807494789056173,[6600|0|0|0]
42,4200,0.474804162979126,0.7203792929649353,1.4808437824249268,3.4675228595733643,6.918045997619629,-2.795886516571045,3.546875,2,A/E1,7.6,90,70.0,2.182844358188676,[6600|0|0|0]
43,4300,0.56132972240448,0.7389009594917297,1.4757037162780762,3.8061721324920654,10.099627494812012,1.0218982696533203,3.55859375,2,A/E1,7.6,90,70.0,2.271479254503808,[6600|0|0|0]
44,4400,0.6334858536720276,0.7437556385993958,1.46895432472229,4.035651206970215,11.29190444946289,2.808661460876465,3.53125,2,A/E1,7.6,90,70.0,2.344112783091584,[6600|0|0|0]
45,4500,0.6915638446807861,0.734575629234314,1.4595890045166016,2.5835154056549072,10.707586288452148,3.372301816940308,3.447265625,2,A/E1,7.6,90,70.0,2.4036529782047302,[6600|0|0|0]
46,4600,0.7352736592292786,0.7133622169494629,1.449018478393555,0.0572476349771022,9.2404146194458,3.492154836654663,3.42578125,2,A/E1,7.6,90,70.0,2.453375133941873,[6600|0|0|0]
47,4700,0.7661010026931763,0.6873011589050293,1.438105225563049,-2.348928451538086,7.74739933013916,3.1199305057525635,3.419921875,2,A/E1,7.6,90,70.0,2.4951914338592376,[6600|0|0|0]
48,4800,0.7854050397872925,0.6610825657844543,1.4292924404144287,-4.466854572296143,6.290456771850586,2.9464566707611084,3.416015625,2,A/E1,7.6,90,70.0,2.5289216229400746,[6600|0|0|0]
49,4900,0.7962833642959595,0.6390771269798279,1.421396017074585,-5.448949337005615,4.887197494506836,2.749553203582764,3.42578125,2,A/E1,7.6,90,70.0,2.5547078747549867,[6600|0|0|0]
50,5000,0.7995543479919434,0.6233714818954468,1.415092945098877,-5.706767559051514,3.609117031097412,2.4492573738098145,3.44140625,2,A/E1,7.6,90,70.0,2.571944328514008,[6600|0|0|0]
51,5100,0.7992233037948608,0.6157217025756836,1.4096333980560305,-5.288279056549072,2.5450923442840576,1.9734554290771484,3.42578125,2,A/E1,7.6,90,70.0,2.581348336585812,[6600|0|0|0]
52,5200,0.7961143255233765,0.6149939298629761,1.4031893014907837,-4.434471130371094,1.9437291622161863,1.2294230461120603,3.419921875,2,A/E1,7.6,90,70.0,2.588540122146864,[6600|0|0|0]
53,5300,0.7933543920516968,0.6179593801498413,1.3978288173675537,-3.0299506187438965,1.543501377105713,0.2788267433643341,3.431640625,2,A/E1,7.6,90,70.0,2.595259193377872,[6600|0|0|0]
54,5400,0.788868248462677,0.6260538101196289,1.3921270370483398,-2.1317250728607178,0.827216625213623,-0.4899291098117828,3.431640625,2,A/E1,7.6,90,70.0,2.6061291326438325,[6600|0|0|0]
55,5500,0.7843422293663025,0.6363983750343323,1.3870400190353394,-1.4185903072357178,0.4857065081596374,-1.2147927284240725,3.419921875,2,A/E1,7.6,90,70.0,2.618513502809483,[6600|0|0|0]
56,5600,0.7803746461868286,0.6486546397209167,1.3842377662658691,-1.2464543581008911,0.401529848575592,-1.918300986289978,3.419921875,2,A/E1,7.6,90,70.0,2.6316972185579988,[6600|0|0|0]
57,5700,0.7772621512413025,0.6622115969657898,1.3839316368103027,-0.5454401969909668,0.5750556588172913,-2.2068591117858887,3.453125,2,A/E1,7.6,90,70.0,2.64561024949194,[6600|0|0|0]
58,5800,0.7747865915298462,0.6764617562294006,1.38494074344635,0.0481859743595123,0.7958737015724182,-2.0780370235443115,3.45703125,2,A/E1,7.6,90,70.0,2.6601089987871784,[6600|0|0|0]
59,5900,0.771715521812439,0.6896554827690125,1.3857110738754272,0.7159556746482849,1.1035889387130735,-1.4395467042922974,3.447265625,2,A/E1,7.6,90,70.0,2.673677318439265,[6600|0|0|0]
60,6000,0.767960250377655,0.7024108171463013,1.3853496313095093,0.8662626147270203,0.7365063428878784,-0.8603059649467468,3.47265625,2,A/E1,7.6,90,70.0,2.686978869452354,[6600|0|0|0]
61,6100,0.7637020349502563,0.7133336663246155,1.3843259811401367,1.0997686386108398,0.7588440179824829,-0.1113575845956802,3.48828125,2,A/E1,7.6,90,70.0,2.698746999825,[6600|0|0|0]
62,6200,0.7591409087181091,0.7216346263885498,1.3834216594696045,1.5403823852539062,0.6557954549789429,0.6308799386024475,3.48828125,2,A/E1,7.6,90,70.0,2.708261599562898,[6600|0|0|0]
63,6300,0.7536939382553101,0.7280672192573547,1.381947636604309,1.5140807628631592,0.8377650380134583,1.333665132522583,3.453125,2,A/E1,7.6,90,70.0,2.716818496292777,[6600|0|0|0]
64,6400,0.7483032941818237,0.7321366667747498,1.3798402547836304,0.8820176720619202,0.5774503350257874,1.7872425317764282,3.453125,2,A/E1,7.6,90,70.0,2.723893841143876,[6600|0|0|0]
65,6500,0.7421101927757263,0.7355164289474487,1.376529335975647,0.9819573760032654,-0.0587287247180938,2.065054416656494,3.63671875,2,A/E1,7.6,90,450.0,2.731687394936805,[6600|0|0|0]
66,6600,0.7364357709884644,0.7381002306938171,1.3609765768051147,1.142622470855713,-0.0824777334928512,1.956360936164856,3.853515625,2,A/E1,7.6,90,450.0,2.7484433912336788,[6600|0|0|0]
67,6700,0.7309746742248535,0.7384236454963684,1.3098608255386353,1.4972102642059326,-0.4729116559028625,1.5890262126922607,3.736328125,2,A/E1,7.6,90,450.0,2.799851058001707,[6600|0|0|0]
68,6800,0.7255394458770752,0.7384236454963684,1.218547224998474,0.49747034907341,-0.3742731511592865,1.0449764728546145,3.515625,2,A/E1,7.6,90,450.0,2.891326275141655,[6600|0|0|0]
69,6900,0.7188844680786133,0.7364474534988403,1.1003682613372805,1.1880271434783936,-0.806257963180542,1.150184988975525,3.47265625,2,A/E1,7.6,90,450.0,3.009708966090724,[6600|0|0|0]
70,7000,0.7126263380050659,0.7350165843963623,0.9711514115333556,0.031967606395483,-1.2210735082626345,2.4124767780303955,3.5,2,A/E1,7.6,90,450.0,3.1390851843522576,[6600|0|0|0]
71,7100,0.7074854373931885,0.7347335815429688,0.8422480225563049,-0.8050705790519714,-0.6179822087287903,3.659550189971924,3.525390625,2,A/E1,7.6,90,450.0,3.2680913572258263,[6600|0|0|0]
72,7200,0.7026841044425964,0.7365099191665649,0.717337429523468,-0.4002585113048553,-1.224778413772583,4.72599458694458,3.541015625,2,A/E1,7.6,90,450.0,3.393106813971264,[6600|0|0|0]
73,7300,0.700366735458374,0.7385104894638062,0.5950201749801636,-0.415603369474411,0.4189305007457733,4.933349609375,3.521484375,2,A/E1,7.6,90,450.0,3.515462374693018,[6600|0|0|0]
74,7400,0.6970621347427368,0.7432801723480225,0.4737137258052826,-0.7309032678604126,0.8794025182723999,3.869628429412842,3.41015625,2,A/E1,7.6,90,450.0,3.6369075263958495,[6600|0|0|0]
75,7500,0.6903780102729797,0.7500287294387817,0.3580834865570068,0.3547942638397217,0.7721848487854004,4.005055904388428,3.3984375,2,A/E1,7.6,90,450.0,3.752927234942924,[6600|0|0|0]
76,7600,0.6829516291618347,0.7543820738792419,0.2540446817874908,1.8949486017227173,-1.128565788269043,4.303651809692383,3.435546875,2,A/E1,7.6,90,450.0,3.857321562576635,[6600|0|0|0]
77,7700,0.6752011775970459,0.7617312073707581,0.180146038532257,0.8629204034805298,-1.5282946825027466,4.57944393157959,3.42578125,2,A/E1,7.6,90,450.0,3.931988079419853,[6600|0|0|0]
78,7800,0.6697221398353577,0.7690198421478271,0.1263317167758941,-0.0553816258907318,-2.127980709075928,3.386950731277466,3.416015625,2,A/E1,7.6,90,450.0,3.986569443252253,[6600|0|0|0]
79,7900,0.668340265750885,0.7776876091957092,0.0922765880823135,3.770127534866333,-2.3762640953063965,2.715345859527588,3.484375,2,A/E1,7.6,90,450.0,4.021737490566798,[6600|0|0|0]
80,8000,0.6723119616508484,0.7830166816711426,0.0724341571331024,0.2243592441082,-3.2598624229431152,1.82065749168396,3.505859375,2,A/E1,7.6,90,450.0,4.042663442104169,[6600|0|0|0]
81,8100,0.6826708912849426,0.7875582575798035,0.0628964677453041,2.7489137649536133,-1.5996923446655271,1.4846856594085691,3.509765625,2,A/E1,7.6,90,450.0,4.057458740470757,[6600|0|0|0]
82,8200,0.698452889919281,0.7886335253715515,0.0603934079408645,3.384272336959839,-0.233229249715805,2.1711127758026123,3.521484375,2,A/E1,7.6,90,450.0,4.073474139001634,[6600|0|0|0]
83,8300,0.7170684933662415,0.7845244407653809,0.0613735169172287,2.389077425003052,1.5882229804992676,2.251357316970825,3.509765625,2,A/E1,7.6,90,450.0,4.09256303319697,[6600|0|0|0]
84,8400,0.7339878082275391,0.7775384187698364,0.0635385811328888,-0.0071976883336901,3.3502867221832275,1.550955295562744,3.509765625,2,A/E1,7.6,90,450.0,4.110995483434415,[6600|0|0|0]
85,8500,0.7482964992523193,0.7707480192184448,0.0649042427539825,-0.980536162853241,3.953930616378784,0.869325578212738,3.5,2,A/E1,7.6,90,450.0,4.126892439010043,[6600|0|0|0]
86,8600,0.7560176253318787,0.7677238583564758,0.0673848465085029,-0.6831075549125671,4.749678611755371,-0.7431241273880005,3.509765625,2,A/E1,7.6,90,450.0,4.135547768688482,[6600|0|0|0]
87,8700,0.7565605044364929,0.7683320641517639,0.0695937871932983,0.6542909741401672,4.699038505554199,-1.0338382720947266,3.494140625,2,A/E1,7.6,90,450.0,4.137902349534533,[6600|0|0|0]
88,8800,0.7498072981834412,0.7711110711097717,0.0711289942264556,0.8111908435821533,1.603829860687256,-0.9223371744155884,3.505859375,2,A/E1,7.6,90,450.0,4.145364623651957,[6600|0|0|0]
89,8900,0.7414363622665405,0.7733321785926819,0.0727985128760337,0.8200449347496033,-0.0752828121185302,-0.128454327583313,3.505859375,2,A/E1,7.6,90,450.0,4.15418466781833,[6600|0|0|0]
90,9000,0.733255922794342,0.7744277715682983,0.074761763215065,1.802762150764465,-1.463780641555786,-0.1428828239440918,3.494140625,2,A/E1,7.6,90,450.0,4.162668432655962,[6600|0|0|0]
91,9100,0.7294895052909851,0.7726781368255615,0.0772057175636291,2.080928564071656,-0.8159355521202087,-0.5888485908508301,3.494140625,2,A/E1,7.6,90,450.0,4.16748714985045,[6600|0|0|0]
92,9200,0.7261934280395508,0.7680432200431824,0.0799518153071403,0.9219471216201782,-1.145427107810974,-1.6355141401290894,3.505859375,2,A/E1,7.6,90,450.0,4.173802815424554,[6600|0|0|0]
93,9300,0.7265211343765259,0.7622348666191101,0.0829037949442863,0.4843983352184295,-0.6814960241317749,-2.549612283706665,3.5,2,A/E1,7.6,90,450.0,4.18032650645957,[6600|0|0|0]
94,9400,0.7289038896560669,0.7545525431632996,0.0868093371391296,0.4215847551822662,0.2572067677974701,-3.361851215362549,3.505859375,2,A/E1,7.6,90,450.0,4.189267920007638,[6600|0|0|0]
95,9500,0.730576753616333,0.7465522885322571,0.0901293009519577,0.1028947234153747,1.2108582258224487,-3.9024078845977774,3.5,2,F1,7.6,90,450.0,4.198089751320328,[6600|0|100|0]
96,9600,0.7311698794364929,0.7391716241836548,0.0930150300264358,-1.943764328956604,0.8620296120643616,-4.478338718414307,3.5,2,F1,7.6,90,450.0,4.20603666498266,[6600|0|200|0]
97,9700,0.7326952219009399,0.7418487668037415,0.0981636196374893,-3.013005495071411,2.6199162006378174,-5.377260208129883,3.5,2,F1,7.6,90,450.0,4.212036809749678,[6600|0|300|0]
98,9800,0.7269921898841858,0.7428406476974487,0.0961654111742973,-1.3567765951156616,1.4790873527526855,-5.616809368133545,3.47265625,2,F1,7.6,90,450.0,4.218160635265955,[6600|0|400|0]
99,9900,0.7143393158912659,0.7402141690254211,0.0896150097250938,2.3310859203338623,0.4383124113082886,-4.327666759490967,3.47265625,2,F1,7.6,90,450.0,4.232648608541781,[6600|0|500|0]
100,10000,0.7072942852973938,0.745768666267395,0.0923764407634735,0.2087024301290512,0.9330713152885436,-2.91828727722168,3.5,2,F1,7.6,90,450.0,4.242035322400177,[6600|0|600|0]
101,10100,0.6920356154441833,0.7366033792495728,0.0914660766720771,1.5560450553894043,-0.8056063652038574,-2.6029672622680664,3.515625,2,F1,7.6,90,450.0,4.259858292258964,[6600|0|700|0]
102,10200,0.6817994713783264,0.7310412526130676,0.0943586155772209,0.2425484955310821,-0.0847368761897087,-2.466093063354492,3.5,2,F1,7.6,90,450.0,4.271861736738582,[6600|0|800|0]
103,10300,0.6757165789604187,0.7300156950950623,0.1008173301815986,-0.4773764610290527,-0.6197673082351685,-2.51104474067688,3.5,2,F1,7.6,90,450.0,4.280793049225074,[6600|0|900|0]
104,10400,0.6662573218345642,0.7241933941841125,0.1041076034307479,-0.4387664198875427,0.0607521086931228,-1.9434354305267327,3.505859375,2,F1,7.6,90,450.0,4.292377635161772,[6600|0|1000|0]
105,10500,0.6569916605949402,0.7199701070785522,0.1063120812177658,-0.7348882555961609,0.3138483762741089,-0.6762040853500366,3.505859375,2,F1,7.6,90,450.0,4.302796289321352,[6600|0|1100|0]
106,10600,0.6478708982467651,0.7174263000488281,0.1063665896654129,-1.1446821689605713,0.1439667642116546,0.3312908411026001,3.505859375,2,F1,7.6,90,450.0,4.312265303588276,[6600|0|1200|0]
107,10700,0.6394225358963013,0.7159382700920105,0.1057205721735954,0.5028659105300903,-1.2768688201904297,-0.4821726977825165,3.484375,2,F1,7.6,90,450.0,4.320868000732594,[6600|0|1300|0]
108,10800,0.6325336694717407,0.713644802570343,0.1039669960737228,0.6720311641693115,-0.6309211850166321,-0.9642168879508972,3.47265625,2,F1,7.6,90,450.0,4.328337371725284,[6600|0|1400|0]
109,10900,0.6269946694374084,0.7107375860214233,0.1031133234500885,-0.0376822538673877,0.319431871175766,0.1007049605250358,3.505859375,2,F1,7.6,90,450.0,4.334650943328662,[6600|0|1500|0]
110,11000,0.6216939091682434,0.706207811832428,0.1032460927963256,0.9354217648506165,-0.059768833220005,1.7821825742721558,3.494140625,2,F1,7.6,90,450.0,4.341624790282371,[6600|0|1600|0]
111,11101,0.6170603632926941,0.7016180753707886,0.1052146628499031,0.898852527141571,-0.7167776226997375,3.35194993019104,3.5,2,F1,7.6,90,450.0,4.348437329913372,[6600|0|1700|0]
112,11200,0.6143243312835693,0.694869875907898,0.107567474246025,0.6431944370269775,-0.7091216444969177,4.203158378601074,3.5,2,F1,7.6,90,450.0,4.3560897666894345,[6600|0|1800|0]
113,11300,0.613121747970581,0.6857355833053589,0.1102042868733406,0.6142566204071045,-0.335879236459732,3.646273136138916,3.48828125,2,F1,7.6,90,450.0,4.365672787549531,[6600|0|1900|0]
114,11401,0.6136348247528076,0.674494743347168,0.1120650470256805,0.7079963684082031,-0.3695692718029022,2.61790132522583,3.48828125,2,F1,7.6,90,450.0,4.37707814414609,[6600|0|2000|0]
115,11501,0.6146726012229919,0.6631122827529907,0.0983191207051277,-2.1546823978424072,0.2280583828687667,1.816077828407288,3.984375,2,F1,7.6,90,450.0,4.394955165139256,[6600|0|2100|0]
116,11601,0.6162636280059814,0.6526069641113281,0.0368413217365741,-8.894831657409668,1.369794845581055,1.313878297805786,3.990234375,2,F1,7.6,90,450.0,4.45734436975035,[6600|0|2200|0]
117,11701,0.6176401376724243,0.6412258744239807,0.0,-1.6245863437652588,-3.0316622257232666,-0.7576815485954285,3.990234375,2,F1,7.6,90,450.0,4.4959281353601375,[6600|0|2300|0]
118,11801,0.6138154864311218,0.6407514214515686,0.0,-5.090204238891602,-0.4818445742130279,-2.801130771636963,3.99609375,2,F1,7.6,90,450.0,4.499782102503307,[6600|0|2400|0]
119,11901,0.6116199493408203,0.6419190764427185,0.0,-4.9550862312316895,-0.3426114022731781,-2.771880865097046,3.99609375,2,F1,7.6,90,450.0,4.502268827516904,[6600|0|2500|0]
120,12002,0.6112756729125977,0.6421873569488525,0.0,-4.6566667556762695,-0.2546518743038177,-2.749791622161865,3.99609375,2,F1,7.6,90,450.0,4.50270529136306,[6600|0|2600|0]
121,12101,0.6112540364265442,0.6420057415962219,0.0,-4.355492115020752,-0.1721708625555038,-2.6925947666168213,4.0,2,F1,7.6,90,450.0,4.502888190990833,[6600|0|2700|0]
122,12201,0.6111579537391663,0.6421323418617249,0.0,-4.053004741668701,-0.0811354890465736,-2.70208477973938,4.0,2,F1,7.6,90,450.0,4.503047123397973,[6600|0|2800|0]
123,12302,0.610957682132721,0.6418669819831848,0.0,-3.779243469238281,-0.0144695295020937,-2.6930601596832275,4.0,2,F1,7.6,90,450.0,4.503379575772739,[6600|0|2900|0]
124,12402,0.6112551689147949,0.6428731083869934,0.0,-3.4966068267822266,0.0879900306463241,-2.6723129749298096,4.0078125,2,F1,7.6,90,450.0,4.504428760563874,[6600|0|3000|0]
125,12500,0.6108956336975098,0.6424723267555237,0.0,-3.285900592803955,0.1450890153646469,-2.656089782714844,4.0078125,2,F1,7.6,90,450.0,4.504967176284848,[6600|0|3100|0]
126,12602,0.6109711527824402,0.6424031853675842,0.0,-3.1184563636779785,0.1797994077205658,-2.6429038047790527,4.0078125,2,F1,7.6,90,450.0,4.50506956604857,[6600|0|3200|0]
127,12702,0.6110510230064392,0.642310380935669,0.0,-2.9616968631744385,0.2163736522197723,-2.653918504714966,4.01171875,2,F1,7.6,90,450.0,4.505192007525467,[6600|0|3300|0]
128,12800,0.6111332178115845,0.6418964862823486,0.0,-2.82244610786438,0.2384354621171951,-2.65656852722168,4.01171875,2,F1,7.6,90,450.0,4.505613984740538,[6600|0|3400|0]
129,12900,0.6109995245933533,0.6415406465530396,0.0,-2.843968391418457,0.1913422644138336,-2.671208620071411,4.01171875,2,F1,7.6,90,450.0,4.505994110758532,[6600|0|3500|0]
130,13002,0.6109097003936768,0.6412105560302734,0.0,-2.7164173126220703,0.2361476123332977,-2.681055784225464,4.01171875,2,F1,7.6,90,450.0,4.506336204517709,[6600|0|3600|0]
131,13102,0.6106292605400085,0.6411128044128418,0.0,-2.6332991123199463,0.2657920718193054,-2.662842273712158,4.015625,2,F1,7.6,90,450.0,4.506633192548168,[6600|0|3700|0]
132,13200,0.6104030609130859,0.6413087248802185,0.0,-2.5648558139801025,0.2915474772453308,-2.663192749023437,4.015625,2,F1,7.6,90,450.0,4.50693244344751,[6600|0|3800|0]
133,13300,0.610930860042572,0.6410495042800903,0.0,-2.51138687133789,0.2852139174938202,-2.663219690322876,4.015625,2,F1,7.6,90,450.0,4.507520463209607,[6600|0|3900|0]
134,13400,0.6106474995613098,0.6409127116203308,0.0,-2.460609674453736,0.3106683492660522,-2.647181510925293,4.015625,2,F1,7.6,90,450.0,4.507835114435737,[6600|0|4000|0]
135,13500,0.6106997728347778,0.6411485075950623,0.0,-2.436269521713257,0.3151566684246063,-2.6567862033843994,4.015625,2,F1,7.6,90,450.0,4.508076635111496,[6600|0|4100|0]
136,13600,0.6107768416404724,0.6410676836967468,0.0,-2.392884492874145,0.3275992572307586,-2.636188507080078,4.0234375,2,F1,7.6,90,450.0,4.508188313683076,[6600|0|4200|0]
137,13700,0.6107327938079834,0.6403684020042419,0.0,-2.338146448135376,0.34245166182518,-2.618690013885498,4.0234375,2,F1,7.6,90,450.0,4.50888898129116,[6600|0|4300|0]
138,13800,0.6108474731445312,0.6407814621925354,0.0,-2.314345121383667,0.3554307818412781,-2.637925386428833,4.0234375,2,F1,7.6,90,450.0,4.509317665404913,[6600|0|4400|0]
139,13900,0.6108274459838867,0.6410768032073975,0.0,-2.310131549835205,0.3631415665149688,-2.631777763366699,4.0234375,2,F1,7.6,90,450.0,4.509613684664799,[6600|0|4500|0]
140,14000,0.6109209060668945,0.6414552330970764,0.0,-2.3265380859375,0.3572945892810821,-2.6229045391082764,4.0234375,2,F1,7.6,90,450.0,4.510003484573108,[6600|0|4600|0]
141,14100,0.6112012267112732,0.6411468386650085,0.0,-2.2899677753448486,0.3675998747348785,-2.629868030548096,4.0234375,2,F1,7.6,90,450.0,4.510420242043821,[6600|0|4700|0]
142,14200,0.6110299229621887,0.6411568522453308,0.0,-2.2654716968536377,0.3888043463230133,-2.630660057067871,4.02734375,2,F1,7.6,90,450.0,4.51059183821581,[6600|0|4800|0]
143,14300,0.6107009649276733,0.6412597894668579,0.0,-2.256354808807373,0.4037376940250397,-2.646290302276612,4.02734375,2,F1,7.6,90,450.0,4.510936525697521,[6600|0|4900|0]
144,14400,0.6104289889335632,0.6411668062210083,0.0,-2.2509708404541016,0.4157154560089111,-2.616605520248413,4.02734375,2,F1,7.6,90,450.0,4.5112239571247885,[6600|0|5000|0]
145,14500,0.6104860901832581,0.640835702419281,0.0,-2.241068124771118,0.406949520111084,-2.6110928058624268,4.02734375,2,F1,7.6,90,450.0,4.511559948613126,[6600|0|5100|0]
146,14600,0.61058109998703,0.6411488652229309,0.0,-2.2483510971069336,0.4008364975452423,-2.606031894683838,4.02734375,2,F1,7.6,90,450.0,4.511887206622046,[6600|0|5200|0]
147,14700,0.6105855107307434,0.6411634683609009,0.0,-2.2463202476501465,0.3875836133956909,-2.610111713409424,4.02734375,2,F1,7.6,90,450.0,4.511902461336028,[6600|0|5300|0]
148,14800,0.6107850670814514,0.6409146785736084,0.0,-2.2408103942871094,0.3760108947753906,-2.6304802894592285,4.03125,2,F1,7.6,90,450.0,4.512221395648025,[6600|0|5400|0]
149,14900,0.6106341481208801,0.6406050324440002,0.0,-2.239325523376465,0.3877247869968414,-2.630000591278076,4.03125,2,F1,7.6,90,450.0,4.512565862276657,[6600|0|5500|0]
150,15000,0.6064797043800354,0.6376991868019104,0.0,-2.094835042953491,0.4591889977455139,-2.569936513900757,4.03125,2,F1,7.6,90,450.0,4.517635708594988,[6600|0|5600|0]
151,15100,0.6037259101867676,0.6383035778999329,0.0,-2.113564968109131,0.4440087378025055,-2.5795722007751465,4.03125,2,F1,7.6,90,450.0,4.520455047357578,[6600|0|5700|0]
152,15200,0.6036419868469238,0.6438689231872559,0.0,-5.808356285095215,-3.864805459976196,-2.855910539627075,4.03125,2,F1,7.6,90,450.0,4.52602102537533,[6600|0|5800|0]
153,15300,0.6411044597625732,0.7024834156036377,0.016345277428627,-2.743713617324829,-2.906238555908203,-0.3666686415672302,4.03125,2,F1,7.6,90,450.0,4.597479150822369,[6600|0|5900|0]
154,15400,0.7038969397544861,0.7570239901542664,0.015752138569951,-2.237253427505493,-0.25803342461586,-11.266190528869627,4.03125,2,F1,7.6,90,450.0,4.6806531950281975,[6600|0|6000|0]
155,15500,0.742487370967865,0.7782520651817322,0.0,-3.303641557693481,2.059419870376587,-14.03944492340088,4.0390625,2,F1,7.6,90,450.0,4.727429069366719,[6600|0|6100|0]
156,15600,0.7477620840072632,0.777202844619751,0.0,-4.42625617980957,3.51408052444458,-12.373266220092772,4.0390625,2,F1,7.6,90,450.0,4.732807123051435,[6600|0|6200|0]
157,15700,0.7526876926422119,0.7844988703727722,0.0,-0.0376841984689235,-1.480094313621521,-15.149941444396973,4.0390625,2,F1,7.6,90,450.0,4.74161016867289,[6600|0|6300|0]
158,15800,0.7479660511016846,0.7843725085258484,0.0,0.3723777234554291,-1.963206768035889,-11.791210174560549,4.0390625,2,F1,7.6,90,450.0,4.746333500775717,[6600|0|6400|0]
159,15900,0.7431392669677734,0.7846182584762573,0.0,-0.0647441297769546,-1.435079574584961,-10.644789695739746,4.0390625,2,F1,7.6,90,450.0,4.751166536893263,[6600|0|6500|0]
160,16000,0.7399702072143555,0.7858312726020813,0.0,-0.06824691593647,-1.423302173614502,-10.540331840515137,4.0390625,2,F1,7.6,90,450.0,4.754559815984376,[6600|0|6600|0]
161,16100,0.7627448439598083,0.7644307613372803,0.0,0.0430263690650463,-1.5001301765441897,-9.635568618774414,4.0390625,2,F1,7.6,90,450.0,4.785811471321049,[6600|0|6700|0]
162,16200,0.7627984285354614,0.7648170590400696,0.0,-0.1794307231903076,-1.4211524724960327,-10.289302825927734,4.0390625,2,F1,7.6,90,450.0,4.786201467759402,[6600|0|6800|0]
163,16300,0.7625535130500793,0.7655128836631775,0.0,-0.3622539341449737,-1.3553804159164429,-10.588640213012695,4.0390625,2,F1,7.6,90,450.0,4.786939136723846,[6600|0|6900|0]
164,16400,0.7620858550071716,0.7656577229499817,0.0,-0.4716759324073791,-1.3020483255386353,-10.788748741149902,4.12109375,2,F1,7.6,90,450.0,4.787428710481413,[6600|0|7000|0]
165,16500,0.7624021768569946,0.7660174369812012,0.0,-0.5507602691650391,-1.2870347499847412,-10.905155181884766,4.12109375,2,F1,7.6,90,450.0,4.787907723734811,[6600|0|7100|0]
166,16600,0.7622977495193481,0.7657852172851562,0.0,-0.585841178894043,-1.2728773355484009,-11.000651359558104,4.12890625,2,F1,7.6,90,450.0,4.788162343168632,[6600|0|7200|0]
167,16700,0.7621887922286987,0.7661452889442444,0.0,-0.5938994884490967,-1.2604273557662964,-11.044257164001465,4.12890625,2,F1,7.6,90,450.0,4.788538538983154,[6600|0|7300|0]
168,16800,0.7623909115791321,0.7665102481842041,0.0,-0.6259467005729675,-1.2537223100662231,-11.121418952941896,4.12890625,2,F1,7.6,90,450.0,4.788955728962242,[6600|0|7400|0]
169,16900,0.7622597217559814,0.7663592100143433,0.0,-0.5782411098480225,-1.2350388765335083,-11.149602890014648,4.12890625,2,F1,7.6,90,450.0,4.789155787199896,[6600|0|7500|0]
170,17000,0.7625528573989868,0.7662029266357422,0.0,-0.5380545258522034,-1.2343966960906982,-11.157779693603516,4.12890625,2,F1,7.6,90,450.0,4.789487981419634,[6600|0|7600|0]
171,17100,0.7621963620185852,0.7662671804428101,0.0,-0.537171483039856,-1.2311413288116455,-11.184893608093262,4.1328125,2,F1,7.6,90,450.0,4.789850220992252,[6600|0|7700|0]
172,17200,0.7622079253196716,0.7662807106971741,0.0,-0.5205862522125244,-1.2327969074249268,-11.19134521484375,4.1328125,2,F1,7.6,90,450.0,4.789868019242592,[6600|0|7800|0]
173,17300,0.7621462941169739,0.7660427093505859,0.0,-0.5108991265296936,-1.237886667251587,-11.200072288513184,4.1328125,2,F1,7.6,90,450.0,4.790113870917639,[6600|0|7900|0]
174,17400,0.7620254755020142,0.76615309715271,0.0,-0.482885479927063,-1.244249701499939,-11.234451293945312,4.1328125,2,F1,7.6,90,450.0,4.790277524834728,[6600|0|8000|0]
175,17500,0.7619860768318176,0.7664639949798584,0.0,-0.4601206183433532,-1.245030164718628,-11.254986763000488,4.1328125,2,F1,7.6,90,450.0,4.7905909091261965,[6600|0|8100|0]
176,17600,0.7623116374015808,0.766266942024231,0.0,-0.4319509863853454,-1.2568522691726685,-11.266247749328612,4.1328125,2,F1,7.6,90,450.0,4.790971460767772,[6600|0|8200|0]
177,17700,0.7616713047027588,0.76616370677948,0.0,-0.4015186727046966,-1.237071871757507,-11.245857238769531,4.1328125,2,F1,7.6,90,450.0,4.79162006194025,[6600|0|8300|0]
178,17800,0.7616653442382812,0.7666133642196655,0.0,-0.3931452333927154,-1.2348302602767944,-11.239091873168944,4.13671875,2,F1,7.6,90,450.0,4.79206975888337,[6600|0|8400|0]
179,17900,0.7624324560165405,0.7658458352088928,0.0,-0.3874510526657104,-1.2517151832580566,-11.250123023986816,4.13671875,2,F1,7.6,90,450.0,4.793154913832086,[6600|0|8500|0]
180,18000,0.7622997164726257,0.7655791640281677,0.0,-0.3590393364429474,-1.242936611175537,-11.241296768188477,4.13671875,2,F1,7.6,90,450.0,4.793452795192946,[6600|0|8600|0]
181,18100,0.7621712684631348,0.765525758266449,0.0,-0.3509825766086578,-1.2423830032348633,-11.225821495056152,4.13671875,2,F1,7.6,90,450.0,4.793591903303878,[6600|0|8700|0]
182,18200,0.7620794773101807,0.7660349011421204,0.0,-0.3905901908874511,-1.2559211254119873,-11.26063060760498,4.13671875,2,F1,7.6,90,450.0,4.794109254329399,[6600|0|8800|0]
183,18300,0.7627326846122742,0.7662118077278137,0.0,-0.3656438589096069,-1.2597194910049438,-11.24024772644043,4.13671875,2,F1,7.6,90,450.0,4.794785993362979,[6600|0|8900|0]
184,18400,0.7622999548912048,0.7663185000419617,0.0,-0.3493204414844513,-1.239327311515808,-11.24432373046875,4.14453125,2,F1,7.6,90,450.0,4.795231681888066,[6600|0|9000|0]
185,18500,0.7623465061187744,0.7660349607467651,0.0,-0.3261699676513672,-1.2416584491729736,-11.245436668395996,4.13671875,2,F1,7.6,90,450.0,4.795519017142967,[6600|0|9100|0]
186,18600,0.7618985176086426,0.7660907506942749,0.0,-0.4355581104755401,-1.289349913597107,-11.25550937652588,4.14453125,2,F1,7.6,90,450.0,4.7959704661693845,[6600|0|9200|0]
187,18700,0.7620282173156738,0.7661856412887573,0.0,-0.4156347513198852,-1.279434323310852,-11.279348373413086,4.14453125,2,F1,7.6,90,450.0,4.7961311716108765,[6600|0|9300|0]
188,18800,0.7621556520462036,0.7661511898040771,0.0,-0.4033876359462738,-1.278305172920227,-11.265624046325684,4.14453125,2,F1,7.6,90,450.0,4.796263181138343,[6600|0|9400|0]
189,18900,0.7621105313301086,0.7663224339485168,0.0,-0.3978575766086578,-1.2689759731292725,-11.2515287399292,4.14453125,2,F1,7.6,90,450.0,4.796440269918411,[6600|0|9500|0]
190,19000,0.7623669505119324,0.7656875848770142,0.0,-0.3724686503410339,-1.2662763595581057,-11.260751724243164,4.14453125,2,F1,7.6,90,450.0,4.797124948047458,[6600|0|9600|0]
191,19100,0.7618719339370728,0.7655247449874878,0.0,-0.3464429974555969,-1.2484164237976074,-11.255486488342283,4.14453125,2,F1,7.6,90,450.0,4.797646060548753,[6600|0|9700|0]
192,19200,0.7622578144073486,0.7659605741500854,0.0,-0.3473048806190491,-1.2616811990737915,-11.237133026123049,4.14453125,2,F1,7.6,90,450.0,4.798228169470099,[6600|0|9800|0]
193,19300,0.7623788714408875,0.7656336426734924,0.0,-0.3279424905776977,-1.2623090744018557,-11.24672031402588,4.14453125,2,F1,7.6,90,450.0,4.798576793903776,[6600|0|9900|0]
194,19400,0.7621549367904663,0.7657467126846313,0.0,-0.3289611339569092,-1.2534713745117188,-11.268108367919922,4.1484375,2,F1,7.6,90,450.0,4.798827655529136,[6600|0|10000|0]
195,19500,0.7621091604232788,0.7656590342521667,0.0,-0.3261409401893616,-1.247774958610535,-11.235218048095703,4.14453125,2,F1,7.6,90,450.0,4.798926564493908,[6600|0|10100|0]
196,19600,0.7622637748718262,0.7654796242713928,0.0,-0.3168069720268249,-1.253602147102356,-11.249419212341309,4.1484375,2,F1,7.6,90,450.0,4.799163405303105,[6600|0|10200|0]
197,19700,0.7622489333152771,0.7654770016670227,0.0,-0.313789427280426,-1.2527607679367063,-11.263493537902832,4.1484375,2,F1,7.6,90,450.0,4.799178476794554,[6600|0|10300|0]
198,19800,0.7622610330581665,0.7653437852859497,0.0,-0.3139439523220062,-1.2535215616226196,-11.27729320526123,4.1484375,2,F1,7.6,90,450.0,4.799312241543139,[6600|0|10400|0]
199,19900,0.7619218826293945,0.7654348015785217,0.0,-0.3153364956378937,-1.244840145111084,-11.26650047302246,4.1484375,2,F1,7.6,90,450.0,4.79966339247771,[6600|0|10500|0]
200,20000,0.7621310353279114,0.7661625146865845,0.0,-0.3601571917533874,-1.249948501586914,-11.263714790344238,4.1484375,2,F1,7.6,90,450.0,4.800420565654033,[6600|0|10600|0]
201,20100,0.762378990650177,0.7661058902740479,0.0,-0.3384534120559692,-1.243543267250061,-11.24807834625244,4.1484375,2,F1,7.6,90,450.0,4.800674904337553,[6600|0|10700|0]
202,20200,0.7618897557258606,0.766236424446106,0.0,-0.4504307210445404,-1.2828242778778076,-11.237107276916504,4.1484375,2,F1,7.6,90,450.0,4.8011812540005785,[6600|0|10800|0]
203,20300,0.7621633410453796,0.7664368152618408,0.0,-0.425103485584259,-1.2800235748291016,-11.22877025604248,4.1484375,2,F1,7.6,90,450.0,4.801520378470482,[6600|0|10900|0]
204,20400,0.7619837522506714,0.7662267684936523,0.0,-0.3974424302577972,-1.2697569131851196,-11.215018272399902,4.1484375,2,F1,7.6,90,450.0,4.80179673291682,[6600|0|11000|0]
205,20500,0.7623133063316345,0.7655835747718811,0.0,-0.3766610026359558,-1.2758259773254397,-11.228643417358398,4.15234375,2,F1,7.6,90,450.0,4.802519438981555,[6600|0|11100|0]
206,20600,0.7622423768043518,0.7656762003898621,0.0,-0.3580023944377899,-1.2643169164657593,-11.244988441467283,4.1484375,2,A/E1,7.6,90,450.0,4.802636103041775,[6600|0|11100|0]
207,20700,0.7626686692237854,0.7656725645065308,0.0,-0.3228538334369659,-1.274479866027832,-11.29822063446045,3.013671875,2,A/E1,7.6,90,450.0,4.803062410966302,[6600|0|11100|0]
208,20800,0.7639340162277222,0.7670718431472778,0.0,-0.0420050099492073,0.4334414303302765,-10.182279586791992,3.3671875,2,A/E1,7.6,90,450.0,4.804948964372602,[6600|0|11100|0]
209,20900,0.7657972574234009,0.7744410037994385,0.0,-1.309106469154358,2.074643850326538,-7.677616119384766,3.521484375,2,A/E1,7.6,90,450.0,4.812550029855192,[6600|0|11100|0]
210,21000,0.7669845819473267,0.7908455729484558,0.05202092602849,0.125385582447052,0.9102070927619934,-6.350275993347168,3.515625,2,A/E1,7.6,90,450.0,4.867109138841242,[6600|0|11100|0]
211,21100,0.7688822746276855,0.8112452626228333,0.1263619214296341,3.013596296310425,2.286947727203369,-3.872337102890015,3.552734375,2,A/E1,7.6,90,450.0,4.944221603291244,[6600|0|11100|0]
212,21200,0.7674671411514282,0.8293785452842712,0.2103448957204818,5.488304615020752,2.176477432250977,-1.5247845649719238,3.546875,2,A/E1,7.6,90,450.0,5.030151566130597,[6600|0|11100|0]
213,21300,0.7658088207244873,0.8384646773338318,0.3055184781551361,6.065203666687012,1.1777857542037964,-0.0197963342070579,3.55859375,2,A/E1,7.6,90,450.0,5.125772267946189,[6600|0|11100|0]
214,21400,0.7543030381202698,0.841822624206543,0.397173136472702,5.040736675262451,1.7721965312957764,0.8514653444290161,3.552734375,2,A/E1,7.6,90,450.0,5.21820730043845,[6600|0|11100|0]
215,21500,0.7467206716537476,0.8351496458053589,0.4869863986968994,4.012612342834473,0.6255675554275513,1.4749205112457275,3.546875,2,A/E1,7.6,90,450.0,5.308586739434981,[6600|0|11100|0]
216,21600,0.7378783822059631,0.8223212361335754,0.5794650912284851,2.8809351921081543,-0.2180783748626709,2.358703136444092,3.546875,2,A/E1,7.6,90,450.0,5.402368735306988,[6600|0|11100|0]
217,21700,0.7304326295852661,0.8079687356948853,0.6730878353118896,0.3130550980567932,-1.0879814624786377,4.164990425109863,3.537109375,2,A/E1,7.6,90,450.0,5.49737742812316,[6600|0|11100|0]
218,21800,0.7262718677520752,0.7956895232200623,0.7598193287849426,-0.0779248625040054,-1.440603733062744,5.385348320007324,3.541015625,2,A/E1,7.6,90,450.0,5.585072598788942,[6600|0|11100|0]
219,21900,0.7245782613754272,0.7849669456481934,0.8579252362251282,-1.954463243484497,-0.5443877577781677,5.387311458587647,3.552734375,2,A/E1,7.6,90,450.0,5.683777264570282,[6600|0|11100|0]
220,22000,0.7230160236358643,0.7788957357406616,0.968954861164093,-1.1429799795150757,-0.3283103108406067,4.455358982086182,3.552734375,2,A/E1,7.6,90,450.0,5.794983729268084,[6600|0|11100|0]
221,22100,0.7229706048965454,0.776037871837616,1.0597987174987793,-0.6676329970359802,-0.0919812396168708,3.290487766265869,3.55859375,2,A/E1,7.6,90,450.0,5.885872538715163,[6600|0|11100|0]
222,22200,0.7224586009979248,0.7745500206947327,1.1594581604003906,0.2896550297737121,0.4578770101070404,2.0708749294281006,3.611328125,2,A/E1,7.6,90,450.0,5.985544402390301,[6600|0|11100|0]
223,22300,0.7210357785224915,0.7709477543830872,1.2520877122879028,1.0646265745162964,0.3459334373474121,0.9859804511070251,3.568359375,2,A/E1,7.6,90,450.0,6.078254890627921,[6600|0|11100|0]
224,22400,0.7194439768791199,0.7648731470108032,1.3301026821136477,0.8567100763320923,0.1925664842128753,0.4720492362976074,3.58984375,2,A/E1,7.6,90,450.0,6.156522190339302,[6600|0|11100|0]
225,22500,0.7156783938407898,0.7557553648948669,1.3895224332809448,0.1696140170097351,0.2517668902873993,0.4179158806800842,3.59375,2,A/E1,7.6,90,450.0,6.216755241026743,[6600|0|11100|0]
226,22600,0.710946261882782,0.747340202331543,1.4338802099227903,-0.4342716336250305,0.0153558449819684,0.692585289478302,3.58984375,2,A/E1,7.6,90,450.0,6.262151500591194,[6600|0|11100|0]
227,22700,0.7062739729881287,0.7361025810241699,1.4626853466033936,-0.9081284403800964,-0.6727573275566101,0.5563575625419617,3.55859375,2,A/E1,7.6,90,450.0,6.293422098848203,[6600|0|11100|0]
228,22800,0.6999792456626892,0.7289130091667175,1.482648253440857,-1.2798044681549072,-0.8927131295204163,0.3177081644535064,3.5625,2,A/E1,7.6,90,450.0,6.315554228998651,[6600|0|11100|0]
229,22900,0.694821834564209,0.7222855687141418,1.4946197271347046,-1.832009077072144,-1.2214906215667725,-0.1577010750770568,3.546875,2,A/E1,7.6,90,450.0,6.330177431062277,[6600|0|11100|0]
230,23000,0.6920310258865356,0.7179891467094421,1.501481056213379,-1.720755100250244,-1.379007339477539,-1.0686146020889282,3.546875,2,A/E1,7.6,90,450.0,6.33874047326956,[6600|0|11100|0]
231,23100,0.6909052729606628,0.7156587243080139,1.5039554834365845,-1.401244878768921,-1.4717867374420166,-1.9350390434265137,3.5625,2,A/E1,7.6,90,450.0,6.342321112640137,[6600|0|11100|0]
232,23200,0.6914451718330383,0.715539813041687,1.503358244895935,-0.9224925637245178,-1.2414578199386597,-2.494220972061157,3.521484375,2,A/E1,7.6,90,450.0,6.343134945888468,[6600|0|11100|0]
233,23300,0.6947486996650696,0.7160137891769409,1.4992626905441284,-0.5925813317298889,-1.0420924425125122,-2.5487546920776367,3.537109375,2,A/E1,7.6,90,450.0,6.3484180808443815,[6600|0|11100|0]
234,23400,0.6993684768676758,0.7173478603363037,1.494610071182251,-0.178122416138649,-0.4794322550296783,-2.3191792964935303,3.546875,2,A/E1,7.6,90,450.0,6.3551090414769424,[6600|0|11100|0]
235,23500,0.7047505974769592,0.7177783846855164,1.4898470640182495,0.3233183920383453,-0.0223063807934522,-2.297381401062012,3.525390625,2,A/E1,7.6,90,450.0,6.3623089588870565,[6600|0|11100|0]
236,23600,0.7104150056838989,0.7174912691116333,1.4854414463043213,0.3122398257255554,0.1785473525524139,-2.332080841064453,3.537109375,2,A/E1,7.6,90,450.0,6.369490701233374,[6600|0|11100|0]
237,23700,0.7167636156082153,0.7160707116127014,1.4809690713882446,-2.569490671157837,-2.065793037414551,-2.19004774093628,3.86328125,2,A/E1,7.6,90,53.0,6.377385317688203,[6600|0|11100|0]
238,23800,0.7274093627929688,0.7146893739700317,1.4484752416610718,-14.483716011047363,-15.558393478393556,-4.477817535400391,3.826171875,2,A/E1,7.6,90,53.0,6.411606495300075,[6600|0|11100|0]
239,23900,0.7516409754753113,0.7332332134246826,1.3848875761032104,-13.600096702575684,-12.40721035003662,-2.610154390335083,3.705078125,2,A/E1,7.6,90,53.0,6.482136178739073,[6600|0|11100|0]
240,24000,0.7848926186561584,0.7659906148910522,1.2634727954864502,-15.648608207702637,-12.238760948181152,-9.610637664794922,3.484375,2,A/E1,7.6,90,53.0,6.612214109523935,[6600|0|11100|0]
241,24100,0.8391488194465637,0.8110343813896179,1.1367193460464478,-9.69670295715332,-8.976266860961914,-0.6565814018249512,3.3671875,2,A/E1,7.6,90,53.0,6.757262767461626,[6600|0|11100|0]
242,24200,0.9074968695640564,0.8711482286453247,1.0194306373596191,-4.511106014251709,-3.5941383838653564,1.5808095932006836,3.3671875,2,A/E1,7.6,90,53.0,6.905727483041353,[6600|0|11100|0]
243,24300,0.9845555424690248,0.9314455986022948,0.9254536032676696,0.0735078081488609,1.9581942558288568,3.657541275024414,3.404296875,2,A/E1,7.6,90,53.0,7.04139433540523,[6600|0|11100|0]
244,24400,1.060490965843201,0.9877646565437316,0.857861340045929,1.778495192527771,6.252736568450928,5.129604339599609,3.494140625,2,A/E1,7.6,90,53.0,7.157612831600385,[6600|0|11100|0]
245,24500,1.128775954246521,1.0372146368026731,0.812593400478363,2.895291805267334,7.106291770935059,6.518402099609375,3.5,2,A/E1,7.6,90,53.0,7.253306752732002,[6600|0|11100|0]
246,24600,1.1872398853302002,1.0808223485946655,0.7782742977142334,5.436430931091309,8.778874397277832,6.963356971740723,3.484375,2,A/E1,7.6,90,53.0,7.333913604674164,[6600|0|11100|0]
247,24700,1.23679780960083,1.1116507053375244,0.7556527256965637,6.879302024841309,8.369182586669922,4.840217590332031,3.5,2,A/E1,7.6,90,53.0,7.396508420418194,[6600|0|11100|0]
248,24800,1.2770229578018188,1.1286972761154177,0.7439804077148438,6.936520576477051,7.402698516845703,2.5647523403167725,3.53125,2,A/E1,7.6,90,53.0,7.441728892885249,[6600|0|11100|0]
249,24900,1.3073867559432983,1.135277271270752,0.7399201393127441,5.46842622756958,6.744535446166992,1.7760834693908691,3.494140625,2,A/E1,7.6,90,53.0,7.473061660929547,[6600|0|11100|0]
250,25000,1.3313544988632202,1.1322959661483765,0.7396241426467896,4.142176151275635,5.593888282775879,2.16010856628418,3.478515625,2,A/E1,7.6,90,53.0,7.497215925458495,[6600|0|11100|0]
251,25100,1.3493664264678955,1.1251716613769531,0.7404632568359375,1.2108087539672852,5.109487533569336,2.7191193103790283,3.505859375,2,A/E1,7.6,90,53.0,7.516603791951089,[6600|0|11100|0]
252,25200,1.353764891624451,1.1072405576705933,0.7280905246734619,0.675731360912323,4.993612766265869,2.232826471328736,3.505859375,2,A/E1,7.6,90,53.0,7.538828901107761,[6600|0|11100|0]
253,25300,1.3668420314788818,1.10481595993042,0.7417874336242676,-1.4340705871582031,5.322061538696289,2.648745059967041,3.509765625,2,A/E1,7.6,90,53.0,7.557920668332946,[6600|0|11100|0]
254,25400,1.3674046993255615,1.0961341857910156,0.7392401695251465,-1.1207438707351685,4.889932632446289,2.604706287384033,3.484375,2,A/E1,7.6,90,53.0,7.566985895947518,[6600|0|11100|0]
255,25500,1.3560835123062134,1.0798591375350952,0.7234169244766235,-2.1582486629486084,4.328518390655518,2.599386215209961,3.462890625,2,A/E1,7.6,90,53.0,7.59235165150743,[6600|0|11100|0]
256,25600,1.3465209007263184,1.077370047569275,0.7196043729782104,-0.8357553482055664,2.767789602279663,2.419917821884156,3.46875,2,A/E1,7.6,90,53.0,7.602942905352653,[6600|0|11100|0]
257,25700,1.3344316482543943,1.0752873420715332,0.7181436419487,0.0350098609924316,1.536137580871582,2.3260693550109863,3.48828125,2,A/E1,7.6,90,53.0,7.615296909669506,[6600|0|11100|0]
258,25800,1.3218480348587036,1.07196044921875,0.7149997353553772,0.1298943310976028,1.159234881401062,2.318950653076172,3.494140625,2,A/E1,7.6,90,53.0,7.628687193117352,[6600|0|11100|0]
259,25900,1.3095279932022097,1.0670703649520874,0.7102205157279968,0.6836962699890137,0.1323956549167633,3.05729079246521,3.447265625,2,A/E1,7.6,90,53.0,7.642777519259764,[6600|0|11100|0]
260,26000,1.3006608486175537,1.0601946115493774,0.707073986530304,-0.7021820545196533,0.4445064067840576,3.337935447692871,3.447265625,2,A/E1,7.6,90,53.0,7.654430968703255,[6600|0|11100|0]
261,26100,1.287711501121521,1.0543254613876345,0.7089330554008484,-1.810657858848572,1.0733656883239746,3.001893758773804,3.46875,2,A/E1,7.6,90,53.0,7.668769331973151,[6600|0|11100|0]
262,26200,1.2793928384780884,1.0498600006103516,0.7125075459480286,-2.8217673301696777,0.3533953130245209,3.0898678302764893,3.515625,2,A/E1,7.6,90,53.0,7.678864750280511,[6600|0|11100|0]
263,26300,1.2674700021743774,1.0504597425460815,0.714290976524353,-0.2703521251678467,-0.234339565038681,3.007906436920166,3.505859375,2,A/E1,7.6,90,53.0,7.69093514134854,[6600|0|11100|0]
264,26400,1.2563756704330444,1.0526130199432373,0.7174059152603149,-0.0442810989916324,0.4221753180027008,4.185011863708496,3.5,2,A/E1,7.6,90,53.0,7.702657924450886,[6600|0|11100|0]
265,26500,1.2451496124267578,1.0559102296829224,0.7178278565406799,-0.3636943399906158,-0.195587545633316,6.07809591293335,3.505859375,2,A/E1,7.6,90,53.0,7.714365785266255,[6600|0|11100|0]
266,26600,1.2330501079559326,1.05930757522583,0.7154629826545715,-0.5701718330383301,0.5292457938194275,6.301102638244629,3.47265625,2,A/E1,7.6,90,53.0,7.727153771568822,[6600|0|11100|0]
267,26700,1.2199413776397705,1.0640462636947632,0.7129332423210144,0.6630009412765503,-0.9786571860313416,6.176411151885986,3.81640625,2,A/E1,7.6,90,450.0,7.741320407198451,[6600|0|11100|0]
268,26801,1.2064288854599,1.070292353630066,0.6922187805175781,-0.4644122421741485,-1.5797382593154907,5.866312980651856,3.779296875,2,A/E1,7.6,90,450.0,7.766829033429532,[6600|0|11100|0]
269,26901,1.1940783262252808,1.0765734910964966,0.6350926756858826,1.835854172706604,-2.3985300064086914,5.99873685836792,3.63671875,2,A/E1,7.6,90,450.0,7.825611521081228,[6600|0|11100|0]
270,27001,1.1865006685256958,1.08134663105011,0.5485421419143677,1.2410434484481812,-4.278456211090088,6.741611003875732,3.419921875,2,A/E1,7.6,90,450.0,7.912624156125588,[6600|0|11100|0]
271,27100,1.18510901927948,1.0843427181243896,0.4507517218589782,1.4651330709457395,-2.90133023262024,8.86671257019043,3.373046875,2,A/E1,7.6,90,450.0,8.01047035932219,[6600|0|11100|0]
272,27201,1.1895952224731443,1.0878503322601318,0.3599481284618377,-0.3133871257305145,-0.6182157397270203,9.595809936523438,3.345703125,2,A/E1,7.6,90,450.0,8.101452346274845,[6600|0|11100|0]
273,27301,1.1988097429275513,1.0894103050231934,0.277659922838211,1.112468123435974,-0.6693934798240662,8.617546081542969,3.3359375,2,A/E1,7.6,90,450.0,8.184269552741753,[6600|0|11100|0]
274,27401,1.2069685459136963,1.0954437255859375,0.2219864279031753,-0.6240463256835938,0.3867528438568115,6.393090724945068,3.373046875,2,A/E1,7.6,90,450.0,8.240860243390792,[6600|0|11100|0]
275,27501,1.213357925415039,1.1027806997299194,0.1837468296289444,2.619162082672119,2.088967084884644,4.346681118011475,3.39453125,2,A/E1,7.6,90,450.0,8.280318097313378,[6600|0|11100|0]
276,27601,1.2175787687301636,1.1070913076400757,0.1643910408020019,0.1634639352560043,1.3386486768722534,1.894264459609985,3.46875,2,A/E1,7.6,90,450.0,8.30059230309213,[6600|0|11100|0]
277,27701,1.2186278104782104,1.1093406677246094,0.1579672992229461,2.9122531414031982,1.447670578956604,0.0376000665128231,3.509765625,2,A/E1,7.6,90,450.0,8.307478852681983,[6600|0|11100|0]
278,27802,1.2172480821609497,1.107742190361023,0.1577183157205581,2.576745748519897,0.7206308245658875,-1.6055251359939575,3.53125,2,A/E1,7.6,90,450.0,8.309605063606565,[6600|0|11100|0]
279,27902,1.2147964239120483,1.100936770439148,0.1585161387920379,3.366860866546631,-0.2075503319501876,-2.272207975387573,3.525390625,2,A/E1,7.6,90,450.0,8.316882486923635,[6600|0|11100|0]
280,28002,1.2125815153121948,1.0875409841537476,0.1588220596313476,-1.6092604398727417,-0.0295276828110218,-1.727902054786682,3.53125,2,A/E1,7.6,90,450.0,8.330463595047414,[6600|0|11100|0]
281,28102,1.212857961654663,1.0769131183624268,0.1610929369926452,-2.3204667568206787,0.1287776082754135,-0.0234020035713911,3.537109375,2,A/E1,7.6,90,450.0,8.341334880061092,[6600|0|11100|0]
282,28202,1.214977741241455,1.0718345642089844,0.1649104505777359,-1.1810652017593384,0.426803320646286,0.0651216357946395,3.525390625,2,A/E1,7.6,90,450.0,8.348032535453719,[6600|0|11100|0]
283,28300,1.2178913354873655,1.071083903312683,0.167945921421051,-1.793832540512085,0.925982654094696,-1.1097503900527954,3.541015625,2,A/E1,7.6,90,450.0,8.35230648052258,[6600|0|11100|0]
284,28402,1.2191544771194458,1.0738766193389893,0.169421836733818,0.3306324183940887,0.4747054874897003,-2.672839879989624,3.521484375,2,A/E1,7.6,90,450.0,8.355708408740039,[6600|0|11100|0]
285,28502,1.217868685722351,1.0786101818084717,0.1702683418989181,-1.0229531526565552,1.5876623392105105,-2.7120556831359863,3.509765625,2,A/E1,7.6,90,450.0,8.360686002954504,[6600|0|11100|0]
286,28600,1.2142540216445925,1.0839457511901855,0.1682058423757553,0.3440251648426056,0.6337662935256958,-2.6830224990844727,3.515625,2,A/E1,7.6,90,450.0,8.367452686137952,[6600|0|11100|0]
287,28700,1.209717869758606,1.0885779857635498,0.167014017701149,1.1500815153121948,-0.2613509595394134,-2.823237419128418,3.525390625,2,A/E1,7.6,90,450.0,8.374044705337743,[6600|0|11100|0]
288,28800,1.2040725946426392,1.0919194221496582,0.1674130707979202,1.051303744316101,0.1749492883682251,-2.296288013458252,3.537109375,2,A/E1,7.6,90,450.0,8.380616886987044,[6600|0|11100|0]
289,28900,1.1984233856201172,1.0928891897201538,0.1688338220119476,2.0549569129943848,-1.6625919342041016,-1.5440467596054075,3.537109375,2,A/E1,7.6,90,450.0,8.38652218509409,[6600|0|11100|0]
290,29000,1.194103717803955,1.090950608253479,0.1714082658290863,-0.6479856967926025,-0.1404424011707306,-1.8001759052276611,3.541015625,2,A/E1,7.6,90,450.0,8.39191156252683,[6600|0|11100|0]
291,29100,1.190483331680298,1.0877861976623535,0.174021691083908,-0.4076879620552063,-1.673728585243225,-4.395705223083496,3.537109375,2,A/E1,7.6,90,450.0,8.397384284119982,[6600|0|11100|0]
292,29200,1.1886911392211914,1.0851818323135376,0.1740965098142624,1.8500430583953853,0.8215459585189819,-4.630932807922363,3.515625,2,A/E1,7.6,90,450.0,8.400546604553304,[6600|0|11100|0]
293,29300,1.1869069337844849,1.0827932357788086,0.1706674546003341,-1.2134851217269895,-2.64884614944458,-4.9049153327941895,3.509765625,2,A/E1,7.6,90,450.0,8.405090523798433,[6600|0|11100|0]
294,29400,1.1863925457000732,1.0797836780548096,0.1639858782291412,-0.3021593689918518,-0.1645606458187103,-3.426234006881714,3.42578125,2,A/E1,7.6,90,450.0,8.412436644924549,[6600|0|11100|0]
295,29500,1.1874369382858276,1.0781127214431765,0.1582534313201904,-1.7527241706848145,-0.1537213027477264,-1.080693602561951,3.416015625,2,A/E1,7.6,90,450.0,8.41849831131549,[6600|0|11100|0]
296,29600,1.189521074295044,1.077568769454956,0.152726724743843,-1.5768511295318604,-1.3475114107131958,0.3753477036952972,3.42578125,2,A/E1,7.6,90,450.0,8.424429920899021,[6600|0|11100|0]
297,29700,1.1915026903152466,1.0794074535369873,0.1492505967617035,-1.4502886533737185,0.8560028672218323,1.431691288948059,3.447265625,2,A/E1,7.6,90,450.0,8.428833445277657,[6600|0|11100|100]
298,29800,1.192608118057251,1.0828319787979126,0.1465514898300171,-1.082690954208374,-0.7981644868850708,1.50413179397583,3.46875,2,A/E1,7.6,90,450.0,8.43333172516937,[6600|0|11100|200]
299,29900,1.1922632455825806,1.087169170379639,0.1442085653543472,2.9274845123291016,-0.002559476532042,-0.359058529138565,3.447265625,2,A/E1,7.6,90,450.0,8.438273330469178,[6600|0|11100|300]
300,30000,1.1905992031097412,1.0884387493133545,0.1426308006048202,1.5508688688278198,-0.8236647248268127,-1.4341576099395752,3.42578125,2,A/E1,7.6,90,450.0,8.44089443894179,[6600|0|11100|400]
301,30100,1.1900116205215454,1.0843085050582886,0.1418491303920745,1.7976521253585815,-0.4661086797714233,-1.987105369567871,3.42578125,2,A/E1,7.6,90,450.0,8.445138868140864,[6600|0|11100|500]
302,30200,1.1889100074768066,1.076724410057068,0.1441173255443573,0.6720491647720337,0.2679421901702881,-1.506399154663086,3.453125,2,A/E1,7.6,90,450.0,8.453131161775154,[6600|0|11100|600]
303,30300,1.18805992603302,1.0680785179138184,0.147440880537033,0.5669887661933899,0.3723644614219665,-0.0493178553879261,3.47265625,2,A/E1,7.6,90,450.0,8.462432780301148,[6600|0|11100|700]
304,30400,1.1880251169204712,1.057431936264038,0.1508108377456665,0.6670356392860413,-0.2038102596998214,0.8090357184410095,3.484375,2,A/E1,7.6,90,450.0,8.473600032608129,[6600|0|11100|800]
305,30500,1.1869118213653564,1.046552658081055,0.1546573340892791,0.8174306154251099,1.5276427268981934,-0.1285844147205352,3.46875,2,A/E1,7.6,90,450.0,8.485192860343293,[6600|0|11100|900]
306,30600,1.1836124658584597,1.0345261096954346,0.1577942669391632,-0.3273493647575378,0.5612477660179138,-1.330580472946167,3.462890625,2,A/E1,7.6,90,450.0,8.498052252262713,[6600|0|11100|1000]
307,30700,1.1784253120422363,1.0226237773895264,0.1594977229833603,0.5988498330116272,0.1783519983291626,-2.685636520385742,3.478515625,2,A/E1,7.6,90,450.0,8.511147054343231,[6600|0|11100|1100]
308,30800,1.1724345684051514,1.010202407836914,0.1598004847764969,1.224193811416626,0.4494687914848327,-3.9928324222564697,3.462890625,2,A/E1,7.6,90,450.0,8.524940933260751,[6600|0|11100|1200]
309,30900,1.1638721227645874,0.9959653615951538,0.1583580523729324,0.2986387610435486,0.7865781784057617,-5.464812278747559,3.44140625,2,A/E1,7.6,90,450.0,8.541616951139025,[6600|0|11100|1300]
310,31000,1.1528657674789429,0.9815778732299804,0.1571958810091018,-1.0248653888702393,1.0593924522399902,-5.799891471862793,3.45703125,2,A/E1,7.6,90,450.0,8.559768819373748,[6600|0|11100|1400]
311,31100,1.1406899690628052,0.9688955545425416,0.1552916318178177,0.1854678094387054,0.818811297416687,-4.579927444458008,3.453125,2,A/E1,7.6,90,450.0,8.57745263794731,[6600|0|11100|1500]
312,31200,1.1277081966400146,0.9571396708488464,0.1522118747234344,-0.2420630604028701,0.5126951932907104,-2.297914743423462,3.42578125,2,A/E1,7.6,90,450.0,8.595234992133896,[6600|0|11100|1600]
313,31300,1.115282654762268,0.944016933441162,0.148458644747734,0.4060002565383911,-0.8485938906669617,-1.304917573928833,3.44140625,2,A/E1,7.6,90,450.0,8.613692702264819,[6600|0|11100|1700]
314,31400,1.1098618507385254,0.933086395263672,0.1477352529764175,0.2854055762290954,-0.6200336813926697,-1.5043880939483645,3.42578125,2,A/E1,7.6,90,450.0,8.62591502106152,[6600|0|11100|1800]
315,31500,1.1038107872009275,0.928497076034546,0.1567084789276123,0.2848819196224212,-1.3031227588653564,-2.356168508529663,3.462890625,2,A/E1,7.6,90,450.0,8.637670700748124,[6600|0|11100|1900]
316,31600,1.093449950218201,0.9131000638008118,0.1571697443723678,-0.6301196813583374,-0.1811691671609878,-3.0041496753692627,3.94921875,2,A/E1,7.6,90,450.0,8.656234851537183,[6600|0|11100|2000]
317,31700,1.0811856985092163,0.9005704522132874,0.132637932896614,-6.417490482330322,-2.70314884185791,-5.686590194702148,3.958984375,2,A/E1,7.6,90,450.0,8.686388007438307,[6600|0|11100|2100]
318,31800,1.0942628383636477,0.8713499903678894,0.0124966204166412,-18.468780517578125,-9.293371200561523,-10.667741775512695,3.958984375,2,A/E1,7.6,90,450.0,8.810721357516398,[6600|0|11100|2200]
319,31900,1.0912978649139404,0.8602452278137207,0.0,-3.993072986602783,6.498368740081787,-11.508625030517578,3.96484375,2,A/E1,7.6,90,450.0,8.82769994228603,[6600|0|11100|2300]
320,32000,1.0937095880508425,0.8583742380142212,0.0,-4.383983135223389,0.6741592288017273,-11.966551780700684,3.96875,2,A/E1,7.6,90,450.0,8.830752320263754,[6600|0|11100|2400]
321,32100,1.0938777923583984,0.8585450053215027,0.0,-3.68359637260437,1.065272331237793,-11.837873458862305,3.96875,2,A/E1,7.6,90,450.0,8.830992016242686,[6600|0|11100|2500]
322,32200,1.0943381786346436,0.8583993315696716,0.0,-3.3608169555664062,0.9903079271316528,-11.772249221801758,3.96875,2,A/E1,7.6,90,450.0,8.831474899629569,[6600|0|11100|2600]
323,32300,1.0945827960968018,0.8576573133468628,0.0,-3.029182195663452,0.9437030553817748,-11.718229293823242,3.974609375,2,A/E1,7.6,90,450.0,8.832256199025302,[6600|0|11100|2700]
324,32400,1.0949512720108032,0.857571005821228,0.0,-2.7251651287078857,0.910456359386444,-11.657493591308594,3.974609375,2,A/E1,7.6,90,450.0,8.83263464781732,[6600|0|11100|2800]
325,32500,1.0949786901474,0.85771644115448,0.0,-2.5244529247283936,0.900776743888855,-11.671802520751951,3.974609375,2,A/E1,7.6,90,450.0,8.832782645082068,[6600|0|11100|2900]
326,32600,1.094889998435974,0.8574399948120117,0.0,-2.223975419998169,0.9588769674301147,-11.469050407409668,3.98046875,2,A/E1,7.6,90,450.0,8.833072970416717,[6600|0|11100|3000]
327,32700,1.0947209596633911,0.8573908805847168,0.0,-2.019860029220581,0.930691123008728,-11.45675277709961,3.98046875,2,A/E1,7.6,90,450.0,8.833248999715298,[6600|0|11100|3100]
328,32800,1.0950101613998413,0.857032060623169,0.0,-1.80527138710022,0.927912414073944,-11.405003547668455,3.98046875,2,A/E1,7.6,90,450.0,8.833709856969957,[6600|0|11100|3200]
