time.ms,stateEstimate.x,stateEstimate.y,stateEstimate.z,stabilizer.roll,stabilizer.pitch,stabilizer.yaw,pm.vbat,drone_id,node_name,wind_speed,global_wind_direction,relative_wind_direction,travel_dist,waiting_time,curr_node_role
0,-0.3309868574142456,-0.3732817769050598,0.0171606931835412,0.4560941755771637,0.082905113697052,-4.3311543464660645,4.07421875,2,K1,0,None,None,0.0,[6200|0|0|0],start
100,-0.3306357562541961,-0.3732506334781647,0.0172382518649101,0.4807147681713104,0.103465624153614,-4.343347549438477,4.07421875,2,K1,0,None,None,0.0003609117436196,[6300|0|0|0],start
200,-0.3307732343673706,-0.3732257187366485,0.0168804917484521,0.4810717105865478,0.1150555834174156,-4.3494553565979,4.07421875,2,K1,0,None,None,0.0007449863156429,[6400|0|0|0],start
300,-0.3308804333209991,-0.3731874823570251,0.0172084160149097,0.4842326939105987,0.1229299679398536,-4.334514617919922,4.0703125,2,K1,0,None,None,0.0010921000735343,[6500|0|0|0],start
400,-0.331136018037796,-0.3731882870197296,0.0169896129518747,0.4976867139339447,0.1366787105798721,-4.33147668838501,4.07421875,2,K1,0,None,None,0.0014285506276069,[6600|0|0|0],start
500,-0.3305321037769317,-0.3733266294002533,0.0173277594149112,0.5341486930847168,0.1502071768045425,-4.326375961303711,4.07421875,2,K1,0,None,None,0.0021343792747928,[6700|0|0|0],start
600,-0.3309447765350342,-0.3734004199504852,0.0171809922903776,0.5542438626289368,0.1756829172372818,-4.339356899261475,4.07421875,2,K1,0,None,None,0.0025785464048545,[6800|0|0|0],start
700,-0.33059161901474,-0.3734965324401855,0.0171528048813343,0.579870879650116,0.1824659258127212,-4.356688976287842,3.3515625,2,fly,0,None,None,0.0029456327364515,[6800|0|0|0],fly
800,-0.3310644626617431,-0.3734848797321319,0.017752967774868,0.6192837357521057,0.0770062059164047,-4.43420934677124,3.3359375,2,fly,0,None,None,0.0037097743456385,[6800|0|0|0],fly
900,-0.3284884989261627,-0.370585948228836,0.0368225090205669,-3.0249154567718506,-1.6867249011993408,-4.331034660339356,3.63671875,2,fly,0,None,None,0.0231696509215379,[6800|0|0|0],fly
1000,-0.3216637670993805,-0.3592238426208496,0.0864896103739738,-0.0439071655273437,0.9491641521453856,-2.998643636703491,3.6640625,2,fly,0,None,None,0.0745748584904616,[6800|0|0|0],fly
1100,-0.3158190250396728,-0.3411220610141754,0.1532052606344223,0.920961856842041,2.9578945636749268,-1.8006625175476074,3.689453125,2,fly,0,None,None,0.1439493026089893,[6800|0|0|0],fly
1200,-0.3123956322669983,-0.3236583173274994,0.2285075634717941,3.299148797988892,3.530313968658448,-1.3085707426071167,3.6953125,2,fly,0,None,None,0.2213259061415893,[6800|0|0|0],fly
1300,-0.3138373792171478,-0.3096992075443268,0.3086906969547272,4.497928142547607,2.8533804416656494,-1.0436718463897705,3.6953125,2,fly,0,None,None,0.3027278119875141,[6800|0|0|0],fly
1400,-0.3188419044017792,-0.3022560179233551,0.3916387856006622,4.631152153015137,1.8885862827301023,-1.0292030572891235,3.689453125,2,fly,0,None,None,0.3861594112414612,[6800|0|0|0],fly
1500,-0.3256361484527588,-0.3016193509101867,0.4776700139045715,4.114520072937012,0.8267505168914795,-1.071074604988098,3.689453125,2,fly,0,None,None,0.4724608558446038,[6800|0|0|0],fly
1600,-0.3336792290210724,-0.3068702816963196,0.5656683444976807,3.0286810398101807,0.0574828945100307,-1.0927025079727173,3.689453125,2,fly,0,None,None,0.5609818680751657,[6800|0|0|0],fly
1700,-0.3400545418262481,-0.3148147761821747,0.6469249129295349,1.8281214237213133,-0.4194704890251159,-1.1453578472137451,3.689453125,2,fly,0,None,None,0.642874416694196,[6800|0|0|0],fly
1800,-0.3460546731948852,-0.3256450295448303,0.738804042339325,0.6179000735282898,-0.7071197628974915,-1.173831820487976,3.68359375,2,fly,0,None,None,0.735584019138825,[6800|0|0|0],fly
1900,-0.351229190826416,-0.3382000923156738,0.8405330181121826,-0.4796619713306427,-0.7139625549316406,-1.1428771018981934,3.689453125,2,fly,0,None,None,0.8382153483989174,[6800|0|0|0],fly
2000,-0.3537250757217407,-0.3465420305728912,0.9254557490348816,-0.871150016784668,-0.5297273993492126,-1.0841217041015625,3.68359375,2,fly,0,None,None,0.9235833025893926,[6800|0|0|0],fly
2100,-0.3559440374374389,-0.353831022977829,1.020477294921875,-0.932654619216919,-0.3701237738132477,-1.041539192199707,3.6796875,2,fly,0,None,None,1.0189098329161017,[6800|0|0|0],fly
2200,-0.3585990965366363,-0.3583336174488067,1.1159789562225342,-0.8857883214950562,-0.2321543842554092,-1.0163694620132446,3.6796875,2,fly,0,None,None,1.1145544355185282,[6800|0|0|0],fly
2300,-0.3600060045719147,-0.3619979918003082,1.2129738330841064,-0.3777650892734527,-0.1772703528404235,-0.95942360162735,3.6796875,2,fly,0,None,None,1.2116287017634977,[6800|0|0|0],fly
2400,-0.3612658083438873,-0.3651409149169922,1.3109290599822998,-0.1514629870653152,-0.2163964807987213,-0.9847697019577026,3.6796875,2,fly,0,None,None,1.3096424331889351,[6800|0|0|0],fly
2500,-0.3619433939456939,-0.367713987827301,1.410620093345642,0.0331634394824504,-0.010262181982398,-1.0216573476791382,3.689453125,2,fly,0,None,None,1.409368969073325,[6800|0|0|0],fly
2600,-0.3628542721271515,-0.3710106611251831,1.5094444751739502,0.1042658165097236,-0.1399687975645065,-1.1372687816619873,3.732421875,2,fly,0,None,None,1.5082525177436763,[6800|0|0|0],fly
2700,-0.3658586740493774,-0.3730867803096771,1.6114543676376345,0.345364362001419,0.101741038262844,-0.9917503595352172,3.75390625,2,fly,0,None,None,1.610327758925027,[6800|0|0|0],fly
2800,-0.3649532794952392,-0.3798867464065552,1.6890677213668823,0.2500761151313782,-0.5178592801094055,-1.6139018535614014,3.7578125,2,fly,0,None,None,1.6882436876900666,[6800|0|0|0],fly
2900,-0.3599408566951751,-0.3884357511997223,1.7531616687774658,-0.0466261468827724,-0.1830671280622482,4.901298999786377,3.75390625,2,fly,0,None,None,1.753099249980057,[6800|0|0|0],fly
3000,-0.3609959483146667,-0.3939582407474518,1.7957841157913208,-0.6222602128982544,-0.082801878452301,10.456762313842772,3.736328125,2,fly,0,None,None,1.7960909247390051,[6800|0|0|0],fly
3100,-0.3603427112102508,-0.4009869396686554,1.824464678764344,-1.0567317008972168,-0.2001359909772873,15.510988235473633,3.720703125,2,fly,0,None,None,1.825627410983801,[6800|0|0|0],fly
3200,-0.3580658137798309,-0.4044853448867798,1.842376708984375,-1.414350152015686,-0.2291248142719268,13.757936477661133,3.7109375,2,fly,0,None,None,1.8440193637779496,[6800|0|0|0],fly
3300,-0.3549961447715759,-0.4102489650249481,1.850329160690308,-1.3770705461502075,-0.094703122973442,7.0563483238220215,3.701171875,2,fly,0,None,None,1.8543093430321824,[6800|0|0|0],fly
3400,-0.3483584523200989,-0.4150895476341247,1.853284239768982,-1.4490160942077637,0.399267315864563,2.994098901748657,3.701171875,2,fly,0,None,None,1.8630399039212588,[6800|0|0|0],fly
3500,-0.3414047658443451,-0.4180046617984772,1.8520479202270508,-1.07439124584198,1.0117037296295166,0.7831600904464722,3.689453125,2,fly,0,None,None,1.870680593170538,[6800|0|0|0],fly
3600,-0.336650550365448,-0.419089525938034,1.848830223083496,-1.0045448541641235,1.5869885683059692,-0.3212438821792602,3.689453125,2,fly,0,None,None,1.876522944574615,[6800|0|0|0],fly
3700,-0.3300155699253082,-0.4201022982597351,1.843112111091613,-0.3460621833801269,1.4831651449203491,-0.9313110709190368,3.736328125,2,fly,0,None,None,1.885340284194271,[6800|0|0|0],fly
3800,-0.3228084444999695,-0.4174557328224182,1.8321279287338257,-11.708616256713867,-9.493844985961914,-2.48018765449524,3.748046875,2,fly,0,None,None,1.8987417478299973,[6800|0|0|0],fly
3900,-0.2996423244476318,-0.4038383960723877,1.8060884475708008,-14.543222427368164,-10.651053428649902,-2.89538836479187,3.6953125,2,fly,0,None,None,1.9361604003669688,[6800|0|0|0],fly
4000,-0.2455666661262512,-0.3907613456249237,1.7633744478225708,-16.871610641479492,-10.03800106048584,-0.9201222658157348,3.65234375,2,fly,0,None,None,2.006300772805301,[6800|0|0|0],fly
4100,-0.1747942417860031,-0.3590230047702789,1.7180440425872805,-14.345264434814451,-4.509315013885498,2.819185495376587,3.626953125,2,fly,0,None,None,2.096138982749608,[6800|0|0|0],fly
4200,-0.0845181345939636,-0.3076638579368591,1.6767871379852295,-11.839062690734863,3.497054100036621,-3.176100015640259,3.630859375,2,fly,0,None,None,2.20789617343794,[6800|0|0|0],fly
4300,0.0101521192118525,-0.2374923527240753,1.647722840309143,-6.137252807617188,11.15697193145752,-11.297588348388672,3.63671875,2,fly,0,None,None,2.3292684540414186,[6800|0|0|0],fly
4400,0.097783587872982,-0.1427719742059707,1.6158764362335205,-2.669329166412353,15.818558692932127,-14.766009330749512,3.642578125,2,fly,0,None,None,2.462179769808239,[6800|0|0|0],fly
4500,0.1656776219606399,-0.026234233751893,1.586665153503418,0.240803375840187,17.943552017211914,-12.379401206970217,3.62109375,2,fly,0,None,None,2.6001795663790164,[6800|0|0|0],fly
4600,0.2102681696414947,0.1010541915893554,1.5616114139556885,3.731814622879028,16.695247650146484,-10.456429481506348,3.615234375,2,fly,0,None,None,2.7373595577540657,[6800|0|0|0],fly
4700,0.1915774345397949,0.2603715658187866,1.5595217943191528,9.83554744720459,12.843422889709473,-9.9630708694458,3.63671875,2,fly,0,None,None,2.8977831714156084,[6800|0|0|0],fly
4800,0.1737598478794098,0.3910330832004547,1.5564398765563965,14.82907772064209,6.542575836181641,-4.403444766998291,3.6484375,2,fly,0,None,None,3.029689944312138,[6800|0|0|0],fly
4900,0.1498785018920898,0.4973663687705993,1.559588074684143,16.95089340209961,2.3019731044769287,-0.2803334295749664,3.658203125,2,fly,0,None,None,3.1387174521152588,[6800|0|0|0],fly
5000,0.1251678615808487,0.585739254951477,1.565396428108215,17.239376068115234,-0.4277518391609192,1.4542381763458252,3.6640625,2,fly,0,None,None,3.2306637392943984,[6800|0|0|0],fly
5100,0.1089452728629112,0.6464195251464844,1.5738428831100464,16.13515281677246,-2.178576946258545,1.7684988975524902,3.673828125,2,fly,0,None,None,3.294040471442312,[6800|0|0|0],fly
5200,0.1010852679610252,0.6856440901756287,1.581964135169983,14.123108863830566,-2.392810344696045,0.030740812420845,3.673828125,2,fly,0,None,None,3.3348608207034864,[6800|0|0|0],fly
5300,0.0966873839497566,0.7132077813148499,1.5886387825012207,11.889878273010254,-1.957229852676392,-3.816403388977051,3.673828125,2,fly,0,None,None,3.363560112854885,[6800|0|0|0],fly
5400,0.0964110717177391,0.726446270942688,1.593253493309021,9.57814121246338,-0.7764139771461487,-5.824294090270996,3.6796875,2,fly,0,None,None,3.377582577399878,[6800|0|0|0],fly
5500,0.0980693399906158,0.7288464307785034,1.5955220460891724,7.23230504989624,0.4920553267002105,-6.648440837860107,3.673828125,2,fly,0,None,None,3.3812781088391466,[6800|0|0|0],fly
5600,0.0977738723158836,0.7262310981750488,1.5953426361083984,5.253946781158447,1.3909797668457031,-3.897584915161133,3.673828125,2,fly,0,None,None,3.383916186494316,[6800|0|0|0],fly
5700,0.0957187190651893,0.7160621285438538,1.592700481414795,3.639771223068237,1.876813530921936,0.3935616016387939,3.673828125,2,fly,0,None,None,3.394621912983861,[6800|0|0|0],fly
5800,0.0903545618057251,0.70392245054245,1.5889232158660889,2.14609432220459,1.7904624938964844,2.831960678100586,3.673828125,2,fly,0,None,None,3.408420960056303,[6800|0|0|0],fly
5900,0.0810074582695961,0.6880531311035156,1.5806429386138916,1.311854362487793,1.364728927612305,3.919659614562988,3.673828125,2,fly,0,None,None,3.428614192470736,[6800|0|0|0],fly
6000,0.0698934197425842,0.6762040257453918,1.5737797021865845,0.4018253684043884,0.3567158281803131,3.3563320636749268,3.66796875,2,fly,0,None,None,3.4462501547190776,[6800|0|0|0],fly
6100,0.0568795688450336,0.6643980145454407,1.5647743940353394,0.5526984333992004,-0.4465445578098297,2.9372615814208984,3.66796875,2,fly,0,None,None,3.4659944650523338,[6800|0|0|0],fly
6200,0.0447185710072517,0.6545155048370361,1.5557267665863037,0.5123367309570312,-1.2755122184753418,2.1621854305267334,3.6640625,2,fly,0,None,None,3.484089034099531,[6800|0|0|0],fly
6300,0.0338772907853126,0.6441884636878967,1.5464502573013306,0.5412653088569641,-1.6545605659484863,1.5250239372253418,3.6640625,2,fly,0,None,None,3.5017025164429185,[6800|0|0|0],fly
6400,0.0254844762384891,0.634350597858429,1.5384780168533323,0.5310602188110352,-1.9487711191177368,1.031302809715271,3.6640625,2,fly,0,None,None,3.516893946851431,[6800|0|0|0],fly
6500,0.0194162242114543,0.6251741051673889,1.5311732292175293,0.27956423163414,-1.900072455406189,0.3791556656360626,3.658203125,2,fly,0,None,None,3.5300996889046634,[6800|0|0|0],fly
6600,0.0161568392068147,0.6151813268661499,1.523514747619629,0.2120766043663025,-1.56877338886261,-0.0724245458841323,3.6640625,2,fly,0,None,None,3.543104747503976,[6800|0|0|0],fly
6700,0.0142452688887715,0.6046389937400818,1.5171173810958862,-0.0009545953944325,-1.0587888956069946,-0.101490132510662,3.6640625,2,fly,0,None,None,3.555583577066917,[6800|0|0|0],fly
6800,0.013722519390285,0.5946099758148193,1.503340244293213,-0.158988207578659,-0.8255650997161865,0.0530530102550983,3.869140625,2,fly,0,None,None,3.5726324470019883,[6800|0|0|0],fly
6900,0.012964978814125,0.5854554772377014,1.4592974185943604,0.0991730540990829,-0.3978445827960968,0.1130666807293891,3.794921875,2,fly,0,None,None,3.61762299275843,[6800|0|0|0],fly
7000,0.0131271257996559,0.5720676183700562,1.3691688776016235,-0.3968290984630584,-0.6309282779693604,0.4894112646579742,3.716796875,2,fly,0,None,None,3.708740581390836,[6800|0|0|0],fly
7100,0.0098859574645757,0.5638861060142517,1.2604923248291016,-0.7235138416290283,-0.8286200165748596,0.9199684858322144,3.6640625,2,fly,0,None,None,3.817772849271144,[6800|0|0|0],fly
7200,0.0084240408614277,0.5549752116203308,1.1398767232894895,-1.0494414567947388,-0.9019580483436584,1.5766286849975586,3.6484375,2,fly,0,None,None,3.93872599959728,[6800|0|0|0],fly
7300,0.0089010205119848,0.5479764938354492,1.018307089805603,-1.5238171815872192,-1.4218569993972778,1.7083204984664917,3.65234375,2,fly,0,None,None,4.060497857370847,[6800|0|0|0],fly
7400,0.0116107147186994,0.5421456694602966,0.8977736830711365,-1.2902380228042605,-1.064706563949585,1.3900671005249023,3.658203125,2,fly,0,None,None,4.181202633973118,[6800|0|0|0],fly
7500,0.0166003927588462,0.5376433730125427,0.7760929465293884,-1.214591145515442,-0.8086471557617188,0.4982114136219024,3.658203125,2,fly,0,None,None,4.303068827831752,[6800|0|0|0],fly
7600,0.0220855046063661,0.5344647765159607,0.6561018824577332,-0.3025137782096863,1.076912760734558,-1.7923448085784912,3.658203125,2,fly,0,None,None,4.42322724570048,[6800|0|0|0],fly
7700,0.0247824061661958,0.5318790078163147,0.5367516875267029,0.3253691792488098,1.2205146551132202,-4.912287712097168,3.65234375,2,fly,0,None,None,4.542635907479542,[6800|0|0|0],fly
7800,0.0263180937618017,0.5285984873771667,0.4198052585124969,-1.4957857131958008,-1.6672985553741455,-7.8115315437316895,3.615234375,2,fly,0,None,None,4.659638417751406,[6800|0|0|0],fly
7900,0.0307429116219282,0.5290588140487671,0.3060193359851837,-4.820807456970215,-1.9071259498596191,-10.22569465637207,3.59375,2,fly,0,None,None,4.773511272634085,[6800|0|0|0],fly
8000,0.0400773137807846,0.5352301597595215,0.2124236971139907,-3.7184340953826895,-3.893860340118408,-13.936117172241213,3.58984375,2,fly,0,None,None,4.867773461168257,[6800|0|0|0],fly
8100,0.0525696389377117,0.5498620271682739,0.1152497008442878,-0.1978228390216827,1.5436599254608154,-17.799854278564453,3.59375,2,fly,0,None,None,4.966833722033641,[6800|0|0|0],fly
8200,0.0724251940846443,0.5585135221481323,0.0352402999997139,0.4010463654994964,-0.9458906650543212,-21.731416702270508,3.59375,2,fly,0,None,None,5.04972277836249,[6800|0|0|0],fly
8300,0.0974046364426612,0.5666179060935974,0.0,-3.991088151931762,-7.452348232269287,-24.1046199798584,3.599609375,2,fly,0,None,None,5.093671979990311,[6800|0|0|0],fly
8400,0.1286784559488296,0.5745139718055725,0.0,3.2452728748321533,-6.88030481338501,-24.54068756103516,3.701171875,2,fly,0,None,None,5.1259272065471375,[6800|0|0|0],fly
8500,0.1623857915401458,0.5755363702774048,0.0089497463777661,8.71854305267334,11.649664878845217,-19.16701316833496,3.642578125,2,fly,0,None,None,5.1608174305579855,[6800|0|0|0],fly
8600,0.1765199601650238,0.5703117847442627,0.030472557991743,8.790427207946777,16.433801651000977,-10.022354125976562,3.6484375,2,fly,0,None,None,5.18709103778045,[6800|0|0|0],fly
8700,0.1662821471691131,0.5577686429023743,0.0443815812468528,4.206451892852783,15.615796089172363,-2.4756298065185547,3.642578125,2,fly,0,None,None,5.208435923587504,[6800|0|0|0],fly
8800,0.1332840770483017,0.5413574576377869,0.0528263114392757,0.8047446608543396,8.126392364501953,2.786831855773926,3.630859375,2,fly,0,None,None,5.246244825998304,[6800|0|0|0],fly
8900,0.0868485793471336,0.5226259827613831,0.0601780302822589,1.6151453256607056,3.655514478683472,4.25064754486084,3.642578125,2,fly,0,None,None,5.296852842831083,[6800|0|0|0],fly
9000,0.0367441326379776,0.5028091073036194,0.0672817826271057,-1.3995213508605957,-4.551084041595459,4.065711498260498,3.65234375,2,fly,0,None,None,5.351200128230779,[6800|0|0|0],fly
9100,-0.006503046490252,0.485672116279602,0.0739873647689819,-1.6317235231399536,-6.802283763885498,4.481359958648682,3.65234375,2,fly,0,None,None,5.398199700524236,[6800|0|0|0],fly
9200,-0.0399806797504425,0.4732790887355804,0.0773690342903137,-2.5016980171203613,-8.788846015930176,4.109709739685059,3.642578125,2,fly,0,None,None,5.434057401916855,[6800|0|0|0],fly
9300,-0.0592643879354,0.468026727437973,0.0780633240938186,-1.9743521213531487,-8.466949462890625,3.4678308963775635,3.63671875,2,fly,0,None,None,5.454055670314255,[6800|0|0|0],fly
9400,-0.0665572062134742,0.4642175734043121,0.0766257643699646,-1.832869052886963,-6.855369091033936,2.8417611122131348,3.630859375,2,fly,0,None,None,5.462408001177482,[6800|0|0|0],fly
9500,-0.0622406788170337,0.4652207493782043,0.0748424381017685,-0.9351166486740112,-5.010072708129883,2.6716468334198,3.626953125,2,fly,0,None,None,5.467184927320689,[6800|0|0|0],fly
9600,-0.0491804853081703,0.4677288830280304,0.0732164531946182,-0.6315865516662598,-2.9825243949890137,3.2805216312408447,3.630859375,2,fly,0,None,None,5.480582808340188,[6800|0|0|0],fly
9700,-0.0314326994121074,0.4710723161697387,0.0730710253119468,-0.7098333239555359,-1.3185888528823853,4.062938690185547,3.630859375,2,J1,0,None,None,5.49864336200431,[6800|100|0|0],first_intermediate
9800,-0.0105024892836809,0.4758886396884918,0.0746060162782669,-0.7492130398750305,0.6335548162460327,3.841034412384033,3.63671875,2,J1,0,None,None,5.5201753583243,[6800|200|0|0],first_intermediate
9900,0.0078617874532938,0.4791934788227081,0.0748838931322097,-0.383601427078247,1.8821605443954468,3.4175615310668945,3.630859375,2,J1,0,None,None,5.538836704399039,[6800|300|0|0],first_intermediate
10000,0.0220614373683929,0.4826791882514953,0.0745975971221923,-1.097166657447815,2.5499789714813232,2.9503157138824463,3.626953125,2,J1,0,None,None,5.553460732344125,[6800|400|0|0],first_intermediate
10100,0.0324238575994968,0.4871886670589447,0.0747292265295982,-1.4634586572647097,2.073291540145874,2.536854982376098,3.626953125,2,J1,0,None,None,5.564762611765785,[6800|500|0|0],first_intermediate
10200,0.0390316508710384,0.4926249384880066,0.075397178530693,-0.9120408892631532,1.3093057870864868,2.3007845878601074,3.630859375,2,J1,0,None,None,5.573345276785791,[6800|600|0|0],first_intermediate
10300,0.0438852272927761,0.4989052712917328,0.07687858492136,-0.1255572736263275,0.4501752257347107,1.5895566940307615,3.626953125,2,J1,0,None,None,5.581419578557555,[6800|700|0|0],first_intermediate
10400,0.0479824244976043,0.5042015910148621,0.0783834457397461,0.7257839441299438,0.1838786751031875,0.4329868853092193,3.630859375,2,J1,0,None,None,5.588282714402602,[6800|800|0|0],first_intermediate
10500,0.0516684837639331,0.5075063109397888,0.0785013362765312,0.4317294359207153,-0.1466332077980041,0.285927802324295,3.626953125,2,J1,0,None,None,5.593234694297125,[6800|900|0|0],first_intermediate
10600,0.0567349977791309,0.5098729729652405,0.0787682309746742,0.1045887693762779,-0.5408521890640259,0.375046819448471,3.62109375,2,J1,0,None,None,5.598833076758945,[6800|1000|0|0],first_intermediate
10700,0.063013419508934,0.5117481350898743,0.0797172486782074,0.1526721566915512,-0.1786690801382064,0.5415792465209961,3.626953125,2,J1,0,None,None,5.605453911072877,[6800|1100|0|0],first_intermediate
10801,0.0696425810456276,0.512701153755188,0.0809626728296279,0.4063141644001007,-0.2146294713020324,0.255766898393631,3.62109375,2,J1,0,None,None,5.612266040591094,[6800|1200|0|0],first_intermediate
10901,0.0773519426584243,0.5130435824394226,0.0822299197316169,0.8327372670173645,0.0172894820570945,0.1168909296393394,3.62109375,2,J1,0,None,None,5.620086362105664,[6800|1300|0|0],first_intermediate
11001,0.0852931886911392,0.511467695236206,0.0841350853443145,-0.062312614172697,-0.3366961777210235,0.0387186519801616,3.626953125,2,J1,0,None,None,5.628403601133201,[6800|1400|0|0],first_intermediate
11101,0.0935201123356819,0.5090082883834839,0.087893433868885,0.2217455357313156,-0.4024987518787384,-0.2003250122070312,3.626953125,2,J1,0,None,None,5.637776761664872,[6800|1500|0|0],first_intermediate
11201,0.1028707548975944,0.5059400200843811,0.0914665386080741,-0.1143923327326774,-0.1826644986867904,-0.0593991354107856,3.626953125,2,J1,0,None,None,5.648246521172767,[6800|1600|0|0],first_intermediate
11301,0.1125859469175338,0.5023768544197083,0.0948322564363479,-0.1429838240146637,-0.3681523203849792,0.0202770829200744,3.626953125,2,J1,0,None,None,5.659128118575619,[6800|1700|0|0],first_intermediate
11401,0.1229619234800338,0.4992115795612335,0.0966352894902229,-0.0799677670001983,-0.2611971199512481,0.2618078291416168,3.62109375,2,J1,0,None,None,5.670124971886844,[6800|1800|0|0],first_intermediate
11501,0.1325402855873108,0.4960568249225616,0.0978792756795883,-0.1504562497138977,0.105748027563095,0.8327824473381042,3.62109375,2,J1,0,None,None,5.680285926523475,[6800|1900|0|0],first_intermediate
11601,0.1428830921649933,0.4921948313713074,0.0992909967899322,0.3827634751796722,0.118304818868637,1.7321728467941284,3.62109375,2,J1,0,None,None,5.691416137599043,[6800|2000|0|0],first_intermediate
11702,0.1508094072341919,0.4879140555858612,0.0929168686270713,0.9541730880737304,1.2399121522903442,2.548414707183838,3.96875,2,J1,0,None,None,5.702451581484,[6800|2100|0|0],first_intermediate
11802,0.158732533454895,0.4808841049671173,0.0368292443454265,0.3422349095344543,4.057363986968994,2.1474130153656006,3.96875,2,J1,0,None,None,5.759530629587224,[6800|2200|0|0],first_intermediate
11902,0.1720143407583236,0.4905360341072082,0.0,-23.805349349975582,-20.280574798583984,11.297693252563477,3.974609375,2,J1,0,None,None,5.799853816222532,[6800|2300|0|0],first_intermediate
12002,0.1768132150173187,0.5180970430374146,0.0,-5.143596172332764,-11.08740520477295,63.56744766235352,3.974609375,2,J1,0,None,None,5.827829491503114,[6800|2400|0|0],first_intermediate
12100,0.1829947829246521,0.5252576470375061,0.0,2.8853139877319336,2.1227903366088867,69.7276382446289,3.98046875,2,J1,0,None,None,5.837289197177135,[6800|2500|0|0],first_intermediate
12202,0.1784035712480545,0.5260720252990723,0.0,-1.8413240909576416,-2.592320919036865,69.33123779296875,3.98046875,2,J1,0,None,None,5.84195207575289,[6800|2600|0|0],first_intermediate
12302,0.1807302981615066,0.5255044102668762,0.0,2.01371693611145,1.2069045305252075,69.2735595703125,3.98046875,2,J1,0,None,None,5.84434703816482,[6800|2700|0|0],first_intermediate
12400,0.1797258108854293,0.5264227986335754,0.0,-0.3037730753421783,-1.396161437034607,69.16497802734375,3.984375,2,J1,0,None,None,5.845708078898923,[6800|2800|0|0],first_intermediate
12500,0.179036259651184,0.5242194533348083,0.0,4.184243202209473,2.9607744216918945,69.04312133789062,3.984375,2,J1,0,None,None,5.848016803960564,[6800|2900|0|0],first_intermediate
12600,0.1865838468074798,0.52531898021698,0.0,4.079372406005859,2.83211612701416,67.55107879638672,3.984375,2,J1,0,None,None,5.855644059774191,[6800|3000|0|0],first_intermediate
12700,0.1852366924285888,0.5256883502006531,0.0,4.147172451019287,2.7507338523864746,65.41913604736328,3.984375,2,J1,0,None,None,5.85704093453787,[6800|3100|0|0],first_intermediate
12800,0.1857813447713852,0.5218229293823242,0.0,4.083710670471191,2.5330045223236084,67.57035064697266,3.984375,2,J1,0,None,None,5.860944538549202,[6800|3200|0|0],first_intermediate
12900,0.1848084032535553,0.5181992650032043,0.0,5.16273832321167,5.897010326385498,66.4599838256836,3.990234375,2,J1,0,None,None,5.864696545842588,[6800|3300|0|0],first_intermediate
13000,0.1774659901857376,0.5211867690086365,0.0,20.247190475463867,0.6730446219444275,44.8454704284668,3.990234375,2,J1,0,None,None,5.872623475250683,[6800|3400|0|0],first_intermediate
13100,0.1581052094697952,0.5057467222213745,0.036042932420969,-9.266465187072754,4.667186260223389,14.103934288024902,3.990234375,2,J1,0,None,None,5.916353646211087,[6800|3500|0|0],first_intermediate
13200,0.1571233421564102,0.4672185182571411,0.0258498918265104,-18.807769775390625,3.924437284469605,7.729501724243164,3.990234375,2,J1,0,None,None,5.9562194792099215,[6800|3600|0|0],first_intermediate
13300,0.1594187170267105,0.4413818120956421,0.0028991550207138,-15.926036834716797,1.553778886795044,5.925463199615479,3.990234375,2,J1,0,None,None,5.990853861707662,[6800|3700|0|0],first_intermediate
13400,0.1584989577531814,0.4350609481334686,0.0,-10.353249549865724,-0.6887611746788025,8.295849800109863,3.990234375,2,J1,0,None,None,5.997868444958553,[6800|3800|0|0],first_intermediate
13500,0.156092882156372,0.4330380260944366,0.0,-1.2216768264770508,-5.995513916015625,9.159065246582031,3.99609375,2,J1,0,None,None,6.001011916503448,[6800|3900|0|0],first_intermediate
13600,0.1086367666721344,0.4846650063991546,0.0,-0.0438202284276485,-5.148942947387695,21.1640853881836,3.99609375,2,J1,0,None,None,6.071136291668129,[6800|4000|0|0],first_intermediate
13700,0.0930292382836341,0.499724417924881,0.0,-0.1855296492576599,-3.685699701309204,23.36029815673828,3.99609375,2,J1,0,None,None,6.092824556188349,[6800|4100|0|0],first_intermediate
13800,0.0882089883089065,0.5055610537528992,0.0,-0.3221982419490814,-4.711198806762695,22.314186096191406,3.99609375,2,J1,0,None,None,6.100394307016994,[6800|4200|0|0],first_intermediate
13900,0.0869169533252716,0.5098106265068054,0.0,-0.4494892954826355,-6.704197883605957,20.115760803222656,3.99609375,2,J1,0,None,None,6.104835953444804,[6800|4300|0|0],first_intermediate
14000,0.0891671702265739,0.5064373016357422,0.0,-0.5489044785499573,-5.34367561340332,21.37977409362793,4.0703125,2,J1,0,None,None,6.108890925305204,[6800|4400|0|0],first_intermediate
14100,0.0979976058006286,0.4966160953044891,0.0,-0.1353490799665451,-6.280974388122559,25.04321479797364,4.07421875,2,J1,0,None,None,6.122098222009245,[6800|4500|0|0],first_intermediate
14200,0.1042257845401763,0.4888512194156647,0.0,-0.5321533679962158,-5.81352424621582,21.93320846557617,4.07421875,2,J1,0,None,None,6.132052291929664,[6800|4600|0|0],first_intermediate
14300,0.1087016314268112,0.4840282201766968,0.0,-0.8363707661628723,-5.953077793121338,18.986534118652344,4.07421875,2,J1,0,None,None,6.138632149603785,[6800|4700|0|0],first_intermediate
14400,0.11126309633255,0.4821110963821411,0.0,-1.1243937015533447,-5.957104682922363,16.828306198120117,4.08203125,2,J1,0,None,None,6.1418315973853534,[6800|4800|0|0],first_intermediate
14500,0.1120838224887847,0.4812683761119842,0.0,-1.329285979270935,-5.895562648773193,15.23453426361084,4.07421875,2,J1,0,None,None,6.1430079344447295,[6800|4900|0|0],first_intermediate
14600,0.112616591155529,0.4808692038059234,0.0,-1.4800009727478027,-5.814018726348877,14.055097579956056,4.08203125,2,J1,0,None,None,6.143673652840292,[6800|5000|0|0],first_intermediate
14700,0.1116352826356887,0.4819219410419464,0.0,-1.604808330535889,-5.763038158416748,13.14056396484375,4.08203125,2,J1,0,None,None,6.145112826943457,[6800|5100|0|0],first_intermediate
14800,0.1108339801430702,0.482720285654068,0.0,-1.6944094896316528,-5.741570949554443,12.45298957824707,4.08203125,2,J1,0,None,None,6.146243950192436,[6800|5200|0|0],first_intermediate
14900,0.1097908616065979,0.4837718307971954,0.0,-1.7442501783370972,-5.777596950531006,11.937507629394531,4.08203125,2,J1,0,None,None,6.147725113069761,[6800|5300|0|0],first_intermediate
15000,0.1091562584042549,0.4844881296157837,0.0,-1.7725838422775269,-5.893810272216797,11.527615547180176,4.08203125,2,J1,0,None,None,6.148682090196935,[6800|5400|0|0],first_intermediate
15100,0.1080243736505508,0.4856888353824615,0.0,-1.81511652469635,-5.793999195098877,11.223334312438965,4.0859375,2,J1,0,None,None,6.1503321985066535,[6800|5500|0|0],first_intermediate
15200,0.1064408496022224,0.4872406423091888,0.0,-1.8278692960739136,-5.771074295043945,10.993911743164062,4.0859375,2,J1,0,None,None,6.152549325735631,[6800|5600|0|0],first_intermediate
15300,0.1055956110358238,0.4883086383342743,0.0,-1.82954740524292,-5.841121196746826,10.825448989868164,4.0859375,2,J1,0,None,None,6.153911325641551,[6800|5700|0|0],first_intermediate
15400,0.1049627587199211,0.4889845252037048,0.0,-1.812649726867676,-5.86844539642334,10.716986656188965,4.0859375,2,J1,0,None,None,6.154837244166051,[6800|5800|0|0],first_intermediate
15500,0.1048707962036132,0.4890063107013702,0.0,-1.7841484546661377,-5.948724269866943,10.627440452575684,4.0859375,2,J1,0,None,None,6.154931751902846,[6800|5900|0|0],first_intermediate
15600,0.1042868867516517,0.4896121919155121,0.0,-1.7688878774642944,-6.000144004821777,10.547558784484863,4.08984375,2,J1,0,None,None,6.155773204393329,[6800|6000|0|0],first_intermediate
15700,0.104066863656044,0.4896953403949737,0.0,-1.7777018547058103,-5.663003921508789,10.452202796936035,4.08984375,2,J1,0,None,None,6.156008414580688,[6800|6100|0|0],first_intermediate
15800,0.1036849990487098,0.4906372129917145,0.0,-1.7142517566680908,-6.231659412384033,10.384706497192385,4.08984375,2,J1,0,None,None,6.157024753385824,[6800|6200|0|0],first_intermediate
15900,0.103323109447956,0.4910063445568084,0.0,-1.7082668542861938,-6.115081310272217,10.360859870910645,4.08984375,2,J1,0,None,None,6.157541688773936,[6800|6300|0|0],first_intermediate
16000,0.1030310243368148,0.4912347495555877,0.0,-1.6737648248672483,-6.1709184646606445,10.331864356994627,4.08984375,2,J1,0,None,None,6.157912475175544,[6800|6400|0|0],first_intermediate
16100,0.1035985797643661,0.4905071556568146,0.0,-1.649606227874756,-6.142448425292969,10.32503604888916,4.08984375,2,J1,0,None,None,6.158835249278385,[6800|6500|0|0],first_intermediate
16200,0.1043323129415512,0.4897741079330444,0.0,-1.6257774829864502,-6.236170768737793,10.332942008972168,4.09765625,2,J1,0,None,None,6.159872420113218,[6800|6600|0|0],first_intermediate
16300,0.1040272712707519,0.4900665283203125,0.0,-1.6195708513259888,-6.222890377044678,10.317875862121582,4.09765625,2,J1,0,None,None,6.160294983840736,[6800|6700|0|0],first_intermediate
16400,0.1047916412353515,0.489321231842041,0.0,-1.582924246788025,-6.282286167144775,10.362723350524902,4.09765625,2,J1,0,None,None,6.161362564415357,[6800|6800|0|0],first_intermediate
16500,0.1044579297304153,0.4895443022251129,0.0,-1.5877277851104736,-6.257606506347656,10.356246948242188,4.09765625,2,J1,0,None,None,6.161763966662897,[6800|6900|0|0],first_intermediate
16600,0.104780413210392,0.4891917407512665,0.0,-1.5720521211624146,-6.280399799346924,10.338774681091309,4.09765625,2,J1,0,None,None,6.16224176911967,[6800|7000|0|0],first_intermediate
16700,0.1052262187004089,0.4889744520187378,0.0,-1.5648492574691772,-6.2973504066467285,10.338811874389648,4.09765625,2,J1,0,None,None,6.1627377095679226,[6800|7100|0|0],first_intermediate
16800,0.105491854250431,0.4885650277137756,0.0,-1.5508651733398438,-6.305856704711914,10.32826805114746,4.09765625,2,J1,0,None,None,6.163225757216138,[6800|7200|0|0],first_intermediate
16900,0.1069376766681671,0.4868824481964111,0.0,-1.5321223735809326,-6.3336334228515625,10.338785171508787,4.09765625,2,J1,0,None,None,6.165444197275253,[6800|7300|0|0],first_intermediate
17000,0.1061167940497398,0.4880694150924682,0.0,-1.5553165674209597,-6.350893020629883,10.351131439208984,4.09765625,2,J1,0,None,None,6.1668873669414985,[6800|7400|0|0],first_intermediate
17100,0.1065094769001007,0.487841933965683,0.0,-1.549552321434021,-6.365452289581299,10.353311538696287,4.1015625,2,J1,0,None,None,6.167341181313253,[6800|7500|0|0],first_intermediate
17200,0.1057956367731094,0.4885589480400085,0.0,-1.549368143081665,-6.350854873657227,10.35395622253418,4.1015625,2,J1,0,None,None,6.168352950511086,[6800|7600|0|0],first_intermediate
17300,0.1051031798124313,0.4889346659183502,0.0,-1.550100326538086,-6.341911315917969,10.34367847442627,4.1015625,2,J1,0,None,None,6.169140770646965,[6800|7700|0|0],first_intermediate
17400,0.1044531688094139,0.4899896383285522,0.0,-1.5545440912246704,-6.374528408050537,10.3414306640625,4.1015625,2,J1,0,None,None,6.170379915953348,[6800|7800|0|0],first_intermediate
17500,0.1044565066695213,0.4896592199802398,0.0,-1.5395606756210327,-6.360029697418213,10.34036350250244,4.1015625,2,J1,0,None,None,6.17071035116063,[6800|7900|0|0],first_intermediate
17600,0.1056825518608093,0.4882766306400299,0.0,-1.513613224029541,-6.37758731842041,10.34873867034912,4.1015625,2,J1,0,None,None,6.172558252698792,[6800|8000|0|0],first_intermediate
17700,0.1061027720570564,0.4879931807518005,0.0,-1.5106208324432373,-6.402110576629639,10.339710235595703,4.10546875,2,J1,0,None,None,6.173065134196256,[6800|8100|0|0],first_intermediate
17800,0.106670930981636,0.4874257743358612,0.0,-1.513920545578003,-6.4057159423828125,10.342382431030272,4.1015625,2,J1,0,None,None,6.173868100325323,[6800|8200|0|0],first_intermediate
17900,0.1056749075651168,0.4884710609912872,0.0,-1.5225346088409424,-6.409462928771973,10.349373817443848,4.10546875,2,J1,0,None,None,6.17531194479003,[6800|8300|0|0],first_intermediate
18000,0.1047545671463012,0.4894820749759674,0.0,-1.5319688320159912,-6.416755199432373,10.36227321624756,4.1015625,2,J1,0,None,None,6.176679122819302,[6800|8400|0|0],first_intermediate
18100,0.1049787178635597,0.4894501268863678,0.0,-1.5283018350601196,-6.435309410095215,10.349149703979492,4.10546875,2,J1,0,None,None,6.176905538862189,[6800|8500|0|0],first_intermediate
18200,0.1049531921744346,0.4892346858978271,0.0,-1.51917564868927,-6.428987503051758,10.342445373535156,4.10546875,2,J1,0,None,None,6.177122486736916,[6800|8600|0|0],first_intermediate
18300,0.1051821112632751,0.4891963005065918,0.0,-1.5198181867599487,-6.457675933837891,10.318976402282717,4.10546875,2,J1,0,None,None,6.177354601767657,[6800|8700|0|0],first_intermediate
18400,0.1044435948133468,0.489975243806839,0.0,-1.5265004634857178,-6.459624290466309,10.338921546936035,4.10546875,2,J1,0,None,None,6.17842798856272,[6800|8800|0|0],first_intermediate
18500,0.1047385707497596,0.4896091520786285,0.0,-1.510944962501526,-6.467171669006348,10.352513313293455,4.10546875,2,J1,0,None,None,6.178898131048065,[6800|8900|0|0],first_intermediate
18600,0.1053628921508789,0.4888420403003692,0.0,-1.5003790855407717,-6.478530406951904,10.348028182983398,4.10546875,2,J1,0,None,None,6.179887190041371,[6800|9000|0|0],first_intermediate
18700,0.1059652939438819,0.4883065223693847,0.0,-1.5005707740783691,-6.500514507293701,10.346763610839844,4.10546875,2,J1,0,None,None,6.180693209504299,[6800|9100|0|0],first_intermediate
18800,0.1053865700960159,0.4886796176433563,0.0,-1.5076735019683838,-6.495205402374268,10.359278678894045,4.10546875,2,J1,0,None,None,6.181381774225693,[6800|9200|0|0],first_intermediate
18900,0.1059994995594024,0.4880023896694183,0.0,-1.497475504875183,-6.5046000480651855,10.370889663696287,4.10546875,2,J1,0,None,None,6.182295185554598,[6800|9300|0|0],first_intermediate
19000,0.106993056833744,0.4871483445167541,0.0,-1.4928635358810425,-6.525974273681641,10.364667892456056,4.10546875,2,J1,0,None,None,6.183605356986201,[6800|9400|0|0],first_intermediate
19100,0.1061482205986976,0.4882198572158813,0.0,-1.5068477392196655,-6.542253017425537,10.3878755569458,4.11328125,2,J1,0,None,None,6.184969867055214,[6800|9500|0|0],first_intermediate
19200,0.1046776995062828,0.4898183643817901,0.0,-1.527153730392456,-6.534843921661377,10.408943176269531,4.11328125,2,J1,0,None,None,6.187141883961846,[6800|9600|0|0],first_intermediate
19300,0.1054689437150955,0.4886842668056488,0.0,-1.5015535354614258,-6.537668704986572,10.404942512512209,4.11328125,2,J1,0,None,None,6.188524723327134,[6800|9700|0|0],first_intermediate
19400,0.1055008247494697,0.4889352023601532,0.0,-1.5183390378952026,-6.562060832977295,10.39844036102295,4.11328125,2,J1,0,None,None,6.1887776759963575,[6800|9800|0|0],first_intermediate
19500,0.1058465614914894,0.4882574379444122,0.0,-1.5028789043426514,-6.560142993927002,10.377402305603027,4.11328125,2,J1,0,None,None,6.189538529791792,[6800|9900|0|0],first_intermediate
19600,0.1055968105792999,0.4885384142398834,0.0,-1.5177234411239624,-6.573421955108643,10.36846160888672,4.11328125,2,J1,0,None,None,6.189914459568155,[6800|10000|0|0],first_intermediate
19700,0.1052280887961387,0.488915354013443,0.0,-1.514473795890808,-6.580424308776856,10.36847972869873,4.11328125,2,J1,0,None,None,6.190441753932119,[6800|10100|0|0],first_intermediate
19800,0.1060448288917541,0.4883421957492828,0.0,-1.5130844116210938,-6.605813503265381,10.366755485534668,4.11328125,2,J1,0,None,None,6.191439538868647,[6800|10200|0|0],first_intermediate
19900,0.107130579650402,0.486990362405777,0.0,-1.491819143295288,-6.617125511169434,10.38495635986328,4.11328125,2,J1,0,None,None,6.19317340971116,[6800|10300|0|0],first_intermediate
20000,0.1073863953351974,0.48677659034729,0.0,-1.492568016052246,-6.617835998535156,10.392823219299316,4.11328125,2,J1,0,None,None,6.193506786611345,[6800|10400|0|0],first_intermediate
20100,0.1074638441205024,0.4866141974925995,0.0,-1.5049089193344116,-6.614167213439941,10.384615898132324,4.1171875,2,J1,0,None,None,6.193686702573949,[6800|10500|0|0],first_intermediate
20200,0.106780469417572,0.4874503016471863,0.0,-1.5309581756591797,-6.614065647125244,10.37172508239746,4.1171875,2,J1,0,None,None,6.194766550314106,[6800|10600|0|0],first_intermediate
20300,0.1064554303884506,0.4879264235496521,0.0,-1.5334521532058716,-6.616673469543457,10.359655380249023,4.1171875,2,J1,0,None,None,6.195343041802733,[6800|10700|0|0],first_intermediate
20400,0.1067619696259498,0.4876450598239898,0.0,-1.5266458988189695,-6.619791030883789,10.35583209991455,4.1171875,2,J1,0,None,None,6.195759132958906,[6800|10800|0|0],first_intermediate
20500,0.105633370578289,0.4889240264892578,0.0,-1.5429593324661257,-6.611306667327881,10.3560209274292,4.1171875,2,J1,0,None,None,6.197464856131419,[6800|10900|0|0],first_intermediate
20600,0.1054930537939071,0.4889014065265655,0.0,-1.5400605201721191,-6.605607986450195,10.340948104858398,4.1171875,2,J1,0,None,None,6.197606984463189,[6800|11000|0|0],first_intermediate
20700,0.1054248735308647,0.4891543984413147,0.0,-1.5421092510223389,-6.613939762115479,10.34618854522705,4.1171875,2,J1,0,None,None,6.197869002510653,[6800|11100|0|0],first_intermediate
20800,0.104936309158802,0.4895349740982055,0.0,-1.5308785438537598,-6.600307464599609,10.362227439880373,4.1171875,2,J1,0,None,None,6.198488302903247,[6800|11200|0|0],first_intermediate
20900,0.1055374965071678,0.4887907803058624,0.0,-1.5140825510025024,-6.60665225982666,10.35611057281494,4.1171875,2,J1,0,None,None,6.199444990223324,[6800|11300|0|0],first_intermediate
21000,0.1056034713983535,0.4888822436332702,0.0,-1.5209059715270996,-6.6215643882751465,10.341665267944336,4.1171875,2,J1,0,None,None,6.199557765338166,[6800|11400|0|0],first_intermediate
21100,0.1052233129739761,0.4894263744354248,0.0,-1.517998218536377,-6.622179985046387,10.345769882202148,4.1171875,2,J1,0,None,None,6.200221541473228,[6800|11500|0|0],first_intermediate
21200,0.1055160015821456,0.488717645406723,0.0,-1.493687868118286,-6.600865840911865,10.353890419006348,4.1171875,2,J1,0,None,None,6.200988329225789,[6800|11600|0|0],first_intermediate
21300,0.1057057231664657,0.4883552491664886,0.0,-1.5050150156021118,-6.604578495025635,10.343868255615234,4.1171875,2,J1,0,None,None,6.201397383396398,[6800|11700|0|0],first_intermediate
21400,0.1062909290194511,0.488098680973053,0.0,-1.5106667280197144,-6.621551036834717,10.348565101623535,4.1171875,2,J1,0,None,None,6.202036361587146,[6800|11800|0|0],first_intermediate
21500,0.1055957153439521,0.4887608289718628,0.0,-1.5209637880325315,-6.602956295013428,10.35972785949707,4.1171875,2,J1,0,None,None,6.202996445972462,[6800|11900|0|0],first_intermediate
21600,0.1052613854408264,0.4891107976436615,0.0,-1.5248725414276123,-6.602170944213867,10.355768203735352,4.12109375,2,J1,0,None,None,6.203480444480068,[6800|12000|0|0],first_intermediate
21700,0.1059531569480896,0.4884594976902008,0.0,-1.5180262327194214,-6.613718986511231,10.345416069030762,4.12109375,2,J1,0,None,None,6.204430570496783,[6800|12100|0|0],first_intermediate
21800,0.1056308075785636,0.4884971976280212,0.0,-1.5186651945114136,-6.599575042724609,10.359554290771484,4.12109375,2,J1,0,None,None,6.204755116951617,[6800|12200|0|0],first_intermediate
21900,0.1054947599768638,0.4887559413909912,0.0,-1.5217403173446655,-6.608470916748047,10.352361679077148,4.12109375,2,J1,0,None,None,6.205047447731392,[6800|12300|0|0],first_intermediate
22000,0.1046931073069572,0.4897850155830383,0.0,-1.534155011177063,-6.619292736053467,10.360812187194824,4.12109375,2,J1,0,None,None,6.206351917238857,[6800|12400|0|0],first_intermediate
22100,0.1066610217094421,0.487524539232254,0.0,-1.4950591325759888,-6.620886325836182,10.351656913757324,4.12109375,2,J1,0,None,None,6.20934898921463,[6800|12500|0|0],first_intermediate
22200,0.1069706082344055,0.487472802400589,0.0,-1.5055444240570068,-6.633335590362549,10.369766235351562,4.12109375,2,J1,0,None,None,6.2096628689944655,[6800|12600|0|0],first_intermediate
22300,0.1064300537109375,0.4881778359413147,0.0,-1.5160962343215942,-6.628301620483398,10.386371612548828,4.12109375,2,J1,0,None,None,6.210551278520748,[6800|12700|0|0],first_intermediate
22400,0.1055399179458618,0.488974004983902,0.0,-1.5213030576705933,-6.602585792541504,10.384660720825195,4.12109375,2,J1,0,None,None,6.211745525909124,[6800|12800|0|0],first_intermediate
22500,0.1045681238174438,0.4898783564567566,0.0,-1.5253528356552124,-6.582059383392334,10.383501052856444,4.12109375,2,J1,0,None,None,6.213073018061448,[6800|12900|0|0],first_intermediate
22600,0.1045084968209266,0.4897476434707641,0.0,-1.5209192037582395,-6.590060234069824,10.380044937133787,4.12109375,2,J1,0,None,None,6.213216688738417,[6800|13000|0|0],first_intermediate
22700,0.104843370616436,0.4895347058773041,0.0,-1.5164778232574463,-6.607551097869873,10.389385223388672,4.12109375,2,J1,0,None,None,6.213613529862328,[6800|13100|0|0],first_intermediate
22800,0.1053860858082771,0.4890016317367553,0.0,-1.5017436742782593,-6.620152950286865,10.371988296508787,4.12109375,2,J1,0,None,None,6.214374258341338,[6800|13200|0|0],first_intermediate
22900,0.106053277850151,0.4881917834281921,0.0,-1.4965696334838867,-6.611300468444824,10.348129272460938,4.12109375,2,J1,0,None,None,6.215423543575973,[6800|13300|0|0],first_intermediate
23000,0.1058326661586761,0.4884811639785766,0.0,-1.504054307937622,-6.611587524414063,10.330031394958496,4.12109375,2,J1,0,None,None,6.215787426278717,[6800|13400|0|0],first_intermediate
23100,0.107158824801445,0.4867942631244659,0.0,-1.476760745048523,-6.612552642822266,10.346012115478516,4.12890625,2,J1,0,None,None,6.2179331968250215,[6800|13500|0|0],first_intermediate
23200,0.1075199022889137,0.4867395460605621,0.0,-1.495797634124756,-6.636287212371826,10.362774848937988,4.12890625,2,J1,0,None,None,6.2182983966457215,[6800|13600|0|0],first_intermediate
23300,0.1076109111309051,0.4868106245994568,0.0,-1.4991306066513062,-6.626189231872559,10.336323738098145,4.12890625,2,J1,0,None,None,6.218413872911733,[6800|13700|0|0],first_intermediate
23400,0.1070732548832893,0.4870999753475189,0.0,-1.5001415014266968,-6.604729175567627,10.351156234741213,4.12890625,2,J1,0,None,None,6.219024444853444,[6800|13800|0|0],first_intermediate
23500,0.1072707325220108,0.4870682954788208,0.0,-1.5092910528182983,-6.625803470611572,10.347498893737791,4.12109375,2,J1,0,None,None,6.219224447433117,[6800|13900|0|0],first_intermediate
23600,0.1068007946014404,0.4873794317245483,0.0,-1.5112189054489136,-6.601086139678955,10.34542179107666,4.12890625,2,J1,0,None,None,6.219788049608942,[6800|14000|0|0],first_intermediate
23700,0.1078117042779922,0.4865201115608215,0.0,-1.505695104598999,-6.615958690643311,10.368315696716309,4.12890625,2,J1,0,None,None,6.221114838785087,[6800|14100|0|0],first_intermediate
23800,0.1073602214455604,0.4864855110645294,0.0,-1.4917267560958862,-6.596183300018311,10.360677719116213,4.12890625,2,J1,0,None,None,6.221567645523469,[6800|14200|0|0],first_intermediate
23900,0.1059420555830001,0.4883857667446136,0.0,-1.5339088439941406,-6.608013153076172,10.374814987182615,4.12890625,2,J1,0,None,None,6.223938756247038,[6800|14300|0|0],first_intermediate
24000,0.1049812138080596,0.4894807040691376,0.0,-1.5476977825164795,-6.607968807220459,10.383774757385254,4.12890625,2,J1,0,None,None,6.225395500789196,[6800|14400|0|0],first_intermediate
24100,0.1045289859175682,0.4899387657642364,0.0,-1.5423535108566284,-6.611737251281738,10.386021614074709,4.12890625,2,J1,0,None,None,6.226039185946283,[6800|14500|0|0],first_intermediate
24200,0.1041319519281387,0.4904617667198181,0.0,-1.5408364534378052,-6.609264850616455,10.366756439208984,4.12890625,2,J1,0,None,None,6.226695818254582,[6800|14600|0|0],first_intermediate
24300,0.1034137979149818,0.4913408756256103,0.0,-1.540998935699463,-6.6166534423828125,10.375288009643556,4.12890625,2,J1,0,None,None,6.227830973598514,[6800|14700|0|0],first_intermediate
24400,0.1043852046132087,0.4901158213615417,0.0,-1.5205787420272827,-6.6208930015563965,10.357611656188965,4.12890625,2,J1,0,None,None,6.229394427762624,[6800|14800|0|0],first_intermediate
24500,0.1049938201904296,0.4893810153007507,0.0,-1.5069440603256226,-6.628402233123779,10.38315773010254,4.12890625,2,J1,0,None,None,6.230348551899103,[6800|14900|0|0],first_intermediate
24600,0.104101613163948,0.4903645515441894,0.0,-1.522714376449585,-6.621084690093994,10.381470680236816,4.12890625,2,J1,0,None,None,6.231676473930045,[6800|15000|0|0],first_intermediate
24700,0.1055690869688987,0.488772451877594,0.0,-1.488142967224121,-6.625887870788574,10.376873970031738,4.12890625,2,J1,0,None,None,6.23384171311235,[6800|15100|0|0],first_intermediate
24800,0.1057634577155113,0.4885782301425934,0.0,-1.4911376237869265,-6.622735977172852,10.366998672485352,4.12890625,2,J1,0,None,None,6.234116489511418,[6800|15200|0|0],first_intermediate
24900,0.1063836887478828,0.4879890978336334,0.0,-1.4839311838150024,-6.631645202636719,10.343815803527832,4.1328125,2,J1,0,None,None,6.234971921221713,[6800|15300|0|0],first_intermediate
25000,0.1063286215066909,0.4879774451255798,0.0,-1.4905009269714355,-6.629220485687256,10.330181121826172,4.12890625,2,J1,0,None,None,6.235028207868953,[6800|15400|0|0],first_intermediate
25100,0.1060370951890945,0.4885985255241394,0.0,-1.5067425966262815,-6.640027523040772,10.330211639404297,4.12890625,2,J1,0,None,None,6.235714304403944,[6800|15500|0|0],first_intermediate
25200,0.1057691723108291,0.4885852634906769,0.0,-1.4924200773239136,-6.614986419677734,10.342168807983398,4.1328125,2,J1,0,None,None,6.235982555313037,[6800|15600|0|0],first_intermediate
25300,0.1055316999554634,0.4887867569923401,0.0,-1.5066922903060913,-6.616601467132568,10.341355323791504,4.1328125,2,J1,0,None,None,6.236293991904939,[6800|15700|0|0],first_intermediate
25400,0.1059555411338806,0.4883705675601959,0.0,-1.4913781881332395,-6.63118839263916,10.351607322692873,4.1328125,2,J1,0,None,None,6.236888007887848,[6800|15800|0|0],first_intermediate
25500,0.1063916608691215,0.4881492555141449,0.0,-1.494574785232544,-6.637685298919678,10.37369155883789,4.12890625,2,J1,0,None,None,6.237377067644109,[6800|15900|0|0],first_intermediate
25600,0.1066115647554397,0.4877201318740845,0.0,-1.480059027671814,-6.626079082489014,10.386651992797852,4.1328125,2,J1,0,None,None,6.237859255177831,[6800|16000|0|0],first_intermediate
25700,0.10623799264431,0.4882383644580841,0.0,-1.494889497756958,-6.6247758865356445,10.407171249389648,4.1328125,2,J1,0,None,None,6.238498098768496,[6800|16100|0|0],first_intermediate
25800,0.1051318943500518,0.4894492626190185,0.0,-1.5048785209655762,-6.614401340484619,10.408087730407717,4.1328125,2,J1,0,None,None,6.240138137729226,[6800|16200|0|0],first_intermediate
25900,0.1053471267223358,0.4889490306377411,0.0,-1.4922386407852173,-6.6079607009887695,10.38040828704834,4.1328125,2,J1,0,None,None,6.240682708210589,[6800|16300|0|0],first_intermediate
26000,0.1042929738759994,0.4902011156082153,0.0,-1.5245863199234009,-6.604361534118652,10.373767852783203,4.12890625,2,J1,0,None,None,6.242319459565172,[6800|16400|0|0],first_intermediate
26100,0.1048634946346283,0.4894290566444397,0.0,-1.505187749862671,-6.611664295196533,10.3849458694458,4.1328125,2,J1,0,None,None,6.2432794434085634,[6800|16500|0|0],first_intermediate
26200,0.104793019592762,0.4896486103534698,0.0,-1.516254425048828,-6.626979351043701,10.379295349121094,4.1328125,2,J1,0,None,None,6.243510030838132,[6800|16600|0|0],first_intermediate
26300,0.1061609610915184,0.4882225692272186,0.0,-1.500645637512207,-6.626605987548828,10.278983116149902,4.1328125,2,J1,0,None,None,6.245486102000256,[6800|16700|0|0],first_intermediate
26400,0.1061360314488411,0.4882683157920837,0.0,-1.5072487592697144,-6.633428573608398,10.375372886657717,4.1328125,2,J1,0,None,None,6.245538200323463,[6800|16800|0|0],first_intermediate
26500,0.1059003695845604,0.488565593957901,0.0,-1.5082632303237915,-6.64162015914917,10.37997817993164,4.1328125,2,J1,0,None,None,6.245917556122348,[6800|16900|0|0],first_intermediate
26600,0.1064877137541771,0.4879411160945892,0.0,-1.513868808746338,-6.623401641845703,10.268129348754885,4.1328125,2,J1,0,None,None,6.24677484590728,[6800|17000|0|0],first_intermediate
26700,0.1063006594777107,0.4879910051822662,0.0,-1.5106065273284912,-6.619119644165039,10.264589309692385,4.1328125,2,J1,0,None,None,6.24696843883952,[6800|17100|0|0],first_intermediate
26800,0.1056789234280586,0.4886655807495117,0.0,-1.5225818157196045,-6.622836589813232,10.374804496765137,4.1328125,2,J1,0,None,None,6.247885830746702,[6800|17200|0|0],first_intermediate
26900,0.1067826971411705,0.487723171710968,0.0,-1.518270492553711,-6.628227233886719,10.269997596740724,4.1328125,2,J1,0,None,None,6.249337192591896,[6800|17300|0|0],first_intermediate
27000,0.1072809398174285,0.4868244230747223,0.0,-1.5063847303390503,-6.604918956756592,10.271320343017578,4.1328125,2,J1,0,None,None,6.250364808704847,[6800|17400|0|0],first_intermediate
27100,0.106878250837326,0.4873038828372955,0.0,-1.5119526386260986,-6.603099822998047,10.28159236907959,4.1328125,2,J1,0,None,None,6.250990939744345,[6800|17500|0|0],first_intermediate
27200,0.1053454205393791,0.4891282618045807,0.0,-1.5337841510772705,-6.597324371337891,10.283980369567873,4.1328125,2,J1,0,None,None,6.253373779927525,[6800|17600|0|0],first_intermediate
27300,0.10500268638134,0.4893804490566253,0.0,-1.528050422668457,-6.593693733215332,10.30618667602539,4.13671875,2,J1,0,None,None,6.253799297392714,[6800|17700|0|0],first_intermediate
27400,0.1058039516210556,0.4885403513908386,0.0,-1.5205423831939695,-6.606204986572266,10.299691200256348,4.1328125,2,J1,0,None,None,6.254960241005659,[6800|17800|0|0],first_intermediate
27500,0.1060635894536972,0.487937718629837,0.0,-1.508880615234375,-6.602502346038818,10.30156707763672,4.1328125,2,J1,0,None,None,6.255616425468117,[6800|17900|0|0],first_intermediate
27600,0.105469062924385,0.4887683689594269,0.0,-1.5257227420806885,-6.605624675750732,10.302255630493164,4.13671875,2,J1,0,None,None,6.256637915440708,[6800|18000|0|0],first_intermediate
27700,0.1062844172120094,0.4880682528018951,0.0,-1.5207207202911377,-6.6232991218566895,10.301109313964844,4.13671875,2,J1,0,None,None,6.257712608535682,[6800|18100|0|0],first_intermediate
27800,0.1067849248647689,0.4872833490371704,0.0,-1.5048370361328125,-6.613273620605469,10.329031944274902,4.13671875,2,J1,0,None,None,6.258643512306407,[6800|18200|0|0],first_intermediate
27901,0.1065834909677505,0.4878014922142029,0.0,-1.5156004428863523,-6.617615699768066,10.302730560302734,4.13671875,2,J1,0,None,None,6.259199433134199,[6800|18300|0|0],first_intermediate
28001,0.1058043241500854,0.4885800182819366,0.0,-1.5199803113937378,-6.60930871963501,10.29549789428711,4.1328125,2,J1,0,None,None,6.260300888429657,[6800|18400|0|0],first_intermediate
28101,0.1060712933540344,0.4882557094097137,0.0,-1.517987608909607,-6.608625888824463,10.29938793182373,4.13671875,2,J1,0,None,None,6.260720946521425,[6800|18500|0|0],first_intermediate
28201,0.1051082611083984,0.4891917407512665,0.0,-1.5345653295516968,-6.595973968505859,10.311049461364746,4.13671875,2,J1,0,None,None,6.262063922983804,[6800|18600|0|0],first_intermediate
28301,0.1060252636671066,0.4881953299045563,0.0,-1.5183924436569214,-6.609493255615234,10.298256874084473,4.13671875,2,J1,0,None,None,6.263418075216058,[6800|18700|0|0],first_intermediate
28400,0.105395458638668,0.4890391826629638,0.0,-1.5315383672714231,-6.602607727050781,10.305192947387695,4.13671875,2,J1,0,None,None,6.264471043331301,[6800|18800|0|0],first_intermediate
28501,0.1060311794281005,0.4884290099143982,0.0,-1.5150972604751587,-6.606791019439697,10.30066204071045,4.13671875,2,J1,0,None,None,6.265352208301785,[6800|18900|0|0],first_intermediate
28601,0.1065133064985275,0.4874832928180694,0.0,-1.4838576316833496,-6.597585201263428,10.299243927001951,4.13671875,2,J1,0,None,None,6.266413729539598,[6800|19000|0|0],first_intermediate
28701,0.1052203103899955,0.489214688539505,0.0,-1.5189847946166992,-6.5897369384765625,10.2889404296875,4.13671875,2,J1,0,None,None,6.268574648344385,[6800|19100|0|0],first_intermediate
28800,0.1053278744220733,0.4889234602451324,0.0,-1.5081040859222412,-6.584214687347412,10.275266647338867,4.13671875,2,J1,0,None,None,6.268885105975054,[6800|19200|0|0],first_intermediate
28900,0.1054660230875015,0.4887372851371765,0.0,-1.498816728591919,-6.59561824798584,10.281779289245604,4.13671875,2,J1,0,None,None,6.269116938295023,[6800|19300|0|0],first_intermediate
29000,0.1060565412044525,0.4882573783397674,0.0,-1.500840187072754,-6.604337692260742,10.263779640197754,4.13671875,2,J1,0,None,None,6.269877873364951,[6800|19400|0|0],first_intermediate
29100,0.1048727110028266,0.4894417822360992,0.0,-1.519556760787964,-6.596879959106445,10.27196216583252,4.13671875,2,J1,0,None,None,6.271552467804189,[6800|19500|0|0],first_intermediate
29200,0.1052521169185638,0.4887382090091705,0.0,-1.5018675327301023,-6.608616352081299,10.259407997131348,4.13671875,2,J1,0,None,None,6.272351820126102,[6800|19600|0|0],first_intermediate
29300,0.1060090363025665,0.4881339371204376,0.0,-1.505144715309143,-6.611475944519043,10.28445053100586,4.13671875,2,J1,0,None,None,6.27332036102322,[6800|19700|0|0],first_intermediate
29400,0.1062947139143943,0.4878748655319214,0.0,-1.498528242111206,-6.60353946685791,10.294794082641602,4.13671875,2,J1,0,None,None,6.273706016032103,[6800|19800|0|0],first_intermediate
29500,0.1063324138522148,0.4877402484416961,0.0,-1.5021779537200928,-6.602564334869385,10.29373264312744,4.13671875,2,J1,0,None,None,6.273845812478024,[6800|19900|0|0],first_intermediate
29600,0.1063247248530387,0.4877813458442688,0.0,-1.505887746810913,-6.601004123687744,10.298632621765137,4.13671875,2,J1,0,None,None,6.273887622969609,[6800|20000|0|0],first_intermediate
29700,0.1071570739150047,0.4871632158756256,0.0,-1.5039201974868774,-6.624810695648193,10.27896213531494,4.13671875,2,J1,0,None,None,6.274924391805508,[6800|20100|0|0],first_intermediate
29800,0.1060265079140663,0.4883605539798736,0.0,-1.5230083465576172,-6.599802494049072,10.26500415802002,4.13671875,2,J1,0,None,None,6.276571145587456,[6800|20200|0|0],first_intermediate
29900,0.1045939549803733,0.4897716045379638,0.0,-1.539899826049805,-6.586576461791992,10.261707305908203,4.13671875,2,J1,0,None,None,6.278581934384252,[6800|20300|0|0],first_intermediate
30000,0.1051907464861869,0.4890934824943542,0.0,-1.5274558067321775,-6.593420028686523,10.242116928100586,4.13671875,2,J1,0,None,None,6.279485266885295,[6800|20400|0|0],first_intermediate
30100,0.1070224717259407,0.4872518479824066,0.0,-1.499574065208435,-6.619754314422607,10.263998031616213,4.13671875,2,J1,0,None,None,6.2820827339263845,[6800|20500|0|0],first_intermediate
30200,0.1071094721555709,0.4869499504566192,0.0,-1.4890228509902954,-6.621405601501465,10.285808563232422,4.14453125,2,J1,0,None,None,6.282396917297734,[6800|20600|0|0],first_intermediate
30300,0.1066476628184318,0.4877434074878692,0.0,-1.521907091140747,-6.625097751617432,10.264184951782228,4.14453125,2,J1,0,None,None,6.283314981524414,[6800|20700|0|0],first_intermediate
30400,0.1056173592805862,0.4887998700141907,0.0,-1.5320038795471191,-6.61679744720459,10.276666641235352,4.14453125,2,J1,0,None,None,6.284790663891869,[6800|20800|0|0],first_intermediate
30500,0.1061650365591049,0.4883876144886017,0.0,-1.5278242826461792,-6.629595756530762,10.267840385437012,4.13671875,2,J1,0,None,None,6.285476160076967,[6800|20900|0|0],first_intermediate
30600,0.1064950227737426,0.487488716840744,0.0,-1.5021343231201172,-6.621118068695068,10.275741577148438,4.14453125,2,J1,0,None,None,6.28643371314765,[6800|21000|0|0],first_intermediate
30700,0.107359655201435,0.4868170320987701,0.0,-1.5049711465835571,-6.647312164306641,10.27556037902832,4.14453125,2,J1,0,None,None,6.287528587399616,[6800|21100|0|0],first_intermediate
30800,0.106784887611866,0.4874114692211151,0.0,-1.5048826932907104,-6.634995460510254,10.287469863891602,4.14453125,2,J1,0,None,None,6.288355456962752,[6800|21200|0|0],first_intermediate
30900,0.105818934738636,0.4885796010494232,0.0,-1.5224095582962036,-6.635012626647949,10.304076194763184,4.14453125,2,J1,0,None,None,6.289871239573026,[6800|21300|0|0],first_intermediate
31000,0.1052112579345703,0.4894084334373474,0.0,-1.5330753326416016,-6.628373622894287,10.297653198242188,4.14453125,2,J1,0,None,None,6.290898972138177,[6800|21400|0|0],first_intermediate
31100,0.1058173179626464,0.4887597858905792,0.0,-1.5136021375656128,-6.634403705596924,10.304415702819824,4.14453125,2,J1,0,None,None,6.291786695291846,[6800|21500|0|0],first_intermediate
31200,0.1054759174585342,0.4889200329780578,0.0,-1.5128920078277588,-6.628098964691162,10.294231414794922,4.14453125,2,J1,0,None,None,6.292163833772055,[6800|21600|0|0],first_intermediate
31300,0.1057847440242767,0.4884611964225769,0.0,-1.5043960809707642,-6.642494201660156,10.28136920928955,4.14453125,2,J1,0,None,None,6.292716920412965,[6800|21700|0|0],first_intermediate
31400,0.1061465740203857,0.488077700138092,0.0,-1.4969590902328491,-6.641416549682617,10.28135585784912,4.14453125,2,J1,0,None,None,6.2932441683113,[6800|21800|0|0],first_intermediate
31500,0.1058925166726112,0.4885920286178589,0.0,-1.519650936126709,-6.641312122344971,10.286147117614746,4.14453125,2,J1,0,None,None,6.293817822319442,[6800|21900|0|0],first_intermediate
31600,0.1058554872870445,0.4885035455226898,0.0,-1.506687045097351,-6.637816429138184,10.2727632522583,4.14453125,2,J1,0,None,None,6.293913741209793,[6800|22000|0|0],first_intermediate
31700,0.106255255639553,0.4878310263156891,0.0,-1.488885760307312,-6.632817268371582,10.25368309020996,4.14453125,2,J1,0,None,None,6.294696107376912,[6800|22100|0|0],first_intermediate
31800,0.1068282946944236,0.4876127243041992,0.0,-1.5065044164657593,-6.650403499603272,10.235189437866213,4.14453125,2,J1,0,None,None,6.29530931984142,[6800|22200|0|0],first_intermediate
31900,0.1060181558132171,0.4882673621177673,0.0,-1.5147135257720947,-6.631421089172363,10.247210502624512,4.14453125,2,J1,0,None,None,6.296350893494022,[6800|22300|0|0],first_intermediate
