,time.ms,stateEstimate.x,stateEstimate.y,stateEstimate.z,stabilizer.roll,stabilizer.pitch,stabilizer.yaw,pm.vbat,drone_id,node_name,wind_speed,global_wind_direction,relative_wind_direction,travel_dist,waiting_time
0,0,0.7846593260765076,-0.804773211479187,0.0085064582526683,-0.1766266375780105,-0.2554870247840881,2.7610816955566406,4.12109375,2,G1,6.1,180,450.0,0.0,[6200|0|0|0]
1,100,0.7848634719848633,-0.8046694993972778,0.0087941233068704,-0.0829788222908973,-0.2424702048301696,2.764130115509033,4.12109375,2,G1,6.1,180,450.0,0.0003676723150325,[6300|0|0|0]
2,200,0.7845957279205322,-0.8046387434005737,0.0083450125530362,-0.0021156033035367,-0.2176000624895095,2.787101984024048,4.12109375,2,G1,6.1,180,450.0,0.0008914406650951,[6400|0|0|0]
3,300,0.7846643328666687,-0.8048450946807861,0.0086638983339071,0.0725382640957832,-0.2078346610069275,2.7946698665618896,4.12109375,2,G1,6.1,180,450.0,0.0012774142791173,[6500|0|0|0]
4,400,0.7847120761871338,-0.804914653301239,0.0089401276782155,0.1298330724239349,-0.1958310753107071,2.8048746585845947,4.12109375,2,G1,6.1,180,450.0,0.001566240311506,[6600|0|0|0]
5,500,0.7848251461982727,-0.804948091506958,0.0087772337719798,0.176863819360733,-0.189811497926712,2.824530124664306,4.12109375,2,G1,6.1,180,450.0,0.0017673307531221,[6700|0|0|0]
6,600,0.784489631652832,-0.8047915697097778,0.008259929716587,0.2089394927024841,-0.1771933138370514,2.8372247219085693,4.12109375,2,G1,6.1,180,450.0,0.0024034695500215,[6800|0|0|0]
7,700,0.7849026918411255,-0.8050029873847961,0.0088070156052708,0.245832473039627,-0.1834186315536499,2.8426878452301025,4.12109375,2,G1,6.1,180,450.0,0.0031208391354237,[6900|0|0|0]
8,800,0.7847297787666321,-0.8048931360244751,0.0088135125115513,0.2665071189403534,-0.1771123558282852,2.8411097526550293,4.12109375,2,G1,6.1,180,450.0,0.0033257987960557,[7000|0|0|0]
9,900,0.7845976948738098,-0.8051505088806152,0.0087655140087008,0.2899302840232849,-0.1671827733516693,2.848259687423706,4.12109375,2,G1,6.1,180,450.0,0.0036190406724934,[7100|0|0|0]
10,1000,0.7845808267593384,-0.8051336407661438,0.0085739409551024,0.306594967842102,-0.1632778048515319,2.847571611404419,4.12109375,2,G1,6.1,180,450.0,0.0038120932597246,[7200|0|0|0]
11,1100,0.7844869494438171,-0.8048722147941589,0.0085886307060718,0.3137517273426056,-0.1629866361618042,2.850933074951172,4.12109375,2,G1,6.1,180,450.0,0.0040902519877581,[7300|0|0|0]
12,1200,0.7845407128334045,-0.8049986362457275,0.0089833457022905,0.3262383639812469,-0.1598798781633377,2.866888523101806,4.12109375,2,G1,6.1,180,450.0,0.0045081907556615,[7400|0|0|0]
13,1300,0.784813642501831,-0.8053610920906067,0.0087641635909676,0.340756744146347,-0.1671629101037979,2.853888988494873,4.12109375,2,G1,6.1,180,450.0,0.0050120812609485,[7500|0|0|0]
14,1400,0.7847567796707153,-0.8053039312362671,0.0082571543753147,0.3463059663772583,-0.1666359007358551,2.8599236011505127,4.12109375,2,G1,6.1,180,450.0,0.0055254613244378,[7600|0|0|0]
15,1500,0.7847980856895447,-0.8050751686096191,0.0088577112182974,0.3443317115306854,-0.1618182212114334,2.855401039123535,4.12109375,2,G1,6.1,180,450.0,0.0061694388459367,[7700|0|0|0]
16,1600,0.7846367359161377,-0.8051365613937378,0.0087946765124797,0.3480044305324554,-0.1563364863395691,2.853845596313477,4.12109375,2,G1,6.1,180,450.0,0.0063532218632637,[7800|0|0|0]
17,1700,0.7846429347991943,-0.8051784038543701,0.00836365763098,0.3580584526062011,-0.1632602363824844,2.8635175228118896,4.12109375,2,G1,6.1,180,450.0,0.0067863113388599,[7900|0|0|0]
18,1800,0.7847082018852234,-0.8049643635749817,0.0086688995361328,0.3529198169708252,-0.1681165397167205,2.872415781021118,4.12109375,2,G1,6.1,180,450.0,0.0071647894153461,[8000|0|0|0]
19,1900,0.7847996354103088,-0.8052101731300354,0.008957483805716,0.3663379549980163,-0.1683945655822754,2.8986029624938965,4.12109375,2,G1,6.1,180,450.0,0.0075547423708627,[8100|0|0|0]
20,2000,0.7846298217773438,-0.8050182461738586,0.0084710661321878,0.3591558635234833,-0.1627809703350067,2.8756966590881348,4.12109375,2,G1,6.1,180,450.0,0.008104537586892,[8200|0|0|0]
21,2100,0.7847764492034912,-0.8050721287727356,0.0091357668861746,0.3548106849193573,-0.1578156948089599,2.85202956199646,4.12109375,2,G1,6.1,180,450.0,0.0087873479770524,[8300|0|0|0]
22,2200,0.7848471999168396,-0.8050878047943115,0.0089742988348007,0.3579899072647095,-0.1533091813325882,2.893503189086914,4.12109375,2,G1,6.1,180,450.0,0.0089643319670239,[8400|0|0|0]
23,2300,0.7845508456230164,-0.8049117922782898,0.0085275154560804,0.3526169061660766,-0.1489110589027404,2.873663187026977,4.12109375,2,G1,6.1,180,450.0,0.0095286205995202,[8500|0|0|0]
24,2400,0.7845026254653931,-0.8049540519714355,0.0086845159530639,0.3527992665767669,-0.1553847938776016,2.8911609649658203,4.12109375,2,G1,6.1,180,450.0,0.0096982089874453,[8600|0|0|0]
25,2500,0.7846213579177856,-0.8050430417060852,0.0087626278400421,0.3562790751457214,-0.1594071686267852,2.921492576599121,4.12109375,2,G1,6.1,180,450.0,0.0098658933188883,[8700|0|0|0]
26,2600,0.7847228050231934,-0.8051354885101318,0.0087180910632014,0.3534749448299408,-0.1674257218837738,2.909733772277832,4.12109375,2,G1,6.1,180,450.0,0.0100101897196244,[8800|0|0|0]
27,2700,0.7848073244094849,-0.8052912950515747,0.0089827058836817,0.3554229736328125,-0.1673899441957473,2.899388551712036,4.12109375,2,G1,6.1,180,450.0,0.010328686514323,[8900|0|0|0]
28,2800,0.7845641374588013,-0.805121898651123,0.0085435518994927,0.3502140045166015,-0.1601002663373947,2.909810781478882,4.12109375,2,G1,6.1,180,450.0,0.0108584895487592,[9000|0|0|0]
29,2900,0.7848137021064758,-0.8050292134284973,0.0087176198139786,0.350555419921875,-0.166972666978836,2.903440475463867,4.12109375,2,G1,6.1,180,450.0,0.0111765661161382,[9100|0|0|0]
30,3000,0.7848536372184753,-0.8052465319633484,0.0090356916189193,0.3532330691814422,-0.162223145365715,2.891714572906494,4.12109375,2,G1,6.1,180,450.0,0.01156385390559,[9200|0|0|0]
31,3100,0.7844232320785522,-0.8050567507743835,0.008725007995963,0.3441484868526459,-0.1548382341861724,2.893723487854004,4.12109375,2,G1,6.1,180,450.0,0.0121275823843192,[9300|0|0|0]
32,3200,0.7847926616668701,-0.8051169514656067,0.0085409665480256,0.339931309223175,-0.1705508381128311,2.87186598777771,4.12109375,2,G1,6.1,180,450.0,0.0125446838090439,[9400|0|0|0]
33,3300,0.784878134727478,-0.805162787437439,0.0086419265717267,0.3384275436401367,-0.1778046190738678,2.8782246112823486,4.12109375,2,G1,6.1,180,450.0,0.0126846820475658,[9500|0|0|0]
34,3400,0.7848027348518372,-0.805149495601654,0.0085872048512101,0.3439997434616089,-0.1769965291023254,2.884479761123657,4.12109375,2,G1,6.1,180,450.0,0.012778789862552,[9600|0|0|0]
35,3500,0.7846832275390625,-0.8051477670669556,0.0089049395173788,0.3447706401348114,-0.1736915558576584,2.874850034713745,4.12109375,2,G1,6.1,180,450.0,0.0131182604853225,[9700|0|0|0]
36,3600,0.7849752902984619,-0.8052216172218323,0.0090228104963898,0.3463261127471924,-0.1814229190349578,2.857922315597534,4.12109375,2,G1,6.1,180,450.0,0.0134417540223465,[9800|0|0|0]
37,3700,0.7846986651420593,-0.8051786422729492,0.0088698649778962,0.3464877307415008,-0.1716766953468322,2.85004997253418,4.12109375,2,G1,6.1,180,450.0,0.0137607534816149,[9900|0|0|0]
38,3800,0.7849648594856262,-0.805191159248352,0.0089445086196064,0.3449329733848572,-0.1823929846286773,2.8540585041046143,4.12109375,2,G1,6.1,180,450.0,0.0140374984480877,[10000|0|0|0]
39,3900,0.784768283367157,-0.8052143454551697,0.0089919343590736,0.3439516425132751,-0.1774925887584686,2.874870538711548,4.12109375,2,G1,6.1,180,450.0,0.0142410395282239,[10100|0|0|0]
40,4000,0.784747302532196,-0.8051489591598511,0.0085775880143046,0.342930257320404,-0.1804831027984619,2.8899242877960205,4.12109375,2,G1,6.1,180,450.0,0.0146610376906896,[10200|0|0|0]
41,4100,0.7848842144012451,-0.8051770329475403,0.0088098691776394,0.3443014621734619,-0.1882058382034301,2.888887643814087,4.12109375,2,G1,6.1,180,450.0,0.0149321235373912,[10300|0|0|0]
42,4200,0.7845894694328308,-0.8050255179405212,0.0087678879499435,0.3443614244461059,-0.1819516867399215,2.8973190784454346,4.12109375,2,G1,6.1,180,450.0,0.0152661801452234,[10400|0|0|0]
43,4300,0.7847760915756226,-0.8051826357841492,0.0089570982381701,0.3469970822334289,-0.1886157542467117,2.904829263687134,4.12109375,2,G1,6.1,180,450.0,0.0155749104063532,[10500|0|0|0]
44,4400,0.7847760319709778,-0.8053112626075745,0.0088098663836717,0.3476752936840057,-0.1783638894557953,2.892929077148437,4.12109375,2,G1,6.1,180,450.0,0.0157704150923232,[10600|0|0|0]
45,4500,0.7848537564277649,-0.8051952719688416,0.0086853960528969,0.3476535081863403,-0.183210551738739,2.888875722885132,4.12109375,2,G1,6.1,180,450.0,0.0159574653067035,[10700|0|0|0]
46,4600,0.7846328020095825,-0.8052055835723877,0.0089048827067017,0.3472276329994201,-0.1773008704185485,2.886810779571533,4.12109375,2,G1,6.1,180,450.0,0.0162690765633687,[10800|0|0|0]
47,4700,0.7847037315368652,-0.8052560091018677,0.008627500385046,0.3471944332122803,-0.1735638380050659,2.8789303302764893,4.12109375,2,G1,6.1,180,450.0,0.0165597906569916,[10900|0|0|0]
48,4800,0.7846626043319702,-0.8052760362625122,0.0089303394779562,0.3478924036026001,-0.1769844889640808,2.8911609649658203,4.12109375,2,G1,6.1,180,450.0,0.016866065125958,[11000|0|0|0]
49,4900,0.7848460674285889,-0.8052944540977478,0.0087571134790778,0.353206992149353,-0.1824352294206619,2.898521661758423,4.12109375,2,G1,6.1,180,450.0,0.0171190575589734,[11100|0|0|0]
50,5000,0.7846704721450806,-0.805092990398407,0.0087539684027433,0.3500222563743591,-0.1734900474548339,2.8792285919189453,4.12109375,2,G1,6.1,180,450.0,0.0173863237507142,[11200|0|0|0]
51,5100,0.7846242785453796,-0.804913341999054,0.0086850887164473,0.3443806171417236,-0.1699254661798477,2.869396448135376,4.12109375,2,G1,6.1,180,450.0,0.0175841919068881,[11300|0|0|0]
52,5200,0.7846900224685669,-0.80511873960495,0.0090539529919624,0.3459581732749939,-0.1598232537508011,2.8545987606048584,4.12109375,2,G1,6.1,180,450.0,0.018011475528965,[11400|0|0|0]
53,5300,0.7846252918243408,-0.8048944473266602,0.0087653752416372,0.3363862633705139,-0.1554961204528808,2.8711040019989014,4.12109375,2,G1,6.1,180,450.0,0.0183826550008988,[11500|0|0|0]
54,5400,0.7848319411277771,-0.8050630688667297,0.0089180404320359,0.3334550559520721,-0.1686357408761978,2.886712074279785,4.12109375,2,G1,6.1,180,450.0,0.0186899721314751,[11600|0|0|0]
55,5500,0.7847672700881958,-0.8052821755409241,0.0089194076135754,0.3387120068073272,-0.1649291813373565,2.8949499130249023,4.12109375,2,G1,6.1,180,450.0,0.0189184277009462,[11700|0|0|0]
56,5600,0.7849588394165039,-0.8053095936775208,0.0088950563222169,0.3379473686218261,-0.1669281125068664,2.8939688205718994,4.12109375,2,G1,6.1,180,450.0,0.0191134752519528,[11800|0|0|0]
57,5700,0.7845812439918518,-0.8051179051399231,0.0088441865518689,0.333449512720108,-0.1477635353803634,2.8904709815979004,4.12109375,2,G1,6.1,180,450.0,0.0195399849630964,[11900|0|0|0]
58,5800,0.7848137021064758,-0.8051388263702393,0.008844400756061,0.3308228850364685,-0.1586468666791916,2.872735977172852,4.12109375,2,G1,6.1,180,450.0,0.0197733827326143,[12000|0|0|0]
59,5900,0.7847368717193604,-0.8053290247917175,0.0089879324659705,0.3374509215354919,-0.1490337252616882,2.8797426223754883,4.12109375,2,G1,6.1,180,450.0,0.0200237418739827,[12100|0|0|0]
60,6000,0.7845830917358398,-0.8052077293395996,0.0083127534016966,0.3339050412178039,-0.1419436037540435,2.878462553024292,4.12109375,2,G1,6.1,180,450.0,0.0207267551305219,[12200|0|0|0]
61,6100,0.7846323251724243,-0.8049221038818359,0.0086614405736327,0.3290878236293793,-0.1449515521526336,2.9300332069396973,4.12109375,2,G1,6.1,180,450.0,0.0211801738964253,[12300|0|0|0]
62,6200,0.7847524881362915,-0.8051856160163879,0.0084650907665491,0.3345920443534851,-0.1499937027692794,2.8896350860595703,4.12109375,2,G1,6.1,180,450.0,0.021530075353529,[12400|0|0|0]
63,6300,0.7846866846084595,-0.8052203059196472,0.0089175272732973,0.3363464176654815,-0.1474680751562118,2.91619086265564,4.12109375,2,G1,6.1,180,450.0,0.0219885862981113,[12500|0|0|0]
64,6400,0.7843561172485352,-0.8047201633453369,0.0085810925811529,0.3390341997146606,-0.1427923738956451,2.963350772857666,4.12109375,2,G1,6.1,180,450.0,0.0226760495161553,[12600|0|0|0]
65,6500,0.7846035361289978,-0.805212140083313,0.0086954068392515,0.3499156832695007,-0.1567749977111816,2.954687118530273,4.12109375,2,G1,6.1,180,450.0,0.0232384772561572,[12700|0|0|0]
66,6600,0.7847999334335327,-0.8052487373352051,0.008613022044301,0.3492770791053772,-0.1641363054513931,2.9109857082366943,4.12109375,2,G1,6.1,180,450.0,0.0234545756469741,[12800|0|0|0]
67,6700,0.7848003506660461,-0.8049721717834473,0.0090782083570957,0.3414896726608276,-0.1607465595006942,2.9551799297332764,4.12109375,2,G1,6.1,180,450.0,0.023995765986978,[12900|0|0|0]
68,6800,0.7845494151115417,-0.805010199546814,0.008865712210536,0.3445372283458709,-0.1455642879009246,2.9701945781707764,4.12109375,2,G1,6.1,180,450.0,0.0243267786387058,[13000|0|0|0]
69,6900,0.784551203250885,-0.8049992918968201,0.0087856138125061,0.3477063179016113,-0.1480077058076858,2.9733705520629883,4.12109375,2,G1,6.1,180,450.0,0.0244076360912853,[13100|0|0|0]
70,7000,0.7846250534057617,-0.8050249814987183,0.0088532324880361,0.3505717515945434,-0.1522834002971649,2.9703736305236816,4.12109375,2,G1,6.1,180,450.0,0.024511009619335,[13200|0|0|0]
71,7100,0.7845337390899658,-0.8049100637435913,0.0085691614076495,0.3458395004272461,-0.1478959918022155,2.9737548828125,4.12109375,2,G1,6.1,180,450.0,0.0248307607310214,[13300|0|0|0]
72,7200,0.7848276495933533,-0.8050910234451294,0.0088714240118861,0.3537290394306183,-0.1576503366231918,2.9790961742401123,4.12109375,2,G1,6.1,180,450.0,0.0252895553250416,[13400|0|0|0]
73,7300,0.7846609354019165,-0.8050223588943481,0.0086645120754837,0.3528113067150116,-0.1481333971023559,2.9761343002319336,4.12109375,2,G1,6.1,180,450.0,0.0255640020258528,[13500|0|0|0]
74,7400,0.7846747636795044,-0.805060088634491,0.0083117075264453,0.35199174284935,-0.1464282125234604,2.959345817565918,4.12109375,2,G1,6.1,180,450.0,0.0259190876554895,[13600|0|0|0]
75,7500,0.7845592498779297,-0.8049294352531433,0.0089174574241042,0.347549170255661,-0.1437547206878662,2.9425477981567383,4.12109375,2,G1,6.1,180,450.0,0.0265494420660599,[13700|0|0|0]
76,7601,0.784746527671814,-0.8050697445869446,0.0088398233056068,0.3556452691555023,-0.1532381474971771,2.948737859725952,4.12109375,2,G1,6.1,180,450.0,0.0267959917316221,[13800|0|0|0]
77,7701,0.7844316959381104,-0.8048534989356995,0.0086711449548602,0.3517167568206787,-0.1529650390148162,2.9362058639526367,4.12109375,2,G1,6.1,180,450.0,0.0272135244707454,[13900|0|0|0]
78,7801,0.7846494913101196,-0.8049534559249878,0.008932982571423,0.3537748456001282,-0.1578509211540222,2.927549123764038,4.12109375,2,G1,6.1,180,450.0,0.0275684683553575,[14000|0|0|0]
79,7900,0.7846459150314331,-0.8050324320793152,0.0090645113959908,0.3531235754489898,-0.1574878990650177,2.9024806022644043,4.12109375,2,G1,6.1,180,450.0,0.0277219279735434,[14100|0|0|0]
80,8001,0.7844471335411072,-0.8046708703041077,0.0086689107120037,0.3450174331665039,-0.1533687114715576,2.9292547702789307,4.12109375,2,G1,6.1,180,450.0,0.0282935405165815,[14200|0|0|0]
81,8101,0.7846043109893799,-0.8050577044487,0.0087902043014764,0.3612232506275177,-0.1589400470256805,2.9350745677948,4.12109375,2,G1,6.1,180,450.0,0.0287283479918107,[14300|0|0|0]
82,8201,0.7845674753189087,-0.8047649264335632,0.0084675252437591,0.358118861913681,-0.1587382853031158,2.937041521072388,4.12109375,2,G1,6.1,180,450.0,0.0291656094777156,[14400|0|0|0]
83,8302,0.7845125198364258,-0.8048612475395203,0.0085586113855242,0.3563252389431,-0.1627565622329712,2.925790548324585,4.12109375,2,G1,6.1,180,450.0,0.0293091174765497,[14500|0|0|0]
84,8401,0.7848147749900818,-0.8050193786621094,0.0087179159745574,0.360160619020462,-0.1661255061626434,2.9395790100097656,4.12109375,2,G1,6.1,180,450.0,0.0296856033088594,[14600|0|0|0]
85,8501,0.7845967411994934,-0.8048150539398193,0.0089104622602462,0.3519715070724487,-0.15828537940979,2.9436066150665283,4.12109375,2,G1,6.1,180,450.0,0.030041076793257,[14700|0|0|0]
86,8602,0.7847786545753479,-0.8049373626708984,0.0088839307427406,0.3523952662944793,-0.1626890301704406,2.942471504211426,4.12109375,2,G1,6.1,180,450.0,0.0302618840020028,[14800|0|0|0]
87,8702,0.7845162749290466,-0.8050630688667297,0.0085277017205953,0.3549177348613739,-0.1559676378965377,2.9164576530456543,4.12109375,2,G1,6.1,180,450.0,0.0307218233922296,[14900|0|0|0]
88,8802,0.7844797372817993,-0.804823637008667,0.0089707663282752,0.3524452745914459,-0.1579664200544357,2.963151454925537,4.12109375,2,G1,6.1,180,450.0,0.0312267678059033,[15000|0|0|0]
89,8902,0.7844144105911255,-0.804776668548584,0.0086093265563249,0.3466663062572479,-0.158111110329628,2.951316595077514,4.12109375,2,G1,6.1,180,450.0,0.0315970546156933,[15100|0|0|0]
90,9002,0.7842786908149719,-0.8047637343406677,0.0087029077112674,0.3409988582134247,-0.1555113196372985,2.9594521522521973,4.12109375,2,G1,6.1,180,450.0,0.0317624165941949,[15200|0|0|0]
91,9100,0.784991443157196,-0.804693341255188,0.0088332397863268,0.3404560387134552,-0.1729041188955307,2.9373576641082764,4.12109375,2,G1,6.1,180,450.0,0.0324903984192555,[15300|0|0|0]
92,9202,0.784874677658081,-0.8051862716674805,0.0088069327175617,0.348270982503891,-0.1630359590053558,2.956226587295532,4.12109375,2,G1,6.1,180,450.0,0.0329976524335456,[15400|0|0|0]
93,9302,0.784793496131897,-0.8051412105560303,0.0088341310620307,0.3416878879070282,-0.1611173897981643,2.95194673538208,4.12109375,2,G1,6.1,180,450.0,0.0330944031126159,[15500|0|0|0]
94,9402,0.7847282886505127,-0.8048831820487976,0.0085398666560649,0.3335909247398376,-0.1575643569231033,2.946049213409424,4.12109375,2,G1,6.1,180,450.0,0.0334911678625517,[15600|0|0|0]
95,9500,0.7847458124160767,-0.8050792813301086,0.0087504675611853,0.3374176323413849,-0.1553671360015869,2.934246301651001,4.12109375,2,G1,6.1,180,450.0,0.0337794641541126,[15700|0|0|0]
96,9600,0.7847738265991211,-0.804844081401825,0.0088917408138513,0.3291102051734924,-0.1551872640848159,2.932310104370117,4.12109375,2,G1,6.1,180,450.0,0.0340552574329196,[15800|0|0|0]
97,9700,0.7847275733947754,-0.805042028427124,0.0090795373544096,0.3329006433486938,-0.1510674208402633,2.930638313293457,4.12109375,2,G1,6.1,180,450.0,0.0343320062800404,[15900|0|0|0]
98,9800,0.7844970226287842,-0.804762065410614,0.0087178396061062,0.3259330689907074,-0.1440419554710388,2.9480223655700684,4.12109375,2,G1,6.1,180,450.0,0.0348442154242776,[16000|0|0|0]
99,9900,0.7848026156425476,-0.8051007390022278,0.0088891610503196,0.3358473777770996,-0.1517624258995056,2.939058303833008,4.12109375,2,G1,6.1,180,450.0,0.0353314914538183,[16100|0|0|0]
100,10000,0.7845686078071594,-0.8050537705421448,0.0089531065896153,0.3352027237415313,-0.1474448442459106,2.9425203800201416,4.12109375,2,G1,6.1,180,450.0,0.0355785840179749,[16200|0|0|0]
101,10100,0.7846609950065613,-0.804870069026947,0.0089408317580819,0.3311601281166076,-0.1561192572116851,2.925102472305298,4.12109375,2,G1,6.1,180,450.0,0.0357845750682378,[16300|0|0|0]
102,10200,0.7846027612686157,-0.8049482703208923,0.0087913842871785,0.3364706933498382,-0.1547598093748092,2.930026292800904,4.12109375,2,G1,6.1,180,450.0,0.0359630159748968,[16400|0|0|0]
103,10300,0.7847359776496887,-0.8048667311668396,0.0090256240218877,0.3379616439342499,-0.1538054943084716,2.939082860946656,4.12109375,2,G1,6.1,180,450.0,0.0362445537008705,[16500|0|0|0]
104,10400,0.7846181392669678,-0.8048486709594727,0.008690065704286,0.3377515375614166,-0.1503578424453735,2.9461143016815186,4.12109375,2,G1,6.1,180,450.0,0.0366006596402258,[16600|0|0|0]
105,10500,0.7847794890403748,-0.8052853941917419,0.0088729001581668,0.3483282625675201,-0.1534958034753799,2.934834241867065,4.12109375,2,G1,6.1,180,450.0,0.037100848972887,[16700|0|0|0]
106,10600,0.7848187685012817,-0.8050284385681152,0.0089090531691908,0.3348065912723541,-0.1562187075614929,2.9368317127227783,4.12109375,2,G1,6.1,180,450.0,0.037363291554738,[16800|0|0|0]
107,10700,0.7845556139945984,-0.804783821105957,0.0086235543712973,0.326127827167511,-0.1570087075233459,2.9392309188842773,4.12109375,2,G1,6.1,180,450.0,0.0378222006533394,[16900|0|0|0]
108,10800,0.7847272753715515,-0.8051942586898804,0.0088438987731933,0.3386569619178772,-0.1639326214790344,2.955613374710083,4.12109375,2,G1,6.1,180,450.0,0.0383186664568759,[17000|0|0|0]
109,10900,0.784679114818573,-0.8049848079681396,0.0086996797472238,0.3329218626022339,-0.1612984091043472,2.94522476196289,4.12109375,2,G1,6.1,180,450.0,0.0385774871885658,[17100|0|0|0]
110,11000,0.7844527363777161,-0.8048222064971924,0.0084859523922204,0.3333181738853454,-0.1536675244569778,2.963809967041016,4.12109375,2,G1,6.1,180,450.0,0.0389287218951593,[17200|0|0|0]
111,11100,0.7848861813545227,-0.8049798607826233,0.0091032665222883,0.3402787446975708,-0.1621673256158828,2.97441840171814,4.12109375,2,G1,6.1,180,450.0,0.0396993100840223,[17300|0|0|0]
112,11200,0.7847462892532349,-0.8051201105117798,0.0088545205071568,0.3440328538417816,-0.1559830605983734,2.9796335697174072,4.12109375,2,G1,6.1,180,450.0,0.0400172949367669,[17400|0|0|0]
113,11300,0.7846901416778564,-0.8049766421318054,0.0090378550812602,0.3412790596485138,-0.1534606218338012,2.9548494815826416,4.12109375,2,G1,6.1,180,450.0,0.0402567678837463,[17500|0|0|0]
114,11400,0.7846137881278992,-0.8047877550125122,0.0088209211826324,0.3375175893306732,-0.1518613845109939,2.964564561843872,4.12109375,2,G1,6.1,180,450.0,0.0405543725288711,[17600|0|0|0]
115,11500,0.784726619720459,-0.8051921725273132,0.0089652016758918,0.3511919379234314,-0.149176225066185,2.957310676574707,4.12109375,2,G1,6.1,180,450.0,0.0409983335128467,[17700|0|0|0]
116,11600,0.7850522994995117,-0.8048111796379089,0.0089091518893837,0.3407614231109619,-0.1603646874427795,2.945344924926758,4.12109375,2,G1,6.1,180,450.0,0.041502679107482,[17800|0|0|0]
117,11700,0.784875750541687,-0.8049543499946594,0.0088202860206365,0.3433353006839752,-0.1614743620157241,2.95368766784668,4.12109375,2,G1,6.1,180,450.0,0.0417467373550158,[17900|0|0|0]
118,11800,0.784855306148529,-0.8053193688392639,0.0085574481636285,0.355409175157547,-0.1576514095067978,2.9429867267608643,4.12109375,2,G1,6.1,180,450.0,0.0421970044637463,[18000|0|0|0]
119,11900,0.7848305106163025,-0.80488520860672,0.0087840426713228,0.3437255024909973,-0.1520967036485672,2.9363367557525635,4.12109375,2,G1,6.1,180,450.0,0.0426873665716403,[18100|0|0|0]
120,12000,0.7847082018852234,-0.8051694631576538,0.0087782824411988,0.3486196398735046,-0.1449163854122162,2.9320762157440186,4.12109375,2,G1,6.1,180,450.0,0.0429968714272983,[18200|0|0|0]
121,12100,0.784572184085846,-0.8050382137298584,0.0087955128401517,0.3520961403846741,-0.136876106262207,2.952571392059326,4.12109375,2,G1,6.1,180,450.0,0.0431866716925567,[18300|0|0|0]
122,12200,0.784710168838501,-0.8052094578742981,0.008712756447494,0.3571050763130188,-0.1418498903512954,2.9812333583831787,4.12109375,2,G1,6.1,180,450.0,0.0434216460943452,[18400|0|0|0]
123,12300,0.7848747968673706,-0.8051810264587402,0.0083029810339212,0.3581767082214355,-0.1505724787712097,2.985158443450928,4.12109375,2,G1,6.1,180,450.0,0.0438641691139147,[18500|0|0|0]
124,12400,0.7846954464912415,-0.8051174879074097,0.0089281564578413,0.3530337214469909,-0.1465948075056076,2.981060028076172,4.12109375,2,G1,6.1,180,450.0,0.0445176582229261,[18600|0|0|0]
125,12500,0.784674346446991,-0.8050837516784668,0.0087269730865955,0.3504408597946167,-0.1455790400505066,2.9559402465820312,4.12109375,2,G1,6.1,180,450.0,0.0447227389238136,[18700|0|0|0]
126,12600,0.7847146391868591,-0.8051684498786926,0.0090169087052345,0.349361777305603,-0.140905886888504,2.943950653076172,4.12109375,2,G1,6.1,180,450.0,0.0450274682347818,[18800|0|0|0]
127,12700,0.7847486734390259,-0.8051748275756836,0.0088171521201729,0.3461072146892547,-0.1406720727682113,2.9322006702423096,4.12109375,2,G1,6.1,180,450.0,0.0452302037733904,[18900|0|0|0]
128,12800,0.7848469614982605,-0.8052171468734741,0.0089682796970009,0.3451939225196838,-0.1411556601524353,2.9441421031951904,4.12109375,2,G1,6.1,180,450.0,0.0454153820929407,[19000|0|0|0]
129,12900,0.7846164107322693,-0.8050941824913025,0.008881352841854,0.3407856523990631,-0.1432778984308242,2.953505277633667,4.12109375,2,G1,6.1,180,450.0,0.0456907548823149,[19100|0|0|0]
130,13000,0.7844430804252625,-0.8047489523887634,0.0087583689019083,0.3322729766368866,-0.1355082839727401,2.941260576248169,4.12109375,2,G1,6.1,180,450.0,0.0460961587161779,[19200|0|0|0]
131,13100,0.7845733165740967,-0.8049536347389221,0.0084605477750301,0.3373611271381378,-0.1494360715150833,2.939289331436157,4.12109375,2,G1,6.1,180,450.0,0.0464802859640329,[19300|0|0|0]
132,13200,0.784746527671814,-0.804929792881012,0.0086543792858719,0.337058424949646,-0.1578723788261413,2.9343745708465576,4.12109375,2,G1,6.1,180,450.0,0.0467413246070654,[19400|0|0|0]
133,13300,0.7846025824546814,-0.8050293326377869,0.0089193368330597,0.3367631137371063,-0.1526661962270736,2.9047210216522217,4.12109375,2,G1,6.1,180,450.0,0.0470588634086722,[19500|0|0|0]
134,13400,0.7848607301712036,-0.8050792813301086,0.009014424867928,0.3409322202205658,-0.159429594874382,2.914132595062256,4.12109375,2,G1,6.1,180,450.0,0.0473384646421913,[19600|0|0|0]
135,13500,0.784701943397522,-0.8048670887947083,0.0086471494287252,0.3353345990180969,-0.1559248715639114,2.919708728790283,4.12109375,2,G1,6.1,180,450.0,0.0477913776137626,[19700|0|0|0]
136,13600,0.7848483324050903,-0.8047422170639038,0.0086959563195705,0.3333920836448669,-0.1624134331941604,2.920464038848877,4.12109375,2,G1,6.1,180,450.0,0.0479898840451066,[19800|0|0|0]
137,13700,0.7847158908843994,-0.8051049113273621,0.009057025425136,0.34207883477211,-0.1575396806001663,2.942143678665161,4.12109375,2,G1,6.1,180,450.0,0.0485185226590408,[19900|0|0|0]
138,13800,0.7847970128059387,-0.8049840331077576,0.0089450497180223,0.337952584028244,-0.1611899435520172,2.940943717956543,4.12109375,2,G1,6.1,180,450.0,0.0487021823146884,[20000|0|0|0]
139,13900,0.7846100926399231,-0.8048194646835327,0.008839682675898,0.3387205600738525,-0.1558395028114318,2.952897787094116,4.12109375,2,G1,6.1,180,450.0,0.0489725970485348,[20100|0|0|0]
140,14000,0.7846667170524597,-0.8050426244735718,0.0091795297339558,0.3505609929561615,-0.160493791103363,2.971977949142456,4.12109375,2,G1,6.1,180,450.0,0.0493830877778527,[20200|0|0|0]
141,14100,0.7848113179206848,-0.8050640821456909,0.0089664394035935,0.3519220054149627,-0.1619847118854522,2.9732139110565186,4.12109375,2,G1,6.1,180,450.0,0.0496415008806128,[20300|0|0|0]
142,14200,0.7848405241966248,-0.8048192262649536,0.0087927337735891,0.3425039649009704,-0.1652199327945709,2.9429097175598145,4.12109375,2,G1,6.1,180,450.0,0.0499431315401638,[20400|0|0|0]
143,14300,0.7845903635025024,-0.8049366474151611,0.0087687447667121,0.3522830903530121,-0.1592485606670379,2.929433584213257,4.12109375,2,G1,6.1,180,450.0,0.050220518583572,[20500|0|0|0]
144,14400,0.7844720482826233,-0.8046744465827942,0.0086724180728197,0.3504431247711181,-0.162187322974205,2.956446886062622,4.12109375,2,G1,6.1,180,450.0,0.0505238774464806,[20600|0|0|0]
145,14500,0.7845479249954224,-0.8050833344459534,0.0089134573936462,0.3614948987960815,-0.166626751422882,2.9723150730133057,4.12109375,2,G1,6.1,180,450.0,0.0510045504271739,[20700|0|0|0]
146,14600,0.7844094038009644,-0.8049262166023254,0.0086732152849435,0.356440007686615,-0.1683997362852096,2.956894874572754,4.12109375,2,G1,6.1,180,450.0,0.0513232829308416,[20800|0|0|0]
147,14700,0.7846585512161255,-0.8049325346946716,0.0085512809455394,0.3516076207160949,-0.1745276153087616,2.9531970024108887,4.12109375,2,G1,6.1,180,450.0,0.0516007398390243,[20900|0|0|0]
148,14800,0.7846812009811401,-0.804988443851471,0.0086066555231809,0.3530453145503998,-0.1724367141723632,2.9525351524353027,4.12109375,2,G1,6.1,180,450.0,0.0516826250606348,[21000|0|0|0]
149,14900,0.7849308252334595,-0.8051396608352661,0.0088520525023341,0.3597104251384735,-0.1795033067464828,2.9684736728668213,4.12109375,2,G1,6.1,180,450.0,0.0520639366404637,[21100|0|0|0]
150,15000,0.7848458886146545,-0.8050928115844727,0.0089109139516949,0.3616873919963836,-0.178711712360382,2.924068689346313,4.12109375,2,G1,6.1,180,450.0,0.0521773991969957,[21200|0|0|0]
151,15100,0.7846902012825012,-0.8050622940063477,0.0087130200117826,0.3580681681632995,-0.1701627373695373,2.942077159881592,4.12109375,2,G1,6.1,180,450.0,0.0524310364959516,[21300|0|0|0]
152,15200,0.7845878005027771,-0.8051877617835999,0.0088769393041729,0.3639895915985107,-0.1690348982810974,2.9654457569122314,4.12109375,2,G1,6.1,180,450.0,0.0526614656981688,[21400|0|0|0]
153,15300,0.7846866250038147,-0.8047716617584229,0.0088591836392879,0.3561201989650726,-0.1724584847688675,2.974904060363769,4.12109375,2,G1,6.1,180,450.0,0.0530895086593224,[21500|0|0|0]
154,15400,0.7848252654075623,-0.804730236530304,0.008632818236947,0.3512552082538605,-0.1735313534736633,2.9763851165771484,4.12109375,2,G1,6.1,180,450.0,0.0533581692378466,[21600|0|0|0]
155,15500,0.7846242785453796,-0.8049846887588501,0.0085779391229152,0.357479840517044,-0.1582794338464737,2.9766643047332764,4.12109375,2,G1,6.1,180,450.0,0.0536870360384498,[21700|0|0|0]
156,15600,0.7848482728004456,-0.805365800857544,0.0086654098704457,0.3635907471179962,-0.1635882705450058,2.9657859802246094,4.12109375,2,G1,6.1,180,450.0,0.0541376700249033,[21800|0|0|0]
157,15700,0.7846895456314087,-0.8051611185073853,0.0088330842554569,0.3519788384437561,-0.1574974060058593,2.960901260375977,4.12109375,2,G1,6.1,180,450.0,0.0544462212816595,[21900|0|0|0]
158,15800,0.7847834825515747,-0.8049902319908142,0.008508700877428,0.3437610268592834,-0.1606243252754211,2.944608688354492,4.12109375,2,G1,6.1,180,450.0,0.0548247063176351,[22000|0|0|0]
159,15900,0.7847319841384888,-0.8051357269287109,0.0088861994445323,0.3452412188053131,-0.1611080765724182,2.95096492767334,4.12109375,2,G1,6.1,180,450.0,0.0552325372037506,[22100|0|0|0]
160,16000,0.7848373651504517,-0.8050028085708618,0.0087370201945304,0.3338666558265686,-0.1533647328615188,2.942335844039917,4.12109375,2,G1,6.1,180,450.0,0.0554584285408283,[22200|0|0|0]
161,16100,0.7849458456039429,-0.8052975535392761,0.0088248634710907,0.3443991541862488,-0.1538031250238418,2.941883087158203,4.12109375,2,G1,6.1,180,450.0,0.0557845558877836,[22300|0|0|0]
162,16200,0.7846248149871826,-0.8047258257865906,0.0087436344474554,0.3296650350093841,-0.1423496305942535,2.9543933868408203,4.12109375,2,G1,6.1,180,450.0,0.0564452611430745,[22400|0|0|0]
163,16300,0.7847184538841248,-0.8052813410758972,0.0087902331724762,0.3408214449882507,-0.1449669152498245,2.9353010654449463,4.12109375,2,G1,6.1,180,450.0,0.0570105371118257,[22500|0|0|0]
164,16400,0.7848447561264038,-0.8050814270973206,0.0088571840897202,0.3376528024673462,-0.1462002843618393,2.9256839752197266,4.12109375,2,G1,6.1,180,450.0,0.0572563017971547,[22600|0|0|0]
165,16500,0.7847844362258911,-0.8049569725990295,0.008727429434657,0.3345345854759216,-0.1417534947395324,2.9210991859436035,4.12109375,2,G1,6.1,180,450.0,0.0574459427290584,[22700|0|0|0]
166,16600,0.784907341003418,-0.8051533699035645,0.0089496094733476,0.3397418558597564,-0.1416776925325393,2.904653549194336,4.12109375,2,G1,6.1,180,450.0,0.0577669434380297,[22800|0|0|0]
167,16700,0.7847959995269775,-0.8051042556762695,0.0088529232889413,0.3369683623313904,-0.141405388712883,2.901782512664795,4.12109375,2,G1,6.1,180,450.0,0.0579223697869984,[22900|0|0|0]
168,16800,0.7847138047218323,-0.805106520652771,0.0085834329947829,0.342855304479599,-0.1399518102407455,2.916771650314331,4.12109375,2,G1,6.1,180,450.0,0.0582041252390433,[23000|0|0|0]
169,16900,0.7847354412078857,-0.8052147030830383,0.0088522564619779,0.3469985425472259,-0.1383274048566818,2.9132440090179443,4.12109375,2,G1,6.1,180,450.0,0.0584947067805459,[23100|0|0|0]
170,17000,0.7845761179924011,-0.8048505783081055,0.0086467117071151,0.3391111493110657,-0.1371646225452423,2.908455848693848,4.12109375,2,G1,6.1,180,450.0,0.0589421655886656,[23200|0|0|0]
171,17100,0.784464955329895,-0.8049545884132385,0.0087776631116867,0.3375694751739502,-0.1334135681390762,2.9070253372192383,4.12109375,2,G1,6.1,180,450.0,0.0591429727346154,[23300|0|0|0]
172,17200,0.7844363451004028,-0.8047937750816345,0.0086370920762419,0.3295943737030029,-0.1280405223369598,2.89677095413208,4.12109375,2,G1,6.1,180,450.0,0.0593584714326606,[23400|0|0|0]
173,17300,0.784528911113739,-0.8049811124801636,0.0087195606902241,0.3347105383872986,-0.1277302056550979,2.931116342544556,4.12109375,2,G1,6.1,180,450.0,0.059583115239619,[23500|0|0|0]
174,17400,0.7848464846611023,-0.8046125173568726,0.0086141806095838,0.3245981335639953,-0.1387470215559005,2.951460838317871,4.12109375,2,G1,6.1,180,450.0,0.060080930751927,[23600|0|0|0]
175,17500,0.7845791578292847,-0.8049010634422302,0.008488037623465,0.3313146233558655,-0.1441431641578674,2.958648920059204,4.12109375,2,G1,6.1,180,450.0,0.0604940100800613,[23700|0|0|0]
176,17600,0.7845314741134644,-0.8050567507743835,0.0084807556122541,0.332072377204895,-0.147828996181488,2.9606051445007324,4.12109375,2,G1,6.1,180,450.0,0.0606569987601429,[23800|0|0|0]
177,17700,0.7844605445861816,-0.805066704750061,0.0084033533930778,0.3336313366889953,-0.1460426747798919,2.9586169719696045,4.12109375,2,G1,6.1,180,450.0,0.0607624557798511,[23900|0|0|0]
178,17800,0.784504234790802,-0.8049564361572266,0.0084407553076744,0.3352666795253753,-0.146890178322792,2.945752143859864,4.12109375,2,G1,6.1,180,450.0,0.0608868217710262,[24000|0|0|0]
179,17900,0.7848246693611145,-0.8051058650016785,0.0090658999979496,0.3383425772190094,-0.1513512879610061,2.929396390914917,4.12109375,2,G1,6.1,180,450.0,0.0616050231196638,[24100|0|0|0]
180,18000,0.7847238779067993,-0.8052278757095337,0.0089373346418142,0.3341423571109772,-0.1463362276554107,2.919895648956299,4.12109375,2,G1,6.1,180,450.0,0.0618089215769717,[24200|0|0|0]
181,18100,0.7846347093582153,-0.8051905035972595,0.0086354026570916,0.3346401154994964,-0.1460701078176498,2.929194688796997,4.12109375,2,G1,6.1,180,450.0,0.0621259556890652,[24300|0|0|0]
182,18200,0.7847407460212708,-0.8050435185432434,0.0089705577120184,0.3333626389503479,-0.1561742573976516,2.9301137924194336,4.12109375,2,G1,6.1,180,450.0,0.0625069770675455,[24400|0|0|0]
183,18300,0.784796953201294,-0.8048792481422424,0.0091742221266031,0.3303745687007904,-0.1632248163223266,2.9221787452697754,4.12109375,2,G1,6.1,180,450.0,0.0627746021887492,[24500|0|0|0]
184,18400,0.7845866084098816,-0.8050488829612732,0.0084563298150897,0.3377196192741394,-0.1592843234539032,2.9175496101379395,4.12109375,2,G1,6.1,180,450.0,0.0635416682054857,[24600|0|0|0]
185,18500,0.7847033739089966,-0.8052294254302979,0.0087050488218665,0.3443146049976349,-0.1652095913887024,2.910094976425171,4.12109375,2,G1,6.1,180,450.0,0.0638704400248942,[24700|0|0|0]
186,18600,0.7848556041717529,-0.8053418397903442,0.0090181799605488,0.3517508506774902,-0.1657711267471313,2.901876211166382,4.12109375,2,G1,6.1,180,450.0,0.064236311793764,[24800|0|0|0]
187,18700,0.7843680381774902,-0.8047842383384705,0.0086030159145593,0.3392398357391357,-0.1534823626279831,2.934603214263916,4.12109375,2,G1,6.1,180,450.0,0.0650854296671924,[24900|0|0|0]
188,18800,0.7848238945007324,-0.8051124811172485,0.0089238518849015,0.3446131348609924,-0.167561262845993,2.9026103019714355,4.12109375,2,G1,6.1,180,450.0,0.0657323330828004,[25000|0|0|0]
189,18900,0.7846595644950867,-0.8049709796905518,0.0088820168748497,0.3421567976474762,-0.1606283038854599,2.935805320739746,4.1171875,2,G1,6.1,180,450.0,0.0659531886296603,[25100|0|0|0]
190,19000,0.7846018075942993,-0.8050739169120789,0.0088283410295844,0.3468980491161346,-0.1632895618677139,2.951869010925293,4.12109375,2,G1,6.1,180,450.0,0.0660828536886747,[25200|0|0|0]
191,19100,0.7847719192504883,-0.8050635457038879,0.008621790446341,0.3413448333740234,-0.1699775606393814,2.9550459384918213,4.12109375,2,G1,6.1,180,450.0,0.0663506384548002,[25300|0|0|0]
192,19200,0.7845966815948486,-0.8050011992454529,0.0087588001042604,0.339423656463623,-0.160355195403099,2.948625087738037,4.12109375,2,G1,6.1,180,450.0,0.0665816513617917,[25400|0|0|0]
193,19300,0.7848317623138428,-0.8049530982971191,0.0084223328158259,0.3370865881443023,-0.1702122688293457,2.9610562324523926,4.12109375,2,G1,6.1,180,450.0,0.0669949150571,[25500|0|0|0]
194,19400,0.7846196889877319,-0.8050509095191956,0.0086565976962447,0.3354427218437195,-0.1626055240631103,2.95581603050232,4.12109375,2,G1,6.1,180,450.0,0.0673257052700892,[25600|0|0|0]
195,19500,0.7849085927009583,-0.8050581216812134,0.0090620564296841,0.3365836441516876,-0.1679958552122116,2.9400994777679443,4.12109375,2,G1,6.1,180,450.0,0.0678236150564152,[25700|0|0|0]
196,19600,0.7847583889961243,-0.8051692247390747,0.0087202712893486,0.3386684954166412,-0.1601193398237228,2.9228885173797607,4.12109375,2,G1,6.1,180,450.0,0.0682131302994625,[25800|0|0|0]
197,19700,0.7848461270332336,-0.8050518035888672,0.0087839066982269,0.3373571336269378,-0.1623115092515945,2.9414312839508057,4.12109375,2,G1,6.1,180,450.0,0.0683729275301487,[25900|0|0|0]
198,19800,0.7845948338508606,-0.8048267960548401,0.0088514657691121,0.3317800462245941,-0.1577533036470413,2.9262406826019287,4.1171875,2,G1,6.1,180,450.0,0.0687169346259112,[26000|0|0|0]
199,19900,0.7847952842712402,-0.8050196766853333,0.0089638354256749,0.3379526436328888,-0.1627247035503387,2.937873601913452,4.12109375,2,G1,6.1,180,450.0,0.0690169517060348,[26100|0|0|0]
200,20000,0.7848413586616516,-0.80506432056427,0.0091518200933933,0.3394830226898193,-0.1607705205678939,2.908497333526612,4.12109375,2,G1,6.1,180,450.0,0.0692155824203654,[26200|0|0|0]
201,20100,0.7848582863807678,-0.8051982522010803,0.0084570655599236,0.3428269922733307,-0.1557747721672058,2.92301082611084,4.12109375,2,G1,6.1,180,450.0,0.0699233310288345,[26300|0|0|0]
202,20200,0.7850313782691956,-0.8048834800720215,0.0090335812419652,0.3348310589790344,-0.1629818677902221,2.924635410308838,4.12109375,2,G1,6.1,180,450.0,0.0706026046310829,[26400|0|0|0]
203,20300,0.7844319939613342,-0.8051460981369019,0.0087830824777483,0.3401490449905395,-0.1391789764165878,2.9160923957824707,4.12109375,2,G1,6.1,180,450.0,0.0713033038728308,[26500|0|0|0]
204,20400,0.7846547961235046,-0.8049444556236267,0.0088122757151722,0.3326581120491028,-0.1481223106384277,2.903896808624268,4.1171875,2,G1,6.1,180,450.0,0.0716052190127941,[26600|0|0|0]
205,20500,0.7845427989959717,-0.8051309585571289,0.0086044939234852,0.3319346606731415,-0.1501725763082504,2.911421060562134,4.12109375,2,G1,6.1,180,450.0,0.0719060511482737,[26700|0|0|0]
206,20600,0.7848571538925171,-0.8051511645317078,0.0087789110839366,0.3304334878921509,-0.1558025032281875,2.9108128547668457,4.12109375,2,G1,6.1,180,450.0,0.0722661186811764,[26800|0|0|0]
207,20700,0.7848501205444336,-0.804948091506958,0.009042790159583,0.3255622386932373,-0.1505838185548782,2.914157152175904,4.12109375,2,G1,6.1,180,450.0,0.0725991656567374,[26900|0|0|0]
208,20800,0.7847581505775452,-0.8049706816673279,0.0088943094015121,0.3264768421649933,-0.1477017402648925,2.906989812850952,4.1171875,2,G1,6.1,180,450.0,0.072775277341961,[27000|0|0|0]
209,20900,0.7848884463310242,-0.805126428604126,0.0088468668982386,0.3273152709007263,-0.1527858078479766,2.8940954208374023,4.12109375,2,G1,6.1,180,450.0,0.0729838076342772,[27100|0|0|0]
210,21000,0.7845893502235413,-0.8048616647720337,0.0087766200304031,0.3199092745780945,-0.1415228545665741,2.897696018218994,4.12109375,2,G1,6.1,180,450.0,0.0733893849890893,[27200|0|0|0]
211,21100,0.7847726941108704,-0.80502849817276,0.0086192321032285,0.3215678632259369,-0.1478795260190963,2.9295971393585205,4.12109375,2,G1,6.1,180,450.0,0.073683016261673,[27300|0|0|0]
212,21200,0.7848255634307861,-0.8052171468734741,0.0087310541421175,0.3232596516609192,-0.1517861783504486,2.93056058883667,4.12109375,2,G1,6.1,180,450.0,0.0739085992079495,[27400|0|0|0]
213,21300,0.7849586009979248,-0.8049153685569763,0.0088126454502344,0.316618949174881,-0.1555842906236648,2.9592039585113525,4.1171875,2,G1,6.1,180,450.0,0.0742483436532884,[27500|0|0|0]
214,21400,0.784589409828186,-0.8048297762870789,0.0085476581007242,0.3213468790054321,-0.1471665352582931,2.9537274837493896,4.12109375,2,G1,6.1,180,450.0,0.0747107790021532,[27600|0|0|0]
215,21500,0.784827709197998,-0.80502849817276,0.0087148342281579,0.32619708776474,-0.1568880677223205,2.963702917098999,4.12109375,2,G1,6.1,180,450.0,0.0750632344391736,[27700|0|0|0]
216,21600,0.784978985786438,-0.8047471642494202,0.0089545473456382,0.3167868554592132,-0.1617820858955383,2.9491336345672607,4.12109375,2,G1,6.1,180,450.0,0.0754626036434494,[27800|0|0|0]
217,21700,0.7846693992614746,-0.8049106001853943,0.0087064923718571,0.3233122825622558,-0.1537581086158752,2.9559364318847656,4.12109375,2,G1,6.1,180,450.0,0.0758916565441787,[27900|0|0|0]
218,21800,0.784713089466095,-0.8049684166908264,0.009077145718038,0.326945960521698,-0.1543134152889251,2.940953731536865,4.12109375,2,G1,6.1,180,450.0,0.0762693276779912,[28000|0|0|0]
219,21900,0.7845649719238281,-0.8050559759140015,0.0088034197688102,0.3369673192501068,-0.1557871997356414,2.948693990707397,4.1171875,2,G1,6.1,180,450.0,0.0765926407138726,[28100|0|0|0]
220,22000,0.7850179076194763,-0.8048237562179565,0.0089232427999377,0.3404546678066253,-0.1714461594820022,2.963968276977539,4.12109375,2,G1,6.1,180,450.0,0.0771155501614944,[28200|0|0|0]
221,22100,0.7846464514732361,-0.8051586747169495,0.0086946990340948,0.3545122742652893,-0.1622582525014877,2.967618227005005,4.12109375,2,G1,6.1,180,450.0,0.0776654431715,[28300|0|0|0]
222,22200,0.7844729423522949,-0.804940402507782,0.0087091261520981,0.3556728363037109,-0.1539954394102096,2.9636688232421875,4.1171875,2,G1,6.1,180,450.0,0.0779446497510759,[28400|0|0|0]
223,22300,0.7845898270606995,-0.8051779270172119,0.0088204080238938,0.3585293292999267,-0.15460766851902,2.9478418827056885,4.1171875,2,G1,6.1,180,450.0,0.0782318144818997,[28500|0|0|0]
224,22400,0.7848480939865112,-0.8052252531051636,0.0089426217600703,0.354695051908493,-0.1586469560861587,2.944708585739136,4.12109375,2,G1,6.1,180,450.0,0.0785214310575291,[28600|0|0|0]
225,22500,0.7847525477409363,-0.805067777633667,0.0091842049732804,0.3471362590789795,-0.1556086838245391,2.9415090084075928,4.1171875,2,G1,6.1,180,450.0,0.0788252238455795,[28700|0|0|0]
226,22600,0.7848857045173645,-0.8051242828369141,0.0088004833087325,0.348536729812622,-0.1590030938386917,2.943701982498169,4.12109375,2,G1,6.1,180,450.0,0.0792353041803265,[28800|0|0|0]
227,22700,0.784829318523407,-0.8052106499671936,0.0087398802861571,0.3491773307323456,-0.1568455994129181,2.924856424331665,4.12109375,2,G1,6.1,180,450.0,0.0793549343932853,[28900|0|0|0]
228,22800,0.7848530411720276,-0.8052189946174622,0.0087931668385863,0.3487581610679626,-0.1496638655662536,2.9318227767944336,4.1171875,2,G1,6.1,180,450.0,0.0794138568331149,[29000|0|0|0]
229,22900,0.785009503364563,-0.8053792715072632,0.0091389492154121,0.3572800159454345,-0.1473452299833297,2.88496732711792,4.12109375,2,G1,6.1,180,450.0,0.07982584536599,[29100|0|0|0]
230,23000,0.7848127484321594,-0.8050962090492249,0.0089726326987147,0.3487420082092285,-0.1471268832683563,2.9620566368103027,4.12109375,2,G1,6.1,180,450.0,0.0802085959927722,[29200|0|0|0]
231,23100,0.7848933935165405,-0.8054481148719788,0.0086853029206395,0.3605845272541046,-0.148935317993164,2.9545557498931885,4.1171875,2,G1,6.1,180,450.0,0.0806700065898456,[29300|0|0|0]
232,23200,0.7847338914871216,-0.8051960468292236,0.0091587472707033,0.3535753488540649,-0.1420224457979202,2.91251277923584,4.12109375,2,G1,6.1,180,450.0,0.0812295856710973,[29400|0|0|0]
233,23300,0.7848308086395264,-0.8051865696907043,0.0089526139199733,0.351959228515625,-0.1552530378103256,2.885575532913208,4.1171875,2,G1,6.1,180,450.0,0.0814575631017082,[29500|0|0|0]
234,23400,0.785027265548706,-0.8048588037490845,0.009101765230298,0.3414720892906189,-0.1680086255073547,2.9226841926574707,4.1171875,2,G1,6.1,180,450.0,0.0818677727347277,[29600|0|0|0]
235,23500,0.784980297088623,-0.8051692247390747,0.0091692991554737,0.3493125140666961,-0.166414126753807,2.8750147819519043,4.12109375,2,G1,6.1,180,450.0,0.0821889083109548,[29700|0|0|0]
236,23600,0.7846124172210693,-0.8049558997154236,0.0087454468011856,0.3390806317329407,-0.1619522720575332,2.8614983558654785,4.12109375,2,G1,6.1,180,450.0,0.0827893198205902,[29800|0|0|0]
237,23700,0.784631609916687,-0.8049666881561279,0.0088930120691657,0.3339757919311523,-0.1654275953769683,2.873025417327881,4.12109375,2,G1,6.1,180,450.0,0.0829385185415363,[29900|0|0|0]
238,23800,0.7844407558441162,-0.805055558681488,0.0086003830656409,0.3338893353939056,-0.160256803035736,2.8743746280670166,4.1171875,2,G1,6.1,180,450.0,0.0832990112335545,[30000|0|0|0]
239,23900,0.7847126126289368,-0.8049919009208679,0.0085474671795964,0.3304825127124786,-0.1689419001340866,2.897491216659546,4.12109375,2,G1,6.1,180,450.0,0.0835831916567649,[30100|0|0|0]
240,24000,0.7848290801048279,-0.8051227331161499,0.0087684700265526,0.3315483033657074,-0.1753176599740982,2.894092559814453,4.12109375,2,G1,6.1,180,450.0,0.0838651916472356,[30200|0|0|0]
241,24100,0.7846848964691162,-0.8052976727485657,0.0087912622839212,0.3356209099292755,-0.1673298180103302,2.8839995861053467,4.12109375,2,G1,6.1,180,450.0,0.0840930343183768,[30300|0|0|0]
242,24200,0.784715473651886,-0.8050563335418701,0.0088366577401757,0.3246965706348419,-0.1731207966804504,2.872897148132324,4.12109375,2,G1,6.1,180,450.0,0.0843405021430392,[30400|0|0|0]
243,24300,0.7847684621810913,-0.8050945997238159,0.0090188095346093,0.3285427391529083,-0.1763816177845001,2.8833303451538086,4.1171875,2,G1,6.1,180,450.0,0.0845340256845618,[30500|0|0|0]
244,24400,0.7848049998283386,-0.8050690293312073,0.0092677306383848,0.3314095139503479,-0.1800519376993179,2.88897967338562,4.12109375,2,G1,6.1,180,450.0,0.0847869101652033,[30600|0|0|0]
245,24500,0.7850596904754639,-0.8052157759666443,0.0086273895576596,0.3333459794521332,-0.1885608583688736,2.8711941242218018,4.12109375,2,G1,6.1,180,450.0,0.0854914941562288,[30700|0|0|0]
246,24601,0.7851336002349854,-0.8050017952919006,0.0089571429416537,0.3323843479156494,-0.1863094717264175,2.8583312034606934,4.12109375,2,G1,6.1,180,450.0,0.085891478750897,[30800|0|0|0]
247,24700,0.7848780751228333,-0.8050035238265991,0.0089793857187032,0.3328584134578705,-0.1762116104364395,2.841069221496582,4.12109375,2,G1,6.1,180,450.0,0.0861479759475745,[30900|0|0|0]
248,24801,0.784430742263794,-0.8049860000610352,0.0087581258267164,0.3316017389297485,-0.1625450551509857,2.834800958633423,4.12109375,2,G1,6.1,180,450.0,0.0866473452587439,[31000|0|0|0]
249,24901,0.7849385738372803,-0.8051443696022034,0.0090217385441064,0.3357339203357696,-0.1729449331760406,2.849091053009033,4.1171875,2,G1,6.1,180,450.0,0.0872410332941372,[31100|0|0|0]
250,25000,0.7848995327949524,-0.8050177097320557,0.0091690076515078,0.3349234163761139,-0.1687827855348587,2.874385118484497,4.12109375,2,G1,6.1,180,450.0,0.0874391623321066,[31200|0|0|0]
251,25101,0.784925103187561,-0.8051921725273132,0.0085781319066882,0.3428965210914612,-0.1756689846515655,2.896371603012085,4.12109375,2,G1,6.1,180,450.0,0.088055786413475,[31300|0|0|0]
252,25201,0.7847862243652344,-0.8051047325134277,0.0085946125909686,0.3398099839687347,-0.1708400547504425,2.910181760787964,4.1171875,2,G1,6.1,180,450.0,0.0882207248755555,[31400|0|0|0]
253,25301,0.7846918106079102,-0.8051437139511108,0.0085045704618096,0.3388624489307403,-0.1663467735052108,2.908998489379883,4.12109375,2,G1,6.1,180,450.0,0.0883568905653581,[31500|0|0|0]
254,25400,0.7847400903701782,-0.805201530456543,0.0089478818699717,0.3367639183998108,-0.1659169048070907,2.916765213012696,4.12109375,2,G1,6.1,180,450.0,0.0888065556500063,[31600|0|0|0]
255,25500,0.7846608757972717,-0.8049914240837097,0.008610182441771,0.3270206153392792,-0.1702069640159607,2.9119606018066406,4.1171875,2,G1,6.1,180,450.0,0.0892120929975749,[31700|0|0|0]
256,25600,0.7845748066902161,-0.8049375414848328,0.0087460558861494,0.326960802078247,-0.1623079925775528,2.9333178997039795,4.12109375,2,G1,6.1,180,450.0,0.0893817185220055,[31800|0|0|0]
257,25700,0.7849043011665344,-0.8051550984382629,0.0088456394150853,0.3300541043281555,-0.1690307408571243,2.9182424545288086,4.12109375,2,G1,6.1,180,450.0,0.0897889218092533,[31900|0|0|0]
258,25800,0.7846933603286743,-0.8049484491348267,0.0089632524177432,0.3281016051769256,-0.1666391640901565,2.9252312183380127,4.1171875,2,G1,6.1,180,450.0,0.0901067783650801,[32000|0|0|0]
259,25900,0.7847573161125183,-0.8051794767379761,0.0090385088697075,0.3345276713371277,-0.1720790863037109,2.913049697875977,4.12109375,2,G1,6.1,180,450.0,0.0903580304879891,[32100|0|0|0]
260,26000,0.7848052382469177,-0.805387556552887,0.0088716698810458,0.3419813513755798,-0.1735392957925796,2.9208152294158936,4.12109375,2,G1,6.1,180,450.0,0.0906290083256003,[32200|0|0|0]
261,26100,0.7848190665245056,-0.8051612973213196,0.0087497467175126,0.3385040462017059,-0.1735772490501403,2.913856029510498,4.12109375,2,G1,6.1,180,450.0,0.0908863985331383,[32300|0|0|0]
262,26200,0.7847696542739868,-0.8050881624221802,0.0088661173358559,0.3290495276451111,-0.16520456969738,2.910290002822876,4.12109375,2,G1,6.1,180,450.0,0.0910324547031109,[32400|0|0|0]
263,26300,0.7847747206687927,-0.8050953149795532,0.0089790504425764,0.3284732103347778,-0.1674683988094329,2.9184703826904297,4.12109375,2,G1,6.1,180,450.0,0.0911457274448754,[32500|0|0|0]
264,26400,0.7847655415534973,-0.8053399920463562,0.0090114204213023,0.3381305932998657,-0.1656975895166397,2.8880183696746826,4.12109375,2,G1,6.1,180,450.0,0.0913927070770308,[32600|0|0|0]
265,26500,0.7846376299858093,-0.8049476742744446,0.0085407355800271,0.3306662142276764,-0.1593471765518188,2.9158360958099365,4.12109375,2,G1,6.1,180,450.0,0.0920186614069242,[32700|0|0|0]
266,26600,0.7847511768341064,-0.805159866809845,0.0087417354807257,0.3399336040019989,-0.1562518179416656,2.924532413482666,4.12109375,2,G1,6.1,180,450.0,0.0923322208413521,[32800|0|0|0]
267,26700,0.7849215269088745,-0.8053536415100098,0.0089672692120075,0.3370780646800995,-0.1615691184997558,2.913433790206909,4.12109375,2,G1,6.1,180,450.0,0.0926749061873232,[32900|0|0|0]
268,26800,0.7848835587501526,-0.8052721619606018,0.008925562724471,0.3407440483570099,-0.1540751010179519,2.904961347579956,4.1171875,2,G1,6.1,180,450.0,0.0927740017429808,[33000|0|0|0]
269,26900,0.7848016619682312,-0.8050230145454407,0.0090814670547842,0.3369336724281311,-0.1506024301052093,2.8997037410736084,4.12109375,2,G1,6.1,180,450.0,0.0930791044758118,[33100|0|0|0]
270,27000,0.7846320271492004,-0.8051612973213196,0.0087411366403102,0.3400442898273468,-0.1389167010784149,2.8903329372406006,4.1171875,2,G1,6.1,180,450.0,0.0934837313273039,[33200|0|0|0]
271,27100,0.7847486138343811,-0.8050482869148254,0.0089000593870878,0.3326153755187988,-0.1463624089956283,2.888073205947876,4.12109375,2,G1,6.1,180,450.0,0.0937109322220661,[33300|0|0|0]
272,27200,0.7845933437347412,-0.8050994873046875,0.0086957029998302,0.3354473412036896,-0.1421156674623489,2.8886239528656006,4.1171875,2,G1,6.1,180,450.0,0.0939726416349216,[33400|0|0|0]
273,27300,0.7847168445587158,-0.8050286173820496,0.0086737666279077,0.3397543728351593,-0.1492422223091125,2.8924560546875,4.1171875,2,G1,6.1,180,450.0,0.0941167117701691,[33500|0|0|0]
274,27400,0.7844550609588623,-0.8049792647361755,0.0087296850979328,0.3339090645313263,-0.1406136751174926,2.896080493927002,4.12109375,2,G1,6.1,180,450.0,0.0943889124536675,[33600|0|0|0]
275,27500,0.7846379280090332,-0.805020809173584,0.0084970165044069,0.3391753435134887,-0.1475971490144729,2.9046192169189453,4.1171875,2,G1,6.1,180,450.0,0.094687745137173,[33700|0|0|0]
276,27600,0.7845733761787415,-0.8051328063011169,0.008843176998198,0.3382354974746704,-0.1443781107664108,2.8949625492095947,4.1171875,2,G1,6.1,180,450.0,0.0950572547890515,[33800|0|0|0]
277,27700,0.7850298881530762,-0.8048468828201294,0.0087337978184223,0.3315184116363525,-0.1568685919046402,2.9047627449035645,4.12109375,2,G1,6.1,180,450.0,0.0956069085206493,[33900|0|0|0]
278,27800,0.7846524119377136,-0.8050310015678406,0.0085389893501997,0.3368847370147705,-0.142129585146904,2.907872676849365,4.1171875,2,G1,6.1,180,450.0,0.0960698754154857,[34000|0|0|0]
279,27900,0.7847576141357422,-0.805257260799408,0.008876540698111,0.3445780277252197,-0.1486711353063583,2.9042136669158936,4.1171875,2,G1,6.1,180,450.0,0.0964896392238544,[34100|0|0|0]
280,28000,0.7847934365272522,-0.805077314376831,0.0088418563827872,0.3399776220321655,-0.1505487561225891,2.8920960426330566,4.12109375,2,G1,6.1,180,450.0,0.0966763661915404,[34200|0|0|0]
281,28100,0.7847504615783691,-0.8051716685295105,0.0086597818881273,0.3433367013931274,-0.1481019705533981,2.891777992248535,4.1171875,2,G1,6.1,180,450.0,0.0968858910682615,[34300|0|0|0]
282,28200,0.7845823764801025,-0.8049352169036865,0.0085693150758743,0.3395476043224334,-0.1430252343416214,2.8965044021606445,4.1171875,2,G1,6.1,180,450.0,0.0971897762698317,[34400|0|0|0]
283,28300,0.7848667502403259,-0.805257260799408,0.0090444171801209,0.3492972552776336,-0.1481810957193374,2.8850982189178467,4.1171875,2,G1,6.1,180,450.0,0.0978303250312344,[34500|0|0|0]
284,28400,0.784576952457428,-0.8050522208213806,0.0083936769515275,0.3467442095279693,-0.1374039947986602,2.8992667198181152,4.1171875,2,G1,6.1,180,450.0,0.0985715989297846,[34600|0|0|0]
285,28500,0.7846623659133911,-0.8050122857093811,0.0084918299689888,0.3463523089885711,-0.140732541680336,2.8793065547943115,4.1171875,2,G1,6.1,180,450.0,0.0987077028844176,[34700|0|0|0]
286,28600,0.7846264243125916,-0.8048967123031616,0.0084867114201188,0.3443249762058258,-0.1526549458503723,2.891361713409424,4.12109375,2,G1,6.1,180,450.0,0.0988288441673716,[34800|0|0|0]
287,28700,0.7848049402236938,-0.8050696849822998,0.008821090683341,0.3477425873279571,-0.154005616903305,2.8897855281829834,4.1171875,2,G1,6.1,180,450.0,0.0992454938642609,[34900|0|0|0]
288,28800,0.7846784591674805,-0.8050834536552429,0.0084129972383379,0.3483630120754242,-0.1608833521604538,2.897062063217163,4.1171875,2,G1,6.1,180,450.0,0.099672959996007,[35000|0|0|0]
289,28900,0.784895122051239,-0.8052330017089844,0.0090689146891236,0.3541157841682434,-0.1709202229976654,2.8878040313720703,4.1171875,2,G1,6.1,180,450.0,0.1003797379864832,[35100|0|0|0]
290,29000,0.7846156358718872,-0.8049571514129639,0.008575820364058,0.344653308391571,-0.1682060658931732,2.878540515899658,4.1171875,2,G1,6.1,180,450.0,0.1010100933812211,[35200|0|0|0]
291,29100,0.7845993041992188,-0.8048883676528931,0.0086686015129089,0.3447276353836059,-0.1734379231929779,2.8883533477783203,4.12109375,2,G1,6.1,180,450.0,0.1011267393016972,[35300|0|0|0]
292,29200,0.7847009301185608,-0.805062472820282,0.0084752663969993,0.3454572260379791,-0.1828538179397583,2.880124092102051,4.1171875,2,G1,6.1,180,450.0,0.1014060579438202,[35400|0|0|0]
293,29300,0.784907877445221,-0.8053460121154785,0.0089977281168103,0.3527300357818603,-0.1847751140594482,2.8938708305358887,4.1171875,2,G1,6.1,180,450.0,0.1020354925922153,[35500|0|0|0]
294,29400,0.7847370505332947,-0.8050737977027893,0.0087588867172598,0.3485681414604187,-0.1816682070493698,2.910577774047852,4.1171875,2,G1,6.1,180,450.0,0.1024359020507115,[35600|0|0|0]
295,29500,0.7846676707267761,-0.8051033616065979,0.0086169438436627,0.3479044437408447,-0.175251305103302,2.8945963382720947,4.1171875,2,G1,6.1,180,450.0,0.102596635872062,[35700|0|0|0]
296,29600,0.7847391963005066,-0.8053164482116699,0.0088288560509681,0.3513569831848144,-0.1751567274332046,2.911024332046509,4.12109375,2,G1,6.1,180,450.0,0.1029055510587454,[35800|0|0|0]
297,29700,0.784637451171875,-0.8050388097763062,0.0084452452138066,0.3392529189586639,-0.1738088876008987,2.9027395248413086,4.12109375,2,G1,6.1,180,450.0,0.1033898985026112,[35900|0|0|0]
298,29800,0.7847522497177124,-0.8052418828010559,0.0088983764871954,0.3433927297592163,-0.1796291619539261,2.9065513610839844,4.1171875,2,G1,6.1,180,450.0,0.1038995506491095,[36000|0|0|0]
299,29900,0.7848267555236816,-0.8050733804702759,0.0087071610614657,0.3330285251140594,-0.1791898012161255,2.888811588287353,4.12109375,2,G1,6.1,180,450.0,0.104165083113487,[36100|0|0|0]
300,30000,0.7847430109977722,-0.8050957918167114,0.008642915636301,0.3403801321983337,-0.1779552996158599,2.8814969062805176,4.12109375,2,E2,6.1,180,450.0,0.1042729853318305,[36100|0|0|0]
301,30100,0.7849539518356323,-0.8054412007331848,0.0091259246692061,0.2019740790128708,-0.1916937232017517,3.663082838058472,3.162109375,2,E2,6.1,180,450.0,0.1049031449009274,[36100|0|0|0]
302,30200,0.7847785949707031,-0.802357017993927,0.0227190963923931,-1.885665774345398,3.5746548175811768,4.042766571044922,3.62109375,2,E2,6.1,180,450.0,0.1188429171621684,[36100|0|0|0]
303,30300,0.7775188088417053,-0.7906562685966492,0.0686531513929367,-6.253960609436035,8.305939674377441,4.748798370361328,3.7109375,2,E2,6.1,180,450.0,0.1667965347513519,[36100|0|0|0]
304,30400,0.7579044699668884,-0.7676262855529785,0.1296706646680832,-0.7622540593147278,1.9945350885391235,3.358585357666016,3.705078125,2,E2,6.1,180,450.0,0.2349011552610544,[36100|0|0|0]
305,30500,0.734965443611145,-0.740332841873169,0.1985392421483993,1.4029347896575928,-1.1924595832824707,1.6748403310775757,3.716796875,2,E2,6.1,180,450.0,0.3124512162682176,[36100|0|0|0]
306,30600,0.7167911529541016,-0.7154370546340942,0.2744916677474975,4.065991401672363,-2.932312250137329,0.4035320878028869,3.720703125,2,E2,6.1,180,450.0,0.3944199665180934,[36100|0|0|0]
307,30700,0.7043620944023132,-0.6969609260559082,0.3543659150600433,5.1052751541137695,-3.781813144683838,-0.8698260188102722,3.720703125,2,E2,6.1,180,450.0,0.4773400738954189,[36100|0|0|0]
308,30800,0.6983048319816589,-0.6857184767723083,0.4365154206752777,4.838169574737549,-3.250908851623535,-1.5609194040298462,3.716796875,2,E2,6.1,180,450.0,0.5604762535451624,[36100|0|0|0]
309,30900,0.6978306174278259,-0.6818254590034485,0.5217645168304443,3.8965632915496826,-2.1869657039642334,-1.4404970407485962,3.720703125,2,E2,6.1,180,450.0,0.645815510994853,[36100|0|0|0]
310,31000,0.7007242441177368,-0.6830339431762695,0.608813464641571,2.9172921180725098,-0.7728007435798645,-0.938232719898224,3.716796875,2,E2,6.1,180,450.0,0.7329209231369282,[36100|0|0|0]
311,31100,0.7036749124526978,-0.6866903901100159,0.6897343993186951,1.829129934310913,0.3286245465278625,-0.399138331413269,3.716796875,2,E2,6.1,180,450.0,0.8139781480883267,[36100|0|0|0]
312,31200,0.7064356803894043,-0.6926824450492859,0.7811608910560608,0.8888558745384216,0.6589831113815308,-0.1195593327283859,3.720703125,2,E2,6.1,180,450.0,0.9056423720440128,[36100|0|0|0]
313,31300,0.7080800533294678,-0.6997256278991699,0.8817980885505676,0.6010607481002808,0.9739764928817748,0.1284407377243042,3.7578125,2,E2,6.1,180,450.0,1.0065391306964655,[36100|0|0|0]
314,31400,0.7072181105613708,-0.7050107717514038,0.9602148532867432,0.2240300923585891,0.6106031537055969,0.0755783692002296,3.78515625,2,E2,6.1,180,450.0,1.0851385243491076,[36100|0|0|0]
315,31500,0.705804705619812,-0.7112533450126648,1.038051962852478,-0.1230665445327758,0.1939238011837005,-0.181167796254158,3.7890625,2,E2,6.1,180,450.0,1.1632383518777216,[36100|0|0|0]
316,31600,0.7033960819244385,-0.7170361280441284,1.1015928983688354,-0.109985813498497,-0.0790018737316131,1.3008939027786257,3.78515625,2,E2,6.1,180,450.0,1.2270873341248083,[36100|0|0|0]
317,31700,0.7022480964660645,-0.7234078049659729,1.151679754257202,-0.4975153803825378,-0.3402630388736725,5.28614616394043,3.7734375,2,E2,6.1,180,450.0,1.277590891130142,[36100|0|0|0]
318,31800,0.7015801668167114,-0.7293152809143066,1.191996693611145,-0.4463028609752655,-0.0372322611510753,6.866634368896484,3.76953125,2,E2,6.1,180,450.0,1.318343805148236,[36100|0|0|0]
319,31900,0.7061044573783875,-0.735737681388855,1.2196966409683228,-0.0681080073118209,0.2698772549629211,6.976584911346436,3.7578125,2,E2,6.1,180,450.0,1.3471362263130555,[36100|0|0|0]
