,time.ms,stateEstimate.x,stateEstimate.y,stateEstimate.z,stabilizer.roll,stabilizer.pitch,stabilizer.yaw,pm.vbat,drone_id,node_name,wind_speed,global_wind_direction,relative_wind_direction,travel_dist,waiting_time
0,0,1.70049250125885,1.168053388595581,-0.0417160131037235,0.3797532618045807,0.705471396446228,3.4209868907928467,4.15234375,0,"['A1', 'F1', 'E2']",7.6,180,0.0,0.0728718355255991,[100|0|0]
1,100,1.700546383857727,1.1680949926376345,-0.0422561019659042,0.3732259571552276,0.7064862251281738,3.413903951644897,4.15234375,0,"['A1', 'F1', 'E2']",7.6,180,0.0,0.0734161977302281,[200|0|0]
2,200,1.700247287750244,1.1677876710891724,-0.0422986149787902,0.3938978314399719,0.7187276482582092,3.3611292839050293,4.15234375,0,"['A1', 'F1', 'E2']",7.6,180,0.0,0.0738471413134558,[300|0|0]
3,300,1.7002791166305542,1.1674561500549316,-0.0420400127768516,0.4071926772594452,0.7193283438682556,3.3655292987823486,4.15234375,0,"['A1', 'F1', 'E2']",7.6,180,0.0,0.0742687980134065,[400|0|0]
4,400,1.700690746307373,1.1678972244262695,-0.0417702235281467,0.4035389423370361,0.711879551410675,3.4079232215881348,4.15234375,0,"['A1', 'F1', 'E2']",7.6,180,0.0,0.0749296851676211,[500|0|0]
5,500,1.700620174407959,1.1679843664169312,-0.041960708796978,0.4057173132896423,0.7186135053634644,3.4203591346740723,4.15234375,0,"['A1', 'F1', 'E2']",7.6,180,0.0,0.0751507253385518,[600|0|0]
6,600,1.7003238201141355,1.1676167249679563,-0.0420524962246418,0.4210033416748047,0.7316855192184448,3.4352569580078125,4.15234375,0,"['A1', 'F1', 'E2']",7.6,180,0.0,0.0756317773464977,[700|0|0]
7,700,1.7005151510238647,1.1681616306304932,-0.0416610278189182,0.3637694120407104,0.6853913068771362,3.446818828582764,4.15234375,0,"['A1', 'F1', 'E2']",7.6,180,0.0,0.0763294715565654,[800|0|0]
8,800,1.7004629373550415,1.1681714057922363,-0.0419618785381317,0.3716707527637481,0.6885899901390076,3.4442594051361084,4.15234375,0,"['A1', 'F1', 'E2']",7.6,180,0.0,0.076634976018481,[900|0|0]
9,900,1.7002838850021362,1.1680912971496582,-0.0421776138246059,0.3780461847782135,0.6929063200950623,3.488481044769287,4.15234375,0,"['A1', 'F1', 'E2']",7.6,180,0.0,0.0769265559449621,[1000|0|0]
10,1000,1.7003124952316284,1.1680024862289429,-0.04230597615242,0.3805611431598663,0.6936267018318176,3.487578868865967,4.15234375,0,"['A1', 'F1', 'E2']",7.6,180,0.0,0.0770852468775064,[1100|0|0]
11,1100,1.700263738632202,1.1678853034973145,-0.0419105850160121,0.3989591002464294,0.6958609819412231,3.503622531890869,4.15234375,0,"['A1', 'F1', 'E2']",7.6,180,0.0,0.0775005096248476,[1200|0|0]
12,1200,1.700093150138855,1.1677045822143557,-0.0424581691622734,0.4035193622112274,0.7042296528816223,3.48816442489624,4.15234375,0,"['A1', 'F1', 'E2']",7.6,180,0.0,0.0781018489744776,[1300|0|0]
13,1300,1.7000380754470823,1.1676479578018188,-0.0419046692550182,0.4068280160427093,0.7065455913543701,3.4632437229156494,4.15234375,0,"['A1', 'F1', 'E2']",7.6,180,0.0,0.0786609569185282,[1400|0|0]
14,1400,1.7012932300567627,1.1688255071640017,-0.0413287170231342,-1.4404051303863523,-3.41545844078064,3.0956289768218994,4.15234375,0,"['A1', 'F1', 'E2']",7.6,180,0.0,0.0804758278693096,[1500|0|0]
15,1500,1.707868576049805,1.1697393655776978,-0.0423875339329242,-0.0989185646176338,0.0303941834717988,3.887577772140503,4.15234375,0,"['A1', 'F1', 'E2']",7.6,180,0.0,0.0871982831779713,[1600|0|0]
16,1600,1.7050899267196655,1.1695419549942017,-0.0421134606003761,0.8724019527435303,2.947759866714477,3.7522244453430176,4.15234375,0,"['A1', 'F1', 'E2']",7.6,180,0.0,0.0899973864683079,[1700|0|0]
17,1700,1.7011761665344238,1.1686769723892212,-0.041859783232212,1.4764504432678225,4.225663185119629,3.4501240253448486,4.15234375,0,"['A1', 'F1', 'E2']",7.6,180,0.0,0.0940136117983436,[1800|0|0]
18,1800,1.6993972063064575,1.1681230068206787,-0.0414376743137836,1.6073722839355469,4.202667236328125,3.2099931240081787,4.15234375,0,"['A1', 'F1', 'E2']",7.6,180,0.0,0.0959240445458732,[1900|0|0]
19,1900,1.6983606815338137,1.16741144657135,-0.0418744944036006,1.5613770484924316,3.830463409423828,3.062262535095215,4.15234375,0,"['A1', 'F1', 'E2']",7.6,180,0.0,0.0972550266582989,[2000|0|0]
20,2000,1.6978747844696045,1.1674890518188477,-0.0413705557584762,1.4274564981460571,3.3953170776367188,3.01575779914856,4.15234375,0,"['A1', 'F1', 'E2']",7.6,180,0.0,0.0979593509369489,[2100|0|0]
21,2100,1.6978168487548828,1.167627215385437,-0.0412822775542736,1.2813292741775513,2.981513977050781,2.977072238922119,4.15234375,0,"['A1', 'F1', 'E2']",7.6,180,0.0,0.0981332438911197,[2200|0|0]
22,2200,1.69802987575531,1.167645812034607,-0.0417840108275413,1.1293137073516846,2.584523916244507,2.9762909412384038,4.15234375,0,"['A1', 'F1', 'E2']",7.6,180,0.0,0.0986786452257123,[2300|0|0]
23,2300,1.6987736225128174,1.1677043437957764,-0.0418959744274616,1.025424599647522,2.275524616241455,2.9642508029937744,4.15234375,0,"['A1', 'F1', 'E2']",7.6,180,0.0,0.099433046348508,[2400|0|0]
24,2400,1.6992721557617188,1.1673052310943604,-0.0419761799275875,0.9543796181678772,2.007047653198242,3.0005288124084477,4.15234375,0,"['A1', 'F1', 'E2']",7.6,180,0.0,0.1000766761108265,[2500|0|0]
25,2500,1.6994301080703735,1.1675888299942017,-0.0419102981686592,0.8641528487205505,1.7869998216629028,3.019463300704956,4.15234375,0,"['A1', 'F1', 'E2']",7.6,180,0.0,0.1004079126938907,[2600|0|0]
26,2600,1.6992796659469604,1.1676133871078491,-0.0422610640525817,0.7811051607131958,1.6053378582000732,3.035494804382324,4.15234375,0,"['A1', 'F1', 'E2']",7.6,180,0.0,0.1007903686909044,[2700|0|0]
27,2700,1.6994229555130005,1.1673879623413086,-0.0421436131000518,0.7212316989898682,1.442149043083191,3.099829196929932,4.15234375,0,"['A1', 'F1', 'E2']",7.6,180,0.0,0.10108216134221,[2800|0|0]
28,2800,1.699582576751709,1.1678346395492554,-0.0422182567417621,0.6516565084457397,1.3076785802841189,3.1607346534729004,4.15234375,0,"['A1', 'F1', 'E2']",7.6,180,0.0,0.101562339581194,[2900|0|0]
29,2900,1.6990814208984375,1.1676418781280518,-0.042030431330204,0.5604342818260193,1.1770358085632324,3.2225160598754883,4.15234375,0,"['A1', 'F1', 'E2']",7.6,180,0.0,0.1021311915302982,[3000|0|0]
30,3000,1.6994789838790894,1.167638063430786,-0.0418284311890602,0.5255687832832336,1.0750950574874878,3.287692070007324,4.15234375,0,"['A1', 'F1', 'E2']",7.6,180,0.0,0.1025771454881483,[3100|0|0]
31,3100,1.6996246576309204,1.1680928468704224,-0.0417404323816299,0.4861879348754883,0.9949108958244324,3.287290573120117,4.15234375,0,"['A1', 'F1', 'E2']",7.6,180,0.0,0.1030627302995345,[3200|0|0]
32,3200,1.6998379230499268,1.1679893732070925,-0.0417431369423866,0.4671753048896789,0.9292870163917542,3.3229315280914307,4.15234375,0,"['A1', 'F1', 'E2']",7.6,180,0.0,0.1032997877874901,[3300|0|0]
33,3300,1.6997259855270386,1.1680535078048706,-0.0419330112636089,0.4426290094852447,0.8810946345329285,3.369906187057495,4.15234375,0,"['A1', 'F1', 'E2']",7.6,180,0.0,0.1035293428212449,[3400|0|0]
34,3400,1.700129747390747,1.1679402589797974,-0.0416555814445018,0.4233930110931396,0.8308587670326233,3.358365535736084,4.15234375,0,"['A1', 'F1', 'E2']",7.6,180,0.0,0.1040321511778735,[3500|0|0]
35,3500,1.700229287147522,1.1676437854766846,-0.0420106276869773,0.4154604971408844,0.7999730706214905,3.3368983268737797,4.15234375,0,"['A1', 'F1', 'E2']",7.6,180,0.0,0.1045052923148747,[3600|0|0]
36,3600,1.7001893520355225,1.167771816253662,-0.0425153039395809,0.3943322896957397,0.7819381952285767,3.32078218460083,4.15234375,0,"['A1', 'F1', 'E2']",7.6,180,0.0,0.1050274846290328,[3700|0|0]
37,3700,1.7003169059753418,1.167676329612732,-0.0419170185923576,0.3922015428543091,0.757246732711792,3.344136953353882,4.15234375,0,"['A1', 'F1', 'E2']",7.6,180,0.0,0.1056466235979741,[3800|0|0]
38,3800,1.7006546258926392,1.1677802801132202,-0.041739571839571,0.3801041841506958,0.7320277094841003,3.329583168029785,4.15234375,0,"['A1', 'F1', 'E2']",7.6,180,0.0,0.1060420319933903,[3900|0|0]
39,3900,1.7001049518585205,1.168229103088379,-0.0419479794800281,0.3638465702533722,0.7351675629615784,3.373777389526367,4.15234375,0,"['A1', 'F1', 'E2']",7.6,180,0.0,0.1067816382071389,[4000|0|0]
40,4000,1.7001649141311646,1.1678069829940796,-0.0418159291148185,0.3724441230297088,0.7170972228050232,3.372551679611206,4.15234375,0,"['A1', 'F1', 'E2']",7.6,180,0.0,0.1072279768085435,[4100|0|0]
41,4100,1.7000384330749512,1.1678619384765625,-0.0422893092036247,0.3776098787784576,0.7110555171966553,3.417157888412476,4.15234375,0,"['A1', 'F1', 'E2']",7.6,180,0.0,0.1077210348894163,[4200|0|0]
42,4200,1.7000316381454468,1.168088436126709,-0.0421900376677513,0.3702349364757538,0.7034170031547546,3.448591947555542,4.15234375,0,"['A1', 'F1', 'E2']",7.6,180,0.0,0.1079684256621292,[4300|0|0]
43,4300,1.7001043558120728,1.1682125329971311,-0.041998341679573,0.3706914484500885,0.6969190239906311,3.4388620853424072,4.15234375,0,"['A1', 'F1', 'E2']",7.6,180,0.0,0.1082080821750217,[4400|0|0]
44,4400,1.7002880573272705,1.167982578277588,-0.0416110381484031,0.3694861233234405,0.6855621933937073,3.4562618732452397,4.15234375,0,"['A1', 'F1', 'E2']",7.6,180,0.0,0.1086945279016788,[4500|0|0]
45,4500,1.700657844543457,1.167742133140564,-0.0424774251878261,0.3798348307609558,0.6859077215194702,3.411688327789306,4.15234375,0,"['A1', 'F1', 'E2']",7.6,180,0.0,0.109666733101857,[4600|0|0]
46,4600,1.7006475925445557,1.16761577129364,-0.0422741621732711,0.3901193141937256,0.6993820667266846,3.421816110610962,4.15234375,0,"['A1', 'F1', 'E2']",7.6,180,0.0,0.1099062915976893,[4700|0|0]
47,4700,1.700670838356018,1.1681064367294312,-0.0423296876251697,0.3829798102378845,0.7001811861991882,3.409743070602417,4.15234375,0,"['A1', 'F1', 'E2']",7.6,180,0.0,0.1104006356210567,[4800|0|0]
48,4800,1.7003560066223145,1.1676284074783323,-0.0421777926385402,0.3900033235549927,0.7157416343688965,3.453064441680908,4.15234375,0,"['A1', 'F1', 'E2']",7.6,180,0.0,0.1109928375059034,[4900|0|0]
49,4900,1.7007511854171753,1.1677439212799072,-0.0421079955995082,0.3868600130081177,0.7042389512062073,3.4616081714630127,4.15234375,0,"['A1', 'F1', 'E2']",7.6,180,0.0,0.1114104274302545,[5000|0|0]
50,5000,1.7002111673355105,1.1674860715866089,-0.0424121581017971,0.3928751647472381,0.7265416383743286,3.481712818145752,4.15234375,0,"['A1', 'F1', 'E2']",7.6,180,0.0,0.1120817103964154,[5100|0|0]
51,5100,1.7004544734954834,1.1676326990127563,-0.0420990884304046,0.3840990960597992,0.7217199802398682,3.4580085277557373,4.15234375,0,"['A1', 'F1', 'E2']",7.6,180,0.0,0.1125044515805048,[5200|0|0]
52,5200,1.7006404399871826,1.1679446697235107,-0.0418946705758571,0.3819485008716583,0.7230139374732971,3.436082363128662,4.15234375,0,"['A1', 'F1', 'E2']",7.6,180,0.0,0.1129212200050061,[5300|0|0]
53,5300,1.700592279434204,1.1678484678268433,-0.0419500507414341,0.3845939338207245,0.7321768999099731,3.422161817550659,4.15234375,0,"['A1', 'F1', 'E2']",7.6,180,0.0,0.113042220858412,[5400|0|0]
54,5400,1.7003381252288818,1.1677212715148926,-0.0419671647250652,0.3441207408905029,0.7015945911407471,3.4504451751708984,4.15234375,0,"['A1', 'F1', 'E2']",7.6,180,0.0,0.1133269420383276,[5500|0|0]
55,5500,1.7003719806671145,1.1680305004119873,-0.0422181189060211,0.3431798219680786,0.7056748270988464,3.477574348449707,4.15234375,0,"['A1', 'F1', 'E2']",7.6,180,0.0,0.113726625290961,[5600|0|0]
56,5600,1.700512409210205,1.1681718826293943,-0.0422473810613155,0.3450705707073211,0.7038663625717163,3.4337449073791504,4.15234375,0,"['A1', 'F1', 'E2']",7.6,180,0.0,0.1139280337834484,[5700|0|0]
57,5700,1.6999133825302124,1.1680909395217896,-0.0422842055559158,0.3487635850906372,0.7232234477996826,3.4509122371673584,4.15234375,0,"['A1', 'F1', 'E2']",7.6,180,0.0,0.1145336250593222,[5800|0|0]
58,5800,1.7002224922180176,1.16820228099823,-0.0422269068658351,0.3546805083751678,0.7069432735443115,3.483600616455078,4.15234375,0,"['A1', 'F1', 'E2']",7.6,180,0.0,0.1148671349742511,[5900|0|0]
59,5900,1.7004846334457395,1.1681056022644043,-0.0417578369379043,0.3555258512496948,0.7021762728691101,3.502592086791992,4.15234375,0,"['A1', 'F1', 'E2']",7.6,180,0.0,0.1154131124446057,[6000|0|0]
60,6000,1.7004107236862185,1.167926549911499,-0.0421672649681568,0.3564221858978271,0.7108931541442871,3.5042543411254883,4.15234375,0,"['A1', 'F1', 'E2']",7.6,180,0.0,0.1158660514135517,[6100|0|0]
61,6100,1.7006897926330566,1.1678094863891602,-0.0420239232480526,0.3529526591300964,0.7028664350509644,3.4944918155670166,4.15234375,0,"['A1', 'F1', 'E2']",7.6,180,0.0,0.1162009098822729,[6200|0|0]
62,6200,1.7005572319030762,1.1679075956344604,-0.0422834157943725,0.3442678451538086,0.7056294679641724,3.473914861679077,4.15234375,0,"['A1', 'F1', 'E2']",7.6,180,0.0,0.1165083739496726,[6300|0|0]
63,6300,1.7002967596054075,1.167380928993225,-0.0420522950589656,0.362514853477478,0.7136812806129456,3.480984926223755,4.15234375,0,"['A1', 'F1', 'E2']",7.6,180,0.0,0.1171397536794532,[6400|0|0]
64,6400,1.700416088104248,1.1675796508789062,-0.0421763025224208,0.3511249721050262,0.7152912616729736,3.504666566848755,4.15234375,0,"['A1', 'F1', 'E2']",7.6,180,0.0,0.1174026367893647,[6500|0|0]
65,6500,1.700290322303772,1.1678038835525513,-0.0419937334954738,0.3446587026119232,0.7106897830963135,3.5029971599578857,4.15234375,0,"['A1', 'F1', 'E2']",7.6,180,0.0,0.1177179600807654,[6600|0|0]
66,6600,1.700334072113037,1.167506217956543,-0.0422168560326099,0.3592722117900848,0.7049599885940552,3.483814477920532,4.15234375,0,"['A1', 'F1', 'E2']",7.6,180,0.0,0.1180925298598931,[6700|0|0]
67,6700,1.7005788087844849,1.167780518531799,-0.0421210750937461,0.3554243147373199,0.6983422636985779,3.461479425430298,4.15234375,0,"['A1', 'F1', 'E2']",7.6,180,0.0,0.1184724125157053,[6800|0|0]
68,6800,1.7004098892211914,1.1677391529083252,-0.0420581251382827,0.3671335279941559,0.7095291018486023,3.484583139419556,4.15234375,0,"['A1', 'F1', 'E2']",7.6,180,0.0,0.1186573655653192,[6900|0|0]
69,6900,1.7005923986434937,1.1675881147384644,-0.0419495068490505,0.3781661689281463,0.7113230228424072,3.492750406265259,4.15234375,0,"['A1', 'F1', 'E2']",7.6,180,0.0,0.1189179805125877,[7000|0|0]
70,7000,1.7003281116485596,1.1673771142959597,-0.0421782881021499,0.3927851021289825,0.7173388600349426,3.473780632019043,4.15234375,0,"['A1', 'F1', 'E2']",7.6,180,0.0,0.1193262814606619,[7100|0|0]
71,7100,1.699997067451477,1.1675885915756226,-0.0421587042510509,0.3877269923686981,0.7240279912948608,3.471165657043457,4.15234375,0,"['A1', 'F1', 'E2']",7.6,180,0.0,0.1197195961278936,[7200|0|0]
72,7200,1.7003202438354492,1.167413592338562,-0.0422673374414444,0.400019884109497,0.7110936045646667,3.4692156314849854,4.15234375,0,"['A1', 'F1', 'E2']",7.6,180,0.0,0.1201028308838646,[7300|0|0]
73,7300,1.7004462480545044,1.1678147315979004,-0.0418941229581832,0.3910973668098449,0.7118494510650635,3.458878755569458,4.15234375,0,"['A1', 'F1', 'E2']",7.6,180,0.0,0.1206650397588551,[7400|0|0]
74,7400,1.700212836265564,1.1676130294799805,-0.0423301607370376,0.3870427310466766,0.7214134931564331,3.477045774459839,4.15234375,0,"['A1', 'F1', 'E2']",7.6,180,0.0,0.121199168724722,[7500|0|0]
75,7500,1.7002100944519043,1.1673160791397097,-0.0421176962554454,0.3959217965602875,0.7239466905593872,3.503617763519287,4.15234375,0,"['A1', 'F1', 'E2']",7.6,180,0.0,0.1215643100371853,[7600|0|0]
76,7600,1.7005714178085327,1.1676331758499146,-0.0423114486038684,0.3887432217597961,0.7140556573867798,3.483635187149048,4.15234375,0,"['A1', 'F1', 'E2']",7.6,180,0.0,0.1220826196591175,[7700|0|0]
77,7700,1.7005454301834106,1.1676875352859497,-0.0419776029884815,0.3845251202583313,0.706041693687439,3.475456714630127,4.15234375,0,"['A1', 'F1', 'E2']",7.6,180,0.0,0.1224218588075934,[7800|0|0]
78,7800,1.7005327939987185,1.1676234006881714,-0.042006678879261,0.3871943056583404,0.7012922763824463,3.462603807449341,4.15234375,0,"['A1', 'F1', 'E2']",7.6,180,0.0,0.1224934012930156,[7900|0|0]
79,7900,1.7004783153533936,1.167351484298706,-0.0421497672796249,0.3968856334686279,0.7031633853912354,3.4430816173553467,4.15234375,0,"['A1', 'F1', 'E2']",7.6,180,0.0,0.1228054601592172,[8000|0|0]
80,8000,1.70033597946167,1.1679010391235352,-0.0424661487340927,0.3856501877307892,0.7070022821426392,3.473552942276001,4.15234375,0,"['A1', 'F1', 'E2']",7.6,180,0.0,0.1234553580252676,[8100|0|0]
81,8100,1.700560450553894,1.1681874990463257,-0.0421307459473609,0.3848699033260345,0.698883056640625,3.473707675933838,4.15234375,0,"['A1', 'F1', 'E2']",7.6,180,0.0,0.1239502737635067,[8200|0|0]
82,8200,1.7004973888397217,1.1680208444595337,-0.0424970611929893,0.4041687250137329,0.7022187113761902,3.530385732650757,4.15234375,0,"['A1', 'F1', 'E2']",7.6,180,0.0,0.1243576278972441,[8300|0|0]
83,8300,1.7002995014190674,1.1675316095352173,-0.0421415939927101,0.4150526225566864,0.7112160325050354,3.518453359603882,4.15234375,0,"['A1', 'F1', 'E2']",7.6,180,0.0,0.1249939196329271,[8400|0|0]
84,8400,1.700620174407959,1.1680179834365845,-0.0420519486069679,0.4051332175731659,0.7095678448677063,3.4869978427886963,4.15234375,0,"['A1', 'F1', 'E2']",7.6,180,0.0,0.1255833490459366,[8500|0|0]
85,8500,1.700350642204285,1.1675845384597778,-0.0425360202789306,0.4139373004436493,0.7124641537666321,3.478657960891724,4.15234375,0,"['A1', 'F1', 'E2']",7.6,180,0.0,0.1262868030531987,[8600|0|0]
86,8600,1.70038104057312,1.1676429510116575,-0.0426008105278015,0.4154427647590637,0.7157865166664124,3.4319040775299072,4.15234375,0,"['A1', 'F1', 'E2']",7.6,180,0.0,0.1263791819652605,[8700|0|0]
87,8700,1.7006080150604248,1.1676993370056152,-0.0419878661632537,0.4175441563129425,0.7099016308784485,3.4335594177246094,4.15234375,0,"['A1', 'F1', 'E2']",7.6,180,0.0,0.1270352289088801,[8800|0|0]
88,8800,1.70051908493042,1.1679871082305908,-0.0420535393059253,0.3592374920845032,0.6812162399291992,3.4168777465820312,4.15234375,0,"['A1', 'F1', 'E2']",7.6,180,0.0,0.1273435044473437,[8900|0|0]
89,8900,1.700624942779541,1.167918086051941,-0.0424147322773933,0.374418556690216,0.6865274906158447,3.4040846824646,4.15234375,0,"['A1', 'F1', 'E2']",7.6,180,0.0,0.1277261665803069,[9000|0|0]
90,9000,1.7005586624145508,1.167842149734497,-0.0420724265277385,0.3822414875030517,0.6907390356063843,3.413513660430908,4.15234375,0,"['A1', 'F1', 'E2']",7.6,180,0.0,0.1280830035701733,[9100|0|0]
91,9100,1.7004014253616333,1.1678467988967896,-0.0423142127692699,0.388834685087204,0.6995915770530701,3.427255392074585,4.15234375,0,"['A1', 'F1', 'E2']",7.6,180,0.0,0.1283714575389691,[9200|0|0]
92,9200,1.700495719909668,1.1675629615783691,-0.0418540872633457,0.4061088860034942,0.694019615650177,3.421380043029785,4.15234375,0,"['A1', 'F1', 'E2']",7.6,180,0.0,0.1289202476321005,[9300|0|0]
93,9300,1.7002098560333252,1.1675115823745728,-0.0420923344790935,0.4151231944561004,0.70601487159729,3.432488203048706,4.15234375,0,"['A1', 'F1', 'E2']",7.6,180,0.0,0.129295906671912,[9400|0|0]
94,9400,1.7007817029953003,1.1678190231323242,-0.0421252250671386,0.403142362833023,0.6983656883239746,3.447359323501587,4.15234375,0,"['A1', 'F1', 'E2']",7.6,180,0.0,0.1299459917111406,[9500|0|0]
95,9500,1.70057213306427,1.1676105260849,-0.042149219661951,0.4080253541469574,0.7076481580734253,3.463258743286133,4.15234375,0,"['A1', 'F1', 'E2']",7.6,180,0.0,0.1302425828697359,[9600|0|0]
96,9600,1.7002602815628052,1.1679474115371704,-0.0424951463937759,0.3991495668888092,0.7144737839698792,3.4940781593322754,4.15234375,0,"['A1', 'F1', 'E2']",7.6,180,0.0,0.1308173945525577,[9700|0|0]
97,9700,1.698286771774292,1.165271520614624,-0.0450094193220138,0.4773487746715545,0.7784268260002136,3.4513580799102783,4.15234375,0,"['A1', 'F1', 'E2']",7.6,180,0.0,0.1349859316427601,[9800|0|0]
98,9800,1.698527693748474,1.1652014255523682,-0.0450542457401752,0.4393297731876373,0.7484467029571533,3.411485195159912,4.15234375,0,"['A1', 'F1', 'E2']",7.6,180,0.0,0.1352408161718349,[9900|0|0]
99,9900,1.6982148885726929,1.1652973890304563,-0.0449286960065364,0.4391396343708038,0.760240912437439,3.4157464504241943,4.15234375,0,"['A1', 'F1', 'E2']",7.6,180,0.0,0.1355912713083918,[10000|0|0]
100,10000,1.7006303071975708,1.1678516864776611,-0.0421045422554016,0.3949402868747711,0.7027444839477539,3.458904981613159,4.15234375,0,"['A1', 'F1', 'E2']",7.6,180,0.0,0.1401006534159817,[10100|0|0]
101,10100,1.6982444524765017,1.165274143218994,-0.0449356250464916,0.4461992383003235,0.7596131563186646,3.4325408935546875,4.15234375,0,"['A1', 'F1', 'E2']",7.6,180,0.0,0.144611868526166,[10200|0|0]
102,10200,1.698306918144226,1.165239930152893,-0.0449605546891689,0.4468653798103332,0.7608287930488586,3.455533266067505,4.15234375,0,"['A1', 'F1', 'E2']",7.6,180,0.0,0.144687326995673,[10300|0|0]
103,10300,1.698540449142456,1.1652203798294067,-0.0448790863156318,0.4440811276435852,0.754298985004425,3.461697578430176,4.15234375,0,"['A1', 'F1', 'E2']",7.6,180,0.0,0.1449354318891545,[10400|0|0]
104,10400,1.6980879306793213,1.16511070728302,-0.0449393652379512,0.4279196858406067,0.7450017333030701,3.4206337928771973,4.15234375,0,"['A1', 'F1', 'E2']",7.6,180,0.0,0.1454049364955055,[10500|0|0]
105,10500,1.6982057094573977,1.1654876470565796,-0.0448435992002487,0.4266684949398041,0.7499358654022217,3.4072306156158447,4.15234375,0,"['A1', 'F1', 'E2']",7.6,180,0.0,0.1458112941796133,[10600|0|0]
106,10600,1.6981436014175415,1.1652781963348389,-0.04506541416049,0.4385235607624054,0.7554299831390381,3.404928207397461,4.15234375,0,"['A1', 'F1', 'E2']",7.6,180,0.0,0.1461226282285693,[10700|0|0]
107,10700,1.69826078414917,1.1651620864868164,-0.0450803637504577,0.4403011798858642,0.754006564617157,3.387982130050659,4.15234375,0,"['A1', 'F1', 'E2']",7.6,180,0.0,0.14628826874185,[10800|0|0]
108,10801,1.6980938911437988,1.1655317544937134,-0.0449744835495948,0.4343618750572204,0.7627840638160706,3.3668503761291504,4.15234375,0,"['A1', 'F1', 'E2']",7.6,180,0.0,0.1467074564414545,[10900|0|0]
109,10900,1.6982039213180542,1.1652097702026367,-0.0447572730481624,0.443408727645874,0.754865825176239,3.372917413711548,4.15234375,0,"['A1', 'F1', 'E2']",7.6,180,0.0,0.1471111406309881,[11000|0|0]
110,11000,1.698085069656372,1.1652240753173828,-0.0448571518063545,0.4421228170394897,0.757108211517334,3.400291204452514,4.15234375,0,"['A1', 'F1', 'E2']",7.6,180,0.0,0.1472670448327611,[11100|0|0]
111,11100,1.698215126991272,1.1649959087371826,-0.0451722368597984,0.4554094970226288,0.7506606578826904,3.4206347465515137,4.15234375,0,"['A1', 'F1', 'E2']",7.6,180,0.0,0.1476772319724733,[11200|0|0]
112,11201,1.698078155517578,1.1650718450546265,-0.0447449907660484,0.4566754996776581,0.7557719349861145,3.444948434829712,4.15234375,0,"['A1', 'F1', 'E2']",7.6,180,0.0,0.1481322778311924,[11300|0|0]
113,11300,1.698032259941101,1.1654250621795654,-0.0450752340257167,0.455503910779953,0.768811821937561,3.4638781547546387,4.15234375,0,"['A1', 'F1', 'E2']",7.6,180,0.0,0.1486180034243484,[11400|0|0]
114,11401,1.6981406211853027,1.1654260158538818,-0.0450087785720825,0.4624471068382263,0.7747126817703247,3.441595554351806,4.15234375,0,"['A1', 'F1', 'E2']",7.6,180,0.0,0.1487451230375376,[11500|0|0]
115,11501,1.6981232166290283,1.1654713153839111,-0.0453160814940929,0.4650610387325287,0.7904500365257263,3.4284772872924805,4.15234375,0,"['A1', 'F1', 'E2']",7.6,180,0.0,0.1490562340336083,[11600|0|0]
116,11601,1.6981909275054932,1.1657077074050903,-0.0451146513223648,0.4662585258483886,0.7812655568122864,3.395665168762207,4.15234375,0,"['A1', 'F1', 'E2']",7.6,180,0.0,0.1493741020322355,[11700|0|0]
117,11701,1.6980963945388794,1.165409803390503,-0.0450794287025928,0.4738732278347015,0.787443220615387,3.4088919162750244,4.15234375,0,"['A1', 'F1', 'E2']",7.6,180,0.0,0.149688623759033,[11800|0|0]
118,11801,1.6983757019042969,1.1651984453201294,-0.0454450771212577,0.4733144640922546,0.7911196351051331,3.393138647079468,4.15234375,0,"['A1', 'F1', 'E2']",7.6,180,0.0,0.1501949671251006,[11900|0|0]
119,11901,1.6986109018325806,1.1653075218200684,-0.0446139648556709,0.4396886229515075,0.7512140870094299,3.400055170059204,4.15234375,0,"['A1', 'F1', 'E2']",7.6,180,0.0,0.1510655785694961,[12000|0|0]
120,12001,1.698510766029358,1.165059208869934,-0.0447280779480934,0.4428130388259887,0.7584912776947021,3.4084713459014893,4.15234375,0,"['A1', 'F1', 'E2']",7.6,180,0.0,0.1513566254697608,[12100|0|0]
121,12102,1.6982921361923218,1.1650688648223877,-0.0452216006815433,0.44500732421875,0.7657648324966431,3.431551694869995,4.15234375,0,"['A1', 'F1', 'E2']",7.6,180,0.0,0.1518964929826675,[12200|0|0]
122,12201,1.697965383529663,1.1653292179107666,-0.0449196472764015,0.4179750680923462,0.7517520189285278,3.4542860984802246,4.15234375,0,"['A1', 'F1', 'E2']",7.6,180,0.0,0.1524119800262096,[12300|0|0]
123,12302,1.6983193159103394,1.1651650667190552,-0.044526107609272,0.4304171800613403,0.751046359539032,3.464744329452514,4.15234375,0,"['A1', 'F1', 'E2']",7.6,180,0.0,0.1529661345294267,[12400|0|0]
124,12402,1.698530673980713,1.1652544736862185,-0.045084398239851,0.4330962896347046,0.7483204007148743,3.438382863998413,4.15234375,0,"['A1', 'F1', 'E2']",7.6,180,0.0,0.1535697521798327,[12500|0|0]
125,12502,1.698207974433899,1.1652711629867554,-0.0447742566466331,0.4362228214740753,0.7624671459197998,3.430854082107544,4.15234375,0,"['A1', 'F1', 'E2']",7.6,180,0.0,0.1540176375871749,[12600|0|0]
126,12600,1.6980149745941162,1.1652621030807495,-0.0450045466423034,0.4512230157852173,0.7839176058769226,3.4341976642608643,4.15234375,0,"['A1', 'F1', 'E2']",7.6,180,0.0,0.1543182444769143,[12700|0|0]
127,12702,1.6982940435409546,1.1652355194091797,-0.0449056439101696,0.4642358720302582,0.7761486172676086,3.4273886680603027,4.15234375,0,"['A1', 'F1', 'E2']",7.6,180,0.0,0.1546155118971056,[12800|0|0]
128,12802,1.6983346939086914,1.16525137424469,-0.0450851470232009,0.4674119651317596,0.7796013355255127,3.405508279800415,4.15234375,0,"['A1', 'F1', 'E2']",7.6,180,0.0,0.1548002419590721,[12900|0|0]
129,12900,1.698627471923828,1.16523540019989,-0.045055191963911,0.4299565553665161,0.7443983554840088,3.389310598373413,4.15234375,0,"['A1', 'F1', 'E2']",7.6,180,0.0,0.1550949815760762,[13000|0|0]
130,13000,1.698317050933838,1.1651047468185425,-0.0447692051529884,0.4433859288692474,0.7677035331726074,3.4091339111328125,4.15234375,0,"['A1', 'F1', 'E2']",7.6,180,0.0,0.1555368185970531,[13100|0|0]
131,13102,1.698271870613098,1.1650962829589844,-0.0447396859526634,0.4495277404785156,0.7651540637016296,3.387170553207397,4.15234375,0,"['A1', 'F1', 'E2']",7.6,180,0.0,0.1555914471746348,[13200|0|0]
132,13202,1.6985750198364258,1.1652730703353882,-0.0447807796299457,0.4544709324836731,0.7670077085494995,3.435187339782715,4.15234375,0,"['A1', 'F1', 'E2']",7.6,180,0.0,0.1559447769333199,[13300|0|0]
133,13300,1.6983728408813477,1.165185809135437,-0.0446579493582248,0.4601004719734192,0.7780982851982117,3.428988218307495,4.15234375,0,"['A1', 'F1', 'E2']",7.6,180,0.0,0.1561969239589704,[13400|0|0]
134,13400,1.6982027292251587,1.1651142835617063,-0.044894304126501,0.4697734415531158,0.7821033000946045,3.433945417404175,4.15234375,0,"['A1', 'F1', 'E2']",7.6,180,0.0,0.156496786360341,[13500|0|0]
135,13500,1.6985050439834597,1.1649529933929443,-0.0448222309350967,0.4708439707756042,0.772676408290863,3.42759108543396,4.15234375,0,"['A1', 'F1', 'E2']",7.6,180,0.0,0.1568469338671792,[13600|0|0]
136,13600,1.6983685493469238,1.1656084060668943,-0.0451157391071319,0.4559495151042938,0.7777026295661926,3.4169740676879883,4.15234375,0,"['A1', 'F1', 'E2']",7.6,180,0.0,0.1575779219697014,[13700|0|0]
137,13700,1.6984703540802002,1.1652894020080566,-0.0449204221367836,0.4674406051635742,0.768879234790802,3.4234230518341064,4.15234375,0,"['A1', 'F1', 'E2']",7.6,180,0.0,0.1579655771156476,[13800|0|0]
138,13800,1.6980581283569336,1.1653250455856323,-0.0449968613684177,0.4631261229515075,0.7755367755889893,3.440490961074829,4.15234375,0,"['A1', 'F1', 'E2']",7.6,180,0.0,0.1583863424512896,[13900|0|0]
139,13900,1.6982848644256592,1.1648962497711182,-0.0449679233133792,0.4702248871326446,0.7762313485145569,3.4101030826568604,4.15234375,0,"['A1', 'F1', 'E2']",7.6,180,0.0,0.1588722565449681,[14000|0|0]
140,14000,1.6983948945999146,1.165158748626709,-0.0448458045721054,0.4443905651569366,0.7498498558998108,3.4208333492279053,4.15234375,0,"['A1', 'F1', 'E2']",7.6,180,0.0,0.1591819746028909,[14100|0|0]
141,14100,1.6980899572372437,1.1649972200393677,-0.0450686104595661,0.4505799114704132,0.7648302912712097,3.41518783569336,4.15234375,0,"['A1', 'F1', 'E2']",7.6,180,0.0,0.1595927309091947,[14200|0|0]
142,14200,1.6980844736099243,1.1648980379104614,-0.0448415540158748,0.4539489150047302,0.7620723247528076,3.4599528312683105,4.15234375,0,"['A1', 'F1', 'E2']",7.6,180,0.0,0.1598405651148336,[14300|0|0]
143,14300,1.6982855796813965,1.1650842428207395,-0.0447718203067779,0.4500535130500793,0.7651854157447815,3.45477032661438,4.15234375,0,"['A1', 'F1', 'E2']",7.6,180,0.0,0.160123370190423,[14400|0|0]
144,14400,1.698137283325195,1.1653239727020264,-0.0447465665638446,0.4457810521125793,0.7639642953872681,3.4761884212493896,4.15234375,0,"['A1', 'F1', 'E2']",7.6,180,0.0,0.1604063895833564,[14500|0|0]
145,14500,1.6983383893966677,1.1655336618423462,-0.0447641015052795,0.4452615678310394,0.7534500360488892,3.491222858428955,4.15234375,0,"['A1', 'F1', 'E2']",7.6,180,0.0,0.1606974577226677,[14600|0|0]
146,14600,1.6981104612350464,1.1652731895446775,-0.0447921678423881,0.4546049833297729,0.7572059631347656,3.487393617630005,4.15234375,0,"['A1', 'F1', 'E2']",7.6,180,0.0,0.1610447109213446,[14700|0|0]
147,14700,1.6984195709228516,1.165078043937683,-0.045359581708908,0.4660504758358001,0.7626825571060181,3.4737660884857178,4.15234375,0,"['A1', 'F1', 'E2']",7.6,180,0.0,0.1617196843304086,[14800|0|0]
148,14800,1.6985639333724976,1.165242075920105,-0.0449941381812095,0.4630126357078552,0.7652397155761719,3.44492769241333,4.15234375,0,"['A1', 'F1', 'E2']",7.6,180,0.0,0.1621454729869763,[14900|0|0]
149,14900,1.6982765197753906,1.1648457050323486,-0.0450060814619064,0.4684064090251922,0.7749554514884949,3.417768716812134,4.15234375,0,"['A1', 'F1', 'E2']",7.6,180,0.0,0.1626352271073434,[15000|0|0]
150,15000,1.6986055374145508,1.1651718616485596,-0.0451084412634372,0.4259921908378601,0.7398786544799805,3.415825605392456,4.15234375,0,"['A1', 'F1', 'E2']",7.6,180,0.0,0.1631096828736126,[15100|0|0]
151,15100,1.6984256505966189,1.1653114557266235,-0.0449175648391246,0.4296014010906219,0.7530232071876526,3.4135231971740723,4.15234375,0,"['A1', 'F1', 'E2']",7.6,180,0.0,0.1634068016768793,[15200|0|0]
152,15200,1.69845449924469,1.165134072303772,-0.044685062021017,0.4396107494831085,0.7587782144546509,3.4438230991363525,4.15234375,0,"['A1', 'F1', 'E2']",7.6,180,0.0,0.1637006633511855,[15300|0|0]
153,15300,1.6982334852218628,1.1650729179382324,-0.0449898429214954,0.4523020982742309,0.7681650519371033,3.4284017086029053,4.15234375,0,"['A1', 'F1', 'E2']",7.6,180,0.0,0.164082079727351,[15400|0|0]
154,15400,1.6984052658081057,1.1652196645736694,-0.0446737669408321,0.4482617080211639,0.7655834555625916,3.461622953414917,4.15234375,0,"['A1', 'F1', 'E2']",7.6,180,0.0,0.1644705989294173,[15500|0|0]
155,15500,1.6985148191452026,1.165543556213379,-0.04492874071002,0.4446938931941986,0.7638950943946838,3.4159529209136963,4.15234375,0,"['A1', 'F1', 'E2']",7.6,180,0.0,0.1648971189769141,[15600|0|0]
156,15600,1.6982746124267578,1.165408492088318,-0.0449645407497882,0.4215344786643982,0.7456102967262268,3.4007327556610107,4.15234375,0,"['A1', 'F1', 'E2']",7.6,180,0.0,0.1651750096538213,[15700|0|0]
157,15700,1.6983481645584106,1.1650216579437256,-0.0451159924268722,0.4340835511684418,0.7548109292984009,3.4271318912506104,4.15234375,0,"['A1', 'F1', 'E2']",7.6,180,0.0,0.1655968961100921,[15800|0|0]
158,15800,1.6983935832977295,1.1650980710983276,-0.0448804385960102,0.4328108727931976,0.7511745095252991,3.448517322540283,4.15234375,0,"['A1', 'F1', 'E2']",7.6,180,0.0,0.1658486647326631,[15900|0|0]
159,15900,1.6983482837677002,1.1651561260223389,-0.0449027381837368,0.4232944250106811,0.7625595927238464,3.4686052799224854,4.15234375,0,"['A1', 'F1', 'E2']",7.6,180,0.0,0.1659256042753938,[16000|0|0]
160,16000,1.698635816574097,1.1652697324752808,-0.0446264185011386,0.4261179268360138,0.754564106464386,3.4497711658477783,4.15234375,0,"['A1', 'F1', 'E2']",7.6,180,0.0,0.1663402536548644,[16100|0|0]
161,16100,1.698452115058899,1.1652381420135498,-0.0448478199541568,0.4317784607410431,0.7656577229499817,3.487947940826416,4.15234375,0,"['A1', 'F1', 'E2']",7.6,180,0.0,0.1666296717043308,[16200|0|0]
162,16200,1.6987615823745728,1.16488778591156,-0.045199166983366,0.450637936592102,0.7601831555366516,3.4810361862182617,4.15234375,0,"['A1', 'F1', 'E2']",7.6,180,0.0,0.1672144487153408,[16300|0|0]
163,16300,1.6983996629714966,1.164900541305542,-0.0451254397630691,0.4607222080230713,0.7839277982711792,3.481801986694336,4.15234375,0,"['A1', 'F1', 'E2']",7.6,180,0.0,0.1675840215192799,[16400|0|0]
164,16400,1.6984765529632568,1.165177345275879,-0.0449901968240737,0.4550802707672119,0.7826853394508362,3.475311756134033,4.15234375,0,"['A1', 'F1', 'E2']",7.6,180,0.0,0.16790154815025,[16500|0|0]
165,16500,1.698092699050903,1.1650794744491575,-0.0449447892606258,0.4632640182971954,0.7912768125534058,3.452410697937012,4.15234375,0,"['A1', 'F1', 'E2']",7.6,180,0.0,0.1683002765936429,[16600|0|0]
166,16600,1.6984580755233765,1.165107011795044,-0.0446124263107776,0.4350878894329071,0.7554438710212708,3.4606688022613525,4.15234375,0,"['A1', 'F1', 'E2']",7.6,180,0.0,0.1687949718558874,[16700|0|0]
167,16700,1.6985772848129272,1.1653783321380615,-0.0447780005633831,0.434186577796936,0.7609126567840576,3.469712972640991,4.15234375,0,"['A1', 'F1', 'E2']",7.6,180,0.0,0.1691344426445809,[16800|0|0]
168,16800,1.6986427307128906,1.1650292873382568,-0.0449020080268383,0.4562837183475494,0.7726811170578003,3.471505880355835,4.15234375,0,"['A1', 'F1', 'E2']",7.6,180,0.0,0.1695105985817736,[16900|0|0]
169,16900,1.6983722448349,1.1653945446014404,-0.0450018718838691,0.4559759795665741,0.7723883986473083,3.448824644088745,4.15234375,0,"['A1', 'F1', 'E2']",7.6,180,0.0,0.1699759460524252,[17000|0|0]
170,17000,1.6983054876327517,1.164819598197937,-0.0451057814061641,0.4726855158805847,0.7782396674156189,3.44416880607605,4.15234375,0,"['A1', 'F1', 'E2']",7.6,180,0.0,0.1705640081917981,[17100|0|0]
171,17100,1.6984035968780518,1.164713978767395,-0.0450651571154594,0.4720397293567657,0.7790839672088623,3.453650712966919,4.15234375,0,"['A1', 'F1', 'E2']",7.6,180,0.0,0.1707137787533804,[17200|0|0]
172,17200,1.698453068733215,1.1653950214385986,-0.0447603240609169,0.4507825374603271,0.77607262134552,3.4442591667175293,4.15234375,0,"['A1', 'F1', 'E2']",7.6,180,0.0,0.1714615686808301,[17300|0|0]
173,17300,1.6981582641601562,1.165305495262146,-0.0449893064796924,0.4526565074920654,0.7862667441368103,3.3944790363311768,4.15234375,0,"['A1', 'F1', 'E2']",7.6,180,0.0,0.1718454405613776,[17400|0|0]
174,17400,1.698339581489563,1.1654787063598633,-0.0449496507644653,0.4538192451000213,0.7792601585388184,3.427978277206421,4.15234375,0,"['A1', 'F1', 'E2']",7.6,180,0.0,0.1720993118556701,[17500|0|0]
175,17500,1.6981509923934937,1.165194749832153,-0.0447035282850265,0.434711217880249,0.7580815553665161,3.397887706756592,4.15234375,0,"['A1', 'F1', 'E2']",7.6,180,0.0,0.1725197561821516,[17600|0|0]
176,17600,1.6984314918518066,1.1649948358535769,-0.0450333841145038,0.4387792944908142,0.7615483403205872,3.4066498279571533,4.15234375,0,"['A1', 'F1', 'E2']",7.6,180,0.0,0.1729966737989204,[17700|0|0]
177,17700,1.698389768600464,1.1652908325195312,-0.0449623689055442,0.4380235373973846,0.7662805914878845,3.418831586837769,4.15234375,0,"['A1', 'F1', 'E2']",7.6,180,0.0,0.1733039163999092,[17800|0|0]
178,17800,1.6984758377075195,1.165185809135437,-0.0447449497878551,0.4449719488620758,0.764302670955658,3.434962034225464,4.15234375,0,"['A1', 'F1', 'E2']",7.6,180,0.0,0.1735602538242793,[17900|0|0]
179,17900,1.7005515098571775,1.1684032678604126,-0.0412159003317356,0.4031664729118347,0.6981304883956909,3.4406418800354004,4.15234375,0,"['A1', 'F1', 'E2']",7.6,180,0.0,0.1787674263376042,[18000|0|0]
180,18000,1.69989812374115,1.1698118448257446,-0.0382729023694992,0.4438859522342682,0.6866377592086792,3.558692216873169,4.15234375,0,"['A1', 'F1', 'E2']",7.6,180,0.0,0.1820949238191373,[18100|0|0]
181,18100,1.701201319694519,1.1660796403884888,-0.0424196645617485,0.5839020013809204,0.6721579432487488,3.454055070877075,4.15234375,0,"['A1', 'F1', 'E2']",7.6,180,0.0,0.1878240866142949,[18200|0|0]
182,18200,1.6986395120620728,1.1642060279846191,-0.0458863489329814,0.6238508224487305,0.7450432777404785,3.4331917762756348,4.15234375,0,"['A1', 'F1', 'E2']",7.6,180,0.0,0.1925242123908402,[18300|0|0]
183,18300,1.6985267400741575,1.1646854877471924,-0.0452640950679779,0.52753084897995,0.7510696053504944,3.431093454360962,4.15234375,0,"['A1', 'F1', 'E2']",7.6,180,0.0,0.1933178111923117,[18400|0|0]
184,18400,1.6985002756118774,1.1648560762405396,-0.0451596640050411,0.5042687058448792,0.782033383846283,3.4647159576416016,4.15234375,0,"['A1', 'F1', 'E2']",7.6,180,0.0,0.1935195700799285,[18500|0|0]
185,18500,1.6987676620483398,1.164906620979309,-0.0451742075383663,0.4878512024879455,0.8024318814277649,3.4696478843688965,4.15234375,0,"['A1', 'F1', 'E2']",7.6,180,0.0,0.1937920802474139,[18600|0|0]
186,18600,1.6985987424850464,1.1647181510925293,-0.044973749667406,0.4745502173900604,0.8224016427993774,3.4437806606292725,4.15234375,0,"['A1', 'F1', 'E2']",7.6,180,0.0,0.1941149394661392,[18700|0|0]
187,18700,1.698361039161682,1.164771556854248,-0.0451870262622833,0.4594785869121551,0.8327975273132324,3.421130418777466,4.15234375,0,"['A1', 'F1', 'E2']",7.6,180,0.0,0.1944387325346963,[18800|0|0]
188,18800,1.6984001398086548,1.1652536392211914,-0.0446546003222465,0.4092919528484344,0.7956633567810059,3.410628318786621,4.15234375,0,"['A1', 'F1', 'E2']",7.6,180,0.0,0.1951580444633722,[18900|0|0]
189,18900,1.698352336883545,1.1652297973632812,-0.0448801703751087,0.4136903882026672,0.800354540348053,3.402499198913574,4.15234375,0,"['A1', 'F1', 'E2']",7.6,180,0.0,0.195389853442029,[19000|0|0]
190,19000,1.698486566543579,1.165425181388855,-0.0451707988977432,0.4149164259433746,0.7896477580070496,3.4064080715179443,4.15234375,0,"['A1', 'F1', 'E2']",7.6,180,0.0,0.1957648967158668,[19100|0|0]
191,19100,1.6984328031539917,1.1654314994812012,-0.0451300591230392,0.4240866899490356,0.7848612666130066,3.417970657348633,4.15234375,0,"['A1', 'F1', 'E2']",7.6,180,0.0,0.1958326473586221,[19200|0|0]
192,19200,1.6984275579452517,1.16527259349823,-0.0448399893939495,0.4345062375068664,0.7808454632759094,3.420850992202759,4.15234375,0,"['A1', 'F1', 'E2']",7.6,180,0.0,0.1961634328954477,[19300|0|0]
193,19300,1.6988400220870972,1.1648236513137815,-0.0449741818010807,0.4501655697822571,0.7762128710746765,3.396167755126953,4.15234375,0,"['A1', 'F1', 'E2']",7.6,180,0.0,0.1967876791252459,[19400|0|0]
194,19400,1.6985207796096802,1.1650248765945437,-0.0445588007569313,0.4078927338123321,0.7488381266593933,3.4235455989837646,4.15234375,0,"['A1', 'F1', 'E2']",7.6,180,0.0,0.1973488821053196,[19500|0|0]
195,19500,1.698161244392395,1.1653074026107788,-0.0449714884161949,0.4115492701530456,0.7587020397186279,3.409791946411133,4.15234375,0,"['A1', 'F1', 'E2']",7.6,180,0.0,0.19796483472235,[19600|0|0]
196,19600,1.698445439338684,1.165097713470459,-0.0449759736657142,0.4269266128540039,0.7520532011985779,3.4347474575042725,4.15234375,0,"['A1', 'F1', 'E2']",7.6,180,0.0,0.1983180434715728,[19700|0|0]
197,19700,1.6983493566513062,1.165190577507019,-0.0449471175670623,0.4303775131702423,0.753433883190155,3.415109157562256,4.15234375,0,"['A1', 'F1', 'E2']",7.6,180,0.0,0.1984547485794854,[19800|0|0]
198,19800,1.6982587575912476,1.1651722192764282,-0.0448657162487506,0.4360626637935638,0.755125105381012,3.418953657150269,4.15234375,0,"['A1', 'F1', 'E2']",7.6,180,0.0,0.1985779207717076,[19900|0|0]
199,19900,1.6983602046966553,1.164981245994568,-0.0449716858565807,0.4366593956947326,0.7541943788528442,3.414780855178833,4.15234375,0,"['A1', 'F1', 'E2']",7.6,180,0.0,0.1988187357782246,[20000|0|0]
200,20000,1.6985582113265991,1.165430188179016,-0.0448862873017787,0.436737447977066,0.7564141154289246,3.3962619304656982,4.15234375,0,"['A1', 'F1', 'E2']",7.6,180,0.0,0.1993167805790619,[20100|0|0]
201,20100,1.6984446048736572,1.1651983261108398,-0.0446680076420307,0.415951520204544,0.7406761646270752,3.439349412918091,4.15234375,0,"['A1', 'F1', 'E2']",7.6,180,0.0,0.1996548818282,[20200|0|0]
202,20200,1.6988016366958618,1.1650689840316772,-0.0449045971035957,0.4320137500762939,0.75119549036026,3.4540703296661377,4.15234375,0,"['A1', 'F1', 'E2']",7.6,180,0.0,0.2001022917843169,[20300|0|0]
203,20300,1.6982730627059937,1.1652605533599854,-0.0450203418731689,0.4053881168365478,0.7540925145149231,3.462599039077759,4.15234375,0,"['A1', 'F1', 'E2']",7.6,180,0.0,0.2006763006013198,[20400|0|0]
204,20400,1.6985520124435425,1.1650432348251345,-0.0446363948285579,0.4257552325725555,0.7470272183418274,3.456446647644043,4.15234375,0,"['A1', 'F1', 'E2']",7.6,180,0.0,0.2011982734308176,[20500|0|0]
205,20500,1.6984670162200928,1.165429711341858,-0.0449537560343742,0.4273901581764221,0.7536541223526001,3.4424774646759038,4.15234375,0,"['A1', 'F1', 'E2']",7.6,180,0.0,0.2017055274016613,[20600|0|0]
206,20600,1.6985905170440674,1.1650906801223757,-0.0450748316943645,0.4382382333278656,0.764942467212677,3.4173083305358887,4.15234375,0,"['A1', 'F1', 'E2']",7.6,180,0.0,0.2020861242181853,[20700|0|0]
207,20700,1.6985011100769043,1.1648372411727903,-0.0447633564472198,0.4449360370635986,0.7718900442123413,3.396190404891968,4.15234375,0,"['A1', 'F1', 'E2']",7.6,180,0.0,0.202497514223567,[20800|0|0]
208,20800,1.698502779006958,1.1653621196746826,-0.0447411462664604,0.4495652616024017,0.7818646430969238,3.397071123123169,4.15234375,0,"['A1', 'F1', 'E2']",7.6,180,0.0,0.2030228650770024,[20900|0|0]
209,20900,1.6985386610031128,1.1652188301086426,-0.0446614511311054,0.454302966594696,0.7908684015274048,3.3714263439178467,4.15234375,0,"['A1', 'F1', 'E2']",7.6,180,0.0,0.2031907064663652,[21000|0|0]
210,21000,1.6982078552246094,1.1652976274490356,-0.0451286323368549,0.4604604244232178,0.8019638061523438,3.404393434524536,4.15234375,0,"['A1', 'F1', 'E2']",7.6,180,0.0,0.2037685470697758,[21100|0|0]
211,21100,1.6983505487442017,1.165413737297058,-0.0450113750994205,0.4607579112052917,0.7898096442222595,3.4049172401428223,4.15234375,0,"['A1', 'F1', 'E2']",7.6,180,0.0,0.2039867034290051,[21200|0|0]
212,21200,1.6983808279037476,1.1652801036834717,-0.0452541373670101,0.468645840883255,0.7859592437744141,3.388633728027344,4.15234375,0,"['A1', 'F1', 'E2']",7.6,180,0.0,0.2042654654937632,[21300|0|0]
213,21300,1.6984713077545166,1.1652859449386597,-0.0453317761421203,0.4728686511516571,0.7862561345100403,3.3914544582366943,4.15234375,0,"['A1', 'F1', 'E2']",7.6,180,0.0,0.2043848325874615,[21400|0|0]
214,21400,1.6981539726257324,1.1652209758758545,-0.0449824966490268,0.4744921922683716,0.7987264394760132,3.397688627243042,4.15234375,0,"['A1', 'F1', 'E2']",7.6,180,0.0,0.2048611924591739,[21500|0|0]
215,21500,1.6983596086502075,1.16524076461792,-0.0450752191245555,0.4772127568721771,0.7883340120315552,3.381012439727783,4.15234375,0,"['A1', 'F1', 'E2']",7.6,180,0.0,0.2050876327964432,[21600|0|0]
216,21600,1.6982080936431885,1.1651794910430908,-0.0452191941440105,0.4819367229938507,0.7892338037490845,3.3951640129089355,4.15234375,0,"['A1', 'F1', 'E2']",7.6,180,0.0,0.2053054401759127,[21700|0|0]
217,21700,1.7011051177978516,1.1685607433319092,-0.0413810424506664,0.406616061925888,0.6699700951576233,3.391686201095581,4.15234375,0,"['A1', 'F1', 'E2']",7.6,180,0.0,0.2111839624744552,[21800|0|0]
218,21800,1.7008908987045288,1.1702425479888916,-0.0381900481879711,0.4372066855430603,0.6431276798248291,3.536620616912842,4.15234375,0,"['A1', 'F1', 'E2']",7.6,180,0.0,0.2147973820610444,[21900|0|0]
219,21900,1.6994305849075315,1.1702197790145874,-0.0382781215012073,0.4816147685050964,0.6918795704841614,3.618273258209229,4.15234375,0,"['A1', 'F1', 'E2']",7.6,180,0.0,0.2162605265243135,[22000|0|0]
220,22000,1.701884388923645,1.167793035507202,-0.0411484912037849,0.6007310152053833,0.6592497229576111,3.673125743865967,4.15234375,0,"['A1', 'F1', 'E2']",7.6,180,0.0,0.2207493192829075,[22100|0|0]
221,22100,1.7028285264968872,1.168791651725769,-0.0414813123643398,0.5190061330795288,0.6271765828132629,3.684873580932617,4.15234375,0,"['A1', 'F1', 'E2']",7.6,180,0.0,0.2221633207093939,[22200|0|0]
222,22200,1.6988950967788696,1.1645392179489136,-0.0450748726725578,0.534669816493988,0.7659924626350403,3.6288576126098633,4.15234375,0,"['A1', 'F1', 'E2']",7.6,180,0.0,0.2289801189359754,[22300|0|0]
223,22300,1.6983914375305176,1.1648057699203491,-0.0452392622828483,0.4888409376144409,0.8067641258239746,3.558592796325684,4.15234375,0,"['A1', 'F1', 'E2']",7.6,180,0.0,0.2295732011696481,[22400|0|0]
224,22400,1.69853675365448,1.1648809909820557,-0.0450211390852928,0.4467740654945373,0.8237826228141785,3.5209109783172607,4.15234375,0,"['A1', 'F1', 'E2']",7.6,180,0.0,0.2298458781091197,[22500|0|0]
225,22500,1.698591232299805,1.164810061454773,-0.044584970921278,0.4257748425006866,0.8346652984619141,3.507282257080078,4.15234375,0,"['A1', 'F1', 'E2']",7.6,180,0.0,0.2302911213998462,[22600|0|0]
226,22600,1.6984901428222656,1.165185809135437,-0.0451520085334777,0.4149505496025085,0.8395788669586182,3.4603488445281982,4.15234375,0,"['A1', 'F1', 'E2']",7.6,180,0.0,0.2309788255918087,[22700|0|0]
227,22700,1.6985797882080078,1.1652233600616455,-0.0451289974153041,0.4128339886665344,0.8440714478492737,3.4029617309570312,4.15234375,0,"['A1', 'F1', 'E2']",7.6,180,0.0,0.2310787049130098,[22800|0|0]
228,22800,1.6985026597976685,1.165015697479248,-0.0450127050280571,0.4212716817855835,0.8522294163703918,3.408621072769165,4.15234375,0,"['A1', 'F1', 'E2']",7.6,180,0.0,0.2313288977569144,[22900|0|0]
229,22900,1.6984567642211914,1.1649622917175293,-0.0449603758752346,0.4230333864688873,0.8576776385307312,3.385500431060791,4.15234375,0,"['A1', 'F1', 'E2']",7.6,180,0.0,0.2314166298465968,[23000|0|0]
230,23000,1.6985278129577637,1.1652973890304563,-0.0451335199177265,0.4168223738670349,0.850049614906311,3.386165142059326,4.15234375,0,"['A1', 'F1', 'E2']",7.6,180,0.0,0.2318004488033329,[23100|0|0]
231,23100,1.6983314752578735,1.1650595664978027,-0.0448541007936,0.4320436716079712,0.8440229296684265,3.4031519889831543,4.15234375,0,"['A1', 'F1', 'E2']",7.6,180,0.0,0.232216601535348,[23200|0|0]
232,23200,1.6984961032867432,1.165324330329895,-0.0452484264969825,0.4316398203372955,0.8340404629707336,3.391948699951172,4.15234375,0,"['A1', 'F1', 'E2']",7.6,180,0.0,0.2327192893460435,[23300|0|0]
233,23300,1.6984301805496216,1.1652159690856934,-0.0450257733464241,0.4437691569328308,0.8279858231544495,3.411533832550049,4.15234375,0,"['A1', 'F1', 'E2']",7.6,180,0.0,0.2329755360864484,[23400|0|0]
234,23400,1.698380708694458,1.1651623249053955,-0.0448855012655258,0.447609931230545,0.8109304308891296,3.4155867099761963,4.15234375,0,"['A1', 'F1', 'E2']",7.6,180,0.0,0.2331336544573377,[23500|0|0]
235,23500,1.698765516281128,1.1651955842971802,-0.0449022129178047,0.4487412273883819,0.7991534471511841,3.418162107467652,4.15234375,0,"['A1', 'F1', 'E2']",7.6,180,0.0,0.2335202580595228,[23600|0|0]
236,23600,1.69877028465271,1.1650938987731934,-0.0449769012629985,0.4522749781608581,0.7924381494522095,3.4237077236175537,4.15234375,0,"['A1', 'F1', 'E2']",7.6,180,0.0,0.2336465158595346,[23700|0|0]
237,23700,1.6986008882522583,1.165152907371521,-0.0449198298156261,0.4533935487270355,0.7938666939735413,3.4329020977020264,4.15234375,0,"['A1', 'F1', 'E2']",7.6,180,0.0,0.2338347558799015,[23800|0|0]
238,23800,1.698383927345276,1.1650811433792114,-0.0451565720140934,0.4549929797649383,0.7924615740776062,3.430673599243164,4.15234375,0,"['A1', 'F1', 'E2']",7.6,180,0.0,0.2341637983912674,[23900|0|0]
239,23900,1.6988004446029663,1.164958953857422,-0.0448393747210502,0.460259199142456,0.773382842540741,3.462378978729248,4.15234375,0,"['A1', 'F1', 'E2']",7.6,180,0.0,0.2347014144512052,[24000|0|0]
240,24000,1.6987594366073608,1.165055274963379,-0.0447967648506164,0.4567167460918426,0.7752597332000732,3.4819047451019287,4.1484375,0,"['A1', 'F1', 'E2']",7.6,180,0.0,0.2348144410507946,[24100|0|0]
241,24100,1.698638081550598,1.165175437927246,-0.0448249392211437,0.4151776731014251,0.7572006583213806,3.461219310760498,4.1484375,0,"['A1', 'F1', 'E2']",7.6,180,0.0,0.2349875305734175,[24200|0|0]
242,24200,1.698691725730896,1.165168285369873,-0.0447685085237026,0.425846129655838,0.7570945024490356,3.4442758560180664,4.15234375,0,"['A1', 'F1', 'E2']",7.6,180,0.0,0.2350657180453711,[24300|0|0]
243,24300,1.6986641883850098,1.1652376651763916,-0.0447071082890033,0.4313808679580688,0.759413480758667,3.385303497314453,4.15234375,0,"['A1', 'F1', 'E2']",7.6,180,0.0,0.2351623713008369,[24400|0|0]
244,24400,1.698856234550476,1.1653549671173096,-0.0451151169836521,0.4310252666473388,0.758987545967102,3.364790916442871,4.1484375,0,"['A1', 'F1', 'E2']",7.6,180,0.0,0.2356283246997111,[24500|0|0]
245,24500,1.6985273361206057,1.165233492851257,-0.0451738871634006,0.4370594322681427,0.7757839560508728,3.342492818832397,4.15234375,0,"['A1', 'F1', 'E2']",7.6,180,0.0,0.23598383012655,[24600|0|0]
246,24600,1.6985646486282349,1.1654237508773804,-0.0451129600405693,0.4410070776939392,0.775179386138916,3.33062744140625,4.15234375,0,"['A1', 'F1', 'E2']",7.6,180,0.0,0.2361870601785265,[24700|0|0]
247,24700,1.698320746421814,1.1650519371032717,-0.0450272820889949,0.4502406120300293,0.7841476202011108,3.347285270690918,4.1484375,0,"['A1', 'F1', 'E2']",7.6,180,0.0,0.236639911677696,[24800|0|0]
248,24800,1.6986277103424072,1.165430784225464,-0.0450821444392204,0.4388889372348785,0.7712641358375549,3.343239545822144,4.15234375,0,"['A1', 'F1', 'E2']",7.6,180,0.0,0.2371305865884176,[24900|0|0]
249,24900,1.6985448598861694,1.1651891469955444,-0.0448594279587268,0.4473916888236999,0.7647322416305542,3.3709557056427,4.1484375,0,"['A1', 'F1', 'E2']",7.6,180,0.0,0.2374694897894431,[25000|0|0]
250,25000,1.6989206075668335,1.1653261184692385,-0.0447253063321113,0.4456813335418701,0.7501910924911499,3.410025358200073,4.1484375,0,"['A1', 'F1', 'E2']",7.6,180,0.0,0.2378913145336869,[25100|0|0]
251,25100,1.698400378227234,1.164879322052002,-0.0447473898530006,0.454948216676712,0.7635827660560608,3.422386407852173,4.15234375,0,"['A1', 'F1', 'E2']",7.6,180,0.0,0.2385774291641462,[25200|0|0]
252,25200,1.6987544298171997,1.1653400659561155,-0.0451484061777591,0.4487773478031158,0.7584572434425354,3.428431987762451,4.15234375,0,"['A1', 'F1', 'E2']",7.6,180,0.0,0.2392834401883223,[25300|0|0]
253,25300,1.698585033416748,1.1651427745819092,-0.0449130237102508,0.4544738233089447,0.7641112208366394,3.446099281311035,4.1484375,0,"['A1', 'F1', 'E2']",7.6,180,0.0,0.2396341878651964,[25400|0|0]
254,25400,1.6985582113265991,1.1654936075210571,-0.0450770035386085,0.4466155469417572,0.761125385761261,3.381800413131714,4.15234375,0,"['A1', 'F1', 'E2']",7.6,180,0.0,0.2400223792610559,[25500|0|0]
255,25500,1.6986525058746338,1.1653895378112793,-0.0449026301503181,0.4464859068393707,0.7568322420120239,3.352888822555542,4.1484375,0,"['A1', 'F1', 'E2']",7.6,180,0.0,0.2402462721926687,[25600|0|0]
256,25600,1.6986604928970337,1.1651417016983032,-0.0450379252433776,0.4258320033550262,0.7319568395614624,3.356419801712036,4.1484375,0,"['A1', 'F1', 'E2']",7.6,180,0.0,0.2405287457199733,[25700|0|0]
257,25700,1.6982624530792236,1.165028691291809,-0.0452007986605167,0.4459638893604278,0.7464192509651184,3.323830366134644,4.15234375,0,"['A1', 'F1', 'E2']",7.6,180,0.0,0.2409734195313776,[25800|0|0]
258,25800,1.6982643604278564,1.1651347875595093,-0.0449077002704143,0.447487324476242,0.7465593814849854,3.3794641494750977,4.15234375,0,"['A1', 'F1', 'E2']",7.6,180,0.0,0.2412851353030018,[25900|0|0]
259,25900,1.698508381843567,1.1652534008026123,-0.0447482019662857,0.4524701833724975,0.7420666813850403,3.414599895477295,4.1484375,0,"['A1', 'F1', 'E2']",7.6,180,0.0,0.241599865761942,[26000|0|0]
260,26000,1.6987943649291992,1.1647111177444458,-0.0449692010879516,0.4618414640426636,0.7512405514717102,3.435131072998047,4.15234375,0,"['A1', 'F1', 'E2']",7.6,180,0.0,0.2422515542244908,[26100|0|0]
261,26100,1.6986502408981323,1.1647915840148926,-0.0447274819016456,0.4555905163288116,0.7552884221076965,3.470271110534668,4.15234375,0,"['A1', 'F1', 'E2']",7.6,180,0.0,0.2425442566707379,[26200|0|0]
262,26200,1.698617458343506,1.1652100086212158,-0.0448918044567108,0.436086505651474,0.7553427815437317,3.4865236282348637,4.1484375,0,"['A1', 'F1', 'E2']",7.6,180,0.0,0.2429949846920188,[26300|0|0]
263,26300,1.698772668838501,1.1651092767715454,-0.0447093769907951,0.4498812854290008,0.7603406310081482,3.508341789245605,4.15234375,0,"['A1', 'F1', 'E2']",7.6,180,0.0,0.2432548249960808,[26400|0|0]
264,26400,1.6985337734222412,1.1651666164398191,-0.045411366969347,0.4550959467887878,0.7697527408599854,3.4837491512298584,4.1484375,0,"['A1', 'F1', 'E2']",7.6,180,0.0,0.2439985647270721,[26500|0|0]
265,26500,1.698477268218994,1.165016531944275,-0.0450650602579116,0.4728946983814239,0.7849373817443848,3.499163866043091,4.1484375,0,"['A1', 'F1', 'E2']",7.6,180,0.0,0.244380201376494,[26600|0|0]
266,26600,1.6986507177352903,1.1648575067520142,-0.045100312680006,0.4416111707687378,0.7643300890922546,3.467710494995117,4.15234375,0,"['A1', 'F1', 'E2']",7.6,180,0.0,0.2446181435537988,[26700|0|0]
267,26700,1.6987329721450806,1.1650961637496948,-0.0452123954892158,0.4441258907318115,0.7604379653930664,3.430697441101074,4.1484375,0,"['A1', 'F1', 'E2']",7.6,180,0.0,0.2448943418640619,[26800|0|0]
268,26800,1.6988022327423096,1.1652666330337524,-0.0451348833739757,0.4521560966968536,0.7623090744018555,3.4134609699249268,4.1484375,0,"['A1', 'F1', 'E2']",7.6,180,0.0,0.2450940039164019,[26900|0|0]
269,26900,1.698806643486023,1.165183424949646,-0.044982474297285,0.4560941159725189,0.7698614597320557,3.414023399353028,4.1484375,0,"['A1', 'F1', 'E2']",7.6,180,0.0,0.2452677035611295,[27000|0|0]
270,27000,1.698694348335266,1.165165901184082,-0.0448113307356834,0.4558141827583313,0.7694605588912964,3.4408297538757324,4.1484375,0,"['A1', 'F1', 'E2']",7.6,180,0.0,0.2454731479621745,[27100|0|0]
271,27100,1.6987004280090332,1.1651859283447266,-0.0449364893138408,0.459181547164917,0.7679839730262756,3.4455130100250244,4.1484375,0,"['A1', 'F1', 'E2']",7.6,180,0.0,0.2456000444526026,[27200|0|0]
272,27200,1.7003014087677002,1.1679205894470217,-0.0418653637170791,0.3810033202171325,0.7052010297775269,3.4913418292999268,4.1484375,0,"['A1', 'F1', 'E2']",7.6,180,0.0,0.2500129032952478,[27300|0|0]
273,27300,1.6985067129135132,1.1649720668792725,-0.0447695776820182,0.4289214015007019,0.7585899829864502,3.448928117752075,4.1484375,0,"['A1', 'F1', 'E2']",7.6,180,0.0,0.2545239095350693,[27400|0|0]
274,27400,1.6988115310668943,1.1649072170257568,-0.044703371822834,0.4324932694435119,0.7451949119567871,3.437337875366211,4.1484375,0,"['A1', 'F1', 'E2']",7.6,180,0.0,0.2548425046165162,[27500|0|0]
275,27500,1.700035572052002,1.1676923036575315,-0.0420398786664009,0.3901795744895935,0.7122026085853577,3.4463155269622803,4.15234375,0,"['A1', 'F1', 'E2']",7.6,180,0.0,0.2588859165018032,[27600|0|0]
276,27600,1.700545310974121,1.1681002378463743,-0.0422586388885974,0.3820459246635437,0.7058768272399902,3.434331178665161,4.15234375,0,"['A1', 'F1', 'E2']",7.6,180,0.0,0.2595744657781557,[27700|0|0]
277,27700,1.7003467082977295,1.1679470539093018,-0.0420320443809032,0.3860487937927246,0.7140583992004395,3.4571533203125,4.15234375,0,"['A1', 'F1', 'E2']",7.6,180,0.0,0.2599124797017805,[27800|0|0]
278,27800,1.6984283924102783,1.1650537252426147,-0.0452989712357521,0.4405397474765777,0.7793872356414795,3.425137519836426,4.15234375,0,"['A1', 'F1', 'E2']",7.6,180,0.0,0.2646794596359162,[27900|0|0]
279,27900,1.7006275653839111,1.1681166887283323,-0.042239487171173,0.3848083913326263,0.7146450877189636,3.449110984802246,4.15234375,0,"['A1', 'F1', 'E2']",7.6,180,0.0,0.2695352345302261,[28000|0|0]
280,28000,1.7002509832382202,1.1677885055541992,-0.0425375215709209,0.3903872072696686,0.7248631715774536,3.44620943069458,4.1484375,0,"['A1', 'F1', 'E2']",7.6,180,0.0,0.2701169069566574,[28100|0|0]
281,28100,1.7000489234924316,1.167934775352478,-0.0422322042286396,0.3903771042823791,0.7355798482894897,3.451308488845825,4.15234375,0,"['A1', 'F1', 'E2']",7.6,180,0.0,0.2705111678781984,[28200|0|0]
282,28200,1.700422286987305,1.1677995920181274,-0.0421170704066753,0.3975881934165954,0.7218824625015259,3.448986053466797,4.1484375,0,"['A1', 'F1', 'E2']",7.6,180,0.0,0.2709246054552884,[28300|0|0]
283,28300,1.7000980377197266,1.1679606437683103,-0.042186364531517,0.3831779062747955,0.7262962460517883,3.45438814163208,4.1484375,0,"['A1', 'F1', 'E2']",7.6,180,0.0,0.2712932203349387,[28400|0|0]
284,28400,1.7001358270645142,1.16795814037323,-0.0421293154358863,0.3817605078220367,0.7282588481903076,3.425361633300781,4.15234375,0,"['A1', 'F1', 'E2']",7.6,180,0.0,0.271361695884434,[28500|0|0]
285,28500,1.6988509893417358,1.1648571491241455,-0.0447112880647182,0.4366149306297302,0.771472692489624,3.428781509399414,4.1484375,0,"['A1', 'F1', 'E2']",7.6,180,0.0,0.2755964966302553,[28600|0|0]
286,28600,1.6985406875610352,1.1651790142059326,-0.0451080948114395,0.4222718775272369,0.774380087852478,3.446575403213501,4.1484375,0,"['A1', 'F1', 'E2']",7.6,180,0.0,0.2761942757869874,[28700|0|0]
287,28701,1.6987427473068235,1.1650856733322144,-0.0447763241827487,0.4262871742248535,0.7656243443489075,3.459444999694824,4.1484375,0,"['A1', 'F1', 'E2']",7.6,180,0.0,0.2765937910052664,[28800|0|0]
288,28800,1.699970006942749,1.167709231376648,-0.0422732643783092,0.3780624270439148,0.7194052934646606,3.472397327423096,4.1484375,0,"['A1', 'F1', 'E2']",7.6,180,0.0,0.2804219147507956,[28900|0|0]
289,28900,1.7003170251846311,1.1679229736328125,-0.0419274643063545,0.378813624382019,0.7090329527854919,3.469066381454468,4.1484375,0,"['A1', 'F1', 'E2']",7.6,180,0.0,0.2809564099350894,[29000|0|0]
290,29001,1.7003291845321655,1.1679480075836182,-0.0420521087944507,0.3779045343399048,0.7134395837783813,3.465429782867432,4.15234375,0,"['A1', 'F1', 'E2']",7.6,180,0.0,0.2810841236651193,[29100|0|0]
291,29101,1.7004574537277222,1.167988657951355,-0.0419835671782493,0.3760272860527038,0.7110297083854675,3.468692779541016,4.1484375,0,"['A1', 'F1', 'E2']",7.6,180,0.0,0.2812351315856977,[29200|0|0]
292,29201,1.7000751495361328,1.1676597595214844,-0.0418380722403526,0.3815581202507019,0.7125686407089233,3.4895143508911133,4.1484375,0,"['A1', 'F1', 'E2']",7.6,180,0.0,0.2817600119997271,[29300|0|0]
293,29301,1.6999832391738892,1.1677953004837036,-0.041899561882019,0.3787122368812561,0.7077139019966125,3.472994327545166,4.15234375,0,"['A1', 'F1', 'E2']",7.6,180,0.0,0.2819349401082727,[29400|0|0]
294,29401,1.700397253036499,1.1678823232650757,-0.0422773733735084,0.3839700520038605,0.7019712924957275,3.451897144317627,4.1484375,0,"['A1', 'F1', 'E2']",7.6,180,0.0,0.2825021455084694,[29500|0|0]
295,29501,1.70072603225708,1.1683673858642578,-0.0423285402357578,0.3789203763008117,0.6975879669189453,3.405010223388672,4.1484375,0,"['A1', 'F1', 'E2']",7.6,180,0.0,0.283090362771735,[29600|0|0]
296,29601,1.7004427909851074,1.168198585510254,-0.0419210344552993,0.3986862599849701,0.7113067507743835,3.4341342449188232,4.15234375,0,"['A1', 'F1', 'E2']",7.6,180,0.0,0.2836145575244439,[29700|0|0]
297,29701,1.7001383304595947,1.168099284172058,-0.0416393242776393,0.3616942167282104,0.6784777045249939,3.457303762435913,4.1484375,0,"['A1', 'F1', 'E2']",7.6,180,0.0,0.2840410755094811,[29800|0|0]
298,29802,1.7003949880599976,1.1679015159606934,-0.0418403260409832,0.3704214692115783,0.6818007826805115,3.4726288318634038,4.1484375,0,"['A1', 'F1', 'E2']",7.6,180,0.0,0.2844223721107488,[29900|0|0]
299,29902,1.700554609298706,1.1678321361541748,-0.0417333915829658,0.3652979135513305,0.6839800477027893,3.411189556121826,4.1484375,0,"['A1', 'F1', 'E2']",7.6,180,0.0,0.2846266451528049,[30000|0|0]
