,time.ms,stateEstimate.x,stateEstimate.y,stateEstimate.z,stabilizer.roll,stabilizer.pitch,stabilizer.yaw,pm.vbat,drone_id,node_name,wind_speed,global_wind_direction,relative_wind_direction,travel_dist,waiting_time
0,0,0.6348148584365845,0.3841712772846222,0.0,-0.3225277066230774,0.6220479011535645,-7.2374396324157715,4.046875,0,F2,7.6,90,450.0,0.0,[6200|0|0|0]
1,100,0.6347282528877258,0.3841746747493744,0.0,-0.3228830695152282,0.6270607709884644,-7.231281280517578,4.046875,0,F2,7.6,90,450.0,8.66721631197073e-05,[6300|0|0|0]
2,200,0.6360986232757568,0.3864163756370544,0.0,-0.3715371787548065,0.604343056678772,-7.163442134857178,4.046875,0,F2,7.6,90,450.0,0.0027140544859302,[6400|0|0|0]
3,300,0.6360166072845459,0.3861876428127289,0.0,-0.3692920506000519,0.6053819060325623,-7.1661787033081055,4.046875,0,A1,7.6,90,450.0,0.0029570469297186,[6400|0|0|0]
4,400,0.6355510950088501,0.3870005309581756,0.0,-0.3258819580078125,0.6330079436302185,-7.017242908477783,2.908203125,0,A1,7.6,90,450.0,0.0038937906597917,[6400|0|0|0]
5,500,0.6346925497055054,0.3878793120384216,0.0,1.1801378726959229,1.5510292053222656,-6.2397990226745605,3.19921875,0,A1,7.6,90,450.0,0.0051223492562345,[6400|0|0|0]
6,600,0.6309172511100769,0.3893705308437347,0.0217033978551626,0.9606075882911682,-0.0781916752457618,-4.933537483215332,3.431640625,0,A1,7.6,90,450.0,0.0272020705286927,[6400|0|0|0]
7,700,0.6283815503120422,0.3926003575325012,0.0914643257856369,1.7694432735443115,-3.853972911834717,-3.45646071434021,3.53125,0,A1,7.6,90,450.0,0.0970837464151327,[6400|0|0|0]
8,800,0.6303109526634216,0.3952116668224334,0.1715271174907684,1.907341480255127,-3.048121690750122,-2.1451311111450195,3.541015625,0,A1,7.6,90,450.0,0.1772123439646997,[6400|0|0|0]
9,901,0.6415518522262573,0.3967267274856567,0.2587883770465851,1.8713579177856443,-2.572527408599853,-0.8146119117736816,3.537109375,0,A1,7.6,90,450.0,0.2652076884498633,[6400|0|0|0]
10,1001,0.6570067405700684,0.3972181975841522,0.34708172082901,0.560436487197876,-0.6262968182563782,0.0826211795210838,3.537109375,0,A1,7.6,90,450.0,0.3548447883184939,[6400|0|0|0]
11,1101,0.6736729145050049,0.398931473493576,0.4367064833641052,1.6907854080200195,0.5932690501213074,1.7228177785873413,3.537109375,0,A1,7.6,90,450.0,0.4460220592112092,[6400|0|0|0]
12,1201,0.6904001235961914,0.4008138179779053,0.5266740322113037,0.7891959547996521,2.495260000228882,2.355041027069092,3.515625,0,A1,7.6,90,450.0,0.5375507573900372,[6400|0|0|0]
13,1301,0.7036337852478027,0.4042076468467712,0.6148672103881836,0.3165051937103271,3.4958367347717285,2.8089041709899902,3.5,0,A1,7.6,90,450.0,0.6267958387785337,[6400|0|0|0]
14,1401,0.7116462588310242,0.4092364609241485,0.7033116817474365,0.9764143228530884,3.3491008281707764,2.7218985557556152,3.494140625,0,A1,7.6,90,450.0,0.715744774792206,[6400|0|0|0]
15,1501,0.7126191258430481,0.414962500333786,0.7930837273597717,1.175426721572876,3.6631925106048575,2.9854605197906494,3.494140625,0,A1,7.6,90,450.0,0.8057045111800312,[6400|0|0|0]
16,1601,0.707639753818512,0.4189043641090393,0.8865819573402405,3.221031904220581,1.6657267808914185,2.5026891231536865,3.505859375,0,A1,7.6,90,450.0,0.8994181785144281,[6400|0|0|0]
17,1702,0.6999908685684204,0.4168098866939544,0.9825616478919984,3.11443305015564,0.3639432191848755,1.3620429039001465,3.5,0,A1,7.6,90,450.0,0.9957249450452518,[6400|0|0|0]
18,1802,0.6895228028297424,0.4086449742317199,1.0813125371932983,2.3165926933288574,-0.1132221072912216,-0.0101544829085469,3.5,0,A1,7.6,90,450.0,1.0953642160864574,[6400|0|0|0]
19,1900,0.6787411570549011,0.3959904313087463,1.1823956966400146,1.0398346185684204,-1.1573817729949951,-0.8376112580299377,3.5,0,A1,7.6,90,450.0,1.1978053526768613,[6400|0|0|0]
20,2000,0.6696836948394775,0.3806632459163666,1.285620093345642,-0.5401707887649536,-1.2539269924163818,-1.1244196891784668,3.5,0,A1,7.6,90,450.0,1.3025537956680435,[6400|0|0|0]
21,2100,0.6618301272392273,0.3652284443378448,1.3897989988327026,-1.7928688526153564,-1.9274400472640991,-1.0819700956344604,3.505859375,0,A1,7.6,90,450.0,1.4081622989824163,[6400|0|0|0]
22,2201,0.6563079953193665,0.3520105183124542,1.4949851036071775,-2.644477605819702,-1.1587114334106443,0.7831987738609314,3.53125,0,A1,7.6,90,450.0,1.514319371977954,[6400|0|0|0]
23,2301,0.651354968547821,0.3436164557933807,1.5963159799575806,-3.043386697769165,-1.5853567123413086,5.454056262969971,3.599609375,0,A1,7.6,90,450.0,1.616117894863674,[6400|0|0|0]
24,2400,0.6485961675643921,0.3364017903804779,1.6868993043899536,-2.000065565109253,-1.089961290359497,7.123871803283691,3.611328125,0,A1,7.6,90,450.0,1.7070299460181102,[6400|0|0|0]
25,2500,0.6456168293952942,0.33285853266716,1.7604548931121826,-1.7971577644348145,-1.2958167791366575,7.017476558685303,3.60546875,0,A1,7.6,90,450.0,1.7807310705917727,[6400|0|0|0]
26,2600,0.6420801877975464,0.3306905925273895,1.814686298370361,-1.2556910514831543,-1.0240461826324463,5.803353786468506,3.58984375,0,A1,7.6,90,450.0,1.8351208960604883,[6400|0|0|0]
27,2700,0.6399638056755066,0.3272051513195038,1.852869153022766,-0.9613628387451172,-0.9607113003730774,0.160160943865776,3.568359375,0,A1,7.6,90,450.0,1.873520866934264,[6400|0|0|0]
28,2800,0.6380247473716736,0.3291515111923218,1.8748605251312256,-0.9352425932884216,-0.8485360741615295,-1.6544731855392456,3.541015625,0,A1,7.6,90,450.0,1.895683193325528,[6400|0|0|0]
29,2900,0.6325735449790955,0.3289457261562347,1.8874160051345823,-1.1145249605178833,-1.2827383279800415,-6.2539777755737305,3.525390625,0,A1,7.6,90,450.0,1.909372533452817,[6400|0|0|0]
30,3000,0.627877414226532,0.3341134488582611,1.8912971019744875,-0.7583392262458801,-1.441722750663757,-8.375555038452148,3.521484375,0,A1,7.6,90,450.0,1.9173613953649375,[6400|0|0|0]
31,3100,0.6261255145072937,0.3383848965167999,1.8899602890014648,-0.6459143757820129,-1.4289249181747437,-9.055243492126465,3.521484375,0,A1,7.6,90,450.0,1.9221677959569343,[6400|0|0|0]
32,3200,0.6256867051124573,0.3403110802173614,1.8857982158660889,-0.5067519545555115,-1.498592495918274,-9.107304573059082,3.521484375,0,A1,7.6,90,450.0,1.9267749198013215,[6400|0|0|0]
33,3300,0.6256025433540344,0.340838760137558,1.877876162528992,-0.3792934417724609,-1.5821611881256104,-9.65595531463623,3.5,0,A1,7.6,90,2.0,1.934714973855015,[6400|0|0|0]
34,3400,0.6274492144584656,0.3453967273235321,1.8667185306549072,-8.651388168334961,-0.6960982084274292,-8.970765113830566,3.658203125,0,A1,7.6,90,2.0,1.9469083330342545,[6400|0|0|0]
35,3500,0.6339457631111145,0.349713921546936,1.8212835788726809,-13.74637222290039,-1.4346059560775757,-2.4957833290100098,3.578125,0,A1,7.6,90,2.0,1.9930079876296205,[6400|0|0|0]
36,3600,0.6493024230003357,0.3778633177280426,1.7697252035140991,-14.30738925933838,-1.7596198320388794,1.1697224378585815,3.48828125,0,A1,7.6,90,2.0,2.0537243905033957,[6400|0|0|0]
37,3700,0.6349605917930603,0.4395881295204162,1.7222529649734497,-10.064077377319336,0.3585644066333771,3.6198441982269287,3.44140625,0,A1,7.6,90,2.0,2.1329030110094527,[6400|0|0|0]
38,3800,0.6338441967964172,0.5113406777381897,1.671947717666626,-3.3943326473236084,-1.0741853713989258,0.3329757750034332,3.435546875,0,A1,7.6,90,2.0,2.22054028858089,[6400|0|0|0]
39,3900,0.6357817053794861,0.5765009522438049,1.6222240924835205,2.7281975746154785,-2.5387425422668457,-4.863880157470703,3.44140625,0,A1,7.6,90,2.0,2.302528423176736,[6400|0|0|0]
40,4000,0.639289379119873,0.6309822797775269,1.5839191675186155,5.219783782958984,-2.901956081390381,-8.324310302734375,3.435546875,0,A1,7.6,90,2.0,2.369220147561945,[6400|0|0|0]
41,4100,0.6413499712944031,0.6758392453193665,1.5550099611282349,6.759783744812012,-2.521283864974976,-9.012721061706545,3.447265625,0,A1,7.6,90,2.0,2.4226255369140803,[6400|0|0|0]
42,4200,0.643092930316925,0.7059532999992371,1.5358705520629885,6.383482933044434,-1.360174298286438,-7.70750093460083,3.47265625,0,A1,7.6,90,2.0,2.458349634870268,[6400|0|0|0]
43,4300,0.6431359052658081,0.7252078056335449,1.524693489074707,4.490925312042236,-1.3305792808532717,-6.209219932556152,3.484375,0,A1,7.6,90,2.0,2.480613160447135,[6400|0|0|0]
44,4400,0.6406210064888,0.7385250926017761,1.5184139013290403,2.8040802478790283,-0.8289192318916321,-4.620993137359619,3.5,0,A1,7.6,90,2.0,2.4955499629934748,[6400|0|0|0]
45,4500,0.6373293399810791,0.747745931148529,1.5143619775772097,1.504315733909607,-1.2466318607330322,-3.41228461265564,3.509765625,0,A1,7.6,90,2.0,2.5061460480249376,[6400|0|0|0]
46,4600,0.6345177292823792,0.7553398609161377,1.5110869407653809,0.639020562171936,-1.7053554058074951,-2.9010400772094727,3.505859375,0,A1,7.6,90,2.0,2.514880965892625,[6400|0|0|0]
47,4700,0.6330850124359131,0.7629057765007019,1.5064042806625366,0.4380441308021545,-1.814896821975708,-2.575070858001709,3.5,0,A1,7.6,90,2.0,2.5238933496967952,[6400|0|0|0]
48,4800,0.6335017681121826,0.7704646587371826,1.500213861465454,0.4367702901363373,-2.066749334335327,-2.627471923828125,3.5,0,A1,7.6,90,2.0,2.533672494638675,[6400|0|0|0]
49,4900,0.6358780264854431,0.7777171730995178,1.493824124336243,0.6628270745277405,-1.558820724487305,-2.886575698852539,3.48828125,0,A1,7.6,90,2.0,2.5436261024776843,[6400|0|0|0]
50,5000,0.6400917768478394,0.7848445773124695,1.4878021478652954,0.8761213421821594,-1.1433415412902832,-3.290623188018799,3.48828125,0,A1,7.6,90,2.0,2.553864255804727,[6400|0|0|0]
51,5100,0.64457768201828,0.7915383577346802,1.4814072847366333,0.8862000703811646,-0.8907886147499084,-3.784759998321533,3.494140625,0,A1,7.6,90,2.0,2.564151350436997,[6400|0|0|0]
52,5200,0.64947110414505,0.7968047857284546,1.4760807752609253,0.8897504210472107,-0.2486692667007446,-4.256731033325195,3.494140625,0,A1,7.6,90,2.0,2.573098559338056,[6400|0|0|0]
53,5300,0.6542996168136597,0.8008495569229126,1.4725126028060913,0.9182416200637816,-0.1439800262451172,-4.54347038269043,3.5,0,A1,7.6,90,2.0,2.580337797093088,[6400|0|0|0]
54,5400,0.658075749874115,0.8039915561676025,1.4690288305282593,0.9500818252563475,-0.044278472661972,-4.627043724060059,3.509765625,0,A1,7.6,90,2.0,2.586360089798336,[6400|0|0|0]
55,5500,0.6614940762519836,0.8052591681480408,1.46426522731781,0.9801747798919678,-0.2256916165351867,-4.407517910003662,3.494140625,0,A1,7.6,90,2.0,2.592358732220183,[6400|0|0|0]
56,5600,0.6649930477142334,0.8061743378639221,1.4599591493606567,0.971085488796234,-0.3115191161632538,-4.503348350524902,3.494140625,0,A1,7.6,90,2.0,2.597982133706436,[6400|0|0|0]
57,5700,0.6688573360443115,0.8054315447807312,1.4531241655349731,0.8836905360221863,-0.4115014374256134,-4.694309234619141,3.494140625,0,A1,7.6,90,2.0,2.605868924546807,[6400|0|0|0]
58,5800,0.6721556782722473,0.8032906651496887,1.4462631940841677,0.2963767647743225,-0.2254754155874252,-4.718972682952881,3.484375,0,A1,7.6,90,2.0,2.6137768545095703,[6400|0|0|0]
59,5900,0.6753023266792297,0.8014844655990601,1.4400219917297363,0.1037189215421676,-0.2430873811244964,-4.494163036346436,3.484375,0,A1,7.6,90,2.0,2.6209960206555194,[6400|0|0|0]
60,6000,0.6786407232284546,0.8000873327255249,1.4330097436904907,-0.4106975793838501,-0.5104238986968994,-4.164196491241455,3.484375,0,A1,7.6,90,2.0,2.628887059519325,[6400|0|0|0]
61,6100,0.6823602318763733,0.7995671033859253,1.4264488220214844,-0.0089539196342229,-0.1819146424531936,-3.796964168548584,3.478515625,0,A1,7.6,90,2.0,2.636446892605747,[6400|0|0|0]
62,6200,0.6876751780509949,0.798768937587738,1.4213461875915527,0.0251096952706575,0.3182723522186279,-3.4657342433929443,3.484375,0,A1,7.6,90,2.0,2.64385787092214,[6400|0|0|0]
63,6300,0.6909269690513611,0.7978098392486572,1.415396809577942,0.3361073732376098,0.8473765850067139,-3.256739377975464,3.48828125,0,A1,7.6,90,450.0,2.650705433487237,[6400|0|0|0]
64,6400,0.6935288310050964,0.7957664132118225,1.4069747924804688,0.3551481962203979,0.3228338062763214,-2.608994960784912,3.80078125,0,A1,7.6,90,450.0,2.659753949806748,[6400|0|0|0]
65,6500,0.6951975226402283,0.7952674627304077,1.369206428527832,-0.1130529344081878,-0.2318068146705627,-2.13527250289917,3.720703125,0,A1,7.6,90,450.0,2.697562451483155,[6400|0|0|0]
66,6600,0.6947952508926392,0.7948497533798218,1.290535807609558,0.1817926317453384,0.4394451379776001,-1.3444503545761108,3.58984375,0,A1,7.6,90,450.0,2.7762352097882204,[6400|0|0|0]
67,6700,0.6928911209106445,0.7950947880744934,1.179443359375,-0.343594878911972,0.2934869825839996,-0.4959310889244079,3.47265625,0,A1,7.6,90,450.0,2.887344245459213,[6400|0|0|0]
68,6800,0.6903014183044434,0.7952666282653809,1.0521955490112305,0.3308541774749756,-0.2987728714942932,0.1029120534658432,3.44140625,0,A1,7.6,90,450.0,3.014618521457993,[6400|0|0|0]
69,6900,0.6881704926490784,0.79390549659729,0.9214142560958862,-0.2466224282979965,0.0650571510195732,-0.578754723072052,3.453125,0,A1,7.6,90,450.0,3.1454242556601897,[6400|0|0|0]
70,7000,0.6858860850334167,0.7946204543113708,0.7959270477294922,-0.0199359320104122,-0.8240150809288025,-1.9603350162506104,3.484375,0,A1,7.6,90,450.0,3.270934291698262,[6400|0|0|0]
71,7100,0.6845181584358215,0.7968441843986511,0.6754032969474792,-1.946021556854248,0.0057676071301102,-0.6157662272453308,3.5,0,A1,7.6,90,450.0,3.391486316572348,[6400|0|0|0]
72,7200,0.6841818690299988,0.8008986115455627,0.5539089441299438,0.1567765474319458,-0.1177381947636604,1.36651611328125,3.48828125,0,A1,7.6,90,450.0,3.513048766517246,[6400|0|0|0]
73,7300,0.6843026280403137,0.8074175715446472,0.4308420419692993,0.1335196197032928,-1.6842087507247925,2.040358304977417,3.37890625,0,A1,7.6,90,450.0,3.636288264364429,[6400|0|0|0]
74,7400,0.6854449510574341,0.8171988129615784,0.3136446475982666,-0.9100355505943298,-0.1536976397037506,1.7521804571151731,3.326171875,0,A1,7.6,90,450.0,3.753898667105391,[6400|0|0|0]
75,7500,0.6858839392662048,0.8314272165298462,0.2112474143505096,1.041288137435913,0.7628250122070312,1.7665190696716309,3.314453125,0,A1,7.6,90,450.0,3.857280645977651,[6400|0|0|0]
76,7600,0.6845793128013611,0.84772789478302,0.1304650902748108,1.2915773391723633,0.8505851626396179,2.007282257080078,3.330078125,0,A1,7.6,90,450.0,3.9397015052597375,[6400|0|0|0]
77,7700,0.6811805367469788,0.863305389881134,0.0737091451883316,5.416951656341553,-1.525147557258606,1.09928297996521,3.3515625,0,A1,7.6,90,450.0,3.998654429995149,[6400|0|0|0]
78,7800,0.6796168684959412,0.8714213967323303,0.0377771332859993,5.881669998168945,0.4171292185783386,3.09380316734314,3.388671875,0,A1,7.6,90,450.0,4.035524798924104,[6400|0|0|0]
79,7900,0.6803310513496399,0.868644654750824,0.0202505625784397,5.518934726715088,-0.9925788044929504,4.966278076171875,3.419921875,0,A1,7.6,90,450.0,4.053284332531367,[6400|0|0|0]
80,8000,0.6843594908714294,0.8552097678184509,0.0164142213761806,2.7515456676483154,-1.0792239904403689,5.076112747192383,3.462890625,0,A1,7.6,90,450.0,4.067825378769053,[6400|0|0|0]
81,8100,0.6906206607818604,0.8378212451934814,0.0199935529381036,-0.3016624748706817,1.0247600078582764,5.189271926879883,3.484375,0,A1,7.6,90,450.0,4.086650218267878,[6400|0|0|0]
82,8200,0.6980218887329102,0.8206309676170349,0.0254283621907234,1.17138409614563,-2.2843575477600098,5.217625617980957,3.48828125,0,A1,7.6,90,450.0,4.106139214392641,[6400|0|0|0]
83,8300,0.7071275115013123,0.8043112754821777,0.0265879835933446,-1.546738862991333,1.2238832712173462,5.130718231201172,3.462890625,0,A1,7.6,90,450.0,4.124863248124036,[6400|0|0|0]
84,8400,0.715772271156311,0.7881479263305664,0.0275612771511077,-1.8605444431304927,1.7484674453735352,5.063429832458496,3.462890625,0,A1,7.6,90,450.0,4.143218983621127,[6400|0|0|0]
85,8500,0.7217895984649658,0.7756232619285583,0.0289100296795368,-1.827850699424744,1.529060959815979,3.05262303352356,3.46875,0,A1,7.6,90,450.0,4.157179448502546,[6400|0|0|0]
86,8600,0.7237902283668518,0.7667495012283325,0.0301091074943542,-2.4150948524475098,1.1166328191757202,2.4968602657318115,3.47265625,0,A1,7.6,90,450.0,4.166354628968084,[6400|0|0|0]
87,8700,0.7224913835525513,0.7609239220619202,0.0325824059545993,-1.612386703491211,0.7939091324806213,2.441613912582397,3.478515625,0,A1,7.6,90,450.0,4.17281540103876,[6400|0|0|0]
88,8800,0.7207943201065063,0.7591801881790161,0.0324868001043796,-1.804243206977844,-0.1739907562732696,2.459451198577881,3.462890625,0,A1,7.6,90,450.0,4.175250513494661,[6400|0|0|0]
89,8900,0.7197327613830566,0.7607850432395935,0.0316516384482383,-0.6961323618888855,-0.3300318121910095,2.6708695888519287,3.462890625,0,A1,7.6,90,450.0,4.177348122056973,[6400|0|0|0]
90,9000,0.7185570001602173,0.7649429440498352,0.0304587054997682,1.398674488067627,0.3553680777549743,2.754258871078491,3.45703125,0,A1,7.6,90,450.0,4.181830715348862,[6400|0|0|0]
91,9100,0.7182222008705139,0.7675877809524536,0.0289626698940992,-0.6046475768089294,0.4698009192943573,3.3941869735717773,3.453125,0,A1,7.6,90,450.0,4.184887736012722,[6400|0|0|0]
92,9200,0.71809321641922,0.7695125937461853,0.0276708398014307,0.6421219110488892,0.1988571733236313,3.585085868835449,3.45703125,0,A1,7.6,90,450.0,4.18720945224601,[6400|0|0|0]
93,9300,0.7166750431060791,0.770588755607605,0.0273857805877923,0.699463427066803,0.4646121859550476,0.4355069100856781,3.453125,0,A1,7.6,90,450.0,4.189012393912664,[6400|0|0|0]
94,9400,0.7141446471214294,0.7710736989974976,0.0259097088128328,-0.4538872241973877,0.4640953242778778,-1.6347461938858032,3.453125,0,F1,7.6,90,450.0,4.191981714005777,[6400|0|100|0]
95,9500,0.708554208278656,0.769768476486206,0.0244319792836904,1.8640261888504028,0.4949696958065033,-1.972814917564392,3.447265625,0,F1,7.6,90,450.0,4.197909639175689,[6400|0|200|0]
96,9600,0.6994845867156982,0.765234649181366,0.0266288425773382,-1.4419718980789185,0.8931979537010193,-1.2251346111297607,3.453125,0,F1,7.6,90,450.0,4.208284601038576,[6400|0|300|0]
97,9700,0.6869275569915771,0.7636306285858154,0.030496247112751,0.540084719657898,-1.1239829063415527,-0.4440919756889343,3.462890625,0,F1,7.6,90,450.0,4.221521243188454,[6400|0|400|0]
98,9800,0.6746587157249451,0.7646804451942444,0.0335455425083637,-1.15018892288208,0.2483639419078827,0.95695823431015,3.462890625,0,F1,7.6,90,450.0,4.234206856431292,[6400|0|500|0]
99,9900,0.6616680026054382,0.7684099674224854,0.0348869264125824,-1.859049320220948,-1.00149667263031,0.6113920211791992,3.45703125,0,F1,7.6,90,450.0,4.247788729431094,[6400|0|600|0]
100,10000,0.6478545069694519,0.7757498025894165,0.0366528108716011,0.517153263092041,1.3153496980667114,2.4091596603393555,3.447265625,0,F1,7.6,90,450.0,4.263530526974124,[6400|0|700|0]
101,10100,0.6339964866638184,0.7846150398254395,0.0401167050004005,-0.4357520639896393,-0.3688269257545471,3.2175168991088867,3.462890625,0,F1,7.6,90,450.0,4.2803423002469785,[6400|0|800|0]
102,10200,0.6197388768196106,0.7927237749099731,0.041395679116249,0.6769180297851562,-0.4091715812683105,3.674736261367798,3.447265625,0,F1,7.6,90,450.0,4.29679425447527,[6400|0|900|0]
103,10300,0.6062781810760498,0.7983846664428711,0.0419698245823383,1.1059106588363647,-0.6625540852546692,4.1287150382995605,3.453125,0,F1,7.6,90,450.0,4.311408140538333,[6400|0|1000|0]
104,10400,0.5958992838859558,0.8013045787811279,0.0432825535535812,1.328366994857788,-0.8583135008811951,5.166205406188965,3.45703125,0,F1,7.6,90,450.0,4.322269570108035,[6400|0|1100|0]
105,10500,0.5880716443061829,0.8014844059944153,0.0430144965648651,-0.140077605843544,0.1448158174753189,4.887988090515137,3.44140625,0,F1,7.6,90,450.0,4.330103862275593,[6400|0|1200|0]
106,10600,0.5799968838691711,0.8004991412162781,0.0397397801280021,-0.1024635508656501,1.0271410942077637,3.915818214416504,3.431640625,0,F1,7.6,90,450.0,4.338872914136544,[6400|0|1300|0]
107,10700,0.5722097754478455,0.7982627749443054,0.0380436889827251,0.4825827181339264,-1.1785305738449097,1.785694241523743,3.435546875,0,F1,7.6,90,450.0,4.3471504208167575,[6400|0|1400|0]
108,10800,0.5647761821746826,0.794667661190033,0.0396758690476417,-0.5078262686729431,-0.5377339720726013,-0.2456291764974594,3.447265625,0,F1,7.6,90,450.0,4.355567496533494,[6400|0|1500|0]
109,10900,0.5567345023155212,0.7902064919471741,0.0430075153708457,1.4821077585220337,1.6607530117034912,-0.8740207552909851,3.45703125,0,F1,7.6,90,450.0,4.365348626999529,[6400|0|1600|0]
110,11000,0.5475878119468689,0.7836371660232544,0.0459441766142845,1.2633358240127563,-1.840782642364502,1.0772827863693235,3.447265625,0,F1,7.6,90,450.0,4.376986580730894,[6400|0|1700|0]
111,11100,0.5398741960525513,0.7733801603317261,0.0480775274336338,1.816736340522766,0.3605417907238006,1.866088271141052,3.44140625,0,F1,7.6,90,450.0,4.389996470109345,[6400|0|1800|0]
112,11200,0.5340883731842041,0.7613304853439331,0.0500875785946846,-0.4518668353557586,-1.0727291107177734,1.077623724937439,3.435546875,0,F1,7.6,90,450.0,4.403513523014671,[6400|0|1900|0]
113,11300,0.5273852348327637,0.7507233619689941,0.0474201031029224,-1.701303482055664,-0.4926268458366394,0.4425540268421173,3.921875,0,F1,7.6,90,450.0,4.416341560882906,[6400|0|2000|0]
114,11400,0.5210353136062622,0.7447750568389893,0.0033712529111653,-17.899429321289062,-9.95152187347412,-3.2883999347686768,3.927734375,0,F1,7.6,90,450.0,4.461241505612475,[6400|0|2100|0]
115,11500,0.5161246061325073,0.7382619976997375,0.0,0.3794013559818268,3.2843759059906006,-10.772040367126465,3.927734375,0,F1,7.6,90,450.0,4.470067622167066,[6400|0|2200|0]
116,11600,0.5153020024299622,0.7371052503585815,0.0,-2.7356886863708496,1.649606227874756,-17.97718620300293,3.931640625,0,F1,7.6,90,450.0,4.471487037984475,[6400|0|2300|0]
117,11700,0.5151289701461792,0.7373568415641785,0.0,-2.6104910373687744,1.5065385103225708,-17.89197540283203,3.931640625,0,F1,7.6,90,450.0,4.471792387466159,[6400|0|2400|0]
118,11800,0.5152319073677063,0.7374904751777649,0.0,-2.455562114715576,1.3687002658843994,-17.771934509277344,3.9375,0,F1,7.6,90,450.0,4.471961070643316,[6400|0|2500|0]
119,11900,0.5130677223205566,0.7392770648002625,0.0,-2.328098773956299,1.465183973312378,-21.002656936645508,3.9375,0,F1,7.6,90,450.0,4.474767420478516,[6400|0|2600|0]
120,12000,0.5024499893188477,0.750642716884613,0.0,-2.406456232070923,1.2123734951019287,-15.956961631774902,3.9375,0,F1,7.6,90,450.0,4.490321014963332,[6400|0|2700|0]
121,12100,0.5031829476356506,0.7419149279594421,0.0,-2.1116154193878174,0.8208195567131042,-14.998847007751465,3.943359375,0,F1,7.6,90,450.0,4.499079526675747,[6400|0|2800|0]
122,12200,0.5314598679542542,0.7383458018302917,0.0,-5.721458435058594,8.594464302062988,-16.549137115478516,3.94921875,0,F1,7.6,90,450.0,4.5275808053142645,[6400|0|2900|0]
123,12300,0.6146132946014404,0.7367652654647827,0.013859000056982,2.102646827697754,17.455486297607422,-25.749155044555664,3.94921875,0,F1,7.6,90,450.0,4.611896060997629,[6400|0|3000|0]
124,12400,0.685111939907074,0.7479860186576843,0.0190722644329071,-0.7764381170272827,15.476478576660156,-12.16186809539795,3.94921875,0,F1,7.6,90,450.0,4.683472191219924,[6400|0|3100|0]
125,12500,0.7149993777275085,0.7584265470504761,0.0013490198180079,0.7781627178192139,12.836682319641112,-9.441500663757324,3.94921875,0,F1,7.6,90,450.0,4.719754100930833,[6400|0|3200|0]
126,12600,0.720496416091919,0.7708911299705505,0.0,0.698858380317688,6.2098541259765625,-4.73823356628418,3.953125,0,F1,7.6,90,450.0,4.7334436265844335,[6400|0|3300|0]
127,12700,0.7203425765037537,0.7768309712409973,0.0,-3.157314777374268,-0.3522991240024566,-0.0523499958217144,3.953125,0,F1,7.6,90,450.0,4.7393854597137794,[6400|0|3400|0]
128,12800,0.7190549373626709,0.7856298089027405,0.0,-2.118941307067871,-0.7759716510772705,0.0566295608878135,3.953125,0,F1,7.6,90,450.0,4.748278016081628,[6400|0|3500|0]
129,12900,0.719690203666687,0.8011559844017029,0.0,-2.121644973754883,-0.8918600082397461,0.002354887779802,3.953125,0,F1,7.6,90,450.0,4.763817182368839,[6400|0|3600|0]
130,13000,0.7214476466178894,0.8182236552238464,0.0,-2.092613935470581,-0.8906003832817078,0.0021905044559389,3.953125,0,F1,7.6,90,450.0,4.780975095791507,[6400|0|3700|0]
131,13100,0.7313364148139954,0.7230890989303589,0.0,-1.2887746095657349,-0.8868813514709473,-0.3409722149372101,3.958984375,0,F1,7.6,90,450.0,4.876622215651935,[6400|0|3800|0]
132,13200,0.7315970659255981,0.7226572632789612,0.0,-1.251299262046814,-0.7482391595840454,-0.4442447125911712,3.958984375,0,F1,7.6,90,450.0,4.8771266173091465,[6400|0|3900|0]
133,13300,0.731354832649231,0.7230324745178223,0.0,-1.2364928722381592,-0.6360808610916138,-0.50972580909729,3.958984375,0,F1,7.6,90,450.0,4.877573227244042,[6400|0|4000|0]
134,13400,0.7313843369483948,0.7228509187698364,0.0,-1.1910040378570557,-0.5523169636726379,-0.5575717091560364,3.958984375,0,F1,7.6,90,450.0,4.8777571647152,[6400|0|4100|0]
135,13500,0.7313932776451111,0.7231531739234924,0.0,-1.1862890720367432,-0.4762435555458069,-0.5749882459640503,4.046875,0,F1,7.6,90,450.0,4.878059552072689,[6400|0|4200|0]
136,13600,0.731200098991394,0.7230187058448792,0.0,-1.1643306016921997,-0.4229097664356231,-0.5909678339958191,4.0546875,0,F1,7.6,90,450.0,4.8782949233887365,[6400|0|4300|0]
137,13700,0.7313656806945801,0.7229642271995544,0.0,-1.1419811248779297,-0.3873853385448456,-0.6057069897651672,4.0546875,0,F1,7.6,90,450.0,4.878469236966023,[6400|0|4400|0]
138,13800,0.7310808897018433,0.7232111692428589,0.0,-1.1335904598236084,-0.3423312306404114,-0.6196388602256775,4.05859375,0,F1,7.6,90,450.0,4.878846180306985,[6400|0|4500|0]
139,13900,0.7314035296440125,0.7228999733924866,0.0,-1.114561676979065,-0.3212521374225616,-0.6379902958869934,4.05859375,0,F1,7.6,90,450.0,4.879294442941577,[6400|0|4600|0]
140,14000,0.730941653251648,0.7230737209320068,0.0,-1.1121330261230469,-0.2916881442070007,-0.6694130897521973,4.05859375,0,F1,7.6,90,450.0,4.879787918381,[6400|0|4700|0]
141,14100,0.7310472726821899,0.723014771938324,0.0,-1.0974781513214111,-0.273816704750061,-0.6700601577758789,4.05859375,0,F1,7.6,90,450.0,4.879908874769687,[6400|0|4800|0]
142,14200,0.7311316728591919,0.7227733731269836,0.0,-1.0808448791503906,-0.2674355208873749,-0.6830054521560669,4.06640625,0,F1,7.6,90,450.0,4.880164602703231,[6400|0|4900|0]
143,14300,0.7312856912612915,0.7232328653335571,0.0,-1.0878230333328247,-0.2635143399238586,-0.6857877969741821,4.06640625,0,F1,7.6,90,450.0,4.88064922085816,[6400|0|5000|0]
144,14400,0.7311716675758362,0.7229016423225403,0.0,-1.077481389045715,-0.2562012672424316,-0.6987881064414978,4.06640625,0,F1,7.6,90,450.0,4.8809995208494135,[6400|0|5100|0]
145,14500,0.7309787273406982,0.7229940891265869,0.0,-1.0831316709518433,-0.2491151541471481,-0.6837970018386841,4.06640625,0,F1,7.6,90,450.0,4.881213465575718,[6400|0|5200|0]
146,14600,0.7309058308601379,0.7228260636329651,0.0,-1.0818021297454834,-0.2462663501501083,-0.7099102139472961,4.0703125,0,F1,7.6,90,450.0,4.881396622512209,[6400|0|5300|0]
147,14700,0.7311906814575195,0.7229036092758179,0.0,-1.0788307189941406,-0.249143972992897,-0.713559627532959,4.0703125,0,F1,7.6,90,450.0,4.881691839702688,[6400|0|5400|0]
148,14800,0.7307657599449158,0.7231427431106567,0.0,-1.085852861404419,-0.2337909042835235,-0.7078499794006348,4.0703125,0,F1,7.6,90,450.0,4.882179428958966,[6400|0|5500|0]
149,14900,0.7312379479408264,0.7230331301689148,0.0,-1.08493173122406,-0.2488163858652115,-0.7022184133529663,4.0703125,0,F1,7.6,90,450.0,4.882664172706197,[6400|0|5600|0]
150,15000,0.7310303449630737,0.723087728023529,0.0,-1.0900760889053345,-0.2370235621929168,-0.7181152701377869,4.0703125,0,F1,7.6,90,450.0,4.88287883505059,[6400|0|5700|0]
151,15100,0.7310572862625122,0.7229837775230408,0.0,-1.061340570449829,-0.2443495839834213,-0.707528293132782,4.07421875,0,F1,7.6,90,450.0,4.8829862200596335,[6400|0|5800|0]
152,15200,0.7309180498123169,0.7228720188140869,0.0,-1.0624949932098389,-0.2449863851070404,-0.7032997012138367,4.07421875,0,F1,7.6,90,450.0,4.883164760805935,[6400|0|5900|0]
153,15300,0.7310555577278137,0.7227461934089661,0.0,-1.0582094192504885,-0.2510057985782623,-0.7220234274864197,4.07421875,0,F1,7.6,90,450.0,4.883351148733114,[6400|0|6000|0]
154,15400,0.7312600612640381,0.7226921916007996,0.0,-1.0590672492980957,-0.2630042433738708,-0.7184796333312988,4.07421875,0,F1,7.6,90,450.0,4.883562662069841,[6400|0|6100|0]
155,15500,0.7308929562568665,0.7229352593421936,0.0,-1.0627614259719849,-0.2548811435699463,-0.7076718211174011,4.07421875,0,F1,7.6,90,450.0,4.884002943812816,[6400|0|6200|0]
156,15600,0.7311615943908691,0.7229201793670654,0.0,-1.0585063695907593,-0.2664059102535248,-0.7029998302459717,4.08203125,0,F1,7.6,90,450.0,4.884272004870367,[6400|0|6300|0]
157,15700,0.7311420440673828,0.7229495048522949,0.0,-1.0670231580734253,-0.2533060908317566,-0.7160221934318542,4.08203125,0,F1,7.6,90,450.0,4.884307249717257,[6400|0|6400|0]
158,15800,0.7311112284660339,0.7230580449104309,0.0,-1.0742579698562622,-0.2538139820098877,-0.728354811668396,4.08203125,0,F1,7.6,90,450.0,4.884420079436333,[6400|0|6500|0]
159,15900,0.7310892939567566,0.7230622172355652,0.0,-1.0690165758132937,-0.2512933015823364,-0.7206141352653503,4.08203125,0,F1,7.6,90,450.0,4.884442407243978,[6400|0|6600|0]
160,16000,0.7310611009597778,0.7228333950042725,0.0,-1.071243405342102,-0.2529322206974029,-0.7304673194885254,4.08203125,0,F1,7.6,90,450.0,4.884672959751256,[6400|0|6700|0]
161,16100,0.731028139591217,0.7229651808738708,0.0,-1.0807876586914062,-0.2529665231704712,-0.753125786781311,4.08203125,0,F1,7.6,90,450.0,4.884808805131168,[6400|0|6800|0]
162,16200,0.7311692833900452,0.7230181694030762,0.0,-1.0806241035461426,-0.2458647638559341,-0.7353562116622925,4.08203125,0,F1,7.6,90,450.0,4.884959567713312,[6400|0|6900|0]
163,16300,0.7310649156570435,0.7227211594581604,0.0,-1.0749592781066897,-0.2452276349067688,-0.7192764282226562,4.0859375,0,F1,7.6,90,450.0,4.885274381199476,[6400|0|7000|0]
164,16400,0.7311118841171265,0.7232010364532471,0.0,-1.0909942388534546,-0.2535264790058136,-0.6746981143951416,4.0859375,0,F1,7.6,90,450.0,4.885756551259368,[6400|0|7100|0]
165,16500,0.7313922643661499,0.7233217358589172,0.0,-1.093940258026123,-0.2629877924919128,-0.6550881266593933,4.0859375,0,F1,7.6,90,450.0,4.886061807595209,[6400|0|7200|0]
166,16600,0.7312824726104736,0.7232387661933899,0.0,-1.0963549613952637,-0.2521748542785644,-0.6521340608596802,4.0859375,0,F1,7.6,90,450.0,4.886199423709862,[6400|0|7300|0]
167,16700,0.7308085560798645,0.7230483889579773,0.0,-1.091825008392334,-0.2345446050167083,-0.6512896418571472,4.0859375,0,F1,7.6,90,450.0,4.886710149046759,[6400|0|7400|0]
168,16800,0.7309691905975342,0.7232675552368164,0.0,-1.0938827991485596,-0.2401476502418518,-0.6506301760673523,4.0859375,0,F1,7.6,90,450.0,4.886981879254956,[6400|0|7500|0]
169,16900,0.7309992909431458,0.723124623298645,0.0,-1.0894038677215576,-0.2453411817550659,-0.6529865860939026,4.08984375,0,F1,7.6,90,450.0,4.887127946259291,[6400|0|7600|0]
170,17000,0.7311944961547852,0.7233659029006958,0.0,-1.0971051454544067,-0.2522543966770172,-0.6757233738899231,4.0859375,0,F1,7.6,90,450.0,4.887438302378961,[6400|0|7700|0]
171,17100,0.7311966419219971,0.723530113697052,0.0,-1.094638466835022,-0.2567165791988373,-0.690039873123169,4.08984375,0,F1,7.6,90,450.0,4.887602527194251,[6400|0|7800|0]
172,17200,0.7308332324028015,0.7231993079185486,0.0,-1.0841946601867676,-0.2474420219659805,-0.6655571460723877,4.08984375,0,F1,7.6,90,450.0,4.888093952612532,[6400|0|7900|0]
173,17300,0.7311148047447205,0.7231234908103943,0.0,-1.085411548614502,-0.2574498951435089,-0.6655183434486389,4.08984375,0,F1,7.6,90,450.0,4.888385553740141,[6400|0|8000|0]
174,17400,0.731295645236969,0.7230571508407593,0.0,-1.08613121509552,-0.2703160047531128,-0.6755194664001465,4.08984375,0,F1,7.6,90,450.0,4.888578178440551,[6400|0|8100|0]
175,17500,0.7311463356018066,0.7228497266769409,0.0,-1.0899860858917236,-0.2613972127437591,-0.7170841097831726,4.08984375,0,F1,7.6,90,450.0,4.888833752599824,[6400|0|8200|0]
176,17600,0.7309612035751343,0.7232837080955505,0.0,-1.1018397808074951,-0.2621545791625976,-0.6704822182655334,4.08984375,0,F1,7.6,90,450.0,4.889305572204121,[6400|0|8300|0]
177,17700,0.7309653162956238,0.7234668135643005,0.0,-1.1023651361465454,-0.263864666223526,-0.6704152822494507,4.09765625,0,F1,7.6,90,450.0,4.889488723854826,[6400|0|8400|0]
178,17800,0.7311500906944275,0.7231807112693787,0.0,-1.0930235385894775,-0.2708809077739715,-0.6728272438049316,4.09765625,0,F1,7.6,90,450.0,4.889829305859067,[6400|0|8500|0]
179,17900,0.7310576438903809,0.723206639289856,0.0,-1.088394284248352,-0.2613841593265533,-0.659978449344635,4.09765625,0,F1,7.6,90,450.0,4.889925319784225,[6400|0|8600|0]
180,18000,0.7311354279518127,0.7233646512031555,0.0,-1.088455080986023,-0.2631990015506744,-0.6531000137329102,4.09765625,0,F1,7.6,90,450.0,4.89010143941674,[6400|0|8700|0]
181,18100,0.7311054468154907,0.7233313918113708,0.0,-1.0876930952072144,-0.2615355253219604,-0.6408758163452148,4.09765625,0,F1,7.6,90,450.0,4.890146217264801,[6400|0|8800|0]
182,18200,0.7310620546340942,0.723316490650177,0.0,-1.0879158973693848,-0.2577528059482574,-0.644913375377655,4.09765625,0,F1,7.6,90,450.0,4.890192096737458,[6400|0|8900|0]
183,18300,0.7308085560798645,0.7233747243881226,0.0,-1.0838390588760376,-0.2523099184036255,-0.6430539488792419,4.09765625,0,F1,7.6,90,450.0,4.890452198035478,[6400|0|9000|0]
184,18401,0.7312376499176025,0.7231482267379761,0.0,-1.076712727546692,-0.2546816170215606,-0.6395138502120972,4.1015625,0,F1,7.6,90,450.0,4.890937401814427,[6400|0|9100|0]
185,18501,0.7308191061019897,0.7232341766357422,0.0,-1.0763452053070068,-0.2428884208202362,-0.6429110765457153,4.09765625,0,F1,7.6,90,450.0,4.89136467960523,[6400|0|9200|0]
186,18601,0.7310162782669067,0.7229323387145996,0.0,-1.0638784170150757,-0.242463931441307,-0.6483045816421509,4.1015625,0,F1,7.6,90,450.0,4.891725211147897,[6400|0|9300|0]
187,18701,0.7312368750572205,0.7232053279876709,0.0,-1.0757241249084473,-0.2479010671377182,-0.6477737426757812,4.1015625,0,F1,7.6,90,450.0,4.892076189903819,[6400|0|9400|0]
188,18801,0.7309406399726868,0.7232243418693542,0.0,-1.0758455991744995,-0.2415551543235778,-0.6504387259483337,4.1015625,0,F1,7.6,90,450.0,4.892373034565225,[6400|0|9500|0]
189,18901,0.7311722636222839,0.7232805490493774,0.0,-1.0802266597747805,-0.2495088577270507,-0.6478318572044373,4.1015625,0,F1,7.6,90,450.0,4.892611380452832,[6400|0|9600|0]
190,19001,0.7311313152313232,0.7230504155158997,0.0,-1.074129581451416,-0.2401367574930191,-0.6719480156898499,4.1015625,0,F1,7.6,90,450.0,4.892845128637752,[6400|0|9700|0]
191,19101,0.7310861349105835,0.723455548286438,0.0,-1.083216428756714,-0.243907481431961,-0.6631432175636292,4.1015625,0,F1,7.6,90,450.0,4.893252772873754,[6400|0|9800|0]
192,19202,0.7309039831161499,0.72325599193573,0.0,-1.0816935300827026,-0.2324733138084411,-0.6670992374420166,4.1015625,0,F1,7.6,90,450.0,4.893522961721272,[6400|0|9900|0]
193,19302,0.7307883501052856,0.7230144739151001,0.0,-1.0733590126037598,-0.2304659634828567,-0.6513022780418396,4.1015625,0,F1,7.6,90,450.0,4.893790733914546,[6400|0|10000|0]
194,19401,0.7308417558670044,0.7232867479324341,0.0,-1.0754748582839966,-0.2367224693298339,-0.659792423248291,4.10546875,0,F1,7.6,90,450.0,4.894068196192883,[6400|0|10100|0]
195,19500,0.7311445474624634,0.7233330011367798,0.0,-1.077852487564087,-0.2446260452270507,-0.6661837100982666,4.1015625,0,F1,7.6,90,450.0,4.894374500141915,[6400|0|10200|0]
196,19600,0.7313154339790344,0.7234711647033691,0.0,-1.080049753189087,-0.24198779463768,-0.6734389066696167,4.10546875,0,F1,7.6,90,450.0,4.894594253122961,[6400|0|10300|0]
197,19700,0.7310805916786194,0.7231290340423584,0.0,-1.0777029991149902,-0.2349255979061126,-0.6849830150604248,4.10546875,0,F1,7.6,90,450.0,4.895009228176751,[6400|0|10400|0]
198,19800,0.7312787175178528,0.7231138348579407,0.0,-1.0798487663269043,-0.2377377450466156,-0.6969096660614014,4.10546875,0,F1,7.6,90,450.0,4.895207936161943,[6400|0|10500|0]
199,19900,0.7309602499008179,0.7230885624885559,0.0,-1.0787720680236816,-0.2259143590927124,-0.7068282961845398,4.10546875,0,F1,7.6,90,450.0,4.895527404964417,[6400|0|10600|0]
200,20000,0.7311563491821289,0.7232977747917175,0.0,-1.0831315517425537,-0.2362972944974899,-0.6921087503433228,4.10546875,0,F1,7.6,90,450.0,4.895814153488258,[6400|0|10700|0]
201,20100,0.7310774326324463,0.723281741142273,0.0,-1.0803403854370115,-0.231679230928421,-0.6911050081253052,4.10546875,0,F1,7.6,90,450.0,4.895894682363379,[6400|0|10800|0]
202,20200,0.7311493158340454,0.7231367230415344,0.0,-1.0753204822540283,-0.2442353516817093,-0.6839385032653809,4.10546875,0,F1,7.6,90,450.0,4.8960565386088994,[6400|0|10900|0]
203,20300,0.7312488555908203,0.7232754230499268,0.0,-1.0832070112228394,-0.2480916380882263,-0.692771315574646,4.10546875,0,F1,7.6,90,450.0,4.896227260181956,[6400|0|11000|0]
204,20400,0.7309872508049011,0.7233720421791077,0.0,-1.0806450843811035,-0.2372142672538757,-0.6765720844268799,4.10546875,0,F1,7.6,90,450.0,4.896506137072607,[6400|0|11100|0]
205,20500,0.7309284210205078,0.7232385873794556,0.0,-1.086212396621704,-0.2405325174331665,-0.6696680188179016,4.10546875,0,F1,7.6,90,450.0,4.896651983317269,[6400|0|11200|0]
206,20600,0.7310735583305359,0.7229709029197693,0.0,-1.0846190452575684,-0.2457344233989715,-0.6723185181617737,4.11328125,0,F1,7.6,90,450.0,4.89695648259267,[6400|0|11300|0]
207,20700,0.7308666110038757,0.7233060598373413,0.0,-1.0946179628372192,-0.2355338037014007,-0.6712472438812256,4.11328125,0,F1,7.6,90,450.0,4.897350382777245,[6400|0|11400|0]
208,20800,0.731261134147644,0.7232438325881958,0.0,-1.098183274269104,-0.2457192242145538,-0.6971580982208252,4.11328125,0,F1,7.6,90,450.0,4.897749783254842,[6400|0|11500|0]
209,20900,0.7312444448471069,0.7232879400253296,0.0,-1.0970948934555054,-0.2463331669569015,-0.7006648778915405,4.11328125,0,F1,7.6,90,450.0,4.897796942546217,[6400|0|11600|0]
210,21000,0.7311971187591553,0.7231945395469666,0.0,-1.0974384546279907,-0.2464540004730224,-0.6833131909370422,4.10546875,0,F1,7.6,90,450.0,4.897901648840007,[6400|0|11700|0]
211,21100,0.7314203977584839,0.7232234477996826,0.0,-1.103251814842224,-0.2533746659755707,-0.6732373833656311,4.11328125,0,F1,7.6,90,450.0,4.898126791458399,[6400|0|11800|0]
212,21200,0.7310726046562195,0.72305828332901,0.0,-1.0955132246017456,-0.2484991550445556,-0.6615300178527832,4.11328125,0,F1,7.6,90,450.0,4.898511810086981,[6400|0|11900|0]
213,21300,0.7310682535171509,0.7231734991073608,0.0,-1.0974881649017334,-0.2498543113470077,-0.684601902961731,4.11328125,0,F1,7.6,90,450.0,4.898627107996728,[6400|0|12000|0]
214,21400,0.7309865355491638,0.7232503294944763,0.0,-1.0960243940353394,-0.2507655620574951,-0.6654723286628723,4.11328125,0,F1,7.6,90,450.0,4.898739271870931,[6400|0|12100|0]
215,21500,0.7308797836303711,0.7231031656265259,0.0,-1.0888148546218872,-0.2489432543516159,-0.6722103953361511,4.11328125,0,F1,7.6,90,450.0,4.898921077195925,[6400|0|12200|0]
216,21600,0.7310889363288879,0.7235382795333862,0.0,-1.100863337516785,-0.2550195455551147,-0.6677258014678955,4.11328125,0,F1,7.6,90,450.0,4.899403849360864,[6400|0|12300|0]
217,21700,0.7308862805366516,0.7232499718666077,0.0,-1.088931918144226,-0.2422055155038833,-0.661212146282196,4.1171875,0,F1,7.6,90,450.0,4.899756256342704,[6400|0|12400|0]
218,21800,0.7313920259475708,0.7230291962623596,0.0,-1.0853925943374634,-0.2592941522598266,-0.6793049573898315,4.11328125,0,F1,7.6,90,450.0,4.900308089911905,[6400|0|12500|0]
219,21900,0.7314483523368835,0.7231833338737488,0.0,-1.0915350914001465,-0.2605410814285278,-0.6809675693511963,4.1171875,0,F1,7.6,90,450.0,4.900472196783723,[6400|0|12600|0]
220,22000,0.7314690947532654,0.7232161164283752,0.0,-1.093410849571228,-0.2595046162605285,-0.6405637860298157,4.11328125,0,F1,7.6,90,450.0,4.900510990387902,[6400|0|12700|0]
221,22100,0.7311180233955383,0.7230847477912903,0.0,-1.090917706489563,-0.2554464936256408,-0.647600531578064,4.1171875,0,F1,7.6,90,450.0,4.90088583544526,[6400|0|12800|0]
222,22200,0.7310555577278137,0.7235099077224731,0.0,-1.1017800569534302,-0.2602668106555938,-0.6834651827812195,4.1171875,0,F1,7.6,90,450.0,4.901315559690245,[6400|0|12900|0]
223,22300,0.7312923669815063,0.7231787443161011,0.0,-1.088801622390747,-0.2664884626865387,-0.6828386783599854,4.1171875,0,F1,7.6,90,450.0,4.901722681077984,[6400|0|13000|0]
224,22400,0.731074869632721,0.7231147885322571,0.0,-1.083223819732666,-0.258048266172409,-0.6736305356025696,4.1171875,0,F1,7.6,90,450.0,4.901949386699916,[6400|0|13100|0]
225,22500,0.7308777570724487,0.7233798503875732,0.0,-1.090698003768921,-0.2547173202037811,-0.6780281662940979,4.1171875,0,F1,7.6,90,450.0,4.902279706467052,[6400|0|13200|0]
226,22600,0.7313857674598694,0.7232158780097961,0.0,-1.0908507108688354,-0.2709235846996307,-0.6585128307342529,4.1171875,0,F1,7.6,90,450.0,4.902813524314638,[6400|0|13300|0]
227,22700,0.7311631441116333,0.7230015993118286,0.0,-1.0908710956573486,-0.2658754885196686,-0.6460122466087341,4.1171875,0,F1,7.6,90,450.0,4.903122517058214,[6400|0|13400|0]
228,22800,0.7310647368431091,0.7231996059417725,0.0,-1.0943212509155271,-0.2655070126056671,-0.638920783996582,4.1171875,0,F1,7.6,90,450.0,4.903343629283113,[6400|0|13500|0]
229,22900,0.7312352657318115,0.7232480049133301,0.0,-1.0934271812438965,-0.2673740684986114,-0.6637992858886719,4.1171875,0,F1,7.6,90,450.0,4.903520893386444,[6400|0|13600|0]
230,23000,0.731244683265686,0.7232629656791687,0.0,-1.0929948091506958,-0.2650893628597259,-0.6669996380805969,4.1171875,0,F1,7.6,90,450.0,4.9035385714649244,[6400|0|13700|0]
231,23100,0.7311198115348816,0.72325599193573,0.0,-1.0832968950271606,-0.2570697665214538,-0.6582111716270447,4.1171875,0,F1,7.6,90,450.0,4.903663637776342,[6400|0|13800|0]
232,23200,0.7312659025192261,0.7232477068901062,0.0,-1.0864052772521973,-0.2675910294055938,-0.6798810958862305,4.1171875,0,F1,7.6,90,450.0,4.9038099635009695,[6400|0|13900|0]
233,23300,0.7311981916427612,0.723319411277771,0.0,-1.092475414276123,-0.268052339553833,-0.6689159870147705,4.1171875,0,F1,7.6,90,450.0,4.9039085854153805,[6400|0|14000|0]
234,23400,0.7313357591629028,0.7231079339981079,0.0,-1.0883508920669556,-0.2733751833438873,-0.6912956237792969,4.1171875,0,F1,7.6,90,450.0,4.904160869902442,[6400|0|14100|0]
235,23500,0.7309621572494507,0.7231302261352539,0.0,-1.0773711204528809,-0.2619906663894653,-0.6901059150695801,4.1171875,0,F1,7.6,90,450.0,4.904535136290344,[6400|0|14200|0]
236,23600,0.7312638759613037,0.7233506441116333,0.0,-1.0826387405395508,-0.2630917727947235,-0.6828608512878418,4.12109375,0,F1,7.6,90,450.0,4.904908791566493,[6400|0|14300|0]
237,23700,0.7313137054443359,0.7228128910064697,0.0,-1.066490650177002,-0.2614082396030426,-0.6842564940452576,4.12109375,0,F1,7.6,90,450.0,4.905448848396366,[6400|0|14400|0]
238,23800,0.7311718463897705,0.7232697010040283,0.0,-1.0811177492141724,-0.2449228316545486,-0.6589432954788208,4.12109375,0,F1,7.6,90,450.0,4.905927178162565,[6400|0|14500|0]
239,23900,0.7311112284660339,0.7234706878662109,0.0,-1.0843713283538818,-0.2431957870721817,-0.6680986285209656,4.12109375,0,F1,7.6,90,450.0,4.90613710732073,[6400|0|14600|0]
240,24000,0.7312179803848267,0.7232733964920044,0.0,-1.081214189529419,-0.2473887503147125,-0.6607728004455566,4.1171875,0,F1,7.6,90,450.0,4.906361428203624,[6400|0|14700|0]
241,24100,0.7312815189361572,0.7233697772026062,0.0,-1.0844403505325315,-0.2513047754764557,-0.654485821723938,4.12109375,0,F1,7.6,90,450.0,4.906476868183186,[6400|0|14800|0]
242,24200,0.7313626408576965,0.7233206033706665,0.0,-1.0840083360671997,-0.2506422698497772,-0.6531901359558105,4.12109375,0,F1,7.6,90,450.0,4.906571730356374,[6400|0|14900|0]
243,24300,0.7315049767494202,0.7232604622840881,0.0,-1.085955023765564,-0.2525775134563446,-0.6592736840248108,4.12109375,0,F1,7.6,90,450.0,4.906726250440401,[6400|0|15000|0]
244,24400,0.7311744689941406,0.7231220006942749,0.0,-1.0818705558776855,-0.2380657792091369,-0.6716911792755127,4.12109375,0,F1,7.6,90,450.0,4.907084589648629,[6400|0|15100|0]
245,24500,0.7312961220741272,0.7233365774154663,0.0,-1.0874203443527222,-0.2381854355335235,-0.6514807343482971,4.12109375,0,F1,7.6,90,450.0,4.907331252659937,[6400|0|15200|0]
246,24600,0.7310159206390381,0.7234743237495422,0.0,-1.0910847187042236,-0.2343962639570236,-0.668588399887085,4.12109375,0,F1,7.6,90,450.0,4.907643481577203,[6400|0|15300|0]
247,24700,0.73097825050354,0.7233739495277405,0.0,-1.0871639251708984,-0.2349913120269775,-0.6818759441375732,4.12109375,0,F1,7.6,90,450.0,4.907750691761005,[6400|0|15400|0]
248,24800,0.7311980724334717,0.7232621312141418,0.0,-1.0843279361724854,-0.240041971206665,-0.6560039520263672,4.12109375,0,F1,7.6,90,450.0,4.907997319042819,[6400|0|15500|0]
249,24900,0.7308962941169739,0.7231758236885071,0.0,-1.0827665328979492,-0.2341391891241073,-0.6762540936470032,4.12109375,0,F1,7.6,90,450.0,4.908311196632477,[6400|0|15600|0]
250,25000,0.7311787605285645,0.7231712341308594,0.0,-1.0852776765823364,-0.2425772696733474,-0.6643481254577637,4.12109375,0,F1,7.6,90,450.0,4.9085937003275255,[6400|0|15700|0]
251,25100,0.7310868501663208,0.7230725288391113,0.0,-1.0787968635559082,-0.2409874498844146,-0.6499260067939758,4.12109375,0,F1,7.6,90,450.0,4.908728571559843,[6400|0|15800|0]
252,25200,0.7309536337852478,0.7232574224472046,0.0,-1.0849002599716189,-0.2360514551401138,-0.6445391178131104,4.12109375,0,F1,7.6,90,450.0,4.908956458045839,[6400|0|15900|0]
253,25300,0.7312901020050049,0.7232310175895691,0.0,-1.091008186340332,-0.2478779256343841,-0.6376767754554749,4.12109375,0,F1,7.6,90,450.0,4.90929396075607,[6400|0|16000|0]
254,25400,0.7312111854553223,0.7232876420021057,0.0,-1.0929399728775024,-0.2452521473169326,-0.6408003568649292,4.12890625,0,F1,7.6,90,450.0,4.909391090287671,[6400|0|16100|0]
255,25500,0.7309716939926147,0.722968578338623,0.0,-1.0860917568206787,-0.2486277371644973,-0.6439236402511597,4.12109375,0,F1,7.6,90,450.0,4.909790036126181,[6400|0|16200|0]
256,25600,0.7311621904373169,0.7234261631965637,0.0,-1.0988904237747192,-0.257513552904129,-0.6544596552848816,4.12890625,0,F1,7.6,90,450.0,4.910285690035336,[6400|0|16300|0]
257,25700,0.7310988903045654,0.7230187654495239,0.0,-1.0924174785614014,-0.2565552592277527,-0.6623228192329407,4.12890625,0,F1,7.6,90,450.0,4.910697976138788,[6400|0|16400|0]
258,25800,0.7313259243965149,0.7231488227844238,0.0,-1.0996373891830444,-0.2555573880672455,-0.6599066257476807,4.12890625,0,F1,7.6,90,450.0,4.9109596235910375,[6400|0|16500|0]
259,25900,0.7313422560691833,0.7232182621955872,0.0,-1.1021090745925903,-0.2538861036300659,-0.6740325689315796,4.12890625,0,F1,7.6,90,450.0,4.911030957701776,[6400|0|16600|0]
260,26000,0.7311079502105713,0.7233050465583801,0.0,-1.1063836812973022,-0.2547503113746643,-0.6748393177986145,4.12890625,0,F1,7.6,90,450.0,4.911280819185413,[6400|0|16700|0]
261,26100,0.7310105562210083,0.7230274081230164,0.0,-1.1032938957214355,-0.262183666229248,-0.6769742369651794,4.12890625,0,F1,7.6,90,450.0,4.91157504476213,[6400|0|16800|0]
262,26200,0.7310927510261536,0.7232433557510376,0.0,-1.104742169380188,-0.2675440311431885,-0.6663112044334412,4.12890625,0,F1,7.6,90,450.0,4.911806106148002,[6400|0|16900|0]
263,26300,0.7312171459197998,0.723284125328064,0.0,-1.108495593070984,-0.2736040353775024,-0.6589113473892212,4.12890625,0,F1,7.6,90,450.0,4.911937011640538,[6400|0|17000|0]
264,26400,0.7312260270118713,0.7232233285903931,0.0,-1.1104549169540403,-0.2739705741405487,-0.6717442870140076,4.12890625,0,F1,7.6,90,450.0,4.911998453622178,[6400|0|17100|0]
265,26500,0.7312941551208496,0.7229442000389099,0.0,-1.1064854860305786,-0.2734944820404053,-0.6555337309837341,4.12890625,0,F1,7.6,90,450.0,4.912285776067326,[6400|0|17200|0]
266,26600,0.7311113476753235,0.7232840657234192,0.0,-1.1155699491500854,-0.2692117989063263,-0.6618926525115967,4.12890625,0,F1,7.6,90,450.0,4.912671686997006,[6400|0|17300|0]
267,26700,0.7308317422866821,0.7230982184410095,0.0,-1.1076663732528689,-0.2698165476322174,-0.673031210899353,4.12890625,0,F1,7.6,90,450.0,4.913007422586029,[6400|0|17400|0]
268,26800,0.730997622013092,0.7232776880264282,0.0,-1.1154847145080566,-0.282001256942749,-0.6631009578704834,4.12890625,0,F1,7.6,90,450.0,4.913251810424769,[6400|0|17500|0]
269,26900,0.731263279914856,0.7232462167739868,0.0,-1.114926815032959,-0.2850480377674103,-0.6629752516746521,4.12890625,0,F1,7.6,90,450.0,4.913519325957963,[6400|0|17600|0]
270,27000,0.7309037446975708,0.7231570482254028,0.0,-1.1121803522109983,-0.273574948310852,-0.6529784798622131,4.12890625,0,F1,7.6,90,450.0,4.913889753552136,[6400|0|17700|0]
271,27100,0.7312558889389038,0.7234048843383789,0.0,-1.1157275438308716,-0.2822930216789245,-0.6373352408409119,4.12890625,0,F1,7.6,90,450.0,4.914320367422789,[6400|0|17800|0]
272,27200,0.7314003705978394,0.7233956456184387,0.0,-1.11212956905365,-0.2813184559345245,-0.6322413086891174,4.12890625,0,F1,7.6,90,450.0,4.914465144160268,[6400|0|17900|0]
273,27300,0.7310104966163635,0.7232732772827148,0.0,-1.105388879776001,-0.2668989896774292,-0.6469682455062866,4.12890625,0,F1,7.6,90,450.0,4.914873770800392,[6400|0|18000|0]
274,27400,0.7309365272521973,0.7233706116676331,0.0,-1.11095929145813,-0.2678622305393219,-0.6552333235740662,4.12890625,0,F1,7.6,90,450.0,4.914996022382479,[6400|0|18100|0]
275,27500,0.7311034798622131,0.7231159806251526,0.0,-1.1099745035171509,-0.2684435844421386,-0.6592568159103394,4.12890625,0,F1,7.6,90,450.0,4.915300505783973,[6400|0|18200|0]
276,27600,0.7309319972991943,0.723393976688385,0.0,-1.11041259765625,-0.2630536258220672,-0.6596512794494629,4.12890625,0,F1,7.6,90,450.0,4.915627137197943,[6400|0|18300|0]
277,27700,0.7314925789833069,0.7231587767601013,0.0,-1.1038998365402222,-0.2816184461116791,-0.6823821067810059,4.1328125,0,F1,7.6,90,450.0,4.9162350605737295,[6400|0|18400|0]
278,27800,0.731127142906189,0.7232136726379395,0.0,-1.105357646942139,-0.2675195038318634,-0.6630767583847046,4.1328125,0,F1,7.6,90,450.0,4.916604596882992,[6400|0|18500|0]
279,27900,0.7314200401306152,0.723102331161499,0.0,-1.1011154651641846,-0.2690663635730743,-0.6784712076187134,4.1328125,0,F1,7.6,90,450.0,4.916917942871401,[6400|0|18600|0]
280,28000,0.7313682436943054,0.7232605814933777,0.0,-1.1046030521392822,-0.2640395164489746,-0.677566647529602,4.12890625,0,F1,7.6,90,450.0,4.917084454247451,[6400|0|18700|0]
281,28100,0.7313268184661865,0.7231141328811646,0.0,-1.1024818420410156,-0.2640081942081451,-0.6843628287315369,4.1328125,0,F1,7.6,90,450.0,4.917236649009332,[6400|0|18800|0]
282,28200,0.731199324131012,0.7232183814048767,0.0,-1.1040343046188354,-0.2558943033218384,-0.7039082050323486,4.1328125,0,F1,7.6,90,450.0,4.917401338293129,[6400|0|18900|0]
283,28300,0.7312319278717041,0.7235054969787598,0.0,-1.10444176197052,-0.2729043960571289,-0.6621827483177185,4.1328125,0,F1,7.6,90,450.0,4.9176902991151685,[6400|0|19000|0]
284,28400,0.7310384511947632,0.7231443524360657,0.0,-1.0939048528671265,-0.2749038934707641,-0.664198100566864,4.1328125,0,F1,7.6,90,450.0,4.918100004625551,[6400|0|19100|0]
285,28500,0.7312718033790588,0.7232705950737,0.0,-1.0950742959976196,-0.2785638868808746,-0.6611461639404297,4.12890625,0,F1,7.6,90,450.0,4.918365316603179,[6400|0|19200|0]
286,28600,0.7312815189361572,0.72334885597229,0.0,-1.0921907424926758,-0.2774354815483093,-0.6458918452262878,4.1328125,0,F1,7.6,90,450.0,4.9184441782560775,[6400|0|19300|0]
287,28700,0.7314782738685608,0.7232975959777832,0.0,-1.0877231359481812,-0.2761543989181518,-0.6777702569961548,4.1328125,0,F1,7.6,90,450.0,4.918647500882615,[6400|0|19400|0]
288,28800,0.7308520078659058,0.7232531905174255,0.0,-1.0826278924942017,-0.2580398619174957,-0.6665496826171875,4.1328125,0,F1,7.6,90,450.0,4.9192753391985775,[6400|0|19500|0]
289,28900,0.7312030792236328,0.72333163022995,0.0,-1.085638165473938,-0.2612639367580414,-0.6532049775123596,4.1328125,0,F1,7.6,90,450.0,4.919635066715897,[6400|0|19600|0]
290,29000,0.731338620185852,0.7232933640480042,0.0,-1.0841928720474243,-0.2670521736145019,-0.6671211123466492,4.1328125,0,F1,7.6,90,450.0,4.919775905819559,[6400|0|19700|0]
291,29100,0.7309593558311462,0.7230724096298218,0.0,-1.0824686288833618,-0.2541754841804504,-0.6730840802192688,4.1328125,0,F1,7.6,90,450.0,4.920214838964427,[6400|0|19800|0]
292,29200,0.7312917709350586,0.723412811756134,0.0,-1.093969702720642,-0.2620274424552917,-0.6654619574546814,4.1328125,0,F1,7.6,90,450.0,4.920690626111067,[6400|0|19900|0]
293,29300,0.7311269044876099,0.7232946157455444,0.0,-1.088470220565796,-0.2519263029098511,-0.6674171686172485,4.1328125,0,F1,7.6,90,450.0,4.92089348380112,[6400|0|20000|0]
294,29400,0.7310236096382141,0.7232218384742737,0.0,-1.0891045331954956,-0.2448213398456573,-0.6620100140571594,4.1328125,0,F1,7.6,90,450.0,4.921019841852408,[6400|0|20100|0]
295,29500,0.7308500409126282,0.723022997379303,0.0,-1.0860249996185305,-0.2380948364734649,-0.6538901925086975,4.1328125,0,F1,7.6,90,450.0,4.92128378101879,[6400|0|20200|0]
296,29600,0.7313174605369568,0.7234621047973633,0.0,-1.0999853610992432,-0.2485047131776809,-0.6434380412101746,4.1328125,0,F1,7.6,90,450.0,4.921925104985131,[6400|0|20300|0]
297,29700,0.7310757040977478,0.7234193682670593,0.0,-1.0971271991729736,-0.2427265495061874,-0.663625180721283,4.1328125,0,F1,7.6,90,450.0,4.922170609744598,[6400|0|20400|0]
298,29800,0.7311619520187378,0.7233713865280151,0.0,-1.0950007438659668,-0.2413584291934967,-0.6625636219978333,4.1328125,0,F1,7.6,90,450.0,4.922269306001654,[6400|0|20500|0]
299,29900,0.7311952710151672,0.7233501076698303,0.0,-1.090709209442139,-0.242265835404396,-0.6458817720413208,4.1328125,0,F1,7.6,90,450.0,4.922308840105017,[6400|0|20600|0]
300,30000,0.7309350967407227,0.7234241366386414,0.0,-1.0968904495239258,-0.2356923967599868,-0.6481988430023193,4.1328125,0,F1,7.6,90,450.0,4.922579341382844,[6400|0|20700|0]
301,30100,0.7310667634010315,0.7233404517173767,0.0,-1.090273141860962,-0.2429178208112716,-0.6348123550415039,4.1328125,0,F1,7.6,90,450.0,4.922735351880837,[6400|0|20800|0]
302,30200,0.7311347723007202,0.7234378457069397,0.0,-1.0964089632034302,-0.2468698620796203,-0.6549205780029297,4.1328125,0,F1,7.6,90,450.0,4.92285414076769,[6400|0|20900|0]
303,30300,0.7312325835227966,0.7233811616897583,0.0,-1.0945574045181274,-0.2445719093084335,-0.6553345322608948,4.1328125,0,F1,7.6,90,450.0,4.9229671899294205,[6400|0|21000|0]
304,30400,0.7312189936637878,0.7230417728424072,0.0,-1.0836669206619265,-0.2366025447845459,-0.6784051656723022,4.1328125,0,F1,7.6,90,450.0,4.92330685075138,[6400|0|21100|0]
305,30500,0.7314301133155823,0.7233331203460693,0.0,-1.0950140953063965,-0.2404536008834839,-0.6786451935768127,4.1328125,0,F1,7.6,90,450.0,4.923666649132788,[6400|0|21200|0]
306,30600,0.7312040328979492,0.7233728170394897,0.0,-1.0969533920288086,-0.2306606024503708,-0.6796923279762268,4.1328125,0,F1,7.6,90,450.0,4.923896188198539,[6400|0|21300|0]
307,30700,0.7311605215072632,0.7230433821678162,0.0,-1.0846786499023438,-0.2313158214092254,-0.6817051768302917,4.1328125,0,F1,7.6,90,450.0,4.924228484114544,[6400|0|21400|0]
308,30800,0.7313340902328491,0.723426342010498,0.0,-1.096618413925171,-0.2377652823925018,-0.6955257654190063,4.13671875,0,F1,7.6,90,450.0,4.9246489414175,[6400|0|21500|0]
309,30900,0.7310623526573181,0.7232071161270142,0.0,-1.0911866426467896,-0.2310506701469421,-0.6828843951225281,4.1328125,0,F1,7.6,90,450.0,4.924998085081262,[6400|0|21600|0]
310,31000,0.7312942147254944,0.7233679890632629,0.0,-1.1031317710876465,-0.2352453619241714,-0.6924170851707458,4.1328125,0,F1,7.6,90,450.0,4.9252802908931725,[6400|0|21700|0]
311,31100,0.7313606142997742,0.7232856750488281,0.0,-1.1048250198364258,-0.2377778440713882,-0.671217679977417,4.13671875,0,F1,7.6,90,450.0,4.92538604769171,[6400|0|21800|0]
312,31200,0.7311642169952393,0.7235241532325745,0.0,-1.1147891283035278,-0.2373968660831451,-0.6709865927696228,4.1328125,0,F1,7.6,90,450.0,4.925694987403226,[6400|0|21900|0]
313,31300,0.7312878370285034,0.7231360077857971,0.0,-1.104971170425415,-0.2481113523244857,-0.6548199653625488,4.1328125,0,F1,7.6,90,450.0,4.9261023432678925,[6400|0|22000|0]
314,31400,0.7312694191932678,0.7232938408851624,0.0,-1.1093403100967407,-0.2451014518737793,-0.6642197370529175,4.13671875,0,F1,7.6,90,450.0,4.9262612473393,[6400|0|22100|0]
315,31500,0.7313264012336731,0.7232163548469543,0.0,-1.105867862701416,-0.2488383650779724,-0.6845161318778992,4.1328125,0,F1,7.6,90,450.0,4.926357429661199,[6400|0|22200|0]
316,31600,0.7310637831687927,0.7231422662734985,0.0,-1.1014001369476318,-0.2400758266448974,-0.6750578284263611,4.1328125,0,F1,7.6,90,450.0,4.926630298429508,[6400|0|22300|0]
317,31700,0.7310023903846741,0.7230939865112305,0.0,-1.095355749130249,-0.2430915087461471,-0.6821956634521484,4.13671875,0,F1,7.6,90,450.0,4.926708400986358,[6400|0|22400|0]
318,31800,0.7309788465499878,0.7233023047447205,0.0,-1.101873755455017,-0.2455377578735351,-0.6786164045333862,4.13671875,0,F1,7.6,90,450.0,4.926918045443848,[6400|0|22500|0]
319,31900,0.7311084866523743,0.7230827212333679,0.0,-1.0923526287078855,-0.2539329528808594,-0.664514422416687,4.13671875,0,F1,7.6,90,450.0,4.92717304245286,[6400|0|22600|0]
320,32000,0.7312222719192505,0.7232174873352051,0.0,-1.099266529083252,-0.261960357427597,-0.6407111883163452,4.13671875,0,F1,7.6,90,450.0,4.927349419858336,[6400|0|22700|0]
321,32100,0.7313990592956543,0.723166286945343,0.0,-1.0971208810806274,-0.2696800827980041,-0.6663985848426819,4.13671875,0,F1,7.6,90,450.0,4.927533472178011,[6400|0|22800|0]
322,32200,0.7307775616645813,0.7233043313026428,0.0,-1.098782300949097,-0.2533355355262756,-0.662285327911377,4.13671875,0,F1,7.6,90,450.0,4.928170116152311,[6400|0|22900|0]
323,32300,0.7311737537384033,0.7232414484024048,0.0,-1.09768545627594,-0.2655012309551239,-0.6953359246253967,4.13671875,0,F1,7.6,90,450.0,4.928571267518383,[6400|0|23000|0]
324,32400,0.730950653553009,0.7230855822563171,0.0,-1.0910372734069824,-0.255359947681427,-0.6861252784729004,4.13671875,0,F1,7.6,90,450.0,4.928843421791212,[6400|0|23100|0]
325,32500,0.7311549782752991,0.7232018709182739,0.0,-1.0934828519821167,-0.2654604911804199,-0.668586790561676,4.13671875,0,F1,7.6,90,450.0,4.929078521015028,[6400|0|23200|0]
326,32600,0.7307705879211426,0.7233741283416748,0.0,-1.0955650806427002,-0.2614843547344208,-0.6640154123306274,4.13671875,0,F1,7.6,90,450.0,4.929499743716559,[6400|0|23300|0]
327,32700,0.7315917015075684,0.7230739593505859,0.0,-1.089096188545227,-0.279617041349411,-0.6457708477973938,4.13671875,0,F1,7.6,90,450.0,4.9303740028000265,[6400|0|23400|0]
328,32800,0.7315597534179688,0.7233095765113831,0.0,-1.0989196300506592,-0.280276745557785,-0.6631384491920471,4.13671875,0,F1,7.6,90,450.0,4.930611776067849,[6400|0|23500|0]
329,32900,0.7314332723617554,0.7232609391212463,0.0,-1.0970460176467896,-0.2778275310993194,-0.6552625298500061,4.13671875,0,F1,7.6,90,450.0,4.930747286411735,[6400|0|23600|0]
330,33000,0.731201171875,0.7234042882919312,0.0,-1.0995808839797974,-0.2726372480392456,-0.6440533995628357,4.13671875,0,F1,7.6,90,450.0,4.93102008600977,[6400|0|23700|0]
331,33100,0.7311070561408997,0.7236039042472839,0.0,-1.1079084873199463,-0.2711482942104339,-0.6409667134284973,4.13671875,0,F1,7.6,90,450.0,4.931240776519391,[6400|0|23800|0]
332,33200,0.7315499782562256,0.7232420444488525,0.0,-1.0989011526107788,-0.2742110192775726,-0.6501970291137695,4.13671875,0,F1,7.6,90,450.0,4.931812722770332,[6400|0|23900|0]
333,33300,0.7307750582695007,0.7228935956954956,0.0,-1.0849320888519287,-0.2535605728626251,-0.7344438433647156,4.13671875,0,F1,7.6,90,450.0,4.932662380065683,[6400|0|24000|0]
334,33400,0.7309686541557312,0.7235218286514282,0.0,-1.1001166105270386,-0.2545953392982483,-0.6759185791015625,4.13671875,0,F1,7.6,90,450.0,4.933319765807911,[6400|0|24100|0]
335,33500,0.7313045859336853,0.723222017288208,0.0,-1.0971903800964355,-0.2671827971935272,-0.6691526174545288,4.13671875,0,F1,7.6,90,450.0,4.933770029078627,[6400|0|24200|0]
336,33600,0.73057621717453,0.7231931090354919,0.0,-1.098406434059143,-0.2486903518438339,-0.7268414497375488,4.13671875,0,F1,7.6,90,450.0,4.934498971282364,[6400|0|24300|0]
337,33700,0.7305319905281067,0.7232301831245422,0.0,-1.096845030784607,-0.2503879964351654,-0.7219969034194946,4.13671875,0,F1,7.6,90,450.0,4.93455668163094,[6400|0|24400|0]
