,time.ms,stateEstimate.x,stateEstimate.y,stateEstimate.z,stabilizer.roll,stabilizer.pitch,stabilizer.yaw,pm.vbat,drone_id,node_name,wind_speed,global_wind_direction,relative_wind_direction,travel_dist,waiting_time
0,0,1.3031142950057983,-0.3118847608566284,0.0,0.1389687210321426,0.4173418283462524,-3.5123186111450195,4.12890625,2,C1,7.6,90,450.0,0.0,[6200|0|0|0]
1,100,1.3030412197113037,-0.3119575083255768,0.0,0.188581570982933,0.4524296224117279,-3.5048677921295166,4.12890625,2,C1,7.6,90,450.0,0.000103112525446,[6300|0|0|0]
2,200,1.302927017211914,-0.3120180070400238,0.0,0.2229705303907394,0.4619090259075165,-3.4885413646698,4.12890625,2,C1,7.6,90,450.0,0.0002323499245091,[6400|0|0|0]
3,300,1.3029381036758425,-0.3122926950454712,0.0,0.2608578503131866,0.4855056703090668,-3.4890942573547363,4.12890625,2,C1,7.6,90,450.0,0.000507261564894,[6500|0|0|0]
4,400,1.302895426750183,-0.3123736083507538,0.0,0.2820347845554352,0.4986488223075866,-3.472520351409912,4.12890625,2,C1,7.6,90,450.0,0.0005987398844866,[6600|0|0|0]
5,500,1.3031905889511108,-0.3120384514331817,0.0,0.2845045626163482,0.499006062746048,-3.479175090789795,4.12890625,2,C1,7.6,90,450.0,0.0010453391279397,[6700|0|0|0]
6,600,1.3029714822769165,-0.312383770942688,0.0,0.3028756380081177,0.505499005317688,-3.4813501834869385,4.12890625,2,C1,7.6,90,450.0,0.0014543052614058,[6800|0|0|0]
7,700,1.3032457828521729,-0.3121178448200226,0.0,0.2963568568229675,0.5006473064422607,-3.483497381210327,4.12109375,2,C1,7.6,90,450.0,0.001836349117922,[6900|0|0|0]
8,800,1.3029732704162598,-0.3122885823249817,0.0,0.307019293308258,0.5125779509544373,-3.465327024459839,4.12890625,2,C1,7.6,90,450.0,0.002157930092681,[7000|0|0|0]
9,900,1.3028844594955444,-0.3121438920497894,0.0,0.3100388050079345,0.5243685245513916,-3.4711244106292725,4.12890625,2,C1,7.6,90,450.0,0.0023277024560784,[7100|0|0|0]
10,1000,1.3029725551605225,-0.3124523162841797,0.0,0.3228003978729248,0.5282578468322754,-3.481945276260376,4.12890625,2,C1,7.6,90,450.0,0.0026484614848635,[7200|0|0|0]
11,1100,1.3028616905212402,-0.311898797750473,0.0,0.3148354589939117,0.5385935306549072,-3.4833972454071045,4.12890625,2,C1,7.6,90,450.0,0.0032129734292898,[7300|0|0|0]
12,1200,1.3028740882873535,-0.31208536028862,0.0,0.318187266588211,0.5412828326225281,-3.475144386291504,4.12109375,2,C1,7.6,90,450.0,0.0033999474522033,[7400|0|0|0]
13,1300,1.3030180931091309,-0.3120228946208954,0.0,0.3137080669403076,0.5347034335136414,-3.4706802368164062,4.12890625,2,C1,7.6,90,450.0,0.0035569167114212,[7500|0|0|0]
14,1400,1.3025791645050049,-0.3125275373458862,0.0,0.4459667503833771,0.6181361675262451,-3.474541664123535,4.12890625,2,C1,7.6,90,450.0,0.0042257385108611,[7600|0|0|0]
15,1500,1.303067326545715,-0.3122379779815674,0.0,0.4135939478874206,0.5888084769248962,-3.4765028953552246,4.12890625,2,C1,7.6,90,450.0,0.0047933182880335,[7700|0|0|0]
16,1600,1.3027875423431396,-0.3122386336326599,0.0,0.3937298655509949,0.5795759558677673,-3.4906327724456787,4.12890625,2,C1,7.6,90,450.0,0.0050731032588399,[7800|0|0|0]
17,1700,1.303039789199829,-0.3120311796665191,0.0,0.3701742887496948,0.5683981776237488,-3.482199192047119,4.12109375,2,C1,7.6,90,450.0,0.0053997002961462,[7900|0|0|0]
18,1800,1.2954059839248655,-0.321972131729126,0.0,0.5614193081855774,0.6798935532569885,-3.5273637771606445,4.12890625,2,C1,7.6,90,450.0,0.0179335548862997,[8000|0|0|0]
19,1900,1.3027845621109009,-0.312029093503952,0.0,0.3457997441291809,0.5694555044174194,-3.512899398803711,4.12890625,2,C1,7.6,90,450.0,0.030315292453972,[8100|0|0|0]
20,2000,1.3033175468444824,-0.3125722706317901,0.0,0.3393893241882324,0.5555117130279541,-3.523625612258911,4.12890625,2,C1,7.6,90,450.0,0.0310762879325639,[8200|0|0|0]
21,2100,1.294509768486023,-0.3221651315689087,0.0,0.5750824809074402,0.7148616313934326,-3.527698278427124,4.12890625,2,C1,7.6,90,450.0,0.0440993421277457,[8300|0|0|0]
22,2200,1.2944412231445312,-0.3219272792339325,0.0,0.538799524307251,0.686484158039093,-3.509306192398072,4.12109375,2,C1,7.6,90,450.0,0.0443468743420005,[8400|0|0|0]
23,2300,1.3029147386550903,-0.3122337460517883,0.0,0.2025687098503112,0.4680977165699005,-3.497844219207764,4.12890625,2,C1,7.6,90,450.0,0.0572218520375546,[8500|0|0|0]
24,2400,1.2947324514389038,-0.3221094310283661,0.0,0.494913786649704,0.6500403881072998,-3.5033397674560547,4.12890625,2,C1,7.6,90,450.0,0.0700467878208158,[8600|0|0|0]
25,2500,1.2946010828018188,-0.3220114409923553,0.0,0.4808957278728485,0.6490475535392761,-3.5169801712036133,4.12890625,2,C1,7.6,90,450.0,0.0702106773139719,[8700|0|0|0]
26,2600,1.294627070426941,-0.32194784283638,0.0,0.4760089814662933,0.643637478351593,-3.4929206371307373,4.12890625,2,C1,7.6,90,450.0,0.0702793801676458,[8800|0|0|0]
27,2700,1.294605374336243,-0.321952611207962,0.0,0.5073428153991699,0.654869794845581,-3.518593072891236,4.12109375,2,C1,7.6,90,450.0,0.0703015940758819,[8900|0|0|0]
28,2800,1.2947536706924438,-0.3221073150634765,0.0,0.5396117568016052,0.6743045449256897,-3.528951406478882,4.12890625,2,C1,7.6,90,450.0,0.0705158954808552,[9000|0|0|0]
29,2900,1.2953659296035769,-0.3217245936393738,0.0,0.5758712887763977,0.6977764964103699,-3.5381577014923096,4.12890625,2,C1,7.6,90,450.0,0.0712379319499681,[9100|0|0|0]
30,3000,1.2954158782958984,-0.3220391273498535,0.0,0.5973913073539734,0.7039548754692078,-3.530468225479126,4.12890625,2,C1,7.6,90,450.0,0.0715564069519585,[9200|0|0|0]
31,3101,1.2952048778533936,-0.3218129277229309,0.0,0.6064717173576355,0.7242202162742615,-3.535322904586792,4.12890625,2,C1,7.6,90,450.0,0.0718657408459262,[9300|0|0|0]
32,3200,1.295592188835144,-0.3216418027877807,0.0,0.4574213325977325,0.607719898223877,-3.515695095062256,4.12890625,2,C1,7.6,90,450.0,0.0722891715250399,[9400|0|0|0]
33,3300,1.295398831367493,-0.3213724195957184,0.0,0.4769374132156372,0.6290881037712097,-3.522519826889038,4.12890625,2,C1,7.6,90,450.0,0.07262076527417,[9500|0|0|0]
34,3401,1.2955838441848757,-0.3218488693237304,0.0,0.5081604719161987,0.6323309540748596,-3.518944501876831,4.12890625,2,C1,7.6,90,450.0,0.0731318759137762,[9600|0|0|0]
35,3501,1.295538067817688,-0.3217098414897918,0.0,0.5110379457473755,0.6317992806434631,-3.523778915405273,4.12890625,2,C1,7.6,90,450.0,0.0732782460418849,[9700|0|0|0]
36,3600,1.2952016592025757,-0.3216307163238525,0.0,0.5364092588424683,0.653832197189331,-3.5125672817230225,4.12890625,2,C1,7.6,90,450.0,0.0736238347399158,[9800|0|0|0]
37,3701,1.29558527469635,-0.3217098712921142,0.0,0.5492739081382751,0.6464047431945801,-3.493328332901001,4.12109375,2,C1,7.6,90,450.0,0.0740155315053662,[9900|0|0|0]
38,3801,1.2953695058822632,-0.3215540945529938,0.0,0.5484917163848877,0.6555377244949341,-3.478494882583618,4.12890625,2,C1,7.6,90,450.0,0.0742816566142595,[10000|0|0|0]
39,3901,1.303755521774292,-0.3123597204685211,0.0,0.3639785349369049,0.5346012115478516,-3.469007968902588,4.12890625,2,C1,7.6,90,450.0,0.086726003818777,[10100|0|0|0]
40,4002,1.2954870462417605,-0.3218776881694793,0.0,0.5633289217948914,0.649639368057251,-3.4834721088409424,4.12890625,2,C1,7.6,90,450.0,0.099333913906835,[10200|0|0|0]
41,4101,1.295433521270752,-0.3217702209949493,0.0,0.5598154664039612,0.6501372456550598,-3.5208899974823,4.12890625,2,C1,7.6,90,450.0,0.0994539727096066,[10300|0|0|0]
42,4201,1.2952628135681152,-0.3216790854930877,0.0,0.555030882358551,0.6536887884140015,-3.514694929122925,4.12109375,2,C1,7.6,90,450.0,0.099647484464906,[10400|0|0|0]
43,4301,1.2954826354980469,-0.3218272030353546,0.0,0.5558151602745056,0.6430869698524475,-3.523276329040528,4.12890625,2,C1,7.6,90,450.0,0.0999125514134417,[10500|0|0|0]
44,4402,1.295223832130432,-0.3217124044895172,0.0,0.557966947555542,0.6427807807922363,-3.512543201446533,4.12890625,2,C1,7.6,90,450.0,0.1001956730996744,[10600|0|0|0]
45,4501,1.2953286170959473,-0.3217692375183105,0.0,0.5519295334815979,0.6422504186630249,-3.515339136123657,4.12890625,2,C1,7.6,90,450.0,0.1003148783099627,[10700|0|0|0]
46,4601,1.2948195934295654,-0.3218253552913666,0.0,0.4405461251735687,0.5816139578819275,-3.494899272918701,4.12890625,2,C1,7.6,90,450.0,0.1008269860109296,[10800|0|0|0]
47,4702,1.294924259185791,-0.3216964900493622,0.0,0.4494733810424804,0.5924062132835388,-3.516723871231079,4.12109375,2,C1,7.6,90,450.0,0.100993001585871,[10900|0|0|0]
48,4800,1.29500150680542,-0.3218470811843872,0.0,0.4741959869861603,0.6027035713195801,-3.5169591903686523,4.12890625,2,C1,7.6,90,450.0,0.1011622495834558,[11000|0|0|0]
49,4900,1.295029640197754,-0.3220690190792084,0.0,0.5013182759284973,0.6178856492042542,-3.512864112854004,4.12890625,2,C1,7.6,90,450.0,0.1013859635010422,[11100|0|0|0]
50,5002,1.2948555946350098,-0.3219364881515503,0.0,0.5110676884651184,0.6334481239318848,-3.5129988193511963,4.12890625,2,C1,7.6,90,450.0,0.1016047243400807,[11200|0|0|0]
51,5102,1.2948371171951294,-0.3218131065368652,0.0,0.5098881125450134,0.6401860117912292,-3.493283033370972,4.12890625,2,C1,7.6,90,450.0,0.1017294818594005,[11300|0|0|0]
52,5200,1.2948715686798096,-0.321942925453186,0.0,0.5154126286506653,0.6468088626861572,-3.499587059020996,4.12109375,2,C1,7.6,90,450.0,0.1018637943898338,[11400|0|0|0]
53,5302,1.2954673767089844,-0.3218409121036529,0.0,0.5646354556083679,0.6831515431404114,-3.505238771438598,4.12890625,2,C1,7.6,90,450.0,0.1024682726203038,[11500|0|0|0]
54,5400,1.2953181266784668,-0.3217236995697021,0.0,0.5798799395561218,0.6938048005104065,-3.520992517471313,4.12890625,2,C1,7.6,90,450.0,0.1026580470909911,[11600|0|0|0]
55,5500,1.2954657077789309,-0.3218902051448822,0.0,0.6036047339439392,0.704113245010376,-3.506716728210449,4.12890625,2,C1,7.6,90,450.0,0.1028805426814648,[11700|0|0|0]
56,5600,1.2951322793960571,-0.3217318952083587,0.0,0.6129143834114075,0.7199325561523438,-3.5146045684814453,4.12890625,2,C1,7.6,90,450.0,0.1032496450013002,[11800|0|0|0]
57,5700,1.2954380512237549,-0.3218951821327209,0.0,0.623696506023407,0.7075811624526978,-3.506330966949463,4.12109375,2,C1,7.6,90,450.0,0.1035962846272539,[11900|0|0|0]
58,5800,1.2954506874084473,-0.3221347033977508,0.0,0.6389909386634827,0.7162073254585266,-3.498918294906616,4.12890625,2,C1,7.6,90,450.0,0.103836138977986,[12000|0|0|0]
59,5900,1.295145034790039,-0.3218930065631866,0.0,0.6146746873855591,0.6974837183952332,-3.51902437210083,4.12890625,2,C1,7.6,90,450.0,0.104225806635071,[12100|0|0|0]
60,6000,1.295477032661438,-0.3219009637832641,0.0,0.5847540497779846,0.6823167204856873,-3.5213210582733154,4.12890625,2,C1,7.6,90,450.0,0.1045578998508475,[12200|0|0|0]
61,6100,1.2953872680664062,-0.3218420743942261,0.0,0.5650565028190613,0.675979733467102,-3.521339178085327,4.12890625,2,C1,7.6,90,450.0,0.1046652573967513,[12300|0|0|0]
62,6200,1.2955539226531982,-0.3218902945518493,0.0,0.5619447827339172,0.6659549474716187,-3.5193941593170166,4.12109375,2,C1,7.6,90,450.0,0.104838747842886,[12400|0|0|0]
63,6300,1.2952466011047363,-0.3218293786048889,0.0,0.5659235119819641,0.6789900064468384,-3.5176937580108643,4.12890625,2,C1,7.6,90,450.0,0.1051520484760534,[12500|0|0|0]
64,6400,1.294694900512695,-0.3219130933284759,0.0,0.4522801041603088,0.6264396905899048,-3.492654323577881,4.12890625,2,C1,7.6,90,450.0,0.1057100643344337,[12600|0|0|0]
65,6500,1.2949929237365725,-0.32186159491539,0.0,0.4618968963623047,0.630381166934967,-3.5163896083831787,4.12890625,2,C1,7.6,90,450.0,0.106012504292972,[12700|0|0|0]
66,6600,1.2953845262527466,-0.322314441204071,0.0,0.701094388961792,0.7842203974723816,-3.525076389312744,4.12890625,2,C1,7.6,90,450.0,0.106611188092524,[12800|0|0|0]
67,6700,1.2952206134796145,-0.3220964074134826,0.0,0.6736841797828674,0.7813382744789124,-3.518109083175659,4.12109375,2,C1,7.6,90,450.0,0.1068839629649632,[12900|0|0|0]
68,6800,1.2953509092330933,-0.321925550699234,0.0,0.6623438000679016,0.7687166929244995,-3.531469821929932,4.12890625,2,C1,7.6,90,450.0,0.1070988326933533,[13000|0|0|0]
69,6900,1.295436978340149,-0.3222427666187286,0.0,0.6549236178398132,0.7554205656051636,-3.5269968509674072,4.12890625,2,C1,7.6,90,450.0,0.1074275176957038,[13100|0|0|0]
70,7000,1.2952301502227783,-0.3218983709812164,0.0,0.6329922080039978,0.7551738619804382,-3.514390230178833,4.12890625,2,C1,7.6,90,450.0,0.1078292467403004,[13200|0|0|0]
71,7100,1.2953009605407717,-0.3219123482704162,0.0,0.636550784111023,0.7559530138969421,-3.5100646018981934,4.12890625,2,C1,7.6,90,450.0,0.1079014233691195,[13300|0|0|0]
72,7200,1.295358180999756,-0.32208251953125,0.0,0.6296402812004089,0.7465654611587524,-3.518141508102417,4.12109375,2,C1,7.6,90,450.0,0.1080809573183886,[13400|0|0|0]
73,7300,1.295300841331482,-0.3221157193183899,0.0,0.6270901560783386,0.7401006817817688,-3.5237386226654053,4.12890625,2,C1,7.6,90,450.0,0.1081472148721008,[13500|0|0|0]
74,7400,1.2952780723571775,-0.3219072222709656,0.0,0.6173099279403687,0.7351114749908447,-3.518767833709717,4.12890625,2,C1,7.6,90,450.0,0.1083569514806734,[13600|0|0|0]
75,7500,1.2952736616134644,-0.3216714560985565,0.0,0.5776764154434204,0.6917622685432434,-3.51123309135437,4.12890625,2,C1,7.6,90,450.0,0.1085927589078518,[13700|0|0|0]
76,7600,1.2953376770019531,-0.3217595517635345,0.0,0.561054527759552,0.6739830374717712,-3.49450421333313,4.12890625,2,C1,7.6,90,450.0,0.1087016570995323,[13800|0|0|0]
77,7700,1.2954051494598389,-0.3218442797660827,0.0,0.5491877794265747,0.6695915460586548,-3.5046167373657227,4.12109375,2,C1,7.6,90,450.0,0.108809968534704,[13900|0|0|0]
78,7800,1.29529070854187,-0.3218699991703033,0.0,0.5311431288719177,0.6585074663162231,-3.5185883045196533,4.12890625,2,C1,7.6,90,450.0,0.1089272639372527,[14000|0|0|0]
79,7900,1.2954407930374146,-0.3216088116168976,0.0,0.5185654759407043,0.650770902633667,-3.5230886936187744,4.12890625,2,C1,7.6,90,450.0,0.1092285018728733,[14100|0|0|0]
80,8000,1.295407772064209,-0.3218752443790436,0.0,0.5239842534065247,0.6539890170097351,-3.5092785358428955,4.12890625,2,C1,7.6,90,450.0,0.1094969731030194,[14200|0|0|0]
81,8100,1.2952247858047483,-0.3217120766639709,0.0,0.52464359998703,0.6599103212356567,-3.5055739879608154,4.12890625,2,C1,7.6,90,450.0,0.1097421417682143,[14300|0|0|0]
82,8200,1.2955020666122437,-0.3219574987888336,0.0,0.5350500345230103,0.6493274569511414,-3.517587900161743,4.12109375,2,C1,7.6,90,450.0,0.1101124344437797,[14400|0|0|0]
83,8300,1.2953089475631714,-0.3214856386184692,0.0,0.5254889726638794,0.6520684957504272,-3.5241148471832275,4.12890625,2,C1,7.6,90,450.0,0.110622284409447,[14500|0|0|0]
84,8400,1.2955235242843628,-0.3219032287597656,0.0,0.5402098894119263,0.6468729376792908,-3.544813871383667,4.12890625,2,C1,7.6,90,450.0,0.1110917784939521,[14600|0|0|0]
85,8500,1.2953643798828125,-0.3217676877975464,0.0,0.5331992506980896,0.647635817527771,-3.532589673995972,4.12890625,2,C1,7.6,90,450.0,0.1113008198606337,[14700|0|0|0]
86,8600,1.2955557107925415,-0.3217034339904785,0.0,0.4107730090618133,0.578499436378479,-3.5271871089935303,4.12890625,2,C1,7.6,90,450.0,0.1115026516439099,[14800|0|0|0]
87,8700,1.2949594259262085,-0.3217362463474273,0.0,0.438188225030899,0.5986294746398926,-3.5482702255249023,4.12109375,2,C1,7.6,90,450.0,0.1120998386268443,[14900|0|0|0]
88,8800,1.295378804206848,-0.3215660750865936,0.0,0.4676106870174408,0.6232184171676636,-3.545738697052002,4.12890625,2,C1,7.6,90,450.0,0.1125524271820308,[15000|0|0|0]
89,8900,1.2955878973007202,-0.3216911554336548,0.0,0.5005613565444946,0.6359047889709473,-3.533224105834961,4.12890625,2,C1,7.6,90,450.0,0.1127960765512605,[15100|0|0|0]
90,9000,1.29559326171875,-0.3216499984264374,0.0,0.5133635401725769,0.6460726857185364,-3.533602476119995,4.12890625,2,C1,7.6,90,450.0,0.1128375816861705,[15200|0|0|0]
91,9100,1.2954918146133425,-0.3218388259410858,0.0,0.5292428731918335,0.6577578783035278,-3.509941816329956,4.12890625,2,C1,7.6,90,450.0,0.1130519350054447,[15300|0|0|0]
92,9200,1.295530080795288,-0.322024941444397,0.0,0.5377873182296753,0.6563965678215027,-3.52192759513855,4.12109375,2,C1,7.6,90,450.0,0.113241943640126,[15400|0|0|0]
93,9300,1.2954485416412354,-0.3220741748809814,0.0,0.5448622703552246,0.6602983474731445,-3.534890651702881,4.12890625,2,C1,7.6,90,450.0,0.1133371936528375,[15500|0|0|0]
94,9400,1.2955087423324585,-0.3216968774795532,0.0,0.5347805619239807,0.6567018628120422,-3.54276967048645,4.12890625,2,C1,7.6,90,450.0,0.1137192636102382,[15600|0|0|0]
95,9500,1.2954274415969849,-0.3215903043746948,0.0,0.5321093797683716,0.6688646078109741,-3.520992040634156,4.12890625,2,C1,7.6,90,450.0,0.1138533070221156,[15700|0|0|0]
96,9600,1.295494556427002,-0.3218870460987091,0.0,0.5403696298599243,0.6617739796638489,-3.5259251594543457,4.12890625,2,C1,7.6,90,450.0,0.1141575438561433,[15800|0|0|0]
97,9700,1.295444130897522,-0.3217584788799286,0.0,0.5348321199417114,0.6584240794181824,-3.5190775394439697,4.12109375,2,C1,7.6,90,450.0,0.1142956462231334,[15900|0|0|0]
98,9800,1.295668125152588,-0.3215326368808746,0.0,0.5272853374481201,0.6579789519309998,-3.5106680393218994,4.12890625,2,C1,7.6,90,450.0,0.114613731172226,[16000|0|0|0]
99,9900,1.2954260110855105,-0.3217541575431824,0.0,0.5273920297622681,0.6626222729682922,-3.509397506713867,4.12890625,2,C1,7.6,90,450.0,0.1149418936705497,[16100|0|0|0]
100,10000,1.2953864336013794,-0.3219727873802185,0.0,0.5341019630432129,0.6637057662010193,-3.516599178314209,4.12890625,2,C1,7.6,90,450.0,0.1151640768897464,[16200|0|0|0]
101,10100,1.2954145669937134,-0.3217405378818512,0.0,0.527144193649292,0.6645895838737488,-3.5069897174835205,4.12890625,2,C1,7.6,90,450.0,0.1153980241428957,[16300|0|0|0]
102,10200,1.295032262802124,-0.3222131729125976,0.0,0.7486805319786072,0.806435227394104,-3.522228956222534,4.12109375,2,C1,7.6,90,450.0,0.116005922462679,[16400|0|0|0]
103,10300,1.2951616048812866,-0.3222275078296661,0.0,0.7052630186080933,0.7712379097938538,-3.5142481327056885,4.12890625,2,C1,7.6,90,450.0,0.1161360564831712,[16500|0|0|0]
104,10400,1.2953088283538818,-0.3221367597579956,0.0,0.6689255833625793,0.7463570833206177,-3.5108911991119385,4.12890625,2,C1,7.6,90,450.0,0.1163090014553297,[16600|0|0|0]
105,10500,1.2954312562942505,-0.3219800293445587,0.0,0.6426641345024109,0.7379089593887329,-3.512686014175415,4.12890625,2,C1,7.6,90,450.0,0.1165078808737697,[16700|0|0|0]
106,10600,1.2952415943145752,-0.3220700621604919,0.0,0.630283534526825,0.7291593551635742,-3.508342981338501,4.12890625,2,C1,7.6,90,450.0,0.1167178274728829,[16800|0|0|0]
107,10700,1.2952592372894287,-0.3219977915287018,0.0,0.6201289296150208,0.7230931520462036,-3.517052412033081,4.12109375,2,C1,7.6,90,450.0,0.1167922204751144,[16900|0|0|0]
108,10800,1.2952682971954346,-0.3220081031322479,0.0,0.6082085967063904,0.7152974605560303,-3.5243160724639893,4.12890625,2,C1,7.6,90,450.0,0.1168059467661112,[17000|0|0|0]
109,10900,1.295358657836914,-0.3220561146736145,0.0,0.601367712020874,0.7099854350090027,-3.5208210945129395,4.12890625,2,C1,7.6,90,450.0,0.1169082705347722,[17100|0|0|0]
110,11000,1.295231580734253,-0.3216518461704254,0.0,0.5924791693687439,0.7158998847007751,-3.5056393146514893,4.12890625,2,C1,7.6,90,450.0,0.1173320412424567,[17200|0|0|0]
111,11100,1.295229196548462,-0.3216115534305572,0.0,0.5965731143951416,0.7207327485084534,-3.5105695724487305,4.12890625,2,C1,7.6,90,450.0,0.1173724044587306,[17300|0|0|0]
112,11200,1.2953864336013794,-0.3220593929290771,0.0,0.6165251135826111,0.7218995690345764,-3.516042232513428,4.12109375,2,C1,7.6,90,450.0,0.1178470450672385,[17400|0|0|0]
113,11300,1.2953613996505735,-0.3218397498130798,0.0,0.6138994097709656,0.7227730751037598,-3.5033035278320312,4.12890625,2,C1,7.6,90,450.0,0.1180681102094432,[17500|0|0|0]
114,11400,1.2951862812042236,-0.3219832479953766,0.0,0.6224443912506104,0.7274144291877747,-3.491116762161255,4.12890625,2,C1,7.6,90,450.0,0.1182945129447943,[17600|0|0|0]
115,11500,1.2952085733413696,-0.3218666017055511,0.0,0.6205405592918396,0.7336301803588867,-3.4926207065582275,4.12109375,2,C1,7.6,90,450.0,0.1184132702448166,[17700|0|0|0]
116,11600,1.2953579425811768,-0.3219002783298492,0.0,0.6227942109107971,0.732414722442627,-3.5092875957489014,4.12109375,2,C1,7.6,90,450.0,0.1185663887767606,[17800|0|0|0]
117,11700,1.2961132526397705,-0.3215815424919128,0.0,0.4745228886604309,0.6162137389183044,-3.5123283863067627,4.12109375,2,C1,7.6,90,450.0,0.1193861971805952,[17900|0|0|0]
118,11800,1.295279026031494,-0.3218617737293243,0.0,0.5461322665214539,0.6858499050140381,-3.5139195919036865,4.12109375,2,C1,7.6,90,450.0,0.1202662333050685,[18000|0|0|0]
119,11900,1.295513153076172,-0.3218556344509125,0.0,0.540565013885498,0.6761333346366882,-3.5112721920013428,4.12109375,2,C1,7.6,90,450.0,0.1205004408279817,[18100|0|0|0]
120,12000,1.2952059507369995,-0.3217733204364776,0.0,0.5428786277770996,0.6804479956626892,-3.505368709564209,4.12890625,2,C1,7.6,90,450.0,0.1208184799359,[18200|0|0|0]
121,12100,1.2954168319702148,-0.3218829333782196,0.0,0.5426260828971863,0.668972909450531,-3.5157172679901123,4.12890625,2,C1,7.6,90,450.0,0.121056147543116,[18300|0|0|0]
122,12200,1.2955549955368042,-0.3218936026096344,0.0,0.5380843877792358,0.6656860113143921,-3.512827157974243,4.12109375,2,C1,7.6,90,450.0,0.1211947224457199,[18400|0|0|0]
123,12300,1.295291781425476,-0.3216642141342163,0.0,0.5634260177612305,0.6840068697929382,-3.528233289718628,4.12890625,2,C1,7.6,90,450.0,0.121543865311975,[18500|0|0|0]
124,12400,1.2954593896865845,-0.321974903345108,0.0,0.5937570929527283,0.6928581595420837,-3.528855562210083,4.12890625,2,C1,7.6,90,450.0,0.1218968813384615,[18600|0|0|0]
125,12500,1.295432448387146,-0.3217046558856964,0.0,0.6105759143829346,0.710986852645874,-3.5129518508911133,4.12109375,2,C1,7.6,90,450.0,0.1221684683833179,[18700|0|0|0]
126,12600,1.2953392267227173,-0.3217163383960724,0.0,0.626754641532898,0.7215439677238464,-3.524075984954834,4.12890625,2,C1,7.6,90,450.0,0.1222624192202889,[18800|0|0|0]
127,12700,1.2954062223434448,-0.3221123218536377,0.0,0.6404460072517395,0.7206235527992249,-3.534419775009156,4.12109375,2,C1,7.6,90,450.0,0.1226640301163836,[18900|0|0|0]
128,12800,1.295289397239685,-0.3220912516117096,0.0,0.6452306509017944,0.7339566946029663,-3.5209403038024902,4.12109375,2,C1,7.6,90,450.0,0.1227827400989604,[19000|0|0|0]
129,12900,1.295323371887207,-0.3216840922832489,0.0,0.640051007270813,0.7444140315055847,-3.510241746902466,4.12890625,2,C1,7.6,90,450.0,0.1231913144440028,[19100|0|0|0]
130,13000,1.2955089807510376,-0.3220153450965881,0.0,0.6494061946868896,0.7456997632980347,-3.528733491897583,4.12890625,2,C1,7.6,90,450.0,0.1235710236441516,[19200|0|0|0]
131,13100,1.2951843738555908,-0.3218414187431335,0.0,0.6434537172317505,0.7529098391532898,-3.515195608139038,4.12109375,2,C1,7.6,90,450.0,0.1239392898698601,[19300|0|0|0]
132,13200,1.2955108880996704,-0.3223165869712829,0.0,0.6502727270126343,0.7374848127365112,-3.5124642848968506,4.12109375,2,C1,7.6,90,450.0,0.1245158281570792,[19400|0|0|0]
133,13300,1.2953770160675049,-0.32190802693367,0.0,0.6382593512535095,0.7471948266029358,-3.5315330028533936,4.12890625,2,C1,7.6,90,450.0,0.124945761902359,[19500|0|0|0]
134,13400,1.2954528331756592,-0.3222069442272186,0.0,0.6383560299873352,0.7348511815071106,-3.5230712890625,4.12109375,2,C1,7.6,90,450.0,0.1252541444282442,[19600|0|0|0]
135,13500,1.2952381372451782,-0.321759819984436,0.0,0.6254127025604248,0.7354977130889893,-3.5229949951171875,4.12890625,2,C1,7.6,90,450.0,0.1257501428466378,[19700|0|0|0]
136,13600,1.2962077856063845,-0.3216490745544433,0.0,0.6341984272003174,0.7401955723762512,-3.534806489944458,4.12890625,2,C1,7.6,90,450.0,0.1267260949431335,[19800|0|0|0]
137,13700,1.296269774436951,-0.3217906653881073,0.0,0.636738121509552,0.736083447933197,-3.5366036891937256,4.12109375,2,C1,7.6,90,450.0,0.1268806607197228,[19900|0|0|0]
138,13800,1.2960880994796753,-0.321584403514862,0.0,0.6009833812713623,0.7011134028434753,-3.5146291255950928,4.12109375,2,C1,7.6,90,450.0,0.1271555238683182,[20000|0|0|0]
139,13900,1.2963148355484009,-0.3218560218811035,0.0,0.5800508260726929,0.6771536469459534,-3.516310453414917,4.12890625,2,C1,7.6,90,450.0,0.1275093398964187,[20100|0|0|0]
140,14000,1.2960504293441772,-0.321695476770401,0.0,0.5557007193565369,0.6667650938034058,-3.5245847702026367,4.12109375,2,C1,7.6,90,450.0,0.1278186704209429,[20200|0|0|0]
141,14100,1.296170711517334,-0.3217887580394745,0.0,0.549140453338623,0.6536145806312561,-3.5271031856536865,4.12890625,2,C1,7.6,90,450.0,0.127970884731503,[20300|0|0|0]
142,14200,1.2961933612823486,-0.3218065798282623,0.0,0.5411218404769897,0.6440983414649963,-3.542065620422364,4.12109375,2,C1,7.6,90,450.0,0.1279997053493106,[20400|0|0|0]
143,14300,1.296240210533142,-0.3215124607086181,0.0,0.5280926823616028,0.6406320333480835,-3.548156976699829,4.12109375,2,C1,7.6,90,450.0,0.1282975323273367,[20500|0|0|0]
144,14400,1.296269178390503,-0.321857750415802,0.0,0.5327141880989075,0.6371498107910156,-3.5384342670440674,4.12890625,2,C1,7.6,90,450.0,0.1286440350237869,[20600|0|0|0]
145,14500,1.296159744262695,-0.3217179775238037,0.0,0.5287014842033386,0.645663321018219,-3.5249059200286865,4.12109375,2,C1,7.6,90,450.0,0.128821552036117,[20700|0|0|0]
146,14600,1.296081781387329,-0.3218344449996948,0.0,0.5331183671951294,0.6465756297111511,-3.517627239227295,4.12109375,2,C1,7.6,90,450.0,0.1289617051055653,[20800|0|0|0]
147,14700,1.296274185180664,-0.3217209875583648,0.0,0.5296366810798645,0.643612802028656,-3.516271114349365,4.12109375,2,C1,7.6,90,450.0,0.1291850698536409,[20900|0|0|0]
148,14800,1.295947790145874,-0.3216237723827362,0.0,0.525416910648346,0.6504159569740295,-3.500976085662842,4.12109375,2,C1,7.6,90,450.0,0.1295256348387877,[21000|0|0|0]
149,14900,1.2961338758468628,-0.3215998411178589,0.0,0.5237402319908142,0.6411800384521484,-3.512709379196167,4.12109375,2,C1,7.6,90,450.0,0.129713253050993,[21100|0|0|0]
150,15000,1.296216607093811,-0.3215744197368622,0.0,0.5201045274734497,0.6370142102241516,-3.5279550552368164,4.12890625,2,C1,7.6,90,450.0,0.1297998019148411,[21200|0|0|0]
151,15100,1.2961373329162598,-0.3216917514801025,0.0,0.5391861200332642,0.644131600856781,-3.4967288970947266,4.12109375,2,C1,7.6,90,450.0,0.1299414039388317,[21300|0|0|0]
152,15200,1.2961004972457886,-0.3218236565589905,0.0,0.5419704914093018,0.6469851732254028,-3.504594326019287,4.12109375,2,C1,7.6,90,450.0,0.1300783558152537,[21400|0|0|0]
153,15300,1.2962000370025637,-0.3218453228473663,0.0,0.5453368425369263,0.6461197137832642,-3.4959869384765625,4.12890625,2,C1,7.6,90,450.0,0.1301802262782488,[21500|0|0|0]
154,15400,1.2963365316390991,-0.3218524158000946,0.0,0.5435062050819397,0.6454403400421143,-3.499514579772949,4.12109375,2,C1,7.6,90,450.0,0.1303169050834138,[21600|0|0|0]
155,15500,1.295989990234375,-0.3216717839241028,0.0,0.5389907360076904,0.6505271196365356,-3.50067400932312,4.12109375,2,C1,7.6,90,450.0,0.1307076976368389,[21700|0|0|0]
156,15600,1.2961403131484983,-0.3216284215450287,0.0,0.5476506352424622,0.6478235125541687,-3.4949395656585693,4.12109375,2,C1,7.6,90,450.0,0.1308641497842498,[21800|0|0|0]
157,15700,1.296199083328247,-0.3216609060764313,0.0,0.539416491985321,0.6513062715530396,-3.4929003715515137,4.12109375,2,C1,7.6,90,450.0,0.1309313002035199,[21900|0|0|0]
158,15800,1.2961479425430298,-0.3216192126274109,0.0,0.5377367734909058,0.6584322452545166,-3.4995274543762207,4.12109375,2,C1,7.6,90,450.0,0.1309972829558409,[22000|0|0|0]
159,15900,1.2961347103118896,-0.3215093314647674,0.0,0.5319582223892212,0.6550682783126831,-3.5003974437713623,4.12109375,2,C1,7.6,90,450.0,0.1311079579839404,[22100|0|0|0]
160,16000,1.296101212501526,-0.3217723071575165,0.0,0.526100754737854,0.6610829830169678,-3.5026967525482178,4.12109375,2,C1,7.6,90,450.0,0.1313730585653733,[22200|0|0|0]
161,16100,1.295548915863037,-0.3216301202774048,0.0,0.4085839986801147,0.6040840744972229,-3.505817174911499,4.12109375,2,C1,7.6,90,450.0,0.1319433643480567,[22300|0|0|0]
162,16200,1.2957074642181396,-0.3218119740486145,0.0,0.4347846210002899,0.6133778691291809,-3.5297062397003174,4.12109375,2,C1,7.6,90,450.0,0.132184628466833,[22400|0|0|0]
163,16300,1.2955222129821775,-0.3219214677810669,0.0,0.474004864692688,0.6353410482406616,-3.551593542098999,4.12109375,2,C1,7.6,90,450.0,0.1323998188427141,[22500|0|0|0]
164,16400,1.2954412698745728,-0.3217556476593017,0.0,0.4880296289920807,0.6507370471954346,-3.556228876113892,4.12109375,2,C1,7.6,90,450.0,0.1325843401137127,[22600|0|0|0]
165,16500,1.2955478429794312,-0.3216698467731476,0.0,0.5007480978965759,0.6552366018295288,-3.537851333618164,4.12109375,2,C1,7.6,90,450.0,0.1327211597714523,[22700|0|0|0]
166,16600,1.2952630519866943,-0.3216417133808136,0.0,0.5102556943893433,0.667295515537262,-3.5400190353393555,4.12109375,2,C1,7.6,90,450.0,0.1330073369845708,[22800|0|0|0]
167,16700,1.295421481132507,-0.3220097124576568,0.0,0.5259149074554443,0.6678394675254822,-3.537052869796753,4.12109375,2,C1,7.6,90,450.0,0.1334079903444723,[22900|0|0|0]
168,16800,1.2954274415969849,-0.3217461705207824,0.0,0.5173647999763489,0.672787606716156,-3.519627094268799,4.12109375,2,C1,7.6,90,450.0,0.1336715996759238,[23000|0|0|0]
169,16900,1.2956583499908447,-0.3221075236797333,0.0,0.5273785591125488,0.6738820672035217,-3.514589548110962,4.12890625,2,C1,7.6,90,450.0,0.134100429236284,[23100|0|0|0]
170,17000,1.2954798936843872,-0.3218742609024048,0.0,0.5183172225952148,0.6830377578735352,-3.5161521434783936,4.12109375,2,C1,7.6,90,450.0,0.1343941266598366,[23200|0|0|0]
171,17100,1.2953375577926636,-0.3217005431652069,0.0,0.5141651630401611,0.690913736820221,-3.5137884616851807,4.12109375,2,C1,7.6,90,450.0,0.1346187092911551,[23300|0|0|0]
172,17200,1.2953026294708252,-0.3217887878417969,0.0,0.5245842933654785,0.688996434211731,-3.4953622817993164,4.12109375,2,C1,7.6,90,450.0,0.1347136150897815,[23400|0|0|0]
173,17300,1.2962900400161743,-0.3219096064567566,0.0,0.5304478406906128,0.6815729737281799,-3.5019593238830566,4.12109375,2,C1,7.6,90,450.0,0.1357083897993451,[23500|0|0|0]
174,17400,1.296273708343506,-0.3218893706798553,0.0,0.5322551727294922,0.686418354511261,-3.508384227752685,4.12109375,2,C1,7.6,90,450.0,0.1357343938413182,[23600|0|0|0]
175,17500,1.2962679862976074,-0.3218133747577667,0.0,0.5451058149337769,0.6973314881324768,-3.521897792816162,4.12109375,2,C1,7.6,90,450.0,0.1358106048771553,[23700|0|0|0]
176,17600,1.2961188554763794,-0.321851521730423,0.0,0.5810473561286926,0.71588134765625,-3.5373358726501465,4.12109375,2,C1,7.6,90,450.0,0.1359645373083158,[23800|0|0|0]
177,17700,1.296048879623413,-0.3217773735523224,0.0,0.6013250946998596,0.7278040051460266,-3.5350143909454346,4.12109375,2,C1,7.6,90,450.0,0.1360664910836946,[23900|0|0|0]
178,17800,1.2964385747909546,-0.3216472864151001,0.0,0.6131473183631897,0.7159201502799988,-3.5158045291900635,4.12109375,2,C1,7.6,90,450.0,0.1364773255842857,[24000|0|0|0]
179,17900,1.2961015701293943,-0.3220345675945282,0.0,0.6343594789505005,0.730930745601654,-3.533294677734375,4.12109375,2,C1,7.6,90,450.0,0.1369907054181831,[24100|0|0|0]
180,18000,1.2963266372680664,-0.3214538097381592,0.0,0.6337212920188904,0.7323940396308899,-3.5199079513549805,4.12109375,2,C1,7.6,90,450.0,0.1376135496239396,[24200|0|0|0]
181,18100,1.2961877584457395,-0.3216325640678406,0.0,0.6427704691886902,0.7350468039512634,-3.515177726745605,4.12109375,2,C1,7.6,90,450.0,0.1378399131317556,[24300|0|0|0]
182,18200,1.3018878698349,-0.3114963173866272,0.0,0.3010700941085815,0.5248806476593018,-3.484922409057617,4.12109375,2,C1,7.6,90,450.0,0.149468961529249,[24400|0|0|0]
183,18300,1.2959377765655518,-0.3216763436794281,0.0,0.602129340171814,0.70070880651474,-3.5177059173583984,4.12109375,2,C1,7.6,90,450.0,0.1612603374131762,[24500|0|0|0]
184,18400,1.2961444854736328,-0.321632832288742,0.0,0.5693332552909851,0.6595975160598755,-3.525491952896118,4.12109375,2,C1,7.6,90,450.0,0.1614715761733494,[24600|0|0|0]
185,18500,1.3023061752319336,-0.3117391467094421,0.0,0.2339817732572555,0.4660520553588867,-3.5116777420043945,4.12109375,2,C1,7.6,90,450.0,0.1731271085515634,[24700|0|0|0]
186,18600,1.302432417869568,-0.3119576275348663,0.0,0.2321824729442596,0.4594354331493377,-3.50610899925232,4.12890625,2,C1,7.6,90,450.0,0.1733794398311047,[24800|0|0|0]
187,18700,1.295660376548767,-0.3217473924160003,0.0,0.4272766411304474,0.5888729691505432,-3.5307328701019287,4.12109375,2,C1,7.6,90,450.0,0.1852832224265036,[24900|0|0|0]
188,18800,1.3026832342147827,-0.3118617832660675,0.0,0.23836350440979,0.46457439661026,-3.51960825920105,4.12109375,2,C1,7.6,90,450.0,0.1974094666126624,[25000|0|0|0]
189,18900,1.302682876586914,-0.3117377758026123,0.0,0.2613952457904815,0.4829182028770447,-3.519054889678955,4.12109375,2,C1,7.6,90,450.0,0.197533474591802,[25100|0|0|0]
190,19000,1.3025033473968506,-0.3120152056217193,0.0,0.2952039837837219,0.5012052059173584,-3.503183364868164,4.12109375,2,C1,7.6,90,450.0,0.1978639258508624,[25200|0|0|0]
191,19100,1.3025389909744265,-0.3116303980350494,0.0,0.2923427820205688,0.5056675672531128,-3.4997754096984863,4.12109375,2,C1,7.6,90,450.0,0.1982503806908905,[25300|0|0|0]
192,19200,1.3023223876953125,-0.3116954267024994,0.0,0.3066352307796478,0.5226823687553406,-3.491915464401245,4.12109375,2,C1,7.6,90,450.0,0.1984765348597958,[25400|0|0|0]
193,19300,1.3018718957901,-0.3124063611030578,0.0,0.4619469046592712,0.6259053349494934,-3.5124282836914062,4.12109375,2,C1,7.6,90,450.0,0.1993181824574038,[25500|0|0|0]
194,19400,1.302074313163757,-0.3120311796665191,0.0,0.4266066551208496,0.6076164841651917,-3.501335859298706,4.12109375,2,C1,7.6,90,450.0,0.1997444850535505,[25600|0|0|0]
195,19501,1.3022747039794922,-0.31195929646492,0.0,0.3975847959518432,0.5823544859886169,-3.486521005630493,4.12890625,2,C1,7.6,90,450.0,0.1999573786272044,[25700|0|0|0]
196,19600,1.3023855686187744,-0.3117743134498596,0.0,0.3758055567741394,0.5705923438072205,-3.472611904144287,4.12109375,2,C1,7.6,90,450.0,0.2001730396670424,[25800|0|0|0]
197,19700,1.3022549152374268,-0.3119882345199585,0.0,0.3706710338592529,0.5628768801689148,-3.4764647483825684,4.12109375,2,C1,7.6,90,450.0,0.2004237038453563,[25900|0|0|0]
198,19800,1.3024035692214966,-0.3121062815189361,0.0,0.3615371882915497,0.5515906810760498,-3.4559783935546875,4.12109375,2,C1,7.6,90,450.0,0.2006135277135801,[26000|0|0|0]
199,19901,1.302342176437378,-0.3122884035110473,0.0,0.3603067994117737,0.5481448173522949,-3.4766440391540527,4.12109375,2,C1,7.6,90,450.0,0.2008057190087847,[26100|0|0|0]
200,20000,1.3023464679718018,-0.3119150102138519,0.0,0.3390372693538666,0.5449720621109009,-3.485177993774414,4.12109375,2,C1,7.6,90,450.0,0.2011791369671881,[26200|0|0|0]
201,20101,1.302424669265747,-0.3119432330131531,0.0,0.3367342948913574,0.5357125401496887,-3.4899940490722656,4.12890625,2,C1,7.6,90,450.0,0.2012622752181627,[26300|0|0|0]
202,20201,1.3023386001586914,-0.311978667974472,0.0,0.3374141156673431,0.5377975106239319,-3.4780707359313965,4.12109375,2,C1,7.6,90,450.0,0.2013553532911608,[26400|0|0|0]
203,20301,1.3025552034378052,-0.3118098378181457,0.0,0.3318985998630523,0.5329785346984863,-3.4854931831359863,4.12109375,2,C1,7.6,90,450.0,0.2016299814073616,[26500|0|0|0]
204,20401,1.3023601770401,-0.3117453455924988,0.0,0.3335746228694916,0.5396535992622375,-3.476836442947388,4.12109375,2,C1,7.6,90,450.0,0.2018353945105724,[26600|0|0|0]
205,20501,1.3025528192520142,-0.3114504218101501,0.0,0.1010394692420959,0.3904268741607666,-3.493168592453003,4.12109375,2,C1,7.6,90,450.0,0.2021876601194615,[26700|0|0|0]
206,20601,1.3022361993789673,-0.3122331500053406,0.0,0.3359076082706451,0.5333881974220276,-3.4773316383361816,4.12109375,2,C1,7.6,90,450.0,0.2030320010290202,[26800|0|0|0]
207,20702,1.3021843433380127,-0.3119426369667053,0.0,0.324044793844223,0.5307723879814148,-3.479701280593872,4.12109375,2,C1,7.6,90,450.0,0.2033271058825902,[26900|0|0|0]
208,20802,1.3025891780853271,-0.312150239944458,0.0,0.3284685313701629,0.5214842557907104,-3.5071706771850586,4.12109375,2,C1,7.6,90,450.0,0.2037820676051614,[27000|0|0|0]
209,20901,1.302690505981445,-0.3121168911457062,0.0,0.3167493641376495,0.5148727893829346,-3.5056068897247314,4.12109375,2,C1,7.6,90,450.0,0.2038887422737096,[27100|0|0|0]
210,21002,1.3023934364318848,-0.312122493982315,0.0,0.312994122505188,0.5257779359817505,-3.498696565628052,4.12109375,2,C1,7.6,90,450.0,0.2041858646543107,[27200|0|0|0]
211,21102,1.3026081323623655,-0.3120016455650329,0.0,0.2975998222827911,0.5116388201713562,-3.5115532875061035,4.12109375,2,C1,7.6,90,450.0,0.2044322356804574,[27300|0|0|0]
212,21200,1.3023990392684937,-0.3122590184211731,0.0,0.307902842760086,0.5264286994934082,-3.507043600082397,4.12109375,2,C1,7.6,90,450.0,0.2047638389207652,[27400|0|0|0]
213,21300,1.3023802042007446,-0.3120421171188354,0.0,0.3008418083190918,0.5300765037536621,-3.5034427642822266,4.12109375,2,C1,7.6,90,450.0,0.2049815564780106,[27500|0|0|0]
214,21402,1.3023927211761477,-0.3120450377464294,0.0,0.3005290627479553,0.53348708152771,-3.5088870525360107,4.12109375,2,C1,7.6,90,450.0,0.2049944096775649,[27600|0|0|0]
215,21502,1.3022329807281494,-0.3121549189090729,0.0,0.3055436611175537,0.5339213013648987,-3.5062289237976074,4.12109375,2,C1,7.6,90,450.0,0.2051882933556572,[27700|0|0|0]
216,21600,1.302439570426941,-0.3117428719997406,0.0,0.2886976301670074,0.5351725816726685,-3.495763301849365,4.12109375,2,C1,7.6,90,450.0,0.2056492293155659,[27800|0|0|0]
217,21700,1.30213725566864,-0.3119722306728363,0.0,0.2997396886348724,0.5408324003219604,-3.496535062789917,4.12109375,2,C1,7.6,90,450.0,0.2060287021262004,[27900|0|0|0]
218,21800,1.3026154041290283,-0.3121981918811798,0.0,0.2971811592578888,0.5149481296539307,-3.490225076675415,4.12109375,2,C1,7.6,90,450.0,0.2065575541072385,[28000|0|0|0]
219,21900,1.302678465843201,-0.3120158612728119,0.0,0.2934951782226562,0.5194711685180664,-3.498008728027344,4.12109375,2,C1,7.6,90,450.0,0.2067504821522247,[28100|0|0|0]
220,22000,1.3027983903884888,-0.3113955557346344,0.0,0.2528932988643646,0.4991652369499206,-3.489787101745605,4.12109375,2,C1,7.6,90,450.0,0.2073822739353749,[28200|0|0|0]
221,22100,1.302457571029663,-0.3117684721946716,0.0,0.3063879013061523,0.5322898626327515,-3.5070927143096924,4.12109375,2,C1,7.6,90,450.0,0.2078874714428084,[28300|0|0|0]
222,22200,1.302554726600647,-0.3114649057388305,0.0,0.3173555731773376,0.5408779382705688,-3.508838415145874,4.12109375,2,C1,7.6,90,450.0,0.2082062061257112,[28400|0|0|0]
223,22300,1.3025989532470703,-0.3119203746318817,0.0,0.3471816182136535,0.5436403155326843,-3.493866443634033,4.12890625,2,C1,7.6,90,450.0,0.208663817214728,[28500|0|0|0]
224,22400,1.3024022579193115,-0.3120073080062866,0.0,0.3540854454040527,0.5502155423164368,-3.5105140209198,4.12109375,2,C1,7.6,90,450.0,0.2088788671241619,[28600|0|0|0]
225,22500,1.3021385669708252,-0.3117266595363617,0.0,0.3556234538555145,0.5652482509613037,-3.497523784637451,4.12890625,2,C1,7.6,90,450.0,0.209263959944122,[28700|0|0|0]
226,22600,1.3025463819503784,-0.3118762671947479,0.0,0.3641513586044311,0.5574694871902466,-3.502575397491455,4.12890625,2,C1,7.6,90,450.0,0.209698350907421,[28800|0|0|0]
227,22700,1.3023735284805298,-0.3122070133686065,0.0,0.3701812028884887,0.5587157011032104,-3.495645761489868,4.12109375,2,C1,7.6,90,450.0,0.2100715416811023,[28900|0|0|0]
228,22800,1.3023279905319214,-0.3118413090705871,0.0,0.3644904494285583,0.5643503665924072,-3.505011796951294,4.12890625,2,C1,7.6,90,450.0,0.210440070293768,[29000|0|0|0]
229,22900,1.3025131225585938,-0.3119555711746216,0.0,0.3734420239925384,0.5653829574584961,-3.514555215835572,4.12109375,2,C1,7.6,90,450.0,0.2106576241852942,[29100|0|0|0]
230,23000,1.3024392127990725,-0.3118276000022888,0.0,0.3687956929206848,0.5634477734565735,-3.499532699584961,4.12109375,2,C1,7.6,90,450.0,0.210805405352906,[29200|0|0|0]
231,23100,1.3023709058761597,-0.3118895292282104,0.0,0.3687067031860351,0.5629520416259766,-3.495530366897583,4.12109375,2,C1,7.6,90,450.0,0.2108976065716673,[29300|0|0|0]
232,23200,1.3026684522628784,-0.3119556605815887,0.0,0.3681851029396057,0.5540096759796143,-3.485990047454834,4.12109375,2,C1,7.6,90,450.0,0.2112024134091054,[29400|0|0|0]
233,23300,1.303009033203125,-0.3120633363723755,0.0,0.3585109710693359,0.5610131621360779,-3.497776746749878,4.12109375,2,C1,7.6,90,450.0,0.2115596100675176,[29500|0|0|0]
234,23400,1.302976131439209,-0.3116470873355865,0.0,0.1266016513109207,0.4156284630298614,-3.487786769866944,4.12109375,2,C1,7.6,90,450.0,0.2119771574141701,[29600|0|0|0]
235,23500,1.3025836944580078,-0.3117441236972809,0.0,0.1581988930702209,0.4375393986701965,-3.4917380809783936,4.12109375,2,C1,7.6,90,450.0,0.2123814133228531,[29700|0|0|0]
236,23600,1.30284583568573,-0.3113834261894226,0.0,0.1784178018569946,0.4486915469169616,-3.496206760406494,4.12109375,2,C1,7.6,90,450.0,0.2128273064888098,[29800|0|0|0]
237,23700,1.302643895149231,-0.3119557499885559,0.0,0.2144862860441208,0.464993804693222,-3.4957075119018555,4.12109375,2,C1,7.6,90,450.0,0.2134342121745105,[29900|0|0|0]
238,23800,1.3027219772338867,-0.3115350902080536,0.0,0.2125300765037536,0.4662022292613983,-3.4944217205047607,4.12890625,2,C1,7.6,90,450.0,0.213862057313406,[30000|0|0|0]
239,23900,1.302625298500061,-0.3113368153572082,0.0,0.2155241221189499,0.4738052785396576,-3.4887287616729736,4.12109375,2,C1,7.6,90,450.0,0.2140826467375675,[30100|0|0|0]
240,24000,1.3027344942092896,-0.3117499053478241,0.0,0.2310323417186737,0.4753352403640747,-3.503267765045166,4.12109375,2,C1,7.6,90,450.0,0.2145099253858299,[30200|0|0|0]
241,24100,1.302745699882507,-0.311748594045639,0.0,0.2656996846199035,0.4971014559268951,-3.512709617614746,4.12890625,2,C1,7.6,90,450.0,0.2145212075232905,[30300|0|0|0]
242,24200,1.3026994466781616,-0.3118448853492737,0.0,0.3020440340042114,0.5192734003067017,-3.516288042068481,4.12109375,2,C1,7.6,90,450.0,0.2146280315564848,[30400|0|0|0]
243,24300,1.302704930305481,-0.3118539750576019,0.0,0.3160482048988342,0.5259103178977966,-3.5148274898529053,4.12109375,2,C1,7.6,90,450.0,0.2146386472508129,[30500|0|0|0]
244,24400,1.3024286031723022,-0.3120295405387878,0.0,0.3338273763656616,0.5431563258171082,-3.5091888904571533,4.12890625,2,C1,7.6,90,450.0,0.2149660306998674,[30600|0|0|0]
245,24500,1.302572250366211,-0.3118362724781036,0.0,0.3337029218673706,0.5409660935401917,-3.475489616394043,4.12109375,2,C1,7.6,90,450.0,0.2152068357238982,[30700|0|0|0]
246,24600,1.3021503686904907,-0.3121390342712402,0.0,0.4676156938076019,0.6364201903343201,-3.474995851516724,4.12890625,2,C1,7.6,90,450.0,0.2157261129636187,[30800|0|0|0]
247,24700,1.3027920722961426,-0.3121052980422973,0.0,0.4328656196594238,0.6148383021354675,-3.4786810874938965,4.12109375,2,C1,7.6,90,450.0,0.2163687027632965,[30900|0|0|0]
248,24800,1.302936315536499,-0.312292993068695,0.0,0.4089836478233337,0.5912413597106934,-3.4917514324188232,4.12109375,2,C1,7.6,90,450.0,0.2166054210247867,[31000|0|0|0]
249,24900,1.3027729988098145,-0.3123051226139068,0.0,0.3875370025634765,0.5810950994491577,-3.477941036224365,4.12890625,2,C1,7.6,90,450.0,0.2167691875631333,[31100|0|0|0]
250,25000,1.3031692504882812,-0.312291145324707,0.0,0.3754031360149383,0.5596204996109009,-3.467228412628174,4.12109375,2,C1,7.6,90,450.0,0.2171656856807847,[31200|0|0|0]
251,25100,1.302070379257202,-0.3119176626205444,0.0,0.2794257402420044,0.5129785537719727,-3.485199213027954,4.12109375,2,C1,7.6,90,450.0,0.2183262921226083,[31300|0|0|0]
252,25200,1.30225932598114,-0.3117932677268982,0.0,0.2535377740859985,0.4854187369346618,-3.4654061794281006,4.12109375,2,C1,7.6,90,450.0,0.2185525109415693,[31400|0|0|0]
253,25300,1.3026219606399536,-0.3118759393692016,0.0,0.2329291850328445,0.4567064940929413,-3.4678449630737305,4.12109375,2,C1,7.6,90,450.0,0.2189244497755381,[31500|0|0|0]
254,25400,1.302542209625244,-0.3116704523563385,0.0,0.2218726873397827,0.4549417495727539,-3.4712812900543213,4.12109375,2,C1,7.6,90,450.0,0.2191448701393946,[31600|0|0|0]
255,25500,1.302411675453186,-0.3120911121368408,0.0,0.2256007045507431,0.4525322914123535,-3.4807605743408203,4.12109375,2,C1,7.6,90,450.0,0.2195853174359093,[31700|0|0|0]
256,25600,1.3026098012924194,-0.3114391267299652,0.0,0.2011732012033462,0.4488360285758972,-3.463508367538452,4.12109375,2,C1,7.6,90,450.0,0.2202667415468349,[31800|0|0|0]
257,25700,1.3025535345077517,-0.3120386600494385,0.0,0.2134330719709396,0.4442822635173797,-3.472640991210937,4.12109375,2,C1,7.6,90,450.0,0.2208689094239385,[31900|0|0|0]
258,25800,1.3027130365371704,-0.3118164837360382,0.0,0.2036513537168502,0.4468339681625366,-3.487555980682373,4.12109375,2,C1,7.6,90,450.0,0.2211424111819307,[32000|0|0|0]
259,25900,1.3028059005737305,-0.3117348253726959,0.0,0.1973682641983032,0.4464134275913238,-3.480640649795532,4.12109375,2,C1,7.6,90,450.0,0.2212660712708437,[32100|0|0|0]
260,26000,1.3024466037750244,-0.3115429580211639,0.0,0.1942759752273559,0.452007383108139,-3.470906972885132,4.12109375,2,C1,7.6,90,450.0,0.2216733884324565,[32200|0|0|0]
261,26100,1.3024253845214844,-0.3119305968284607,0.0,0.2066750079393386,0.4502650499343872,-3.492040634155273,4.12109375,2,C1,7.6,90,450.0,0.2220616075737199,[32300|0|0|0]
262,26200,1.3026927709579468,-0.3117590248584747,0.0,0.1936738342046737,0.4411928951740265,-3.4978065490722656,4.12109375,2,C1,7.6,90,450.0,0.2223793062474486,[32400|0|0|0]
263,26300,1.3026890754699707,-0.3117417991161346,0.0,0.2216722071170807,0.4578412771224975,-3.511543273925781,4.12109375,2,C1,7.6,90,450.0,0.2223969239326129,[32500|0|0|0]
264,26400,1.3026957511901855,-0.3119160830974579,0.0,0.2535173892974853,0.4786322712898254,-3.51444673538208,4.12109375,2,C1,7.6,90,450.0,0.2225713357194459,[32600|0|0|0]
265,26500,1.3026021718978882,-0.3121191561222076,0.0,0.2787672281265259,0.498975932598114,-3.4975509643554688,4.12109375,2,C1,7.6,90,450.0,0.2227949329853681,[32700|0|0|0]
266,26600,1.3025825023651123,-0.3119913637638092,0.0,0.2919623553752899,0.5146896243095398,-3.493738174438477,4.12109375,2,C1,7.6,90,450.0,0.2229242302296722,[32800|0|0|0]
267,26700,1.3022170066833496,-0.3120035827159881,0.0,0.2992767095565796,0.5288771390914917,-3.494813919067383,4.12109375,2,C1,7.6,90,450.0,0.223289930101397,[32900|0|0|0]
268,26800,1.302426815032959,-0.3119752705097198,0.0,0.3049159944057464,0.5274088978767395,-3.497368812561035,4.12109375,2,C1,7.6,90,450.0,0.2235016401025533,[33000|0|0|0]
269,26900,1.3024466037750244,-0.3120118379592895,0.0,0.3243623077869415,0.5443804860115051,-3.4960241317749023,3.701171875,2,A/E1,7.6,90,450.0,0.223543218614799,[33000|0|0|0]
270,27000,1.3026461601257324,-0.31223264336586,0.0,0.3781218528747558,0.6648978590965271,-3.293853521347046,3.19921875,2,A/E1,7.6,90,450.0,0.2238408387832665,[33000|0|0|0]
271,27100,1.3012793064117432,-0.3105672895908355,0.0120942443609237,1.260920763015747,2.254891395568848,-2.05289363861084,3.537109375,2,A/E1,7.6,90,450.0,0.2361254811847843,[33000|0|0|0]
272,27200,1.2986737489700315,-0.3064835965633392,0.0617471747100353,-0.2947463989257812,-1.737458109855652,-1.158124327659607,3.5625,2,A/E1,7.6,90,450.0,0.2860141469374241,[33000|0|0|0]
273,27300,1.3009721040725708,-0.3002594709396362,0.1365205943584442,0.638839066028595,-2.131378173828125,-0.5454403758049011,3.58984375,2,A/E1,7.6,90,450.0,0.3610813598993695,[33000|0|0|0]
274,27400,1.3061890602111816,-0.2909488081932068,0.2160496115684509,2.604193925857544,-2.0308268070220947,-1.1228004693984983,3.583984375,2,A/E1,7.6,90,450.0,0.4413233043581093,[33000|0|0|0]
275,27500,1.3150452375411987,-0.2841689586639404,0.2999356985092163,3.982165336608887,-0.957554042339325,-2.061072826385498,3.57421875,2,A/E1,7.6,90,450.0,0.5259476142151112,[33000|0|0|0]
276,27600,1.3250060081481934,-0.2815453708171844,0.3847671449184418,3.9758145809173584,0.7811316847801208,-2.1314697265625,3.578125,2,A/E1,7.6,90,450.0,0.6114021311475478,[33000|0|0|0]
277,27700,1.332977294921875,-0.2847188413143158,0.4728682339191437,3.3556129932403564,1.6702237129211426,-1.491290807723999,3.59375,2,A/E1,7.6,90,450.0,0.6999200062402885,[33000|0|0|0]
278,27800,1.3366972208023071,-0.2918931841850281,0.5634800791740417,2.80178165435791,1.767392635345459,-1.0275527238845823,3.642578125,2,A/E1,7.6,90,450.0,0.7908915157621165,[33000|0|0|0]
279,27900,1.3328570127487185,-0.2987992465496063,0.6570336818695068,0.9001043438911438,1.8381284475326536,-0.6541137099266052,3.63671875,2,A/E1,7.6,90,450.0,0.8847782425800177,[33000|0|0|0]
280,28000,1.3302119970321655,-0.3093797564506531,0.7491213083267212,0.2760080695152282,1.0953307151794434,-0.1512591987848281,3.615234375,2,A/E1,7.6,90,450.0,0.9775094360611242,[33000|0|0|0]
281,28100,1.3248579502105713,-0.318446546792984,0.8436757326126099,-0.5083122849464417,0.5019596815109253,0.0712833553552627,3.626953125,2,A/E1,7.6,90,450.0,1.0726483432259402,[33000|0|0|0]
282,28200,1.3191871643066406,-0.3263281881809234,0.9377518892288208,-0.576258659362793,0.4626933634281158,0.2748210728168487,3.62109375,2,A/E1,7.6,90,450.0,1.167224245692764,[33000|0|0|0]
283,28300,1.3126789331436155,-0.3316699862480163,1.0330705642700195,-0.6809552311897278,0.1414820849895477,0.3322513401508331,3.62109375,2,A/E1,7.6,90,450.0,1.2629140658988371,[33000|0|0|0]
284,28400,1.3056707382202148,-0.3352459967136383,1.129212498664856,-0.3889514505863189,-0.1037062034010887,4.89961576461792,3.615234375,2,A/E1,7.6,90,450.0,1.3593773967355631,[33000|0|0|0]
285,28500,1.2987903356552124,-0.3363076448440552,1.2282977104187012,-0.1189904510974884,0.0075754798017442,9.795848846435549,3.642578125,2,A/E1,7.6,90,450.0,1.458706879893957,[33000|0|0|0]
286,28600,1.2909817695617676,-0.3391637504100799,1.326669216156006,0.345512717962265,-0.077640064060688,11.298543930053713,3.65234375,2,A/E1,7.6,90,450.0,1.5574291376905889,[33000|0|0|0]
287,28700,1.286296248435974,-0.3413795530796051,1.4265155792236328,0.5106396675109863,-0.0908049643039703,9.494056701660156,3.689453125,2,A/E1,7.6,90,450.0,1.6574099363847523,[33000|0|0|0]
288,28800,1.2776801586151123,-0.3433375656604767,1.5113754272460938,0.711476743221283,-0.0033362011890858,9.510205268859863,3.716796875,2,A/E1,7.6,90,450.0,1.742728542933753,[33000|0|0|0]
289,28900,1.268962860107422,-0.3529335558414459,1.584710955619812,0.3159597814083099,-0.1662533432245254,8.57834529876709,3.716796875,2,A/E1,7.6,90,450.0,1.817201182491364,[33000|0|0|0]
290,29000,1.264724612236023,-0.3580378890037536,1.645907998085022,-0.1773473471403122,-0.0692743882536888,7.763590335845947,3.720703125,2,A/E1,7.6,90,450.0,1.878756807486485,[33000|0|0|0]
291,29100,1.2566503286361694,-0.3621756434440613,1.68877112865448,-1.0520944595336914,0.0352073870599269,-1.2528934478759766,3.68359375,2,A/E1,7.6,90,450.0,1.9225696255843152,[33000|0|0|0]
292,29200,1.2464683055877686,-0.3735128939151764,1.7113953828811646,-1.0257498025894165,0.390149861574173,-4.434943199157715,3.626953125,2,A/E1,7.6,90,450.0,1.949847157014352,[33000|0|0|0]
293,29300,1.2425800561904907,-0.3744747042655945,1.7288713455200195,-1.6932049989700315,0.0617662444710731,-3.26077651977539,3.62109375,2,A/E1,7.6,90,450.0,1.967776262755583,[33000|0|0|0]
294,29400,1.2371701002120972,-0.3701017796993255,1.7422153949737549,-1.431998610496521,-0.2876627445220947,0.8128612637519836,3.615234375,2,A/E1,7.6,90,450.0,1.9828246430263687,[33000|0|0|0]
295,29500,1.2245453596115112,-0.3718900084495544,1.7340129613876345,-0.4058437943458557,-0.2442010939121246,3.0042104721069336,3.57421875,2,A/E1,7.6,90,450.0,1.997985835394713,[33000|0|0|0]
296,29600,1.2209291458129885,-0.3666838109493255,1.736921310424805,-0.1971121430397033,-1.040218710899353,3.974639177322388,3.568359375,2,A/E1,7.6,90,450.0,2.0049600728992742,[33000|0|0|0]
297,29700,1.214140772819519,-0.3683488368988037,1.7272934913635254,0.6883206367492676,-0.3325587213039398,0.6736671924591064,3.58984375,2,A/E1,7.6,90,450.0,2.016857518809537,[33000|0|0|0]
298,29800,1.2171382904052734,-0.3638049960136413,1.7335911989212036,-0.0999783426523208,-0.783014178276062,-5.832336902618408,3.59375,2,A/E1,7.6,90,450.0,2.0251817438274364,[33000|0|0|0]
299,29900,1.2112584114074707,-0.3686186671257019,1.717782974243164,0.0014593321830034,0.0616740956902504,-8.321023941040039,3.65234375,2,A/E1,7.6,90,3.0,2.042721537842056,[33000|0|0|0]
300,30000,1.206575870513916,-0.3617069125175476,1.7083851099014282,-8.233535766601562,-0.2772603332996368,-9.475655555725098,3.9375,2,A/E1,7.6,90,3.0,2.055292074631263,[33000|0|0|0]
301,30100,1.200869083404541,-0.3515537679195404,1.6650036573410034,-15.224796295166016,0.4837270379066467,-10.837292671203612,3.826171875,2,A/E1,7.6,90,3.0,2.1002098238023,[33000|0|0|0]
302,30200,1.203782081604004,-0.3231702744960785,1.58377206325531,-17.57594871520996,-1.75055193901062,-6.190915584564209,3.60546875,2,A/E1,7.6,90,3.0,2.186306746715564,[33000|0|0|0]
303,30300,1.2137188911437988,-0.279179036617279,1.475268840789795,-16.23624610900879,-2.591242790222168,-2.0865347385406494,3.484375,2,A/E1,7.6,90,3.0,2.30380959127407,[33000|0|0|0]
304,30400,1.2332041263580322,-0.2170027792453766,1.362587571144104,-13.566679954528809,-1.4643003940582275,0.2171525061130523,3.47265625,2,A/E1,7.6,90,3.0,2.433973449165176,[33000|0|0|0]
305,30500,1.2589515447616575,-0.1289130300283432,1.264903545379639,-8.114858627319336,0.1021848767995834,2.1917848587036133,3.505859375,2,A/E1,7.6,90,3.0,2.5680066628143448,[33000|0|0|0]
306,30600,1.2864924669265747,-0.0312284678220748,1.1904205083847046,-4.021117687225342,2.954036235809326,0.0779925063252449,3.57421875,2,A/E1,7.6,90,3.0,2.693897484112457,[33000|0|0|0]
307,30700,1.3087600469589231,0.0732906237244606,1.139472246170044,1.511879563331604,3.7792155742645264,-1.099190354347229,3.583984375,2,A/E1,7.6,90,3.0,2.8122858747633304,[33000|0|0|0]
308,30800,1.3225853443145752,0.1759742200374603,1.1070598363876345,5.371734619140625,3.430985450744629,-1.3207534551620483,3.60546875,2,A/E1,7.6,90,3.0,2.9208474890966025,[33000|0|0|0]
309,30900,1.3277477025985718,0.2678433060646057,1.0886352062225342,8.2572660446167,2.668682813644409,-1.13991379737854,3.62109375,2,A/E1,7.6,90,3.0,3.014688023553926,[33000|0|0|0]
310,31000,1.327904224395752,0.3500326871871948,1.0773065090179443,9.793277740478516,1.3092793226242063,-0.8919143676757812,3.626953125,2,A/E1,7.6,90,3.0,3.0976546327936707,[33000|0|0|0]
311,31100,1.3239085674285889,0.410287082195282,1.0735210180282593,9.789419174194336,-0.0744175538420677,-1.2109454870224,3.630859375,2,A/E1,7.6,90,3.0,3.158159899791039,[33000|0|0|0]
312,31200,1.3194550275802612,0.4544551074504852,1.071370005607605,9.29463005065918,-0.8704776167869568,-3.184563636779785,3.63671875,2,A/E1,7.6,90,3.0,3.2026039694354664,[33000|0|0|0]
313,31300,1.3160372972488403,0.4856774508953094,1.071727275848389,7.264435768127441,-2.097391366958618,-5.366525650024414,3.63671875,2,A/E1,7.6,90,3.0,3.234014847373369,[33000|0|0|0]
314,31400,1.3153400421142578,0.5078086256980896,1.0732924938201904,4.666568279266357,-2.5137343406677246,-6.718847751617432,3.642578125,2,A/E1,7.6,90,3.0,3.256212256460313,[33000|0|0|0]
315,31500,1.318329691886902,0.5247223973274231,1.074517846107483,3.983341693878174,-1.383110761642456,-7.278222560882568,3.642578125,2,A/E1,7.6,90,3.0,3.273431872156382,[33000|0|0|0]
316,31600,1.3239654302597046,0.5374544858932495,1.0743727684020996,4.441504955291748,-1.3184564113616943,-7.509962558746338,3.63671875,2,A/E1,7.6,90,3.0,3.2873562634822293,[33000|0|0|0]
317,31700,1.330952763557434,0.5452254414558411,1.0718891620635986,4.303457260131836,0.4427784979343414,-7.093719482421875,3.630859375,2,A/E1,7.6,90,3.0,3.298097719501502,[33000|0|0|0]
318,31800,1.338103413581848,0.5480639338493347,1.068964600563049,3.974730968475342,1.3138048648834229,-6.985352993011475,3.630859375,2,A/E1,7.6,90,3.0,3.306328265948128,[33000|0|0|0]
319,31900,1.3421711921691897,0.546480119228363,1.066407322883606,2.965433120727539,1.6223790645599363,-6.938333034515381,3.63671875,2,A/E1,7.6,90,3.0,3.311387412172445,[33000|0|0|0]
320,32000,1.343570590019226,0.5419657826423645,1.064947247505188,2.278465509414673,1.5818217992782593,-6.239596366882324,3.63671875,2,A/E1,7.6,90,3.0,3.3163340645015493,[33000|0|0|0]
321,32100,1.3429332971572876,0.5347456932067871,1.0649824142456057,1.5501505136489868,0.473143607378006,-5.449285507202148,3.63671875,2,A/E1,7.6,90,3.0,3.323582310520363,[33000|0|0|0]
322,32200,1.3403459787368774,0.526238739490509,1.064847111701965,0.8765802383422852,0.4620610475540161,-4.232381343841553,3.6484375,2,A/E1,7.6,90,3.0,3.332475048283156,[33000|0|0|0]
323,32300,1.3373746871948242,0.5169233679771423,1.063553810119629,0.4669434130191803,0.5225956439971924,-3.0271317958831787,3.63671875,2,A/E1,7.6,90,3.0,3.3423379762887127,[33000|0|0|0]
324,32400,1.3320000171661377,0.5068371891975403,1.0597045421600342,-0.5566837191581726,0.4695149064064026,-2.230807304382324,3.630859375,2,A/E1,7.6,90,3.0,3.354397617415882,[33000|0|0|0]
325,32500,1.326076626777649,0.4992162883281708,1.0542834997177124,-0.5779854655265808,-0.4460232853889465,-1.703899383544922,3.630859375,2,A/E1,7.6,90,3.0,3.365467955482836,[33000|0|0|0]
326,32600,1.319707989692688,0.4924681186676025,1.0487821102142334,-0.5950742959976196,-1.1864503622055054,-1.47796630859375,3.626953125,2,A/E1,7.6,90,3.0,3.376255106105533,[33000|0|0|0]
327,32700,1.3157039880752563,0.486916035413742,1.044379949569702,-0.5204924941062927,-1.5389370918273926,-0.9909240007400512,3.62109375,2,A/E1,7.6,90,3.0,3.384393697860281,[33000|0|0|0]
328,32800,1.31337308883667,0.4828620851039886,1.0403622388839722,-0.4834579527378082,-1.3676704168319702,-0.4229846596717834,3.630859375,2,A/E1,7.6,90,3.0,3.390558890763072,[33000|0|0|0]
329,32900,1.3133143186569214,0.479777842760086,1.0366514921188354,-0.3184720277786255,-1.2170456647872925,-0.0692170038819313,3.630859375,2,A/E1,7.6,90,450.0,3.395384411079569,[33000|0|0|0]
330,33000,1.3156814575195312,0.477986603975296,1.0298964977264404,-0.199847787618637,-0.7983132600784302,0.1108066514134407,3.912109375,2,A/E1,7.6,90,450.0,3.402762881925232,[33000|0|0|0]
331,33100,1.3192803859710691,0.4766599833965301,0.9943124651908876,-0.1859063655138015,-0.8519912362098694,0.2833498120307922,3.80078125,2,A/E1,7.6,90,450.0,3.438553042299985,[33000|0|0|0]
332,33200,1.323822021484375,0.4750392436981201,0.9190905690193176,0.0672790110111236,-0.5414855480194092,-2.2930822372436523,3.6796875,2,A/E1,7.6,90,450.0,3.51392934437134,[33000|0|0|0]
333,33300,1.3275083303451538,0.4739491045475006,0.8115260601043701,0.1234720051288604,-1.1356624364852903,-0.0768660977482795,3.53125,2,A/E1,7.6,90,450.0,3.6215625216657914,[33000|0|0|0]
334,33400,1.331850290298462,0.4751193523406982,0.691034734249115,-1.9057494401931765,-0.2426151633262634,1.759080171585083,3.515625,2,A/E1,7.6,90,450.0,3.74213773347357,[33000|0|0|0]
335,33500,1.3386589288711548,0.4802805781364441,0.5670378804206848,-1.1203352212905884,0.2753085792064667,2.028998374938965,3.5,2,A/E1,7.6,90,450.0,3.866428584183818,[33000|0|0|0]
336,33600,1.3445955514907837,0.4906588494777679,0.4454532265663147,-1.0009928941726685,1.3979884386062622,2.6402037143707275,3.419921875,2,A/E1,7.6,90,450.0,3.9885996939317834,[33000|0|0|0]
337,33700,1.34766948223114,0.5052489638328552,0.335140585899353,-2.035933017730713,1.9017030000686648,3.369978427886963,3.435546875,2,A/E1,7.6,90,450.0,4.09991545731689,[33000|0|0|0]
338,33800,1.3490679264068604,0.5236217975616455,0.2418174296617508,3.888481140136719,-2.53965425491333,5.263374328613281,3.525390625,2,A/E1,7.6,90,450.0,4.195040260367863,[33000|0|0|0]
339,33900,1.3531218767166138,0.5346808433532715,0.1725913733243942,5.656464099884033,0.3047414124011993,7.60706901550293,3.583984375,2,A/E1,7.6,90,450.0,4.265261225064726,[33000|0|0|0]
340,34000,1.361812949180603,0.5396140813827515,0.1190421730279922,4.3289794921875,3.260021924972534,7.996050834655762,3.537109375,2,A/E1,7.6,90,450.0,4.31973496580661,[33000|0|0|0]
341,34100,1.3692889213562012,0.5400035381317139,0.0913265496492385,3.6187143325805664,2.747508764266968,5.623613834381104,3.5625,2,A/E1,7.6,90,450.0,4.348443807925417,[33000|0|0|0]
342,34200,1.3695749044418335,0.5291750431060791,0.0745916664600372,4.281609058380127,1.343098521232605,2.6147940158843994,3.58984375,2,A/E1,7.6,90,450.0,4.368378561653559,[33000|0|0|0]
343,34300,1.36410391330719,0.5094695687294006,0.0677357092499733,1.2339953184127808,1.5455455780029297,0.0750327855348587,3.611328125,2,A/E1,7.6,90,450.0,4.389948021861722,[33000|0|0|0]
