time.ms,stateEstimate.x,stateEstimate.y,stateEstimate.z,stabilizer.roll,stabilizer.pitch,stabilizer.yaw,pm.vbat,drone_id,node_name,wind_speed,global_wind_direction,relative_wind_direction,travel_dist,waiting_time
0,1.2623307704925537,1.1096601486206055,-0.049283549189567566,0.12212417274713516,0.9916191101074219,-3.514721393585205,4.05859375,2,A/E1,7.6,270,0,0.08813354132970591,[100|0|0|0]
100,1.2624276876449585,1.109635591506958,-0.04932159557938576,0.123320072889328,0.9887687563896179,-3.5511927604675293,4.05859375,2,A/E1,7.6,270,0,0.08824051569130319,[200|0|0|0]
200,1.2622426748275757,1.1098352670669556,-0.04927843064069748,0.10452618449926376,0.9909088611602783,-3.5479631423950195,4.05859375,2,A/E1,7.6,270,0,0.08851613006645119,[300|0|0|0]
300,1.2626838684082031,1.110612154006958,-0.048736926168203354,0.09438730776309967,0.9777001142501831,-3.4619569778442383,4.05859375,2,A/E1,7.6,270,0,0.08956084638529778,[400|0|0|0]
400,1.2627981901168823,1.1107319593429565,-0.04869258403778076,0.10673663020133972,0.9721490740776062,-3.438366651535034,4.05859375,2,A/E1,7.6,270,0,0.08973227857638064,[500|0|0|0]
500,1.2624505758285522,1.1098628044128418,-0.04944252967834473,0.1219799816608429,0.9739631414413452,-3.52528715133667,4.05859375,2,A/E1,7.6,270,0,0.0909317303052113,[600|0|0|0]
600,1.262915015220642,1.110426902770996,-0.0482339970767498,0.11137150973081589,0.9685021042823792,-3.467790126800537,4.05859375,2,A/E1,7.6,270,0,0.09234398451593788,[700|0|0|0]
700,1.2631033658981323,1.110449194908142,-0.048399750143289566,0.1026463583111763,0.9640727043151855,-3.4978394508361816,4.05859375,2,A/E1,7.6,270,0,0.09259587138768173,[800|0|0|0]
800,1.26276695728302,1.1106469631195068,-0.048406124114990234,0.0992426797747612,0.975286602973938,-3.5051767826080322,4.05859375,2,A/E1,7.6,270,0,0.0929861580121815,[900|0|0|0]
900,1.262972354888916,1.1108722686767578,-0.048981521278619766,0.08934547007083893,0.9709745049476624,-3.500809669494629,4.05859375,2,A/E1,7.6,270,0,0.09363733591916922,[1000|0|0|0]
1000,1.2627432346343994,1.110552430152893,-0.0486670657992363,0.100429967045784,0.9728764295578003,-3.492460012435913,4.05859375,2,A/E1,7.6,270,0,0.09414099753264797,[1100|0|0|0]
1100,1.262972116470337,1.1107410192489624,-0.04841599985957146,0.09837593883275986,0.9645766615867615,-3.474602222442627,4.05859375,2,A/E1,7.6,270,0,0.09452956779403986,[1200|0|0|0]
1200,1.2630294561386108,1.1107120513916016,-0.04880569502711296,0.09943696856498718,0.9535560607910156,-3.4748587608337402,4.05859375,2,A/E1,7.6,270,0,0.09492452259895182,[1300|0|0|0]
1300,1.2629609107971191,1.110690951347351,-0.04830702021718025,0.08612451702356339,0.94837886095047,-3.5164945125579834,4.05859375,2,A/E1,7.6,270,0,0.09542832835692706,[1400|0|0|0]
1400,1.2629408836364746,1.1107016801834106,-0.04847591742873192,0.08683320879936218,0.9571577906608582,-3.5092501640319824,4.05859375,2,A/E1,7.6,270,0,0.09559874685110127,[1500|0|0|0]
1500,1.2628424167633057,1.11042058467865,-0.048842404037714005,0.09330347925424576,0.9642295837402344,-3.5225017070770264,4.0546875,2,A/E1,7.6,270,0,0.09607099979441826,[1600|0|0|0]
1600,1.2630270719528198,1.1105252504348755,-0.04837188124656677,0.09538305550813675,0.9611480236053467,-3.552675247192383,4.05859375,2,A/E1,7.6,270,0,0.09658718208443774,[1700|0|0|0]
1701,1.2628790140151978,1.1104116439819336,-0.0485486276447773,0.10011348873376846,0.9710634350776672,-3.5557234287261963,4.05859375,2,A/E1,7.6,270,0,0.09684421684536189,[1800|0|0|0]
1801,1.2631767988204956,1.110521674156189,-0.048539891839027405,0.08804698288440704,0.9584062099456787,-3.5603132247924805,4.05859375,2,A/E1,7.6,270,0,0.09716179950202791,[1900|0|0|0]
1901,1.2629119157791138,1.111016869544983,-0.0485614575445652,0.081251360476017,0.9671418070793152,-3.5200982093811035,4.05859375,2,A/E1,7.6,270,0,0.09772380179592877,[2000|0|0|0]
2001,1.2626277208328247,1.1104021072387695,-0.04861041158437729,0.0972258597612381,0.9767310619354248,-3.5219814777374268,4.05859375,2,A/E1,7.6,270,0,0.09840284226501066,[2100|0|0|0]
2101,1.263143539428711,1.1105382442474365,-0.048766568303108215,0.09685346484184265,0.960723876953125,-3.544710159301758,4.05859375,2,A/E1,7.6,270,0,0.09895870828285637,[2200|0|0|0]
2201,1.2629765272140503,1.1104862689971924,-0.04860682412981987,0.10088144987821579,0.9662992358207703,-3.485241413116455,4.05859375,2,A/E1,7.6,270,0,0.09919558949229133,[2300|0|0|0]
2302,1.2630828619003296,1.1108613014221191,-0.04878219589591026,0.08539874106645584,0.9731764793395996,-3.482144594192505,4.05859375,2,A/E1,7.6,270,0,0.09962303731553322,[2400|0|0|0]
2401,1.2627320289611816,1.110533356666565,-0.04854511842131615,0.09376465529203415,0.982649564743042,-3.511854648590088,4.05859375,2,A/E1,7.6,270,0,0.10015860919945416,[2500|0|0|0]
2501,1.2630031108856201,1.1104214191436768,-0.04864183068275452,0.09027891606092453,0.9716589450836182,-3.4759888648986816,4.05859375,2,A/E1,7.6,270,0,0.10046742739888569,[2600|0|0|0]
2601,1.2627969980239868,1.110882043838501,-0.04837770015001297,0.08095618337392807,0.9833154082298279,-3.515069007873535,4.05859375,2,A/E1,7.6,270,0,0.10103700843749118,[2700|0|0|0]
2702,1.2628766298294067,1.1107332706451416,-0.04835059493780136,0.08947421610355377,0.9881618618965149,-3.53311824798584,4.0546875,2,A/E1,7.6,270,0,0.10120791595641829,[2800|0|0|0]
2801,1.2630976438522339,1.1106466054916382,-0.04861266165971756,0.08515332639217377,0.9790834188461304,-3.542529344558716,4.05859375,2,A/E1,7.6,270,0,0.10156152168863132,[2900|0|0|0]
2902,1.262689471244812,1.1109124422073364,-0.04836655780673027,0.08052459359169006,0.9948540329933167,-3.537735939025879,4.05859375,2,A/E1,7.6,270,0,0.10210726993033073,[3000|0|0|0]
3002,1.262900948524475,1.1106826066970825,-0.04877661541104317,0.09209638833999634,0.979708194732666,-3.539940118789673,4.0546875,2,A/E1,7.6,270,0,0.10262272530225172,[3100|0|0|0]
3100,1.2631028890609741,1.1106418371200562,-0.0484347827732563,0.08758894354104996,0.9753046631813049,-3.5775465965270996,4.05859375,2,A/E1,7.6,270,0,0.10302183893387654,[3200|0|0|0]
3200,1.2631378173828125,1.1107233762741089,-0.048647478222846985,0.07264980673789978,0.9632720947265625,-3.5411529541015625,4.05859375,2,A/E1,7.6,270,0,0.10325229061121186,[3300|0|0|0]
3302,1.2630623579025269,1.1103624105453491,-0.048836078494787216,0.08350245654582977,0.9714388847351074,-3.5446083545684814,4.05859375,2,A/E1,7.6,270,0,0.10366648917842326,[3400|0|0|0]
3402,1.2626962661743164,1.1107763051986694,-0.04837629199028015,0.07788647711277008,0.9804566502571106,-3.5446529388427734,4.05859375,2,A/E1,7.6,270,0,0.10438533239306612,[3500|0|0|0]
3500,1.2631618976593018,1.1106795072555542,-0.0485125370323658,0.08004506677389145,0.9654911756515503,-3.5179827213287354,4.0546875,2,A/E1,7.6,270,0,0.10488004971952025,[3600|0|0|0]
3600,1.2626491785049438,1.1106348037719727,-0.048518672585487366,0.09037359058856964,0.9804110527038574,-3.5044054985046387,4.0546875,2,A/E1,7.6,270,0,0.1053947505818684,[3700|0|0|0]
3700,1.2631185054779053,1.1108115911483765,-0.04865686967968941,0.08926620334386826,0.9675338268280029,-3.4927892684936523,4.05859375,2,A/E1,7.6,270,0,0.10591496209736066,[3800|0|0|0]
3800,1.2630615234375,1.1107758283615112,-0.04825738072395325,0.09323128312826157,0.9818992018699646,-3.536921501159668,4.05859375,2,A/E1,7.6,270,0,0.1063200761005848,[3900|0|0|0]
3900,1.2627630233764648,1.110717535018921,-0.048515383154153824,0.09582503885030746,0.99228435754776,-3.53300142288208,4.05859375,2,A/E1,7.6,270,0,0.10671890645827808,[4000|0|0|0]
4000,1.2628892660140991,1.1106951236724854,-0.04849524423480034,0.09511011838912964,0.9885839223861694,-3.5193910598754883,4.05859375,2,A/E1,7.6,270,0,0.10684869493264557,[4100|0|0|0]
4100,0.8151528239250183,1.186772108078003,0.2420908510684967,-0.0012681413209065795,0.0018158662132918835,-1.26048743724823,4.05859375,2,A/E1,7.6,270,0,0.6460109227587824,[4200|0|0|0]
4200,1.2967575788497925,1.1201192140579224,-0.07852104306221008,-2.4408762454986572,-11.434391021728516,0.29054248332977295,4.0546875,2,A/E1,7.6,270,0,1.2284005989254219,[4300|0|0|0]
4300,1.2915709018707275,1.112131118774414,-0.06803995370864868,2.96612286567688,-2.7232515811920166,0.23523202538490295,4.05859375,2,A/E1,7.6,270,0,1.2425626792239128,[4400|0|0|0]
4400,1.2770841121673584,1.1099408864974976,-0.06023253872990608,5.936145782470703,4.810800552368164,-1.1157643795013428,4.05859375,2,A/E1,7.6,270,0,1.2591644840049234,[4500|0|0|0]
4500,1.268008828163147,1.1091433763504028,-0.05557914823293686,6.318014144897461,6.868158340454102,-2.1499569416046143,4.0546875,2,A/E1,7.6,270,0,1.2693943835796553,[4600|0|0|0]
4600,1.263152837753296,1.1087034940719604,-0.05213871970772743,5.829367160797119,6.879639148712158,-2.83351731300354,4.05859375,2,A/E1,7.6,270,0,1.2753618527011947,[4700|0|0|0]
4700,1.2607932090759277,1.108828067779541,-0.050501927733421326,5.1226606369018555,6.31266975402832,-3.2860138416290283,4.05859375,2,A/E1,7.6,270,0,1.2782363011823528,[4800|0|0|0]
4800,1.259252667427063,1.1086691617965698,-0.04928615689277649,4.406984329223633,5.629783630371094,-3.551516532897949,4.05859375,2,A/E1,7.6,270,0,1.2802052141871025,[4900|0|0|0]
4900,1.2588342428207397,1.108886957168579,-0.048917677253484726,3.7634358406066895,4.961784362792969,-3.741386651992798,4.05859375,2,A/E1,7.6,270,0,1.2808037885098211,[5000|0|0|0]
5000,1.258158564567566,1.107725739479065,-0.04902622848749161,3.2991085052490234,4.388676643371582,-3.8484156131744385,4.0546875,2,A/E1,7.6,270,0,1.2821516575667613,[5100|0|0|0]
5100,1.2581963539123535,1.1077607870101929,-0.04865168407559395,2.8297197818756104,3.865736246109009,-3.9236292839050293,4.0546875,2,A/E1,7.6,270,0,1.2825297314755428,[5200|0|0|0]
5200,1.2586549520492554,1.1082243919372559,-0.04878619685769081,2.3970062732696533,3.4019317626953125,-3.9194369316101074,4.05859375,2,A/E1,7.6,270,0,1.2831955658904797,[5300|0|0|0]
5300,1.2591794729232788,1.1080822944641113,-0.048647888004779816,2.04018497467041,2.9964349269866943,-3.9277966022491455,4.05859375,2,A/E1,7.6,270,0,1.2837563182225782,[5400|0|0|0]
5400,1.2597510814666748,1.1088122129440308,-0.048794832080602646,1.7067358493804932,2.6558480262756348,-3.916203498840332,4.0546875,2,A/E1,7.6,270,0,1.2846949927538351,[5500|0|0|0]
5500,1.2603808641433716,1.1084890365600586,-0.048788994550704956,1.4395235776901245,2.3420910835266113,-3.8709027767181396,4.0546875,2,A/E1,7.6,270,0,1.2854028792361047,[5600|0|0|0]
5600,1.261245608329773,1.109627366065979,-0.04837998002767563,1.1944429874420166,2.0959465503692627,-3.8418774604797363,4.05859375,2,A/E1,7.6,270,0,1.286889778510438,[5700|0|0|0]
5700,1.261588454246521,1.1095998287200928,-0.048497918993234634,0.9953287243843079,1.8796591758728027,-3.8541359901428223,4.0546875,2,A/E1,7.6,270,0,1.2872533871292116,[5800|0|0|0]
5800,1.2610924243927002,1.1095789670944214,-0.048296649008989334,0.8011321425437927,1.7134146690368652,-3.8419713973999023,4.05859375,2,A/E1,7.6,270,0,1.2877891020066092,[5900|0|0|0]
5900,1.2614752054214478,1.109857439994812,-0.048101045191287994,0.6545813679695129,1.5598994493484497,-3.794186592102051,4.05859375,2,A/E1,7.6,270,0,1.2883012829567824,[6000|0|0|0]
6000,1.2616690397262573,1.1099364757537842,-0.048677124083042145,0.5361582636833191,1.4418026208877563,-3.707854986190796,4.0546875,2,A/E1,7.6,270,0,1.2889142146645949,[6100|0|0|0]
6100,1.2619200944900513,1.1104176044464111,-0.04838872328400612,0.42890340089797974,1.3389099836349487,-3.694929838180542,4.05859375,2,A/E1,7.6,270,0,1.2895287781960358,[6200|0|0|0]
6200,1.2621899843215942,1.1103192567825317,-0.04845326766371727,0.35099518299102783,1.2576391696929932,-3.652387857437134,4.05859375,2,C1,7.6,270,0,1.2898231907655928,[6200|0|0|0]
6300,1.2619218826293945,1.110363483428955,-0.04804025962948799,0.3751024305820465,1.4900970458984375,-3.4959211349487305,3.15625,2,C1,7.6,270,0,1.2903175693148363,[6200|0|0|0]
6400,1.2554653882980347,1.1116998195648193,-0.03604559600353241,0.5751627087593079,12.684864044189453,-2.1542928218841553,3.541015625,2,C1,7.6,270,0,1.304004938266491,[6200|0|0|0]
6500,1.2234193086624146,1.120444416999817,0.0026083593256771564,-6.074247360229492,14.521224021911621,1.3813331127166748,3.494140625,2,C1,7.6,270,0,1.3549710786628877,[6200|0|0|0]
6600,1.1722893714904785,1.1403372287750244,0.05141901597380638,-1.3584764003753662,-3.3072457313537598,3.1448850631713867,3.44140625,2,C1,7.6,270,0,1.4284045494916011,[6200|0|0|0]
6700,1.1287552118301392,1.1670310497283936,0.10873833298683167,3.444152593612671,-11.661611557006836,5.333549499511719,3.45703125,2,C1,7.6,270,0,1.5051722981707316,[6200|0|0|0]
6800,1.1039435863494873,1.1918619871139526,0.1756506860256195,4.884326457977295,-9.980148315429688,8.182999610900879,3.521484375,2,C1,7.6,270,0,1.5807332351661465,[6200|0|0|0]
6900,1.0951197147369385,1.2135798931121826,0.2474278062582016,4.2984771728515625,-7.88641357421875,10.147573471069336,3.541015625,2,C1,7.6,270,0,1.6562414012150266,[6200|0|0|0]
7000,1.0980327129364014,1.2310081720352173,0.31924968957901,9.112452507019043,-7.330994606018066,9.037020683288574,3.515625,2,C1,7.6,270,0,1.7302049962363408,[6200|0|0|0]
7100,1.1107406616210938,1.235287070274353,0.3893926441669464,9.898675918579102,-6.153251647949219,6.483062744140625,3.552734375,2,C1,7.6,270,0,1.8016181253390413,[6200|0|0|0]
7200,1.132179856300354,1.223465919494629,0.45473310351371765,6.742190837860107,-2.5975191593170166,4.858258247375488,3.583984375,2,C1,7.6,270,0,1.8713945848501061,[6200|0|0|0]
7300,1.1551849842071533,1.2024362087249756,0.5144514441490173,4.115423202514648,0.2221580445766449,1.77886962890625,3.615234375,2,C1,7.6,270,0,1.9387575186735164,[6200|0|0|0]
7400,1.176886796951294,1.1737511157989502,0.5676125884056091,1.7898598909378052,1.9064111709594727,-1.275156855583191,3.63671875,2,C1,7.6,270,0,2.002944047565696,[6200|0|0|0]
7500,1.1932528018951416,1.1423041820526123,0.6115579605102539,-0.2287621796131134,2.424888849258423,-2.6897592544555664,3.62109375,2,C1,7.6,270,0,2.0594059948336065,[6200|0|0|0]
7600,1.2024985551834106,1.112786054611206,0.6421122550964355,-2.581031084060669,3.4923014640808105,-1.6768039464950562,3.615234375,2,C1,7.6,270,0,2.102884365538749,[6200|0|0|0]
7700,1.2057738304138184,1.0882896184921265,0.6637711524963379,-5.187819004058838,1.7885584831237793,-0.102230004966259,3.58984375,2,C1,7.6,270,0,2.1357463594975847,[6200|0|0|0]
7800,1.2068356275558472,1.0705446004867554,0.6768871545791626,-6.950835227966309,0.9147645235061646,-0.6505100131034851,3.5625,2,C1,7.6,270,0,2.157838045440908,[6200|0|0|0]
7900,1.2064398527145386,1.0627877712249756,0.6813177466392517,-5.669914722442627,0.867694616317749,-2.3227086067199707,3.515625,2,C1,7.6,270,0,2.16677981170515,[6200|0|0|0]
8000,1.208063006401062,1.0649741888046265,0.681047260761261,-5.200819969177246,-0.4832896590232849,-4.198007106781006,3.48828125,2,C1,7.6,270,0,2.169516271522665,[6200|0|0|0]
8100,1.2121407985687256,1.0738897323608398,0.6759853363037109,-2.0250144004821777,0.4415316581726074,-5.882318019866943,3.478515625,2,C1,7.6,270,0,2.180549783433174,[6200|0|0|0]
8200,1.2179043292999268,1.086929440498352,0.6691923141479492,-0.8213260173797607,0.08161907643079758,-6.547701358795166,3.45703125,2,C1,7.6,270,0,2.196342105137397,[6200|0|0|0]
8300,1.2261501550674438,1.1003443002700806,0.6639406085014343,0.4007256031036377,0.41919058561325073,-7.065975189208984,3.447265625,2,C1,7.6,270,0,2.2129412773300405,[6200|0|0|0]
8400,1.2380763292312622,1.1136541366577148,0.6614207625389099,1.0313020944595337,0.5762600898742676,-7.340134143829346,3.431640625,2,C1,7.6,270,0,2.230989407386259,[6200|0|0|0]
8500,1.2504292726516724,1.1249055862426758,0.6619964241981506,2.999075174331665,2.520298957824707,-7.564223289489746,3.453125,2,C1,7.6,270,0,2.24770831031847,[6200|0|0|0]
8600,1.2609609365463257,1.130928635597229,0.6650749444961548,4.209803104400635,4.465588569641113,-7.773088455200195,3.447265625,2,C1,7.6,270,0,2.2602251132306574,[6200|0|0|0]
8700,1.265537142753601,1.1294875144958496,0.6704397201538086,3.978888511657715,3.520761013031006,-7.015685081481934,3.44140625,2,C1,7.6,270,0,2.267422287060523,[6200|0|0|0]
8800,1.2631787061691284,1.1216673851013184,0.677897572517395,1.4046802520751953,2.930020809173584,-5.927179336547852,3.45703125,2,C1,7.6,270,0,2.278482857061533,[6200|0|0|0]
8900,1.2572423219680786,1.110304594039917,0.6866574883460999,-0.11932334303855896,1.4874556064605713,-4.395799160003662,3.46875,2,C1,7.6,270,0,2.2940099238615934,[6200|0|0|0]
9000,1.249660611152649,1.0996887683868408,0.6951032280921936,-1.2614704370498657,0.7383842468261719,-2.0134193897247314,3.462890625,2,C1,7.6,270,0,2.309550471247193,[6200|0|0|0]
9100,1.243314504623413,1.0922107696533203,0.700314462184906,-3.7398998737335205,-0.7954952120780945,0.6549208164215088,3.46875,2,C1,7.6,270,0,2.320656797998554,[6200|0|0|0]
9200,1.238528847694397,1.0911937952041626,0.7014702558517456,-3.4940898418426514,-0.8607842326164246,3.1148769855499268,3.44140625,2,C1,7.6,270,347.19573393471325,2.3256839849130007,[6200|0|0|0]
9300,1.2360035181045532,1.0969780683517456,0.7008598446846008,0.5072104334831238,0.9333314299583435,6.54658317565918,3.298828125,2,C1,7.6,270,347.19573393471325,2.33202493966573,[6200|0|0|0]
9400,1.2366094589233398,1.0993890762329102,0.7102532982826233,12.589457511901855,-2.0493321418762207,9.679986000061035,3.29296875,2,C1,7.6,270,347.19573393471325,2.3417417855416875,[6200|0|0|0]
9500,1.2455713748931885,1.078887701034546,0.7388446927070618,15.637105941772461,-1.4106643199920654,9.58779239654541,3.404296875,2,C1,7.6,270,347.19573393471325,2.3780472969415913,[6200|0|0|0]
9600,1.2628849744796753,1.0313454866409302,0.7803569436073303,16.871286392211914,0.026556959375739098,9.702438354492188,3.435546875,2,C1,7.6,270,347.19573393471325,2.443494144496661,[6200|0|0|0]
9700,1.2842450141906738,0.9569684863090515,0.8281583189964294,12.782817840576172,0.9738082885742188,5.1520209312438965,3.521484375,2,C1,7.6,270,347.19573393471325,2.534451062671769,[6200|0|0|0]
9800,1.3070837259292603,0.8639846444129944,0.8780794739723206,8.093868255615234,0.016329634934663773,1.5174225568771362,3.55859375,2,C1,7.6,270,347.19573393471325,2.642431261420225,[6200|0|0|0]
9900,1.3275965452194214,0.7620356678962708,0.921527624130249,-0.5153276920318604,3.0926971435546875,-1.279252052307129,3.568359375,2,C1,7.6,270,347.19573393471325,2.755134905195323,[6200|0|0|0]
10000,1.3419175148010254,0.6633450388908386,0.9578585028648376,-6.764805793762207,2.981677770614624,-2.591557025909424,3.568359375,2,C1,7.6,270,347.19573393471325,2.861270964915253,[6200|0|0|0]
10100,1.3502674102783203,0.5793460607528687,0.985925555229187,-10.579545021057129,3.870204448699951,-2.5962963104248047,3.568359375,2,C1,7.6,270,347.19573393471325,2.950227743808871,[6200|0|0|0]
10200,1.3544921875,0.5154871940612793,1.0026204586029053,-12.573009490966797,2.9072506427764893,-1.9261736869812012,3.552734375,2,C1,7.6,270,347.19573393471325,3.016367923702524,[6200|0|0|0]
10300,1.3548264503479004,0.4719424545764923,1.0097153186798096,-11.570879936218262,2.499157428741455,-1.8011417388916016,3.53125,2,C1,7.6,270,347.19573393471325,3.0604881357142575,[6200|0|0|0]
10400,1.351852536201477,0.44829580187797546,1.011051058769226,-9.48025894165039,1.5475140810012817,-1.7056406736373901,3.521484375,2,C1,7.6,270,347.19573393471325,3.0843584635457106,[6200|0|0|0]
10500,1.3485114574432373,0.43925145268440247,1.0113000869750977,-6.955405235290527,0.486874520778656,-1.8261336088180542,3.515625,2,C1,7.6,270,347.19573393471325,3.094003414279196,[6200|0|0|0]
10600,1.3448923826217651,0.4404452443122864,1.0119976997375488,-3.803429126739502,0.0872112512588501,-1.5027058124542236,3.53125,2,C1,7.6,270,347.19573393471325,3.097877624467164,[6200|0|0|0]
10700,1.3423006534576416,0.4459674060344696,1.0140044689178467,-1.1438666582107544,-0.325602650642395,-0.9127286672592163,3.541015625,2,C1,7.6,270,347.19573393471325,3.104299341736642,[6200|0|0|0]
10800,1.341120958328247,0.4531020522117615,1.0153279304504395,0.5482921004295349,-0.4776623249053955,-0.49266380071640015,3.537109375,2,C1,7.6,270,347.19573393471325,3.1116509678902022,[6200|0|0|0]
10900,1.3407061100006104,0.4583742618560791,1.015602946281433,1.2934510707855225,-0.2309494912624359,0.012036824598908424,3.537109375,2,C1,7.6,270,347.19573393471325,3.1169466196325164,[6200|0|0|0]
11000,1.340800166130066,0.4610130488872528,1.0156176090240479,1.2226276397705078,0.05619262903928757,0.6172137260437012,3.53125,2,C1,7.6,270,347.19573393471325,3.1195871230972747,[6200|0|0|0]
11100,1.3411821126937866,0.46124014258384705,1.0156201124191284,1.2731120586395264,0.4892006814479828,1.2206696271896362,3.525390625,2,C1,7.6,270,347.19573393471325,3.120031488928047,[6200|0|0|0]
11200,1.3408397436141968,0.45956656336784363,1.0139631032943726,0.7194101214408875,0.3858646750450134,1.8048112392425537,3.521484375,2,C1,7.6,270,347.19573393471325,3.1224113551466446,[6200|0|0|0]
11300,1.3402869701385498,0.45637938380241394,1.0111453533172607,0.05306300148367882,0.2004174441099167,2.091749429702759,3.521484375,2,C1,7.6,270,347.19573393471325,3.126701272049241,[6200|0|0|0]
11400,1.3392009735107422,0.45279252529144287,1.0081037282943726,-0.5543931722640991,0.08418750762939453,2.4320895671844482,3.525390625,2,C1,7.6,270,347.19573393471325,3.13152790912211,[6200|0|0|0]
11500,1.3387666940689087,0.45054274797439575,1.0050864219665527,-0.8595402240753174,-0.023379622027277946,2.794154405593872,3.521484375,2,C1,7.6,270,347.19573393471325,3.135316607326745,[6200|0|0|0]
11600,1.338015079498291,0.4492030441761017,1.0025272369384766,-0.756488561630249,0.16589859127998352,2.958477258682251,3.525390625,2,C1,7.6,270,347.19573393471325,3.1383014287180275,[6200|0|0|0]
11700,1.3367968797683716,0.44947999715805054,1.000261664390564,-0.7108151316642761,0.31953421235084534,3.014538526535034,3.521484375,2,C1,7.6,270,347.19573393471325,3.1408886149320527,[6200|0|0|0]
11800,1.3349156379699707,0.4503757953643799,0.9976407289505005,-0.5115170478820801,0.06394665688276291,3.098479747772217,3.521484375,2,C1,7.6,270,347.19573393471325,3.144236872346215,[6200|0|0|0]
11900,1.3333566188812256,0.4516337513923645,0.9942918419837952,-0.4606284201145172,-0.03784476965665817,3.033020496368408,3.521484375,2,C1,7.6,270,347.19573393471325,3.148139184199871,[6200|0|0|0]
12000,1.331709623336792,0.45399656891822815,0.9910902976989746,0.042861659079790115,0.036774586886167526,2.807554006576538,3.509765625,2,C1,7.6,270,347.19573393471325,3.1524456197086854,[6200|0|0|0]
12100,1.3298707008361816,0.4567866027355194,0.9877431392669678,-0.2869757413864136,-0.08418043702840805,2.5761165618896484,3.509765625,2,C1,7.6,270,347.19573393471325,3.157175249105777,[6200|0|0|0]
12200,1.3285573720932007,0.45920175313949585,0.9857997894287109,0.15970338881015778,-0.14537359774112701,2.5491912364959717,3.521484375,2,C1,7.6,270,0,3.1605419080512034,[6200|0|0|0]
12300,1.3265609741210938,0.46331554651260376,0.9812878370285034,0.5508507490158081,-0.2791844606399536,2.549888849258423,3.822265625,2,C1,7.6,270,0,3.1669658177050977,[6200|0|0|0]
12400,1.3271563053131104,0.46404069662094116,0.9473336935043335,0.8656206727027893,-1.4333065748214722,2.100459575653076,3.748046875,2,C1,7.6,270,0,3.200932921266746,[6200|0|0|0]
12500,1.3274599313735962,0.46573638916015625,0.8812155723571777,0.5713152885437012,-2.275697946548462,-2.6636412143707275,3.60546875,2,C1,7.6,270,0,3.2670734799732015,[6200|0|0|0]
12600,1.3299429416656494,0.4654703140258789,0.7758694887161255,0.9741190671920776,-0.9469972252845764,-1.3744971752166748,3.515625,2,C1,7.6,270,0,3.3724491577864195,[6200|0|0|0]
12700,1.3335932493209839,0.4624991714954376,0.6544289588928223,0.9739280343055725,-0.5558226108551025,-1.447969675064087,3.48828125,2,C1,7.6,270,0,3.493980860307529,[6200|0|0|0]
12800,1.33892023563385,0.45768553018569946,0.5295966863632202,0.3667577803134918,0.2232939451932907,-2.111754894256592,3.453125,2,C1,7.6,270,0,3.6190194311196633,[6200|0|0|0]
12900,1.343381404876709,0.45204517245292664,0.4101010262966156,-1.406380295753479,2.2460408210754395,-1.5214426517486572,3.388671875,2,C1,7.6,270,0,3.73873128701172,[6200|0|0|0]
13000,1.3455678224563599,0.4476622939109802,0.3056600093841553,-2.5638630390167236,2.506376266479492,1.2206724882125854,3.404296875,2,C1,7.6,270,0,3.8432870905802208,[6200|0|0|0]
13100,1.3409587144851685,0.448904424905777,0.21726393699645996,-6.199302673339844,4.863851070404053,5.922713756561279,3.46875,2,C1,7.6,270,0,3.931811959285399,[6200|0|0|0]
13200,1.3275749683380127,0.45867979526519775,0.14066140353679657,-3.634526491165161,2.051722288131714,10.608863830566406,3.419921875,2,C1,7.6,270,0,4.010186895706644,[6200|0|0|0]
13300,1.3065502643585205,0.4743708372116089,0.0752740427851677,-5.789466857910156,3.8780088424682617,15.86597728729248,3.509765625,2,C1,7.6,270,0,4.080640809159716,[6200|0|0|0]
13400,1.2750396728515625,0.4984288513660431,0.016968877986073494,-7.476899147033691,2.8599767684936523,20.388792037963867,3.462890625,2,C1,7.6,270,0,4.151147529863652,[6200|0|0|0]
13500,1.2294751405715942,0.5287938714027405,-0.012566542252898216,-4.6160736083984375,11.902485847473145,21.14926528930664,3.505859375,2,C1,7.6,270,0,4.213360889300464,[6200|0|0|0]
13600,1.1709932088851929,0.5470195412635803,-0.001881013042293489,17.37302017211914,6.427237033843994,16.924259185791016,3.484375,2,C1,7.6,270,0,4.275542011115368,[6200|0|0|0]
13700,1.117175817489624,0.5380105376243591,0.006850227247923613,17.408926010131836,-21.11371421813965,15.450360298156738,3.47265625,2,C1,7.6,270,0,4.330802379556058,[6200|0|0|0]
13800,1.0985723733901978,0.5010838508605957,0.015705380588769913,13.181339263916016,-20.05445098876953,7.38536262512207,3.453125,2,C1,7.6,270,0,4.373088098994179,[6200|0|0|0]
13900,1.1147654056549072,0.4538262188434601,0.020830228924751282,1.8712708950042725,-22.479101181030273,3.8928322792053223,3.435546875,2,C1,7.6,270,0,4.423305248935805,[6200|0|0|0]
14000,1.1625800132751465,0.4099157750606537,0.028666401281952858,-2.926969051361084,-12.62720012664795,1.9267586469650269,3.453125,2,C1,7.6,270,0,4.488694616361192,[6200|0|0|0]
14100,1.2272884845733643,0.37486791610717773,0.043203819543123245,-7.600648403167725,-3.441561698913574,1.6194751262664795,3.494140625,2,C1,7.6,270,0,4.5637071166839736,[6200|0|0|0]
14200,1.2903156280517578,0.3527053892612457,0.056947190314531326,-8.171462059020996,3.460623264312744,1.4177154302597046,3.525390625,2,C1,7.6,270,0,4.631916197101488,[6200|0|0|0]
14300,1.3438630104064941,0.34061476588249207,0.07318833470344543,-6.847600936889648,8.765774726867676,0.3276703953742981,3.525390625,2,C1,7.6,270,0,4.689163730688471,[6200|0|0|0]
14400,1.3810299634933472,0.3367723822593689,0.08300391584634781,-5.391965389251709,9.833000183105469,-0.9662694931030273,3.509765625,2,C1,7.6,270,0,4.7277965140057585,[6200|0|0|0]
14500,1.4013102054595947,0.3384276032447815,0.08682577311992645,-3.154125690460205,8.415424346923828,-1.9617412090301514,3.484375,2,C1,7.6,270,0,4.748500005589057,[6200|0|0|0]
14600,1.4076658487319946,0.34247198700904846,0.08777192234992981,-1.7531449794769287,6.052771091461182,-2.6346144676208496,3.47265625,2,C1,7.6,270,0,4.756092530847765,[6200|0|0|0]
14700,1.4048829078674316,0.34656596183776855,0.08887331187725067,-0.9978103041648865,3.1037237644195557,-3.352240800857544,3.478515625,2,C1,7.6,270,0,4.761163866830002,[6200|0|0|0]
14800,1.3978099822998047,0.3512380123138428,0.09077692031860352,-0.6808254718780518,0.786325991153717,-3.7519755363464355,3.494140625,2,C1,7.6,270,0,4.76985167764943,[6200|0|0|0]
14900,1.3904801607131958,0.35435816645622253,0.09428507089614868,-0.9219431281089783,-0.4821954667568207,-4.00745153427124,3.505859375,2,C1,7.6,270,0,4.778556203302127,[6200|0|0|0]
15000,1.3854689598083496,0.3578355014324188,0.09779785573482513,-1.7370814085006714,-1.2021877765655518,-3.1905534267425537,3.509765625,2,C1,7.6,270,0,4.78559492835488,[6200|0|0|0]
15100,1.3819788694381714,0.3635380268096924,0.09964705258607864,-1.4642772674560547,-0.7058271169662476,-1.9359147548675537,3.509765625,2,C1,7.6,270,0,4.792531718352072,[6200|0|0|0]
15200,1.3786730766296387,0.3692041337490082,0.09765127301216125,-0.9514487385749817,-0.2397226244211197,-0.4082406759262085,3.48828125,2,C1,7.6,270,0,4.799388552173041,[6200|0|0|0]
15300,1.375432014465332,0.37579983472824097,0.09271908551454544,-0.9497399926185608,0.024594902992248535,0.5884120464324951,3.47265625,2,B2,7.6,270,0,4.8082392147963695,[6200|100|0|0]
15400,1.3721942901611328,0.38162294030189514,0.08732298761606216,-0.573533833026886,0.012851962819695473,0.8422181010246277,3.478515625,2,B2,7.6,270,0,4.816812970666579,[6200|200|0|0]
15500,1.3679845333099365,0.3883344233036041,0.08279251307249069,-0.200825035572052,-0.44079309701919556,0.6488063335418701,3.462890625,2,B2,7.6,270,0,4.825939375019793,[6200|300|0|0]
15600,1.3645957708358765,0.39477550983428955,0.07919426262378693,-0.476959764957428,-0.8933889865875244,0.060124512761831284,3.46875,2,B2,7.6,270,0,4.834058409019781,[6200|400|0|0]
15700,1.3623120784759521,0.4010505676269531,0.07768193632364273,-0.2292967289686203,-1.3681284189224243,-0.7373766899108887,3.46875,2,B2,7.6,270,0,4.840905213525107,[6200|500|0|0]
15800,1.3632464408874512,0.4064967632293701,0.07799308001995087,0.26064354181289673,-1.0751160383224487,-1.2458043098449707,3.478515625,2,B2,7.6,270,0,4.846439731575991,[6200|600|0|0]
15900,1.3660789728164673,0.4111088812351227,0.07881090044975281,0.4032667875289917,-1.3024498224258423,-1.5066463947296143,3.478515625,2,B2,7.6,270,0,4.851913642415901,[6200|700|0|0]
16000,1.3680944442749023,0.4108178913593292,0.07756016403436661,0.28171446919441223,-1.09071946144104,-1.5534827709197998,3.484375,2,B2,7.6,270,0,4.854303441965728,[6200|800|0|0]
16100,1.379173755645752,0.4167047142982483,0.08230441808700562,0.21644634008407593,-0.9923455119132996,-1.6426571607589722,3.478515625,2,B2,7.6,270,0,4.8677166358912025,[6200|900|0|0]
16200,1.388886570930481,0.41876617074012756,0.08377452194690704,-0.11478648334741592,-0.8294740319252014,-1.438531756401062,3.484375,2,B2,7.6,270,0,4.8777540453565935,[6200|1000|0|0]
16300,1.3965997695922852,0.4176744520664215,0.08133217692375183,-0.2179238349199295,-0.485563725233078,-1.3722927570343018,3.484375,2,B2,7.6,270,0,4.885918010843482,[6200|1100|0|0]
16400,1.4088488817214966,0.42132797837257385,0.08035840839147568,-0.05064404383301735,-0.7530815005302429,-1.2577259540557861,3.45703125,2,B2,7.6,270,0,4.898737419081704,[6200|1200|0|0]
16500,1.42401123046875,0.42639461159706116,0.0802045688033104,-0.5160743594169617,-0.4316225051879883,-0.9034005999565125,3.46875,2,B2,7.6,270,0,4.914724640803557,[6200|1300|0|0]
16600,1.4428654909133911,0.4341961443424225,0.08233298361301422,-0.05372049659490585,-0.9723295569419861,-1.0764211416244507,3.46875,2,B2,7.6,270,0,4.935239932653626,[6200|1400|0|0]
16700,1.4592316150665283,0.43737372756004333,0.08033045381307602,0.09349796175956726,-0.598069429397583,-1.6256616115570068,3.46875,2,B2,7.6,270,0,4.952031513296926,[6200|1500|0|0]
16800,1.481679081916809,0.4488246440887451,0.08640019595623016,0.03747398778796196,-0.42581263184547424,-1.671897530555725,3.478515625,2,B2,7.6,270,0,4.977951660422784,[6200|1600|0|0]
16900,1.5002570152282715,0.4546632468700409,0.08859201520681381,0.23068919777870178,-0.47631630301475525,-0.9808301329612732,3.478515625,2,B2,7.6,270,0,4.9975484193433335,[6200|1700|0|0]
17000,1.5267484188079834,0.4545343816280365,0.08124962449073792,0.25590136647224426,-0.4946679472923279,-2.006276845932007,3.44140625,2,B2,7.6,270,0,5.025038813507501,[6200|1800|0|0]
17100,1.5428757667541504,0.4520857334136963,0.07488096505403519,-0.07393341511487961,0.1692732274532318,-1.0627467632293701,3.435546875,2,B2,7.6,270,0,5.042550154200749,[6200|1900|0|0]
17200,1.5662651062011719,0.4575340449810028,0.07382782548666,-0.3441029191017151,-0.08625102788209915,-0.5867793560028076,3.916015625,2,B2,7.6,270,0,5.066588756523905,[6200|2000|0|0]
17300,1.5896883010864258,0.4645414650440216,0.04091627150774002,-3.284696340560913,2.8654162883758545,0.5028140544891357,3.927734375,2,B2,7.6,270,0,5.107587785535329,[6200|2100|0|0]
17401,1.6089282035827637,0.4741823375225067,-0.030537748709321022,-0.9469138979911804,-1.2555615901947021,2.4710934162139893,3.927734375,2,B2,7.6,270,0,5.182212160074719,[6200|2200|0|0]
17500,1.6245996952056885,0.47636452317237854,-0.028029724955558777,-1.5956422090530396,-0.5041458606719971,3.3885703086853027,3.931640625,2,B2,7.6,270,0,5.198232390005882,[6200|2300|0|0]
17600,1.62552011013031,0.4774157404899597,-0.02718164771795273,-1.4029533863067627,-0.36064451932907104,3.339495897293091,3.931640625,2,B2,7.6,270,0,5.199866849085576,[6200|2400|0|0]
17700,1.6250685453414917,0.47722533345222473,-0.026861947029829025,-1.222276210784912,-0.27280038595199585,3.4124596118927,3.9375,2,B2,7.6,270,0,5.200451976531956,[6200|2500|0|0]
17801,1.6252378225326538,0.4775564968585968,-0.0258846003562212,-1.1021360158920288,-0.25948140025138855,3.4605703353881836,3.9375,2,B2,7.6,270,0,5.201497696613804,[6200|2600|0|0]
17901,1.6291214227676392,0.48013198375701904,-0.021397657692432404,-0.9984030723571777,-0.28375881910324097,3.5194263458251953,3.9375,2,B2,7.6,270,0,5.207966710295754,[6200|2700|0|0]
18001,1.6251651048660278,0.47686630487442017,-0.025484487414360046,-0.7409807443618774,-0.12752363085746765,3.516115665435791,3.9375,2,B2,7.6,270,0,5.214525619281164,[6200|2800|0|0]
18101,1.6250518560409546,0.4766293168067932,-0.02578780986368656,-0.5957121253013611,-0.07599757611751556,3.5162734985351562,3.943359375,2,B2,7.6,270,0,5.21492685879672,[6200|2900|0|0]
18201,1.6249685287475586,0.47629454731941223,-0.02594650723040104,-0.449234277009964,-0.039243392646312714,3.539602041244507,3.943359375,2,B2,7.6,270,0,5.2153065941015155,[6200|3000|0|0]
18302,1.6248226165771484,0.4761861264705658,-0.025556093081831932,-0.3442148268222809,-0.0023924813140183687,3.5423617362976074,3.943359375,2,B2,7.6,270,0,5.215737254814074,[6200|3100|0|0]
18401,1.6249847412109375,0.47608017921447754,-0.025812651962041855,-0.2533756196498871,0.020637011155486107,3.5946450233459473,3.943359375,2,B2,7.6,270,0,5.216058707263074,[6200|3200|0|0]
18501,1.6248867511749268,0.4762285649776459,-0.0262900460511446,-0.18409954011440277,0.046513959765434265,3.573293685913086,3.94921875,2,B2,7.6,270,0,5.2165681437146345,[6200|3300|0|0]
18601,1.6250085830688477,0.4762625992298126,-0.025764917954802513,-0.12210967391729355,0.07684814184904099,3.5923821926116943,3.94921875,2,B2,7.6,270,0,5.217108292636937,[6200|3400|0|0]
18702,1.6250739097595215,0.47579145431518555,-0.025400064885616302,-0.05868062749505043,0.10593567788600922,3.60302996635437,3.94921875,2,B2,7.6,270,0,5.21770776145947,[6200|3500|0|0]
18800,1.6250700950622559,0.4758395552635193,-0.02564312517642975,-0.016705917194485664,0.1241457536816597,3.6192944049835205,3.94921875,2,B2,7.6,270,0,5.217955564926185,[6200|3600|0|0]
18902,1.6248199939727783,0.4759853184223175,-0.025931458920240402,0.017537960782647133,0.1488368958234787,3.625004529953003,3.953125,2,B2,7.6,270,0,5.218364140257354,[6200|3700|0|0]
19002,1.6249340772628784,0.4756324589252472,-0.02543157897889614,0.06670275330543518,0.16228455305099487,3.6220080852508545,3.94921875,2,B2,7.6,270,0,5.218986558748011,[6200|3800|0|0]
19102,1.6293703317642212,0.48018690943717957,-0.02155713178217411,-0.04114637151360512,0.06096887215971947,3.635122537612915,3.953125,2,B2,7.6,270,0,5.226432007998829,[6200|3900|0|0]
19200,1.624962568283081,0.4754657745361328,-0.02548988163471222,0.13153524696826935,0.19086553156375885,3.6383707523345947,3.953125,2,B2,7.6,270,0,5.233994019309465,[6200|4000|0|0]
19300,1.6261680126190186,0.47616034746170044,-0.025284336879849434,0.16336745023727417,0.1826469898223877,3.7116706371307373,3.953125,2,B2,7.6,270,0,5.235400353637506,[6200|4100|0|0]
19400,1.6232408285140991,0.4768553376197815,-0.025920309126377106,0.17035458981990814,0.1881200224161148,3.592736005783081,3.953125,2,B2,7.6,270,0,5.238475394905892,[6200|4200|0|0]
19502,1.6188403367996216,0.47507891058921814,-0.026580872014164925,-1.046256184577942,-0.4683837294578552,-1.1179250478744507,3.953125,2,B2,7.6,270,0,5.243266674865655,[6200|4300|0|0]
19600,1.5566400289535522,0.49622949957847595,0.02153860032558441,-1.3826829195022583,-10.993025779724121,-13.898322105407715,3.958984375,2,B2,7.6,270,0,5.324701982496892,[6200|4400|0|0]
19701,1.454207420349121,0.5049692392349243,0.05773534998297691,-6.034436225891113,-20.6549072265625,-17.792991638183594,3.958984375,2,B2,7.6,270,0,5.433692931848345,[6200|4500|0|0]
19800,1.370481014251709,0.5111151337623596,0.049780070781707764,-7.827907085418701,-20.0434627532959,-20.04340934753418,3.958984375,2,B2,7.6,270,0,5.518020682705944,[6200|4600|0|0]
19900,1.3317687511444092,0.5170168280601501,0.02351554110646248,-5.126084804534912,-8.46175479888916,-18.807363510131836,3.958984375,2,B2,7.6,270,0,5.565172510131138,[6200|4700|0|0]
20002,1.325736403465271,0.5168429017066956,0.010091323405504227,-2.0000643730163574,-2.7295475006103516,-17.173023223876953,3.958984375,2,B2,7.6,270,0,5.579890835096335,[6200|4800|0|0]
20100,1.3300623893737793,0.5213658809661865,0.0007420079200528562,-2.0128061771392822,-1.0058214664459229,-15.239480018615723,3.958984375,2,B2,7.6,270,0,5.591141665977159,[6200|4900|0|0]
20200,1.3238340616226196,0.5231828689575195,0.004059224389493465,-2.5524396896362305,-1.521427035331726,-11.823408126831055,3.958984375,2,B2,7.6,270,0,5.598428464797055,[6200|5000|0|0]
20300,1.3189105987548828,0.5235918760299683,0.006916435901075602,-2.5850861072540283,-1.3384549617767334,-11.13873291015625,3.96484375,2,B2,7.6,270,0,5.604135603398597,[6200|5100|0|0]
20400,1.3145380020141602,0.5257861018180847,0.009641329757869244,-2.6438047885894775,-1.3339742422103882,-11.015865325927734,3.96484375,2,B2,7.6,270,0,5.609735538719385,[6200|5200|0|0]
20500,1.3097460269927979,0.5279043912887573,0.012667173519730568,-2.661827564239502,-1.3041895627975464,-10.917777061462402,3.96484375,2,B2,7.6,270,0,5.615785820147395,[6200|5300|0|0]
20600,1.3401110172271729,0.5163777470588684,-0.008429070934653282,-2.5184454917907715,-1.5488684177398682,-11.537678718566895,3.96484375,2,B2,7.6,270,0,5.654514978274254,[6200|5400|0|0]
20700,1.3369290828704834,0.5113493800163269,-0.012432938441634178,-2.4566128253936768,-1.4707289934158325,-10.773161888122559,3.96484375,2,B2,7.6,270,0,5.661687156212528,[6200|5500|0|0]
20800,1.3369998931884766,0.5113135576248169,-0.01197915617376566,-2.4837682247161865,-1.3945350646972656,-10.90487003326416,3.96484375,2,B2,7.6,270,0,5.662147824956312,[6200|5600|0|0]
20900,1.3365414142608643,0.5117067694664001,-0.01198273990303278,-2.534101963043213,-1.3278135061264038,-10.986201286315918,4.01171875,2,B2,7.6,270,0,5.662751837640402,[6200|5700|0|0]
21000,1.3365360498428345,0.5117228031158447,-0.012296285480260849,-2.571065664291382,-1.3037101030349731,-11.058857917785645,4.046875,2,B2,7.6,270,0,5.663065838729404,[6200|5800|0|0]
21100,1.3372352123260498,0.51163250207901,-0.010589190758764744,-2.5520832538604736,-1.348222017288208,-10.990731239318848,4.046875,2,B2,7.6,270,0,5.6649127699255635,[6200|5900|0|0]
21200,1.3369866609573364,0.5121191143989563,-0.012080863118171692,-2.652867555618286,-1.345363974571228,-11.067212104797363,4.046875,2,B2,7.6,270,0,5.666501371751268,[6200|6000|0|0]
21300,1.3363308906555176,0.5122911930084229,-0.012158882804214954,-2.6589395999908447,-1.385324239730835,-11.107779502868652,4.0546875,2,B2,7.6,270,0,5.66718381794548,[6200|6100|0|0]
21400,1.3368210792541504,0.5121890306472778,-0.01216878555715084,-2.6595189571380615,-1.35348641872406,-11.159483909606934,4.0546875,2,B2,7.6,270,0,5.667684637348838,[6200|6200|0|0]
21500,1.3367887735366821,0.5126643180847168,-0.012007619254291058,-2.6803324222564697,-1.3360761404037476,-11.169631958007812,4.0546875,2,B2,7.6,270,0,5.668187545277535,[6200|6300|0|0]
21600,1.3367289304733276,0.5130431056022644,-0.012359567917883396,-2.6826159954071045,-1.3376438617706299,-11.186592102050781,4.0546875,2,B2,7.6,270,0,5.668708053718856,[6200|6400|0|0]
21700,1.336521863937378,0.5130646228790283,-0.011825715191662312,-2.7163329124450684,-1.359700083732605,-11.181045532226562,4.0546875,2,B2,7.6,270,0,5.669281061813741,[6200|6500|0|0]
21800,1.336624026298523,0.513065755367279,-0.012139003723859787,-2.704428195953369,-1.3445490598678589,-11.185018539428711,4.0546875,2,B2,7.6,270,0,5.669610588952184,[6200|6600|0|0]
21900,1.3365185260772705,0.5129884481430054,-0.01207553967833519,-2.6646416187286377,-1.350690484046936,-11.162174224853516,4.05859375,2,B2,7.6,270,0,5.669755965665187,[6200|6700|0|0]
22000,1.3369122743606567,0.5126467347145081,-0.011906380765140057,-2.64347243309021,-1.3684124946594238,-11.164227485656738,4.05859375,2,B2,7.6,270,0,5.670304071964912,[6200|6800|0|0]
22100,1.3369500637054443,0.5123348236083984,-0.011501489207148552,-2.626666784286499,-1.403403639793396,-11.15892219543457,4.05859375,2,B2,7.6,270,0,5.670816569522396,[6200|6900|0|0]
22200,1.337056040763855,0.5124393105506897,-0.01194271445274353,-2.624375820159912,-1.409956932067871,-11.155701637268066,4.05859375,2,B2,7.6,270,0,5.671282217861133,[6200|7000|0|0]
22300,1.3367207050323486,0.5127290487289429,-0.011982966214418411,-2.6309256553649902,-1.393557071685791,-11.14418888092041,4.05859375,2,B2,7.6,270,0,5.671727210522961,[6200|7100|0|0]
22400,1.3368579149246216,0.5126808285713196,-0.011832596734166145,-2.625930070877075,-1.399367094039917,-11.129538536071777,4.06640625,2,B2,7.6,270,0,5.671936405930965,[6200|7200|0|0]
22500,1.3368074893951416,0.512765645980835,-0.011861193925142288,-2.622760534286499,-1.3931292295455933,-11.11744213104248,4.05859375,2,B2,7.6,270,0,5.672039141155265,[6200|7300|0|0]
22600,1.3367761373519897,0.5124714374542236,-0.01204692106693983,-2.6102235317230225,-1.385435938835144,-11.14018726348877,4.06640625,2,B2,7.6,270,0,5.67238847792536,[6200|7400|0|0]
22700,1.336673617362976,0.5128161311149597,-0.012151628732681274,-2.6159579753875732,-1.377530813217163,-11.13436508178711,4.06640625,2,B2,7.6,270,0,5.672763028006343,[6200|7500|0|0]
22800,1.336348056793213,0.5123233199119568,-0.011641077697277069,-2.5896685123443604,-1.3441203832626343,-11.110816955566406,4.06640625,2,B2,7.6,270,0,5.6735437423754576,[6200|7600|0|0]
22900,1.3360928297042847,0.512660562992096,-0.01214140746742487,-2.6009814739227295,-1.3201946020126343,-11.10409164428711,4.06640625,2,B2,7.6,270,0,5.67419887872838,[6200|7700|0|0]
23000,1.336651086807251,0.5125391483306885,-0.011976870708167553,-2.592082977294922,-1.3163769245147705,-11.11163330078125,4.06640625,2,B2,7.6,270,0,5.674793407834618,[6200|7800|0|0]
23100,1.3364309072494507,0.5123241543769836,-0.011652977205812931,-2.584216833114624,-1.3175415992736816,-11.112823486328125,4.06640625,2,B2,7.6,270,0,5.6752401834367605,[6200|7900|0|0]
23200,1.3366210460662842,0.5124790072441101,-0.01195999700576067,-2.5893256664276123,-1.3207340240478516,-11.113167762756348,4.0703125,2,B2,7.6,270,0,5.675633112613183,[6200|8000|0|0]
23300,1.3363158702850342,0.5127382874488831,-0.012118064798414707,-2.5713465213775635,-1.3093079328536987,-11.104866027832031,4.0703125,2,B2,7.6,270,0,5.676063628477145,[6200|8100|0|0]
23400,1.336482048034668,0.5127459168434143,-0.012082882225513458,-2.5579330921173096,-1.3127886056900024,-11.102099418640137,4.0703125,2,B2,7.6,270,0,5.676233661019825,[6200|8200|0|0]
23500,1.3365052938461304,0.512455403804779,-0.012164468877017498,-2.5389604568481445,-1.3135422468185425,-11.106468200683594,4.0703125,2,B2,7.6,270,0,5.676536306976467,[6200|8300|0|0]
23600,1.3364487886428833,0.512656569480896,-0.012083821929991245,-2.535696029663086,-1.307525396347046,-11.07866096496582,4.0703125,2,B2,7.6,270,0,5.6767602810761,[6200|8400|0|0]
23700,1.3364131450653076,0.5121519565582275,-0.011984593234956264,-2.5213706493377686,-1.3088629245758057,-11.080107688903809,4.0703125,2,B2,7.6,270,0,5.677275791503021,[6200|8500|0|0]
23800,1.3365333080291748,0.5124085545539856,-0.012169570662081242,-2.5276896953582764,-1.3084746599197388,-11.105602264404297,4.0703125,2,B2,7.6,270,0,5.677614167503734,[6200|8600|0|0]
23900,1.3365960121154785,0.5126498341560364,-0.011660821735858917,-2.5963306427001953,-1.3370726108551025,-11.107948303222656,4.0703125,2,B2,7.6,270,0,5.67818071239934,[6200|8700|0|0]
24000,1.3365761041641235,0.5123436450958252,-0.011924857273697853,-2.5725672245025635,-1.3265111446380615,-11.121133804321289,4.0703125,2,B2,7.6,270,0,5.678585512142869,[6200|8800|0|0]
24100,1.3365219831466675,0.5125744342803955,-0.011477775871753693,-2.6217100620269775,-1.3288888931274414,-11.121969223022461,4.07421875,2,B2,7.6,270,0,5.679091550196982,[6200|8900|0|0]
24200,1.336547613143921,0.5123951435089111,-0.01175218727439642,-2.600743055343628,-1.3212202787399292,-11.12645435333252,4.07421875,2,B2,7.6,270,0,5.679420341461158,[6200|9000|0|0]
24300,1.3364295959472656,0.5125578045845032,-0.012021380476653576,-2.590216636657715,-1.311712622642517,-11.137852668762207,4.07421875,2,B2,7.6,270,0,5.679756275479026,[6200|9100|0|0]
24400,1.3362722396850586,0.5125178694725037,-0.012013066560029984,-2.5802245140075684,-1.311877727508545,-11.149256706237793,4.07421875,2,B2,7.6,270,0,5.679918832938515,[6200|9200|0|0]
24500,1.336241364479065,0.5126141905784607,-0.012043573893606663,-2.558723211288452,-1.3116050958633423,-11.161413192749023,4.07421875,2,B2,7.6,270,0,5.680024482033163,[6200|9300|0|0]
24600,1.3364133834838867,0.5124353766441345,-0.011797203682363033,-2.5385892391204834,-1.3055989742279053,-11.144451141357422,4.07421875,2,B2,7.6,270,0,5.680374143644035,[6200|9400|0|0]
24700,1.3364168405532837,0.5124064087867737,-0.012138894759118557,-2.529452085494995,-1.3039112091064453,-11.136280059814453,4.07421875,2,B2,7.6,270,0,5.680717077865166,[6200|9500|0|0]
24800,1.336547613143921,0.5124014019966125,-0.011641637422144413,-2.5233333110809326,-1.3015023469924927,-11.150390625,4.07421875,2,B2,7.6,270,0,5.681231267905506,[6200|9600|0|0]
24900,1.3363462686538696,0.5122573375701904,-0.012011084705591202,-2.5104236602783203,-1.292228102684021,-11.165964126586914,4.07421875,2,B2,7.6,270,0,5.681675998675614,[6200|9700|0|0]
25000,1.3362904787063599,0.5123722553253174,-0.011979741975665092,-2.5133137702941895,-1.2901886701583862,-11.155823707580566,4.07421875,2,B2,7.6,270,0,5.681807531847878,[6200|9800|0|0]
25100,1.3365697860717773,0.5131464004516602,-0.011889295652508736,-2.6012861728668213,-1.3417054414749146,-11.168039321899414,4.08203125,2,B2,7.6,270,0,5.682635477388592,[6200|9900|0|0]
25200,1.336465835571289,0.5127034783363342,-0.011765995062887669,-2.5749754905700684,-1.3323020935058594,-11.154374122619629,4.08203125,2,B2,7.6,270,0,5.683106846397116,[6200|10000|0|0]
25300,1.336432695388794,0.5126271843910217,-0.011714757420122623,-2.567704200744629,-1.3231579065322876,-11.143381118774414,4.08203125,2,B2,7.6,270,0,5.683204541503561,[6200|10100|0|0]
25400,1.3364980220794678,0.5128008127212524,-0.012026817537844181,-2.5670199394226074,-1.3201371431350708,-11.147635459899902,4.08203125,2,B2,7.6,270,0,5.683567578541128,[6200|10200|0|0]
25500,1.3363635540008545,0.5125231742858887,-0.012184630148112774,-2.556208848953247,-1.3190072774887085,-11.143835067749023,4.08203125,2,B2,7.6,270,0,5.683914089125262,[6200|10300|0|0]
25600,1.3364262580871582,0.5123088359832764,-0.011694561690092087,-2.5564968585968018,-1.3233726024627686,-11.148663520812988,4.08203125,2,B2,7.6,270,0,5.68445264256175,[6200|10400|0|0]
25700,1.3364120721817017,0.5124393105506897,-0.011942833662033081,-2.5547759532928467,-1.3228806257247925,-11.137555122375488,4.08203125,2,B2,7.6,270,0,5.6847334695987435,[6200|10500|0|0]
25800,1.3366382122039795,0.5123015642166138,-0.011671401560306549,-2.5560462474823,-1.324336051940918,-11.139960289001465,4.08203125,2,B2,7.6,270,0,5.685112664466951,[6200|10600|0|0]
25900,1.336965560913086,0.5122541785240173,-0.011589094065129757,-2.55552077293396,-1.3400542736053467,-11.13703441619873,4.08203125,2,B2,7.6,270,0,5.685453512094167,[6200|10700|0|0]
26000,1.3367587327957153,0.512309193611145,-0.011728211306035519,-2.6063578128814697,-1.3547775745391846,-11.147820472717285,4.08203125,2,B2,7.6,270,0,5.685708773012962,[6200|10800|0|0]
26100,1.3363474607467651,0.5125905275344849,-0.011937188915908337,-2.608029842376709,-1.3364841938018799,-11.15934944152832,4.0859375,2,B2,7.6,270,0,5.686249110977664,[6200|10900|0|0]
26200,1.336559534072876,0.5125352144241333,-0.011948080733418465,-2.589963674545288,-1.3413182497024536,-11.151130676269531,4.0859375,2,B2,7.6,270,0,5.686468549505532,[6200|11000|0|0]
26300,1.3364683389663696,0.5126617550849915,-0.012147041037678719,-2.583521842956543,-1.3307931423187256,-11.131601333618164,4.0859375,2,B2,7.6,270,0,5.686721362260299,[6200|11100|0|0]
26400,1.3362573385238647,0.5125831961631775,-0.011975830420851707,-2.5738489627838135,-1.3254977464675903,-11.131813049316406,4.0859375,2,B2,7.6,270,0,5.687004215165972,[6200|11200|0|0]
26500,1.3363691568374634,0.5125097632408142,-0.011936224065721035,-2.573131561279297,-1.3250783681869507,-11.130280494689941,4.0859375,2,B2,7.6,270,0,5.687143730013603,[6200|11300|0|0]
26600,1.3363717794418335,0.5123868584632874,-0.011741066351532936,-2.5744168758392334,-1.327219843864441,-11.114952087402344,4.0859375,2,B2,7.6,270,0,5.687374379088606,[6200|11400|0|0]
26700,1.3363456726074219,0.5124398469924927,-0.012007258832454681,-2.554244041442871,-1.3254659175872803,-11.112789154052734,4.0859375,2,B2,7.6,270,0,5.687647046996379,[6200|11500|0|0]
26800,1.3363096714019775,0.5123817324638367,-0.012118570506572723,-2.540783643722534,-1.3209885358810425,-11.128225326538086,4.0859375,2,B2,7.6,270,0,5.687777674995022,[6200|11600|0|0]
26900,1.3362141847610474,0.5125828981399536,-0.011948313564062119,-2.5344812870025635,-1.3127660751342773,-11.126373291015625,4.0859375,2,B2,7.6,270,0,5.6880579833151215,[6200|11700|0|0]
27000,1.33659827709198,0.5124255418777466,-0.011883462779223919,-2.522308349609375,-1.3189334869384766,-11.1304931640625,4.0859375,2,B2,7.6,270,0,5.6884780946530205,[6200|11800|0|0]
27100,1.33652925491333,0.5120131373405457,-0.012094504199922085,-2.508183002471924,-1.3162838220596313,-11.120532035827637,4.0859375,2,B2,7.6,270,0,5.688946474888192,[6200|11900|0|0]
27200,1.33659029006958,0.5124375820159912,-0.011966903693974018,-2.5229105949401855,-1.3152663707733154,-11.125554084777832,4.0859375,2,B2,7.6,270,0,5.689393867849615,[6200|12000|0|0]
27300,1.336690068244934,0.5122891664505005,-0.01162652112543583,-2.5909175872802734,-1.3531066179275513,-11.154654502868652,4.08984375,2,B2,7.6,270,0,5.689778371630249,[6200|12100|0|0]
27400,1.3368045091629028,0.5121909976005554,-0.012023777700960636,-2.5758676528930664,-1.3493701219558716,-11.160058975219727,4.08984375,2,B2,7.6,270,0,5.690203279424485,[6200|12200|0|0]
27500,1.3367010354995728,0.512153685092926,-0.011675738729536533,-2.570101261138916,-1.336289405822754,-11.161446571350098,4.0859375,2,B2,7.6,270,0,5.690568286476277,[6200|12300|0|0]
27600,1.3366987705230713,0.5124760866165161,-0.012186978943645954,-2.5653209686279297,-1.3261550664901733,-11.157075881958008,4.08984375,2,B2,7.6,270,0,5.6911726989422755,[6200|12400|0|0]
27700,1.3367801904678345,0.5127320885658264,-0.01185879297554493,-2.5699288845062256,-1.3263535499572754,-11.141134262084961,4.08984375,2,B2,7.6,270,0,5.6915968124118965,[6200|12500|0|0]
27800,1.3365548849105835,0.5123625993728638,-0.012061988934874535,-2.558335542678833,-1.3255304098129272,-11.159438133239746,4.08984375,2,B2,7.6,270,0,5.692074905975681,[6200|12600|0|0]
27900,1.3368492126464844,0.5125946402549744,-0.011893399059772491,-2.5683674812316895,-1.32576322555542,-11.127843856811523,4.08984375,2,B2,7.6,270,0,5.69248587353289,[6200|12700|0|0]
28000,1.336795687675476,0.5121955871582031,-0.01154419220983982,-2.558074712753296,-1.3204303979873657,-11.121674537658691,4.08984375,2,B2,7.6,270,0,5.6930188404367446,[6200|12800|0|0]
28100,1.336498498916626,0.5125859975814819,-0.011642860248684883,-2.6117653846740723,-1.3245391845703125,-11.108471870422363,4.08984375,2,B2,7.6,270,0,5.693519317048467,[6200|12900|0|0]
28200,1.3365907669067383,0.5122262239456177,-0.011690471321344376,-2.594419479370117,-1.3266875743865967,-11.129741668701172,4.08984375,2,B2,7.6,270,0,5.693893773007562,[6200|13000|0|0]
28300,1.3363691568374634,0.5122213363647461,-0.011676406487822533,-2.5833969116210938,-1.3189705610275269,-11.126703262329102,4.08984375,2,B2,7.6,270,0,5.694115882734483,[6200|13100|0|0]
28400,1.3364299535751343,0.5125706195831299,-0.012015012092888355,-2.580400228500366,-1.3154369592666626,-11.14274787902832,4.08984375,2,B2,7.6,270,0,5.694606136511355,[6200|13200|0|0]
28500,1.3365505933761597,0.5125965476036072,-0.01177407056093216,-2.577695608139038,-1.3177083730697632,-11.12655258178711,4.08984375,2,B2,7.6,270,0,5.694876837537691,[6200|13300|0|0]
28600,1.3365260362625122,0.5124629139900208,-0.012170047499239445,-2.5739529132843018,-1.3172038793563843,-11.164175033569336,4.08984375,2,B2,7.6,270,0,5.695295476678457,[6200|13400|0|0]
28700,1.3364659547805786,0.5122351050376892,-0.011859080754220486,-2.5691356658935547,-1.3108128309249878,-11.135348320007324,4.08984375,2,B2,7.6,270,0,5.695685613859128,[6200|13500|0|0]
28800,1.3367063999176025,0.5123111009597778,-0.011777902022004128,-2.5548856258392334,-1.3039911985397339,-11.136002540588379,4.09765625,2,B2,7.6,270,0,5.695950527487802,[6200|13600|0|0]
28900,1.3369182348251343,0.5124929547309875,-0.011744743213057518,-2.5476839542388916,-1.2997499704360962,-11.146028518676758,4.09765625,2,B2,7.6,270,0,5.696231675720524,[6200|13700|0|0]
29000,1.3367798328399658,0.5124890804290771,-0.012114997953176498,-2.535066604614258,-1.2977080345153809,-11.151846885681152,4.08984375,2,B2,7.6,270,0,5.696626971422871,[6200|13800|0|0]
29100,1.3366645574569702,0.5122559070587158,-0.011905393563210964,-2.5220069885253906,-1.2954431772232056,-11.156209945678711,4.09765625,2,B2,7.6,270,0,5.696961025662274,[6200|13900|0|0]
29200,1.3372009992599487,0.5124945044517517,-0.011742927134037018,-2.5313594341278076,-1.3017417192459106,-11.1503267288208,4.09765625,2,B2,7.6,270,0,5.69757020040285,[6200|14000|0|0]
29300,1.336849570274353,0.5122383236885071,-0.011807849630713463,-2.5172808170318604,-1.287198781967163,-11.130642890930176,4.09765625,2,B2,7.6,270,0,5.6980099114965785,[6200|14100|0|0]
29400,1.3368425369262695,0.5121369361877441,-0.011884094215929508,-2.581829786300659,-1.319869041442871,-11.13189697265625,4.09765625,2,B2,7.6,270,0,5.698136963179255,[6200|14200|0|0]
29500,1.3368773460388184,0.5125202536582947,-0.011784090660512447,-2.5751452445983887,-1.3165394067764282,-11.129541397094727,4.09765625,2,B2,7.6,270,0,5.6985346372526395,[6200|14300|0|0]
29600,1.3368300199508667,0.5124958753585815,-0.011896667070686817,-2.5643460750579834,-1.3098496198654175,-11.129544258117676,4.09765625,2,B2,7.6,270,0,5.698659166398728,[6200|14400|0|0]
29700,1.3368909358978271,0.5126840472221375,-0.012376868166029453,-2.567249059677124,-1.3153965473175049,-11.157048225402832,4.09765625,2,B2,7.6,270,0,5.699178504915301,[6200|14500|0|0]
29800,1.3367695808410645,0.5124098658561707,-0.011843731626868248,-2.605654001235962,-1.3313864469528198,-11.14331340789795,4.09765625,2,B2,7.6,270,0,5.699790172341796,[6200|14600|0|0]
29900,1.3367652893066406,0.5123672485351562,-0.011851785704493523,-2.5926923751831055,-1.3143681287765503,-11.130104064941406,4.09765625,2,B2,7.6,270,0,5.699833755841937,[6200|14700|0|0]
30000,1.3364932537078857,0.5123847723007202,-0.011724470183253288,-2.5788207054138184,-1.2993731498718262,-11.112142562866211,4.09765625,2,B2,7.6,270,0,5.700134620747332,[6200|14800|0|0]
30100,1.336717963218689,0.5127331018447876,-0.011651851236820221,-2.58099627494812,-1.3039391040802002,-11.123053550720215,4.09765625,2,B2,7.6,270,0,5.700555454855856,[6200|14900|0|0]
30200,1.3366156816482544,0.5122172832489014,-0.011721301823854446,-2.5530667304992676,-1.3104428052902222,-11.133601188659668,4.1015625,2,B2,7.6,270,0,5.701085882728004,[6200|15000|0|0]
30300,1.3363107442855835,0.5126373767852783,-0.012116195634007454,-2.563375949859619,-1.3040727376937866,-11.140592575073242,4.1015625,2,B2,7.6,270,0,5.7017381146620245,[6200|15100|0|0]
30400,1.3367764949798584,0.512493371963501,-0.012224283069372177,-2.54071044921875,-1.3027522563934326,-11.179436683654785,4.1015625,2,B2,7.6,270,0,5.702237458222708,[6200|15200|0|0]
30500,1.3369238376617432,0.5123279094696045,-0.012124276719987392,-2.5245654582977295,-1.30275297164917,-11.181497573852539,4.09765625,2,B2,7.6,270,0,5.702480540457165,[6200|15300|0|0]
30600,1.3367798328399658,0.5120858550071716,-0.011947836726903915,-2.5070419311523438,-1.2962403297424316,-11.164734840393066,4.1015625,2,B2,7.6,270,0,5.702812893917562,[6200|15400|0|0]
30700,1.3368171453475952,0.5125892758369446,-0.012031972408294678,-2.520597219467163,-1.2996045351028442,-11.152182579040527,4.1015625,2,B2,7.6,270,0,5.703324659066784,[6200|15500|0|0]
30800,1.3368942737579346,0.5123724341392517,-0.011776672676205635,-2.5109970569610596,-1.3026024103164673,-11.139338493347168,4.1015625,2,B2,7.6,270,0,5.7036683843447955,[6200|15600|0|0]
30900,1.3366822004318237,0.5121538043022156,-0.011662708595395088,-2.499372959136963,-1.3015053272247314,-11.12348461151123,4.1015625,2,B2,7.6,270,0,5.703993594911975,[6200|15700|0|0]
31000,1.3367661237716675,0.5124125480651855,-0.011963887140154839,-2.506675958633423,-1.3054827451705933,-11.113429069519043,4.1015625,2,B2,7.6,270,0,5.704399427362218,[6200|15800|0|0]
31100,1.3368090391159058,0.5121526122093201,-0.012023554183542728,-2.5064809322357178,-1.308434247970581,-11.124419212341309,4.1015625,2,B2,7.6,270,0,5.70466955424352,[6200|15900|0|0]
31200,1.3366466760635376,0.5123199820518494,-0.01176111027598381,-2.57807993888855,-1.3270928859710693,-11.146980285644531,4.1015625,2,B2,7.6,270,0,5.705020625788333,[6200|16000|0|0]
31300,1.3368332386016846,0.512248158454895,-0.011673432774841785,-2.5577757358551025,-1.3254642486572266,-11.124217987060547,4.1015625,2,B2,7.6,270,0,5.7052389181471685,[6200|16100|0|0]
31400,1.3367985486984253,0.5122462511062622,-0.011701422743499279,-2.5619163513183594,-1.3196523189544678,-11.120250701904297,4.1015625,2,B2,7.6,270,0,5.705283532782799,[6200|16200|0|0]
31500,1.337075114250183,0.5124884247779846,-0.011791171506047249,-2.5704665184020996,-1.3350129127502441,-11.140289306640625,4.1015625,2,B2,7.6,270,0,5.705661939220473,[6200|16300|0|0]
31600,1.3367829322814941,0.5121780633926392,-0.012008192017674446,-2.5597071647644043,-1.3248151540756226,-11.14642333984375,4.1015625,2,B2,7.6,270,0,5.706140261700404,[6200|16400|0|0]
31700,1.336927056312561,0.512458086013794,-0.011722726747393608,-2.567406177520752,-1.3351397514343262,-11.123918533325195,4.1015625,2,B2,7.6,270,0,5.706565320314275,[6200|16500|0|0]
31800,1.336488127708435,0.5122570991516113,-0.011541778221726418,-2.603040933609009,-1.3421534299850464,-11.12522029876709,4.1015625,2,B2,7.6,270,0,5.707080874780099,[6200|16600|0|0]
31900,1.3363311290740967,0.512521505355835,-0.01201973482966423,-2.5850346088409424,-1.3309944868087769,-11.130566596984863,4.1015625,2,B2,7.6,270,0,5.70764920719259,[6200|16700|0|0]
32000,1.336629033088684,0.512458324432373,-0.011747247539460659,-2.573885917663574,-1.333649754524231,-11.123114585876465,4.1015625,2,B2,7.6,270,0,5.708057848789004,[6200|16800|0|0]
32100,1.3369483947753906,0.5122537612915039,-0.011654701083898544,-2.574322462081909,-1.3293465375900269,-11.13340950012207,4.1015625,2,B2,7.6,270,0,5.708448236816452,[6200|16900|0|0]
32200,1.3369832038879395,0.512078583240509,-0.012021220289170742,-2.569037675857544,-1.3259284496307373,-11.13078784942627,4.10546875,2,B2,7.6,270,0,5.708855956513917,[6200|17000|0|0]
32300,1.336426019668579,0.5123029947280884,-0.011650057509541512,-2.5677056312561035,-1.3134174346923828,-11.108786582946777,4.1015625,2,B2,7.6,270,0,5.709562056067127,[6200|17100|0|0]
