time.ms,stateEstimate.x,stateEstimate.y,stateEstimate.z,stabilizer.roll,stabilizer.pitch,stabilizer.yaw,pm.vbat,drone_id,node_name,wind_speed,global_wind_direction,relative_wind_direction,travel_dist,waiting_time
0,0.0034141154028475285,0.5130211710929871,-0.02947039157152176,-0.4641847610473633,-0.0960402861237526,5.277137279510498,4.046875,1,J1,7.6,270,0,0.3980416416307952,[100|0|0|0]
100,0.0037776045501232147,0.5131190419197083,-0.029453154653310776,-0.47050103545188904,-0.10809770971536636,5.270954608917236,4.046875,1,J1,7.6,270,0,0.39841847073033465,[200|0|0|0]
200,0.003922721836715937,0.5130864977836609,-0.029562026262283325,-0.4695960283279419,-0.10368034988641739,5.28213357925415,4.046875,1,J1,7.6,270,0,0.3986027834398784,[300|0|0|0]
300,0.0034954373259097338,0.5131779313087463,-0.029723284766077995,-0.474981427192688,-0.09204832464456558,5.27088737487793,4.046875,1,J1,7.6,270,0,0.3990685478092011,[400|0|0|0]
400,0.003456972073763609,0.5133071541786194,-0.02968207746744156,-0.4746049642562866,-0.08742326498031616,5.274146556854248,4.046875,1,J1,7.6,270,0,0.3992095306705063,[500|0|0|0]
500,0.0035105126444250345,0.5134742259979248,-0.029384614899754524,-0.47377029061317444,-0.09234768897294998,5.268742084503174,4.046875,1,J1,7.6,270,0,0.3995548762433572,[600|0|0|0]
600,0.003825037507340312,0.5130349397659302,-0.02925366908311844,-0.4597490131855011,-0.09789857268333435,5.255566596984863,4.046875,1,J1,7.6,270,0,0.40011079448366454,[700|0|0|0]
700,0.0038461145013570786,0.512877345085144,-0.029461856931447983,-0.45796725153923035,-0.10186599940061569,5.2480974197387695,4.046875,1,J1,7.6,270,0,0.40037275345617923,[800|0|0|0]
800,0.0034933655988425016,0.5130583643913269,-0.029464829713106155,-0.46210142970085144,-0.09120609611272812,5.246515274047852,4.046875,1,J1,7.6,270,0,0.40076924887212617,[900|0|0|0]
900,0.0036982912570238113,0.5132564306259155,-0.029846271499991417,-0.46558108925819397,-0.0963553935289383,5.282320499420166,4.046875,1,J1,7.6,270,0,0.4012454028340412,[1000|0|0|0]
1000,0.00342307286337018,0.5131251215934753,-0.029609989374876022,-0.4572316110134125,-0.09069514274597168,5.286502838134766,4.046875,1,J1,7.6,270,0,0.4016311702106488,[1100|0|0|0]
1100,0.003574526170268655,0.5130655169487,-0.029534608125686646,-0.45935943722724915,-0.09676051139831543,5.276389122009277,4.046875,1,J1,7.6,270,0,0.4018105389665085,[1200|0|0|0]
1200,0.0037021301686763763,0.5131434202194214,-0.02985931932926178,-0.46253761649131775,-0.1016421839594841,5.289494037628174,4.046875,1,J1,7.6,270,0,0.4021680149317508,[1300|0|0|0]
1300,0.0036346374545246363,0.5132187604904175,-0.02949492633342743,-0.4663263261318207,-0.10435830801725388,5.276285648345947,4.046875,1,J1,7.6,270,0,0.40254618642500545,[1400|0|0|0]
1400,0.0036718437913805246,0.5130889415740967,-0.02960817702114582,-0.4629732370376587,-0.10702372342348099,5.261071681976318,4.04296875,1,J1,7.6,270,0,0.4027224333563422,[1500|0|0|0]
1500,0.0036404007114470005,0.512948215007782,-0.02962467446923256,-0.4581790864467621,-0.10916534811258316,5.260486125946045,4.04296875,1,J1,7.6,270,0,0.40286757053123484,[1600|0|0|0]
1600,0.0038194777444005013,0.5130326747894287,-0.02929583005607128,-0.46367695927619934,-0.11915427446365356,5.26041841506958,4.04296875,1,J1,7.6,270,0,0.40325142035410133,[1700|0|0|0]
1700,0.0036347187124192715,0.512921154499054,-0.02947395108640194,-0.45971018075942993,-0.11381150037050247,5.278183460235596,4.046875,1,J1,7.6,270,0,0.4035312413263496,[1800|0|0|0]
1800,0.003961539827287197,0.5130146741867065,-0.02951204963028431,-0.4647912085056305,-0.12749691307544708,5.27305793762207,4.046875,1,J1,7.6,270,0,0.4038733077996382,[1900|0|0|0]
1900,0.00365900294855237,0.5134859681129456,-0.029573911800980568,-0.47672176361083984,-0.11358130723237991,5.2612385749816895,4.046875,1,J1,7.6,270,0,0.40443675562869397,[2000|0|0|0]
2000,0.208581805229187,0.4117034673690796,-0.2243063598871231,0.0024277162738144398,0.0035023761447519064,3.0612690448760986,4.04296875,1,J1,7.6,270,0,0.7048926736763259,[2100|0|0|0]
2100,0.001281444332562387,0.5120770335197449,-0.03025364875793457,0.6141664385795593,1.3988277912139893,4.74684476852417,4.046875,1,J1,7.6,270,0,1.0060649617545305,[2200|0|0|0]
2200,0.0016724062152206898,0.512222945690155,-0.02965969778597355,-0.2619178593158722,-0.5923272967338562,4.925410270690918,4.046875,1,J1,7.6,270,0,1.006790853834842,[2300|0|0|0]
2300,0.0033892039209604263,0.5128371715545654,-0.029871920123696327,-0.874869167804718,-1.622308373451233,5.104684829711914,4.04296875,1,J1,7.6,270,0,1.0086265297581936,[2400|0|0|0]
2400,0.0038372226990759373,0.5128069519996643,-0.029712766408920288,-1.0718592405319214,-1.7212177515029907,5.205539226531982,4.046875,1,J1,7.6,270,0,1.0091029370964761,[2500|0|0|0]
2500,0.004332134500145912,0.5128747224807739,-0.02998092956840992,-1.0944446325302124,-1.580776333808899,5.271529674530029,4.046875,1,J1,7.6,270,0,1.0096698956567391,[2600|0|0|0]
2600,0.004353226162493229,0.513419508934021,-0.029653936624526978,-1.075090765953064,-1.3545693159103394,5.316440582275391,4.046875,1,J1,7.6,270,0,1.0103056326489075,[2700|0|0|0]
2700,0.004339481703937054,0.5133817791938782,-0.0296183992177248,-1.0089781284332275,-1.1519612073898315,5.330674648284912,4.046875,1,J1,7.6,270,0,1.0103592549457108,[2800|0|0|0]
2800,0.00436803512275219,0.5132638216018677,-0.0297428909689188,-0.9415364265441895,-0.9815813899040222,5.341506004333496,4.046875,1,J1,7.6,270,0,1.0105331154856683,[2900|0|0|0]
2900,0.0040478999726474285,0.5135435461997986,-0.029553212225437164,-0.8887433409690857,-0.8312237858772278,5.3584184646606445,4.046875,1,J1,7.6,270,0,1.0109986371186233,[3000|0|0|0]
3000,0.004217952955514193,0.5132114887237549,-0.02988777495920658,-0.8148536086082458,-0.7160254716873169,5.341325283050537,4.046875,1,J1,7.6,270,0,1.0114997482911245,[3100|0|0|0]
3100,0.004254213534295559,0.5131963491439819,-0.029600154608488083,-0.7649621367454529,-0.6134909391403198,5.3299174308776855,4.046875,1,J1,7.6,270,0,1.0117900403898745,[3200|0|0|0]
3200,0.004340396728366613,0.5131632089614868,-0.029764574021100998,-0.7133997082710266,-0.5219219326972961,5.353001117706299,4.046875,1,J1,7.6,270,0,1.0119786128106578,[3300|0|0|0]
3300,0.0043029398657381535,0.5128491520881653,-0.03009347803890705,-0.6285620331764221,-0.41732820868492126,5.339578628540039,4.046875,1,J1,7.6,270,0,1.0124349159874684,[3400|0|0|0]
3400,0.003942394163459539,0.5133113265037537,-0.02960158884525299,-0.612567663192749,-0.34832999110221863,5.326312065124512,4.046875,1,J1,7.6,270,0,1.0132001305800433,[3500|0|0|0]
3500,0.004192767199128866,0.5131413340568542,-0.029821457341313362,-0.5797743201255798,-0.3096314072608948,5.31731653213501,4.046875,1,J1,7.6,270,0,1.0135741977458745,[3600|0|0|0]
3600,0.003711423836648464,0.513221025466919,-0.02959827147424221,-0.5590122938156128,-0.2504657804965973,5.313884735107422,4.046875,1,J1,7.6,270,0,1.0141107180946987,[3700|0|0|0]
3700,0.003957427106797695,0.5132326483726501,-0.029747121036052704,-0.5300438404083252,-0.22190096974372864,5.3129496574401855,4.046875,1,J1,7.6,270,0,1.014398483438187,[3800|0|0|0]
3800,0.0038831140846014023,0.5132431983947754,-0.029425881803035736,-0.5155318975448608,-0.19576367735862732,5.296388626098633,4.04296875,1,J1,7.6,270,0,1.0147283748946754,[3900|0|0|0]
3900,0.0037145272362977266,0.513293445110321,-0.029520902782678604,-0.49968910217285156,-0.18110905587673187,5.290200710296631,4.046875,1,J1,7.6,270,0,1.0149283129961377,[4000|0|0|0]
4000,0.0037387791089713573,0.5133792161941528,-0.029585812240839005,-0.4866273105144501,-0.1680140495300293,5.290558338165283,4.046875,1,J1,7.6,270,0,1.015038576634335,[4100|0|0|0]
4100,0.004308036528527737,0.5131667256355286,-0.030064798891544342,-0.4717543125152588,-0.16770559549331665,5.301199436187744,4.046875,1,J1,7.6,270,0,1.0158122913484116,[4200|0|0|0]
4200,0.004123765975236893,0.5132338404655457,-0.029311826452612877,-0.46303606033325195,-0.14294715225696564,5.2845563888549805,4.046875,1,J1,7.6,270,0,1.0165903835865227,[4300|0|0|0]
4300,0.0037023168988525867,0.5135230422019958,-0.02977449633181095,-0.470759779214859,-0.12563456594944,5.290902137756348,4.04296875,1,J1,7.6,270,0,1.0172798184169949,[4400|0|0|0]
4400,0.0038989102467894554,0.5128470063209534,-0.029863497242331505,-0.44824886322021484,-0.12089402228593826,5.262092590332031,4.04296875,1,J1,7.6,270,0,1.017989462425624,[4500|0|0|0]
4500,0.0038356168661266565,0.5130732655525208,-0.02989966981112957,-0.4472883939743042,-0.11906309425830841,5.266504764556885,4.046875,1,J1,7.6,270,0,1.0182271760067225,[4600|0|0|0]
4600,0.003691085847094655,0.5130969882011414,-0.029673190787434578,-0.4439997971057892,-0.1136411726474762,5.273110866546631,4.04296875,1,J1,7.6,270,0,1.0184968883121404,[4700|0|0|0]
4700,0.0040999469347298145,0.513279139995575,-0.029912862926721573,-0.44967973232269287,-0.12281186133623123,5.257156848907471,4.04296875,1,J1,7.6,270,0,1.0190046179641679,[4800|0|0|0]
4800,0.003720535896718502,0.5134153366088867,-0.029535852372646332,-0.45383551716804504,-0.10452104359865189,5.273266792297363,4.046875,1,J1,7.6,270,0,1.0195565592754743,[4900|0|0|0]
4900,0.0038005795795470476,0.5134013891220093,-0.029702238738536835,-0.45258358120918274,-0.10405918955802917,5.279682159423828,4.046875,1,J1,7.6,270,0,1.019741723921952,[5000|0|0|0]
5000,0.0037722333800047636,0.5132383108139038,-0.029774164780974388,-0.44251441955566406,-0.09695492684841156,5.295271396636963,4.046875,1,J1,7.6,270,0,1.0199221993972492,[5100|0|0|0]
5100,0.0034605294931679964,0.5131081342697144,-0.029514014720916748,-0.43431493639945984,-0.08575349301099777,5.266460418701172,4.046875,1,J1,7.6,270,0,1.0203485599248243,[5200|0|0|0]
5200,0.003758384147658944,0.5133548378944397,-0.029850348830223083,-0.4339909851551056,-0.09143650531768799,5.267872333526611,4.046875,1,J1,7.6,270,0,1.020861103295416,[5300|0|0|0]
5300,0.003702090820297599,0.513047993183136,-0.029865717515349388,-0.42432552576065063,-0.08847478777170181,5.277493953704834,4.046875,1,J1,7.6,270,0,1.0211734473557774,[5400|0|0|0]
5400,0.0038982033729553223,0.513359010219574,-0.02986351028084755,-0.4294368028640747,-0.09583940356969833,5.289112567901611,4.046875,1,J1,7.6,270,0,1.0215411382614967,[5500|0|0|0]
5500,0.004080215003341436,0.512851893901825,-0.029906267300248146,-0.4218652844429016,-0.09427285194396973,5.28495979309082,4.046875,1,J1,7.6,270,0,1.0220816226331775,[5600|0|0|0]
5600,0.003677863162010908,0.5129779577255249,-0.029573487117886543,-0.4344300627708435,-0.08289290219545364,5.271668434143066,4.04296875,1,J1,7.6,270,0,1.0226187648318925,[5700|0|0|0]
5700,0.003763283835723996,0.513070285320282,-0.02964872121810913,-0.43926241993904114,-0.08070538192987442,5.260451793670654,4.04296875,1,J1,7.6,270,0,1.0227653296506163,[5800|0|0|0]
5800,0.003529852954670787,0.5129592418670654,-0.029464593157172203,-0.4406817555427551,-0.07618209719657898,5.258220672607422,4.046875,1,J1,7.6,270,0,1.023082699730422,[5900|0|0|0]
5900,0.0037172858137637377,0.5131571292877197,-0.029369035735726357,-0.44047942757606506,-0.0807390809059143,5.255617618560791,4.04296875,1,J1,7.6,270,0,1.0233715279297282,[6000|0|0|0]
6000,0.00342150148935616,0.5131767392158508,-0.029808038845658302,-0.4362574517726898,-0.0706414058804512,5.284976482391357,4.04296875,1,J1,7.6,270,0,1.0239012416697582,[6100|0|0|0]
6100,0.00355610903352499,0.5135336518287659,-0.029473068192601204,-0.44253915548324585,-0.0748511254787445,5.283192157745361,4.046875,1,J1,7.6,270,0,1.0244088942503824,[6200|0|0|0]
6200,0.0037335967645049095,0.51328045129776,-0.02957635186612606,-0.4401874840259552,-0.07894808799028397,5.281308650970459,4.046875,1,B1,7.6,270,0,1.024734900263773,[6200|0|0|0]
6300,0.003846264211460948,0.5132688879966736,-0.02932211384177208,-0.543874979019165,-0.12525662779808044,4.9600090980529785,3.208984375,1,B1,7.6,270,0,1.0250132249600594,[6200|0|0|0]
6400,0.004308568313717842,0.5145080089569092,-0.02334696613252163,-2.330531597137451,-3.9914748668670654,5.8262715339660645,3.462890625,1,B1,7.6,270,0,1.0311329909673852,[6200|0|0|0]
6500,0.014995142817497253,0.5231576561927795,0.010513794608414173,-3.2660632133483887,-15.257320404052734,4.677974700927734,3.509765625,1,B1,7.6,270,0,1.0676784474549532,[6200|0|0|0]
6600,0.05111004784703255,0.5365245342254639,0.06283596158027649,3.5231199264526367,-13.549369812011719,2.8155019283294678,3.546875,1,B1,7.6,270,0,1.1326443535154742,[6200|0|0|0]
6700,0.11068344116210938,0.5468087196350098,0.1294572949409485,2.594369411468506,-8.548724174499512,0.6851316690444946,3.568359375,1,B1,7.6,270,0,1.2226063216985044,[6200|0|0|0]
6800,0.18181152641773224,0.5510517358779907,0.20841994881629944,3.7690377235412598,-1.5263354778289795,-1.1689624786376953,3.59375,1,B1,7.6,270,0,1.328965657941299,[6200|0|0|0]
6900,0.25283345580101013,0.5492639541625977,0.2948334515094757,2.477675676345825,3.4244868755340576,-2.2732093334198,3.599609375,1,B1,7.6,270,0,1.4408343491130866,[6200|0|0|0]
7000,0.31487542390823364,0.5423728823661804,0.3859688639640808,2.3688933849334717,7.196662425994873,-3.057105779647827,3.60546875,1,B1,7.6,270,0,1.551298624244878,[6200|0|0|0]
7100,0.3630980849266052,0.5316399931907654,0.47817564010620117,0.4080691635608673,8.23930549621582,-2.916088581085205,3.599609375,1,B1,7.6,270,0,1.6559060308290565,[6200|0|0|0]
7200,0.3960617780685425,0.5203596949577332,0.569762647151947,-0.6730503439903259,8.654088973999023,-2.353973388671875,3.583984375,1,B1,7.6,270,0,1.753895979565544,[6200|0|0|0]
7300,0.41820719838142395,0.5186137557029724,0.6642305850982666,-2.3390095233917236,7.224222183227539,-1.6649744510650635,3.583984375,1,B1,7.6,270,0,1.850940604581797,[6200|0|0|0]
7400,0.4254172444343567,0.5134173035621643,0.7580994367599487,-2.6712634563446045,4.8432512283325195,-0.8458594083786011,3.58984375,1,B1,7.6,270,0,1.9452292528445652,[6200|0|0|0]
7500,0.42743176221847534,0.5133029222488403,0.8534938097000122,-2.7286109924316406,2.1922829151153564,-0.4196023643016815,3.583984375,1,B1,7.6,270,0,2.0406449630479444,[6200|0|0|0]
7600,0.4276592433452606,0.5190985798835754,0.9505371451377869,-2.6299095153808594,0.10669328272342682,-0.1770496368408203,3.583984375,1,B1,7.6,270,0,2.13786147578097,[6200|0|0|0]
7700,0.4296375811100006,0.529369592666626,1.050105094909668,-0.9392802119255066,-0.24966490268707275,-0.1368124783039093,3.58984375,1,B1,7.6,270,0,2.23797732939905,[6200|0|0|0]
7800,0.43535324931144714,0.541220486164093,1.1512070894241333,0.19322247803211212,0.20776300132274628,-0.5204781293869019,3.583984375,1,B1,7.6,270,0,2.339931857667687,[6200|0|0|0]
7900,0.4425012767314911,0.5524636507034302,1.2532055377960205,0.7258049845695496,1.6349700689315796,-0.6751695871353149,3.62109375,1,B1,7.6,270,0,2.4427967521415983,[6200|0|0|0]
8000,0.44913947582244873,0.5622704029083252,1.3518807888031006,1.6882938146591187,2.0433361530303955,-0.4989183843135834,3.673828125,1,B1,7.6,270,0,2.5421800668241428,[6200|0|0|0]
8100,0.45729562640190125,0.5650858283042908,1.433828353881836,1.4092562198638916,1.9060207605361938,-0.31944960355758667,3.68359375,1,B1,7.6,270,0,2.624580630139987,[6200|0|0|0]
8201,0.4565863013267517,0.572475790977478,1.502918004989624,2.1238439083099365,2.192379951477051,0.04907448962330818,3.6640625,1,B1,7.6,270,0,2.6940680000756037,[6200|0|0|0]
8301,0.4525108337402344,0.5784745216369629,1.554102897644043,1.6905150413513184,1.8467434644699097,-0.24647773802280426,3.642578125,1,B1,7.6,270,0,2.745764106714481,[6200|0|0|0]
8400,0.4484977126121521,0.580496072769165,1.5914878845214844,1.0794460773468018,1.872061014175415,-0.560602605342865,3.62109375,1,B1,7.6,270,0,2.7834181775965945,[6200|0|0|0]
8501,0.442057341337204,0.5828990936279297,1.6178324222564697,0.2698495090007782,1.521336317062378,-1.163909673690796,3.611328125,1,B1,7.6,270,0,2.810644774149908,[6200|0|0|0]
8601,0.43193626403808594,0.5852580666542053,1.6329504251480103,0.9731525778770447,0.8296383023262024,-1.5908067226409912,3.615234375,1,B1,7.6,270,0,2.8289902087553362,[6200|0|0|0]
8701,0.4232531487941742,0.5880053043365479,1.6424344778060913,0.6469984650611877,0.4101587235927582,-1.6951338052749634,3.58984375,1,B1,7.6,270,0,2.842139013265389,[6200|0|0|0]
8800,0.4127112925052643,0.5907918214797974,1.6460806131362915,0.42395761609077454,-0.4510533809661865,-1.1510053873062134,3.58984375,1,B1,7.6,270,0,2.8536363918645216,[6200|0|0|0]
8900,0.4025602638721466,0.5930339097976685,1.6475251913070679,0.5586326122283936,-0.8956315517425537,-0.5246074795722961,3.599609375,1,B1,7.6,270,0,2.864131969429715,[6200|0|0|0]
9000,0.39453285932540894,0.595031201839447,1.6471943855285645,0.5114139914512634,-1.152962327003479,-0.27344653010368347,3.583984375,1,B1,7.6,270,0,2.8724107272906645,[6200|0|0|0]
9100,0.38868972659111023,0.5963836312294006,1.645304560661316,0.9005449414253235,-1.429481863975525,-0.4432715177536011,3.58984375,1,B1,7.6,270,0,2.8786990262207657,[6200|0|0|0]
9200,0.38472768664360046,0.5965906977653503,1.6417642831802368,0.8337401747703552,-1.016897439956665,-0.8521610498428345,3.583984375,1,B1,7.6,270,232.5238204386386,2.884016375347822,[6200|0|0|0]
9300,0.38320815563201904,0.5966188907623291,1.634881854057312,-2.710737466812134,-5.867529392242432,-1.3039894104003906,3.615234375,1,B1,7.6,270,232.5238204386386,2.8910646091671786,[6200|0|0|0]
9400,0.39463433623313904,0.5998393893241882,1.6237685680389404,-7.33450174331665,-10.71920394897461,-0.7492038607597351,3.599609375,1,B1,7.6,270,232.5238204386386,2.9073260463804904,[6200|0|0|0]
9500,0.4120982587337494,0.6189916729927063,1.5978984832763672,-6.623358249664307,-9.998504638671875,2.8956358432769775,3.57421875,1,B1,7.6,270,232.5238204386386,2.9439465303266297,[6200|0|0|0]
9601,0.45114806294441223,0.6444262862205505,1.576125144958496,-3.757641553878784,-7.052351474761963,4.033924102783203,3.5625,1,B1,7.6,270,232.5238204386386,2.99538469728897,[6200|0|0|0]
9701,0.4857507348060608,0.6869024038314819,1.5471285581588745,-0.7564017176628113,-2.966132164001465,-0.7431023120880127,3.537109375,1,B1,7.6,270,232.5238204386386,3.0573715306755096,[6200|0|0|0]
9802,0.5335460901260376,0.7227652668952942,1.5291262865066528,2.9833390712738037,0.6209806203842163,-3.5757813453674316,3.55859375,1,B1,7.6,270,232.5238204386386,3.1197784431286744,[6200|0|0|0]
9900,0.5794375538825989,0.7524487376213074,1.516614556312561,4.868513107299805,2.8479866981506348,-2.697108268737793,3.5625,1,B1,7.6,270,232.5238204386386,3.1758469572209136,[6200|0|0|0]
10000,0.6192260384559631,0.774113118648529,1.5080338716506958,4.965223789215088,4.248771667480469,-2.0592458248138428,3.57421875,1,B1,7.6,270,232.5238204386386,3.221956577249752,[6200|0|0|0]
10100,0.652717649936676,0.7862235307693481,1.5005282163619995,4.592109203338623,4.478348731994629,-1.9006985425949097,3.57421875,1,B1,7.6,270,232.5238204386386,3.258352799342489,[6200|0|0|0]
10200,0.6793436408042908,0.7899519205093384,1.4933890104293823,3.587540864944458,4.518840789794922,-1.6014208793640137,3.568359375,1,B1,7.6,270,232.5238204386386,3.286170285589163,[6200|0|0|0]
10300,0.699140727519989,0.7876930832862854,1.4856839179992676,2.0427565574645996,4.042316913604736,-1.4764642715454102,3.568359375,1,B1,7.6,270,232.5238204386386,3.307533699112889,[6200|0|0|0]
10400,0.712489128112793,0.7820793390274048,1.4778611660003662,0.45837339758872986,3.6922810077667236,-1.6214128732681274,3.568359375,1,B1,7.6,270,232.5238204386386,3.3239924163115777,[6200|0|0|0]
10500,0.7196366786956787,0.7747035622596741,1.468904972076416,-0.602628767490387,2.7793548107147217,-1.520737886428833,3.5625,1,B1,7.6,270,232.5238204386386,3.3376197040778837,[6200|0|0|0]
10600,0.7238876819610596,0.7691351175308228,1.4622271060943604,-1.6098324060440063,2.0208816528320312,-2.0475592613220215,3.55859375,1,B1,7.6,270,232.5238204386386,3.347298159509142,[6200|0|0|0]
10700,0.7245129346847534,0.7662205696105957,1.4552793502807617,-1.634229063987732,1.5622073411941528,-2.4005391597747803,3.5625,1,B1,7.6,270,232.5238204386386,3.354858373883958,[6200|0|0|0]
10800,0.723416268825531,0.765960693359375,1.4491679668426514,-1.72919762134552,0.940956711769104,-2.8569304943084717,3.552734375,1,B1,7.6,270,232.5238204386386,3.361072810238153,[6200|0|0|0]
10900,0.7211068868637085,0.7674810886383057,1.4437708854675293,-1.043217420578003,0.6073864102363586,-3.191976308822632,3.55859375,1,B1,7.6,270,232.5238204386386,3.3671369123332267,[6200|0|0|0]
11000,0.7183513045310974,0.772001326084137,1.4397594928741455,-0.37216469645500183,0.41752609610557556,-3.500150203704834,3.5625,1,B1,7.6,270,232.5238204386386,3.3737789791122306,[6200|0|0|0]
11100,0.7161760926246643,0.7767224907875061,1.4357428550720215,-0.036242254078388214,0.12063311040401459,-3.8103902339935303,3.55859375,1,B1,7.6,270,232.5238204386386,3.380348174057403,[6200|0|0|0]
11200,0.7136140465736389,0.7811537384986877,1.4321575164794922,0.5997439622879028,0.28831538558006287,-3.9239118099212646,3.552734375,1,B1,7.6,270,232.5238204386386,3.386597549151643,[6200|0|0|0]
11300,0.7106778025627136,0.7861512303352356,1.4276113510131836,0.5732600688934326,0.04997837916016579,-4.281883239746094,3.55859375,1,B1,7.6,270,232.5238204386386,3.3939639644260566,[6200|0|0|0]
11400,0.7076263427734375,0.7896900773048401,1.4238582849502563,0.5687513947486877,0.08350057154893875,-4.54771089553833,3.552734375,1,B1,7.6,270,232.5238204386386,3.39995732321663,[6200|0|0|0]
11500,0.7054690718650818,0.7924189567565918,1.4192825555801392,0.5023651123046875,-0.3443921208381653,-4.7452545166015625,3.552734375,1,B1,7.6,270,232.5238204386386,3.4057051836970857,[6200|0|0|0]
11600,0.7035144567489624,0.7946292161941528,1.4142512083053589,0.4948567748069763,-0.3418351411819458,-4.858725070953369,3.552734375,1,B1,7.6,270,232.5238204386386,3.411537869393481,[6200|0|0|0]
11700,0.7019158005714417,0.7966669797897339,1.4090362787246704,0.4619218409061432,0.03904466703534126,-4.8839802742004395,3.546875,1,B1,7.6,270,232.5238204386386,3.417360555421161,[6200|0|0|0]
11800,0.7006034255027771,0.7986172437667847,1.4029186964035034,0.31988635659217834,-0.24409683048725128,-4.86733865737915,3.541015625,1,B1,7.6,270,232.5238204386386,3.4239142315923865,[6200|0|0|0]
11900,0.7001144886016846,0.8007063269615173,1.3975392580032349,0.14019747078418732,0.1799536645412445,-4.725405693054199,3.541015625,1,B1,7.6,270,232.5238204386386,3.4297057499934667,[6200|0|0|0]
12000,0.6991681456565857,0.803321897983551,1.3924072980880737,0.22591020166873932,0.2616979777812958,-4.502187252044678,3.537109375,1,B1,7.6,270,232.5238204386386,3.435543025840286,[6200|0|0|0]
12100,0.6978405714035034,0.8058857321739197,1.3885966539382935,0.5629270076751709,0.1866486519575119,-4.205909729003906,3.537109375,1,B1,7.6,270,232.5238204386386,3.4403238947978507,[6200|0|0|0]
12200,0.6968829035758972,0.8081749081611633,1.386691689491272,0.7309155464172363,0.19386793673038483,-3.906205415725708,3.541015625,1,B1,7.6,270,232.5238204386386,3.443452208067493,[6200|0|0|0]
12300,0.695019006729126,0.8097223043441772,1.383606195449829,1.2012100219726562,-0.04142407327890396,-3.6801462173461914,3.81640625,1,B1,7.6,270,0,3.4473750667040477,[6200|0|0|0]
12400,0.6929326057434082,0.8105618357658386,1.355285882949829,1.391584038734436,-0.24689528346061707,-3.2801058292388916,3.7578125,1,B1,7.6,270,0,3.475784536642412,[6200|0|0|0]
12500,0.6897363066673279,0.8107205629348755,1.2860413789749146,0.5591259598731995,-0.38006892800331116,-2.5259006023406982,3.658203125,1,B1,7.6,270,0,3.545102953046928,[6200|0|0|0]
12600,0.6866039633750916,0.8102858662605286,1.1830027103424072,1.017421841621399,-0.4666171967983246,-1.8789578676223755,3.55859375,1,B1,7.6,270,0,3.6481901383284105,[6200|0|0|0]
12700,0.6830704808235168,0.8080489635467529,1.062944769859314,0.8236014246940613,-0.6301203370094299,-1.3097347021102905,3.541015625,1,B1,7.6,270,0,3.7683208933653085,[6200|0|0|0]
12800,0.6800511479377747,0.8041420578956604,0.9386855363845825,0.5158452391624451,-0.2761648893356323,-0.1658254712820053,3.541015625,1,B1,7.6,270,0,3.892678190644436,[6200|0|0|0]
12900,0.6779791712760925,0.7991335988044739,0.8152968287467957,0.8981266021728516,0.30564969778060913,3.105476140975952,3.546875,1,B1,7.6,270,0,4.016185886446268,[6200|0|0|0]
13000,0.6762641072273254,0.7890558242797852,0.6977579593658447,0.24401184916496277,-0.2368709146976471,6.8216552734375,3.5625,1,B1,7.6,270,0,4.134168464818729,[6200|0|0|0]
13100,0.671090304851532,0.7817579507827759,0.5817940831184387,-0.9812191724777222,0.5271639227867126,9.595736503601074,3.568359375,1,B1,7.6,270,0,4.250476881465702,[6200|0|0|0]
13200,0.6652466058731079,0.7752587199211121,0.4645383656024933,-0.8706806898117065,-0.8526129722595215,9.618020057678223,3.515625,1,B1,7.6,270,0,4.368057883799084,[6200|0|0|0]
13300,0.6584982872009277,0.7696406841278076,0.3497118651866913,-0.14747354388237,-0.07218048721551895,8.657729148864746,3.462890625,1,B1,7.6,270,0,4.483219628006162,[6200|0|0|0]
13400,0.6497513651847839,0.7660850882530212,0.2435789853334427,-3.07222056388855,-0.1572374701499939,7.449753284454346,3.431640625,1,B1,7.6,270,0,4.589771676755706,[6200|0|0|0]
13500,0.6412000060081482,0.7659176588058472,0.15428230166435242,1.3233176469802856,-1.9776158332824707,3.065925359725952,3.447265625,1,B1,7.6,270,0,4.679477036075455,[6200|0|0|0]
13600,0.6358605027198792,0.7647241950035095,0.08446939289569855,2.702834367752075,-2.3848025798797607,-1.0695250034332275,3.447265625,1,B1,7.6,270,0,4.74950400860714,[6200|0|0|0]
13700,0.6349503397941589,0.7627400755882263,0.03184032440185547,-5.340473175048828,-5.624251365661621,-4.122174263000488,3.494140625,1,B1,7.6,270,0,4.802178328507211,[6200|0|0|0]
13800,0.6452768445014954,0.7642127275466919,-0.0026290842797607183,1.748879075050354,-0.37844377756118774,-6.882734775543213,3.515625,1,B1,7.6,270,0,4.838191458586693,[6200|0|0|0]
13900,0.6563902497291565,0.7617937326431274,-0.02062404341995716,1.6693711280822754,0.5195693373680115,-6.656220436096191,3.484375,1,B1,7.6,270,0,4.859479433280285,[6200|0|0|0]
14000,0.6617820858955383,0.7687152624130249,-0.016406143084168434,-13.720800399780273,-4.4651570320129395,-13.073793411254883,3.59375,1,B1,7.6,270,0,4.869214429676963,[6200|0|0|0]
14100,0.6715006232261658,0.7906841039657593,-0.010692613199353218,3.277289390563965,1.6619782447814941,-11.002240180969238,3.5625,1,B1,7.6,270,0,4.893907027571081,[6200|0|0|0]
14200,0.6796658635139465,0.8113308548927307,-0.009793699719011784,5.4768290519714355,0.747755229473114,-7.834333896636963,3.505859375,1,B1,7.6,270,0,4.9161279078021325,[6200|0|0|0]
14300,0.6850505471229553,0.8228367567062378,-0.005818606354296207,8.294524192810059,1.6654164791107178,-3.778428792953491,3.521484375,1,B1,7.6,270,0,4.92943887926816,[6200|0|0|0]
14400,0.6879339814186096,0.8228626847267151,0.00417772913351655,4.823246955871582,0.9895779490470886,0.42718589305877686,3.546875,1,B1,7.6,270,0,4.93984280106643,[6200|0|0|0]
14500,0.688916027545929,0.8136598467826843,0.014545888639986515,4.321969509124756,-0.24168404936790466,2.7684061527252197,3.55859375,1,B1,7.6,270,0,4.953740835904919,[6200|0|0|0]
14600,0.6902381181716919,0.799227774143219,0.02292328141629696,1.9516361951828003,0.07856685668230057,4.0244951248168945,3.552734375,1,B1,7.6,270,0,4.970480410392406,[6200|0|0|0]
14700,0.6928424835205078,0.781093180179596,0.026623791083693504,0.23230518400669098,-0.8924400210380554,5.279991149902344,3.537109375,1,B1,7.6,270,0,4.989171049463718,[6200|0|0|0]
14800,0.6968045830726624,0.7619807720184326,0.02608274109661579,-1.4683648347854614,-1.1484709978103638,7.029196739196777,3.537109375,1,B1,7.6,270,0,5.008697316738049,[6200|0|0|0]
14900,0.7036831974983215,0.7453489899635315,0.02482839673757553,-3.984351396560669,-1.0568721294403076,10.333560943603516,3.53125,1,B1,7.6,270,0,5.026739070824325,[6200|0|0|0]
15000,0.7123138904571533,0.7353768944740295,0.021798301488161087,-4.2590107917785645,0.13043755292892456,12.44330883026123,3.525390625,1,B1,7.6,270,0,5.040270997022096,[6200|0|0|0]
15100,0.7197982668876648,0.7322636842727661,0.01895945519208908,-2.527306318283081,-0.02820877730846405,12.82211971282959,3.521484375,1,B1,7.6,270,0,5.048859769728575,[6200|0|0|0]
15200,0.7265130281448364,0.7325522899627686,0.019639333710074425,-1.8182862997055054,1.8992483615875244,12.212606430053711,3.525390625,1,B1,7.6,270,0,5.055615030403363,[6200|0|0|0]
15300,0.7297650575637817,0.7364217638969421,0.023028433322906494,-1.2693949937820435,1.1957716941833496,10.896171569824219,3.537109375,1,F1,7.6,270,0,5.061700629803146,[6200|0|100|0]
15400,0.7295833230018616,0.740519106388092,0.028044765815138817,-0.33672335743904114,2.2714922428131104,8.56788158416748,3.537109375,1,F1,7.6,270,0,5.0681802003609375,[6200|0|200|0]
15500,0.7248992919921875,0.7426947951316833,0.03269798308610916,1.198272705078125,1.7217313051223755,6.84458065032959,3.541015625,1,F1,7.6,270,0,5.075131905114409,[6200|0|300|0]
15600,0.717043399810791,0.7430392503738403,0.0352797731757164,-0.09295575320720673,0.7656965851783752,6.618823051452637,3.537109375,1,F1,7.6,270,0,5.083408337404132,[6200|0|400|0]
15700,0.7078888416290283,0.7428205609321594,0.03506148234009743,0.050295840948820114,0.007365857716649771,6.604020118713379,3.525390625,1,F1,7.6,270,0,5.092568108769406,[6200|0|500|0]
15800,0.6987349987030029,0.742527425289154,0.033186543732881546,0.7789820432662964,-0.025471601635217667,5.68698787689209,3.521484375,1,F1,7.6,270,0,5.101916593331108,[6200|0|600|0]
15900,0.6879419684410095,0.7403975129127502,0.03148702532052994,0.592931866645813,-0.41501325368881226,5.285181522369385,3.515625,1,F1,7.6,270,0,5.1130482774714965,[6200|0|700|0]
16000,0.6762343049049377,0.7367429733276367,0.030089858919382095,-0.4720868468284607,-0.0337006114423275,4.152355194091797,3.509765625,1,F1,7.6,270,0,5.125392390198036,[6200|0|800|0]
16100,0.6640181541442871,0.7334115505218506,0.029540497809648514,-0.8726443648338318,-0.7526884078979492,3.7762486934661865,3.515625,1,F1,7.6,270,0,5.138066557426961,[6200|0|900|0]
16200,0.6514972448348999,0.7295418381690979,0.02954845130443573,1.4001357555389404,0.6439415812492371,3.420567512512207,3.515625,1,F1,7.6,270,0,5.1511718199914815,[6200|0|1000|0]
16300,0.6386188268661499,0.7238292098045349,0.029041161760687828,-0.07093516737222672,-0.7558890581130981,3.0074145793914795,3.515625,1,F1,7.6,270,0,5.1652695189133135,[6200|0|1100|0]
16400,0.6261722445487976,0.7172809839248657,0.0309365913271904,0.00013284022861626,0.42471009492874146,3.059854507446289,3.521484375,1,F1,7.6,270,0,5.1794606896470965,[6200|0|1200|0]
16500,0.6128442883491516,0.7103899717330933,0.03503398969769478,-0.11415282636880875,0.363084614276886,3.5923643112182617,3.525390625,1,F1,7.6,270,0,5.195014118172455,[6200|0|1300|0]
16600,0.5980013608932495,0.7033719420433044,0.03875952214002609,-0.16338220238685608,0.44128113985061646,4.304089069366455,3.525390625,1,F1,7.6,270,0,5.211849937967369,[6200|0|1400|0]
16700,0.5823488831520081,0.6958645582199097,0.04019885137677193,-0.9575043320655823,-0.4969162046909332,3.741056203842163,3.515625,1,F1,7.6,270,0,5.229269253107855,[6200|0|1500|0]
16800,0.56829434633255,0.6894435882568359,0.03959175944328308,-1.0649884939193726,-1.8692079782485962,2.161292552947998,3.505859375,1,F1,7.6,270,0,5.244732998485088,[6200|0|1600|0]
16900,0.5588910579681396,0.6840760111808777,0.03714121878147125,0.0031550750136375427,-1.1815996170043945,0.8751295804977417,3.5,1,F1,7.6,270,0,5.255834253606281,[6200|0|1700|0]
17000,0.5525893568992615,0.6808810830116272,0.03618038445711136,-1.2898290157318115,-1.154473900794983,0.5846632122993469,3.509765625,1,F1,7.6,270,0,5.2629646256139,[6200|0|1800|0]
17100,0.5486947894096375,0.6784611344337463,0.037530116736888885,-0.24746809899806976,-1.1672067642211914,0.4429700970649719,3.509765625,1,F1,7.6,270,0,5.267744331073225,[6200|0|1900|0]
17200,0.5443726778030396,0.6798411011695862,0.03653541952371597,1.5654792785644531,-0.8639519214630127,-0.02086535096168518,3.90625,1,F1,7.6,270,0,5.272389153941517,[6200|0|2000|0]
17300,0.540390133857727,0.6790692806243896,0.011075664311647415,10.92523193359375,-2.132002592086792,-0.9319186210632324,3.916015625,1,F1,7.6,270,0,5.298170067398739,[6200|0|2100|0]
17400,0.5371413826942444,0.6748188734054565,-0.026758914813399315,8.47594928741455,4.276858806610107,-9.539597511291504,3.921875,1,F1,7.6,270,0,5.336381004618577,[6200|0|2200|0]
17500,0.5341317653656006,0.6713457703590393,-0.02717282623052597,1.9262933731079102,1.9579286575317383,-19.66297721862793,3.921875,1,F1,7.6,270,0,5.340995282882524,[6200|0|2300|0]
17600,0.5262404084205627,0.6749836802482605,-0.021013513207435608,1.7588000297546387,2.002422571182251,-19.514314651489258,3.921875,1,F1,7.6,270,0,5.3516463410324215,[6200|0|2400|0]
17700,0.5159872770309448,0.6790249347686768,-0.014707564376294613,1.748252511024475,1.886413812637329,-16.7396183013916,3.927734375,1,F1,7.6,270,0,5.364343719976618,[6200|0|2500|0]
17800,0.5088906288146973,0.6812822222709656,-0.007582998834550381,1.7490994930267334,1.699709177017212,-15.392443656921387,3.927734375,1,F1,7.6,270,0,5.374649892735298,[6200|0|2600|0]
17900,0.5008121132850647,0.6860329508781433,0.00400980981066823,6.189228057861328,3.6334969997406006,-14.621578216552734,3.931640625,1,F1,7.6,270,0,5.389557107355952,[6200|0|2700|0]
18000,0.5218806862831116,0.7017465829849243,0.05041459575295448,9.91736888885498,13.651010513305664,-0.9772118926048279,3.931640625,1,F1,7.6,270,0,5.442888216106011,[6200|0|2800|0]
18100,0.572955310344696,0.7325877547264099,0.10550449043512344,6.276908874511719,19.497901916503906,4.160207748413086,3.931640625,1,F1,7.6,270,0,5.5240959225969135,[6200|0|2900|0]
18200,0.6213701367378235,0.7592765092849731,0.11403992772102356,3.9157588481903076,16.73967933654785,-3.2539498805999756,3.9375,1,F1,7.6,270,0,5.580034627660808,[6200|0|3000|0]
18300,0.6291355490684509,0.7695199251174927,0.09438973665237427,-1.8099493980407715,11.196603775024414,0.31292620301246643,3.9375,1,F1,7.6,270,0,5.603515666939703,[6200|0|3100|0]
18400,0.6136027574539185,0.771862268447876,0.08498527854681015,-4.070479393005371,4.8480000495910645,-1.4973634481430054,3.9375,1,F1,7.6,270,0,5.621824080849084,[6200|0|3200|0]
18500,0.5951176881790161,0.778270423412323,0.0909728854894638,-0.8760170936584473,-1.9566090106964111,-4.225470066070557,3.9375,1,F1,7.6,270,0,5.64228413150997,[6200|0|3300|0]
18600,0.5718765258789062,0.789725124835968,0.10447850823402405,-1.5366008281707764,-2.277660846710205,-0.055924560874700546,3.9375,1,F1,7.6,270,0,5.671503365851124,[6200|0|3400|0]
18700,0.5489746928215027,0.8023424744606018,0.11785830557346344,-2.595773696899414,-1.4578760862350464,-0.9525935053825378,3.943359375,1,F1,7.6,270,0,5.700875298810735,[6200|0|3500|0]
18800,0.5463232398033142,0.7893128395080566,0.1169278472661972,-2.1870670318603516,-2.2184786796569824,2.74930739402771,3.943359375,1,F1,7.6,270,0,5.714204490187777,[6200|0|3600|0]
18900,0.5327025055885315,0.793093740940094,0.1253005564212799,-2.0127289295196533,-2.259202003479004,2.2882723808288574,3.943359375,1,F1,7.6,270,0,5.730633789466326,[6200|0|3700|0]
19000,0.5150565505027771,0.7991302609443665,0.1373874843120575,-1.994954228401184,-2.2369956970214844,2.268167495727539,3.943359375,1,F1,7.6,270,0,5.752857945929223,[6200|0|3800|0]
19100,0.5225985050201416,0.7965370416641235,0.13455931842327118,-1.9263298511505127,-2.275592088699341,1.8453248739242554,4.0234375,1,F1,7.6,270,0,5.761319883442105,[6200|0|3900|0]
19200,0.5079024434089661,0.8015495538711548,0.14633610844612122,-1.9106330871582031,-2.2521493434906006,1.8269847631454468,4.02734375,1,F1,7.6,270,0,5.780808143722268,[6200|0|4000|0]
19300,0.493446409702301,0.8065506219863892,0.1581297069787979,-1.9018207788467407,-2.235182285308838,1.8090726137161255,4.02734375,1,F1,7.6,270,0,5.8001233335782185,[6200|0|4100|0]
19400,0.5392460823059082,0.7907348871231079,0.12170843034982681,-1.844510793685913,-2.2379791736602783,0.8775989413261414,4.02734375,1,F1,7.6,270,0,5.8607389823097735,[6200|0|4200|0]
19500,0.5684636235237122,0.7814802527427673,0.10018724203109741,-1.8444005250930786,-2.264442205429077,0.3432150185108185,4.03125,1,F1,7.6,270,0,5.898188608729513,[6200|0|4300|0]
19600,0.5889992117881775,0.775138258934021,0.08454585075378418,-1.8578888177871704,-2.269355058670044,0.027195489034056664,4.03125,1,F1,7.6,270,0,5.924770263906116,[6200|0|4400|0]
19700,0.6067734956741333,0.769597589969635,0.07140588760375977,-1.8482272624969482,-2.266026258468628,-0.19132065773010254,4.03125,1,F1,7.6,270,0,5.9475580415909945,[6200|0|4500|0]
19800,0.6204662919044495,0.7651047706604004,0.06104900687932968,-1.837604284286499,-2.251871347427368,-0.365958034992218,4.0390625,1,F1,7.6,270,0,5.965304677111297,[6200|0|4600|0]
19900,0.6327404379844666,0.7613523006439209,0.05205454304814339,-1.8395984172821045,-2.253427743911743,-0.47140267491340637,4.0390625,1,F1,7.6,270,0,5.980977458384214,[6200|0|4700|0]
20000,0.644122838973999,0.7576760053634644,0.04365925118327141,-1.8130747079849243,-2.2489547729492188,-0.5547410249710083,4.0390625,1,F1,7.6,270,0,5.995590983789537,[6200|0|4800|0]
20100,0.6538995504379272,0.754697322845459,0.03631175309419632,-1.8199776411056519,-2.2352559566497803,-0.6199321150779724,4.0390625,1,F1,7.6,270,0,6.00817837290567,[6200|0|4900|0]
20200,0.6625270843505859,0.7517528533935547,0.030151786282658577,-1.7987276315689087,-2.2296714782714844,-0.6845758557319641,4.0390625,1,F1,7.6,270,0,6.019180619625614,[6200|0|5000|0]
20300,0.6699864268302917,0.7493873834609985,0.02464691735804081,-1.7964999675750732,-2.2016332149505615,-0.7508935928344727,4.04296875,1,F1,7.6,270,0,6.0287483163238065,[6200|0|5100|0]
20400,0.6761161684989929,0.7474998831748962,0.0199513528496027,-1.799574613571167,-2.18302321434021,-0.7819333672523499,4.04296875,1,F1,7.6,270,0,6.036697197773919,[6200|0|5200|0]
20500,0.682067334651947,0.7456751465797424,0.01524302363395691,-1.794142246246338,-2.1567986011505127,-0.8198467493057251,4.04296875,1,F1,7.6,270,0,6.044501965946304,[6200|0|5300|0]
20600,0.6868205070495605,0.7438676953315735,0.011119241826236248,-1.7681870460510254,-2.127274513244629,-0.827909529209137,4.04296875,1,F1,7.6,270,0,6.051049110686847,[6200|0|5400|0]
20700,0.6937236785888672,0.7416101098060608,0.006135580129921436,-1.832094669342041,-2.1417202949523926,-0.8165718913078308,4.04296875,1,F1,7.6,270,0,6.059857479072049,[6200|0|5500|0]
20800,0.6992228627204895,0.740112841129303,0.002811453538015485,-1.858005166053772,-2.1578264236450195,-0.8322134017944336,4.046875,1,F1,7.6,270,0,6.066455407322864,[6200|0|5600|0]
20900,0.7369592785835266,0.7277514934539795,-0.025774125009775162,-1.8423722982406616,-2.108787775039673,0.9991762638092041,4.046875,1,F1,7.6,270,0,6.115383674198466,[6200|0|5700|0]
21000,0.7365851998329163,0.7278004288673401,-0.025890450924634933,-1.8989442586898804,-1.9600690603256226,0.2582509219646454,4.046875,1,F1,7.6,270,0,6.115778466934984,[6200|0|5800|0]
21100,0.7364425659179688,0.7277814745903015,-0.025497103109955788,-1.923195242881775,-1.9182606935501099,-0.25104209780693054,4.046875,1,F1,7.6,270,0,6.116197306046844,[6200|0|5900|0]
21200,0.7368083596229553,0.7281138300895691,-0.025555051863193512,-1.9351273775100708,-1.902487874031067,-0.6203688979148865,4.046875,1,F1,7.6,270,0,6.116694923641492,[6200|0|6000|0]
21300,0.7362592220306396,0.7282658219337463,-0.02562408708035946,-1.9381639957427979,-1.8764272928237915,-0.8786771297454834,4.046875,1,F1,7.6,270,0,6.117268874403491,[6200|0|6100|0]
21400,0.7364896535873413,0.7277404069900513,-0.025716904550790787,-1.922094702720642,-1.872604250907898,-1.093808889389038,4.0546875,1,F1,7.6,270,0,6.117850058236885,[6200|0|6200|0]
21500,0.7363983392715454,0.7281241416931152,-0.025469031184911728,-1.9301083087921143,-1.8767167329788208,-1.2560408115386963,4.0546875,1,F1,7.6,270,0,6.118315924990493,[6200|0|6300|0]
21600,0.7363534569740295,0.7284009456634521,-0.025680938735604286,-1.9279555082321167,-1.8914374113082886,-1.3845731019973755,4.0546875,1,F1,7.6,270,0,6.118667407093402,[6200|0|6400|0]
21700,0.7364018559455872,0.7282615303993225,-0.025572752580046654,-1.915354609489441,-1.9029687643051147,-1.4513179063796997,4.0546875,1,F1,7.6,270,0,6.118850391575188,[6200|0|6500|0]
21800,0.7362117171287537,0.7283178567886353,-0.025696007534861565,-1.908087968826294,-1.9105982780456543,-1.5059562921524048,4.0546875,1,F1,7.6,270,0,6.1190838807948245,[6200|0|6600|0]
21900,0.7364556193351746,0.7284418344497681,-0.025652851909399033,-1.9031847715377808,-1.9234755039215088,-1.5621849298477173,4.0546875,1,F1,7.6,270,0,6.11936086663339,[6200|0|6700|0]
22000,0.7364705801010132,0.7281225919723511,-0.025435108691453934,-1.8850669860839844,-1.936038613319397,-1.6020008325576782,4.0546875,1,F1,7.6,270,0,6.1197475857729,[6200|0|6800|0]
22100,0.7364788055419922,0.7278268337249756,-0.025209838524460793,-1.8659533262252808,-1.9458433389663696,-1.6200979948043823,4.05859375,1,F1,7.6,270,0,6.120119455705681,[6200|0|6900|0]
22200,0.736538290977478,0.727876603603363,-0.025587966665625572,-1.864065408706665,-1.9580082893371582,-1.655631184577942,4.05859375,1,F1,7.6,270,0,6.1205054562872485,[6200|0|7000|0]
22300,0.7365727424621582,0.728478729724884,-0.025407824665308,-1.8719929456710815,-1.9671568870544434,-1.6257431507110596,4.05859375,1,F1,7.6,270,0,6.12113489564993,[6200|0|7100|0]
22400,0.7361670136451721,0.728330671787262,-0.025103822350502014,-1.8618148565292358,-1.966715693473816,-1.627489447593689,4.05859375,1,F1,7.6,270,0,6.121663057020378,[6200|0|7200|0]
22500,0.7362438440322876,0.7282657623291016,-0.02535182423889637,-1.8627867698669434,-1.977270483970642,-1.639129400253296,4.05859375,1,F1,7.6,270,0,6.121930678175726,[6200|0|7300|0]
22600,0.7363487482070923,0.7283427119255066,-0.02527509070932865,-1.8609254360198975,-1.9815058708190918,-1.6545910835266113,4.05859375,1,F1,7.6,270,0,6.1220817217483745,[6200|0|7400|0]
22700,0.7360895872116089,0.7283515930175781,-0.02554762363433838,-1.859209418296814,-1.978567361831665,-1.6497726440429688,4.05859375,1,F1,7.6,270,0,6.122457909853703,[6200|0|7500|0]
22800,0.7365715503692627,0.7280906438827515,-0.02542811818420887,-1.8491743803024292,-2.003495931625366,-1.6464661359786987,4.06640625,1,F1,7.6,270,0,6.123018859485055,[6200|0|7600|0]
22900,0.7365061044692993,0.7283639311790466,-0.02544325590133667,-1.858078122138977,-2.010669231414795,-1.648162603378296,4.06640625,1,F1,7.6,270,0,6.123300281343869,[6200|0|7700|0]
23000,0.7365503907203674,0.7281340956687927,-0.02558772824704647,-1.851354718208313,-2.009639024734497,-1.638818621635437,4.06640625,1,F1,7.6,270,0,6.123575341141881,[6200|0|7800|0]
23100,0.7366313934326172,0.7283616662025452,-0.02496955916285515,-1.857215166091919,-2.0111916065216064,-1.6415022611618042,4.06640625,1,F1,7.6,270,0,6.124239029927287,[6200|0|7900|0]
23200,0.7363314628601074,0.728486180305481,-0.025130076333880424,-1.8608176708221436,-2.0076489448547363,-1.6367093324661255,4.06640625,1,F1,7.6,270,0,6.124601283805595,[6200|0|8000|0]
23301,0.7365723848342896,0.728501558303833,-0.025558898225426674,-1.8641185760498047,-2.0085949897766113,-1.6187832355499268,4.06640625,1,F1,7.6,270,0,6.125093389581975,[6200|0|8100|0]
23401,0.736485481262207,0.7284098863601685,-0.02551136165857315,-1.8629463911056519,-2.013319253921509,-1.6213079690933228,4.06640625,1,F1,7.6,270,0,6.125228355137893,[6200|0|8200|0]
23501,0.7364485263824463,0.7281808257102966,-0.025547541677951813,-1.8600386381149292,-2.0195038318634033,-1.6110283136367798,4.06640625,1,F1,7.6,270,0,6.125463181538155,[6200|0|8300|0]
23601,0.7367696762084961,0.7281566262245178,-0.02581571228802204,-1.853076696395874,-2.029817819595337,-1.624122142791748,4.0703125,1,F1,7.6,270,0,6.125882273773813,[6200|0|8400|0]
23701,0.7365855574607849,0.7279635667800903,-0.025370558723807335,-1.84291410446167,-2.0221047401428223,-1.6101665496826172,4.06640625,1,F1,7.6,270,0,6.126401247143144,[6200|0|8500|0]
23801,0.7367265224456787,0.7283082008361816,-0.025388209149241447,-1.8491941690444946,-2.0258967876434326,-1.608027458190918,4.0703125,1,F1,7.6,270,0,6.126774014224713,[6200|0|8600|0]
23901,0.7364319562911987,0.7281044125556946,-0.0254264734685421,-1.8470005989074707,-2.0150253772735596,-1.6326491832733154,4.0703125,1,F1,7.6,270,0,6.12713424059904,[6200|0|8700|0]
24001,0.7368177771568298,0.7281123995780945,-0.02535727433860302,-1.8492951393127441,-2.0287234783172607,-1.6229737997055054,4.0703125,1,F1,7.6,270,0,6.127526299335032,[6200|0|8800|0]
24101,0.7364956736564636,0.7283875346183777,-0.025229863822460175,-1.859360933303833,-2.0235953330993652,-1.62553071975708,4.0703125,1,F1,7.6,270,0,6.127968660494,[6200|0|8900|0]
24201,0.736903965473175,0.7282635569572449,-0.025479229167103767,-1.8586856126785278,-2.035144329071045,-1.6207966804504395,4.0703125,1,F1,7.6,270,0,6.128462882856063,[6200|0|9000|0]
24301,0.7363625168800354,0.7283084392547607,-0.02555573172867298,-1.857682466506958,-2.0154521465301514,-1.6205767393112183,4.0703125,1,F1,7.6,270,0,6.129011548183534,[6200|0|9100|0]
24402,0.7364292144775391,0.7282032370567322,-0.025633348152041435,-1.8505390882492065,-2.0163824558258057,-1.6452404260635376,4.0703125,1,F1,7.6,270,0,6.129158314600535,[6200|0|9200|0]
24502,0.7362544536590576,0.7283359169960022,-0.025404199957847595,-1.8494147062301636,-2.0133843421936035,-1.6236577033996582,4.07421875,1,F1,7.6,270,0,6.12947557506902,[6200|0|9300|0]
24602,0.7366005182266235,0.7283868193626404,-0.02514967881143093,-1.8521250486373901,-2.0224342346191406,-1.6305772066116333,4.07421875,1,F1,7.6,270,0,6.129908163499087,[6200|0|9400|0]
24702,0.7365407347679138,0.7284479141235352,-0.025251144543290138,-1.8456926345825195,-2.023016929626465,-1.6462990045547485,4.07421875,1,F1,7.6,270,0,6.130040835751219,[6200|0|9500|0]
24802,0.7365785837173462,0.7281507253646851,-0.025118356570601463,-1.8388798236846924,-2.017460346221924,-1.6408592462539673,4.07421875,1,F1,7.6,270,0,6.130368534312477,[6200|0|9600|0]
24902,0.7368539571762085,0.7282381653785706,-0.025369711220264435,-1.8424122333526611,-2.0233592987060547,-1.6383838653564453,4.07421875,1,F1,7.6,270,0,6.130751490521176,[6200|0|9700|0]
25002,0.7363156676292419,0.7281961441040039,-0.025348005816340446,-1.8460187911987305,-2.004875659942627,-1.6613025665283203,4.07421875,1,F1,7.6,270,0,6.131291853869719,[6200|0|9800|0]
25102,0.7360818982124329,0.7284000515937805,-0.025523440912365913,-1.850953459739685,-2.001309394836426,-1.6615321636199951,4.07421875,1,F1,7.6,270,0,6.131648229903621,[6200|0|9900|0]
25202,0.7365067601203918,0.7281785011291504,-0.0255422480404377,-1.8407313823699951,-2.018357992172241,-1.667582631111145,4.07421875,1,F1,7.6,270,0,6.1321277567092105,[6200|0|10000|0]
25302,0.736574649810791,0.7282028794288635,-0.02533511258661747,-1.8403271436691284,-2.023538589477539,-1.6505459547042847,4.07421875,1,F1,7.6,270,0,6.132347092998476,[6200|0|10100|0]
25400,0.7363520264625549,0.7284751534461975,-0.025295402854681015,-1.8428860902786255,-2.0159270763397217,-1.6327574253082275,4.08203125,1,F1,7.6,270,0,6.1327010296573645,[6200|0|10200|0]
25500,0.7365413904190063,0.7280970215797424,-0.025745783001184464,-1.827444076538086,-2.0213992595672607,-1.6382628679275513,4.08203125,1,F1,7.6,270,0,6.1333188360127835,[6200|0|10300|0]
25600,0.7367605566978455,0.7280919551849365,-0.025217505171895027,-1.8283305168151855,-2.0367558002471924,-1.6249569654464722,4.08203125,1,F1,7.6,270,0,6.133890794919573,[6200|0|10400|0]
25700,0.7364677786827087,0.72845059633255,-0.025126082822680473,-1.8397479057312012,-2.024416446685791,-1.6124153137207031,4.08203125,1,F1,7.6,270,0,6.134362706441836,[6200|0|10500|0]
25800,0.7364963889122009,0.7278891205787659,-0.025493748486042023,-1.8231070041656494,-2.0306103229522705,-1.5806052684783936,4.08203125,1,F1,7.6,270,0,6.135034459080338,[6200|0|10600|0]
25900,0.7363699674606323,0.7280737161636353,-0.025166621431708336,-1.8270368576049805,-2.0298192501068115,-1.5923945903778076,4.08203125,1,F1,7.6,270,0,6.135430779686725,[6200|0|10700|0]
26000,0.7368248701095581,0.728175163269043,-0.025250181555747986,-1.8307571411132812,-2.0403101444244385,-1.5961651802062988,4.08203125,1,F1,7.6,270,0,6.135904288112759,[6200|0|10800|0]
26100,0.7367289662361145,0.7283697724342346,-0.025701455771923065,-1.83600914478302,-2.034135580062866,-1.6031816005706787,4.08203125,1,F1,7.6,270,0,6.136405006295275,[6200|0|10900|0]
26200,0.7362868785858154,0.7284259796142578,-0.02525145374238491,-1.8318768739700317,-2.016019344329834,-1.6058056354522705,4.08203125,1,F1,7.6,270,0,6.137038332881028,[6200|0|11000|0]
26300,0.7362592816352844,0.7284101843833923,-0.025467125698924065,-1.833030104637146,-2.015571117401123,-1.6077557802200317,4.08203125,1,F1,7.6,270,0,6.1372563362613555,[6200|0|11100|0]
26400,0.7365608811378479,0.7282671332359314,-0.025687193498015404,-1.826303243637085,-2.022771120071411,-1.6151057481765747,4.08203125,1,F1,7.6,270,0,6.13765615587935,[6200|0|11200|0]
26500,0.736513078212738,0.7284042835235596,-0.025288082659244537,-1.827194333076477,-2.0174574851989746,-1.6193013191223145,4.08203125,1,F1,7.6,270,0,6.138080873176702,[6200|0|11300|0]
26600,0.736667811870575,0.7283481359481812,-0.02531609870493412,-1.8248870372772217,-2.019365072250366,-1.6268560886383057,4.0859375,1,F1,7.6,270,0,6.138247846090387,[6200|0|11400|0]
26700,0.7365073561668396,0.7282180190086365,-0.025323249399662018,-1.820855975151062,-2.0122692584991455,-1.6303153038024902,4.0859375,1,F1,7.6,270,0,6.138454552605167,[6200|0|11500|0]
26800,0.73630291223526,0.7280948162078857,-0.025455564260482788,-1.8246194124221802,-2.0069901943206787,-1.6314414739608765,4.0859375,1,F1,7.6,270,0,6.138727469210867,[6200|0|11600|0]
26900,0.7363734245300293,0.72834312915802,-0.025324612855911255,-1.8322232961654663,-2.010204792022705,-1.6365238428115845,4.0859375,1,F1,7.6,270,0,6.139016916227223,[6200|0|11700|0]
27000,0.7360589504241943,0.7281410098075867,-0.025260983034968376,-1.8240097761154175,-2.004290819168091,-1.643117904663086,4.0859375,1,F1,7.6,270,0,6.139396119272007,[6200|0|11800|0]
27100,0.7364299893379211,0.7281460762023926,-0.025075629353523254,-1.8249611854553223,-2.0122227668762207,-1.6507527828216553,4.0859375,1,F1,7.6,270,0,6.139810910220656,[6200|0|11900|0]
27200,0.7364934086799622,0.7283694744110107,-0.025157460942864418,-1.8368401527404785,-2.009505033493042,-1.6534943580627441,4.0859375,1,F1,7.6,270,0,6.1400571320344195,[6200|0|12000|0]
27300,0.7362449169158936,0.7280385494232178,-0.025159267708659172,-1.8295072317123413,-2.0052547454833984,-1.643323302268982,4.0859375,1,F1,7.6,270,0,6.140470971095841,[6200|0|12100|0]
27400,0.7364126443862915,0.7281787395477295,-0.02543770894408226,-1.8366193771362305,-2.0174081325531006,-1.666653037071228,4.0859375,1,F1,7.6,270,0,6.1408249701027895,[6200|0|12200|0]
27500,0.7364644408226013,0.7278409600257874,-0.025365423411130905,-1.8300399780273438,-2.0161166191101074,-1.6560057401657104,4.0859375,1,F1,7.6,270,0,6.141174259487872,[6200|0|12300|0]
27600,0.7364820241928101,0.7285455465316772,-0.0253852941095829,-1.8467062711715698,-2.018686532974243,-1.646409273147583,4.08984375,1,F1,7.6,270,0,6.141879345414442,[6200|0|12400|0]
27700,0.7362412810325623,0.7285077571868896,-0.025258583948016167,-1.8440136909484863,-2.0100674629211426,-1.650545597076416,4.0859375,1,F1,7.6,270,0,6.142154010244425,[6200|0|12500|0]
27800,0.7362512350082397,0.728266716003418,-0.025500385090708733,-1.830196738243103,-2.0095794200897217,-1.6371873617172241,4.08984375,1,F1,7.6,270,0,6.142495576821199,[6200|0|12600|0]
27900,0.7367806434631348,0.7283065915107727,-0.025835104286670685,-1.8372622728347778,-2.0240375995635986,-1.6351940631866455,4.08984375,1,F1,7.6,270,0,6.143123191598229,[6200|0|12700|0]
28000,0.7368999123573303,0.7281859517097473,-0.025224098935723305,-1.8277019262313843,-2.0374112129211426,-1.6405409574508667,4.0859375,1,F1,7.6,270,0,6.143757310332853,[6200|0|12800|0]
28100,0.7364009618759155,0.7283372282981873,-0.025240521878004074,-1.8309900760650635,-2.0290935039520264,-1.6128573417663574,4.08984375,1,F1,7.6,270,0,6.1442789480444375,[6200|0|12900|0]
28200,0.7370129823684692,0.7282358407974243,-0.025425896048545837,-1.823123812675476,-2.0425965785980225,-1.6247514486312866,4.08984375,1,F1,7.6,270,0,6.144926413944482,[6200|0|13000|0]
28300,0.7364926338195801,0.7280246019363403,-0.025431640446186066,-1.819531798362732,-2.0299134254455566,-1.6279263496398926,4.08984375,1,F1,7.6,270,0,6.145488034338403,[6200|0|13100|0]
28400,0.7362731695175171,0.7281222939491272,-0.025664061307907104,-1.826029896736145,-2.0348541736602783,-1.6275755167007446,4.08984375,1,F1,7.6,270,0,6.145822291374537,[6200|0|13200|0]
28500,0.7364424467086792,0.7283342480659485,-0.025382593274116516,-1.8280236721038818,-2.045473098754883,-1.6181756258010864,4.08984375,1,F1,7.6,270,0,6.14621319234554,[6200|0|13300|0]
28600,0.7365453839302063,0.7283710837364197,-0.025587385520339012,-1.8282970190048218,-2.04504656791687,-1.6211169958114624,4.08984375,1,F1,7.6,270,0,6.146445340579019,[6200|0|13400|0]
28700,0.736639142036438,0.7283390164375305,-0.02531455270946026,-1.8280277252197266,-2.042783737182617,-1.6353464126586914,4.08984375,1,F1,7.6,270,0,6.146735610516894,[6200|0|13500|0]
28800,0.7363971471786499,0.7281919121742249,-0.025333240628242493,-1.8300963640213013,-2.0405633449554443,-1.6478357315063477,4.08984375,1,F1,7.6,270,0,6.147019424564797,[6200|0|13600|0]
28900,0.7365244626998901,0.7283361554145813,-0.025339379906654358,-1.831137776374817,-2.0399699211120605,-1.630119800567627,4.08984375,1,F1,7.6,270,0,6.14721191624014,[6200|0|13700|0]
29000,0.7365865707397461,0.7281574606895447,-0.02569735236465931,-1.8214811086654663,-2.041105270385742,-1.6200566291809082,4.08984375,1,F1,7.6,270,0,6.147616803254085,[6200|0|13800|0]
29100,0.7365666031837463,0.7279812693595886,-0.02567462809383869,-1.818292260169983,-2.045490264892578,-1.6234086751937866,4.08984375,1,F1,7.6,270,0,6.147795572604166,[6200|0|13900|0]
29200,0.7368358969688416,0.7282847762107849,-0.025245504453778267,-1.8227978944778442,-2.0512373447418213,-1.6068607568740845,4.08984375,1,F1,7.6,270,0,6.1483861508376565,[6200|0|14000|0]
29300,0.7367881536483765,0.7282916903495789,-0.02517751231789589,-1.8168359994888306,-2.0445234775543213,-1.586482048034668,4.08984375,1,F1,7.6,270,0,6.148469518460305,[6200|0|14100|0]
29400,0.7366474866867065,0.7281351685523987,-0.025358503684401512,-1.823451042175293,-2.045382499694824,-1.5872254371643066,4.09765625,1,F1,7.6,270,0,6.148747086725508,[6200|0|14200|0]
29500,0.7367145419120789,0.7283525466918945,-0.025380387902259827,-1.8365904092788696,-2.0490219593048096,-1.6120542287826538,4.09765625,1,F1,7.6,270,0,6.14897562245088,[6200|0|14300|0]
29600,0.7364683747291565,0.7283291816711426,-0.025299564003944397,-1.837944507598877,-2.045011043548584,-1.6113762855529785,4.09765625,1,F1,7.6,270,0,6.149235769925751,[6200|0|14400|0]
29700,0.7363080382347107,0.7286906838417053,-0.025546614080667496,-1.8514832258224487,-2.04610276222229,-1.6363452672958374,4.09765625,1,F1,7.6,270,0,6.149702058839603,[6200|0|14500|0]
29800,0.7366780638694763,0.728412389755249,-0.02528575249016285,-1.8465676307678223,-2.0600929260253906,-1.631902813911438,4.09765625,1,F1,7.6,270,0,6.150233486481282,[6200|0|14600|0]
29900,0.7367371320724487,0.7283360958099365,-0.025342607870697975,-1.8411742448806763,-2.057445764541626,-1.6208993196487427,4.09765625,1,F1,7.6,270,0,6.150345479128315,[6200|0|14700|0]
30000,0.7368570566177368,0.7280605435371399,-0.025534886866807938,-1.8356497287750244,-2.043668508529663,-1.630426049232483,4.09765625,1,F1,7.6,270,0,6.150702245387862,[6200|0|14800|0]
30100,0.7365270256996155,0.7284224033355713,-0.025277480483055115,-1.8379137516021729,-2.0360634326934814,-1.625529408454895,4.09765625,1,F1,7.6,270,0,6.151255527383804,[6200|0|14900|0]
30200,0.7362980246543884,0.7279487252235413,-0.0253013763576746,-1.8159868717193604,-2.0237672328948975,-1.6100834608078003,4.09765625,1,F1,7.6,270,0,6.151782199431055,[6200|0|15000|0]
30300,0.7363275289535522,0.728529691696167,-0.025512056425213814,-1.8322041034698486,-2.018801212310791,-1.6021628379821777,4.09765625,1,F1,7.6,270,0,6.152400890498424,[6200|0|15100|0]
30400,0.7363025546073914,0.7285893559455872,-0.025435475632548332,-1.837586760520935,-2.021554708480835,-1.628157615661621,4.09765625,1,F1,7.6,270,0,6.152501131001368,[6200|0|15200|0]
30500,0.7361376285552979,0.7281438708305359,-0.025458011776208878,-1.8243515491485596,-2.0222012996673584,-1.6072052717208862,4.09765625,1,F1,7.6,270,0,6.152976699574933,[6200|0|15300|0]
30600,0.7367785573005676,0.7279927730560303,-0.025534123182296753,-1.8241236209869385,-2.0406718254089355,-1.626969814300537,4.09765625,1,F1,7.6,270,0,6.153639582023117,[6200|0|15400|0]
30700,0.736510157585144,0.7284153699874878,-0.02555718645453453,-1.8359756469726562,-2.0267789363861084,-1.6170369386672974,4.09765625,1,F1,7.6,270,0,6.154140739172366,[6200|0|15500|0]
30800,0.736741304397583,0.7283903360366821,-0.025236599147319794,-1.8336219787597656,-2.0296967029571533,-1.612801432609558,4.1015625,1,F1,7.6,270,0,6.154536759082397,[6200|0|15600|0]
30900,0.7367107272148132,0.7280179262161255,-0.025402193889021873,-1.8146308660507202,-2.0249927043914795,-1.609580159187317,4.1015625,1,F1,7.6,270,0,6.154945471275796,[6200|0|15700|0]
31000,0.7366408109664917,0.7284042835235596,-0.025412773713469505,-1.8224196434020996,-2.0323305130004883,-1.6079838275909424,4.09765625,1,F1,7.6,270,0,6.155338246253961,[6200|0|15800|0]
31100,0.7366374135017395,0.7283784747123718,-0.025435777381062508,-1.8211631774902344,-2.0314865112304688,-1.622825026512146,4.1015625,1,F1,7.6,270,0,6.155372985370593,[6200|0|15900|0]
31200,0.7366217374801636,0.7282096147537231,-0.025399545207619667,-1.816461205482483,-2.023956298828125,-1.637043833732605,4.1015625,1,F1,7.6,270,0,6.155546398731323,[6200|0|16000|0]
31300,0.7362614870071411,0.7280167937278748,-0.025366127490997314,-1.8080416917800903,-2.018659830093384,-1.6377167701721191,4.1015625,1,F1,7.6,270,0,6.155956370797574,[6200|0|16100|0]
31400,0.7367091178894043,0.7283448576927185,-0.025174617767333984,-1.8094992637634277,-2.0331482887268066,-1.6394641399383545,4.09765625,1,F1,7.6,270,0,6.156543461374949,[6200|0|16200|0]
31500,0.7363211512565613,0.7281368970870972,-0.025263261049985886,-1.8044075965881348,-2.025024890899658,-1.6377040147781372,4.1015625,1,F1,7.6,270,0,6.156992486266518,[6200|0|16300|0]
31600,0.7365197539329529,0.7279191017150879,-0.025807728990912437,-1.794466257095337,-2.034943103790283,-1.654595136642456,4.1015625,1,F1,7.6,270,0,6.157611617258987,[6200|0|16400|0]
31700,0.7365454435348511,0.728265106678009,-0.025319630280137062,-1.8024235963821411,-2.034127712249756,-1.65383780002594,4.1015625,1,F1,7.6,270,0,6.158210465938932,[6200|0|16500|0]
31800,0.7367230653762817,0.7281674146652222,-0.025239650160074234,-1.799789309501648,-2.0347161293029785,-1.648236870765686,4.1015625,1,F1,7.6,270,0,6.158428388098248,[6200|0|16600|0]
31900,0.7363248467445374,0.7281578779220581,-0.025590892881155014,-1.805301547050476,-2.0253567695617676,-1.6414989233016968,4.1015625,1,F1,7.6,270,0,6.158959462930311,[6200|0|16700|0]
32000,0.7364900708198547,0.7285395264625549,-0.025085050612688065,-1.8157209157943726,-2.0328896045684814,-1.6354453563690186,4.1015625,1,F1,7.6,270,0,6.15961431482509,[6200|0|16800|0]
32100,0.7368813157081604,0.7282595634460449,-0.025447377935051918,-1.8069478273391724,-2.0404624938964844,-1.6480106115341187,4.1015625,1,F1,7.6,270,0,6.160216587970573,[6200|0|16900|0]
32200,0.736453652381897,0.7283062934875488,-0.025297513231635094,-1.8135364055633545,-2.0223662853240967,-1.648863673210144,4.1015625,1,F1,7.6,270,0,6.160672152506879,[6200|0|17000|0]
32300,0.7368272542953491,0.7281264662742615,-0.025385571643710136,-1.8101075887680054,-2.030252456665039,-1.631658673286438,4.1015625,1,F1,7.6,270,0,6.161096028078611,[6200|0|17100|0]
