,time.ms,stateEstimate.x,stateEstimate.y,stateEstimate.z,stabilizer.roll,stabilizer.pitch,stabilizer.yaw,pm.vbat,drone_id,node_name,wind_speed,global_wind_direction,relative_wind_direction,travel_dist,waiting_time
0,0,1.6790488958358765,1.1549052000045776,0.0,-0.3784415125846863,1.0002057552337646,3.3937828540802,4.0546875,0,"['A1', 'B2', 'F2']",0,None,450,0.0,[6200|0|0]
1,101,1.6782164573669434,1.154050350189209,0.0,-0.3715479671955108,1.027687668800354,3.3500895500183105,4.05859375,0,"['A1', 'B2', 'F2']",0,None,450,0.001193198228039,[6300|0|0]
2,200,1.67904531955719,1.1547201871871948,0.0,-0.3766653835773468,1.0020782947540283,3.3495306968688965,4.0546875,0,"['A1', 'B2', 'F2']",0,None,450,0.0022588877392434,[6400|0|0]
3,300,1.67888343334198,1.154820680618286,0.0,-0.3783577382564544,1.0023443698883057,3.341465711593628,4.0546875,0,"['A1', 'B2', 'F2']",0,None,450,0.0024494292737377,[6500|0|0]
4,400,1.679315447807312,1.1549943685531616,0.0,-0.3741766512393951,0.9837245345115662,3.35874080657959,4.0546875,0,"['A1', 'B2', 'F2']",0,None,450,0.002915051434913,[6600|0|0]
5,500,1.679263949394226,1.154890537261963,0.0,-0.3772843182086944,0.98162180185318,3.3663649559021,4.0546875,0,"['A1', 'B2', 'F2']",0,None,450,0.0030309523563173,[6700|0|0]
6,601,1.6785885095596311,1.1549731492996216,0.0,-0.3836387991905212,1.0035762786865234,3.4002134799957275,4.0546875,0,"['A1', 'B2', 'F2']",0,None,450,0.0037114255144387,[6800|0|0]
7,701,1.6782984733581543,1.1545491218566897,0.0,-0.3825827240943908,1.009758710861206,3.4045798778533936,4.05859375,0,"['A1', 'B2', 'F2']",0,None,450,0.0042251572250879,[6900|0|0]
8,801,1.6791046857833862,1.15489661693573,0.0,-0.3891125917434692,0.9889119863510132,3.4038453102111816,4.0546875,0,"['A1', 'B2', 'F2']",0,None,450,0.005103070264378,[7000|0|0]
9,901,1.6789424419403076,1.1550004482269287,0.0,-0.3882268965244293,0.993492603302002,3.4255623817443848,4.0546875,0,"['A1', 'B2', 'F2']",0,None,450,0.0052956942547034,[7100|0|0]
10,1001,1.679166555404663,1.1549603939056396,0.0,-0.3924285471439361,0.987579345703125,3.438297986984253,4.05859375,0,"['A1', 'B2', 'F2']",0,None,450,0.0055233589062402,[7200|0|0]
11,1101,1.6792349815368652,1.1549372673034668,0.0,-0.3860425353050232,0.9868501424789428,3.398703098297119,4.05859375,0,"['A1', 'B2', 'F2']",0,None,450,0.0055955875383483,[7300|0|0]
12,1201,1.678991675376892,1.1550010442733765,0.0,-0.3925405144691467,0.9895897507667542,3.398077964782715,4.0546875,0,"['A1', 'B2', 'F2']",0,None,450,0.0058471136590032,[7400|0|0]
13,1301,1.6789395809173584,1.1548250913619995,0.0,-0.3995501101016998,0.9862647652626038,3.388605117797852,4.0546875,0,"['A1', 'B2', 'F2']",0,None,450,0.0060306164103072,[7500|0|0]
14,1401,1.6784976720809937,1.154718995094299,0.0,-0.4137502908706665,0.9976221919059752,3.40107798576355,4.0546875,0,"['A1', 'B2', 'F2']",0,None,450,0.0064850829521749,[7600|0|0]
15,1502,1.6789634227752686,1.1549180746078491,0.0,-0.409452885389328,0.98739355802536,3.4062604904174805,4.0546875,0,"['A1', 'B2', 'F2']",0,None,450,0.0069915968828154,[7700|0|0]
16,1602,1.6788593530654907,1.1550259590148926,0.0,-0.4011534452438354,0.9910021424293518,3.414123773574829,4.05859375,0,"['A1', 'B2', 'F2']",0,None,450,0.0071414953477054,[7800|0|0]
17,1702,1.6787503957748413,1.1547677516937256,0.0,-0.3915561437606811,0.9983657002449036,3.416642427444458,4.0546875,0,"['A1', 'B2', 'F2']",0,None,450,0.0074217500744985,[7900|0|0]
18,1802,1.6790763139724731,1.1546837091445925,0.0,-0.3848674297332763,0.9914825558662416,3.4161715507507324,4.0546875,0,"['A1', 'B2', 'F2']",0,None,450,0.0077583296662927,[8000|0|0]
19,1900,1.6792529821395874,1.1545647382736206,0.0,-0.3826710879802704,0.9956313967704772,3.4073245525360107,4.05859375,0,"['A1', 'B2', 'F2']",0,None,450,0.0079713219417661,[8100|0|0]
20,2000,1.6792072057724,1.1550726890563965,0.0,-0.3932443559169769,0.994038462638855,3.4132487773895264,4.0546875,0,"['A1', 'B2', 'F2']",0,None,450,0.0084813312294418,[8200|0|0]
21,2100,1.6791387796401978,1.1545262336730957,0.0,-0.3768436312675476,1.0003544092178345,3.412731409072876,4.0546875,0,"['A1', 'B2', 'F2']",0,None,450,0.0090320540467525,[8300|0|0]
22,2200,1.6790515184402466,1.1543697118759155,0.0,-0.3759419918060303,1.0051398277282717,3.4143853187561035,4.0546875,0,"['A1', 'B2', 'F2']",0,None,450,0.0092112566974288,[8400|0|0]
23,2302,1.67860209941864,1.1545987129211426,0.0,-0.3912656307220459,1.0056006908416748,3.4055638313293457,4.0546875,0,"['A1', 'B2', 'F2']",0,None,450,0.0097156562768269,[8500|0|0]
24,2400,1.6792243719100952,1.155017614364624,0.0,-0.4034039974212646,0.9949411153793336,3.402597665786743,4.0546875,0,"['A1', 'B2', 'F2']",0,None,450,0.0104657905801172,[8600|0|0]
25,2500,1.679093360900879,1.154823660850525,0.0,-0.3956383764743805,0.9936631321907043,3.402673721313477,4.05859375,0,"['A1', 'B2', 'F2']",0,None,450,0.0106998458089998,[8700|0|0]
26,2600,1.6791099309921265,1.155046820640564,0.0,-0.4119830727577209,0.9922573566436768,3.441143035888672,4.0546875,0,"['A1', 'B2', 'F2']",0,None,450,0.0109236199357755,[8800|0|0]
27,2700,1.6791908740997314,1.155030369758606,0.0,-0.4079139530658722,0.9890344142913818,3.4207305908203125,4.0546875,0,"['A1', 'B2', 'F2']",0,None,450,0.0110062178666572,[8900|0|0]
28,2800,1.6786973476409912,1.1547038555145264,0.0,-0.3994660675525665,0.9991825819015504,3.438441276550293,4.0546875,0,"['A1', 'B2', 'F2']",0,None,450,0.0115979778831027,[9000|0|0]
29,2900,1.6790401935577393,1.1551706790924072,0.0,-0.4056141078472137,0.9869937896728516,3.443157911300659,4.0546875,0,"['A1', 'B2', 'F2']",0,None,450,0.0121771735111044,[9100|0|0]
30,3000,1.6790860891342163,1.154476761817932,0.0,-0.3833463788032532,0.98602694272995,3.396025896072388,4.0546875,0,"['A1', 'B2', 'F2']",0,None,450,0.0128726068923534,[9200|0|0]
31,3100,1.6792166233062744,1.1548511981964111,0.0,-0.3874989748001098,0.978526771068573,3.4174158573150635,4.0546875,0,"['A1', 'B2', 'F2']",0,None,450,0.0132691441183531,[9300|0|0]
32,3200,1.679088115692139,1.1547797918319702,0.0,-0.3831868767738342,0.9802998304367064,3.397533655166626,4.0546875,0,"['A1', 'B2', 'F2']",0,None,450,0.0134161579808746,[9400|0|0]
33,3300,1.6788982152938845,1.1549876928329468,0.0,-0.3960543274879455,0.9779812097549438,3.390978574752808,4.0546875,0,"['A1', 'B2', 'F2']",0,None,450,0.0136977338808806,[9500|0|0]
34,3400,1.6791250705718994,1.1545498371124268,0.0,-0.3937772512435913,0.9763607382774352,3.401658535003662,4.0546875,0,"['A1', 'B2', 'F2']",0,None,450,0.0141908676853955,[9600|0|0]
35,3500,1.678856372833252,1.1548349857330322,0.0,-0.4030854701995849,0.9835387468338012,3.3975989818573,4.0546875,0,"['A1', 'B2', 'F2']",0,None,450,0.0145826689240197,[9700|0|0]
36,3600,1.6786777973175049,1.154948115348816,0.0,-0.4020594358444214,0.9875936508178712,3.406926155090332,4.0546875,0,"['A1', 'B2', 'F2']",0,None,450,0.0147940631642244,[9800|0|0]
37,3700,1.6792099475860596,1.154794692993164,0.0,-0.3987024426460266,0.9719039797782898,3.379778385162353,4.0546875,0,"['A1', 'B2', 'F2']",0,None,450,0.0153478883419985,[9900|0|0]
38,3800,1.6789493560791016,1.1546558141708374,0.0,-0.3910350799560547,0.9858924746513368,3.41930627822876,4.0546875,0,"['A1', 'B2', 'F2']",0,None,450,0.0156431767785982,[10000|0|0]
39,3900,1.6792571544647217,1.1548776626586914,0.0,-0.3978569805622101,0.9790890216827391,3.4296188354492188,4.0546875,0,"['A1', 'B2', 'F2']",0,None,450,0.0160225929060275,[10100|0|0]
40,4000,1.679063081741333,1.154827356338501,0.0,-0.4060695171356201,0.9928590655326844,3.420929193496704,4.0546875,0,"['A1', 'B2', 'F2']",0,None,450,0.016223079683184,[10200|0|0]
41,4100,1.6789846420288086,1.1544145345687866,0.0,-0.404099553823471,0.9925379753112792,3.4177541732788086,4.05859375,0,"['A1', 'B2', 'F2']",0,None,450,0.0166432874913588,[10300|0|0]
42,4200,1.6792309284210205,1.1548047065734863,0.0,-0.4133933782577514,0.9889593720436096,3.393625259399414,4.0546875,0,"['A1', 'B2', 'F2']",0,None,450,0.0171046888136804,[10400|0|0]
43,4300,1.6791837215423584,1.15493905544281,0.0,-0.4191243946552276,0.9911759495735168,3.394937753677368,4.0546875,0,"['A1', 'B2', 'F2']",0,None,450,0.0172470900358717,[10500|0|0]
44,4400,1.679291844367981,1.1549186706542969,0.0,-0.410092294216156,0.9924200177192688,3.392374992370605,4.0546875,0,"['A1', 'B2', 'F2']",0,None,450,0.0173571176915922,[10600|0|0]
45,4500,1.678913116455078,1.154873609542847,0.0,-0.4050343036651611,1.0040773153305054,3.396559238433838,4.0546875,0,"['A1', 'B2', 'F2']",0,None,450,0.0177385168732601,[10700|0|0]
46,4600,1.6789782047271729,1.1546738147735596,0.0,-0.3960414230823517,1.0056250095367432,3.411125421524048,4.0546875,0,"['A1', 'B2', 'F2']",0,None,450,0.0179486464356708,[10800|0|0]
47,4700,1.6790575981140137,1.1548826694488523,0.0,-0.3998852968215942,1.0027804374694824,3.4515442848205566,4.0546875,0,"['A1', 'B2', 'F2']",0,None,450,0.0181720822995461,[10900|0|0]
48,4800,1.6789188385009766,1.154590368270874,0.0,-0.3897714912891388,0.9989036917686462,3.457258462905884,4.0546875,0,"['A1', 'B2', 'F2']",0,None,450,0.01849564714445,[11000|0|0]
49,4900,1.6787983179092407,1.1550450325012207,0.0,-0.3970137536525726,0.9963998794555664,3.4382879734039307,4.0546875,0,"['A1', 'B2', 'F2']",0,None,450,0.0189660137837741,[11100|0|0]
50,5000,1.6790510416030884,1.1547785997390747,0.0,-0.3934220671653747,0.9865649342536926,3.4351930618286133,4.0546875,0,"['A1', 'B2', 'F2']",0,None,450,0.0193332408009948,[11200|0|0]
51,5100,1.679128646850586,1.1546170711517334,0.0,-0.3865495324134826,0.9927757382392884,3.42232608795166,4.0546875,0,"['A1', 'B2', 'F2']",0,None,450,0.0195124447601241,[11300|0|0]
52,5200,1.6789520978927612,1.155062556266785,0.0,-0.3945973813533783,0.9959052205085754,3.4020304679870605,4.0546875,0,"['A1', 'B2', 'F2']",0,None,450,0.0199916383767776,[11400|0|0]
53,5300,1.679166555404663,1.1550651788711548,0.0,-0.3996235132217407,0.9921456575393676,3.442396402359009,4.0546875,0,"['A1', 'B2', 'F2']",0,None,450,0.0202061119240155,[11500|0|0]
54,5400,1.679075837135315,1.1549769639968872,0.0,-0.3931919038295746,0.9924724102020264,3.438431739807129,4.0546875,0,"['A1', 'B2', 'F2']",0,None,450,0.0203326491455575,[11600|0|0]
55,5500,1.6788365840911863,1.1548188924789429,0.0,-0.3890027105808258,1.0056707859039309,3.4337682723999023,4.0546875,0,"['A1', 'B2', 'F2']",0,None,450,0.0206194044836247,[11700|0|0]
56,5600,1.6785197257995603,1.1549079418182373,0.0,-0.4082688689231872,1.013472080230713,3.431221008300781,4.0546875,0,"['A1', 'B2', 'F2']",0,None,450,0.0209485381370254,[11800|0|0]
57,5700,1.6790776252746582,1.1546958684921265,0.0,-0.3953017890453338,1.0021852254867554,3.437249660491944,4.0546875,0,"['A1', 'B2', 'F2']",0,None,450,0.0215453856216999,[11900|0|0]
58,5800,1.678874373435974,1.1550532579421997,0.0,-0.399371325969696,1.0044845342636108,3.437150955200196,4.0546875,0,"['A1', 'B2', 'F2']",0,None,450,0.0219565285760992,[12000|0|0]
59,5900,1.6791962385177612,1.1547033786773682,0.0,-0.3842340409755707,0.998869776725769,3.417475461959839,4.0546875,0,"['A1', 'B2', 'F2']",0,None,450,0.0224319364334523,[12100|0|0]
60,6000,1.6791672706604004,1.1548175811767578,0.0,-0.3828254044055938,1.0032243728637695,3.416789054870605,4.0546875,0,"['A1', 'B2', 'F2']",0,None,450,0.0225497555644409,[12200|0|0]
61,6100,1.6792292594909668,1.1548635959625244,0.0,-0.3833337128162384,1.0049705505371094,3.4309070110321045,4.0546875,0,"['A1', 'B2', 'F2']",0,None,450,0.0226269564428306,[12300|0|0]
62,6200,1.678905963897705,1.1547081470489502,0.0,-0.3787440061569214,1.013555884361267,3.445852756500244,4.0546875,0,"['A1', 'B2', 'F2']",0,None,450,0.0229856825296348,[12400|0|0]
63,6300,1.6793270111083984,1.154769778251648,0.0,-0.3809860348701477,1.0019813776016235,3.415971517562866,4.0546875,0,"['A1', 'B2', 'F2']",0,None,450,0.0234112164986415,[12500|0|0]
64,6400,1.6786532402038574,1.1546820402145386,0.0,-0.3967672884464264,1.0108469724655151,3.412162065505981,4.0546875,0,"['A1', 'B2', 'F2']",0,None,450,0.0240906759860003,[12600|0|0]
65,6500,1.6789196729660034,1.1547579765319824,0.0,-0.3903966844081878,0.9983492493629456,3.3672404289245605,4.0546875,0,"['A1', 'B2', 'F2']",0,None,450,0.0243677188365698,[12700|0|0]
66,6600,1.6793190240859983,1.154594659805298,0.0,-0.3899049162864685,0.9910379648208618,3.362837791442871,4.0546875,0,"['A1', 'B2', 'F2']",0,None,450,0.0247991741300314,[12800|0|0]
67,6700,1.6789252758026123,1.1545506715774536,0.0,-0.3877820372581482,1.0076652765274048,3.393632411956787,4.0546875,0,"['A1', 'B2', 'F2']",0,None,450,0.025195371902436,[12900|0|0]
68,6800,1.679099440574646,1.1549782752990725,0.0,-0.3949553370475769,1.0011918544769287,3.3490233421325684,4.0546875,0,"['A1', 'B2', 'F2']",0,None,450,0.0256570842702147,[13000|0|0]
69,6900,1.679439663887024,1.15484881401062,0.0,-0.3912920355796814,0.9917724132537842,3.3485028743743896,4.0546875,0,"['A1', 'B2', 'F2']",0,None,450,0.0260211064226907,[13100|0|0]
70,7000,1.6791542768478394,1.154839277267456,0.0,-0.4113858938217163,0.9852839708328248,3.3646490573883057,4.0546875,0,"['A1', 'B2', 'F2']",0,None,450,0.0263066527614953,[13200|0|0]
71,7100,1.6791739463806152,1.155142903327942,0.0,-0.4068472385406494,0.9891015291213988,3.3644516468048096,4.0546875,0,"['A1', 'B2', 'F2']",0,None,450,0.0266109152717159,[13300|0|0]
72,7200,1.678823471069336,1.1550514698028564,0.0,-0.4010308980941772,0.9956138730049132,3.390101909637451,4.0546875,0,"['A1', 'B2', 'F2']",0,None,450,0.026973121060358,[13400|0|0]
73,7300,1.67902934551239,1.1549968719482422,0.0,-0.3945702612400055,0.9954072833061218,3.391559600830078,4.0546875,0,"['A1', 'B2', 'F2']",0,None,450,0.027186112168227,[13500|0|0]
74,7400,1.6790506839752195,1.1551110744476318,0.0,-0.3949733674526214,0.9967880249023438,3.4143266677856445,4.0546875,0,"['A1', 'B2', 'F2']",0,None,450,0.0273022910856896,[13600|0|0]
75,7500,1.6788451671600342,1.154861569404602,0.0,-0.3885532915592193,0.9993180632591248,3.394155263900757,4.0546875,0,"['A1', 'B2', 'F2']",0,None,450,0.0276255401039731,[13700|0|0]
76,7600,1.6792309284210205,1.155012845993042,0.0,-0.3850177824497223,0.988877534866333,3.4336531162261963,4.0546875,0,"['A1', 'B2', 'F2']",0,None,450,0.0280399026948132,[13800|0|0]
77,7700,1.6789109706878662,1.1549915075302124,0.0,-0.3825288712978363,0.9993106126785278,3.436511516571045,4.0546875,0,"['A1', 'B2', 'F2']",0,None,450,0.0283605711856276,[13900|0|0]
78,7800,1.678923726081848,1.155065894126892,0.0,-0.3868969082832336,1.0048673152923584,3.4151742458343506,4.0546875,0,"['A1', 'B2', 'F2']",0,None,450,0.02843604347088,[14000|0|0]
79,7900,1.6794334650039673,1.1549423933029177,0.0,-0.3878332674503326,0.9877141118049622,3.4366455078125,4.0546875,0,"['A1', 'B2', 'F2']",0,None,450,0.0289605300982078,[14100|0|0]
80,8000,1.678974986076355,1.1547467708587646,0.0,-0.3974617421627044,1.0033351182937622,3.423835277557373,4.0546875,0,"['A1', 'B2', 'F2']",0,None,450,0.0294589988211193,[14200|0|0]
81,8100,1.6785943508148191,1.1549434661865234,0.0,-0.3955997228622436,1.0116562843322754,3.4084928035736084,4.0546875,0,"['A1', 'B2', 'F2']",0,None,450,0.0298874521491337,[14300|0|0]
82,8200,1.6790186166763306,1.15492844581604,0.0,-0.3930384218692779,1.0067776441574097,3.402161121368408,4.0546875,0,"['A1', 'B2', 'F2']",0,None,450,0.030311983811997,[14400|0|0]
83,8300,1.6790927648544312,1.1546839475631714,0.0,-0.3803629279136657,1.003048539161682,3.384892463684082,4.0546875,0,"['A1', 'B2', 'F2']",0,None,450,0.0305674781328174,[14500|0|0]
84,8400,1.679327130317688,1.1549654006958008,0.0,-0.3860170245170593,0.9984537363052368,3.3843438625335693,4.0546875,0,"['A1', 'B2', 'F2']",0,None,450,0.0309337335576707,[14600|0|0]
85,8500,1.679343342781067,1.1546735763549805,0.0,-0.3764838576316833,0.9961503744125366,3.3662362098693848,4.0546875,0,"['A1', 'B2', 'F2']",0,None,450,0.0312260078977418,[14700|0|0]
86,8600,1.678412675857544,1.154700756072998,0.0,-0.4081327319145202,1.007516622543335,3.3883402347564697,4.0546875,0,"['A1', 'B2', 'F2']",0,None,450,0.0321570716225272,[14800|0|0]
87,8700,1.6791481971740725,1.1549068689346311,0.0,-0.4055431485176086,0.9811315536499025,3.3909177780151367,4.0546875,0,"['A1', 'B2', 'F2']",0,None,450,0.0329209263985144,[14900|0|0]
88,8800,1.678966045379639,1.1551427841186523,0.0,-0.4054431021213531,0.9925956130027772,3.391498327255249,4.0546875,0,"['A1', 'B2', 'F2']",0,None,450,0.0332189788272365,[15000|0|0]
89,8900,1.6790531873703003,1.154812932014465,0.0,-0.3976739346981048,0.990572452545166,3.38042950630188,4.0546875,0,"['A1', 'B2', 'F2']",0,None,450,0.0335601476083012,[15100|0|0]
90,9000,1.67892587184906,1.1550027132034302,0.0,-0.3966332376003265,0.9898170828819276,3.41277289390564,4.0546875,0,"['A1', 'B2', 'F2']",0,None,450,0.0337886780037274,[15200|0|0]
91,9100,1.6788098812103271,1.1547636985778809,0.0,-0.3841950893402099,0.9997685551643372,3.4421136379241943,4.0546875,0,"['A1', 'B2', 'F2']",0,None,450,0.0340543503950295,[15300|0|0]
92,9200,1.6786726713180542,1.1550496816635132,0.0,-0.4028064310550689,0.99648517370224,3.42972183227539,4.0546875,0,"['A1', 'B2', 'F2']",0,None,450,0.0343715457288623,[15400|0|0]
93,9300,1.6790986061096191,1.1548796892166138,0.0,-0.3890109956264496,0.985019326210022,3.4157514572143555,4.0546875,0,"['A1', 'B2', 'F2']",0,None,450,0.0348301500012676,[15500|0|0]
94,9400,1.6789650917053225,1.1552040576934814,0.0,-0.3859061598777771,0.9885015487670898,3.4322152137756348,4.0546875,0,"['A1', 'B2', 'F2']",0,None,450,0.0351809220140339,[15600|0|0]
95,9500,1.6792632341384888,1.1548340320587158,0.0,-0.3750885426998138,0.9818071722984314,3.404919147491455,4.0546875,0,"['A1', 'B2', 'F2']",0,None,450,0.0356561144811859,[15700|0|0]
96,9600,1.6787497997283936,1.1546909809112549,0.0,-0.3673610389232635,1.0004335641860962,3.395616054534912,4.0546875,0,"['A1', 'B2', 'F2']",0,None,450,0.0361891046539468,[15800|0|0]
97,9700,1.6789653301239014,1.1550089120864868,0.0,-0.3755253255367279,0.9943955540657043,3.4064624309539795,4.0546875,0,"['A1', 'B2', 'F2']",0,None,450,0.0365732056609386,[15900|0|0]
98,9800,1.6790329217910769,1.154975175857544,0.0,-0.3782679140567779,0.9952741861343384,3.40327525138855,4.0546875,0,"['A1', 'B2', 'F2']",0,None,450,0.0366487488050011,[16000|0|0]
99,9900,1.678974986076355,1.1546697616577148,0.0,-0.3739792108535766,1.0006425380706787,3.4264392852783203,4.0546875,0,"['A1', 'B2', 'F2']",0,None,450,0.0369596095141581,[16100|0|0]
100,10000,1.678515076637268,1.1549460887908936,0.0,-0.3945820033550262,1.0150684118270874,3.432926893234253,4.0546875,0,"['A1', 'B2', 'F2']",0,None,450,0.0374961478414862,[16200|0|0]
101,10100,1.6788290739059448,1.1547276973724363,0.0,-0.3835857510566711,0.9987003803253174,3.463258743286133,4.0546875,0,"['A1', 'B2', 'F2']",0,None,450,0.0378786254178122,[16300|0|0]
102,10200,1.6789004802703855,1.1551066637039185,0.0,-0.3978822827339172,1.0023038387298584,3.46350359916687,4.0546875,0,"['A1', 'B2', 'F2']",0,None,450,0.0382642604126969,[16400|0|0]
103,10300,1.6789013147354126,1.1550968885421753,0.0,-0.397189736366272,0.9958988428115844,3.4586498737335205,4.0546875,0,"['A1', 'B2', 'F2']",0,None,450,0.0382740711271962,[16500|0|0]
104,10400,1.6791144609451294,1.1547772884368896,0.0,-0.3870033323764801,0.9962095022201538,3.4480433464050293,4.0546875,0,"['A1', 'B2', 'F2']",0,None,450,0.0386582267389152,[16600|0|0]
105,10500,1.6793028116226196,1.1549217700958252,0.0,-0.3814184963703155,0.9975112676620485,3.4421236515045166,4.0546875,0,"['A1', 'B2', 'F2']",0,None,450,0.0388956102418799,[16700|0|0]
106,10600,1.6792372465133667,1.1546629667282104,0.0,-0.3738508224487304,0.9974419474601746,3.4269909858703613,4.0546875,0,"['A1', 'B2', 'F2']",0,None,450,0.0391625895793577,[16800|0|0]
107,10700,1.6785156726837158,1.154907464981079,0.0,-0.390502780675888,1.012691617012024,3.443236827850342,4.0546875,0,"['A1', 'B2', 'F2']",0,None,450,0.0399244610824951,[16900|0|0]
108,10800,1.6790924072265625,1.1549540758132937,0.0,-0.3842336237430572,0.9985308051109314,3.4437174797058105,4.0546875,0,"['A1', 'B2', 'F2']",0,None,450,0.0405030760689864,[17000|0|0]
109,10900,1.6789655685424805,1.1551018953323364,0.0,-0.3846512734889984,1.0028235912322998,3.445970058441162,4.0546875,0,"['A1', 'B2', 'F2']",0,None,450,0.0406978545636661,[17100|0|0]
110,11000,1.6791253089904783,1.1553218364715576,0.0,-0.3795092403888702,0.9977017045021056,3.4455580711364746,4.0546875,0,"['A1', 'B2', 'F2']",0,None,450,0.0409696837663807,[17200|0|0]
111,11100,1.6789292097091677,1.1548599004745483,0.0,-0.3662680685520172,1.0100115537643433,3.436884641647339,4.0546875,0,"['A1', 'B2', 'F2']",0,None,450,0.041471520187402,[17300|0|0]
112,11200,1.6790988445281982,1.154800295829773,0.0,-0.369065374135971,1.0042710304260254,3.453360080718994,4.0546875,0,"['A1', 'B2', 'F2']",0,None,450,0.0416513219824607,[17400|0|0]
113,11300,1.6788668632507324,1.155051350593567,0.0,-0.3896764516830444,0.9943040013313292,3.45788311958313,4.0546875,0,"['A1', 'B2', 'F2']",0,None,450,0.0419931462172925,[17500|0|0]
114,11400,1.6791750192642212,1.1551493406295776,0.0,-0.3905155956745147,0.9874797463417052,3.452931404113769,4.0546875,0,"['A1', 'B2', 'F2']",0,None,450,0.0423165069690956,[17600|0|0]
115,11500,1.6790602207183838,1.1550233364105225,0.0,-0.3892132937908172,0.9927560687065125,3.452089786529541,4.0546875,0,"['A1', 'B2', 'F2']",0,None,450,0.0424869644985453,[17700|0|0]
116,11600,1.6790831089019775,1.1545816659927368,0.0,-0.3806661963462829,0.9958093762397766,3.404296398162842,4.0546875,0,"['A1', 'B2', 'F2']",0,None,450,0.0429292275728519,[17800|0|0]
117,11700,1.678782343864441,1.1547672748565674,0.0,-0.3838788866996765,1.0049411058425903,3.4119558334350586,4.0546875,0,"['A1', 'B2', 'F2']",0,None,450,0.043282654026498,[17900|0|0]
118,11800,1.679102659225464,1.155091643333435,0.0,-0.3817458748817444,0.9967961311340332,3.4347498416900635,4.0546875,0,"['A1', 'B2', 'F2']",0,None,450,0.0437385233491036,[18000|0|0]
119,11900,1.6790800094604492,1.1549144983291626,0.0,-0.3903319537639618,1.0049982070922852,3.437610149383545,4.0546875,0,"['A1', 'B2', 'F2']",0,None,450,0.0439171104830017,[18100|0|0]
120,12000,1.6793029308319092,1.154834866523743,0.0,-0.3822988867759704,1.002374291419983,3.4155969619750977,4.0546875,0,"['A1', 'B2', 'F2']",0,None,450,0.0441538279565603,[18200|0|0]
121,12100,1.6792967319488523,1.155001163482666,0.0,-0.3886560797691345,1.002308011054993,3.4193108081817627,4.0546875,0,"['A1', 'B2', 'F2']",0,None,450,0.0443202404101154,[18300|0|0]
122,12200,1.6792978048324585,1.1549423933029177,0.0,-0.3893229365348816,0.9950198531150818,3.399390697479248,4.0546875,0,"['A1', 'B2', 'F2']",0,None,450,0.0443790203821032,[18400|0|0]
123,12300,1.678904414176941,1.1549463272094729,0.0,-0.3877456188201904,1.00377094745636,3.4078547954559326,4.0546875,0,"['A1', 'B2', 'F2']",0,None,450,0.0447724307066618,[18500|0|0]
124,12400,1.6793838739395142,1.1547176837921145,0.0,-0.3760958611965179,0.9757357835769652,3.342830181121826,4.0546875,0,"['A1', 'B2', 'F2']",0,None,450,0.0453036175628886,[18600|0|0]
125,12500,1.6790114641189575,1.1548956632614136,0.0,-0.3685198426246643,1.0033292770385742,3.33560562133789,4.0546875,0,"['A1', 'B2', 'F2']",0,None,450,0.0457163714434749,[18700|0|0]
126,12600,1.6791218519210815,1.155092477798462,0.0,-0.3810087442398071,0.9964680075645448,3.356607675552368,4.0546875,0,"['A1', 'B2', 'F2']",0,None,450,0.0459420292127879,[18800|0|0]
127,12700,1.6796274185180664,1.1552647352218628,0.0,-0.3702792227268219,0.9674773812294006,3.3447985649108887,4.0546875,0,"['A1', 'B2', 'F2']",0,None,450,0.0464761361345775,[18900|0|0]
128,12800,1.679499864578247,1.1553295850753784,0.0,-0.3617708086967468,0.9690080881118774,3.403099775314331,4.0546875,0,"['A1', 'B2', 'F2']",0,None,450,0.0466192288005825,[19000|0|0]
129,12900,1.679370999336243,1.154802918434143,0.0,-0.3442758023738861,0.9754268527030944,3.3983869552612305,4.0546875,0,"['A1', 'B2', 'F2']",0,None,450,0.047161431716092,[19100|0|0]
130,13000,1.6799561977386477,1.1547309160232544,0.0,-0.3795771598815918,0.9515517950057985,3.460892915725708,4.05859375,0,"['A1', 'B2', 'F2']",0,None,450,0.0477510430434517,[19200|0|0]
131,13100,1.6814303398132324,1.1550370454788208,0.0,-0.4318826198577881,0.9120119214057922,3.513977766036988,4.0546875,0,"['A1', 'B2', 'F2']",0,None,450,0.0492566359830029,[19300|0|0]
132,13200,1.683060646057129,1.1547900438308716,0.0,-0.4149110019207001,0.8997206091880798,3.5445289611816406,4.0546875,0,"['A1', 'B2', 'F2']",0,None,450,0.05090554721863,[19400|0|0]
133,13300,1.68510639667511,1.154295802116394,0.0,-0.391186386346817,0.8920202851295471,3.5177273750305176,4.0546875,0,"['A1', 'B2', 'F2']",0,None,450,0.0530101541803452,[19500|0|0]
134,13400,1.6895753145217896,1.1539331674575806,0.0,-0.3975489139556885,0.8488767147064209,3.520000696182251,4.0546875,0,"['A1', 'B2', 'F2']",0,None,450,0.0574937610560808,[19600|0|0]
135,13500,1.6954389810562134,1.153154373168945,0.0,-0.3789773285388946,0.8139446973800659,3.511027336120605,4.0546875,0,"['A1', 'B2', 'F2']",0,None,450,0.063408920037117,[19700|0|0]
136,13600,1.7023942470550537,1.1521071195602417,0.0,-0.3579415678977966,0.7920840978622437,3.512099027633667,4.0546875,0,"['A1', 'B2', 'F2']",0,None,450,0.070442586594153,[19800|0|0]
137,13700,1.7088053226470947,1.15116548538208,0.0,-0.359717309474945,0.792941689491272,3.535961866378784,4.0546875,0,"['A1', 'B2', 'F2']",0,None,450,0.0769224450163985,[19900|0|0]
138,13800,1.7170119285583496,1.150021195411682,0.0,-0.3641102612018585,0.7735581994056702,3.5531907081604004,4.0546875,0,"['A1', 'B2', 'F2']",0,None,450,0.0852084440580951,[20000|0|0]
139,13900,1.730057716369629,1.1481629610061646,0.0,-0.3455061316490173,0.7278205752372742,3.567377805709839,4.0546875,0,"['A1', 'B2', 'F2']",0,None,450,0.0983859102304202,[20100|0|0]
140,14000,1.743608474731445,1.146174073219299,0.0,-0.3277450799942016,0.6968520879745483,3.578819513320923,4.0546875,0,"['A1', 'B2', 'F2']",0,None,450,0.1120818485629724,[20200|0|0]
141,14100,1.7615009546279907,1.143876552581787,0.0,-0.3411384522914886,0.6670752763748169,3.5822641849517822,4.0546875,0,"['A1', 'B2', 'F2']",0,None,450,0.1301212343044017,[20300|0|0]
142,14200,1.7784926891326904,1.141488552093506,0.0,-0.3228532075881958,0.6542267203330994,3.555410146713257,4.0546875,0,"['A1', 'B2', 'F2']",0,None,450,0.1472799518500178,[20400|0|0]
143,14300,1.7925357818603516,1.139706254005432,0.0,-0.3297569155693054,0.6515476703643799,3.551888465881348,4.0546875,0,"['A1', 'B2', 'F2']",0,None,450,0.1614356941418386,[20500|0|0]
144,14400,1.8050603866577148,1.138091206550598,0.0,-0.3282878696918487,0.6509310007095337,3.51799750328064,4.0546875,0,"['A1', 'B2', 'F2']",0,None,450,0.1740639997926969,[20600|0|0]
145,14500,1.67671000957489,1.1539251804351809,0.0,-0.3476947844028473,1.0666769742965698,3.3475680351257324,4.0546875,0,"['A1', 'B2', 'F2']",0,None,450,0.3033873697854442,[20700|0|0]
146,14600,1.6795545816421509,1.1548693180084229,0.0,-0.3671387434005737,0.9761776328086852,3.293152570724488,4.0546875,0,"['A1', 'B2', 'F2']",0,None,450,0.3063845327778503,[20800|0|0]
147,14700,1.6793588399887085,1.154841661453247,0.0,-0.3622471988201141,0.9968260526657104,3.320380210876465,4.0546875,0,"['A1', 'B2', 'F2']",0,None,450,0.3065822185890168,[20900|0|0]
148,14800,1.6784456968307495,1.1541388034820557,0.0,-0.3503625690937042,1.038711428642273,3.296424627304077,4.0546875,0,"['A1', 'B2', 'F2']",0,None,450,0.3077345378827,[21000|0|0]
149,14900,1.6790521144866943,1.1548405885696411,0.0,-0.3478979468345642,1.031427264213562,3.3655266761779785,4.0546875,0,"['A1', 'B2', 'F2']",0,None,450,0.3086620316468833,[21100|0|0]
150,15000,1.678927302360535,1.1548155546188354,0.0,-0.3381689488887787,1.0411078929901123,3.3727710247039795,4.0546875,0,"['A1', 'B2', 'F2']",0,None,450,0.3087893295868878,[21200|0|0]
151,15100,1.678696632385254,1.1546969413757324,0.0,-0.3379614353179931,1.040539264678955,3.433973789215088,4.0546875,0,"['A1', 'B2', 'F2']",0,None,450,0.309048709113712,[21300|0|0]
152,15200,1.678677678108215,1.1549152135849,0.0,-0.3484920561313629,1.032766342163086,3.432502508163452,4.0546875,0,"['A1', 'B2', 'F2']",0,None,450,0.3092678027510293,[21400|0|0]
153,15300,1.6787647008895874,1.1546216011047363,0.0,-0.3433327674865722,1.0317394733428955,3.4261536598205566,4.0546875,0,"['A1', 'B2', 'F2']",0,None,450,0.3095740400005362,[21500|0|0]
154,15400,1.6784214973449707,1.1535993814468384,0.0,-0.3285904824733734,1.0371546745300293,3.4191272258758545,4.0546875,0,"['A1', 'B2', 'F2']",0,None,450,0.310652335740132,[21600|0|0]
155,15500,1.6784433126449585,1.15381121635437,0.0,-0.3474471271038055,1.0361192226409912,3.417238712310791,4.0546875,0,"['A1', 'B2', 'F2']",0,None,450,0.3108652909827593,[21700|0|0]
156,15600,1.6788204908370972,1.1548269987106323,0.0,-0.3722999393939972,1.0235977172851562,3.410363912582397,4.0546875,0,"['A1', 'B2', 'F2']",0,None,450,0.311948839405267,[21800|0|0]
157,15700,1.6783665418624878,1.1537610292434692,0.0,-0.3546993732452392,1.025092601776123,3.390899896621704,4.0546875,0,"['A1', 'B2', 'F2']",0,None,450,0.3131074422606376,[21900|0|0]
158,15800,1.6782572269439695,1.1539804935455322,0.0,-0.3698779344558716,1.0232999324798584,3.381068468093872,4.0546875,0,"['A1', 'B2', 'F2']",0,None,450,0.3133526245016149,[22000|0|0]
159,15900,1.6782047748565674,1.1535550355911257,0.0,-0.3554257750511169,1.0245691537857056,3.3926665782928467,4.0546875,0,"['A1', 'B2', 'F2']",0,None,450,0.3137813035102456,[22100|0|0]
160,16000,1.678505778312683,1.1539226770401,0.0,-0.3628833889961242,1.0166343450546265,3.400407314300537,4.0546875,0,"['A1', 'B2', 'F2']",0,None,450,0.3142564490833046,[22200|0|0]
161,16100,1.6786326169967651,1.1546043157577517,0.0,-0.3798261284828186,1.0136454105377195,3.3768436908721924,4.0546875,0,"['A1', 'B2', 'F2']",0,None,450,0.3149497883892591,[22300|0|0]
162,16200,1.6785987615585327,1.154932737350464,0.0,-0.3916699290275574,1.000523567199707,3.3867645263671875,4.0546875,0,"['A1', 'B2', 'F2']",0,None,450,0.3152799503695924,[22400|0|0]
163,16300,1.6782578229904177,1.153892159461975,0.0,-0.3582725524902344,1.0109671354293823,3.3478870391845703,4.0546875,0,"['A1', 'B2', 'F2']",0,None,450,0.3163749578806354,[22500|0|0]
164,16400,1.678711175918579,1.1537630558013916,0.0,-0.3479865789413452,0.9948479533195496,3.373685359954834,4.0546875,0,"['A1', 'B2', 'F2']",0,None,450,0.3168463352588034,[22600|0|0]
165,16500,1.6783716678619385,1.1535520553588867,0.0,-0.3474359214305877,1.0090484619140625,3.3480165004730225,4.0546875,0,"['A1', 'B2', 'F2']",0,None,450,0.3172460688041322,[22700|0|0]
166,16600,1.678456425666809,1.1540489196777344,0.0,-0.3583169281482696,1.0081522464752195,3.329916000366211,4.0546875,0,"['A1', 'B2', 'F2']",0,None,450,0.3177501105056118,[22800|0|0]
167,16701,1.6782914400100708,1.153678297996521,0.0,-0.3504354059696197,1.012195110321045,3.347153186798096,4.0546875,0,"['A1', 'B2', 'F2']",0,None,450,0.3181557959718474,[22900|0|0]
168,16801,1.6783238649368286,1.1536471843719482,0.0,-0.3467791378498077,1.0090041160583496,3.335085391998291,4.0546875,0,"['A1', 'B2', 'F2']",0,None,450,0.3182007340793877,[23000|0|0]
169,16901,1.6779924631118774,1.1538509130477903,0.0,-0.3631002008914947,1.0078893899917605,3.3433480262756348,4.0546875,0,"['A1', 'B2', 'F2']",0,None,450,0.3185897489157903,[23100|0|0]
170,17001,1.6784865856170654,1.1537256240844729,0.0,-0.3623066842556,0.9911906123161316,3.3516790866851807,4.0546875,0,"['A1', 'B2', 'F2']",0,None,450,0.3190995080495607,[23200|0|0]
171,17101,1.6781448125839231,1.1537983417510986,0.0,-0.3555345833301544,0.9965784549713136,3.37263560295105,4.0546875,0,"['A1', 'B2', 'F2']",0,None,450,0.3194489313819568,[23300|0|0]
172,17201,1.678581953048706,1.1539883613586426,0.0,-0.3555091321468353,0.987811803817749,3.375261306762696,4.0546875,0,"['A1', 'B2', 'F2']",0,None,450,0.3199255855933111,[23400|0|0]
173,17301,1.678314208984375,1.153988480567932,0.0,-0.3634745180606842,0.9847300052642822,3.410162925720215,4.0546875,0,"['A1', 'B2', 'F2']",0,None,450,0.3201933296841802,[23500|0|0]
174,17401,1.678288221359253,1.1538130044937134,0.0,-0.3554014563560486,0.9873573780059814,3.414401292800904,4.0546875,0,"['A1', 'B2', 'F2']",0,None,450,0.3203707196762391,[23600|0|0]
175,17501,1.6786476373672483,1.1539885997772217,0.0,-0.35369873046875,0.9720237851142884,3.422160625457764,4.0546875,0,"['A1', 'B2', 'F2']",0,None,450,0.3207707366388715,[23700|0|0]
176,17602,1.6781296730041504,1.154200315475464,0.0,-0.3680414855480194,0.9964728951454164,3.403651714324951,4.0546875,0,"['A1', 'B2', 'F2']",0,None,450,0.321330299520344,[23800|0|0]
177,17702,1.6784143447875977,1.1537717580795288,0.0,-0.3534086048603058,0.999370574951172,3.401871681213379,4.0546875,0,"['A1', 'B2', 'F2']",0,None,450,0.3218447890400641,[23900|0|0]
178,17802,1.678601622581482,1.1538056135177612,0.0,-0.3527608215808868,0.9970194101333618,3.427522659301758,4.0546875,0,"['A1', 'B2', 'F2']",0,None,450,0.3220351023679738,[24000|0|0]
179,17901,1.6785602569580078,1.1550443172454834,0.0,-0.3931827247142792,0.9894168972969056,3.412544250488281,4.0546875,0,"['A1', 'B2', 'F2']",0,None,450,0.3232744965909224,[24100|0|0]
180,18001,1.678331732749939,1.1539266109466553,0.0,-0.3622535169124603,0.99000746011734,3.41660737991333,4.0546875,0,"['A1', 'B2', 'F2']",0,None,450,0.3244153255369583,[24200|0|0]
181,18102,1.6782711744308472,1.153337001800537,0.0,-0.3442125618457794,0.9948451519012452,3.3833861351013184,4.0546875,0,"['A1', 'B2', 'F2']",0,None,450,0.3250080364742603,[24300|0|0]
182,18202,1.6784018278121948,1.153577208518982,0.0,-0.353084921836853,0.9886165857315063,3.389788866043091,4.0546875,0,"['A1', 'B2', 'F2']",0,None,450,0.3252814767303376,[24400|0|0]
183,18302,1.6785675287246704,1.153956174850464,0.0,-0.366201251745224,0.986119508743286,3.408309936523437,4.0546875,0,"['A1', 'B2', 'F2']",0,None,450,0.3256950855706593,[24500|0|0]
184,18402,1.6782740354537964,1.1539462804794312,0.0,-0.3800936341285705,0.999069094657898,3.376527786254883,4.0546875,0,"['A1', 'B2', 'F2']",0,None,450,0.3259887455758123,[24600|0|0]
185,18500,1.6782469749450684,1.154104709625244,0.0,-0.3848924338817596,1.006208419799805,3.383508682250977,4.0546875,0,"['A1', 'B2', 'F2']",0,None,450,0.3261494691440144,[24700|0|0]
186,18600,1.6785401105880735,1.1539020538330078,0.0,-0.3799008131027221,1.0037931203842163,3.3854973316192627,4.0546875,0,"['A1', 'B2', 'F2']",0,None,450,0.3265058367566377,[24800|0|0]
187,18700,1.6783709526062012,1.1538325548171997,0.0,-0.3764235377311706,1.0092915296554563,3.3731229305267334,4.0546875,0,"['A1', 'B2', 'F2']",0,None,450,0.3266887152300276,[24900|0|0]
188,18800,1.678472638130188,1.153887152671814,0.0,-0.3791419267654419,1.0093127489089966,3.3544037342071533,4.0546875,0,"['A1', 'B2', 'F2']",0,None,450,0.3268041313100033,[25000|0|0]
189,18900,1.6780999898910522,1.153867244720459,0.0,-0.3762512505054474,1.0189642906188965,3.392202138900757,4.0546875,0,"['A1', 'B2', 'F2']",0,None,450,0.3271773109405542,[25100|0|0]
190,19000,1.6783097982406616,1.1540844440460205,0.0,-0.3842049241065979,1.0042026042938232,3.3897640705108643,4.0546875,0,"['A1', 'B2', 'F2']",0,None,450,0.3274792961895155,[25200|0|0]
191,19100,1.678581953048706,1.15398907661438,0.0,-0.3739437758922577,1.0012805461883545,3.3954110145568848,4.0546875,0,"['A1', 'B2', 'F2']",0,None,450,0.3277676764706711,[25300|0|0]
192,19200,1.678691029548645,1.154019117355347,0.0,-0.3712635636329651,1.0037890672683716,3.364025354385376,4.0546875,0,"['A1', 'B2', 'F2']",0,None,450,0.3278808141255733,[25400|0|0]
193,19300,1.6783992052078247,1.1535521745681765,0.0,-0.3660221993923187,1.006309986114502,3.3681061267852783,4.0546875,0,"['A1', 'B2', 'F2']",0,None,450,0.3284314474086081,[25500|0|0]
194,19400,1.6781752109527588,1.1541969776153564,0.0,-0.3973340690135956,1.0085831880569458,3.349364995956421,4.0546875,0,"['A1', 'B2', 'F2']",0,None,450,0.3291140486069333,[25600|0|0]
195,19500,1.678173542022705,1.1537525653839111,0.0,-0.3672812283039093,1.0071722269058228,3.384944200515747,4.0546875,0,"['A1', 'B2', 'F2']",0,None,450,0.3295584639720882,[25700|0|0]
196,19600,1.678161382675171,1.1540577411651611,0.0,-0.3738883435726166,1.0045166015625,3.390944719314575,4.0546875,0,"['A1', 'B2', 'F2']",0,None,450,0.3298638818942768,[25800|0|0]
197,19700,1.678019642829895,1.1541765928268433,0.0,-0.3803677260875702,1.0155705213546753,3.407417297363281,4.0546875,0,"['A1', 'B2', 'F2']",0,None,450,0.3300488573013541,[25900|0|0]
198,19800,1.678317904472351,1.1536809206008911,0.0,-0.3654348254203796,1.006995677947998,3.4017794132232666,4.0546875,0,"['A1', 'B2', 'F2']",0,None,450,0.3306273475458189,[26000|0|0]
199,19900,1.678343653678894,1.1540746688842771,0.0,-0.3721342980861664,1.0167856216430664,3.427067995071411,4.0546875,0,"['A1', 'B2', 'F2']",0,None,450,0.3310219368668947,[26100|0|0]
200,20000,1.6784026622772217,1.1540515422821045,0.0,-0.3705382347106933,1.0170904397964478,3.405728816986084,4.0546875,0,"['A1', 'B2', 'F2']",0,None,450,0.3310853155258,[26200|0|0]
201,20100,1.678621530532837,1.1540099382400513,0.0,-0.3683812618255615,1.006485939025879,3.401477575302124,4.0546875,0,"['A1', 'B2', 'F2']",0,None,450,0.3313081028899642,[26300|0|0]
202,20200,1.6786372661590576,1.153922438621521,0.0,-0.3640488386154175,1.010480880737305,3.431199789047241,4.0546875,0,"['A1', 'B2', 'F2']",0,None,450,0.3313970061698559,[26400|0|0]
203,20300,1.6783483028411863,1.1538598537445068,0.0,-0.363251268863678,1.0161938667297363,3.4058237075805664,4.0546875,0,"['A1', 'B2', 'F2']",0,None,450,0.3316926692651284,[26500|0|0]
204,20400,1.6781026124954224,1.1538209915161133,0.0,-0.3514720797538757,1.0208051204681396,3.420609712600708,4.0546875,0,"['A1', 'B2', 'F2']",0,None,450,0.3319414141521056,[26600|0|0]
205,20500,1.6783617734909058,1.1540275812149048,0.0,-0.3528311848640442,1.01330304145813,3.4128849506378174,4.0546875,0,"['A1', 'B2', 'F2']",0,None,450,0.332272840954321,[26700|0|0]
206,20600,1.6782042980194092,1.1542309522628784,0.0,-0.355042427778244,1.015069842338562,3.392913818359375,4.0546875,0,"['A1', 'B2', 'F2']",0,None,450,0.3325300535264806,[26800|0|0]
207,20700,1.6783268451690674,1.1539230346679688,0.0,-0.3489920198917389,1.0059808492660522,3.3637242317199707,4.0546875,0,"['A1', 'B2', 'F2']",0,None,450,0.332861461204642,[26900|0|0]
208,20800,1.6783838272094729,1.1536309719085691,0.0,-0.3467553257942199,1.010223627090454,3.3760273456573486,4.0546875,0,"['A1', 'B2', 'F2']",0,None,450,0.333159030706367,[27000|0|0]
209,20900,1.6784443855285645,1.1540212631225586,0.0,-0.3656536042690277,1.0038142204284668,3.380749225616455,4.0546875,0,"['A1', 'B2', 'F2']",0,None,450,0.3335539921497113,[27100|0|0]
210,21000,1.678638935089111,1.154195785522461,0.0,-0.3674438595771789,1.0042091608047483,3.396174669265747,4.0546875,0,"['A1', 'B2', 'F2']",0,None,450,0.3338153493757001,[27200|0|0]
211,21100,1.6783376932144165,1.1538771390914917,0.0,-0.3556547164916992,1.0185950994491575,3.3792593479156494,4.0546875,0,"['A1', 'B2', 'F2']",0,None,450,0.3342538493358357,[27300|0|0]
212,21200,1.6784216165542605,1.1539322137832642,0.0,-0.3588228821754455,1.0189026594161987,3.3522777557373047,4.0546875,0,"['A1', 'B2', 'F2']",0,None,450,0.3343542303531866,[27400|0|0]
213,21300,1.6783194541931152,1.1537069082260132,0.0,-0.3523096442222595,1.0256729125976562,3.368258476257324,4.0546875,0,"['A1', 'B2', 'F2']",0,None,450,0.3346016161696009,[27500|0|0]
214,21400,1.6782493591308594,1.1541739702224731,0.0,-0.3588261306285858,1.0273762941360474,3.335289716720581,4.0546875,0,"['A1', 'B2', 'F2']",0,None,450,0.3350739086915508,[27600|0|0]
215,21500,1.6783723831176758,1.153768539428711,0.0,-0.3582230508327484,1.0212098360061646,3.332653045654297,4.0546875,0,"['A1', 'B2', 'F2']",0,None,450,0.3354975937513096,[27700|0|0]
216,21600,1.678383469581604,1.153993010520935,0.0,-0.3672496080398559,1.019689679145813,3.331296682357788,4.0546875,0,"['A1', 'B2', 'F2']",0,None,450,0.3357223384529751,[27800|0|0]
217,21700,1.678457260131836,1.154096603393555,0.0,-0.3750209510326385,1.0118166208267212,3.341109037399292,4.0546875,0,"['A1', 'B2', 'F2']",0,None,450,0.335849525435647,[27900|0|0]
218,21800,1.6783877611160278,1.153955101966858,0.0,-0.375219851732254,1.0139033794403076,3.3687984943389893,4.0546875,0,"['A1', 'B2', 'F2']",0,None,450,0.3360071730393572,[28000|0|0]
219,21900,1.6784440279006958,1.154079556465149,0.0,-0.3746903240680694,1.0109307765960691,3.367976427078247,4.0546875,0,"['A1', 'B2', 'F2']",0,None,450,0.3361437558830886,[28100|0|0]
220,22000,1.6786611080169678,1.1539833545684814,0.0,-0.3775353729724884,1.0033975839614868,3.3619558811187744,4.0546875,0,"['A1', 'B2', 'F2']",0,None,450,0.3363811976271082,[28200|0|0]
221,22100,1.6786168813705444,1.153830647468567,0.0,-0.3723969757556915,1.0073167085647583,3.379837274551392,4.0546875,0,"['A1', 'B2', 'F2']",0,None,450,0.3365401801878442,[28300|0|0]
222,22200,1.6783047914505005,1.153873085975647,0.0,-0.3717793226242065,1.0200591087341309,3.391566514968872,4.0546875,0,"['A1', 'B2', 'F2']",0,None,450,0.3368551423206097,[28400|0|0]
223,22300,1.6783180236816406,1.1541184186935425,0.0,-0.3753697574138641,1.0183290243148804,3.407102108001709,4.0546875,0,"['A1', 'B2', 'F2']",0,None,450,0.3371008316252425,[28500|0|0]
224,22400,1.6784626245498655,1.154045820236206,0.0,-0.3662886917591095,1.015109896659851,3.398543357849121,4.0546875,0,"['A1', 'B2', 'F2']",0,None,450,0.3372626338103298,[28600|0|0]
225,22500,1.6786768436431885,1.1541589498519895,0.0,-0.3737744092941284,1.0023319721221924,3.414034128189087,4.0546875,0,"['A1', 'B2', 'F2']",0,None,450,0.3375048901413336,[28700|0|0]
226,22600,1.678578495979309,1.1540576219558716,0.0,-0.3654628396034241,1.004887938499451,3.410488605499268,4.0546875,0,"['A1', 'B2', 'F2']",0,None,450,0.3376460978094053,[28800|0|0]
227,22700,1.678635597229004,1.1536834239959717,0.0,-0.3495093882083893,1.0055357217788696,3.3987832069396973,4.0546875,0,"['A1', 'B2', 'F2']",0,None,450,0.338024627419753,[28900|0|0]
228,22800,1.6784172058105469,1.1538547277450562,0.0,-0.354682058095932,1.0112533569335938,3.3896522521972656,4.0546875,0,"['A1', 'B2', 'F2']",0,None,450,0.3383021878385919,[29000|0|0]
229,22900,1.678359031677246,1.1541248559951782,0.0,-0.3659600913524627,1.0133079290390017,3.4004714488983154,4.0546875,0,"['A1', 'B2', 'F2']",0,None,450,0.338578509211814,[29100|0|0]
230,23000,1.6785292625427246,1.1543232202529907,0.0,-0.3647652566432953,1.003822922706604,3.369321346282959,4.0546875,0,"['A1', 'B2', 'F2']",0,None,450,0.3388399034090316,[29200|0|0]
231,23100,1.6783515214920044,1.153895378112793,0.0,-0.3548259437084198,1.0069971084594729,3.355764627456665,4.0546875,0,"['A1', 'B2', 'F2']",0,None,450,0.3393031968128699,[29300|0|0]
232,23200,1.6782790422439575,1.1539369821548462,0.0,-0.3592583239078522,1.005188226699829,3.3600621223449707,4.0546875,0,"['A1', 'B2', 'F2']",0,None,450,0.3393867679664614,[29400|0|0]
233,23300,1.678235650062561,1.1537456512451172,0.0,-0.3516136705875397,1.01239275932312,3.362990379333496,4.0546875,0,"['A1', 'B2', 'F2']",0,None,450,0.3395829576665582,[29500|0|0]
234,23400,1.6782732009887695,1.1538177728652954,0.0,-0.3585114479064941,1.0057597160339355,3.38985538482666,4.0546875,0,"['A1', 'B2', 'F2']",0,None,450,0.339664269413288,[29600|0|0]
235,23500,1.678501844406128,1.1542190313339231,0.0,-0.3716364800930023,0.998036801815033,3.3976666927337646,4.0546875,0,"['A1', 'B2', 'F2']",0,None,450,0.3401260985710366,[29700|0|0]
236,23600,1.6783525943756104,1.154066801071167,0.0,-0.3743029534816742,1.0019371509552002,3.396167993545532,4.0546875,0,"['A1', 'B2', 'F2']",0,None,450,0.3403392877464379,[29800|0|0]
237,23700,1.6783617734909058,1.1536535024642944,0.0,-0.3619582951068878,1.003116011619568,3.401898145675659,4.0546875,0,"['A1', 'B2', 'F2']",0,None,450,0.3407526882720791,[29900|0|0]
238,23800,1.678260087966919,1.1538283824920654,0.0,-0.3618785142898559,1.0065600872039795,3.3956542015075684,4.0546875,0,"['A1', 'B2', 'F2']",0,None,450,0.3409549825376965,[30000|0|0]
239,23900,1.6782429218292236,1.1538987159729004,0.0,-0.3655249178409576,1.0060415267944336,3.3985695838928223,4.0546875,0,"['A1', 'B2', 'F2']",0,None,450,0.3410273805681237,[30100|0|0]
240,24000,1.6784231662750244,1.1541157960891724,0.0,-0.3654535710811615,0.994863748550415,3.4039130210876465,4.0546875,0,"['A1', 'B2', 'F2']",0,None,450,0.3413095362647216,[30200|0|0]
241,24100,1.678287148475647,1.1540018320083618,0.0,-0.3742012977600097,0.9989193677902222,3.3896706104278564,4.0546875,0,"['A1', 'B2', 'F2']",0,None,450,0.3414869866900873,[30300|0|0]
242,24200,1.6786348819732666,1.1538214683532717,0.0,-0.3603773415088653,0.995265543460846,3.40413761138916,4.0546875,0,"['A1', 'B2', 'F2']",0,None,450,0.3418787131679316,[30400|0|0]
243,24300,1.6781409978866575,1.153996467590332,0.0,-0.3645690679550171,1.0049713850021362,3.3756113052368164,4.0546875,0,"['A1', 'B2', 'F2']",0,None,450,0.3424026847549259,[30500|0|0]
244,24400,1.6783581972122192,1.1539005041122437,0.0,-0.3630867004394531,0.9966700077056884,3.4038286209106445,4.0546875,0,"['A1', 'B2', 'F2']",0,None,450,0.34264013903716,[30600|0|0]
245,24500,1.678458333015442,1.1541965007781982,0.0,-0.3641804754734039,0.9951801896095276,3.422147750854492,4.0546875,0,"['A1', 'B2', 'F2']",0,None,450,0.3429526149647821,[30700|0|0]
246,24600,1.6782374382019043,1.154112458229065,0.0,-0.3678718209266662,0.9988785982131958,3.4338881969451904,4.0546875,0,"['A1', 'B2', 'F2']",0,None,450,0.3431889572350441,[30800|0|0]
247,24700,1.678294658660889,1.1540992259979248,0.0,-0.3606063723564148,1.0021347999572754,3.445394515991211,4.0546875,0,"['A1', 'B2', 'F2']",0,None,450,0.3432476877455762,[30900|0|0]
248,24800,1.6782716512680054,1.1541626453399658,0.0,-0.365677148103714,1.003311038017273,3.460812330245972,4.0546875,0,"['A1', 'B2', 'F2']",0,None,450,0.3433151514622853,[31000|0|0]
249,24900,1.6782517433166504,1.1540988683700562,0.0,-0.351622998714447,1.0032137632369995,3.4507689476013184,4.0546875,0,"['A1', 'B2', 'F2']",0,None,450,0.3433819633505838,[31100|0|0]
250,25000,1.678357720375061,1.1539396047592163,0.0,-0.3461039960384369,1.0062577724456787,3.461723804473877,4.0546875,0,"['A1', 'B2', 'F2']",0,None,450,0.3435732642513844,[31200|0|0]
251,25100,1.6781775951385498,1.1539373397827148,0.0,-0.3613401055335998,1.0109156370162964,3.4536032676696777,4.0546875,0,"['A1', 'B2', 'F2']",0,None,450,0.3437534037277542,[31300|0|0]
252,25200,1.6784790754318235,1.154165744781494,0.0,-0.3623274564743042,1.004921793937683,3.4802560806274414,4.0546875,0,"['A1', 'B2', 'F2']",0,None,450,0.3441316354169338,[31400|0|0]
253,25300,1.6786128282546997,1.153944730758667,0.0,-0.3506732881069183,1.007285475730896,3.426257610321045,4.0546875,0,"['A1', 'B2', 'F2']",0,None,450,0.3443899705014916,[31500|0|0]
254,25400,1.6783145666122437,1.1540329456329346,0.0,-0.3617184162139892,1.0175814628601074,3.4181549549102783,4.0546875,0,"['A1', 'B2', 'F2']",0,None,450,0.3447010040549912,[31600|0|0]
255,25500,1.678410530090332,1.1540775299072266,0.0,-0.3551975786685943,1.0128170251846311,3.3979954719543457,4.0546875,0,"['A1', 'B2', 'F2']",0,None,450,0.3448068187356408,[31700|0|0]
256,25600,1.678620457649231,1.1539982557296753,0.0,-0.3525754809379577,1.0122737884521484,3.395965814590454,4.0546875,0,"['A1', 'B2', 'F2']",0,None,450,0.3450312156500841,[31800|0|0]
257,25700,1.6783599853515625,1.153744339942932,0.0,-0.3530526757240295,1.014979362487793,3.387986898422241,4.0546875,0,"['A1', 'B2', 'F2']",0,None,450,0.345394972498281,[31900|0|0]
258,25800,1.6787188053131104,1.1540868282318115,0.0,-0.356137603521347,1.0106675624847412,3.379823923110962,4.0546875,0,"['A1', 'B2', 'F2']",0,None,450,0.345891006764058,[32000|0|0]
259,25900,1.6784346103668213,1.1541049480438232,0.0,-0.3565724790096283,1.0169134140014648,3.403450727462769,4.0546875,0,"['A1', 'B2', 'F2']",0,None,450,0.3461757787695002,[32100|0|0]
260,26000,1.6785695552825928,1.153973937034607,0.0,-0.3457121551036834,1.011333465576172,3.431142807006836,4.0546875,0,"['A1', 'B2', 'F2']",0,None,450,0.3463638585792312,[32200|0|0]
261,26100,1.6782045364379885,1.1541804075241089,0.0,-0.3567307293415069,1.0230600833892822,3.4473681449890137,4.0546875,0,"['A1', 'B2', 'F2']",0,None,450,0.34678322574527,[32300|0|0]
262,26200,1.6783679723739624,1.153816819190979,0.0,-0.3439283668994903,1.020071029663086,3.436346530914306,4.0546875,0,"['A1', 'B2', 'F2']",0,None,450,0.3471818581337633,[32400|0|0]
263,26300,1.678254008293152,1.1536462306976318,0.0,-0.3422054648399353,1.0148687362670898,3.433171033859253,4.0546875,0,"['A1', 'B2', 'F2']",0,None,450,0.3473870123337627,[32500|0|0]
264,26400,1.678278923034668,1.15382719039917,0.0,-0.3408242464065552,1.0174473524093628,3.416206359863281,4.0546875,0,"['A1', 'B2', 'F2']",0,None,450,0.347569679128571,[32600|0|0]
265,26500,1.678308606147766,1.1542930603027344,0.0,-0.3571527600288391,1.0072476863861084,3.41741156578064,4.0546875,0,"['A1', 'B2', 'F2']",0,None,450,0.3480364937108736,[32700|0|0]
266,26600,1.678337574005127,1.153709053993225,0.0,-0.3371445834636688,1.007780909538269,3.410441875457764,4.0546875,0,"['A1', 'B2', 'F2']",0,None,450,0.3486212180102718,[32800|0|0]
267,26700,1.678424835205078,1.1539983749389648,0.0,-0.3490220606327057,1.003247857093811,3.422901391983032,4.0546875,0,"['A1', 'B2', 'F2']",0,None,450,0.3489234118663652,[32900|0|0]
268,26800,1.67828369140625,1.154052734375,0.0,-0.347310870885849,1.0094703435897827,3.3974053859710693,4.0546875,0,"['A1', 'B2', 'F2']",0,None,450,0.3490746617266416,[33000|0|0]
269,26900,1.6782256364822388,1.1540100574493408,0.0,-0.3595475554466247,1.0101667642593384,3.405878782272339,4.0546875,0,"['A1', 'B2', 'F2']",0,None,450,0.3491467151386751,[33100|0|0]
270,27000,1.6784772872924805,1.153916835784912,0.0,-0.3540394604206085,1.0073838233947754,3.3533785343170166,4.0546875,0,"['A1', 'B2', 'F2']",0,None,450,0.3494150775969553,[33200|0|0]
271,27100,1.6786264181137085,1.153925538063049,0.0,-0.3520451784133911,1.0014177560806274,3.369734525680542,4.0546875,0,"['A1', 'B2', 'F2']",0,None,450,0.3495644621058071,[33300|0|0]
272,27200,1.6782984733581543,1.1541296243667605,0.0,-0.3722226917743683,1.0133225917816162,3.3695290088653564,4.0546875,0,"['A1', 'B2', 'F2']",0,None,450,0.3499507249464456,[33400|0|0]
273,27300,1.6784430742263794,1.1537147760391235,0.0,-0.3634580373764038,1.0156545639038086,3.362135887145996,4.0546875,0,"['A1', 'B2', 'F2']",0,None,450,0.3503900523255543,[33500|0|0]
274,27400,1.6783922910690308,1.153936743736267,0.0,-0.3601985573768616,1.0195204019546509,3.372483968734741,4.0546875,0,"['A1', 'B2', 'F2']",0,None,450,0.3506177551749996,[33600|0|0]
275,27500,1.6784934997558594,1.1542695760726929,0.0,-0.3698194921016693,1.0143157243728638,3.381808519363404,4.0546875,0,"['A1', 'B2', 'F2']",0,None,450,0.350965635272821,[33700|0|0]
276,27600,1.6784203052520752,1.1536240577697754,0.0,-0.3506783246994018,1.0186727046966553,3.395657539367676,4.0546875,0,"['A1', 'B2', 'F2']",0,None,450,0.3516152900386665,[33800|0|0]
277,27700,1.6782699823379517,1.1538597345352173,0.0,-0.3750810027122497,1.013318657875061,3.406070709228516,4.0546875,0,"['A1', 'B2', 'F2']",0,None,450,0.3518948262908409,[33900|0|0]
278,27800,1.678497314453125,1.1542319059371948,0.0,-0.3894798755645752,1.0106066465377808,3.4203102588653564,4.0546875,0,"['A1', 'B2', 'F2']",0,None,450,0.3523309357301324,[34000|0|0]
279,27900,1.678483009338379,1.153813123703003,0.0,-0.3681309223175049,1.0106362104415894,3.4101688861846924,4.0546875,0,"['A1', 'B2', 'F2']",0,None,450,0.352749962216148,[34100|0|0]
280,28000,1.6784392595291138,1.1538708209991455,0.0,-0.3648191392421722,1.0172384977340698,3.406416177749634,4.0546875,0,"['A1', 'B2', 'F2']",0,None,450,0.3528223709434736,[34200|0|0]
281,28100,1.6781513690948486,1.1540884971618652,0.0,-0.3725628852844238,1.0251233577728271,3.3809502124786377,4.0546875,0,"['A1', 'B2', 'F2']",0,None,450,0.353183291729738,[34300|0|0]
282,28200,1.678110122680664,1.1542060375213623,0.0,-0.3781092166900635,1.015274167060852,3.360881805419922,4.0546875,0,"['A1', 'B2', 'F2']",0,None,450,0.3533078589918649,[34400|0|0]
283,28300,1.6783570051193235,1.154111385345459,0.0,-0.3793729543685913,1.006683349609375,3.3395144939422607,4.0546875,0,"['A1', 'B2', 'F2']",0,None,450,0.3535722639330473,[34500|0|0]
284,28400,1.6781892776489258,1.154144525527954,0.0,-0.3754743635654449,1.0097826719284058,3.343031644821167,4.0546875,0,"['A1', 'B2', 'F2']",0,None,450,0.3537432340357607,[34600|0|0]
285,28500,1.6785277128219604,1.1540393829345703,0.0,-0.3626847863197326,1.0028473138809204,3.3341243267059326,4.0546875,0,"['A1', 'B2', 'F2']",0,None,450,0.3540976255301429,[34700|0|0]
286,28600,1.6785966157913208,1.1542508602142334,0.0,-0.3676423728466034,0.997483730316162,3.3604729175567627,4.0546875,0,"['A1', 'B2', 'F2']",0,None,450,0.354320044636787,[34800|0|0]
287,28700,1.678772211074829,1.153806209564209,0.0,-0.3531662821769714,0.990797221660614,3.3559162616729736,4.0546875,0,"['A1', 'B2', 'F2']",0,None,450,0.3547981114774668,[34900|0|0]
288,28800,1.6783463954925537,1.1541380882263184,0.0,-0.3655345439910888,1.0083248615264893,3.370150327682495,4.0546875,0,"['A1', 'B2', 'F2']",0,None,450,0.3553379840147124,[35000|0|0]
289,28900,1.6783630847930908,1.153914451599121,0.0,-0.3582900166511535,1.010232925415039,3.4010567665100098,4.0546875,0,"['A1', 'B2', 'F2']",0,None,450,0.355562242512381,[35100|0|0]
290,29000,1.6783907413482666,1.1537690162658691,0.0,-0.3513256013393402,1.0103166103363037,3.3919837474823,4.0546875,0,"['A1', 'B2', 'F2']",0,None,450,0.3557102841322124,[35200|0|0]
291,29100,1.6783136129379272,1.1539448499679563,0.0,-0.3598583340644836,1.0170414447784424,3.4022812843322754,4.0546875,0,"['A1', 'B2', 'F2']",0,None,450,0.3559022900760558,[35300|0|0]
292,29200,1.6781915426254272,1.1538559198379517,0.0,-0.3704233467578888,1.0108797550201416,3.370566844940185,4.0546875,0,"['A1', 'B2', 'F2']",0,None,450,0.3560533189779802,[35400|0|0]
293,29300,1.6782220602035522,1.1538372039794922,0.0,-0.3669530749320984,1.0051833391189575,3.3739173412323,4.0546875,0,"['A1', 'B2', 'F2']",0,None,450,0.3560891185021738,[35500|0|0]
294,29400,1.678475260734558,1.154259443283081,0.0,-0.3746300041675567,0.9972737431526184,3.4065539836883545,4.0546875,0,"['A1', 'B2', 'F2']",0,None,450,0.3565814563317145,[35600|0|0]
295,29500,1.6782981157302856,1.1538987159729004,0.0,-0.3657879531383514,1.0035303831100464,3.377889394760132,4.0546875,0,"['A1', 'B2', 'F2']",0,None,450,0.3569833326122399,[35700|0|0]
296,29600,1.6783782243728638,1.1540534496307373,0.0,-0.370384931564331,1.0019577741622925,3.380568265914917,4.0546875,0,"['A1', 'B2', 'F2']",0,None,450,0.3571575735359154,[35800|0|0]
297,29700,1.678451418876648,1.1540418863296509,0.0,-0.3510071635246277,1.014924168586731,3.3957650661468506,4.0546875,0,"['A1', 'B2', 'F2']",0,None,450,0.3572316757984735,[35900|0|0]
298,29800,1.6788710355758667,1.1540502309799194,0.0,-0.358007550239563,1.0066949129104614,3.405625820159912,4.0546875,0,"['A1', 'B2', 'F2']",0,None,450,0.3576513754618655,[36000|0|0]
299,29900,1.678738713264465,1.154000759124756,0.0,-0.3529647886753082,1.0137935876846311,3.403148889541626,4.0546875,0,"['A1', 'B2', 'F2']",0,None,450,0.3577926434998216,[36100|0|0]
300,30000,1.678842544555664,1.1538501977920532,0.0,-0.3481115698814392,1.0145448446273804,3.3734076023101807,4.0546875,0,"['A1', 'B2', 'F2']",0,None,450,0.3579755359598557,[36200|0|0]
301,30100,1.6784027814865112,1.1538814306259155,0.0,-0.3487298488616943,1.0222413539886477,3.3799877166748047,4.0546875,0,"['A1', 'B2', 'F2']",0,None,450,0.3584164067424006,[36300|0|0]
302,30200,1.6785483360290527,1.15433931350708,0.0,-0.3656878471374511,1.0222086906433103,3.3396754264831543,4.0546875,0,"['A1', 'B2', 'F2']",0,None,450,0.3588968678310624,[36400|0|0]
303,30300,1.678330659866333,1.153726577758789,0.0,-0.3481367230415344,1.0321133136749268,3.344104051589966,4.0546875,0,"['A1', 'B2', 'F2']",0,None,450,0.359547120096764,[36500|0|0]
304,30400,1.6784290075302124,1.1541825532913208,0.0,-0.3563303053379059,1.0206552743911743,3.3583996295928955,4.0546875,0,"['A1', 'B2', 'F2']",0,None,450,0.3600135811875938,[36600|0|0]
305,30500,1.678674578666687,1.1540555953979492,0.0,-0.3491125404834747,1.0128275156021118,3.400149345397949,4.0546875,0,"['A1', 'B2', 'F2']",0,None,450,0.3602900291750323,[36700|0|0]
306,30600,1.6786279678344729,1.1539839506149292,0.0,-0.3491474390029907,1.0080814361572266,3.4251821041107178,4.0546875,0,"['A1', 'B2', 'F2']",0,None,450,0.3603755016537239,[36800|0|0]
307,30700,1.6785401105880735,1.1538676023483276,0.0,-0.3539246916770935,1.0093423128128052,3.4334399700164795,4.0546875,0,"['A1', 'B2', 'F2']",0,None,450,0.3605212953946254,[36900|0|0]
308,30800,1.6785426139831543,1.1541318893432615,0.0,-0.3710404932498932,1.0024980306625366,3.416554450988769,4.0546875,0,"['A1', 'B2', 'F2']",0,None,450,0.3607855942456976,[37000|0|0]
309,30900,1.6784080266952517,1.1536470651626587,0.0,-0.3604024350643158,1.0096499919891355,3.411214590072632,4.0546875,0,"['A1', 'B2', 'F2']",0,None,450,0.3612887524953191,[37100|0|0]
310,31000,1.6784104108810425,1.1536307334899902,0.0,-0.3608424067497253,1.00729501247406,3.363428831100464,4.0546875,0,"['A1', 'B2', 'F2']",0,None,450,0.3613052572786874,[37200|0|0]
311,31100,1.6785989999771118,1.15425705909729,0.0,-0.3750002384185791,0.9999709129333496,3.363168954849243,4.0546875,0,"['A1', 'B2', 'F2']",0,None,450,0.3619593594217169,[37300|0|0]
312,31200,1.6786412000656128,1.1538702249526978,0.0,-0.3671000003814697,0.9994434714317322,3.357409715652466,4.0546875,0,"['A1', 'B2', 'F2']",0,None,450,0.3623484885813695,[37400|0|0]
313,31300,1.6784862279891968,1.1540204286575315,0.0,-0.3744065761566162,1.0030512809753418,3.367114782333374,4.0546875,0,"['A1', 'B2', 'F2']",0,None,450,0.3625643067859179,[37500|0|0]
314,31400,1.6785228252410889,1.1540175676345823,0.0,-0.3801169991493225,1.0080723762512207,3.401094436645508,4.0546875,0,"['A1', 'B2', 'F2']",0,None,450,0.3626010156989823,[37600|0|0]
315,31500,1.6786201000213623,1.1540404558181765,0.0,-0.3896214962005615,1.0146416425704956,3.416354894638061,4.0546875,0,"['A1', 'B2', 'F2']",0,None,450,0.3627009469344669,[37700|0|0]
316,31600,1.6784210205078125,1.1541582345962524,0.0,-0.3945931196212768,1.026100993156433,3.399102210998535,4.0546875,0,"['A1', 'B2', 'F2']",0,None,450,0.3629322573174597,[37800|0|0]
317,31700,1.6785380840301514,1.1537001132965088,0.0,-0.3755555748939514,1.021900653839111,3.381345748901367,4.0546875,0,"['A1', 'B2', 'F2']",0,None,450,0.363405098721676,[37900|0|0]
318,31800,1.678432583808899,1.1541916131973269,0.0,-0.3957661688327789,1.0198347568511963,3.393418073654175,4.0546875,0,"['A1', 'B2', 'F2']",0,None,450,0.3639077939068414,[38000|0|0]
319,31900,1.678197979927063,1.1540440320968628,0.0,-0.3943606615066528,1.025145173072815,3.375651836395264,4.0546875,0,"['A1', 'B2', 'F2']",0,None,450,0.3641849566074104,[38100|0|0]
320,32000,1.6785517930984497,1.1539744138717651,0.0,-0.3869639933109283,1.0076779127120972,3.370604991912842,4.0546875,0,"['A1', 'B2', 'F2']",0,None,450,0.3645455539694536,[38200|0|0]
321,32100,1.6785995960235596,1.1540732383728027,0.0,-0.3811891973018646,1.012251853942871,3.367314338684082,4.0546875,0,"['A1', 'B2', 'F2']",0,None,450,0.3646553328456292,[38300|0|0]
322,32200,1.6783175468444824,1.1540189981460571,0.0,-0.3843324184417724,1.0177500247955322,3.372173547744751,4.0546875,0,"['A1', 'B2', 'F2']",0,None,450,0.3649425500833005,[38400|0|0]
323,32300,1.678341507911682,1.1540319919586182,0.0,-0.3756487965583801,1.014809489250183,3.3424224853515625,4.0546875,0,"['A1', 'B2', 'F2']",0,None,450,0.3649698075943059,[38500|0|0]
324,32400,1.6784782409667969,1.153770089149475,0.0,-0.3600294589996338,1.0117591619491575,3.3475935459136963,4.0546875,0,"['A1', 'B2', 'F2']",0,None,450,0.3652652547296755,[38600|0|0]
325,32500,1.678572654724121,1.1539992094039917,0.0,-0.3703927993774414,1.0121866464614868,3.359548568725586,4.0546875,0,"['A1', 'B2', 'F2']",0,None,450,0.3655130652391415,[38700|0|0]
326,32600,1.6784207820892334,1.1541595458984375,0.0,-0.373054027557373,1.0190590620040894,3.392009735107422,4.0546875,0,"['A1', 'B2', 'F2']",0,None,450,0.3657339115401721,[38800|0|0]
