,time.ms,stateEstimate.x,stateEstimate.y,stateEstimate.z,stabilizer.roll,stabilizer.pitch,stabilizer.yaw,pm.vbat,drone_id,node_name,wind_speed,global_wind_direction,relative_wind_direction,travel_dist,waiting_time
0,0,0.729672372341156,0.739880383014679,0.0,-1.163613200187683,0.3648615479469299,4.935224533081055,4.0546875,1,"['A1', 'B2', 'F2']",0,None,450,0.0,[6100|0|0]
1,100,0.7296094298362732,0.740167498588562,0.0,-1.17486310005188,0.360752522945404,4.953474044799805,4.0546875,1,"['A1', 'B2', 'F2']",0,None,450,0.0002939338559729,[6200|0|0]
2,200,0.7293280959129333,0.7400157451629639,0.0,-1.169563055038452,0.3669236004352569,4.955316066741943,4.0546875,1,"['A/E1', 'B2', 'C1']",0,None,450,0.0006135866028758,[6200|0|0]
3,300,0.7293483018875122,0.7403240203857422,0.0,-1.216851830482483,0.3524326682090759,5.235079765319824,3.19921875,1,"['A/E1', 'B2', 'C1']",0,None,450,0.0009225233187056,[6200|0|0]
4,399,0.7284112572669983,0.7426037788391113,0.0,-3.452278614044189,3.831689357757568,6.743149757385254,3.55859375,1,"['A/E1', 'B2', 'C1']",0,None,450,0.0033873460763379,[6200|0|0]
5,499,0.7175272107124329,0.751495897769928,0.0201305691152811,-4.653346538543701,7.495408058166504,8.106467247009277,3.62109375,1,"['A/E1', 'B2', 'C1']",0,None,450,0.0279387627643183,[6200|0|0]
6,599,0.6962761878967285,0.765211820602417,0.0838852524757385,1.0854952335357666,-0.3826389014720917,6.173032760620117,3.6484375,1,"['A/E1', 'B2', 'C1']",0,None,450,0.0965273344089631,[6200|0|0]
7,699,0.6759522557258606,0.777428150177002,0.1636490374803543,3.648049116134644,-4.411056995391846,3.782026767730713,3.673828125,1,"['A/E1', 'B2', 'C1']",0,None,450,0.1797412895212127,[6200|0|0]
8,799,0.6656776666641235,0.7828303575515747,0.2521288990974426,4.090399265289307,-5.777125835418701,1.691877007484436,3.68359375,1,"['A/E1', 'B2', 'C1']",0,None,450,0.2689793808089837,[6200|0|0]
9,899,0.6661930084228516,0.7825812101364136,0.3447448015213012,3.169710397720337,-4.786229133605957,0.1187318563461303,3.68359375,1,"['A/E1', 'B2', 'C1']",0,None,450,0.3615970520890827,[6200|0|0]
10,999,0.6739100813865662,0.7773361802101135,0.4383262991905212,1.6485258340835571,-2.614461898803711,-0.6995264291763306,3.68359375,1,"['A/E1', 'B2', 'C1']",0,None,450,0.4556425743645707,[6200|0|0]
11,1099,0.6856598258018494,0.7699866890907288,0.5326005220413208,0.2974140048027038,-0.283727616071701,-1.019097924232483,3.6796875,1,"['A/E1', 'B2', 'C1']",0,None,450,0.5509300373786556,[6200|0|0]
12,1199,0.6970018148422241,0.7632322311401367,0.6281320452690125,-0.7850871086120605,1.471887230873108,-1.052574872970581,3.6796875,1,"['A/E1', 'B2', 'C1']",0,None,450,0.6473693205976908,[6200|0|0]
13,1299,0.7056404948234558,0.7589573860168457,0.7240315675735474,-1.415236234664917,2.301792621612549,-0.9941988587379456,3.6796875,1,"['A/E1', 'B2', 'C1']",0,None,450,0.7437519926445076,[6200|0|0]
14,1399,0.7106346487998962,0.7567713260650635,0.820602297782898,-1.610803246498108,2.293241024017334,-0.865496039390564,3.6796875,1,"['A/E1', 'B2', 'C1']",0,None,450,0.8404764795401245,[6200|0|0]
15,1499,0.7134109735488892,0.7594323754310608,0.917033314704895,-0.9165440797805786,1.981608510017395,-1.6399753093719482,3.732421875,1,"['A/E1', 'B2', 'C1']",0,None,450,0.9369841486004152,[6200|0|0]
16,1599,0.7112855315208435,0.764646053314209,1.0078120231628418,-0.2905232906341553,1.349895715713501,-1.0533113479614258,3.75390625,1,"['A/E1', 'B2', 'C1']",0,None,450,1.0279372895586951,[6200|0|0]
17,1699,0.7071659564971924,0.7708911299705505,1.0866379737854004,0.441675066947937,0.5549801588058472,-0.8534586429595947,3.75390625,1,"['A/E1', 'B2', 'C1']",0,None,450,1.1071174788257656,[6200|0|0]
18,1799,0.7018088102340698,0.7773651480674744,1.1487864255905151,1.000451683998108,0.1577813029289245,-0.6944646835327148,3.736328125,1,"['A/E1', 'B2', 'C1']",0,None,450,1.169831448467118,[6200|0|0]
19,1899,0.6959185600280762,0.7824527621269226,1.1943966150283811,1.2797470092773438,-0.3320452272891998,-0.5672526359558105,3.7109375,1,"['A/E1', 'B2', 'C1']",0,None,450,1.2161009659150568,[6200|0|0]
20,1999,0.6893057823181152,0.7865351438522339,1.2253844738006592,1.153072476387024,-0.6448862552642822,-0.5391204357147217,3.6953125,1,"['A/E1', 'B2', 'C1']",0,None,450,1.2480484550320932,[6200|0|0]
21,2099,0.6827723979949951,0.7915444374084473,1.2473270893096924,0.5387639999389648,-0.9035844802856444,-0.6237331628799438,3.6953125,1,"['A/E1', 'B2', 'C1']",0,None,450,1.2714846771684185,[6200|0|0]
22,2199,0.6764363050460815,0.7933578491210938,1.2607837915420532,0.387091189622879,-0.4364523589611053,-0.796720027923584,3.68359375,1,"['A/E1', 'B2', 'C1']",0,None,450,1.2864685808943257,[6200|0|0]
23,2299,0.6705766320228577,0.7960615754127502,1.271588683128357,0.3626727759838104,-0.5569881200790405,-0.7737870216369629,3.6796875,1,"['A/E1', 'B2', 'C1']",0,None,450,1.2990539527994809,[6200|0|0]
24,2399,0.6654794812202454,0.7991217374801636,1.280486226081848,0.4323140382766723,-0.8615365028381348,-0.5186552405357361,3.689453125,1,"['A/E1', 'B2', 'C1']",0,None,450,1.3097549718534132,[6200|0|0]
25,2499,0.6621588468551636,0.8024268746376038,1.2866004705429075,0.606342613697052,-1.0343557596206665,-0.434132844209671,3.68359375,1,"['A/E1', 'B2', 'C1']",0,None,450,1.3174578628396372,[6200|0|0]
26,2599,0.660210132598877,0.8044766187667847,1.2909836769104004,0.7841029167175293,-1.074777364730835,-0.1633162647485733,3.673828125,1,"['A/E1', 'B2', 'C1']",0,None,450,1.322674321054537,[6200|0|0]
27,2699,0.6598236560821533,0.8060517311096191,1.293338179588318,0.7477867007255554,-0.9177323579788208,-0.156665101647377,3.68359375,1,"['A/E1', 'B2', 'C1']",0,None,450,1.3255333463868575,[6200|0|0]
28,2799,0.6610713601112366,0.806361973285675,1.293405055999756,0.7599306702613831,-0.8233537077903748,-0.1365143060684204,3.6796875,1,"['A/E1', 'B2', 'C1']",0,None,450,1.3268207810478796,[6200|0|0]
29,2899,0.6624894142150879,0.8051624894142151,1.2926297187805176,0.691890299320221,-0.4157117307186126,-0.1203724071383476,3.66796875,1,"['A/E1', 'B2', 'C1']",0,None,450,1.328833437700883,[6200|0|0]
30,2999,0.6652606129646301,0.8056469559669495,1.2917617559432983,0.2699226438999176,-0.0039431261830031,-0.0652971491217613,3.673828125,1,"['A/E1', 'B2', 'C1']",0,None,450,1.331777518174813,[6200|0|0]
31,3099,0.6680470705032349,0.8022211790084839,1.2877973318099976,0.1905134618282318,0.195851057767868,0.0583432912826538,3.66796875,1,"['A/E1', 'B2', 'C1']",0,None,450,1.3377119054298123,[6200|0|0]
32,3199,0.670386791229248,0.8010526895523071,1.2848762273788452,0.1148877888917923,0.0250482466071844,0.0529230870306491,3.6640625,1,"['A/E1', 'B2', 'C1']",0,None,None,1.3416326849164233,[6200|0|0]
33,3299,0.6731168031692505,0.8004181981086731,1.2821966409683228,4.506808757781982,-5.24110746383667,0.1983929574489593,3.6640625,1,"['A/E1', 'B2', 'C1']",0,None,None,1.34551027797347,[6200|0|0]
34,3399,0.6934794783592224,0.7940252423286438,1.28566575050354,9.539468765258787,-13.887246131896973,0.5153190493583679,3.65234375,1,"['A/E1', 'B2', 'C1']",0,None,None,1.3671330239939237,[6200|0|0]
35,3499,0.7322595119476318,0.7634707093238831,1.2781288623809814,10.472274780273438,-17.106557846069336,0.4509054720401764,3.65234375,1,"['A/E1', 'B2', 'C1']",0,None,None,1.4170757429310137,[6200|0|0]
36,3599,0.7955084443092346,0.71657794713974,1.2685322761535645,6.4589362144470215,-14.298176765441896,-0.7630321979522705,3.642578125,1,"['A/E1', 'B2', 'C1']",0,None,None,1.4963944233118762,[6200|0|0]
37,3699,0.8805933594703674,0.661078691482544,1.2600489854812622,2.25366735458374,-9.774418830871582,-1.3961061239242554,3.6484375,1,"['A/E1', 'B2', 'C1']",0,None,None,1.5983335050573515,[6200|0|0]
38,3799,0.959086775779724,0.6289812922477722,1.2324973344802856,-1.3021827936172483,-2.4499402046203613,0.6504027247428894,3.626953125,1,"['A/E1', 'B2', 'C1']",0,None,None,1.687499378094237,[6200|0|0]
39,3899,1.056527853012085,0.5818658471107483,1.2286700010299685,-3.5135293006896973,3.483647584915161,-0.4398106038570404,3.6484375,1,"['A/E1', 'B2', 'C1']",0,None,None,1.7958011656325907,[6200|0|0]
40,3999,1.147112250328064,0.5444579720497131,1.2316700220108032,-4.648768901824951,7.988903045654297,-0.9966284036636353,3.6640625,1,"['A/E1', 'B2', 'C1']",0,None,None,1.893851572462785,[6200|0|0]
41,4099,1.2218146324157717,0.5173782706260681,1.2359358072280884,-4.768234252929688,10.640172958374023,-1.244510293006897,3.658203125,1,"['A/E1', 'B2', 'C1']",0,None,None,1.9734251424611935,[6200|0|0]
42,4199,1.278694748878479,0.4989472925662994,1.236963152885437,-4.148872375488281,11.124692916870115,-1.4372793436050415,3.658203125,1,"['A/E1', 'B2', 'C1']",0,None,None,2.03322567791156,[6200|0|0]
43,4299,1.3185133934020996,0.4905744194984436,1.2359658479690552,-3.218734741210937,10.166463851928713,-1.5618573427200315,3.6484375,1,"['A/E1', 'B2', 'C1']",0,None,None,2.0739273249569203,[6200|0|0]
44,4399,1.3419499397277832,0.4849312007427215,1.2298853397369385,-2.0727286338806152,8.123117446899414,-1.530524492263794,3.63671875,1,"['A/E1', 'B2', 'C1']",0,None,None,2.0987887449075524,[6200|0|0]
45,4499,1.3530853986740112,0.4836713969707489,1.225269079208374,-0.8999847173690796,5.989396095275879,-1.5631722211837769,3.642578125,1,"['A/E1', 'B2', 'C1']",0,None,None,2.1109087866877854,[6200|0|0]
46,4599,1.3605799674987793,0.4894380569458008,1.232528805732727,-0.3624619841575622,3.5049262046813965,-1.306538701057434,3.642578125,1,"['A/E1', 'B2', 'C1']",0,None,None,2.1228304710631347,[6200|0|0]
47,4699,1.3537079095840454,0.4842389523983001,1.2220021486282349,0.7460024952888489,1.901703834533692,-1.282343506813049,3.642578125,1,"['A/E1', 'B2', 'C1']",0,None,None,2.1364343814522417,[6200|0|0]
48,4799,1.3504432439804075,0.4831065535545349,1.2219502925872805,0.7951521873474121,0.6218547821044922,-0.9260063767433168,3.65234375,1,"['A/E1', 'B2', 'C1']",0,None,None,2.1398902543801603,[6200|0|0]
49,4899,1.3481212854385376,0.4812000095844269,1.2221975326538086,0.6216722130775452,-0.0874989181756973,-0.8426065444946289,3.65234375,1,"['A/E1', 'B2', 'C1']",0,None,None,2.1429048072542387,[6200|0|0]
50,4999,1.3465142250061035,0.4775632321834564,1.220820665359497,0.1962669789791107,-0.4381142556667328,-0.9665187001228333,3.642578125,1,"['A/E1', 'B2', 'C1']",0,None,None,2.147112485550384,[6200|0|0]
51,5099,1.3468856811523438,0.471396803855896,1.2177082300186155,-0.263914942741394,-0.2018661648035049,-0.9882776141166688,3.63671875,1,"['A/E1', 'B2', 'C1']",0,None,None,2.154029860177993,[6200|0|0]
52,5199,1.3493131399154663,0.4685560464859009,1.2175549268722534,-0.6324583292007446,0.3482129871845245,-1.0289654731750488,3.642578125,1,"['A/E1', 'B2', 'C1']",0,None,None,2.157769640965222,[6200|0|0]
53,5299,1.34999418258667,0.4650030136108398,1.2144190073013306,-0.7983565330505371,0.995883047580719,-0.6255950927734375,3.63671875,1,"['A/E1', 'B2', 'C1']",0,None,None,2.162557318198136,[6200|0|0]
54,5399,1.3510466814041138,0.4632661640644073,1.2121456861495972,-0.925613522529602,1.0024367570877075,-0.6200882792472839,3.63671875,1,"['A/E1', 'B2', 'C1']",0,None,None,2.1656056602338305,[6200|0|0]
55,5499,1.3508696556091309,0.4637082517147064,1.210260987281799,-0.6849583387374878,1.0502256155014038,-0.6909295320510864,3.630859375,1,"['A/E1', 'B2', 'C1']",0,None,None,2.167549591674215,[6200|0|0]
56,5599,1.3543626070022583,0.470024049282074,1.2170616388320925,-0.7948312163352966,0.8470293283462524,-0.8862444162368774,3.630859375,1,"['A/E1', 'B2', 'C1']",0,None,None,2.177466187352936,[6200|0|0]
57,5699,1.346221089363098,0.4666287004947662,1.204611897468567,-0.1262015700340271,1.034751296043396,-0.8132115602493286,3.630859375,1,"['A/E1', 'B2', 'C1']",0,None,None,2.1927242594092253,[6200|0|0]
58,5799,1.3426268100738523,0.468423068523407,1.2015162706375122,-0.0853118002414703,0.6069961190223694,-0.833482563495636,3.626953125,1,"['A/E1', 'B2', 'C1']",0,None,None,2.1977958967886577,[6200|0|0]
59,5899,1.3374109268188477,0.4711169600486755,1.1990971565246582,0.1609242260456085,0.4874646067619324,-0.8586961030960083,3.62109375,1,"['A/E1', 'B2', 'C1']",0,None,None,2.204145274929134,[6200|0|0]
60,5999,1.3334566354751587,0.4733563661575317,1.1977972984313965,0.3774147033691406,-0.0015261040534824,-1.0720118284225464,3.62109375,1,"['A/E1', 'B2', 'C1']",0,None,None,2.2088719006614905,[6200|0|0]
61,6099,1.3291233777999878,0.4744513034820556,1.1963201761245728,0.2260045409202575,-0.2397316694259643,-1.054481029510498,3.63671875,1,"['A/E1', 'B2', 'C1']",0,None,None,2.213579118537623,[6200|0|0]
62,6199,1.3246233463287354,0.4752052426338196,1.1951441764831543,0.4460777640342712,-0.3755460977554321,-1.0820554494857788,3.626953125,1,"['A/E1', 'B2', 'C1']",0,None,None,2.2182909846905865,[6200|0|0]
63,6299,1.3220025300979614,0.477850079536438,1.193650245666504,0.2904106974601745,-0.971487522125244,-1.1751490831375122,3.859375,1,"['A/E1', 'B2', 'C1']",0,None,450,2.2223029255228868,[6200|0|0]
64,6399,1.3198119401931765,0.4782338738441467,1.161034345626831,0.5228106379508972,-1.6935839653015137,-1.637575387954712,3.794921875,1,"['A/E1', 'B2', 'C1']",0,None,450,2.254994559278322,[6200|0|0]
65,6499,1.322309970855713,0.4767980575561523,1.086725115776062,0.01936462149024,-0.2758412659168243,-1.8184809684753416,3.705078125,1,"['A/E1', 'B2', 'C1']",0,None,450,2.329359627466405,[6200|0|0]
66,6599,1.3211891651153564,0.4779846668243408,0.9853530526161194,-0.1421252638101577,-0.0737977921962738,-1.9602593183517456,3.642578125,1,"['A/E1', 'B2', 'C1']",0,None,450,2.4307448307081327,[6200|0|0]
67,6699,1.3211524486541748,0.4790273904800415,0.8667469620704651,-0.0652999207377433,0.0018803788116201,-1.597703218460083,3.62109375,1,"['A/E1', 'B2', 'C1']",0,None,450,2.5493555103927403,[6200|0|0]
68,6799,1.3209527730941772,0.480636328458786,0.7452876567840576,0.2255936115980148,0.5582360625267029,-1.75413978099823,3.62109375,1,"['A/E1', 'B2', 'C1']",0,None,450,2.6708256359068168,[6200|0|0]
69,6899,1.3211032152175903,0.480803370475769,0.6233106255531311,0.7794690728187561,0.1122532710433006,-0.9608572125434875,3.630859375,1,"['A/E1', 'B2', 'C1']",0,None,450,2.7928028742907807,[6200|0|0]
70,6999,1.321937918663025,0.4804658889770508,0.5024577975273132,0.4530560672283172,0.2979212999343872,-1.917752265930176,3.615234375,1,"['A/E1', 'B2', 'C1']",0,None,450,2.913659056033552,[6200|0|0]
71,7099,1.3227839469909668,0.4783759415149688,0.3849838078022003,0.148346945643425,0.3680489957332611,-1.992265701293945,3.5625,1,"['A/E1', 'B2', 'C1']",0,None,450,3.031154681085133,[6200|0|0]
72,7199,1.322845220565796,0.4756291210651397,0.2773377597332001,0.8667828440666199,1.3660670518875122,-3.268122673034668,3.541015625,1,"['A/E1', 'B2', 'C1']",0,None,450,3.138835786400356,[6200|0|0]
73,7299,1.321549654006958,0.4720984101295471,0.1855013370513916,-1.8329466581344604,-1.276216983795166,-6.622844219207764,3.5625,1,"['A/E1', 'B2', 'C1']",0,None,450,3.23074918555092,[6200|0|0]
74,7399,1.3241374492645264,0.472363531589508,0.1089905649423599,-3.989765167236328,-3.1512200832366943,-11.310905456542969,3.568359375,1,"['A/E1', 'B2', 'C1']",0,None,450,3.307304167246456,[6200|0|0]
75,7499,1.33341646194458,0.4784378409385681,0.0436653457581996,-2.051102638244629,-2.48726487159729,-15.288165092468262,3.5625,1,"['A/E1', 'B2', 'C1']",0,None,450,3.3735641217577834,[6200|0|0]
76,7599,1.3454831838607788,0.4842998385429382,0.0,9.522821426391602,7.962636470794678,-17.416610717773438,3.59375,1,"['A/E1', 'B2', 'C1']",0,None,450,3.41924378040252,[6200|0|0]
77,7699,1.33967387676239,0.4756827056407928,0.0134515762329101,6.490560054779053,3.469505548477173,-12.693660736083984,3.6484375,1,"['A/E1', 'B2', 'C1']",0,None,450,3.4362422489090183,[6200|0|0]
78,7799,1.3280102014541626,0.4577981829643249,0.0369204171001911,-1.1867667436599731,-0.0343526750802993,-7.61204719543457,3.673828125,1,"['A/E1', 'B2', 'C1']",0,None,450,3.467970532264955,[6200|0|0]
79,7899,1.3179179430007937,0.4400376975536346,0.0521900840103626,-4.216134071350098,-2.884568452835083,-4.733661651611328,3.6640625,1,"['A/E1', 'B2', 'C1']",0,None,450,3.493474478043217,[6200|0|0]
80,7999,1.3132526874542236,0.4270697832107544,0.0553640313446521,-4.460684776306152,-3.2861735820770264,-3.288945436477661,3.63671875,1,"['A/E1', 'B2', 'C1']",0,None,450,3.5076168029369508,[6200|0|0]
81,8099,1.3134251832962036,0.4205200672149658,0.0493278503417968,-5.136466503143311,-2.7776639461517334,-2.7948875427246094,3.611328125,1,"['A/E1', 'B2', 'C1']",0,None,450,3.516525451293476,[6200|0|0]
82,8199,1.3187880516052246,0.4210727512836456,0.0411374829709529,-3.4793686866760254,-1.3506313562393188,-2.8388559818267822,3.611328125,1,"['A/E1', 'B2', 'C1']",0,None,450,3.526330956576176,[6200|0|0]
83,8299,1.327741026878357,0.4262259304523468,0.0354629419744014,-2.1629226207733154,-0.617088794708252,-2.949105739593506,3.611328125,1,"['A/E1', 'B2', 'C1']",0,None,450,3.538117026205514,[6200|0|0]
84,8399,1.3375862836837769,0.4333628714084625,0.033949214965105,-0.2913518249988556,0.6612589359283447,-2.2341301441192627,3.62109375,1,"['A/E1', 'B2', 'C1']",0,None,450,3.550370857330285,[6200|0|0]
85,8499,1.346834421157837,0.4409433305263519,0.037036333233118,-0.1062950268387794,2.1657776832580566,-1.172356128692627,3.626953125,1,"['A/E1', 'B2', 'C1']",0,None,450,3.5627208251997904,[6200|0|0]
86,8599,1.3532088994979858,0.4468849301338196,0.0408419035375118,0.7614880204200745,2.248368263244629,-0.2638897001743316,3.630859375,1,"['A/E1', 'B2', 'C1']",0,None,450,3.5722297129026805,[6200|0|0]
87,8699,1.356802463531494,0.4512566030025482,0.0433186441659927,0.9027954936027528,1.982754230499268,0.3270184695720672,3.626953125,1,"['A/E1', 'B2', 'C1']",0,None,450,3.578407048110913,[6200|0|0]
88,8799,1.3590025901794434,0.453311413526535,0.0453984960913658,0.6495640277862549,0.9377184510231018,1.0294687747955322,3.626953125,1,"['A/E1', 'B2', 'C1']",0,None,450,3.582066090005724,[6200|0|0]
89,8899,1.3592052459716797,0.4542458951473236,0.0465468503534793,0.5371133685112,0.7735172510147095,1.2871884107589722,3.626953125,1,"['A/E1', 'B2', 'C1']",0,None,450,3.5835604269091808,[6200|0|0]
90,8999,1.3584431409835815,0.4535225033760071,0.0470819547772407,-0.1157639101147651,0.6122746467590332,1.5395547151565552,3.62109375,1,"['A/E1', 'B2', 'C1']",0,None,450,3.584739594586834,[6200|0|0]
91,9099,1.3567981719970703,0.4528688192367553,0.0469045266509056,-0.0671615079045295,0.4478381276130676,1.655898928642273,3.62109375,1,"['A/E1', 'B2', 'C1']",0,None,450,3.586518556829409,[6200|0|0]
92,9199,1.3545434474945068,0.4519968628883362,0.0473367162048816,-0.0108265997841954,0.412441611289978,1.875542044639588,3.62109375,1,"['A/E1', 'B2', 'C1']",0,None,450,3.588974341483359,[6200|0|0]
93,9299,1.3520680665969849,0.452024906873703,0.04761803150177,-0.2082850337028503,0.1512528657913208,1.9702733755111688,3.62109375,1,"['F1', 'B2', 'B1']",0,None,450,3.591465814009636,[6200|100|0]
94,9399,1.349851369857788,0.4518530964851379,0.0478738509118557,-0.4351141154766083,-0.3559376001358032,2.3985557556152344,3.62109375,1,"['F1', 'B2', 'B1']",0,None,450,3.5937038280430507,[6200|200|0]
95,9499,1.3480632305145264,0.4528201222419739,0.0492653250694274,-0.3179222047328949,-0.260507196187973,2.740330219268799,3.626953125,1,"['F1', 'B2', 'B1']",0,None,450,3.5961673177338134,[6200|300|0]
96,9599,1.3470971584320068,0.4536639153957367,0.0496252700686454,0.0033774292096495,-0.3892770707607269,2.770552158355713,3.62109375,1,"['F1', 'B2', 'B1']",0,None,450,3.597499549904804,[6200|400|0]
97,9699,1.3462672233581543,0.4551072418689728,0.0501322448253631,-0.314606249332428,-0.4075510501861572,2.86120867729187,3.62109375,1,"['F1', 'B2', 'B1']",0,None,450,3.599239954150692,[6200|500|0]
98,9799,1.3463099002838137,0.4570403099060058,0.0502063408493995,-0.106724165380001,-0.2552200257778168,2.991374254226685,3.62109375,1,"['F1', 'B2', 'B1']",0,None,450,3.601174912438759,[6200|600|0]
99,9899,1.34636127948761,0.45916947722435,0.0496173240244388,0.0831422433257103,-0.1605993509292602,2.698748111724853,3.615234375,1,"['F1', 'B2', 'B1']",0,None,450,3.6033846486474896,[6200|700|0]
100,9999,1.3464224338531494,0.4612779319286346,0.0486227460205554,-0.6741705536842346,0.1198144406080246,2.717287302017212,3.615234375,1,"['F1', 'B2', 'B1']",0,None,450,3.605716709217512,[6200|800|0]
101,10099,1.3463770151138306,0.4650373756885528,0.0483379364013671,0.1846262663602829,-0.1030010133981704,2.7259058952331543,3.615234375,1,"['F1', 'B2', 'B1']",0,None,450,3.6094871994727775,[6200|900|0]
102,10199,1.3467835187911987,0.4688251614570617,0.0486762896180152,-0.1755504161119461,-0.2763741016387939,2.770313024520874,3.615234375,1,"['F1', 'B2', 'B1']",0,None,450,3.613311732015069,[6200|1000|0]
103,10299,1.3472988605499268,0.4729482531547546,0.050076451152563,0.1053054556250572,-0.0629967078566551,2.6779165267944336,3.615234375,1,"['F1', 'B2', 'B1']",0,None,450,3.6176964685634494,[6200|1100|0]
104,10399,1.3475967645645142,0.4773733019828796,0.05098632350564,-0.0836530178785324,0.5187902450561523,2.8241450786590576,3.615234375,1,"['F1', 'B2', 'B1']",0,None,450,3.6222239039999953,[6200|1200|0]
105,10499,1.3474979400634766,0.48201784491539,0.0513926669955253,-0.394574761390686,0.4415708482265472,2.726856708526612,3.615234375,1,"['F1', 'B2', 'B1']",0,None,450,3.626887235466416,[6200|1300|0]
106,10599,1.3469220399856567,0.4881596863269806,0.0513835959136486,-0.2719065248966217,-0.2945992350578308,2.8032381534576416,3.611328125,1,"['F1', 'B2', 'B1']",0,None,450,3.6330560245784937,[6200|1400|0]
107,10699,1.34565269947052,0.4951106607913971,0.0503077395260334,-0.3524738550186157,0.3115064203739166,2.866218090057373,3.611328125,1,"['F1', 'B2', 'B1']",0,None,450,3.640203383413414,[6200|1500|0]
108,10799,1.3435673713684082,0.5039741396903992,0.0490586906671524,-0.4748454988002777,0.0881908684968948,2.694493293762207,3.611328125,1,"['F1', 'B2', 'B1']",0,None,450,3.649394138253925,[6200|1600|0]
109,10899,1.3421225547790527,0.5131641626358032,0.0477311946451664,-0.3337960243225097,-0.355403184890747,2.298863410949707,3.60546875,1,"['F1', 'B2', 'B1']",0,None,450,3.658791279436344,[6200|1700|0]
110,10999,1.339856743812561,0.5241761207580566,0.0465832352638244,0.0696749836206436,-0.0822969898581504,2.235175371170044,3.60546875,1,"['F1', 'B2', 'B1']",0,None,450,3.670092382557869,[6200|1800|0]
111,11099,1.3383402824401855,0.5348406434059143,0.0462847128510475,-0.2289876788854599,-0.1102320402860641,1.980659365653992,3.60546875,1,"['F1', 'B2', 'B1']",0,None,450,3.680868319363155,[6200|1900|0]
112,11199,1.3367736339569092,0.5454918146133423,0.0445856899023056,-0.2276799082756042,-0.4963906407356262,1.5281003713607788,3.931640625,1,"['F1', 'B2', 'B1']",0,None,450,3.6917673337470553,[6200|2000|0]
113,11299,1.3356443643569946,0.5571323037147522,0.0061190081760287,0.0175255555659532,-3.329841375350952,0.3450196385383606,3.9375,1,"['F1', 'B2', 'B1']",0,None,450,3.731972580163163,[6200|2100|0]
114,11399,1.319798231124878,0.564473032951355,0.0,-1.400681972503662,16.296703338623047,-0.0194535367190837,3.943359375,1,"['F1', 'B2', 'B1']",0,None,450,3.750477403998948,[6200|2200|0]
115,11499,1.315820574760437,0.5656794905662537,0.0,-1.043732762336731,16.778470993041992,-1.6351964473724363,3.943359375,1,"['F1', 'B2', 'B1']",0,None,450,3.754633999977645,[6200|2300|0]
116,11599,1.3159174919128418,0.565715491771698,0.0,-1.0762836933135986,16.612192153930664,-1.5043137073516846,3.943359375,1,"['F1', 'B2', 'B1']",0,None,450,3.7547373877004353,[6200|2400|0]
117,11699,1.3159815073013306,0.5654410719871521,0.0,-1.0796968936920166,16.44054412841797,-1.3897172212600708,3.94921875,1,"['F1', 'B2', 'B1']",0,None,450,3.7550191751879383,[6200|2500|0]
118,11799,1.3158377408981323,0.5656684041023254,0.0,-1.0641921758651731,16.274995803833008,-1.2939093112945557,3.94921875,1,"['F1', 'B2', 'B1']",0,None,450,3.755288152267404,[6200|2600|0]
119,11899,1.3159422874450684,0.5663629770278931,0.0,-1.052927851676941,16.134613037109375,-1.141872763633728,3.953125,1,"['F1', 'B2', 'B1']",0,None,450,3.755990549255872,[6200|2700|0]
120,11999,1.3163286447525024,0.5660683512687683,0.0,-0.9924352765083312,15.985915184020996,-1.0908544063568115,3.953125,1,"['F1', 'B2', 'B1']",0,None,450,3.7564764260992662,[6200|2800|0]
121,12099,1.3163588047027588,0.5661841034889221,0.0,-0.9307263493537904,15.868627548217772,-1.0043981075286863,3.953125,1,"['F1', 'B2', 'B1']",0,None,450,3.756596042983819,[6200|2900|0]
122,12199,1.316491961479187,0.566112220287323,0.0,-0.8718053102493286,15.770304679870604,-0.9413881897926332,3.953125,1,"['F1', 'B2', 'B1']",0,None,450,3.7567473635765385,[6200|3000|0]
123,12299,1.3165781497955322,0.5660060048103333,0.0,-0.8017287850379944,15.688477516174316,-0.8956219553947449,3.958984375,1,"['F1', 'B2', 'B1']",0,None,450,3.7568841486394167,[6200|3100|0]
124,12399,1.3162797689437866,0.5662449598312378,0.0,-0.7541812062263489,15.62882137298584,-0.8455746173858643,3.958984375,1,"['F1', 'B2', 'B1']",0,None,450,3.757266419008009,[6200|3200|0]
125,12499,1.3172166347503662,0.5663490891456604,0.0,-0.9868749976158142,15.286069869995115,-1.0059592723846436,3.958984375,1,"['F1', 'B2', 'B1']",0,None,450,3.758209053854416,[6200|3300|0]
126,12599,1.3205056190490725,0.5692260265350342,0.0,-9.387179374694824,6.64499568939209,-1.5973528623580933,3.958984375,1,"['F1', 'B2', 'B1']",0,None,450,3.7625787433696463,[6200|3400|0]
127,12699,1.3229364156723022,0.5711542963981628,0.0,-13.473260879516602,2.385587215423584,-2.6691160202026367,3.96484375,1,"['F1', 'B2', 'B1']",0,None,450,3.765681483592184,[6200|3500|0]
128,12799,1.3218812942504885,0.5696280598640442,0.0,-9.170483589172363,6.722954750061035,-1.8214271068573,3.96484375,1,"['F1', 'B2', 'B1']",0,None,450,3.767536929407305,[6200|3600|0]
129,12899,1.3182947635650637,0.566694974899292,0.0,-2.712354898452759,13.207275390625,-1.0837877988815308,3.96484375,1,"['F1', 'B2', 'B1']",0,None,450,3.772170091369502,[6200|3700|0]
130,12999,1.3165996074676514,0.5657514333724976,0.0,-0.3273069858551025,15.541890144348145,-0.9892755746841432,3.96484375,1,"['F1', 'B2', 'B1']",0,None,450,3.774110149308684,[6200|3800|0]
131,13099,1.3160873651504517,0.5670883059501648,0.0,-3.5943803787231445,12.185272216796877,0.7263957858085632,3.96484375,1,"['F1', 'B2', 'B1']",0,None,450,3.775541798874901,[6200|3900|0]
132,13199,1.3174713850021362,0.5686122179031372,0.0,-6.979372978210449,8.77049732208252,0.3365143835544586,3.96484375,1,"['F1', 'B2', 'B1']",0,None,450,3.777600395141843,[6200|4000|0]
133,13300,1.315269112586975,0.5656322240829468,0.0,-0.1789627969264984,15.459342002868652,0.8436536192893982,3.96875,1,"['F1', 'B2', 'B1']",0,None,450,3.7813058461210014,[6200|4100|0]
134,13399,1.31190824508667,0.560975968837738,0.0,-0.176654651761055,15.536324501037598,-2.0103609561920166,3.96875,1,"['F1', 'B2', 'B1']",0,None,450,3.787048331929704,[6200|4200|0]
135,13500,1.3133134841918943,0.5540471076965332,0.0026288905646651,0.1823620051145553,24.5261459350586,-0.7515624165534973,3.96875,1,"['F1', 'B2', 'B1']",0,None,450,3.794591201361024,[6200|4300|0]
136,13600,1.3424588441848757,0.5420843362808228,0.0240733176469802,-0.3558837175369262,8.944742202758789,16.591907501220703,3.96875,1,"['F1', 'B2', 'B1']",0,None,450,3.8327018739076175,[6200|4400|0]
137,13700,1.358636736869812,0.5495421290397644,0.0106806745752692,0.5573734045028687,11.831807136535645,11.948251724243164,3.96875,1,"['F1', 'B2', 'B1']",0,None,450,3.8549887707980974,[6200|4500|0]
138,13800,1.3652942180633545,0.5444190502166748,0.005906521808356,0.4097765386104584,10.224214553833008,9.294496536254885,3.96875,1,"['F1', 'B2', 'B1']",0,None,450,3.864651095938135,[6200|4600|0]
139,13900,1.3724006414413452,0.5378059148788452,0.0032116952352225,1.3000030517578125,3.407306432723999,10.62220287322998,3.974609375,1,"['F1', 'B2', 'B1']",0,None,450,3.874725663049578,[6200|4700|0]
140,14000,1.3772966861724854,0.5423777103424072,0.0001365315692964,-2.6345672607421875,-3.2024383544921875,11.177239418029783,3.974609375,1,"['F1', 'B2', 'B1']",0,None,450,3.882096497421765,[6200|4800|0]
141,14100,1.377440333366394,0.5432227253913879,0.0,-3.335383653640747,-3.4619741439819336,11.263955116271973,3.96875,1,"['F1', 'B2', 'B1']",0,None,450,3.882964440863894,[6200|4900|0]
142,14201,1.3779995441436768,0.5423823595046997,3.96386458305642e-05,-3.326699495315552,-3.294250965118408,9.071602821350098,3.974609375,1,"['F1', 'B2', 'B1']",0,None,450,3.883974640220052,[6200|5000|0]
143,14301,1.377713680267334,0.5423262119293213,0.0,-3.2978086471557617,-3.124985456466675,9.046387672424316,3.974609375,1,"['F1', 'B2', 'B1']",0,None,450,3.884268650301957,[6200|5100|0]
144,14401,1.3774399757385254,0.542518138885498,0.0,-3.280900955200196,-2.95253586769104,9.037163734436035,3.974609375,1,"['F1', 'B2', 'B1']",0,None,450,3.8846029407828233,[6200|5200|0]
145,14500,1.3773924112319946,0.5424577593803406,0.0,-3.249838590621948,-2.8145129680633545,9.022747039794922,3.974609375,1,"['F1', 'B2', 'B1']",0,None,450,3.884679804733571,[6200|5300|0]
146,14601,1.377627730369568,0.5422477126121521,0.0,-3.221017599105835,-2.6978046894073486,9.01730251312256,3.974609375,1,"['F1', 'B2', 'B1']",0,None,450,3.884995232603828,[6200|5400|0]
147,14701,1.3777379989624023,0.5427452325820923,0.0,-3.21418571472168,-2.5867836475372314,8.975625038146973,3.974609375,1,"['F1', 'B2', 'B1']",0,None,450,3.885504825856388,[6200|5500|0]
148,14801,1.3773889541625977,0.5420525670051575,0.0,-3.171229600906372,-2.472100019454956,8.940397262573242,3.98046875,1,"['F1', 'B2', 'B1']",0,None,450,3.8862804661555863,[6200|5600|0]
149,14901,1.3772914409637451,0.5423282384872437,0.0,-3.157010793685913,-2.3870768547058105,8.959848403930664,4.04296875,1,"['F1', 'B2', 'B1']",0,None,450,3.886572876124613,[6200|5700|0]
150,15001,1.37704598903656,0.5420647859573364,0.0,-3.136932849884033,-2.256883382797241,8.951394081115723,4.04296875,1,"['F1', 'B2', 'B1']",0,None,450,3.8869329509558255,[6200|5800|0]
151,15101,1.3770225048065186,0.5424740314483643,0.0,-3.099183797836304,-2.1122756004333496,8.932984352111816,4.046875,1,"['F1', 'B2', 'B1']",0,None,450,3.887342869705077,[6200|5900|0]
152,15199,1.3766921758651731,0.5422557592391968,0.0,-3.0657339096069336,-2.04376220703125,8.959531784057617,4.046875,1,"['F1', 'B2', 'B1']",0,None,450,3.8877387989497474,[6200|6000|0]
153,15299,1.376673460006714,0.5423442721366882,0.0,-3.0603139400482178,-2.0170657634735107,8.971456527709961,4.046875,1,"['F1', 'B2', 'B1']",0,None,450,3.887829268924768,[6200|6100|0]
154,15399,1.376874566078186,0.5420987606048584,0.0002112795191351,-3.0433568954467773,-1.989220380783081,8.995159149169922,4.046875,1,"['F1', 'B2', 'B1']",0,None,450,3.888210528153443,[6200|6200|0]
155,15499,1.376970648765564,0.5420138835906982,0.0001881645293906,-3.031477689743042,-1.9668824672698968,8.990291595458984,4.046875,1,"['F1', 'B2', 'B1']",0,None,450,3.888340798230964,[6200|6300|0]
156,15599,1.3769177198410034,0.5422020554542542,0.0,-3.033331871032715,-1.943153023719788,8.986237525939941,4.046875,1,"['F1', 'B2', 'B1']",0,None,450,3.8886121209381046,[6200|6400|0]
157,15699,1.376803994178772,0.5420321822166443,1.4196877600625156e-05,-3.0319106578826904,-1.9226285219192505,8.969001770019531,4.0546875,1,"['F1', 'B2', 'B1']",0,None,450,3.8888170404209257,[6200|6500|0]
158,15799,1.3767409324645996,0.5420531034469604,0.0,-3.029283285140991,-1.9126776456832888,8.941019058227539,4.0546875,1,"['F1', 'B2', 'B1']",0,None,450,3.8888849817853943,[6200|6600|0]
159,15899,1.3766605854034424,0.5422288775444031,0.0,-3.0292558670043945,-1.9075835943222048,8.957724571228027,4.0546875,1,"['F1', 'B2', 'B1']",0,None,450,3.889078248915472,[6200|6700|0]
160,15999,1.3766852617263794,0.5419407486915588,8.200107549782842e-05,-3.022275924682617,-1.901108980178833,8.961785316467285,4.0546875,1,"['F1', 'B2', 'B1']",0,None,450,3.889378833900357,[6200|6800|0]
161,16099,1.376868724822998,0.5423212051391602,1.827248343033716e-05,-3.0311169624328613,-1.8950823545455933,8.93205451965332,4.0546875,1,"['F1', 'B2', 'B1']",0,None,450,3.8898059956376287,[6200|6900|0]
162,16199,1.3767484426498413,0.5418555736541748,0.0,-3.011735439300537,-1.886363506317139,8.936983108520508,4.05859375,1,"['F1', 'B2', 'B1']",0,None,450,3.890287258938369,[6200|7000|0]
163,16299,1.3768457174301147,0.542472779750824,0.0,-3.016698122024536,-1.8897454738616943,8.95236587524414,4.05859375,1,"['F1', 'B2', 'B1']",0,None,450,3.890912083512645,[6200|7100|0]
164,16399,1.3766615390777588,0.5422152280807495,0.0,-3.012030601501465,-1.885519027709961,8.952210426330566,4.0546875,1,"['F1', 'B2', 'B1']",0,None,450,3.8912287134673775,[6200|7200|0]
165,16499,1.3770588636398315,0.5421289205551147,2.9117698431946337e-05,-3.005568742752075,-1.8912583589553835,8.927603721618652,4.05859375,1,"['F1', 'B2', 'B1']",0,None,450,3.891636345209236,[6200|7300|0]
166,16599,1.3768481016159058,0.5419090986251831,0.0001903582015074,-3.005499839782715,-1.8840582370758057,8.929588317871094,4.05859375,1,"['F1', 'B2', 'B1']",0,None,450,3.891980933095616,[6200|7400|0]
167,16699,1.3767893314361572,0.5425058007240295,6.884787580929697e-05,-3.0181896686553955,-1.889644145965576,8.940284729003906,4.05859375,1,"['F1', 'B2', 'B1']",0,None,450,3.8925927109049936,[6200|7500|0]
168,16799,1.3767023086547852,0.5421609282493591,0.0,-3.006189584732056,-1.8789830207824707,8.94316577911377,4.05859375,1,"['F1', 'B2', 'B1']",0,None,450,3.8929549953488585,[6200|7600|0]
169,16899,1.3766696453094482,0.542005717754364,0.0001748717477312,-3.006309509277344,-1.884016394615173,8.954547882080078,4.05859375,1,"['F1', 'B2', 'B1']",0,None,450,3.893191082875085,[6200|7700|0]
170,16999,1.376553297042847,0.5420224666595459,3.8553407648578286e-05,-3.0044565200805664,-1.8809603452682493,8.960198402404785,4.05859375,1,"['F1', 'B2', 'B1']",0,None,450,3.8933710832495536,[6200|7800|0]
171,17099,1.3768903017044067,0.5420044660568237,0.0001027615071507,-2.999310255050659,-1.8840819597244265,8.95604419708252,4.06640625,1,"['F1', 'B2', 'B1']",0,None,450,3.8937146219572023,[6200|7900|0]
172,17199,1.3765552043914795,0.5421090722084045,0.0,-2.997231721878052,-1.8800034523010247,8.9539794921875,4.06640625,1,"['F1', 'B2', 'B1']",0,None,450,3.8940803986423966,[6200|8000|0]
173,17299,1.3769335746765137,0.5421372056007385,0.0,-3.0010056495666504,-1.8966859579086304,8.963950157165527,4.06640625,1,"['F1', 'B2', 'B1']",0,None,450,3.894459813402733,[6200|8100|0]
174,17399,1.3766026496887207,0.5422272682189941,0.0,-3.0081450939178467,-1.8844057321548464,8.937007904052734,4.06640625,1,"['F1', 'B2', 'B1']",0,None,450,3.89480277494978,[6200|8200|0]
175,17499,1.376654863357544,0.5419626832008362,0.0,-3.0090999603271484,-1.886772871017456,8.951532363891602,4.06640625,1,"['F1', 'B2', 'B1']",0,None,450,3.895072462730456,[6200|8300|0]
176,17599,1.377070665359497,0.5424016118049622,0.0,-3.02323317527771,-1.906673669815064,8.979568481445312,4.06640625,1,"['F1', 'B2', 'B1']",0,None,450,3.895677069730372,[6200|8400|0]
177,17699,1.3766545057296753,0.5424032807350159,0.0,-3.034744501113892,-1.8898929357528689,8.953185081481934,4.0703125,1,"['F1', 'B2', 'B1']",0,None,450,3.896093232706646,[6200|8500|0]
178,17799,1.3767664432525637,0.5420923233032227,0.0,-3.03040623664856,-1.889425277709961,8.946996688842773,4.0703125,1,"['F1', 'B2', 'B1']",0,None,450,3.896423724058148,[6200|8600|0]
179,17899,1.376964807510376,0.542262077331543,0.0,-3.0364925861358643,-1.8976366519927976,8.938026428222656,4.06640625,1,"['F1', 'B2', 'B1']",0,None,450,3.896684807969771,[6200|8700|0]
180,17999,1.376630187034607,0.542194128036499,0.0001052905572578,-3.0347468852996826,-1.8888893127441408,8.916797637939453,4.0703125,1,"['F1', 'B2', 'B1']",0,None,450,3.8970421230561434,[6200|8800|0]
181,18099,1.3767588138580322,0.5424342751502991,1.451271600672044e-05,-3.031469345092773,-1.894115686416626,8.938329696655273,4.0703125,1,"['F1', 'B2', 'B1']",0,None,450,3.897329274779859,[6200|8900|0]
182,18199,1.3768203258514404,0.541836678981781,0.000155768924742,-3.008523464202881,-1.897633075714112,8.960943222045898,4.0703125,1,"['F1', 'B2', 'B1']",0,None,450,3.897946411897902,[6200|9000|0]
183,18299,1.3768227100372314,0.5418840646743774,6.280637899180874e-05,-3.01377534866333,-1.895447850227356,8.939855575561523,4.0703125,1,"['F1', 'B2', 'B1']",0,None,450,3.898050782023499,[6200|9100|0]
184,18399,1.3768590688705444,0.5424515604972839,0.0,-3.0250840187072754,-1.901401400566101,8.95510196685791,4.0703125,1,"['F1', 'B2', 'B1']",0,None,450,3.898622899244895,[6200|9200|0]
185,18499,1.3766299486160278,0.5422512292861938,0.0,-3.025277137756348,-1.8953195810317995,8.951845169067383,4.0703125,1,"['F1', 'B2', 'B1']",0,None,450,3.8989272488549926,[6200|9300|0]
186,18599,1.3766077756881714,0.5424165725708008,2.468124876031652e-05,-3.025446891784668,-1.8967126607894893,8.967452049255371,4.0703125,1,"['F1', 'B2', 'B1']",0,None,450,3.899095888128398,[6200|9400|0]
187,18699,1.3768280744552612,0.5422840118408203,0.0,-3.0198495388031006,-1.8960192203521729,8.971657752990723,4.07421875,1,"['F1', 'B2', 'B1']",0,None,450,3.8993541768388646,[6200|9500|0]
188,18799,1.376712679862976,0.5422939658164978,0.0001615131332073,-3.013996124267578,-1.8956879377365112,8.96982479095459,4.07421875,1,"['F1', 'B2', 'B1']",0,None,450,3.899552926645805,[6200|9600|0]
189,18899,1.3768502473831177,0.5420953035354614,0.0,-3.009556531906128,-1.9004933834075928,8.935208320617676,4.07421875,1,"['F1', 'B2', 'B1']",0,None,450,3.899843577668,[6200|9700|0]
190,18999,1.3765069246292114,0.5421772003173828,7.885436207288876e-05,-3.0119168758392334,-1.8914060592651367,8.934231758117676,4.07421875,1,"['F1', 'B2', 'B1']",0,None,450,3.9002052344205382,[6200|9800|0]
191,19099,1.3767927885055542,0.5423455834388733,0.0,-3.008687973022461,-1.899299383163452,8.944994926452637,4.07421875,1,"['F1', 'B2', 'B1']",0,None,450,3.9005462462118574,[6200|9900|0]
192,19199,1.3768726587295532,0.5423524975776672,0.0,-3.0100433826446533,-1.8988494873046875,8.940043449401855,4.07421875,1,"['F1', 'B2', 'B1']",0,None,450,3.900626415145971,[6200|10000|0]
193,19299,1.3771538734436035,0.5423970818519592,0.0,-3.009807109832764,-1.9040758609771729,8.958114624023438,4.07421875,1,"['F1', 'B2', 'B1']",0,None,450,3.900911142160693,[6200|10100|0]
194,19399,1.3768682479858398,0.5418597459793091,0.0,-3.0050203800201416,-1.897713541984558,8.945101737976074,4.07421875,1,"['F1', 'B2', 'B1']",0,None,450,3.9015196746102463,[6200|10200|0]
195,19499,1.3765723705291748,0.5424202084541321,0.0,-3.0227081775665283,-1.886391878128052,8.96196174621582,4.07421875,1,"['F1', 'B2', 'B1']",0,None,450,3.9021534424344906,[6200|10300|0]
196,19599,1.376593828201294,0.5422208905220032,0.0,-3.0101921558380127,-1.8997480869293213,8.97583293914795,4.07421875,1,"['F1', 'B2', 'B1']",0,None,450,3.902353912057528,[6200|10400|0]
197,19699,1.376628875732422,0.5422986149787903,0.0001040654751705,-3.012383460998535,-1.9060598611831665,8.988086700439453,4.08203125,1,"['F1', 'B2', 'B1']",0,None,450,3.9024884447440527,[6200|10500|0]
198,19799,1.3765958547592163,0.5424512028694153,7.928928243927658e-05,-3.0167112350463867,-1.90622079372406,8.975488662719727,4.08203125,1,"['F1', 'B2', 'B1']",0,None,450,3.9026465184887513,[6200|10600|0]
199,19899,1.3767699003219604,0.5420425534248352,0.000253972277278,-3.003222942352295,-1.908298134803772,8.991079330444336,4.08203125,1,"['F1', 'B2', 'B1']",0,None,450,3.90312380286431,[6200|10700|0]
200,19999,1.3767902851104736,0.5423058271408081,0.0001186323206638,-3.0126848220825195,-1.905473709106445,8.999004364013672,4.08203125,1,"['F1', 'B2', 'B1']",0,None,450,3.903420527472291,[6200|10800|0]
201,20099,1.3767331838607788,0.5423439741134644,0.0,-3.0119659900665283,-1.9000080823898315,9.022217750549316,4.08203125,1,"['F1', 'B2', 'B1']",0,None,450,3.903557601801564,[6200|10900|0]
202,20199,1.3770771026611328,0.5421004295349121,1.3131939340382814e-05,-3.0023701190948486,-1.9111852645874023,9.008087158203123,4.08203125,1,"['F1', 'B2', 'B1']",0,None,450,3.903979225509163,[6200|11000|0]
203,20299,1.376978039741516,0.5422950387001038,0.0,-3.009004831314087,-1.9126317501068115,9.007322311401367,4.08203125,1,"['F1', 'B2', 'B1']",0,None,450,3.904197991678967,[6200|11100|0]
204,20399,1.3767739534378052,0.5420968532562256,0.0002284233050886,-3.0076353549957275,-1.9021393060684204,9.006580352783203,4.08203125,1,"['F1', 'B2', 'B1']",0,None,450,3.904562828486095,[6200|11200|0]
205,20499,1.376609444618225,0.5421295762062073,3.7893587432336062e-06,-3.015393018722534,-1.8959455490112305,8.985420227050781,4.08203125,1,"['F1', 'B2', 'B1']",0,None,450,3.9048431753302464,[6200|11300|0]
206,20599,1.3767893314361572,0.5424004793167114,0.0002581001317594,-3.018545150756836,-1.8974183797836304,8.987032890319824,4.08203125,1,"['F1', 'B2', 'B1']",0,None,450,3.9052559970009697,[6200|11400|0]
207,20699,1.3765497207641602,0.5424805879592896,0.0,-3.020995855331421,-1.894565224647522,8.995763778686523,4.08203125,1,"['F1', 'B2', 'B1']",0,None,450,3.905617170569722,[6200|11500|0]
208,20799,1.3767160177230835,0.5422937273979187,0.0,-3.01327919960022,-1.8945614099502563,9.003058433532715,4.08203125,1,"['F1', 'B2', 'B1']",0,None,450,3.905867313624678,[6200|11600|0]
209,20899,1.3768346309661863,0.5418606996536255,7.509925490012392e-05,-3.002981185913086,-1.8926262855529783,9.001726150512695,4.08203125,1,"['F1', 'B2', 'B1']",0,None,450,3.9063225300862143,[6200|11700|0]
210,20999,1.3768229484558103,0.5423468947410583,1.1730837286449969e-05,-3.011927604675293,-1.8899304866790767,8.996559143066406,4.0859375,1,"['F1', 'B2', 'B1']",0,None,450,3.906812976515953,[6200|11800|0]
211,21099,1.3769679069519043,0.5425312519073486,7.054582965793088e-05,-3.0180864334106445,-1.8899542093276973,9.001811981201172,4.0859375,1,"['F1', 'B2', 'B1']",0,None,450,3.907054760993701,[6200|11900|0]
212,21199,1.376729130744934,0.5421614050865173,0.0,-3.012209177017212,-1.8830130100250244,8.985624313354492,4.0859375,1,"['F1', 'B2', 'B1']",0,None,450,3.907500605654964,[6200|12000|0]
213,21299,1.3768407106399536,0.5422726273536682,0.0,-3.0119144916534424,-1.8866289854049685,8.976651191711426,4.0859375,1,"['F1', 'B2', 'B1']",0,None,450,3.907658150777652,[6200|12100|0]
214,21399,1.3767696619033811,0.5419728755950928,0.0002910837356466,-3.0028467178344727,-1.882913947105408,8.987873077392578,4.0859375,1,"['F1', 'B2', 'B1']",0,None,450,3.908081977134661,[6200|12200|0]
215,21499,1.3765867948532104,0.542502760887146,0.0,-3.0171120166778564,-1.8713722229003904,8.964761734008789,4.0859375,1,"['F1', 'B2', 'B1']",0,None,450,3.9087136008532863,[6200|12300|0]
216,21599,1.3768254518508911,0.542027473449707,0.0001219634432345,-3.000344753265381,-1.87052321434021,8.977438926696777,4.0859375,1,"['F1', 'B2', 'B1']",0,None,450,3.909259247618341,[6200|12400|0]
217,21699,1.3767728805541992,0.5421873331069946,0.0,-3.005432605743408,-1.871829509735108,8.97625732421875,4.0859375,1,"['F1', 'B2', 'B1']",0,None,450,3.909467079119201,[6200|12500|0]
218,21799,1.376917004585266,0.5424036979675293,0.0,-3.0091917514801025,-1.8705378770828247,8.95221996307373,4.0859375,1,"['F1', 'B2', 'B1']",0,None,450,3.9097270512123288,[6200|12600|0]
219,21899,1.376754879951477,0.5421274304389954,0.0,-3.0022213459014893,-1.8787866830825808,8.980677604675293,4.0859375,1,"['F1', 'B2', 'B1']",0,None,450,3.9100473762725465,[6200|12700|0]
220,21999,1.3767834901809692,0.5423340201377869,8.844875992508605e-05,-3.006032943725586,-1.881602644920349,8.975729942321777,4.08984375,1,"['F1', 'B2', 'B1']",0,None,450,3.910273917730144,[6200|12800|0]
221,22099,1.3770208358764648,0.5421315431594849,8.94708136911504e-05,-3.001373529434204,-1.889665007591248,8.957718849182129,4.08984375,1,"['F1', 'B2', 'B1']",0,None,450,3.9105858968167935,[6200|12900|0]
222,22199,1.3770289421081543,0.5421437621116638,0.0002293942379765,-3.0048768520355225,-1.886674404144287,8.955207824707031,4.08984375,1,"['F1', 'B2', 'B1']",0,None,450,3.9107265864697474,[6200|13000|0]
223,22299,1.3767330646514893,0.5421960353851318,0.0003026890917681,-3.0032401084899902,-1.8872661590576167,8.942601203918457,4.08984375,1,"['F1', 'B2', 'B1']",0,None,450,3.911035856740019,[6200|13100|0]
224,22399,1.3766953945159912,0.5423784852027893,0.0,-3.005067586898804,-1.8894470930099487,8.934550285339355,4.0859375,1,"['F1', 'B2', 'B1']",0,None,450,3.9113912827679727,[6200|13200|0]
225,22499,1.3768190145492554,0.5422139167785645,0.0002991964574903,-3.001371145248413,-1.8932886123657229,8.917692184448242,4.0859375,1,"['F1', 'B2', 'B1']",0,None,450,3.9117544400328734,[6200|13300|0]
226,22599,1.376930832862854,0.5424432754516602,0.0,-3.007269382476806,-1.900657296180725,8.93467903137207,4.08984375,1,"['F1', 'B2', 'B1']",0,None,450,3.9121476667567303,[6200|13400|0]
227,22699,1.376943588256836,0.5422081351280212,0.0002379977959208,-3.001950263977051,-1.9011032581329343,8.926344871520996,4.08984375,1,"['F1', 'B2', 'B1']",0,None,450,3.912482475094052,[6200|13500|0]
228,22799,1.377022624015808,0.5419555902481079,0.000640515005216,-2.996175765991211,-1.9028648138046265,8.961522102355957,4.08984375,1,"['F1', 'B2', 'B1']",0,None,450,3.912964186284856,[6200|13600|0]
229,22899,1.376826286315918,0.5421879887580872,0.0004061990475747,-3.0069024562835693,-1.898683190345764,8.965824127197266,4.08984375,1,"['F1', 'B2', 'B1']",0,None,450,3.9133481934825016,[6200|13700|0]
230,22999,1.3767496347427368,0.5423606634140015,2.3307366063818336e-05,-3.015865564346313,-1.9017119407653809,8.960854530334473,4.08984375,1,"['F1', 'B2', 'B1']",0,None,450,3.913775157228312,[6200|13800|0]
231,23099,1.3768951892852783,0.5425900816917419,0.0,-3.0169246196746826,-1.912653923034668,8.985610961914062,4.08984375,1,"['F1', 'B2', 'B1']",0,None,450,3.914047851387268,[6200|13900|0]
232,23199,1.3768041133880615,0.5421948432922363,0.0001841672201408,-3.003910779953003,-1.912036180496216,8.997030258178711,4.08984375,1,"['F1', 'B2', 'B1']",0,None,450,3.9144933014702974,[6200|14000|0]
233,23299,1.3766872882843018,0.5421843528747559,2.7770052838604897e-05,-3.0065085887908936,-1.9022009372711184,8.98584270477295,4.08984375,1,"['F1', 'B2', 'B1']",0,None,450,3.914688796298024,[6200|14100|0]
234,23399,1.3766995668411257,0.5420699119567871,0.0003807861940003,-3.0036749839782715,-1.9030940532684328,8.984965324401855,4.08984375,1,"['F1', 'B2', 'B1']",0,None,450,3.9150601019437983,[6200|14200|0]
235,23499,1.3768339157104492,0.5421890616416931,0.0003619675990194,-3.0038058757781982,-1.9060380458831787,9.027288436889648,4.08984375,1,"['F1', 'B2', 'B1']",0,None,450,3.915240657767905,[6200|14300|0]
236,23599,1.3769172430038452,0.5425346493721008,5.829301517223939e-05,-3.0140573978424072,-1.9054986238479608,9.013848304748535,4.08984375,1,"['F1', 'B2', 'B1']",0,None,450,3.9157081966113263,[6200|14400|0]
237,23699,1.3768457174301147,0.5424101948738098,0.000137757815537,-3.009315013885498,-1.891201138496399,9.022600173950195,4.08984375,1,"['F1', 'B2', 'B1']",0,None,450,3.9158722681943,[6200|14500|0]
238,23799,1.376821994781494,0.5421914458274841,0.0,-3.00762152671814,-1.8884413242340088,9.017526626586914,4.09765625,1,"['F1', 'B2', 'B1']",0,None,450,3.9161318662009705,[6200|14600|0]
239,23899,1.3767821788787842,0.5423293709754944,0.0,-3.0220744609832764,-1.8993924856185915,9.020536422729492,4.08984375,1,"['F1', 'B2', 'B1']",0,None,450,3.916275423341379,[6200|14700|0]
240,23999,1.3767826557159424,0.5423299074172974,0.0,-3.0132131576538086,-1.895414113998413,9.009486198425291,4.08984375,1,"['F1', 'B2', 'B1']",0,None,450,3.9162761410763465,[6200|14800|0]
241,24099,1.376795768737793,0.5425799489021301,0.0001014032604871,-3.018641471862793,-1.897483468055725,8.997703552246094,4.09765625,1,"['F1', 'B2', 'B1']",0,None,450,3.916546280515742,[6200|14900|0]
242,24199,1.37688946723938,0.5423036217689514,0.0003054052649531,-3.015683174133301,-1.9044876098632808,8.999977111816406,4.09765625,1,"['F1', 'B2', 'B1']",0,None,450,3.916902304267136,[6200|15000|0]
243,24299,1.377080321311951,0.5423130393028259,0.0,-3.014227390289306,-1.9135444164276123,8.98643684387207,4.09765625,1,"['F1', 'B2', 'B1']",0,None,450,3.917262562983647,[6200|15100|0]
244,24399,1.3766114711761477,0.5424000024795532,0.0,-3.020698547363281,-1.8981847763061523,9.016117095947266,4.08984375,1,"['F1', 'B2', 'B1']",0,None,450,3.917739409965339,[6200|15200|0]
245,24499,1.376738429069519,0.5423009395599365,2.652988041518256e-05,-3.024074077606201,-1.9000940322875977,9.01479434967041,4.09765625,1,"['F1', 'B2', 'B1']",0,None,450,3.9179026141420232,[6200|15300|0]
246,24599,1.376844882965088,0.5425281524658203,0.0,-3.027465581893921,-1.903048276901245,9.019268989562988,4.09765625,1,"['F1', 'B2', 'B1']",0,None,450,3.918154927381939,[6200|15400|0]
247,24699,1.37667715549469,0.5423246026039124,0.0002064354921458,-3.025002241134644,-1.891820788383484,9.021029472351074,4.09765625,1,"['F1', 'B2', 'B1']",0,None,450,3.9184898612008143,[6200|15500|0]
248,24799,1.3766824007034302,0.5423684120178223,0.0001518022763775,-3.019388437271118,-1.892106771469116,9.00938892364502,4.09765625,1,"['F1', 'B2', 'B1']",0,None,450,3.918560086304781,[6200|15600|0]
249,24899,1.3766695261001587,0.5424426794052124,0.0,-3.02424955368042,-1.898826241493225,9.000909805297852,4.09765625,1,"['F1', 'B2', 'B1']",0,None,450,3.918729571794875,[6200|15700|0]
250,24999,1.3766775131225586,0.5424050688743591,0.0,-3.0257339477539062,-1.903592228889465,9.007357597351074,4.09765625,1,"['F1', 'B2', 'B1']",0,None,450,3.918768021041394,[6200|15800|0]
251,25099,1.3767975568771362,0.5421819686889648,0.0002877552760764,-3.018075466156006,-1.902082085609436,8.968562126159668,4.09765625,1,"['F1', 'B2', 'B1']",0,None,450,3.919151410262221,[6200|15900|0]
252,25199,1.3767211437225342,0.5421317219734192,0.0,-3.014599084854126,-1.8982279300689693,8.983092308044434,4.09765625,1,"['F1', 'B2', 'B1']",0,None,450,3.9194533486690672,[6200|16000|0]
253,25299,1.3768603801727295,0.5423101782798767,0.0002390167501289,-3.021972179412842,-1.895137906074524,8.961169242858887,4.09765625,1,"['F1', 'B2', 'B1']",0,None,450,3.919782533190604,[6200|16100|0]
254,25399,1.3769617080688477,0.5422571897506714,0.0002617801947053,-3.0196752548217773,-1.8916741609573364,8.95476245880127,4.09765625,1,"['F1', 'B2', 'B1']",0,None,450,3.919899123503959,[6200|16200|0]
255,25499,1.3766337633132937,0.5422654747962952,0.0,-3.022766828536988,-1.881754159927368,8.961371421813965,4.09765625,1,"['F1', 'B2', 'B1']",0,None,450,3.9203188201503782,[6200|16300|0]
256,25599,1.3768185377120972,0.5424386262893677,0.0,-3.0228376388549805,-1.8896455764770508,8.972647666931152,4.09765625,1,"['F1', 'B2', 'B1']",0,None,450,3.920572045382152,[6200|16400|0]
257,25699,1.376975655555725,0.5421957969665527,0.0001815910072764,-3.0157032012939453,-1.8872913122177124,8.942991256713867,4.09765625,1,"['F1', 'B2', 'B1']",0,None,450,3.920913552908758,[6200|16500|0]
258,25799,1.3767647743225098,0.5420520305633545,0.0,-3.010886907577514,-1.886033058166504,8.931708335876465,4.09765625,1,"['F1', 'B2', 'B1']",0,None,450,3.9212267859963057,[6200|16600|0]
259,25899,1.3770346641540527,0.542305588722229,3.528504748828709e-06,-3.023564338684082,-1.8924967050552368,8.909499168395996,4.1015625,1,"['F1', 'B2', 'B1']",0,None,450,3.921597116539804,[6200|16700|0]
260,25999,1.3767279386520386,0.5424125790596008,0.0,-3.025497436523437,-1.8809324502944944,8.918196678161621,4.1015625,1,"['F1', 'B2', 'B1']",0,None,450,3.921921985615314,[6200|16800|0]
261,26099,1.3769376277923584,0.5422119498252869,0.0,-3.0184481143951416,-1.884048223495484,8.903684616088867,4.1015625,1,"['F1', 'B2', 'B1']",0,None,450,3.922212195238224,[6200|16900|0]
262,26199,1.3765950202941897,0.5424662232398987,0.0,-3.0235366821289062,-1.872638821601868,8.918693542480469,4.1015625,1,"['F1', 'B2', 'B1']",0,None,450,3.922638850681386,[6200|17000|0]
263,26299,1.3767746686935425,0.5419900417327881,0.0001732345263008,-3.012625217437744,-1.8795232772827148,8.90833568572998,4.1015625,1,"['F1', 'B2', 'B1']",0,None,450,3.9231764681812935,[6200|17100|0]
264,26399,1.3766422271728516,0.5420530438423157,0.0002185539342463,-3.016230821609497,-1.880613088607788,8.927423477172852,4.1015625,1,"['F1', 'B2', 'B1']",0,None,450,3.923329973461152,[6200|17200|0]
265,26499,1.3767282962799072,0.5421115756034851,0.000233460770687,-3.0255727767944336,-1.8934892416000368,8.939844131469727,4.1015625,1,"['F1', 'B2', 'B1']",0,None,450,3.923435121319084,[6200|17300|0]
266,26599,1.376803636550903,0.5423604846000671,0.0,-3.032489538192749,-1.906432747840881,8.94366455078125,4.1015625,1,"['F1', 'B2', 'B1']",0,None,450,3.9237846006124086,[6200|17400|0]
267,26699,1.3767255544662476,0.5421902537345886,1.75831992237363e-05,-3.022392511367798,-1.8996527194976809,8.94017505645752,4.1015625,1,"['F1', 'B2', 'B1']",0,None,450,3.9239727083698255,[6200|17500|0]
268,26799,1.3768528699874878,0.5423078536987305,0.0002845146227627,-3.027026414871216,-1.8950968980789185,8.943202018737793,4.1015625,1,"['F1', 'B2', 'B1']",0,None,450,3.9242909714345817,[6200|17600|0]
269,26899,1.3767613172531128,0.5424335598945618,0.0,-3.0362563133239746,-1.8950542211532595,8.940278053283691,4.1015625,1,"['F1', 'B2', 'B1']",0,None,450,3.924615212889994,[6200|17700|0]
270,26999,1.376731038093567,0.5422403216362,0.0003270265297032,-3.034401655197144,-1.891913890838623,8.91995620727539,4.1015625,1,"['F1', 'B2', 'B1']",0,None,450,3.924996269582793,[6200|17800|0]
271,27099,1.3769664764404297,0.5423368811607361,0.0001214066214743,-3.0339279174804688,-1.9024595022201536,8.916346549987793,4.1015625,1,"['F1', 'B2', 'B1']",0,None,450,3.925323430863528,[6200|17900|0]
272,27199,1.377017378807068,0.5424312353134155,0.000110172368295,-3.032187223434448,-1.9074175357818604,8.907843589782715,4.1015625,1,"['F1', 'B2', 'B1']",0,None,450,3.9254312268073375,[6200|18000|0]
273,27299,1.376794695854187,0.5423006415367126,0.0,-3.024413108825684,-1.9016035795211792,8.928977966308594,4.1015625,1,"['F1', 'B2', 'B1']",0,None,450,3.9257119052403406,[6200|18100|0]
274,27399,1.3770185708999634,0.5419689416885376,0.0003643411037046,-3.0181326866149902,-1.904683351516724,8.953969955444336,4.1015625,1,"['F1', 'B2', 'B1']",0,None,450,3.926253097687858,[6200|18200|0]
275,27499,1.3767640590667725,0.5423959493637085,0.0,-3.029545783996582,-1.8972845077514648,8.95339298248291,4.1015625,1,"['F1', 'B2', 'B1']",0,None,450,3.926869422494869,[6200|18300|0]
276,27599,1.3769209384918213,0.5427917838096619,0.0,-3.040055990219116,-1.907901167869568,8.911981582641602,4.1015625,1,"['F1', 'B2', 'B1']",0,None,450,3.927295211248369,[6200|18400|0]
277,27699,1.3772571086883545,0.5427075028419495,0.0004603308043442,-3.025399684906006,-1.914956331253052,8.929933547973633,4.10546875,1,"['F1', 'B2', 'B1']",0,None,450,3.927871421394048,[6200|18500|0]
278,27799,1.376941442489624,0.5424537658691406,0.000444959179731,-3.016552209854126,-1.899692416191101,8.931975364685059,4.10546875,1,"['F1', 'B2', 'B1']",0,None,450,3.928276716209256,[6200|18600|0]
279,27899,1.377133011817932,0.5427391529083252,0.0002296836464665,-3.022602796554565,-1.912456750869751,8.940055847167969,4.1015625,1,"['F1', 'B2', 'B1']",0,None,450,3.9286822875653766,[6200|18700|0]
280,27999,1.377208232879639,0.5422559380531311,0.0004323679604567,-3.0124623775482178,-1.921633243560791,8.926949501037598,4.10546875,1,"['F1', 'B2', 'B1']",0,None,450,3.9292116605298752,[6200|18800|0]
281,28099,1.3771235942840576,0.5425032377243042,0.0001122390676755,-3.019263505935669,-1.9202996492385864,8.900266647338867,4.10546875,1,"['F1', 'B2', 'B1']",0,None,450,3.929624944121634,[6200|18900|0]
282,28199,1.3768720626831057,0.5426328182220459,2.4794961063889787e-05,-3.0204997062683105,-1.912092566490173,8.93295955657959,4.10546875,1,"['F1', 'B2', 'B1']",0,None,450,3.929921095642741,[6200|19000|0]
283,28299,1.3768895864486694,0.5428215265274048,0.0003088578523602,-3.0216970443725586,-1.920557141304016,8.948431968688965,4.10546875,1,"['F1', 'B2', 'B1']",0,None,450,3.9302625771694486,[6200|19100|0]
284,28399,1.3774726390838623,0.5424286127090454,0.0003845892497338,-3.0077271461486816,-1.933074951171875,8.963202476501465,4.1015625,1,"['F1', 'B2', 'B1']",0,None,450,3.930969731246444,[6200|19200|0]
285,28499,1.377049684524536,0.5426599383354187,0.0001037185284076,-3.015768527984619,-1.92231285572052,8.97370719909668,4.10546875,1,"['F1', 'B2', 'B1']",0,None,450,3.9315276653525615,[6200|19300|0]
286,28599,1.3772554397583008,0.5427716374397278,0.0001745047920849,-3.017218589782715,-1.9328079223632808,8.984074592590332,4.10546875,1,"['F1', 'B2', 'B1']",0,None,450,3.931772251945103,[6200|19400|0]
287,28700,1.377115249633789,0.5426663160324097,2.3910586605779827e-05,-3.015286922454834,-1.9376811981201167,8.985469818115234,4.10546875,1,"['F1', 'B2', 'B1']",0,None,450,3.9320033893167534,[6200|19500|0]
288,28800,1.3772071599960327,0.5422632098197937,0.0002482447598595,-3.003634214401245,-1.936002254486084,8.95883560180664,4.10546875,1,"['F1', 'B2', 'B1']",0,None,450,3.932473780594976,[6200|19600|0]
289,28900,1.3771865367889404,0.542797327041626,0.0001594675413798,-3.020195245742798,-1.9276466369628904,8.981429100036621,4.10546875,1,"['F1', 'B2', 'B1']",0,None,450,3.933015618133219,[6200|19700|0]
290,29000,1.377131700515747,0.5426750779151917,0.0004749136278405,-3.022669553756714,-1.9190062284469604,8.98704719543457,4.10546875,1,"['F1', 'B2', 'B1']",0,None,450,3.933358339739242,[6200|19800|0]
291,29100,1.377017378807068,0.542585551738739,0.0004934134194627,-3.018032550811768,-1.919896960258484,8.986145973205566,4.10546875,1,"['F1', 'B2', 'B1']",0,None,450,3.93350471812438,[6200|19900|0]
292,29200,1.3773359060287476,0.5426630973815918,0.0004011149576399,-3.0272486209869385,-1.923390507698059,8.929632186889648,4.10546875,1,"['F1', 'B2', 'B1']",0,None,450,3.9338452939951214,[6200|20000|0]
293,29300,1.3769116401672363,0.5426385998725891,0.0001801596081349,-3.0368244647979736,-1.9163099527359009,8.88670825958252,4.10546875,1,"['F1', 'B2', 'B1']",0,None,450,3.934324275117574,[6200|20100|0]
294,29400,1.3769378662109375,0.5426077842712402,0.0001753350079525,-3.039137601852417,-1.920030117034912,8.897290229797363,4.10546875,1,"['F1', 'B2', 'B1']",0,None,450,3.934365026601248,[6200|20200|0]
295,29500,1.377081274986267,0.5427439212799072,0.0,-3.040947437286377,-1.9228280782699585,8.9082612991333,4.10546875,1,"['F1', 'B2', 'B1']",0,None,450,3.934629302455204,[6200|20300|0]
296,29600,1.3769073486328125,0.5425870418548584,0.0,-3.035695552825928,-1.916855931282044,8.930952072143555,4.10546875,1,"['F1', 'B2', 'B1']",0,None,450,3.934863527839033,[6200|20400|0]
297,29700,1.3770766258239746,0.5427365899085999,0.0004409699176903,-3.043575525283813,-1.920041799545288,8.916730880737305,4.10546875,1,"['F1', 'B2', 'B1']",0,None,450,3.935358981021617,[6200|20500|0]
298,29799,1.3771731853485107,0.5427029132843018,0.0003928308142349,-3.0359010696411133,-1.9226460456848145,8.940237998962402,4.10546875,1,"['F1', 'B2', 'B1']",0,None,450,3.935472008585,[6200|20600|0]
299,29899,1.377387523651123,0.5429269075393677,0.0005870955064892,-3.032881736755371,-1.9282549619674685,8.929455757141113,4.10546875,1,"['F1', 'B2', 'B1']",0,None,450,3.9358378679909554,[6200|20700|0]
300,29999,1.3769255876541138,0.5429902672767639,0.0003031951200682,-3.032900333404541,-1.9190778732299805,8.938913345336914,4.10546875,1,"['F1', 'B2', 'B1']",0,None,450,3.936383760609577,[6200|20800|0]
301,30099,1.377249240875244,0.5425744652748108,0.0005065272562205,-3.021781206130981,-1.923183560371399,8.932517051696777,4.10546875,1,"['F1', 'B2', 'B1']",0,None,450,3.936948549658664,[6200|20900|0]
302,30199,1.3772374391555786,0.54243004322052,0.0002505348238628,-3.0188443660736084,-1.9184578657150269,8.910493850708008,4.10546875,1,"['F1', 'B2', 'B1']",0,None,450,3.937242708010198,[6200|21000|0]
303,30299,1.3773483037948608,0.5429791808128357,0.0,-3.0336716175079346,-1.918045282363892,8.900221824645996,4.10546875,1,"['F1', 'B2', 'B1']",0,None,450,3.937856394217885,[6200|21100|0]
304,30401,1.377010941505432,0.5421358942985535,0.0002947159809991,-3.010556936264038,-1.8997896909713743,8.887351989746094,4.10546875,1,"['F1', 'B2', 'B1']",0,None,450,3.938811277964189,[6200|21200|0]
