,time.ms,stateEstimate.x,stateEstimate.y,stateEstimate.z,stabilizer.roll,stabilizer.pitch,stabilizer.yaw,pm.vbat,drone_id,node_name,wind_speed,global_wind_direction,relative_wind_direction,travel_dist,waiting_time
0,0,0.7304013967514038,0.7414501905441284,-0.0290182922035455,-1.2091010808944702,0.3204489350318908,5.022284507751465,4.0546875,1,"['A1', 'B2', 'F2']",0,None,0,0.0459391079331735,[100|0|0]
1,100,0.7302176356315613,0.7412154078483582,-0.0287563819438219,-1.2026312351226809,0.331638365983963,5.027306079864502,4.0546875,1,"['A1', 'B2', 'F2']",0,None,0,0.0463359555708727,[200|0|0]
2,200,0.7301506400108337,0.7414774894714355,-0.0288752969354391,-1.2114911079406738,0.3265222907066345,5.039547443389893,4.0546875,1,"['A1', 'B2', 'F2']",0,None,0,0.046631448321347,[300|0|0]
3,300,0.7303658127784729,0.7412833571434021,-0.0289572030305862,-1.2142302989959717,0.318708062171936,5.042819023132324,4.0546875,1,"['A1', 'B2', 'F2']",0,None,0,0.0469326049071017,[400|0|0]
4,400,0.7302225828170776,0.7412115335464478,-0.0288327597081661,-1.2135913372039795,0.3217206001281738,5.037485122680664,4.0546875,1,"['A1', 'B2', 'F2']",0,None,0,0.0471354831745817,[500|0|0]
5,500,0.7304893732070923,0.7412111759185791,-0.0290959496051073,-1.2159658670425415,0.3091860711574554,5.058843612670898,4.05859375,1,"['A1', 'B2', 'F2']",0,None,0,0.0475102446479935,[600|0|0]
6,600,0.7304124236106873,0.741071879863739,-0.0289191454648971,-1.2099038362503052,0.3104844689369201,5.046184539794922,4.0546875,1,"['A1', 'B2', 'F2']",0,None,0,0.0477481192689104,[700|0|0]
7,700,0.7302894592285156,0.7412437200546265,-0.0286260582506656,-1.211111545562744,0.3157259225845337,5.044983863830566,4.0546875,1,"['A1', 'B2', 'F2']",0,None,0,0.0481094354817117,[800|0|0]
8,800,0.7302826642990112,0.7414107322692871,-0.0291583742946386,-1.2182196378707886,0.3217906057834625,5.031523704528809,4.0546875,1,"['A1', 'B2', 'F2']",0,None,0,0.0486673777919767,[900|0|0]
9,900,0.7301914095878601,0.7410730123519897,-0.0287354849278926,-1.210654854774475,0.3216482698917389,5.032861232757568,4.0546875,1,"['A1', 'B2', 'F2']",0,None,0,0.0492162107186069,[1000|0|0]
10,1000,0.73028963804245,0.7412897348403931,-0.0290887709707021,-1.2173287868499756,0.3190779089927673,5.030230045318604,4.0546875,1,"['A1', 'B2', 'F2']",0,None,0,0.0496421549571109,[1100|0|0]
11,1100,0.730136513710022,0.7412683963775635,-0.0289457347244024,-1.2084280252456665,0.3240419328212738,5.018746376037598,4.0546875,1,"['A1', 'B2', 'F2']",0,None,0,0.0498527772705845,[1200|0|0]
12,1200,0.7303677201271057,0.7414569854736328,-0.0287807490676641,-1.2113546133041382,0.3119919896125793,5.01984167098999,4.0546875,1,"['A1', 'B2', 'F2']",0,None,0,0.0501937208456616,[1300|0|0]
13,1300,0.7299988865852356,0.7414385080337524,-0.0291851330548524,-1.2127104997634888,0.319973886013031,5.019364833831787,4.0546875,1,"['A1', 'B2', 'F2']",0,None,0,0.0507413575924996,[1400|0|0]
14,1400,0.7301592230796814,0.7413690686225891,-0.0289425253868103,-1.2048578262329102,0.3122347295284271,5.038548469543457,4.0546875,1,"['A1', 'B2', 'F2']",0,None,0,0.0510403360262816,[1500|0|0]
15,1500,0.7304275631904602,0.7414458990097046,-0.0288705192506313,-1.204243779182434,0.3044510781764984,5.027679920196533,4.0546875,1,"['A1', 'B2', 'F2']",0,None,0,0.0513285966845139,[1600|0|0]
16,1600,0.7304759621620178,0.7409740686416626,-0.0287960488349199,-1.1980284452438354,0.3002441227436065,5.013330459594727,4.0546875,1,"['A1', 'B2', 'F2']",0,None,0,0.0518087135447372,[1700|0|0]
17,1700,0.7302244305610657,0.7410719990730286,-0.0290462598204612,-1.2007272243499756,0.3085127174854278,4.997905731201172,4.0546875,1,"['A1', 'B2', 'F2']",0,None,0,0.0521767679604839,[1800|0|0]
18,1800,0.7303367853164673,0.741301417350769,-0.0291814729571342,-1.209041714668274,0.3092554807662964,4.998378753662109,4.0546875,1,"['A1', 'B2', 'F2']",0,None,0,0.052465798978805,[1900|0|0]
19,1900,0.7301515936851501,0.7412803769111633,-0.028887502849102,-1.2091768980026243,0.3117115199565887,4.994979381561279,4.0546875,1,"['A1', 'B2', 'F2']",0,None,0,0.0528138752130198,[2000|0|0]
20,2000,0.7645478844642639,0.6803123354911804,0.0302805472165346,-0.0013916044263169,-0.0001079148423741,3.2325258255004883,4.0546875,1,"['A1', 'B2', 'F2']",0,None,0,0.1444711992112677,[2100|0|0]
21,2100,0.7301469445228577,0.7416281700134277,-0.0288339890539646,-0.1757138967514038,-0.1617893874645233,4.783595085144043,4.0546875,1,"['A1', 'B2', 'F2']",0,None,0,0.2363275252345091,[2200|0|0]
22,2200,0.7304322719573975,0.740985631942749,-0.0284285154193639,-0.2906522750854492,-0.0857299640774726,5.011834621429443,4.0546875,1,"['A1', 'B2', 'F2']",0,None,0,0.2371391136680941,[2300|0|0]
23,2300,0.7302154898643494,0.7410837411880493,-0.0286707747727632,-0.5719799995422363,0.1085997968912124,5.068854331970215,4.0546875,1,"['A1', 'B2', 'F2']",0,None,0,0.2374786861849283,[2400|0|0]
24,2400,0.7302261590957642,0.7408953905105591,-0.0288637001067399,-0.7486057877540588,0.1993976980447769,5.082320690155029,4.0546875,1,"['A1', 'B2', 'F2']",0,None,0,0.2377485194569688,[2500|0|0]
25,2500,0.7302185297012329,0.741210401058197,-0.0290967710316181,-0.9068817496299744,0.2534821927547455,5.0794548988342285,4.0546875,1,"['A1', 'B2', 'F2']",0,None,0,0.2381404530084894,[2600|0|0]
26,2600,0.7301554679870605,0.7411012649536133,-0.0285486206412315,-0.9816433787345886,0.2816881835460663,5.073442935943604,4.0546875,1,"['A1', 'B2', 'F2']",0,None,0,0.2387029086241597,[2700|0|0]
27,2700,0.7301347851753235,0.7411540746688843,-0.0288481805473566,-1.0369064807891846,0.2967889010906219,5.053367614746094,4.0546875,1,"['A1', 'B2', 'F2']",0,None,0,0.2390077902111505,[2800|0|0]
28,2800,0.7301361560821533,0.7411900758743286,-0.0290949214249849,-1.0713447332382202,0.318666934967041,5.047653198242188,4.0546875,1,"['A1', 'B2', 'F2']",0,None,0,0.2392571474385809,[2900|0|0]
29,2900,0.7302911281585693,0.740938127040863,-0.0288396440446376,-1.0870951414108276,0.3151964843273163,5.034688472747803,4.0546875,1,"['A1', 'B2', 'F2']",0,None,0,0.2396478661354336,[3000|0|0]
30,3000,0.7302150726318359,0.7413734793663025,-0.0289723873138427,-1.1260478496551514,0.3189435005187988,5.017046451568604,4.0546875,1,"['A1', 'B2', 'F2']",0,None,0,0.2401093169626422,[3100|0|0]
31,3100,0.7299575805664062,0.7414104342460632,-0.028795052319765,-1.1423008441925049,0.3290787935256958,5.025230884552002,4.0546875,1,"['A1', 'B2', 'F2']",0,None,0,0.2404241431480556,[3200|0|0]
32,3200,0.7301875948905945,0.7413238883018494,-0.0288041103631258,-1.1496117115020752,0.3274966776371002,5.03484582901001,4.0546875,1,"['A1', 'B2', 'F2']",0,None,0,0.2406700676038162,[3300|0|0]
33,3300,0.7300918698310852,0.7413627505302429,-0.0287223644554615,-1.1622743606567385,0.3194621503353119,5.031091690063477,4.0546875,1,"['A1', 'B2', 'F2']",0,None,0,0.240801809598767,[3400|0|0]
34,3400,0.7303404211997986,0.7409612536430359,-0.028949212282896,-1.1649235486984253,0.3114459812641144,5.020358562469482,4.0546875,1,"['A1', 'B2', 'F2']",0,None,0,0.2413256773971074,[3500|0|0]
35,3500,0.7304632067680359,0.7411462068557739,-0.028737649321556,-1.1760894060134888,0.3069085776805877,5.012820720672607,4.0546875,1,"['A1', 'B2', 'F2']",0,None,0,0.2416323415020829,[3600|0|0]
36,3600,0.7301771640777588,0.7413436770439148,-0.0287951324135065,-1.1835490465164185,0.3175137639045715,5.008354187011719,4.0546875,1,"['A1', 'B2', 'F2']",0,None,0,0.2419846470537359,[3700|0|0]
37,3700,0.7303141355514526,0.741226315498352,-0.028776379302144,-1.1741108894348145,0.3246721625328064,5.032345294952393,4.0546875,1,"['A1', 'B2', 'F2']",0,None,0,0.2421659936725864,[3800|0|0]
38,3800,0.7301457524299622,0.7412742972373962,-0.0291740540415048,-1.1817915439605713,0.3205474317073822,5.03635835647583,4.0546875,1,"['A1', 'B2', 'F2']",0,None,0,0.2426005052618568,[3900|0|0]
39,3900,0.7300885915756226,0.7413304448127747,-0.0287603940814733,-1.1771785020828247,0.3164251744747162,5.057775974273682,4.0546875,1,"['A1', 'B2', 'F2']",0,None,0,0.2430218536640408,[4000|0|0]
40,4000,0.7302639484405518,0.7412708401679993,-0.0294193569570779,-1.163548231124878,0.320803165435791,5.048989772796631,4.0546875,1,"['A1', 'B2', 'F2']",0,None,0,0.2437063496941109,[4100|0|0]
41,4100,0.7294716238975525,0.7397785782814026,-0.0300221368670463,-1.1448768377304075,0.3435651659965515,4.960578918457031,4.0546875,1,"['A1', 'B2', 'F2']",0,None,0,0.245500219070484,[4200|0|0]
42,4200,0.7297049760818481,0.7400686144828796,-0.0295880232006311,-1.1509803533554075,0.3427654504776001,4.9696044921875,4.0546875,1,"['A1', 'B2', 'F2']",0,None,0,0.2460720834909993,[4300|0|0]
43,4300,0.7290961146354675,0.7397483587265015,-0.0302400179207324,-1.1307357549667358,0.3700447678565979,4.964193344116211,4.0546875,1,"['A1', 'B2', 'F2']",0,None,0,0.2470199089630257,[4400|0|0]
44,4400,0.7296849489212036,0.739900529384613,-0.0299476105719804,-1.1452189683914185,0.3448468446731567,4.977303504943848,4.0546875,1,"['A1', 'B2', 'F2']",0,None,0,0.2476947302600019,[4500|0|0]
45,4500,0.7294568419456482,0.739990234375,-0.0302489623427391,-1.159359574317932,0.3433642983436584,4.9677348136901855,4.0546875,1,"['A1', 'B2', 'F2']",0,None,0,0.2480831793137229,[4600|0|0]
46,4600,0.7296285629272461,0.7401036024093628,-0.0295252986252307,-1.1703275442123413,0.3383113145828247,4.992660999298096,4.0546875,1,"['A1', 'B2', 'F2']",0,None,0,0.2488355286891956,[4700|0|0]
47,4700,0.7296069264411926,0.7399163842201233,-0.029977049678564,-1.168904185295105,0.3377215266227722,4.963075160980225,4.05859375,1,"['A1', 'B2', 'F2']",0,None,0,0.2493250159741158,[4800|0|0]
48,4800,0.7299426794052124,0.7400960922241211,-0.0297430846840143,-1.1760379076004028,0.3272813856601715,4.9734296798706055,4.0546875,1,"['A1', 'B2', 'F2']",0,None,0,0.2497719663496874,[4900|0|0]
49,4900,0.729489266872406,0.7400861978530884,-0.0297488700598478,-1.1776849031448364,0.3403156101703644,4.971951961517334,4.0546875,1,"['A1', 'B2', 'F2']",0,None,0,0.2502255237264962,[5000|0|0]
50,5000,0.729692280292511,0.7400801181793213,-0.0298352800309658,-1.177072525024414,0.3257408440113067,4.978019714355469,4.0546875,1,"['A1', 'B2', 'F2']",0,None,0,0.2504462454841107,[5100|0|0]
51,5100,0.7299290299415588,0.7400404214859009,-0.0297634061425924,-1.1737658977508545,0.3217858970165252,4.962296009063721,4.0546875,1,"['A1', 'B2', 'F2']",0,None,0,0.2506968289624621,[5200|0|0]
52,5201,0.7296701073646545,0.740149199962616,-0.0296324416995048,-1.1754810810089111,0.3385832607746124,4.978806972503662,4.0546875,1,"['A1', 'B2', 'F2']",0,None,0,0.2510067085248416,[5300|0|0]
53,5301,0.7294224500656128,0.7399777173995972,-0.0300207082182168,-1.1685466766357422,0.3531913757324219,4.9566330909729,4.0546875,1,"['A1', 'B2', 'F2']",0,None,0,0.2514981261646765,[5400|0|0]
54,5401,0.7297021150588989,0.740168571472168,-0.0301089212298393,-1.1739623546600342,0.3460050225257873,4.950024604797363,4.0546875,1,"['A1', 'B2', 'F2']",0,None,0,0.2518480108898447,[5500|0|0]
55,5501,0.7296043038368225,0.740020215511322,-0.029966989532113,-1.1677781343460083,0.3577547669410705,4.932676315307617,4.0546875,1,"['A1', 'B2', 'F2']",0,None,0,0.2520754336967531,[5600|0|0]
56,5601,0.7292789816856384,0.7400219440460205,-0.0298066604882478,-1.1671934127807615,0.3645460903644562,4.932895660400391,4.0546875,1,"['A1', 'B2', 'F2']",0,None,0,0.2524381221197693,[5700|0|0]
57,5701,0.7298741340637207,0.7399128675460815,-0.0298555083572864,-1.160943627357483,0.3474361896514892,4.944821357727051,4.0546875,1,"['A1', 'B2', 'F2']",0,None,0,0.253045156015269,[5800|0|0]
58,5801,0.72945636510849,0.7400501370429993,-0.0298785455524921,-1.1696492433547974,0.3640595078468323,4.9328436851501465,4.0546875,1,"['A1', 'B2', 'F2']",0,None,0,0.2534855019328174,[5900|0|0]
59,5901,0.72991943359375,0.7401911616325378,-0.0296258572489023,-1.1724706888198853,0.3559437096118927,4.927422046661377,4.0546875,1,"['A1', 'B2', 'F2']",0,None,0,0.2540315529704198,[6000|0|0]
60,6001,0.729672372341156,0.739880383014679,-0.0299184713512659,-1.163613200187683,0.3648615479469299,4.935224533081055,4.0546875,1,"['A1', 'B2', 'F2']",0,None,0,0.2545247523466903,[6100|0|0]
61,6101,0.7296094298362732,0.740167498588562,-0.0295847356319427,-1.17486310005188,0.360752522945404,4.953474044799805,4.0546875,1,"['A1', 'B2', 'F2']",0,None,0,0.2549694732052513,[6200|0|0]
62,6201,0.7293280959129333,0.7400157451629639,-0.0298711527138948,-1.169563055038452,0.3669236004352569,4.955316066741943,4.0546875,1,"['A/E1', 'B2', 'C1']",0,None,0,0.2553986731859555,[6200|0|0]
63,6301,0.7293483018875122,0.7403240203857422,-0.0296936612576246,-1.216851830482483,0.3524326682090759,5.235079765319824,3.19921875,1,"['A/E1', 'B2', 'C1']",0,None,0,0.2557549667607455,[6200|0|0]
64,6400,0.7284112572669983,0.7426037788391113,-0.0213857535272836,-3.452278614044189,3.831689357757568,6.743149757385254,3.55859375,1,"['A/E1', 'B2', 'C1']",0,None,0,0.2644208009434657,[6200|0|0]
65,6500,0.7175272107124329,0.751495897769928,0.0201305691152811,-4.653346538543701,7.495408058166504,8.106467247009277,3.62109375,1,"['A/E1', 'B2', 'C1']",0,None,0,0.3082515811583247,[6200|0|0]
66,6600,0.6962761878967285,0.765211820602417,0.0838852524757385,1.0854952335357666,-0.3826389014720917,6.173032760620117,3.6484375,1,"['A/E1', 'B2', 'C1']",0,None,0,0.3768401528029694,[6200|0|0]
67,6700,0.6759522557258606,0.777428150177002,0.1636490374803543,3.648049116134644,-4.411056995391846,3.782026767730713,3.673828125,1,"['A/E1', 'B2', 'C1']",0,None,0,0.460054107915219,[6200|0|0]
68,6800,0.6656776666641235,0.7828303575515747,0.2521288990974426,4.090399265289307,-5.777125835418701,1.691877007484436,3.68359375,1,"['A/E1', 'B2', 'C1']",0,None,0,0.5492921992029901,[6200|0|0]
69,6900,0.6661930084228516,0.7825812101364136,0.3447448015213012,3.169710397720337,-4.786229133605957,0.1187318563461303,3.68359375,1,"['A/E1', 'B2', 'C1']",0,None,0,0.6419098704830891,[6200|0|0]
70,7000,0.6739100813865662,0.7773361802101135,0.4383262991905212,1.6485258340835571,-2.614461898803711,-0.6995264291763306,3.68359375,1,"['A/E1', 'B2', 'C1']",0,None,0,0.7359553927585771,[6200|0|0]
71,7100,0.6856598258018494,0.7699866890907288,0.5326005220413208,0.2974140048027038,-0.283727616071701,-1.019097924232483,3.6796875,1,"['A/E1', 'B2', 'C1']",0,None,0,0.8312428557726621,[6200|0|0]
72,7200,0.6970018148422241,0.7632322311401367,0.6281320452690125,-0.7850871086120605,1.471887230873108,-1.052574872970581,3.6796875,1,"['A/E1', 'B2', 'C1']",0,None,0,0.9276821389916972,[6200|0|0]
73,7300,0.7056404948234558,0.7589573860168457,0.7240315675735474,-1.415236234664917,2.301792621612549,-0.9941988587379456,3.6796875,1,"['A/E1', 'B2', 'C1']",0,None,0,1.0240648110385142,[6200|0|0]
74,7400,0.7106346487998962,0.7567713260650635,0.820602297782898,-1.610803246498108,2.293241024017334,-0.865496039390564,3.6796875,1,"['A/E1', 'B2', 'C1']",0,None,0,1.1207892979341312,[6200|0|0]
75,7500,0.7134109735488892,0.7594323754310608,0.917033314704895,-0.9165440797805786,1.981608510017395,-1.6399753093719482,3.732421875,1,"['A/E1', 'B2', 'C1']",0,None,0,1.217296966994422,[6200|0|0]
76,7600,0.7112855315208435,0.764646053314209,1.0078120231628418,-0.2905232906341553,1.349895715713501,-1.0533113479614258,3.75390625,1,"['A/E1', 'B2', 'C1']",0,None,0,1.3082501079527018,[6200|0|0]
77,7700,0.7071659564971924,0.7708911299705505,1.0866379737854004,0.441675066947937,0.5549801588058472,-0.8534586429595947,3.75390625,1,"['A/E1', 'B2', 'C1']",0,None,0,1.3874302972197723,[6200|0|0]
78,7800,0.7018088102340698,0.7773651480674744,1.1487864255905151,1.000451683998108,0.1577813029289245,-0.6944646835327148,3.736328125,1,"['A/E1', 'B2', 'C1']",0,None,0,1.4501442668611246,[6200|0|0]
79,7900,0.6959185600280762,0.7824527621269226,1.1943966150283811,1.2797470092773438,-0.3320452272891998,-0.5672526359558105,3.7109375,1,"['A/E1', 'B2', 'C1']",0,None,0,1.4964137843090637,[6200|0|0]
80,8000,0.6893057823181152,0.7865351438522339,1.2253844738006592,1.153072476387024,-0.6448862552642822,-0.5391204357147217,3.6953125,1,"['A/E1', 'B2', 'C1']",0,None,0,1.5283612734260998,[6200|0|0]
81,8100,0.6827723979949951,0.7915444374084473,1.2473270893096924,0.5387639999389648,-0.9035844802856444,-0.6237331628799438,3.6953125,1,"['A/E1', 'B2', 'C1']",0,None,0,1.551797495562425,[6200|0|0]
82,8200,0.6764363050460815,0.7933578491210938,1.2607837915420532,0.387091189622879,-0.4364523589611053,-0.796720027923584,3.68359375,1,"['A/E1', 'B2', 'C1']",0,None,0,1.5667813992883324,[6200|0|0]
83,8300,0.6705766320228577,0.7960615754127502,1.271588683128357,0.3626727759838104,-0.5569881200790405,-0.7737870216369629,3.6796875,1,"['A/E1', 'B2', 'C1']",0,None,0,1.5793667711934876,[6200|0|0]
84,8400,0.6654794812202454,0.7991217374801636,1.280486226081848,0.4323140382766723,-0.8615365028381348,-0.5186552405357361,3.689453125,1,"['A/E1', 'B2', 'C1']",0,None,0,1.59006779024742,[6200|0|0]
85,8500,0.6621588468551636,0.8024268746376038,1.2866004705429075,0.606342613697052,-1.0343557596206665,-0.434132844209671,3.68359375,1,"['A/E1', 'B2', 'C1']",0,None,0,1.597770681233644,[6200|0|0]
86,8600,0.660210132598877,0.8044766187667847,1.2909836769104004,0.7841029167175293,-1.074777364730835,-0.1633162647485733,3.673828125,1,"['A/E1', 'B2', 'C1']",0,None,0,1.6029871394485438,[6200|0|0]
87,8700,0.6598236560821533,0.8060517311096191,1.293338179588318,0.7477867007255554,-0.9177323579788208,-0.156665101647377,3.68359375,1,"['A/E1', 'B2', 'C1']",0,None,0,1.605846164780864,[6200|0|0]
88,8800,0.6610713601112366,0.806361973285675,1.293405055999756,0.7599306702613831,-0.8233537077903748,-0.1365143060684204,3.6796875,1,"['A/E1', 'B2', 'C1']",0,None,0,1.607133599441886,[6200|0|0]
89,8900,0.6624894142150879,0.8051624894142151,1.2926297187805176,0.691890299320221,-0.4157117307186126,-0.1203724071383476,3.66796875,1,"['A/E1', 'B2', 'C1']",0,None,0,1.6091462560948893,[6200|0|0]
90,9000,0.6652606129646301,0.8056469559669495,1.2917617559432983,0.2699226438999176,-0.0039431261830031,-0.0652971491217613,3.673828125,1,"['A/E1', 'B2', 'C1']",0,None,0,1.6120903365688193,[6200|0|0]
91,9100,0.6680470705032349,0.8022211790084839,1.2877973318099976,0.1905134618282318,0.195851057767868,0.0583432912826538,3.66796875,1,"['A/E1', 'B2', 'C1']",0,None,0,1.6180247238238186,[6200|0|0]
92,9200,0.670386791229248,0.8010526895523071,1.2848762273788452,0.1148877888917923,0.0250482466071844,0.0529230870306491,3.6640625,1,"['A/E1', 'B2', 'C1']",0,None,WindDirection.NONE,1.6219455033104295,[6200|0|0]
93,9300,0.6731168031692505,0.8004181981086731,1.2821966409683228,4.506808757781982,-5.24110746383667,0.1983929574489593,3.6640625,1,"['A/E1', 'B2', 'C1']",0,None,WindDirection.NONE,1.6258230963674762,[6200|0|0]
94,9400,0.6934794783592224,0.7940252423286438,1.28566575050354,9.539468765258787,-13.887246131896973,0.5153190493583679,3.65234375,1,"['A/E1', 'B2', 'C1']",0,None,WindDirection.NONE,1.64744584238793,[6200|0|0]
95,9500,0.7322595119476318,0.7634707093238831,1.2781288623809814,10.472274780273438,-17.106557846069336,0.4509054720401764,3.65234375,1,"['A/E1', 'B2', 'C1']",0,None,WindDirection.NONE,1.6973885613250197,[6200|0|0]
96,9600,0.7955084443092346,0.71657794713974,1.2685322761535645,6.4589362144470215,-14.298176765441896,-0.7630321979522705,3.642578125,1,"['A/E1', 'B2', 'C1']",0,None,WindDirection.NONE,1.7767072417058825,[6200|0|0]
97,9700,0.8805933594703674,0.661078691482544,1.2600489854812622,2.25366735458374,-9.774418830871582,-1.3961061239242554,3.6484375,1,"['A/E1', 'B2', 'C1']",0,None,WindDirection.NONE,1.878646323451358,[6200|0|0]
98,9800,0.959086775779724,0.6289812922477722,1.2324973344802856,-1.3021827936172483,-2.4499402046203613,0.6504027247428894,3.626953125,1,"['A/E1', 'B2', 'C1']",0,None,WindDirection.NONE,1.9678121964882431,[6200|0|0]
99,9900,1.056527853012085,0.5818658471107483,1.2286700010299685,-3.5135293006896973,3.483647584915161,-0.4398106038570404,3.6484375,1,"['A/E1', 'B2', 'C1']",0,None,WindDirection.NONE,2.076113984026597,[6200|0|0]
100,10000,1.147112250328064,0.5444579720497131,1.2316700220108032,-4.648768901824951,7.988903045654297,-0.9966284036636353,3.6640625,1,"['A/E1', 'B2', 'C1']",0,None,WindDirection.NONE,2.174164390856791,[6200|0|0]
101,10100,1.2218146324157717,0.5173782706260681,1.2359358072280884,-4.768234252929688,10.640172958374023,-1.244510293006897,3.658203125,1,"['A/E1', 'B2', 'C1']",0,None,WindDirection.NONE,2.2537379608551995,[6200|0|0]
102,10200,1.278694748878479,0.4989472925662994,1.236963152885437,-4.148872375488281,11.124692916870115,-1.4372793436050415,3.658203125,1,"['A/E1', 'B2', 'C1']",0,None,WindDirection.NONE,2.313538496305566,[6200|0|0]
103,10300,1.3185133934020996,0.4905744194984436,1.2359658479690552,-3.218734741210937,10.166463851928713,-1.5618573427200315,3.6484375,1,"['A/E1', 'B2', 'C1']",0,None,WindDirection.NONE,2.3542401433509266,[6200|0|0]
104,10400,1.3419499397277832,0.4849312007427215,1.2298853397369385,-2.0727286338806152,8.123117446899414,-1.530524492263794,3.63671875,1,"['A/E1', 'B2', 'C1']",0,None,WindDirection.NONE,2.379101563301558,[6200|0|0]
105,10500,1.3530853986740112,0.4836713969707489,1.225269079208374,-0.8999847173690796,5.989396095275879,-1.5631722211837769,3.642578125,1,"['A/E1', 'B2', 'C1']",0,None,WindDirection.NONE,2.391221605081792,[6200|0|0]
106,10600,1.3605799674987793,0.4894380569458008,1.232528805732727,-0.3624619841575622,3.5049262046813965,-1.306538701057434,3.642578125,1,"['A/E1', 'B2', 'C1']",0,None,WindDirection.NONE,2.403143289457141,[6200|0|0]
107,10700,1.3537079095840454,0.4842389523983001,1.2220021486282349,0.7460024952888489,1.9017038345336916,-1.282343506813049,3.642578125,1,"['A/E1', 'B2', 'C1']",0,None,WindDirection.NONE,2.416747199846248,[6200|0|0]
108,10800,1.3504432439804075,0.4831065535545349,1.2219502925872805,0.7951521873474121,0.6218547821044922,-0.9260063767433168,3.65234375,1,"['A/E1', 'B2', 'C1']",0,None,WindDirection.NONE,2.4202030727741666,[6200|0|0]
109,10900,1.3481212854385376,0.4812000095844269,1.2221975326538086,0.6216722130775452,-0.0874989181756973,-0.8426065444946289,3.65234375,1,"['A/E1', 'B2', 'C1']",0,None,WindDirection.NONE,2.4232176256482454,[6200|0|0]
110,11000,1.3465142250061035,0.4775632321834564,1.220820665359497,0.1962669789791107,-0.4381142556667328,-0.9665187001228333,3.642578125,1,"['A/E1', 'B2', 'C1']",0,None,WindDirection.NONE,2.4274253039443905,[6200|0|0]
111,11100,1.3468856811523438,0.471396803855896,1.2177082300186155,-0.263914942741394,-0.2018661648035049,-0.9882776141166688,3.63671875,1,"['A/E1', 'B2', 'C1']",0,None,WindDirection.NONE,2.4343426785719995,[6200|0|0]
112,11200,1.3493131399154663,0.4685560464859009,1.2175549268722534,-0.6324583292007446,0.3482129871845245,-1.0289654731750488,3.642578125,1,"['A/E1', 'B2', 'C1']",0,None,WindDirection.NONE,2.4380824593592285,[6200|0|0]
113,11300,1.34999418258667,0.4650030136108398,1.2144190073013306,-0.7983565330505371,0.995883047580719,-0.6255950927734375,3.63671875,1,"['A/E1', 'B2', 'C1']",0,None,WindDirection.NONE,2.4428701365921426,[6200|0|0]
114,11400,1.3510466814041138,0.4632661640644073,1.2121456861495972,-0.925613522529602,1.0024367570877075,-0.6200882792472839,3.63671875,1,"['A/E1', 'B2', 'C1']",0,None,WindDirection.NONE,2.445918478627837,[6200|0|0]
115,11500,1.3508696556091309,0.4637082517147064,1.210260987281799,-0.6849583387374878,1.0502256155014038,-0.6909295320510864,3.630859375,1,"['A/E1', 'B2', 'C1']",0,None,WindDirection.NONE,2.4478624100682214,[6200|0|0]
116,11600,1.3543626070022583,0.470024049282074,1.2170616388320925,-0.7948312163352966,0.8470293283462524,-0.8862444162368774,3.630859375,1,"['A/E1', 'B2', 'C1']",0,None,WindDirection.NONE,2.457779005746942,[6200|0|0]
117,11700,1.346221089363098,0.4666287004947662,1.204611897468567,-0.1262015700340271,1.034751296043396,-0.8132115602493286,3.630859375,1,"['A/E1', 'B2', 'C1']",0,None,WindDirection.NONE,2.4730370778032307,[6200|0|0]
118,11800,1.3426268100738523,0.468423068523407,1.2015162706375122,-0.0853118002414703,0.6069961190223694,-0.833482563495636,3.626953125,1,"['A/E1', 'B2', 'C1']",0,None,WindDirection.NONE,2.478108715182663,[6200|0|0]
119,11900,1.3374109268188477,0.4711169600486755,1.1990971565246582,0.1609242260456085,0.4874646067619324,-0.8586961030960083,3.62109375,1,"['A/E1', 'B2', 'C1']",0,None,WindDirection.NONE,2.48445809332314,[6200|0|0]
120,12000,1.3334566354751587,0.4733563661575317,1.1977972984313965,0.3774147033691406,-0.0015261040534824,-1.0720118284225464,3.62109375,1,"['A/E1', 'B2', 'C1']",0,None,WindDirection.NONE,2.4891847190554963,[6200|0|0]
121,12100,1.3291233777999878,0.4744513034820556,1.1963201761245728,0.2260045409202575,-0.2397316694259643,-1.054481029510498,3.63671875,1,"['A/E1', 'B2', 'C1']",0,None,WindDirection.NONE,2.493891936931629,[6200|0|0]
122,12200,1.3246233463287354,0.4752052426338196,1.1951441764831543,0.4460777640342712,-0.3755460977554321,-1.0820554494857788,3.626953125,1,"['A/E1', 'B2', 'C1']",0,None,WindDirection.NONE,2.4986038030845923,[6200|0|0]
123,12300,1.3220025300979614,0.477850079536438,1.193650245666504,0.2904106974601745,-0.971487522125244,-1.1751490831375122,3.859375,1,"['A/E1', 'B2', 'C1']",0,None,0,2.502615743916893,[6200|0|0]
124,12400,1.3198119401931765,0.4782338738441467,1.161034345626831,0.5228106379508972,-1.6935839653015137,-1.637575387954712,3.794921875,1,"['A/E1', 'B2', 'C1']",0,None,0,2.535307377672328,[6200|0|0]
125,12500,1.322309970855713,0.4767980575561523,1.086725115776062,0.01936462149024,-0.2758412659168243,-1.8184809684753416,3.705078125,1,"['A/E1', 'B2', 'C1']",0,None,0,2.609672445860411,[6200|0|0]
126,12600,1.3211891651153564,0.4779846668243408,0.9853530526161194,-0.1421252638101577,-0.0737977921962738,-1.9602593183517456,3.642578125,1,"['A/E1', 'B2', 'C1']",0,None,0,2.7110576491021385,[6200|0|0]
127,12700,1.3211524486541748,0.4790273904800415,0.8667469620704651,-0.0652999207377433,0.0018803788116201,-1.597703218460083,3.62109375,1,"['A/E1', 'B2', 'C1']",0,None,0,2.829668328786746,[6200|0|0]
128,12800,1.3209527730941772,0.480636328458786,0.7452876567840576,0.2255936115980148,0.5582360625267029,-1.75413978099823,3.62109375,1,"['A/E1', 'B2', 'C1']",0,None,0,2.9511384543008226,[6200|0|0]
129,12900,1.3211032152175903,0.480803370475769,0.6233106255531311,0.7794690728187561,0.1122532710433006,-0.9608572125434875,3.630859375,1,"['A/E1', 'B2', 'C1']",0,None,0,3.0731156926847865,[6200|0|0]
130,13000,1.321937918663025,0.4804658889770508,0.5024577975273132,0.4530560672283172,0.2979212999343872,-1.917752265930176,3.615234375,1,"['A/E1', 'B2', 'C1']",0,None,0,3.1939718744275574,[6200|0|0]
131,13100,1.3227839469909668,0.4783759415149688,0.3849838078022003,0.148346945643425,0.3680489957332611,-1.992265701293945,3.5625,1,"['A/E1', 'B2', 'C1']",0,None,0,3.311467499479139,[6200|0|0]
132,13200,1.322845220565796,0.4756291210651397,0.2773377597332001,0.8667828440666199,1.3660670518875122,-3.268122673034668,3.541015625,1,"['A/E1', 'B2', 'C1']",0,None,0,3.4191486047943616,[6200|0|0]
133,13300,1.321549654006958,0.4720984101295471,0.1855013370513916,-1.8329466581344604,-1.276216983795166,-6.622844219207764,3.5625,1,"['A/E1', 'B2', 'C1']",0,None,0,3.5110620039449256,[6200|0|0]
134,13400,1.3241374492645264,0.472363531589508,0.1089905649423599,-3.989765167236328,-3.1512200832366943,-11.310905456542969,3.568359375,1,"['A/E1', 'B2', 'C1']",0,None,0,3.5876169856404614,[6200|0|0]
135,13500,1.33341646194458,0.4784378409385681,0.0436653457581996,-2.051102638244629,-2.48726487159729,-15.288165092468262,3.5625,1,"['A/E1', 'B2', 'C1']",0,None,0,3.653876940151789,[6200|0|0]
136,13600,1.3454831838607788,0.4842998385429382,-0.0038741880562156,9.522821426391602,7.962636470794678,-17.416610717773438,3.59375,1,"['A/E1', 'B2', 'C1']",0,None,0,3.703273054057728,[6200|0|0]
137,13700,1.33967387676239,0.4756827056407928,0.0134515762329101,6.490560054779053,3.469505548477173,-12.693660736083984,3.6484375,1,"['A/E1', 'B2', 'C1']",0,None,0,3.723476646228898,[6200|0|0]
138,13800,1.3280102014541626,0.4577981829643249,0.0369204171001911,-1.1867667436599731,-0.0343526750802993,-7.61204719543457,3.673828125,1,"['A/E1', 'B2', 'C1']",0,None,0,3.755204929584835,[6200|0|0]
139,13900,1.3179179430007937,0.4400376975536346,0.0521900840103626,-4.216134071350098,-2.884568452835083,-4.733661651611328,3.6640625,1,"['A/E1', 'B2', 'C1']",0,None,0,3.780708875363097,[6200|0|0]
140,14000,1.3132526874542236,0.4270697832107544,0.0553640313446521,-4.460684776306152,-3.2861735820770264,-3.288945436477661,3.63671875,1,"['A/E1', 'B2', 'C1']",0,None,0,3.794851200256831,[6200|0|0]
141,14100,1.3134251832962036,0.4205200672149658,0.0493278503417968,-5.136466503143311,-2.7776639461517334,-2.7948875427246094,3.611328125,1,"['A/E1', 'B2', 'C1']",0,None,0,3.803759848613356,[6200|0|0]
142,14200,1.3187880516052246,0.4210727512836456,0.0411374829709529,-3.4793686866760254,-1.3506313562393188,-2.8388559818267822,3.611328125,1,"['A/E1', 'B2', 'C1']",0,None,0,3.813565353896056,[6200|0|0]
143,14300,1.327741026878357,0.4262259304523468,0.0354629419744014,-2.1629226207733154,-0.617088794708252,-2.949105739593506,3.611328125,1,"['A/E1', 'B2', 'C1']",0,None,0,3.825351423525394,[6200|0|0]
144,14400,1.3375862836837769,0.4333628714084625,0.033949214965105,-0.2913518249988556,0.6612589359283447,-2.2341301441192627,3.62109375,1,"['A/E1', 'B2', 'C1']",0,None,0,3.837605254650165,[6200|0|0]
145,14500,1.346834421157837,0.4409433305263519,0.037036333233118,-0.1062950268387794,2.1657776832580566,-1.172356128692627,3.626953125,1,"['A/E1', 'B2', 'C1']",0,None,0,3.8499552225196703,[6200|0|0]
146,14600,1.3532088994979858,0.4468849301338196,0.0408419035375118,0.7614880204200745,2.248368263244629,-0.2638897001743316,3.630859375,1,"['A/E1', 'B2', 'C1']",0,None,0,3.85946411022256,[6200|0|0]
147,14700,1.356802463531494,0.4512566030025482,0.0433186441659927,0.9027954936027528,1.982754230499268,0.3270184695720672,3.626953125,1,"['A/E1', 'B2', 'C1']",0,None,0,3.865641445430793,[6200|0|0]
148,14800,1.3590025901794434,0.453311413526535,0.0453984960913658,0.6495640277862549,0.9377184510231018,1.0294687747955322,3.626953125,1,"['A/E1', 'B2', 'C1']",0,None,0,3.869300487325604,[6200|0|0]
149,14900,1.3592052459716797,0.4542458951473236,0.0465468503534793,0.5371133685112,0.7735172510147095,1.2871884107589722,3.626953125,1,"['A/E1', 'B2', 'C1']",0,None,0,3.8707948242290606,[6200|0|0]
150,15000,1.3584431409835815,0.4535225033760071,0.0470819547772407,-0.1157639101147651,0.6122746467590332,1.5395547151565552,3.62109375,1,"['A/E1', 'B2', 'C1']",0,None,0,3.8719739919067138,[6200|0|0]
151,15100,1.3567981719970703,0.4528688192367553,0.0469045266509056,-0.0671615079045295,0.4478381276130676,1.655898928642273,3.62109375,1,"['A/E1', 'B2', 'C1']",0,None,0,3.873752954149289,[6200|0|0]
152,15200,1.3545434474945068,0.4519968628883362,0.0473367162048816,-0.0108265997841954,0.412441611289978,1.8755420446395876,3.62109375,1,"['A/E1', 'B2', 'C1']",0,None,0,3.876208738803239,[6200|0|0]
153,15300,1.3520680665969849,0.452024906873703,0.04761803150177,-0.2082850337028503,0.1512528657913208,1.9702733755111692,3.62109375,1,"['F1', 'B2', 'B1']",0,None,0,3.878700211329516,[6200|100|0]
154,15400,1.349851369857788,0.4518530964851379,0.0478738509118557,-0.4351141154766083,-0.3559376001358032,2.3985557556152344,3.62109375,1,"['F1', 'B2', 'B1']",0,None,0,3.8809382253629305,[6200|200|0]
155,15500,1.3480632305145264,0.4528201222419739,0.0492653250694274,-0.3179222047328949,-0.260507196187973,2.740330219268799,3.626953125,1,"['F1', 'B2', 'B1']",0,None,0,3.883401715053693,[6200|300|0]
156,15600,1.3470971584320068,0.4536639153957367,0.0496252700686454,0.0033774292096495,-0.3892770707607269,2.770552158355713,3.62109375,1,"['F1', 'B2', 'B1']",0,None,0,3.884733947224684,[6200|400|0]
157,15700,1.3462672233581543,0.4551072418689728,0.0501322448253631,-0.314606249332428,-0.4075510501861572,2.86120867729187,3.62109375,1,"['F1', 'B2', 'B1']",0,None,0,3.886474351470572,[6200|500|0]
158,15800,1.3463099002838137,0.4570403099060058,0.0502063408493995,-0.106724165380001,-0.2552200257778168,2.991374254226685,3.62109375,1,"['F1', 'B2', 'B1']",0,None,0,3.888409309758639,[6200|600|0]
159,15900,1.34636127948761,0.45916947722435,0.0496173240244388,0.0831422433257103,-0.1605993509292602,2.698748111724853,3.615234375,1,"['F1', 'B2', 'B1']",0,None,0,3.8906190459673695,[6200|700|0]
160,16000,1.3464224338531494,0.4612779319286346,0.0486227460205554,-0.6741705536842346,0.1198144406080246,2.717287302017212,3.615234375,1,"['F1', 'B2', 'B1']",0,None,0,3.892951106537392,[6200|800|0]
161,16100,1.3463770151138306,0.4650373756885528,0.0483379364013671,0.1846262663602829,-0.1030010133981704,2.7259058952331543,3.615234375,1,"['F1', 'B2', 'B1']",0,None,0,3.8967215967926574,[6200|900|0]
162,16200,1.3467835187911987,0.4688251614570617,0.0486762896180152,-0.1755504161119461,-0.2763741016387939,2.770313024520874,3.615234375,1,"['F1', 'B2', 'B1']",0,None,0,3.900546129334949,[6200|1000|0]
163,16300,1.3472988605499268,0.4729482531547546,0.050076451152563,0.1053054556250572,-0.0629967078566551,2.6779165267944336,3.615234375,1,"['F1', 'B2', 'B1']",0,None,0,3.904930865883329,[6200|1100|0]
164,16400,1.3475967645645142,0.4773733019828796,0.05098632350564,-0.0836530178785324,0.5187902450561523,2.8241450786590576,3.615234375,1,"['F1', 'B2', 'B1']",0,None,0,3.909458301319875,[6200|1200|0]
165,16500,1.3474979400634766,0.48201784491539,0.0513926669955253,-0.394574761390686,0.4415708482265472,2.7268567085266118,3.615234375,1,"['F1', 'B2', 'B1']",0,None,0,3.914121632786296,[6200|1300|0]
166,16600,1.3469220399856567,0.4881596863269806,0.0513835959136486,-0.2719065248966217,-0.2945992350578308,2.8032381534576416,3.611328125,1,"['F1', 'B2', 'B1']",0,None,0,3.9202904218983736,[6200|1400|0]
167,16700,1.34565269947052,0.4951106607913971,0.0503077395260334,-0.3524738550186157,0.3115064203739166,2.866218090057373,3.611328125,1,"['F1', 'B2', 'B1']",0,None,0,3.927437780733294,[6200|1500|0]
168,16800,1.3435673713684082,0.5039741396903992,0.0490586906671524,-0.4748454988002777,0.0881908684968948,2.694493293762207,3.611328125,1,"['F1', 'B2', 'B1']",0,None,0,3.936628535573805,[6200|1600|0]
169,16900,1.3421225547790527,0.5131641626358032,0.0477311946451664,-0.3337960243225097,-0.355403184890747,2.298863410949707,3.60546875,1,"['F1', 'B2', 'B1']",0,None,0,3.946025676756224,[6200|1700|0]
170,17000,1.339856743812561,0.5241761207580566,0.0465832352638244,0.0696749836206436,-0.0822969898581504,2.235175371170044,3.60546875,1,"['F1', 'B2', 'B1']",0,None,0,3.957326779877749,[6200|1800|0]
171,17100,1.3383402824401855,0.5348406434059143,0.0462847128510475,-0.2289876788854599,-0.1102320402860641,1.980659365653992,3.60546875,1,"['F1', 'B2', 'B1']",0,None,0,3.9681027166830343,[6200|1900|0]
172,17200,1.3367736339569092,0.5454918146133423,0.0445856899023056,-0.2276799082756042,-0.4963906407356262,1.5281003713607788,3.931640625,1,"['F1', 'B2', 'B1']",0,None,0,3.9790017310669343,[6200|2000|0]
173,17300,1.3356443643569946,0.5571323037147522,0.0061190081760287,0.0175255555659532,-3.329841375350952,0.3450196385383606,3.9375,1,"['F1', 'B2', 'B1']",0,None,0,4.019206977483043,[6200|2100|0]
174,17400,1.319798231124878,0.564473032951355,-0.0049243480898439,-1.400681972503662,16.296703338623047,-0.0194535367190837,3.943359375,1,"['F1', 'B2', 'B1']",0,None,0,4.039869551421207,[6200|2200|0]
175,17500,1.315820574760437,0.5656794905662537,-0.0040089720860123,-1.043732762336731,16.778470993041992,-1.6351964473724363,3.943359375,1,"['F1', 'B2', 'B1']",0,None,0,4.044125747299984,[6200|2300|0]
176,17600,1.3159174919128418,0.565715491771698,-0.0038522714748978,-1.0762836933135986,16.612192153930664,-1.5043137073516846,3.943359375,1,"['F1', 'B2', 'B1']",0,None,0,4.0443134814278014,[6200|2400|0]
177,17700,1.3159815073013306,0.5654410719871521,-0.0040864460170269,-1.0796968936920166,16.44054412841797,-1.3897172212600708,3.94921875,1,"['F1', 'B2', 'B1']",0,None,0,4.044679871799256,[6200|2500|0]
178,17800,1.3158377408981323,0.5656684041023254,-0.0041659483686089,-1.0641921758651731,16.274995803833008,-1.2939093112945557,3.94921875,1,"['F1', 'B2', 'B1']",0,None,0,4.044960352267712,[6200|2600|0]
179,17900,1.3159422874450684,0.5663629770278931,-0.0045209261588752,-1.052927851676941,16.134613037109375,-1.141872763633728,3.953125,1,"['F1', 'B2', 'B1']",0,None,0,4.04574735338651,[6200|2700|0]
180,18000,1.3163286447525024,0.5660683512687683,-0.0044506210833787,-0.9924352765083312,15.985915184020996,-1.0908544063568115,3.953125,1,"['F1', 'B2', 'B1']",0,None,0,4.046238290358623,[6200|2800|0]
181,18100,1.3163588047027588,0.5661841034889221,-0.0046801888383924,-0.9307263493537904,15.868627548217772,-1.0043981075286863,3.953125,1,"['F1', 'B2', 'B1']",0,None,0,4.046497152393715,[6200|2900|0]
182,18200,1.316491961479187,0.566112220287323,-0.0044373581185936,-0.8718053102493286,15.770304679870604,-0.9413881897926332,3.953125,1,"['F1', 'B2', 'B1']",0,None,0,4.046783272438904,[6200|3000|0]
183,18300,1.3165781497955322,0.5660060048103333,-0.0042123412713408,-0.8017287850379944,15.688477516174316,-0.8956219553947449,3.958984375,1,"['F1', 'B2', 'B1']",0,None,0,4.047046602526388,[6200|3100|0]
184,18400,1.3162797689437866,0.5662449598312378,-0.0045591136440634,-0.7541812062263489,15.62882137298584,-0.8455746173858643,3.958984375,1,"['F1', 'B2', 'B1']",0,None,0,4.047562724327117,[6200|3200|0]
185,18500,1.3172166347503662,0.5663490891456604,-0.0041777095757424,-0.9868749976158142,15.286069869995115,-1.0059592723846436,3.958984375,1,"['F1', 'B2', 'B1']",0,None,0,4.048579596746348,[6200|3300|0]
186,18600,1.3205056190490725,0.5692260265350342,-0.0047885007224977,-9.387179374694824,6.64499568939209,-1.5973528623580933,3.958984375,1,"['F1', 'B2', 'B1']",0,None,0,4.052991767672826,[6200|3400|0]
187,18700,1.3229364156723022,0.5711542963981628,-0.0041048498824238,-13.473260879516602,2.385587215423584,-2.6691160202026367,3.96484375,1,"['F1', 'B2', 'B1']",0,None,0,4.056168932345878,[6200|3500|0]
188,18800,1.3218812942504885,0.5696280598640442,-0.0042696236632764,-9.170483589172363,6.722954750061035,-1.8214271068573,3.96484375,1,"['F1', 'B2', 'B1']",0,None,0,4.058031680200985,[6200|3600|0]
189,18900,1.3182947635650637,0.566694974899292,-0.0041436767205595,-2.712354898452759,13.207275390625,-1.0837877988815308,3.96484375,1,"['F1', 'B2', 'B1']",0,None,0,4.062666553705228,[6200|3700|0]
190,19000,1.3165996074676514,0.5657514333724976,-0.0047612311318516,-0.3273069858551025,15.541890144348145,-0.9892755746841432,3.96484375,1,"['F1', 'B2', 'B1']",0,None,0,4.064702529701718,[6200|3800|0]
191,19100,1.3160873651504517,0.5670883059501648,-0.0045286519452929,-3.5943803787231445,12.185272216796877,0.7263957858085632,3.96484375,1,"['F1', 'B2', 'B1']",0,None,0,4.066152948109788,[6200|3900|0]
192,19200,1.3174713850021362,0.5686122179031372,-0.0044625019654631,-6.979372978210449,8.77049732208252,0.3365143835544586,3.96484375,1,"['F1', 'B2', 'B1']",0,None,0,4.068212606918936,[6200|4000|0]
193,19301,1.315269112586975,0.5656322240829468,-0.0039856163784861,-0.1789627969264984,15.459342002868652,0.8436536192893982,3.96875,1,"['F1', 'B2', 'B1']",0,None,0,4.071948619073897,[6200|4100|0]
194,19400,1.31190824508667,0.560975968837738,-0.0035942408721894,-0.176654651761055,15.536324501037598,-2.0103609561920166,3.96875,1,"['F1', 'B2', 'B1']",0,None,0,4.077704426406502,[6200|4200|0]
195,19501,1.3133134841918943,0.5540471076965332,0.0026288905646651,0.1823620051145553,24.526145935058597,-0.7515624165534973,3.96875,1,"['F1', 'B2', 'B1']",0,None,0,4.087123087592537,[6200|4300|0]
196,19601,1.3424588441848757,0.5420843362808228,0.0240733176469802,-0.3558837175369262,8.944742202758789,16.591907501220703,3.96875,1,"['F1', 'B2', 'B1']",0,None,0,4.125233760139131,[6200|4400|0]
197,19701,1.358636736869812,0.5495421290397644,0.0106806745752692,0.5573734045028687,11.831807136535645,11.948251724243164,3.96875,1,"['F1', 'B2', 'B1']",0,None,0,4.147520657029611,[6200|4500|0]
198,19801,1.3652942180633545,0.5444190502166748,0.005906521808356,0.4097765386104584,10.224214553833008,9.294496536254885,3.96875,1,"['F1', 'B2', 'B1']",0,None,0,4.157182982169648,[6200|4600|0]
199,19901,1.3724006414413452,0.5378059148788452,0.0032116952352225,1.3000030517578125,3.407306432723999,10.62220287322998,3.974609375,1,"['F1', 'B2', 'B1']",0,None,0,4.16725754928109,[6200|4700|0]
200,20001,1.3772966861724854,0.5423777103424072,0.0001365315692964,-2.6345672607421875,-3.2024383544921875,11.177239418029783,3.974609375,1,"['F1', 'B2', 'B1']",0,None,0,4.1746283836532765,[6200|4800|0]
201,20101,1.377440333366394,0.5432227253913879,-0.0002482721465639,-3.335383653640747,-3.4619741439819336,11.263955116271973,3.96875,1,"['F1', 'B2', 'B1']",0,None,0,4.175567936126033,[6200|4900|0]
202,20202,1.3779995441436768,0.5423823595046997,3.96386458305642e-05,-3.326699495315552,-3.294250965118408,9.071602821350098,3.974609375,1,"['F1', 'B2', 'B1']",0,None,0,4.176617614239225,[6200|5000|0]
203,20302,1.377713680267334,0.5423262119293213,-2.639510603330564e-05,-3.2978086471557617,-3.124985456466675,9.046387672424316,3.974609375,1,"['F1', 'B2', 'B1']",0,None,0,4.176916330094853,[6200|5100|0]
204,20402,1.3774399757385254,0.542518138885498,-0.0002404608530923,-3.2809009552001958,-2.95253586769104,9.037163734436035,3.974609375,1,"['F1', 'B2', 'B1']",0,None,0,4.177313286351462,[6200|5200|0]
205,20501,1.3773924112319946,0.5424577593803406,-0.0001897711481433,-3.249838590621948,-2.8145129680633545,9.022747039794922,3.974609375,1,"['F1', 'B2', 'B1']",0,None,0,4.177405359763001,[6200|5300|0]
206,20602,1.377627730369568,0.5422477126121521,-0.0001423215144313,-3.221017599105835,-2.6978046894073486,9.01730251312256,3.974609375,1,"['F1', 'B2', 'B1']",0,None,0,4.177724336578889,[6200|5400|0]
207,20702,1.3777379989624023,0.5427452325820923,-0.0004634684883058,-3.21418571472168,-2.5867836475372314,8.975625038146973,3.974609375,1,"['F1', 'B2', 'B1']",0,None,0,4.1783266825441645,[6200|5500|0]
208,20802,1.3773889541625977,0.5420525670051575,-0.0003782012790907,-3.171229600906372,-2.472100019454956,8.940397262573242,3.98046875,1,"['F1', 'B2', 'B1']",0,None,0,4.179106995539512,[6200|5600|0]
209,20902,1.3772914409637451,0.5423282384872437,-0.0002751578576862,-3.157010793685913,-2.3870768547058105,8.959848403930664,4.04296875,1,"['F1', 'B2', 'B1']",0,None,0,4.1794170302741485,[6200|5700|0]
210,21002,1.37704598903656,0.5420647859573364,-0.0002837573993019,-3.136932849884033,-2.256883382797241,8.951394081115723,4.04296875,1,"['F1', 'B2', 'B1']",0,None,0,4.179777207780649,[6200|5800|0]
211,21102,1.3770225048065186,0.5424740314483643,-0.0001163269407697,-3.099183797836304,-2.1122756004333496,8.932984352111816,4.046875,1,"['F1', 'B2', 'B1']",0,None,0,4.180220001569485,[6200|5900|0]
212,21200,1.3766921758651731,0.5422557592391968,-0.0001279301213799,-3.0657339096069336,-2.04376220703125,8.959531784057617,4.046875,1,"['F1', 'B2', 'B1']",0,None,0,4.180616100800216,[6200|6000|0]
213,21300,1.376673460006714,0.5423442721366882,-0.0002319402701687,-3.0603139400482178,-2.0170657634735107,8.971456527709961,4.046875,1,"['F1', 'B2', 'B1']",0,None,0,4.180753951906237,[6200|6100|0]
214,21400,1.376874566078186,0.5420987606048584,0.0002112795191351,-3.0433568954467773,-1.989220380783081,8.995159149169922,4.046875,1,"['F1', 'B2', 'B1']",0,None,0,4.181299078814282,[6200|6200|0]
215,21500,1.376970648765564,0.5420138835906982,0.0001881645293906,-3.031477689743042,-1.9668824672698972,8.990291595458984,4.046875,1,"['F1', 'B2', 'B1']",0,None,0,4.181429348891804,[6200|6300|0]
216,21600,1.3769177198410034,0.5422020554542542,-0.0002615812118165,-3.033331871032715,-1.943153023719788,8.986237525939941,4.046875,1,"['F1', 'B2', 'B1']",0,None,0,4.181919737873147,[6200|6400|0]
217,21700,1.376803994178772,0.5420321822166443,1.4196877600625156e-05,-3.0319106578826904,-1.9226285219192505,8.969001770019531,4.0546875,1,"['F1', 'B2', 'B1']",0,None,0,4.18226302200868,[6200|6500|0]
218,21800,1.3767409324645996,0.5420531034469604,-1.5782159607624635e-05,-3.029283285140991,-1.9126776456832888,8.941019058227539,4.0546875,1,"['F1', 'B2', 'B1']",0,None,0,4.182335913848719,[6200|6600|0]
219,21900,1.3766605854034424,0.5422288775444031,-0.0003976279112976,-3.0292558670043945,-1.9075835943222048,8.957724571228027,4.0546875,1,"['F1', 'B2', 'B1']",0,None,0,4.18276388389633,[6200|6700|0]
220,22000,1.3766852617263794,0.5419407486915588,8.200107549782842e-05,-3.022275924682617,-1.901108980178833,8.961785316467285,4.0546875,1,"['F1', 'B2', 'B1']",0,None,0,4.183323947394274,[6200|6800|0]
221,22100,1.376868724822998,0.5423212051391602,1.827248343033716e-05,-3.0311169624328613,-1.8950823545455933,8.93205451965332,4.0546875,1,"['F1', 'B2', 'B1']",0,None,0,4.183751109131546,[6200|6900|0]
222,22200,1.3767484426498413,0.5418555736541748,-8.476123912259936e-05,-3.011735439300537,-1.886363506317139,8.936983108520508,4.05859375,1,"['F1', 'B2', 'B1']",0,None,0,4.184242938806303,[6200|7000|0]
223,22300,1.3768457174301147,0.542472779750824,-2.585325091786217e-05,-3.016698122024536,-1.8897454738616943,8.95236587524414,4.05859375,1,"['F1', 'B2', 'B1']",0,None,0,4.184870534137462,[6200|7100|0]
224,22400,1.3766615390777588,0.5422152280807495,-0.0002411517634755,-3.012030601501465,-1.885519027709961,8.952210426330566,4.0546875,1,"['F1', 'B2', 'B1']",0,None,0,4.1852534283496725,[6200|7200|0]
225,22500,1.3770588636398315,0.5421289205551147,2.9117698431946337e-05,-3.005568742752075,-1.8912583589553835,8.927603721618652,4.05859375,1,"['F1', 'B2', 'B1']",0,None,0,4.1857416510228935,[6200|7300|0]
226,22600,1.3768481016159058,0.5419090986251831,0.0001903582015074,-3.005499839782715,-1.8840582370758057,8.929588317871094,4.05859375,1,"['F1', 'B2', 'B1']",0,None,0,4.186086238909274,[6200|7400|0]
227,22700,1.3767893314361572,0.5425058007240295,6.884787580929697e-05,-3.0181896686553955,-1.889644145965576,8.940284729003906,4.05859375,1,"['F1', 'B2', 'B1']",0,None,0,4.186698016718651,[6200|7500|0]
228,22800,1.3767023086547852,0.5421609282493591,-5.770178904640488e-05,-3.006189584732056,-1.8789830207824707,8.94316577911377,4.05859375,1,"['F1', 'B2', 'B1']",0,None,0,4.187075541295252,[6200|7600|0]
229,22900,1.3766696453094482,0.542005717754364,0.0001748717477312,-3.006309509277344,-1.8840163946151731,8.954547882080078,4.05859375,1,"['F1', 'B2', 'B1']",0,None,0,4.187357050872167,[6200|7700|0]
230,23000,1.376553297042847,0.5420224666595459,3.8553407648578286e-05,-3.0044565200805664,-1.8809603452682493,8.960198402404785,4.05859375,1,"['F1', 'B2', 'B1']",0,None,0,4.187537051246635,[6200|7800|0]
231,23100,1.3768903017044067,0.5420044660568237,0.0001027615071507,-2.999310255050659,-1.8840819597244265,8.95604419708252,4.06640625,1,"['F1', 'B2', 'B1']",0,None,0,4.187880589954284,[6200|7900|0]
232,23200,1.3765552043914795,0.5421090722084045,-0.0002604417968541,-2.997231721878052,-1.8800034523010252,8.9539794921875,4.06640625,1,"['F1', 'B2', 'B1']",0,None,0,4.188385713004758,[6200|8000|0]
233,23300,1.3769335746765137,0.5421372056007385,-6.655417382717133e-05,-3.0010056495666504,-1.8966859579086304,8.963950157165527,4.06640625,1,"['F1', 'B2', 'B1']",0,None,0,4.188811797469065,[6200|8100|0]
234,23400,1.3766026496887207,0.5422272682189941,-4.277539483155124e-05,-3.0081450939178467,-1.8844057321548464,8.937007904052734,4.06640625,1,"['F1', 'B2', 'B1']",0,None,0,4.189155582362688,[6200|8200|0]
235,23500,1.376654863357544,0.5419626832008362,-0.0001309533545281,-3.0090999603271484,-1.886772871017456,8.951532363891602,4.06640625,1,"['F1', 'B2', 'B1']",0,None,0,4.18943931965601,[6200|8300|0]
236,23600,1.377070665359497,0.5424016118049622,-0.0001146588256233,-3.02323317527771,-1.9066736698150637,8.979568481445312,4.06640625,1,"['F1', 'B2', 'B1']",0,None,0,4.190044146189837,[6200|8400|0]
237,23700,1.3766545057296753,0.5424032807350159,-0.0001560155069455,-3.034744501113892,-1.8898929357528689,8.953185081481934,4.0703125,1,"['F1', 'B2', 'B1']",0,None,0,4.190462359051799,[6200|8500|0]
238,23800,1.3767664432525637,0.5420923233032227,-4.100338992429897e-05,-3.03040623664856,-1.889425277709961,8.946996688842773,4.0703125,1,"['F1', 'B2', 'B1']",0,None,0,4.190812290931569,[6200|8600|0]
239,23900,1.376964807510376,0.542262077331543,-0.0001945837429957,-3.0364925861358643,-1.8976366519927976,8.938026428222656,4.06640625,1,"['F1', 'B2', 'B1']",0,None,0,4.191115196418079,[6200|8700|0]
240,24000,1.376630187034607,0.542194128036499,0.0001052905572578,-3.0347468852996826,-1.8888893127441408,8.916797637939453,4.0703125,1,"['F1', 'B2', 'B1']",0,None,0,4.191569632954301,[6200|8800|0]
241,24100,1.3767588138580322,0.5424342751502991,1.451271600672044e-05,-3.031469345092773,-1.894115686416626,8.938329696655273,4.0703125,1,"['F1', 'B2', 'B1']",0,None,0,4.191856784678017,[6200|8900|0]
242,24200,1.3768203258514404,0.541836678981781,0.000155768924742,-3.008523464202881,-1.8976330757141116,8.960943222045898,4.0703125,1,"['F1', 'B2', 'B1']",0,None,0,4.1924739217960605,[6200|9000|0]
243,24300,1.3768227100372314,0.5418840646743774,6.280637899180874e-05,-3.01377534866333,-1.895447850227356,8.939855575561523,4.0703125,1,"['F1', 'B2', 'B1']",0,None,0,4.192578291921658,[6200|9100|0]
244,24400,1.3768590688705444,0.5424515604972839,-0.0001369094970868,-3.0250840187072754,-1.901401400566101,8.95510196685791,4.0703125,1,"['F1', 'B2', 'B1']",0,None,0,4.193181002386917,[6200|9200|0]
245,24500,1.3766299486160278,0.5422512292861938,-0.0002066144515993,-3.025277137756348,-1.8953195810317995,8.951845169067383,4.0703125,1,"['F1', 'B2', 'B1']",0,None,0,4.19349323221549,[6200|9300|0]
246,24600,1.3766077756881714,0.5424165725708008,2.468124876031652e-05,-3.025446891784668,-1.8967126607894895,8.967452049255371,4.0703125,1,"['F1', 'B2', 'B1']",0,None,0,4.193778412406771,[6200|9400|0]
247,24700,1.3768280744552612,0.5422840118408203,-0.0002223567862529,-3.0198495388031006,-1.8960192203521729,8.971657752990723,4.07421875,1,"['F1', 'B2', 'B1']",0,None,0,4.194134967710556,[6200|9500|0]
248,24800,1.376712679862976,0.5422939658164978,0.0001615131332073,-3.013996124267578,-1.8956879377365112,8.96982479095459,4.07421875,1,"['F1', 'B2', 'B1']",0,None,0,4.194535930437785,[6200|9600|0]
249,24900,1.3768502473831177,0.5420953035354614,-0.0002524898445699,-3.009556531906128,-1.9004933834075928,8.935208320617676,4.07421875,1,"['F1', 'B2', 'B1']",0,None,0,4.195015294589671,[6200|9700|0]
250,25000,1.3765069246292114,0.5421772003173828,7.885436207288876e-05,-3.0119168758392334,-1.8914060592651367,8.934231758117676,4.07421875,1,"['F1', 'B2', 'B1']",0,None,0,4.195499408811228,[6200|9800|0]
251,25100,1.3767927885055542,0.5423455834388733,-0.0001199360049213,-3.008687973022461,-1.899299383163452,8.944994926452637,4.07421875,1,"['F1', 'B2', 'B1']",0,None,0,4.195886175719599,[6200|9900|0]
252,25200,1.3768726587295532,0.5423524975776672,-0.0002145271573681,-3.0100433826446533,-1.8988494873046875,8.940043449401855,4.07421875,1,"['F1', 'B2', 'B1']",0,None,0,4.196010169848968,[6200|10000|0]
253,25300,1.3771538734436035,0.5423970818519592,-0.0002726834500208,-3.009807109832764,-1.9040758609771729,8.958114624023438,4.07421875,1,"['F1', 'B2', 'B1']",0,None,0,4.1963007754705375,[6200|10100|0]
254,25400,1.3768682479858398,0.5418597459793091,-1.848640567914117e-05,-3.0050203800201416,-1.897713541984558,8.945101737976074,4.07421875,1,"['F1', 'B2', 'B1']",0,None,0,4.196960266091783,[6200|10200|0]
255,25500,1.3765723705291748,0.5424202084541321,-0.0002209733793279,-3.0227081775665283,-1.886391878128052,8.96196174621582,4.07421875,1,"['F1', 'B2', 'B1']",0,None,0,4.197625595055188,[6200|10300|0]
256,25600,1.376593828201294,0.5422208905220032,-7.83267169026658e-05,-3.0101921558380127,-1.8997480869293213,8.97583293914795,4.07421875,1,"['F1', 'B2', 'B1']",0,None,0,4.197871635986868,[6200|10400|0]
257,25700,1.376628875732422,0.5422986149787903,0.0001040654751705,-3.012383460998535,-1.9060598611831665,8.988086700439453,4.08203125,1,"['F1', 'B2', 'B1']",0,None,0,4.1980729723530565,[6200|10500|0]
258,25800,1.3765958547592163,0.5424512028694153,7.928928243927658e-05,-3.0167112350463867,-1.90622079372406,8.975488662719727,4.08203125,1,"['F1', 'B2', 'B1']",0,None,0,4.198231046097756,[6200|10600|0]
259,25900,1.3767699003219604,0.5420425534248352,0.000253972277278,-3.003222942352295,-1.908298134803772,8.991079330444336,4.08203125,1,"['F1', 'B2', 'B1']",0,None,0,4.198708330473314,[6200|10700|0]
260,26000,1.3767902851104736,0.5423058271408081,0.0001186323206638,-3.0126848220825195,-1.905473709106445,8.999004364013672,4.08203125,1,"['F1', 'B2', 'B1']",0,None,0,4.199005055081295,[6200|10800|0]
261,26100,1.3767331838607788,0.5423439741134644,-1.400999644829426e-05,-3.0119659900665283,-1.9000080823898315,9.022217750549316,4.08203125,1,"['F1', 'B2', 'B1']",0,None,0,4.199154419496496,[6200|10900|0]
262,26200,1.3770771026611328,0.5421004295349121,1.3131939340382814e-05,-3.0023701190948486,-1.9111852645874023,9.008087158203123,4.08203125,1,"['F1', 'B2', 'B1']",0,None,0,4.199576711797702,[6200|11000|0]
263,26300,1.376978039741516,0.5422950387001038,-0.0002235694264527,-3.009004831314087,-1.9126317501068115,9.007322311401367,4.08203125,1,"['F1', 'B2', 'B1']",0,None,0,4.19989875795245,[6200|11100|0]
264,26400,1.3767739534378052,0.5420968532562256,0.0002284233050886,-3.0076353549957275,-1.9021393060684204,9.006580352783203,4.08203125,1,"['F1', 'B2', 'B1']",0,None,0,4.20043282360281,[6200|11200|0]
265,26500,1.376609444618225,0.5421295762062073,3.7893587432336062e-06,-3.015393018722534,-1.8959455490112305,8.985420227050781,4.08203125,1,"['F1', 'B2', 'B1']",0,None,0,4.200713170446962,[6200|11300|0]
266,26600,1.3767893314361572,0.5424004793167114,0.0002581001317594,-3.018545150756836,-1.8974183797836304,8.987032890319824,4.08203125,1,"['F1', 'B2', 'B1']",0,None,0,4.201125992117685,[6200|11400|0]
267,26700,1.3765497207641602,0.5424805879592896,-8.209740917664021e-05,-3.020995855331421,-1.894565224647522,8.995763778686523,4.08203125,1,"['F1', 'B2', 'B1']",0,None,0,4.201549743265895,[6200|11500|0]
268,26800,1.3767160177230835,0.5422937273979187,-1.3086873877909966e-05,-3.01327919960022,-1.8945614099502563,9.003058433532715,4.08203125,1,"['F1', 'B2', 'B1']",0,None,0,4.201809231226936,[6200|11600|0]
269,26900,1.3768346309661863,0.5418606996536255,7.509925490012392e-05,-3.002981185913086,-1.8926262855529783,9.001726150512695,4.08203125,1,"['F1', 'B2', 'B1']",0,None,0,4.2022667887884255,[6200|11700|0]
270,27000,1.3768229484558103,0.5423468947410583,1.1730837286449969e-05,-3.011927604675293,-1.8899304866790767,8.996559143066406,4.0859375,1,"['F1', 'B2', 'B1']",0,None,0,4.202757235218164,[6200|11800|0]
271,27100,1.3769679069519043,0.5425312519073486,7.054582965793088e-05,-3.0180864334106445,-1.8899542093276975,9.001811981201172,4.0859375,1,"['F1', 'B2', 'B1']",0,None,0,4.202999019695913,[6200|11900|0]
272,27200,1.376729130744934,0.5421614050865173,-0.0001203633000841,-3.012209177017212,-1.8830130100250244,8.985624313354492,4.0859375,1,"['F1', 'B2', 'B1']",0,None,0,4.203478860339994,[6200|12000|0]
273,27300,1.3768407106399536,0.5422726273536682,-5.653650077874772e-05,-3.0119144916534424,-1.8866289854049685,8.976651191711426,4.0859375,1,"['F1', 'B2', 'B1']",0,None,0,4.203648843650917,[6200|12100|0]
274,27400,1.3767696619033811,0.5419728755950928,0.0002910837356466,-3.0028467178344727,-1.882913947105408,8.987873077392578,4.0859375,1,"['F1', 'B2', 'B1']",0,None,0,4.204113320634749,[6200|12200|0]
275,27500,1.3765867948532104,0.542502760887146,-0.0002032847405644,-3.0171120166778564,-1.8713722229003904,8.964761734008789,4.0859375,1,"['F1', 'B2', 'B1']",0,None,0,4.20486072880372,[6200|12300|0]
276,27600,1.3768254518508911,0.542027473449707,0.0001219634432345,-3.000344753265381,-1.87052321434021,8.977438926696777,4.0859375,1,"['F1', 'B2', 'B1']",0,None,0,4.205484140138068,[6200|12400|0]
277,27700,1.3767728805541992,0.5421873331069946,-4.134357368457131e-05,-3.005432605743408,-1.8718295097351076,8.97625732421875,4.0859375,1,"['F1', 'B2', 'B1']",0,None,0,4.205718635411024,[6200|12500|0]
278,27800,1.376917004585266,0.5424036979675293,-0.0001517198397777,-3.0091917514801025,-1.8705378770828247,8.95221996307373,4.0859375,1,"['F1', 'B2', 'B1']",0,None,0,4.206001068428432,[6200|12600|0]
279,27900,1.376754879951477,0.5421274304389954,-0.0002053214993793,-3.0022213459014893,-1.8787866830825808,8.980677604675293,4.0859375,1,"['F1', 'B2', 'B1']",0,None,0,4.206325847248731,[6200|12700|0]
280,28000,1.3767834901809692,0.5423340201377869,8.844875992508605e-05,-3.006032943725586,-1.881602644920349,8.975729942321777,4.08984375,1,"['F1', 'B2', 'B1']",0,None,0,4.2066861232736485,[6200|12800|0]
281,28100,1.3770208358764648,0.5421315431594849,8.94708136911504e-05,-3.001373529434204,-1.889665007591248,8.957718849182129,4.08984375,1,"['F1', 'B2', 'B1']",0,None,0,4.206998102360298,[6200|12900|0]
282,28200,1.3770289421081543,0.5421437621116638,0.0002293942379765,-3.0048768520355225,-1.886674404144287,8.955207824707031,4.08984375,1,"['F1', 'B2', 'B1']",0,None,0,4.207138792013252,[6200|13000|0]
283,28300,1.3767330646514893,0.5421960353851318,0.0003026890917681,-3.0032401084899902,-1.8872661590576167,8.942601203918457,4.08984375,1,"['F1', 'B2', 'B1']",0,None,0,4.207448062283524,[6200|13100|0]
284,28400,1.3766953945159912,0.5423784852027893,-0.0002221072354586,-3.005067586898804,-1.8894470930099487,8.934550285339355,4.0859375,1,"['F1', 'B2', 'B1']",0,None,0,4.208004944820638,[6200|13200|0]
285,28500,1.3768190145492554,0.5422139167785645,0.0002991964574903,-3.001371145248413,-1.8932886123657229,8.917692184448242,4.0859375,1,"['F1', 'B2', 'B1']",0,None,0,4.208565410893793,[6200|13300|0]
286,28600,1.376930832862854,0.5424432754516602,-0.0002039679820882,-3.007269382476806,-1.900657296180725,8.93467903137207,4.08984375,1,"['F1', 'B2', 'B1']",0,None,0,4.209129576817468,[6200|13400|0]
287,28700,1.376943588256836,0.5422081351280212,0.0002379977959208,-3.001950263977051,-1.9011032581329343,8.926344871520996,4.08984375,1,"['F1', 'B2', 'B1']",0,None,0,4.209630363619219,[6200|13500|0]
288,28800,1.377022624015808,0.5419555902481079,0.000640515005216,-2.996175765991211,-1.9028648138046265,8.961522102355957,4.08984375,1,"['F1', 'B2', 'B1']",0,None,0,4.210112074810023,[6200|13600|0]
289,28900,1.376826286315918,0.5421879887580872,0.0004061990475747,-3.0069024562835693,-1.898683190345764,8.965824127197266,4.08984375,1,"['F1', 'B2', 'B1']",0,None,0,4.210496082007669,[6200|13700|0]
290,29000,1.3767496347427368,0.5423606634140015,2.3307366063818336e-05,-3.015865564346313,-1.9017119407653809,8.960854530334473,4.08984375,1,"['F1', 'B2', 'B1']",0,None,0,4.210923045753479,[6200|13800|0]
291,29100,1.3768951892852783,0.5425900816917419,-7.455477316398174e-05,-3.0169246196746826,-1.912653923034668,8.985610961914062,4.08984375,1,"['F1', 'B2', 'B1']",0,None,0,4.21121182918325,[6200|13900|0]
292,29200,1.3768041133880615,0.5421948432922363,0.0001841672201408,-3.003910779953003,-1.912036180496216,8.997030258178711,4.08984375,1,"['F1', 'B2', 'B1']",0,None,0,4.211692916785789,[6200|14000|0]
293,29300,1.3766872882843018,0.5421843528747559,2.7770052838604897e-05,-3.0065085887908936,-1.9022009372711184,8.98584270477295,4.08984375,1,"['F1', 'B2', 'B1']",0,None,0,4.211888411613515,[6200|14100|0]
294,29400,1.3766995668411257,0.5420699119567871,0.0003807861940003,-3.0036749839782715,-1.9030940532684328,8.984965324401855,4.08984375,1,"['F1', 'B2', 'B1']",0,None,0,4.21225971725929,[6200|14200|0]
295,29500,1.3768339157104492,0.5421890616416931,0.0003619675990194,-3.0038058757781982,-1.9060380458831787,9.027288436889648,4.08984375,1,"['F1', 'B2', 'B1']",0,None,0,4.212440273083397,[6200|14300|0]
296,29600,1.3769172430038452,0.5425346493721008,5.829301517223939e-05,-3.0140573978424072,-1.9054986238479612,9.013848304748535,4.08984375,1,"['F1', 'B2', 'B1']",0,None,0,4.212907811926818,[6200|14400|0]
297,29700,1.3768457174301147,0.5424101948738098,0.000137757815537,-3.009315013885498,-1.891201138496399,9.022600173950195,4.08984375,1,"['F1', 'B2', 'B1']",0,None,0,4.213071883509791,[6200|14500|0]
298,29800,1.376821994781494,0.5421914458274841,-0.0001125803173636,-3.00762152671814,-1.8884413242340088,9.017526626586914,4.09765625,1,"['F1', 'B2', 'B1']",0,None,0,4.2134051748089725,[6200|14600|0]
