,time.ms,stateEstimate.x,stateEstimate.y,stateEstimate.z,stabilizer.roll,stabilizer.pitch,stabilizer.yaw,pm.vbat,drone_id,node_name,wind_speed,global_wind_direction,relative_wind_direction,travel_dist,waiting_time
0,0,1.857560873031616,-0.1433127522468567,0.0,-0.1901054978370666,0.6576672196388245,-2.901805877685547,4.13671875,0,B1,6.1,0,450.0,0.0,[6200|0|0|0]
1,100,1.8576695919036863,-0.1432752609252929,0.0,-0.1911673098802566,0.6604087948799133,-2.9205586910247803,4.13671875,0,B1,6.1,0,450.0,0.0001150017057996,[6300|0|0|0]
2,200,1.857558965682984,-0.1435647159814834,0.0,-0.1820279657840728,0.6625921130180359,-2.9165585041046143,4.13671875,0,B1,6.1,0,450.0,0.0004248765035182,[6400|0|0|0]
3,300,1.857595682144165,-0.1434126794338226,0.0,-0.1919120401144027,0.6573249101638794,-2.9148366451263428,4.13671875,0,B1,6.1,0,450.0,0.0005812836975543,[6500|0|0|0]
4,400,1.8575096130371087,-0.1433298587799072,0.0,-0.1984025985002517,0.6518790125846863,-2.9162139892578125,4.13671875,0,B1,6.1,0,450.0,0.0007007288812348,[6600|0|0|0]
5,500,1.857560157775879,-0.1430233269929886,0.0,-0.2076040059328079,0.6511361598968506,-2.94230055809021,4.13671875,0,B1,6.1,0,450.0,0.0010113999404097,[6700|0|0|0]
6,600,1.857680320739746,-0.1433910429477691,0.0,-0.2012155205011367,0.6466684341430664,-2.9246184825897217,4.13671875,0,B1,6.1,0,450.0,0.001398251541525,[6800|0|0|0]
7,700,1.8576536178588867,-0.1430259048938751,0.0,-0.2121755480766296,0.64616858959198,-2.929687023162842,4.13671875,0,B1,6.1,0,450.0,0.0017643646965027,[6900|0|0|0]
8,800,1.8576020002365112,-0.143314778804779,0.0,-0.2048726677894592,0.6498247385025024,-2.917355537414551,4.13671875,0,B1,6.1,0,450.0,0.0020578140368335,[7000|0|0|0]
9,900,1.8574471473693848,-0.1431160271167755,0.0,-0.2113116532564163,0.6538125276565552,-2.933180809020996,4.13671875,0,B1,6.1,0,450.0,0.0023097696756701,[7100|0|0|0]
10,1000,1.857667326927185,-0.1433084607124328,0.0,-0.2118885964155197,0.6460704803466797,-2.926924228668213,4.13671875,0,B1,6.1,0,450.0,0.0026021901373528,[7200|0|0|0]
11,1100,1.857592225074768,-0.1431588381528854,0.0,-0.2156265079975128,0.649509608745575,-2.9526891708374023,4.13671875,0,B1,6.1,0,450.0,0.0027696033941814,[7300|0|0|0]
12,1200,1.8577638864517207,-0.1433613896369934,0.0,-0.2085991501808166,0.6490248441696167,-2.9466488361358643,4.13671875,0,B1,6.1,0,450.0,0.0030351118348225,[7400|0|0|0]
13,1300,1.8573585748672483,-0.1430693566799163,0.0,-0.2118044048547744,0.6617396473884583,-2.922351121902466,4.13671875,0,B1,6.1,0,450.0,0.0035346723702201,[7500|0|0|0]
14,1400,1.8575776815414429,-0.1432522535324096,0.0,-0.2059148848056793,0.6491705179214478,-2.900651693344116,4.13671875,0,B1,6.1,0,450.0,0.0038200825896036,[7600|0|0|0]
15,1500,1.8575294017791748,-0.1430966109037399,0.0,-0.211742490530014,0.6506043076515198,-2.908003807067871,4.13671875,0,B1,6.1,0,450.0,0.0039830413675319,[7700|0|0|0]
16,1600,1.8575758934021,-0.1432484835386276,0.0,-0.2057167589664459,0.6527682542800903,-2.8939526081085205,4.13671875,0,B1,6.1,0,450.0,0.0041418707358174,[7800|0|0|0]
17,1700,1.8576109409332275,-0.1433524340391159,0.0,-0.201650395989418,0.6475638747215271,-2.899443864822388,4.13671875,0,B1,6.1,0,450.0,0.0042515704896453,[7900|0|0|0]
18,1800,1.8573637008666992,-0.1431407630443573,0.0,-0.2082534730434417,0.6591365933418274,-2.900243043899536,4.13671875,0,B1,6.1,0,450.0,0.0045770428548609,[8000|0|0|0]
19,1900,1.8573278188705444,-0.1430545896291732,0.0,-0.2052642405033111,0.6540392637252808,-2.9170377254486084,4.13671875,0,B1,6.1,0,450.0,0.0046703883160925,[8100|0|0|0]
20,2000,1.8575584888458248,-0.1429411768913269,0.0,-0.2029498070478439,0.6460714936256409,-2.9139716625213623,4.13671875,0,B1,6.1,0,450.0,0.0049274312825429,[8200|0|0|0]
21,2100,1.857612490653992,-0.1430845409631729,0.0,-0.1947758048772812,0.6437353491783142,-2.886988639831543,4.13671875,0,B1,6.1,0,450.0,0.0050806287119651,[8300|0|0|0]
22,2200,1.857290744781494,-0.1432166695594787,0.0,-0.1891289800405502,0.654910683631897,-2.89614486694336,4.13671875,0,B1,6.1,0,450.0,0.00542844816575,[8400|0|0|0]
23,2300,1.8574354648590088,-0.1431488692760467,0.0,-0.1924400627613067,0.6605576276779175,-2.9140625,4.13671875,0,B1,6.1,0,450.0,0.0055882629938148,[8500|0|0|0]
24,2400,1.8574838638305664,-0.1433698087930679,0.0,-0.1857099831104278,0.6618840098381042,-2.929806709289551,4.13671875,0,B1,6.1,0,450.0,0.005814441530881,[8600|0|0|0]
25,2500,1.8575266599655151,-0.1434202492237091,0.0,-0.1911121308803558,0.6698279976844788,-2.9243412017822266,4.13671875,0,B1,6.1,0,450.0,0.0058805909542331,[8700|0|0|0]
26,2600,1.8574748039245603,-0.1431067436933517,0.0,-0.2041762471199035,0.6691506505012512,-2.934814691543579,4.13671875,0,B1,6.1,0,450.0,0.0061983562238083,[8800|0|0|0]
27,2700,1.8574367761611936,-0.1428215503692627,0.0,-0.2135590463876724,0.6663209795951843,-2.924402475357056,4.13671875,0,B1,6.1,0,450.0,0.0064860736944138,[8900|0|0|0]
28,2800,1.857523322105408,-0.1434080153703689,0.0,-0.1979465633630752,0.6705437898635864,-2.928349256515503,4.13671875,0,B1,6.1,0,450.0,0.0070788901904583,[9000|0|0|0]
29,2900,1.8576970100402832,-0.1431358158588409,0.0,-0.2073110044002533,0.6640470623970032,-2.9771265983581543,4.13671875,0,B1,6.1,0,450.0,0.0074017834743731,[9100|0|0|0]
30,3000,1.857695698738098,-0.1436243802309036,0.0,-0.1924090534448623,0.6684490442276001,-2.9638566970825195,4.13671875,0,B1,6.1,0,450.0,0.007890349606194,[9200|0|0|0]
31,3100,1.857397437095642,-0.1432884782552719,0.0,-0.2052315324544906,0.6797480583190918,-2.97462010383606,4.13671875,0,B1,6.1,0,450.0,0.0083395601855371,[9300|0|0|0]
32,3200,1.8574854135513303,-0.1428781747817993,0.0,-0.214283749461174,0.6756240129470825,-2.963965654373169,4.13671875,0,B1,6.1,0,450.0,0.0087591895423499,[9400|0|0|0]
33,3300,1.8574875593185425,-0.1432295143604278,0.0,-0.2001623064279556,0.6741827726364136,-2.9589405059814453,4.13671875,0,B1,6.1,0,450.0,0.0091105356734341,[9500|0|0|0]
34,3400,1.8574622869491573,-0.1431580483913421,0.0,-0.2031304836273193,0.6753762364387512,-2.965400695800781,4.13671875,0,B1,6.1,0,450.0,0.0091863385585487,[9600|0|0|0]
35,3500,1.8574403524398804,-0.1434073746204376,0.0,-0.2006684094667434,0.6798521876335144,-2.954994201660156,4.13671875,0,B1,6.1,0,450.0,0.0094366277736823,[9700|0|0|0]
36,3600,1.8575828075408936,-0.1431580930948257,0.0,-0.2097103744745254,0.6785510778427124,-2.939023017883301,4.13671875,0,B1,6.1,0,450.0,0.0097237422714285,[9800|0|0|0]
37,3700,1.857538819313049,-0.1431927680969238,0.0,-0.2074584662914276,0.6778214573860168,-2.9366254806518555,4.13671875,0,B1,6.1,0,450.0,0.0097797540555405,[9900|0|0|0]
38,3800,1.8575884103775024,-0.143242210149765,0.0,-0.2047256976366043,0.6804778575897217,-2.967085838317871,4.13671875,0,B1,6.1,0,450.0,0.0098497811236125,[10000|0|0|0]
39,3900,1.8575695753097528,-0.1433487087488174,0.0,-0.2010737359523773,0.6822537779808044,-2.9892289638519287,4.13671875,0,B1,6.1,0,450.0,0.0099579324591441,[10100|0|0|0]
40,4000,1.8575390577316284,-0.143161654472351,0.0,-0.2041042149066925,0.6841225624084473,-2.9792914390563965,4.13671875,0,B1,6.1,0,450.0,0.0101474598316234,[10200|0|0|0]
41,4100,1.857489824295044,-0.1429610848426818,0.0,-0.2068785429000854,0.6863057017326355,-2.971455812454224,4.13671875,0,B1,6.1,0,450.0,0.0103539836985821,[10300|0|0|0]
42,4200,1.8575268983840945,-0.1433817744255066,0.0,-0.1888586580753326,0.6815513372421265,-2.9637796878814697,4.13671875,0,B1,6.1,0,450.0,0.0107763037350192,[10400|0|0|0]
43,4300,1.8576836585998533,-0.1434085071086883,0.0,-0.18975131213665,0.6777886748313904,-2.9667680263519287,4.13671875,0,B1,6.1,0,450.0,0.0109353270087713,[10500|0|0|0]
44,4400,1.8575968742370603,-0.143052875995636,0.0,-0.1979119181632995,0.6816195845603943,-2.940711736679077,4.13671875,0,B1,6.1,0,450.0,0.0113013939619318,[10600|0|0|0]
45,4500,1.857782244682312,-0.1431602090597152,0.0,-0.1941054612398147,0.6732295155525208,-2.9461538791656494,4.13671875,0,B1,6.1,0,450.0,0.0115155961762468,[10700|0|0|0]
46,4600,1.8577725887298584,-0.1434363424777984,0.0,-0.1889890879392624,0.6720055937767029,-2.954666376113892,4.13671875,0,B1,6.1,0,450.0,0.0117918983695065,[10800|0|0|0]
47,4700,1.857754826545716,-0.1432923376560211,0.0,-0.1913330405950546,0.6769458055496216,-2.943615674972534,4.13671875,0,B1,6.1,0,450.0,0.0119369944889605,[10900|0|0|0]
48,4800,1.857633709907532,-0.1435133069753646,0.0,-0.1888869851827621,0.6762134432792664,-2.928452968597412,4.13671875,0,B1,6.1,0,450.0,0.0121889799650026,[11000|0|0|0]
49,4900,1.857250690460205,-0.1434187740087509,0.0,-0.1980236172676086,0.681172788143158,-2.935712575912476,4.13671875,0,B1,6.1,0,450.0,0.0125834928023189,[11100|0|0|0]
50,5000,1.8575773239135744,-0.1435077488422393,0.0,-0.1946264505386352,0.6704283952713013,-2.932406187057495,4.13671875,0,B1,6.1,0,450.0,0.012922027784048,[11200|0|0|0]
51,5100,1.857322573661804,-0.143365278840065,0.0,-0.195617213845253,0.6675043106079102,-2.924222946166992,4.13671875,0,B1,6.1,0,450.0,0.013213910281462,[11300|0|0|0]
52,5200,1.8574705123901367,-0.1431411057710647,0.0,-0.2026681900024414,0.6662824153900146,-2.9481773376464844,4.13671875,0,B1,6.1,0,450.0,0.0134824981296713,[11400|0|0|0]
53,5300,1.8575361967086792,-0.143411710858345,0.0,-0.1944284737110138,0.6710574626922607,-2.934620380401612,4.13671875,0,B1,6.1,0,450.0,0.0137609609511832,[11500|0|0|0]
54,5400,1.8574491739273071,-0.1431634128093719,0.0,-0.2038839906454086,0.6762145161628723,-2.930298089981079,4.13671875,0,B1,6.1,0,450.0,0.0140240671761221,[11600|0|0|0]
55,5500,1.8573980331420896,-0.1434461325407028,0.0,-0.1967002302408218,0.668212890625,-2.9291698932647705,4.13671875,0,B1,6.1,0,450.0,0.0143113750708909,[11700|0|0|0]
56,5600,1.8574975728988647,-0.1433951556682586,0.0,-0.1993599981069564,0.664526641368866,-2.922865152359009,4.13671875,0,B1,6.1,0,450.0,0.0144232088971826,[11800|0|0|0]
57,5700,1.8575748205184937,-0.1430734992027282,0.0,-0.2043384462594986,0.6622441411018372,-2.94736647605896,4.13671875,0,B1,6.1,0,450.0,0.0147540110685114,[11900|0|0|0]
58,5800,1.8574230670928955,-0.1434118002653122,0.0,-0.1935954838991165,0.6633958220481873,-2.9353954792022705,4.13671875,0,B1,6.1,0,450.0,0.0151247895888254,[12000|0|0|0]
59,5900,1.8576563596725464,-0.1431169956922531,0.0,-0.2025059461593628,0.6574658155441284,-2.92749547958374,4.13671875,0,B1,6.1,0,450.0,0.0155007352817343,[12100|0|0|0]
60,6000,1.8573073148727417,-0.1430541574954986,0.0,-0.1985509395599365,0.668265700340271,-2.9230525493621826,4.13671875,0,B1,6.1,0,450.0,0.0158553913281258,[12200|0|0|0]
61,6100,1.8575519323349,-0.1431935727596283,0.0,-0.1946913599967956,0.6590644717216492,-2.929615497589112,4.13671875,0,B1,6.1,0,450.0,0.0161369482826928,[12300|0|0|0]
62,6200,1.8575193881988523,-0.1432059556245803,0.0,-0.1930489391088485,0.6661940217018127,-2.9028351306915283,4.13671875,0,B1,6.1,0,450.0,0.0161717686235226,[12400|0|0|0]
63,6300,1.8574836254119875,-0.1434592008590698,0.0,-0.1850447952747345,0.6748392581939697,-2.902099132537842,4.13671875,0,B1,6.1,0,450.0,0.0164275265671255,[12500|0|0|0]
64,6400,1.857642650604248,-0.1433262526988983,0.0,-0.1917656809091568,0.6699941754341125,-2.91855788230896,4.13671875,0,B1,6.1,0,450.0,0.016634804701685,[12600|0|0|0]
65,6500,1.857512593269348,-0.1434073448181152,0.0,-0.1899978369474411,0.6753259301185608,-2.9284846782684326,4.13671875,0,B1,6.1,0,450.0,0.0167880719263628,[12700|0|0|0]
66,6600,1.8575124740600584,-0.1431844383478164,0.0,-0.1965555101633072,0.6725410223007202,-2.9300365447998047,4.13671875,0,B1,6.1,0,450.0,0.0170109784285378,[12800|0|0|0]
67,6700,1.8576319217681885,-0.1432708203792572,0.0,-0.1963387876749038,0.6736533641815186,-2.9177613258361816,4.13671875,0,B1,6.1,0,450.0,0.0171583880969228,[12900|0|0|0]
68,6800,1.8577057123184204,-0.1430557817220688,0.0,-0.2013453543186187,0.6707376837730408,-2.907139778137207,4.13671875,0,B1,6.1,0,450.0,0.0173857351210708,[13000|0|0|0]
69,6900,1.8575412034988403,-0.1433426439762115,0.0,-0.1976262331008911,0.6764259934425354,-2.912001371383667,4.13671875,0,B1,6.1,0,450.0,0.0177164209305206,[13100|0|0|0]
70,7000,1.857552528381348,-0.1430824995040893,0.0,-0.2059659510850906,0.6702722311019897,-2.9191091060638428,4.13671875,0,B1,6.1,0,450.0,0.017976811789307,[13200|0|0|0]
71,7100,1.857577919960022,-0.1435526311397552,0.0,-0.193552166223526,0.6675571203231812,-2.910694599151612,4.13671875,0,B1,6.1,0,450.0,0.0184476286189992,[13300|0|0|0]
72,7200,1.8575451374053955,-0.1436686068773269,0.0,-0.1974349021911621,0.6616303324699402,-2.921417713165283,4.13671875,0,B1,6.1,0,450.0,0.0185681486073545,[13400|0|0|0]
73,7300,1.8575751781463623,-0.1433995962142944,0.0,-0.2025792896747589,0.6548739075660706,-2.915956735610962,4.13671875,0,B1,6.1,0,450.0,0.0188388314160864,[13500|0|0|0]
74,7400,1.8577715158462524,-0.1432060599327087,0.0,-0.2065771520137787,0.6530176997184753,-2.938615083694458,4.13671875,0,B1,6.1,0,450.0,0.0191145210689357,[13600|0|0|0]
75,7500,1.857471704483032,-0.1433711051940918,0.0,-0.1997809261083603,0.6655991673469543,-2.9331207275390625,4.13671875,0,B1,6.1,0,450.0,0.0194567589859191,[13700|0|0|0]
76,7600,1.8574663400650024,-0.1434378176927566,0.0,-0.1993797570466995,0.6598819494247437,-2.922663450241089,4.13671875,0,B1,6.1,0,450.0,0.0195236868161461,[13800|0|0|0]
77,7700,1.8576489686965945,-0.1434903442859649,0.0,-0.1921443790197372,0.6559814214706421,-2.914705991744995,4.13671875,0,B1,6.1,0,450.0,0.0197137190767527,[13900|0|0|0]
78,7800,1.857603669166565,-0.1434375941753387,0.0,-0.189770832657814,0.654933750629425,-2.916801929473877,4.13671875,0,B1,6.1,0,450.0,0.0197832505199419,[14000|0|0|0]
79,7900,1.8576245307922363,-0.1430752277374267,0.0,-0.1990636438131332,0.6531171798706055,-2.918078899383545,4.13671875,0,B1,6.1,0,450.0,0.0201462169684611,[14100|0|0|0]
80,8000,1.8574227094650269,-0.1433094888925552,0.0,-0.1898148357868194,0.6564574241638184,-2.9296555519104004,4.13671875,0,B1,6.1,0,450.0,0.0204554258572705,[14200|0|0|0]
81,8100,1.8574020862579343,-0.1430351734161377,0.0,-0.1981404721736908,0.6626370549201965,-2.932464599609375,4.13671875,0,B1,6.1,0,450.0,0.0207305154740737,[14300|0|0|0]
82,8200,1.8576215505599976,-0.1433187872171402,0.0,-0.1896564215421676,0.6562665104866028,-2.9501681327819824,4.13671875,0,B1,6.1,0,450.0,0.0210891258029813,[14400|0|0|0]
83,8300,1.8577263355255127,-0.1432684808969497,0.0,-0.191830039024353,0.6557829976081848,-2.947279453277588,4.13671875,0,B1,6.1,0,450.0,0.0212053609734294,[14500|0|0|0]
84,8400,1.8575581312179563,-0.1432446986436844,0.0,-0.191633716225624,0.6611194014549255,-2.926661729812622,4.13671875,0,B1,6.1,0,450.0,0.0213752382369196,[14600|0|0|0]
85,8500,1.857757806777954,-0.1433400064706802,0.0,-0.192161276936531,0.6548512578010559,-2.929248332977295,4.13671875,0,B1,6.1,0,450.0,0.021596493544533,[14700|0|0|0]
86,8600,1.857394337654113,-0.1433962285518646,0.0,-0.187825009226799,0.672237753868103,-2.935793161392212,4.13671875,0,B1,6.1,0,450.0,0.0219642852333983,[14800|0|0|0]
87,8700,1.8576866388320925,-0.1434755176305771,0.0,-0.1854121685028076,0.6691491603851318,-2.932631731033325,4.13671875,0,B1,6.1,0,450.0,0.0222671494548759,[14900|0|0|0]
88,8800,1.8573850393295288,-0.1432765275239944,0.0,-0.1923038512468338,0.6808910369873047,-2.9193332195281982,4.13671875,0,B1,6.1,0,450.0,0.0226284793906195,[15000|0|0|0]
89,8900,1.857492446899414,-0.1434760242700576,0.0,-0.190582737326622,0.6770546436309814,-2.909752607345581,4.13671875,0,B1,6.1,0,450.0,0.0228550524202556,[15100|0|0|0]
90,9000,1.857753038406372,-0.1433612555265426,0.0,-0.1945868134498596,0.6666662096977234,-2.9269394874572754,4.13671875,0,B1,6.1,0,450.0,0.0231397975659326,[15200|0|0|0]
91,9100,1.857545256614685,-0.1431147158145904,0.0,-0.2033991366624832,0.6732144355773926,-2.93001389503479,4.13671875,0,B1,6.1,0,450.0,0.0234622182577719,[15300|0|0|0]
92,9200,1.857549905776977,-0.1434642523527145,0.0,-0.1934080719947815,0.6724758148193359,-2.924856424331665,4.1328125,0,B1,6.1,0,450.0,0.0238117857136282,[15400|0|0|0]
93,9300,1.8575615882873533,-0.1433087736368179,0.0,-0.2004813998937606,0.6744889616966248,-2.915121793746948,4.13671875,0,B1,6.1,0,450.0,0.0239677027176577,[15500|0|0|0]
94,9400,1.8574284315109253,-0.1433282345533371,0.0,-0.2007512003183365,0.6758478283882141,-2.911168575286865,4.13671875,0,B1,6.1,0,450.0,0.0241022740904696,[15600|0|0|0]
95,9500,1.85772967338562,-0.1435073167085647,0.0,-0.1928865611553192,0.6710600852966309,-2.910090684890747,4.1328125,0,B1,6.1,0,450.0,0.0244527267768489,[15700|0|0|0]
96,9600,1.8573219776153564,-0.1432579755783081,0.0,-0.2006071656942367,0.6788022518157959,-2.906545400619507,4.13671875,0,B1,6.1,0,450.0,0.0249306251345865,[15800|0|0|0]
97,9700,1.8575093746185305,-0.1436192095279693,0.0,-0.188969001173973,0.6696309447288513,-2.926021099090576,4.13671875,0,B1,6.1,0,450.0,0.0253375742753725,[15900|0|0|0]
98,9800,1.8575409650802608,-0.1432340890169143,0.0,-0.2017855644226074,0.6695913672447205,-2.948742151260376,4.13671875,0,B1,6.1,0,450.0,0.0257239882571428,[16000|0|0|0]
99,9900,1.857671141624451,-0.1433762162923813,0.0,-0.1992145478725433,0.6615682244300842,-2.9375038146972656,4.13671875,0,B1,6.1,0,450.0,0.0259167214797303,[16100|0|0|0]
100,10000,1.857555627822876,-0.1431563943624496,0.0,-0.2006095200777053,0.6646925210952759,-2.960576057434082,4.13671875,0,B1,6.1,0,450.0,0.0261650461044319,[16200|0|0|0]
101,10100,1.857482552528381,-0.1434734612703323,0.0,-0.1880099028348922,0.6675359010696411,-2.955749273300171,4.13671875,0,B1,6.1,0,450.0,0.0264904249954802,[16300|0|0|0]
102,10200,1.8576831817626955,-0.1435082703828811,0.0,-0.1829376220703125,0.6641660928726196,-2.9468250274658203,4.13671875,0,B1,6.1,0,450.0,0.0266940515261144,[16400|0|0|0]
103,10300,1.857249021530152,-0.1430962532758712,0.0,-0.1942401975393295,0.6744177937507629,-2.9461164474487305,4.13671875,0,B1,6.1,0,450.0,0.0272925940926801,[16500|0|0|0]
104,10400,1.8576642274856567,-0.1433394849300384,0.0,-0.1874221563339233,0.6686744689941406,-2.956228256225586,4.13671875,0,B1,6.1,0,450.0,0.0277737984391645,[16600|0|0|0]
105,10500,1.8576056957244875,-0.14323490858078,0.0,-0.1887829601764679,0.6748725771903992,-2.980492353439331,4.13671875,0,B1,6.1,0,450.0,0.0278936407517665,[16700|0|0|0]
106,10600,1.8574583530426023,-0.1432460248470306,0.0,-0.1921486556529998,0.678977370262146,-2.9760189056396484,4.13671875,0,B1,6.1,0,450.0,0.028041402171902,[16800|0|0|0]
107,10700,1.8574893474578853,-0.1435325592756271,0.0,-0.1868181377649307,0.6702079176902771,-2.97579288482666,4.1328125,0,B1,6.1,0,450.0,0.0283296080575981,[16900|0|0|0]
108,10800,1.85770320892334,-0.1435542702674865,0.0,-0.1944276094436645,0.6667409539222717,-2.9559314250946045,4.13671875,0,B1,6.1,0,450.0,0.0285445687367326,[17000|0|0|0]
109,10900,1.857351541519165,-0.1432394087314605,0.0,-0.2052795439958572,0.6773573160171509,-2.935808181762696,4.13671875,0,B1,6.1,0,450.0,0.02901659389499,[17100|0|0|0]
110,11000,1.857426881790161,-0.143239751458168,0.0,-0.2059792280197143,0.6757106781005859,-2.9525468349456787,4.13671875,0,B1,6.1,0,450.0,0.0290919349455224,[17200|0|0|0]
111,11100,1.8578802347183228,-0.1432272344827652,0.0,-0.2087676227092743,0.6642495393753052,-2.9390170574188232,4.13671875,0,B1,6.1,0,450.0,0.0295454606362458,[17300|0|0|0]
112,11200,1.857590317726136,-0.1435737162828445,0.0,-0.1970249116420745,0.6706215739250183,-2.9496164321899414,4.13671875,0,B1,6.1,0,450.0,0.0299972365764472,[17400|0|0|0]
113,11300,1.8575506210327148,-0.1434370130300521,0.0,-0.2013899683952331,0.6685183644294739,-2.9310224056243896,4.13671875,0,B1,6.1,0,450.0,0.030139586872522,[17500|0|0|0]
114,11400,1.857537150382996,-0.1431705951690673,0.0,-0.2101780176162719,0.6684045791625977,-2.945807933807373,4.13671875,0,B1,6.1,0,450.0,0.0304063450683765,[17600|0|0|0]
115,11500,1.857592821121216,-0.14322130382061,0.0,-0.2036651223897934,0.6650161743164062,-2.961574077606201,4.13671875,0,B1,6.1,0,450.0,0.0304816484443648,[17700|0|0|0]
116,11600,1.8573137521743768,-0.1433130800724029,0.0,-0.1985016912221908,0.6684702634811401,-2.9748294353485107,4.1328125,0,B1,6.1,0,450.0,0.0307754210732517,[17800|0|0|0]
117,11700,1.857450008392334,-0.143186405301094,0.0,-0.1995748877525329,0.6620349287986755,-3.055600643157959,4.13671875,0,B1,6.1,0,450.0,0.0309614647633306,[17900|0|0|0]
118,11800,1.85734498500824,-0.1428484618663787,0.0,-0.1638653129339218,0.6621749997138977,-3.273243188858032,4.13671875,0,B1,6.1,0,450.0,0.0313153512935543,[18000|0|0|0]
119,11900,1.8574566841125488,-0.1426504850387573,0.0,-0.1507441848516464,0.6633500456809998,-3.3824479579925537,4.13671875,0,B1,6.1,0,450.0,0.0315426649846915,[18100|0|0|0]
120,12000,1.8577728271484373,-0.1437031328678131,0.0,-0.1314916759729385,0.6590486764907837,-3.091024398803711,4.13671875,0,B1,6.1,0,450.0,0.0326417618280846,[18200|0|0|0]
121,12100,1.8573299646377563,-0.1437497437000274,0.0,-0.1439252197742462,0.6676151156425476,-3.121943235397339,4.13671875,0,B1,6.1,0,450.0,0.0330870704548215,[18300|0|0|0]
122,12200,1.8576408624649048,-0.1435723006725311,0.0,-0.1687847077846527,0.6641949415206909,-3.029170751571656,4.13671875,0,B1,6.1,0,450.0,0.0334450418041397,[18400|0|0|0]
123,12300,1.8575359582901,-0.1435987204313278,0.0,-0.1820208430290222,0.6675811409950256,-2.9923367500305176,4.13671875,0,B1,6.1,0,450.0,0.0335532216985117,[18500|0|0|0]
124,12400,1.8575632572174072,-0.1436773240566253,0.0,-0.1903902739286422,0.660767138004303,-2.97574520111084,4.13671875,0,B1,6.1,0,450.0,0.0336364308406899,[18600|0|0|0]
125,12500,1.8576414585113523,-0.1434737592935562,0.0,-0.2000108361244201,0.6604809165000916,-2.971348285675049,4.13671875,0,B1,6.1,0,450.0,0.0338544997635974,[18700|0|0|0]
126,12600,1.857426404953003,-0.1434235870838165,0.0,-0.2068405449390411,0.6622490882873535,-2.974022150039673,4.13671875,0,B1,6.1,0,450.0,0.0340753283930568,[18800|0|0|0]
127,12700,1.857381582260132,-0.1437020152807235,0.0,-0.2012993991374969,0.6655014753341675,-3.043004035949707,4.13671875,0,B1,6.1,0,450.0,0.0343573413974184,[18900|0|0|0]
128,12800,1.857605218887329,-0.1432610601186752,0.0,-0.2150973081588745,0.6614657640457153,-3.0573458671569824,4.13671875,0,B1,6.1,0,450.0,0.0348517650982673,[19000|0|0|0]
129,12900,1.85748827457428,-0.1430305689573288,0.0,-0.2259405851364135,0.663010835647583,-3.027709007263184,4.13671875,0,B1,6.1,0,450.0,0.03511022621297,[19100|0|0|0]
130,13000,1.8575398921966555,-0.1433634907007217,0.0,-0.2179609090089798,0.6635813117027283,-3.030606746673584,4.13671875,0,B1,6.1,0,450.0,0.035447125702675,[19200|0|0|0]
131,13100,1.857427954673767,-0.1432897448539734,0.0,-0.2161692082881927,0.6582843661308289,-3.032244920730591,4.13671875,0,B1,6.1,0,450.0,0.035581172183207,[19300|0|0|0]
132,13200,1.8575915098190308,-0.1435138583183288,0.0,-0.2100772708654403,0.657212495803833,-2.9462876319885254,4.13671875,0,B1,6.1,0,450.0,0.035858619710584,[19400|0|0|0]
133,13300,1.857513785362244,-0.1435361355543136,0.0,-0.2103320062160492,0.6618188619613647,-3.019747972488404,4.13671875,0,B1,6.1,0,450.0,0.0359394736927116,[19500|0|0|0]
134,13400,1.857319712638855,-0.1433979272842407,0.0,-0.215206429362297,0.6710506081581116,-3.022063732147217,4.13671875,0,B1,6.1,0,450.0,0.0361777293282803,[19600|0|0|0]
135,13500,1.8574316501617432,-0.1432466953992843,0.0,-0.2135679423809051,0.6747084259986877,-3.031162738800049,4.13671875,0,B1,6.1,0,450.0,0.036365881107591,[19700|0|0|0]
136,13600,1.857474684715271,-0.1434927880764007,0.0,-0.2032912969589233,0.6765535473823547,-3.023129940032959,4.13671875,0,B1,6.1,0,450.0,0.0366157082048556,[19800|0|0|0]
137,13700,1.8577208518981927,-0.1435333788394928,0.0,-0.2044024020433426,0.6718299984931946,-3.0192131996154785,4.1328125,0,B1,6.1,0,450.0,0.0368651994712278,[19900|0|0|0]
138,13800,1.8573222160339355,-0.1435346901416778,0.0,-0.1987059563398361,0.6829328536987305,-3.0146005153656006,4.13671875,0,B1,6.1,0,450.0,0.0372638374922262,[20000|0|0|0]
139,13900,1.857521653175354,-0.1433468461036682,0.0,-0.2017646878957748,0.6807104349136353,-3.038113594055176,4.13671875,0,B1,6.1,0,450.0,0.037537809308282,[20100|0|0|0]
140,14000,1.8576375246047967,-0.1434377133846283,0.0,-0.1938011050224304,0.6759641766548157,-3.05783486366272,4.13671875,0,B1,6.1,0,450.0,0.0376850609667112,[20200|0|0|0]
141,14101,1.857490062713623,-0.1431414186954498,0.0,-0.1967073827981948,0.6771247386932373,-3.046983480453491,4.13671875,0,B1,6.1,0,450.0,0.038016022523669,[20300|0|0|0]
142,14201,1.857346534729004,-0.1429985612630844,0.0,-0.1971276998519897,0.686355710029602,-3.049269676208496,4.13671875,0,B1,6.1,0,450.0,0.0382185281491485,[20400|0|0|0]
143,14301,1.8575917482376096,-0.1436254978179931,0.0,-0.1760452985763549,0.6768059730529785,-3.034243106842041,4.1328125,0,B1,6.1,0,450.0,0.0388917139397617,[20500|0|0|0]
144,14401,1.8576024770736688,-0.1433386206626892,0.0,-0.1892153024673462,0.679155707359314,-2.949376106262207,4.13671875,0,B1,6.1,0,450.0,0.0391787916472878,[20600|0|0|0]
145,14500,1.8573840856552124,-0.1437198668718338,0.0,-0.1797496229410171,0.6789655685424805,-3.031405210494995,4.13671875,0,B1,6.1,0,450.0,0.039618158787209,[20700|0|0|0]
146,14600,1.8575623035430908,-0.1437026113271713,0.0,-0.1852734237909317,0.6723878383636475,-3.031623363494873,4.13671875,0,B1,6.1,0,450.0,0.0397972100909782,[20800|0|0|0]
147,14701,1.857475996017456,-0.1434973925352096,0.0,-0.1900036036968231,0.6771172881126404,-2.946169376373291,4.13671875,0,B1,6.1,0,450.0,0.0400198392479981,[20900|0|0|0]
148,14800,1.857610106468201,-0.1435867995023727,0.0,-0.1756630539894104,0.6755638718605042,-3.1805691719055176,4.13671875,0,B1,6.1,0,450.0,0.0401810199502434,[21000|0|0|0]
149,14900,1.8573936223983765,-0.1434171646833419,0.0,-0.16643026471138,0.6869552135467529,-3.409292221069336,4.1328125,0,B1,6.1,0,450.0,0.0404560496292153,[21100|0|0|0]
150,15001,1.8574743270874023,-0.1435644328594207,0.0,-0.1528018862009048,0.6908934712409973,-3.609440088272095,4.13671875,0,B1,6.1,0,450.0,0.0406239816467591,[21200|0|0|0]
151,15100,1.857241988182068,-0.1437010467052459,0.0,-0.1622444093227386,0.6965973377227783,-3.464972972869873,4.13671875,0,B1,6.1,0,450.0,0.0408935084725169,[21300|0|0|0]
152,15200,1.857442140579224,-0.1435714066028595,0.0,-0.1777248382568359,0.6885765790939331,-3.335504531860352,4.13671875,0,B1,6.1,0,450.0,0.0411319776282458,[21400|0|0|0]
153,15300,1.857510089874268,-0.1433200538158416,0.0,-0.1934770494699478,0.6839555501937866,-3.256678819656372,4.13671875,0,B1,6.1,0,450.0,0.041392352992362,[21500|0|0|0]
154,15400,1.857430338859558,-0.1435269117355346,0.0,-0.1917667388916015,0.6815593242645264,-3.219622611999512,4.13671875,0,B1,6.1,0,450.0,0.0416140519397816,[21600|0|0|0]
155,15500,1.857696294784546,-0.1434959322214126,0.0,-0.2019417434930801,0.6613025665283203,-3.193553924560547,4.13671875,0,B1,6.1,0,450.0,0.0418818060888276,[21700|0|0|0]
156,15600,1.8575299978256223,-0.1434420943260193,0.0,-0.2121791243553161,0.6655400395393372,-3.1577510833740234,4.13671875,0,B1,6.1,0,450.0,0.0420566008185182,[21800|0|0|0]
157,15700,1.857322573661804,-0.1435694694519043,0.0,-0.2097240686416626,0.6710938811302185,-3.132976770401001,4.13671875,0,B1,6.1,0,450.0,0.0423000124173174,[21900|0|0|0]
158,15800,1.8576902151107788,-0.1433508992195129,0.0,-0.2155188471078872,0.6622834801673889,-3.122220516204834,4.1328125,0,B1,6.1,0,450.0,0.0427277193046736,[22000|0|0|0]
159,15900,1.8575148582458496,-0.1433493047952652,0.0,-0.2189989537000656,0.6588189005851746,-3.088595390319824,4.13671875,0,B1,6.1,0,450.0,0.0429030834180676,[22100|0|0|0]
160,16000,1.857408881187439,-0.1433164328336715,0.0,-0.2182622849941253,0.6689007878303528,-3.082075595855713,4.1328125,0,B1,6.1,0,450.0,0.0430140415307426,[22200|0|0|0]
161,16100,1.8575189113616943,-0.1435639560222625,0.0,-0.2136412113904953,0.6605727672576904,-3.0926382541656494,4.13671875,0,B1,6.1,0,450.0,0.0432849185658285,[22300|0|0|0]
162,16200,1.8577196598052976,-0.1433746069669723,0.0,-0.2149218320846557,0.6548579931259155,-3.0818192958831787,4.13671875,0,B1,6.1,0,450.0,0.0435608769002713,[22400|0|0|0]
163,16300,1.8576418161392207,-0.1433471888303756,0.0,-0.2147912830114364,0.6595610976219177,-3.0461676120758057,4.13671875,0,B1,6.1,0,450.0,0.0436434080493165,[22500|0|0|0]
164,16400,1.857558012008667,-0.1433470547199249,0.0,-0.2117524892091751,0.6652780771255493,-3.055657386779785,4.13671875,0,B1,6.1,0,450.0,0.0437272122871776,[22600|0|0|0]
165,16500,1.8575519323349,-0.1434486508369445,0.0,-0.2066715359687805,0.6696934700012207,-3.042633295059204,4.13671875,0,B1,6.1,0,450.0,0.0438289901503237,[22700|0|0|0]
166,16600,1.857540488243103,-0.1435989141464233,0.0,-0.1997738778591156,0.6702492237091064,-3.063528299331665,4.13671875,0,B1,6.1,0,450.0,0.0439796886221559,[22800|0|0|0]
167,16700,1.8575677871704104,-0.1434616446495056,0.0,-0.2056889235973358,0.6673109531402588,-3.063676118850708,4.13671875,0,B1,6.1,0,450.0,0.0441196462808109,[22900|0|0|0]
168,16800,1.8574506044387813,-0.1437721103429794,0.0,-0.1960566937923431,0.6664482951164246,-3.031269073486328,4.13671875,0,B1,6.1,0,450.0,0.0444514907314444,[23000|0|0|0]
169,16900,1.857459306716919,-0.1431247889995575,0.0,-0.2207484394311905,0.6687021255493164,-3.0319511890411377,4.13671875,0,B1,6.1,0,450.0,0.0450988705668535,[23100|0|0|0]
170,17000,1.8574520349502563,-0.1435489505529403,0.0,-0.2045806646347046,0.6595628261566162,-3.019911527633667,4.13671875,0,B1,6.1,0,450.0,0.0455230944487349,[23200|0|0|0]
171,17100,1.8574397563934328,-0.1433476507663726,0.0,-0.2120799720287323,0.6599563956260681,-3.0155348777771,4.13671875,0,B1,6.1,0,450.0,0.045724768361351,[23300|0|0|0]
172,17200,1.857363224029541,-0.143557459115982,0.0,-0.2080476731061935,0.669057309627533,-3.020735502243042,4.13671875,0,B1,6.1,0,450.0,0.0459480993853684,[23400|0|0|0]
173,17300,1.8573836088180544,-0.1432774066925048,0.0,-0.2175134569406509,0.6691296100616455,-3.034154176712036,4.1328125,0,B1,6.1,0,450.0,0.0462288927248517,[23500|0|0|0]
174,17400,1.857571601867676,-0.1432384401559829,0.0,-0.2198294997215271,0.6652750968933105,-3.0117905139923096,4.13671875,0,B1,6.1,0,450.0,0.0464208817288976,[23600|0|0|0]
175,17500,1.8575559854507449,-0.1435150653123855,0.0,-0.2141066640615463,0.6629052758216858,-3.013662099838257,4.13671875,0,B1,6.1,0,450.0,0.0466979473341837,[23700|0|0|0]
176,17600,1.8573660850524905,-0.1435398608446121,0.0,-0.214941993355751,0.6678826212882996,-3.012349843978882,4.1328125,0,B1,6.1,0,450.0,0.046889459682808,[23800|0|0|0]
177,17700,1.857571601867676,-0.1433727294206619,0.0,-0.2141043096780777,0.6604459881782532,-3.021541118621826,4.13671875,0,B1,6.1,0,450.0,0.0471543560289429,[23900|0|0|0]
178,17800,1.8574141263961792,-0.1431155502796173,0.0,-0.2146312147378921,0.6716065406799316,-3.0365796089172363,4.13671875,0,B1,6.1,0,450.0,0.0474559180204331,[24000|0|0|0]
179,17900,1.8573123216629028,-0.1433212608098983,0.0,-0.2066719383001327,0.6757097840309143,-3.0158770084381104,4.13671875,0,B1,6.1,0,450.0,0.047685441496326,[24100|0|0|0]
180,18000,1.857277750968933,-0.1435194164514541,0.0,-0.1917469650506973,0.6757792830467224,-3.0320003032684326,4.13671875,0,B1,6.1,0,450.0,0.0478865901755709,[24200|0|0|0]
181,18100,1.857432246208191,-0.1436201930046081,0.0,-0.1861666738986969,0.6734083890914917,-3.0662052631378174,4.13671875,0,B1,6.1,0,450.0,0.0480710480098283,[24300|0|0|0]
182,18200,1.857417106628418,-0.143407255411148,0.0,-0.1932286620140075,0.662808358669281,-3.0402724742889404,4.1328125,0,B1,6.1,0,450.0,0.0482845231268426,[24400|0|0|0]
183,18300,1.8574243783950808,-0.1433679312467575,0.0,-0.1878436058759689,0.6602663993835449,-3.045565128326416,4.13671875,0,B1,6.1,0,450.0,0.0483245139819899,[24500|0|0|0]
184,18400,1.8573538064956665,-0.1436914950609207,0.0,-0.1868496537208557,0.6654239296913147,-3.034125804901123,4.1328125,0,B1,6.1,0,450.0,0.0486556845344591,[24600|0|0|0]
185,18500,1.857519268989563,-0.1437571197748184,0.0,-0.1870867758989334,0.6631248593330383,-3.0346524715423584,4.1328125,0,B1,6.1,0,450.0,0.0488336857702992,[24700|0|0|0]
186,18600,1.857682704925537,-0.1436739563941955,0.0,-0.1896980553865432,0.6551206707954407,-3.030622959136963,4.13671875,0,B1,6.1,0,450.0,0.0490170636671253,[24800|0|0|0]
187,18700,1.8573912382125848,-0.1436822563409805,0.0,-0.1887288838624954,0.6616485714912415,-3.0306718349456787,4.13671875,0,B1,6.1,0,450.0,0.0493086485327748,[24900|0|0|0]
188,18800,1.8575074672698968,-0.1435618102550506,0.0,-0.1980672031641006,0.6606593132019043,-3.0488121509552,4.1328125,0,B1,6.1,0,450.0,0.049476029694736,[25000|0|0|0]
189,18900,1.8574196100234983,-0.1435454338788986,0.0,-0.1988464593887329,0.6638385653495789,-3.028595209121704,4.13671875,0,B1,6.1,0,450.0,0.0495654001677156,[25100|0|0|0]
190,19000,1.857479453086853,-0.1432079076766967,0.0,-0.2053499966859817,0.6615515351295471,-3.028916120529175,4.1328125,0,B1,6.1,0,450.0,0.0499081903796594,[25200|0|0|0]
191,19100,1.857535600662232,-0.1438165456056594,0.0,-0.1835085153579712,0.6604570746421814,-3.0228793621063232,4.1328125,0,B1,6.1,0,450.0,0.0505194126622972,[25300|0|0|0]
192,19200,1.8575574159622192,-0.1433189958333969,0.0,-0.1970255970954895,0.6624621748924255,-3.0187928676605225,4.13671875,0,B1,6.1,0,450.0,0.0510174404558911,[25400|0|0|0]
193,19300,1.8574858903884888,-0.1436387747526168,0.0,-0.1844078153371811,0.6656377911567688,-3.0038187503814697,4.13671875,0,B1,6.1,0,450.0,0.0513451208869133,[25500|0|0|0]
194,19400,1.8575708866119385,-0.1435254067182541,0.0,-0.1900180131196975,0.671086847782135,-3.0136642456054688,4.1328125,0,B1,6.1,0,450.0,0.0514868130504792,[25600|0|0|0]
195,19500,1.8574848175048828,-0.1436680555343628,0.0,-0.1911202669143676,0.6782726645469666,-3.0033345222473145,4.13671875,0,B1,6.1,0,450.0,0.0516534160994506,[25700|0|0|0]
196,19600,1.8574739694595337,-0.143496960401535,0.0,-0.2008586972951889,0.6803959012031555,-3.001387357711792,4.13671875,0,B1,6.1,0,450.0,0.0518248547898483,[25800|0|0|0]
197,19700,1.8574154376983645,-0.1436838507652282,0.0,-0.2003626078367233,0.6748648881912231,-3.0133092403411865,4.1328125,0,B1,6.1,0,450.0,0.052020696499162,[25900|0|0|0]
198,19800,1.8573875427246087,-0.143434926867485,0.0,-0.2118897289037704,0.670974612236023,-3.001815795898437,4.13671875,0,B1,6.1,0,450.0,0.0522711785073552,[26000|0|0|0]
199,19900,1.857633233070373,-0.1435778886079788,0.0,-0.207133486866951,0.6621806025505066,-3.0049612522125244,4.1328125,0,B1,6.1,0,450.0,0.0525554350908267,[26100|0|0|0]
200,20000,1.8575819730758667,-0.1439071744680404,0.0,-0.1966146528720855,0.6658424735069275,-2.992161750793457,4.1328125,0,B1,6.1,0,450.0,0.0528886868945327,[26200|0|0|0]
201,20100,1.8574540615081787,-0.1433434635400772,0.0,-0.2065216600894928,0.6747919917106628,-2.992555618286133,4.13671875,0,B1,6.1,0,450.0,0.0534667278787661,[26300|0|0|0]
202,20200,1.8573505878448489,-0.1431105285882949,0.0,-0.2059017568826675,0.6771584153175354,-3.001138210296631,4.13671875,0,B1,6.1,0,450.0,0.0537216111672821,[26400|0|0|0]
203,20300,1.857454538345337,-0.1433240622282028,0.0,-0.1952604502439499,0.6701908111572266,-2.997869968414306,4.1328125,0,B1,6.1,0,450.0,0.0539591028975045,[26500|0|0|0]
204,20400,1.8574188947677608,-0.1434315890073776,0.0,-0.1967447102069854,0.6737014055252075,-3.0065901279449463,2.982421875,0,A1,6.1,0,450.0,0.0540723834027211,[26500|0|0|0]
205,20500,1.857410550117493,-0.144010990858078,0.0,1.6958955526351929,1.6235601902008057,-0.9162815809249878,3.39453125,0,A1,6.1,0,450.0,0.0546518453408871,[26500|0|0|0]
206,20600,1.8578548431396484,-0.1529151499271392,0.0161850359290838,1.4066838026046753,1.3024749755859375,2.061964750289917,3.55859375,0,A1,6.1,0,450.0,0.0731298547856952,[26500|0|0|0]
207,20700,1.8589264154434204,-0.1670171022415161,0.0754787251353263,-0.952919900417328,-0.8996528387069702,3.6043004989624015,3.615234375,0,A1,6.1,0,450.0,0.1340868470504522,[26500|0|0|0]
208,20800,1.866262674331665,-0.1798226535320282,0.1500678956508636,-2.2037365436553955,-1.4965124130249023,4.160677909851074,3.642578125,0,A1,6.1,0,450.0,0.2101220178369059,[26500|0|0|0]
209,20900,1.880253911018372,-0.1899860948324203,0.2321148067712783,-2.097602605819702,-1.696772813796997,4.169871807098389,3.6484375,0,A1,6.1,0,450.0,0.2939715608737717,[26500|0|0|0]
210,21000,1.8980929851531985,-0.1955040246248245,0.317930519580841,-3.063914060592652,0.0380421876907348,2.5744996070861816,3.6484375,0,A1,6.1,0,450.0,0.3817953428476486,[26500|0|0|0]
211,21100,1.9173763990402224,-0.1922845840454101,0.4011801481246948,-2.827213764190674,1.675032377243042,1.4191840887069702,3.65234375,0,A1,6.1,0,450.0,0.4673097597694302,[26500|0|0|0]
212,21200,1.9359601736068728,-0.1891849189996719,0.4891701936721802,-1.495627522468567,3.879743099212648,0.6269089579582214,3.6640625,0,A1,6.1,0,450.0,0.5572942735259006,[26500|0|0|0]
213,21300,1.9493722915649407,-0.1829696148633957,0.5774838328361511,-1.33349347114563,4.76276445388794,0.487824410200119,3.7109375,0,A1,6.1,0,450.0,0.6468365192873935,[26500|0|0|0]
214,21400,1.9561759233474727,-0.1756316423416137,0.6580747961997986,0.8417670726776123,4.897727966308594,-0.0253052655607461,3.732421875,0,A1,6.1,0,450.0,0.7280463624225916,[26500|0|0|0]
215,21500,1.955899000167847,-0.1697812676429748,0.7267502546310425,-0.4616120159626007,4.06532096862793,-0.5771885514259338,3.736328125,0,A1,6.1,0,450.0,0.7969711196677455,[26500|0|0|0]
216,21600,1.9501169919967647,-0.1641476303339004,0.7815263271331787,0.3342587351799011,3.239965915679932,-0.3856332898139953,3.732421875,0,A1,6.1,0,450.0,0.8523388684623275,[26500|0|0|0]
217,21700,1.9398853778839111,-0.159908577799797,0.8223767876625061,1.295595407485962,2.203752040863037,-0.1243698373436927,3.720703125,0,A1,6.1,0,450.0,0.8946639865271289,[26500|0|0|0]
218,21800,1.9260532855987549,-0.1588500589132309,0.8515105843544006,0.6806223392486572,0.9851879477500916,0.3705967664718628,3.705078125,0,A1,6.1,0,450.0,0.926932010155838,[26500|0|0|0]
219,21900,1.9106342792510984,-0.160939484834671,0.8726738095283508,1.4108271598815918,-0.5027479529380798,2.476247549057007,3.701171875,0,A1,6.1,0,450.0,0.9531997385919548,[26500|0|0|0]
220,22000,1.8956013917922967,-0.1655377298593521,0.8879091143608093,0.0281685758382082,-0.9035239219665528,2.99041748046875,3.6953125,0,A1,6.1,0,450.0,0.9750914282479392,[26500|0|0|0]
221,22100,1.8816770315170288,-0.1717271953821182,0.8991575837135315,-0.4860827028751373,-1.3143409490585327,2.695180892944336,3.68359375,0,A1,6.1,0,450.0,0.9940314745866392,[26500|0|0|0]
222,22200,1.86947238445282,-0.1781769096851349,0.9092917442321776,-1.2009750604629517,-1.908374547958374,2.3407301902771,3.689453125,0,A1,6.1,0,450.0,1.0111561186404618,[26500|0|0|0]
223,22300,1.8599549531936648,-0.1837445050477981,0.9179552793502808,-1.036420226097107,-1.7861838340759275,2.3501763343811035,3.6953125,0,A1,6.1,0,450.0,1.0251788308117111,[26500|0|0|0]
224,22400,1.852123141288757,-0.1887990683317184,0.9249553084373474,-1.0300724506378174,-2.001459836959839,2.209118366241455,3.6953125,0,A1,6.1,0,450.0,1.0368358585171251,[26500|0|0|0]
225,22500,1.846021294593811,-0.1926617324352264,0.928100883960724,-1.015583038330078,-1.6347302198410034,1.54722797870636,3.6796875,0,A1,6.1,0,450.0,1.0447128727000767,[26500|0|0|0]
226,22600,1.8414833545684808,-0.1968934834003448,0.930657684803009,-0.6495978832244873,-1.2253810167312622,0.9705296158790588,3.6796875,0,A1,6.1,0,450.0,1.0514238969476402,[26500|0|0|0]
227,22700,1.8383607864379885,-0.2007181346416473,0.9318790435791016,-1.3574260473251345,-0.9150194525718688,0.2033865451812744,3.673828125,0,A1,6.1,0,450.0,1.056510163368808,[26500|0|0|0]
228,22800,1.8356720209121704,-0.2031155526638031,0.9314754605293274,-1.5476064682006836,-0.5210575461387634,-0.8199039101600647,3.673828125,0,A1,6.1,0,450.0,1.0601350706095316,[26500|0|0|0]
229,22900,1.8337385654449463,-0.2039389610290527,0.9322274923324584,-1.509077787399292,-0.037096869200468,-1.9656137228012085,3.66796875,0,A1,6.1,0,450.0,1.062367065952856,[26500|0|0|0]
230,23000,1.8317087888717647,-0.2032644748687744,0.9334385991096495,-1.6051757335662842,-0.2320463210344314,-2.7686092853546143,3.673828125,0,A1,6.1,0,450.0,1.064825053776911,[26500|0|0|0]
231,23100,1.8298152685165403,-0.2006174772977829,0.9346269369125366,-1.3984229564666748,-0.6213542222976685,-2.8864123821258545,3.66796875,0,A1,6.1,0,450.0,1.0682897561032667,[26500|0|0|0]
232,23200,1.8289673328399656,-0.1956502050161361,0.9355013370513916,-1.21671724319458,-0.9463629722595216,-2.1255359649658203,3.673828125,0,A1,6.1,0,450.0,1.0734041831908745,[26500|0|0|0]
233,23300,1.8298851251602173,-0.1907678991556167,0.9376788139343262,-0.40755295753479,-1.4246976375579834,-1.5361080169677734,3.673828125,0,A1,6.1,0,450.0,1.0788282645724991,[26500|0|0|0]
234,23400,1.8327878713607788,-0.183202177286148,0.93941468000412,-1.5380021333694458,-0.7859371900558472,-0.7378721237182617,3.546875,0,A1,6.1,0,517.0,1.0871155629213758,[26500|0|0|0]
235,23500,1.832793354988098,-0.1697296947240829,0.9506797790527344,-12.799416542053224,11.263387680053713,1.913100242614746,3.47265625,0,A1,6.1,0,517.0,1.104677176544002,[26500|0|0|0]
236,23600,1.812288403511048,-0.1284220069646835,0.973993718624115,-19.476694107055664,21.57320213317871,3.15582013130188,3.48828125,0,A1,6.1,0,517.0,1.1563522951354692,[26500|0|0|0]
237,23700,1.7545897960662842,-0.0510072633624076,1.0035741329193115,-17.368478775024414,19.85660743713379,1.611872673034668,3.48828125,0,A1,6.1,0,517.0,1.2573333465161445,[26500|0|0|0]
238,23800,1.6607797145843506,0.071337841451168,1.033760666847229,-4.934964656829834,9.632847785949709,-2.1281425952911377,3.47265625,0,A1,6.1,0,517.0,1.4144316688817034,[26500|0|0|0]
239,23900,1.5487409830093384,0.184220939874649,1.090872883796692,15.987361907958984,1.382980227470398,-0.7665894627571106,3.546875,0,A1,6.1,0,517.0,1.5834200608129405,[26500|0|0|0]
240,24000,1.4322402477264404,0.2807526886463165,1.1564635038375854,20.315698623657227,-5.60731840133667,2.7034671306610107,3.505859375,0,A1,6.1,0,517.0,1.7483228481748316,[26500|0|0|0]
241,24100,1.325830101966858,0.3496458828449249,1.228233814239502,18.29121208190918,-4.602900505065918,-1.6240562200546265,3.484375,0,A1,6.1,0,517.0,1.893994975854255,[26500|0|0|0]
242,24200,1.2287143468856812,0.3727725744247436,1.3214353322982788,11.501060485839844,1.3450332880020142,-0.7668145895004272,3.583984375,0,A1,6.1,0,517.0,2.030570364255224,[26500|0|0|0]
243,24300,1.1307343244552612,0.36966273188591,1.4296141862869265,5.376157760620117,2.501011610031128,0.540928840637207,3.705078125,0,A1,6.1,0,517.0,2.176558104721261,[26500|0|0|0]
244,24400,1.024448275566101,0.3615963757038116,1.5330184698104858,1.0843827724456787,-0.6532920598983765,-2.2951085567474365,3.75390625,0,A1,6.1,0,517.0,2.325064791915967,[26500|0|0|0]
245,24500,0.933197021484375,0.3239965140819549,1.6343104839324951,-2.528419017791748,-5.397955894470215,-0.4806046783924103,3.78515625,0,A1,6.1,0,517.0,2.4664883157384336,[26500|0|0|0]
246,24600,0.8534052968025208,0.28132364153862,1.7151646614074707,-5.254694938659668,-8.99742317199707,0.377802163362503,3.7734375,0,A1,6.1,0,517.0,2.5878353033152144,[26500|0|0|0]
247,24700,0.778166651725769,0.2600838541984558,1.7632958889007568,-6.837103366851807,-11.348783493041992,0.179717481136322,3.7265625,0,A1,6.1,0,517.0,2.679642695932864,[26500|0|0|0]
248,24800,0.728542685508728,0.22922183573246,1.7931299209594729,-7.302063465118408,-12.289734840393066,0.6196317672729492,3.689453125,0,A1,6.1,0,517.0,2.7452557409451632,[26500|0|0|0]
249,24900,0.6943320631980896,0.2156790643930435,1.8031262159347528,-7.7957444190979,-10.701899528503418,0.4406088888645172,3.6796875,0,A1,6.1,0,517.0,2.7833831490352194,[26500|0|0|0]
250,25000,0.6819378137588501,0.2082119882106781,1.80493438243866,-6.454156398773193,-8.102416038513184,2.008395195007324,3.6640625,0,A1,6.1,0,517.0,2.7979654709347384,[26500|0|0|0]
251,25100,0.6568102240562439,0.2420288026332855,1.7904077768325806,-4.583720684051514,-4.824782371520996,2.8163516521453857,3.65234375,0,A1,6.1,0,517.0,2.842529974436855,[26500|0|0|0]
252,25200,0.6344209313392639,0.2880294024944305,1.773901343345642,-1.2461374998092651,-3.285436153411865,2.2550086975097656,3.642578125,0,A1,6.1,0,517.0,2.896286815512299,[26500|0|0|0]
253,25300,0.6213753819465637,0.3269523382186889,1.7623056173324585,2.599745512008667,-2.9109764099121094,1.4630906581878662,3.6484375,0,A1,6.1,0,517.0,2.938944079209411,[26500|0|0|0]
254,25400,0.6184902787208557,0.3508656919002533,1.756805181503296,4.955551624298096,-2.776510715484619,1.032148838043213,3.658203125,0,A1,6.1,0,517.0,2.963650902138175,[26500|0|0|0]
255,25500,0.6153890490531921,0.3690917193889618,1.7508738040924072,5.522661209106445,-2.463031530380249,0.541157603263855,3.65234375,0,A1,6.1,0,517.0,2.983067053699727,[26500|0|0|0]
256,25600,0.6119488477706909,0.3823589384555816,1.7442814111709597,4.923816680908203,-2.5299620628356934,-0.067741222679615,3.66796875,0,A1,6.1,0,517.0,2.99827605534535,[26500|0|0|0]
257,25700,0.6050135493278503,0.3965191841125488,1.734544277191162,3.796802520751953,-2.4386606216430664,-0.627177894115448,3.6640625,0,A1,6.1,0,517.0,3.016807722828268,[26500|0|0|0]
258,25800,0.6035977005958557,0.4013784825801849,1.724530816078186,2.863789796829224,-2.486442804336548,-0.935074269771576,3.65234375,0,A1,6.1,0,517.0,3.0280276520923297,[26500|0|0|0]
259,25900,0.5943004488945007,0.4177773296833038,1.7105785608291626,2.0878422260284424,-2.010662794113159,1.5936613082885742,3.658203125,0,A1,6.1,0,517.0,3.0514802959101117,[26500|0|0|0]
260,26000,0.5776313543319702,0.4468941688537597,1.6896697282791138,1.3280943632125854,-1.829113245010376,2.5384445190429688,3.626953125,0,A1,6.1,0,517.0,3.091012919342142,[26500|0|0|0]
261,26100,0.5724261403083801,0.4552582502365112,1.6756396293640137,5.630176544189453,-4.217390537261963,0.1431402117013931,3.62109375,0,A1,6.1,0,517.0,3.108156308329625,[26500|0|0|0]
262,26200,0.5730516314506531,0.4547610878944397,1.6668541431427002,5.533878326416016,-4.722312927246094,-2.412939071655273,3.626953125,0,A1,6.1,0,517.0,3.11697805292513,[26500|0|0|0]
263,26300,0.580612301826477,0.4436929821968078,1.6617358922958374,4.660289764404297,-4.212449550628662,-3.8653199672698975,3.63671875,0,A1,6.1,0,517.0,3.1313259862953835,[26500|0|0|0]
264,26400,0.5669972896575928,0.461732804775238,1.647494912147522,2.191007375717163,-2.407020330429077,-0.5241188406944275,3.900390625,0,A1,6.1,0,450.0,3.158039452386568,[26500|0|0|0]
265,26500,0.5741102695465088,0.446668267250061,1.627936601638794,2.543831348419189,-3.116954803466797,1.9837828874588013,3.87890625,0,A1,6.1,0,450.0,3.183731129710234,[26500|0|0|0]
266,26600,0.5826960206031799,0.4299199283123016,1.5723278522491455,3.1684577465057373,-2.55832314491272,1.628782868385315,3.76953125,0,A1,6.1,0,450.0,3.2424384971104327,[26500|0|0|0]
267,26700,0.5927073955535889,0.4088207185268402,1.481813907623291,2.242037773132324,-1.456858515739441,-6.025423526763916,3.6796875,0,A1,6.1,0,450.0,3.335916721599887,[26500|0|0|0]
268,26800,0.6025003790855408,0.3838979601860046,1.369206786155701,0.2995750904083252,-1.6962194442749023,-6.160116672515869,3.642578125,0,A1,6.1,0,450.0,3.4516639039197576,[26500|0|0|0]
269,26900,0.6132132411003113,0.3584469556808471,1.247101068496704,-1.2206768989562988,-0.6885321736335754,-4.840823650360107,3.630859375,0,A1,6.1,0,450.0,3.576853062108028,[26500|0|0|0]
270,27000,0.6243912577629089,0.3355438411235809,1.1226972341537476,-4.793442249298096,0.307599276304245,-2.150137424468994,3.63671875,0,A1,6.1,0,450.0,3.7038405209855183,[26500|0|0|0]
271,27100,0.6383073925971985,0.3196254968643188,0.9973387122154236,-4.851407527923584,0.3844804167747497,0.2707051932811737,3.642578125,0,A1,6.1,0,450.0,3.8309696345482416,[26500|0|0|0]
272,27200,0.6519458293914795,0.3123185634613037,0.8725568652153015,-4.784879207611084,0.367895245552063,3.324120044708252,3.6484375,0,A1,6.1,0,450.0,3.956707089487928,[26500|0|0|0]
273,27300,0.6661641597747803,0.3115299642086029,0.7438074946403503,-2.6160056591033936,2.3409616947174072,8.32306957244873,3.642578125,0,A1,6.1,0,450.0,4.086241576135754,[26500|0|0|0]
274,27400,0.6824701428413391,0.3103760778903961,0.612403154373169,6.121081352233887,-4.193219661712647,16.733192443847656,3.732421875,0,A1,6.1,0,450.0,4.218658784905821,[26500|0|0|0]
275,27500,0.7161527872085571,0.297120600938797,0.4612981081008911,11.722942352294922,-11.80933952331543,29.77481842041016,3.705078125,0,A1,6.1,0,450.0,4.374038845433966,[26500|0|0|0]
276,27600,0.7678442001342773,0.2795097529888153,0.3005940616130829,10.744829177856444,-7.113111972808838,40.250972747802734,3.626953125,0,A1,6.1,0,450.0,4.543767849123172,[26500|0|0|0]
277,27700,0.835736095905304,0.2593761682510376,0.1318966746330261,-5.018435001373291,6.086526393890381,49.47455978393555,3.626953125,0,A1,6.1,0,450.0,4.726725437431709,[26500|0|0|0]
278,27800,0.8868457078933716,0.240145057439804,0.0,9.397027015686035,-4.7323994636535645,54.54107666015625,3.615234375,0,A1,6.1,0,450.0,4.869479634707498,[26500|0|0|0]
279,27900,0.9412830471992492,0.2414858788251876,0.0,7.91233491897583,-20.84046936035156,44.418487548828125,3.65234375,0,A1,6.1,0,450.0,4.923933484091089,[26500|0|0|0]
280,28000,1.0212775468826294,0.2536305487155914,0.0,-9.607406616210938,-22.595314025878903,30.53969955444336,3.578125,0,A1,6.1,0,450.0,5.004844626626226,[26500|0|0|0]
281,28100,1.1073592901229858,0.2937430441379547,0.0,-28.14439010620117,25.89360237121582,35.74366760253906,3.62109375,0,A1,6.1,0,450.0,5.099813457346141,[26500|0|0|0]
282,28200,1.1478784084320068,0.3388515710830688,0.0,-14.311568260192873,42.21516036987305,38.116058349609375,3.568359375,0,A1,6.1,0,450.0,5.160448250589777,[26500|0|0|0]
283,28300,1.1388795375823977,0.3685448765754699,0.0,-4.775178909301758,14.576814651489258,20.809858322143555,3.525390625,0,A1,6.1,0,450.0,5.191475207701827,[26500|0|0|0]
284,28400,1.100507140159607,0.3793258666992187,0.0,5.933432102203369,6.786581039428711,11.690977096557615,3.5625,0,A1,6.1,0,450.0,5.231333339018046,[26500|0|0|0]
285,28500,1.0478334426879885,0.3658896088600158,0.0,2.095508575439453,16.66647720336914,4.512681007385254,3.599609375,0,A1,6.1,0,450.0,5.285693723766989,[26500|0|0|0]
286,28600,0.9721008539199828,0.3369927406311035,0.0182461459189653,0.8647131323814392,7.980725765228271,0.5576841831207275,3.611328125,0,A1,6.1,0,450.0,5.368780280055231,[26500|0|0|0]
287,28700,0.8829006552696228,0.2995145320892334,0.0439495630562305,-3.3200008869171143,0.1287799477577209,-3.995884656906128,3.6484375,0,A1,6.1,0,450.0,5.468890005892953,[26500|0|0|0]
288,28800,0.7968947887420654,0.2638284862041473,0.067744106054306,-8.907597541809082,-6.99387788772583,-7.375735759735107,3.65234375,0,A1,6.1,0,450.0,5.564997670647413,[26500|0|0|0]
289,28900,0.7259202003479004,0.235676035284996,0.0849864333868026,-11.81162166595459,-9.563322067260742,-9.223464012145996,3.65234375,0,A1,6.1,0,450.0,5.643274426726835,[26500|0|0|0]
290,29000,0.6747658252716064,0.2192451953887939,0.0924472510814666,-11.081705093383787,-11.59847354888916,-8.863020896911621,3.630859375,0,A1,6.1,0,450.0,5.697518379291281,[26500|0|0|0]
291,29100,0.645709216594696,0.2130143195390701,0.0919826179742813,-10.510575294494627,-9.629915237426758,-7.583507537841797,3.615234375,0,A1,6.1,0,450.0,5.727239183546584,[26500|0|0|0]
292,29200,0.635128378868103,0.2178570926189422,0.0862212181091308,-6.3223419189453125,-7.26365327835083,-7.333277225494385,3.599609375,0,A1,6.1,0,450.0,5.740223801619742,[26500|0|0|0]
293,29300,0.6386038661003113,0.2294799387454986,0.0790147259831428,-4.837239742279053,-3.838625907897949,-6.765082359313965,3.58984375,0,A1,6.1,0,450.0,5.754334191137569,[26500|0|0|0]
294,29400,0.6480826735496521,0.2448891699314117,0.0729142278432846,-1.4966542720794678,-0.5704281330108643,-6.157252311706543,3.58984375,0,F2,6.1,0,450.0,5.773426290916195,[26500|0|100|0]
295,29500,0.65798419713974,0.2621911168098449,0.0687434077262878,-0.3648574650287628,1.588541030883789,-6.108349800109863,3.59375,0,F2,6.1,0,450.0,5.793792765221718,[26500|0|200|0]
296,29600,0.663421630859375,0.2788869142532348,0.0662101954221725,0.923336923122406,2.47615909576416,-6.59763765335083,3.599609375,0,F2,6.1,0,450.0,5.811533467076601,[26500|0|300|0]
297,29700,0.6640033721923828,0.2951213419437408,0.0659377798438072,0.8612812161445618,1.7530488967895508,-6.838198661804199,3.60546875,0,F2,6.1,0,450.0,5.827780598382285,[26500|0|400|0]
298,29800,0.6593026518821716,0.3093543946743011,0.0682201832532882,1.5046968460083008,1.2049412727355957,-5.502856254577637,3.615234375,0,F2,6.1,0,450.0,5.842942587921569,[26500|0|500|0]
299,29900,0.6579065322875977,0.3341425955295563,0.076993353664875,0.9568493366241456,1.5304272174835205,-3.141148805618286,3.62109375,0,F2,6.1,0,450.0,5.869274556526928,[26500|0|600|0]
300,30000,0.6438915133476257,0.343488484621048,0.0771353468298912,-1.1298333406448364,1.3601458072662354,-1.6053409576416016,3.611328125,0,F2,6.1,0,450.0,5.886120522241518,[26500|0|700|0]
301,30100,0.6254692077636719,0.3521164357662201,0.0742514133453369,1.6228355169296265,0.7962304949760437,-0.1204236596822738,3.60546875,0,F2,6.1,0,450.0,5.906666567027203,[26500|0|800|0]
302,30200,0.6033661961555481,0.356961190700531,0.0694212019443512,-0.099363200366497,-0.1673143804073333,1.788750410079956,3.59375,0,F2,6.1,0,450.0,5.929804106107681,[26500|0|900|0]
303,30300,0.5739977955818176,0.3489360213279724,0.0592260882258415,1.2217286825180054,1.2457796335220337,2.0362443923950195,3.583984375,0,F2,6.1,0,450.0,5.961910906624872,[26500|0|1000|0]
304,30400,0.556229829788208,0.3556891679763794,0.060566958039999,-0.5326693058013916,0.6771952509880066,1.1121232509613037,3.583984375,0,F2,6.1,0,450.0,5.980966182271167,[26500|0|1100|0]
305,30500,0.5289540886878967,0.3544223606586456,0.0588623434305191,-0.711136519908905,0.2255374491214752,0.035302098840475,3.58984375,0,F2,6.1,0,450.0,6.008324482004855,[26500|0|1200|0]
306,30600,0.5009439587593079,0.3549232482910156,0.0620320960879325,-2.106374502182007,0.7416137456893921,-0.0568499080836772,3.611328125,0,F2,6.1,0,450.0,6.036517842906774,[26500|0|1300|0]
307,30700,0.4729978144168854,0.3597878217697143,0.0658534169197082,-1.0434497594833374,1.2257072925567627,0.9542801380157472,3.60546875,0,F2,6.1,0,450.0,6.065140448512073,[26500|0|1400|0]
308,30800,0.4440821409225464,0.3669057488441467,0.0658899322152137,-1.0093759298324585,-0.2791096270084381,1.4694339036941528,3.599609375,0,F2,6.1,0,450.0,6.094919340244893,[26500|0|1500|0]
309,30900,0.4171441197395324,0.3752595782279968,0.0664391815662384,0.1000344008207321,-0.2831349074840545,0.6740475296974182,3.59375,0,F2,6.1,0,450.0,6.1231282949486845,[26500|0|1600|0]
310,31000,0.3912696838378906,0.3844494223594665,0.06509929895401,-0.327363520860672,0.1501186192035675,-1.2135969400405884,3.583984375,0,F2,6.1,0,450.0,6.150618928877415,[26500|0|1700|0]
311,31100,0.3651934564113617,0.3952275514602661,0.0652179196476936,-1.2243571281433103,0.9295053482055664,-3.118978500366211,3.58984375,0,F2,6.1,0,450.0,6.178835090462267,[26500|0|1800|0]
312,31200,0.3368013501167297,0.4099301695823669,0.0661198049783706,-1.3877376317977903,1.4958834648132324,-4.266676902770996,3.59375,0,F2,6.1,0,450.0,6.210820901013818,[26500|0|1900|0]
313,31300,0.3046781420707702,0.4271681606769562,0.0678559020161628,-0.4857833981513977,1.8375779390335083,-4.069792747497559,3.912109375,0,F2,6.1,0,450.0,6.247318337431541,[26500|0|2000|0]
314,31401,0.2676843106746673,0.44648477435112,0.0492653436958789,-1.248102068901062,1.9637657403945925,-2.8165225982666016,4.015625,0,F2,6.1,0,450.0,6.293005140601166,[26500|0|2100|0]
315,31500,0.2307523787021637,0.4666683971881866,0.0,-12.17383861541748,-15.305017471313477,-0.7686355710029602,4.015625,0,F2,6.1,0,450.0,6.357800358939588,[26500|0|2200|0]
316,31600,0.2309577614068985,0.4865799248218536,0.0,-14.228867530822754,-13.327561378479004,15.028613090515137,4.0234375,0,F2,6.1,0,450.0,6.377712945782127,[26500|0|2300|0]
317,31700,0.2255711704492569,0.4886081218719482,0.0,-35.39834213256836,7.71547794342041,28.330171585083008,4.02734375,0,F2,6.1,0,450.0,6.383468720744629,[26500|0|2400|0]
318,31800,0.2217803299427032,0.482260912656784,0.0,-61.57395935058594,20.863201141357425,56.5794677734375,4.02734375,0,F2,6.1,0,450.0,6.390861794298111,[26500|0|2500|0]
319,31900,0.2189642935991287,0.4771739244461059,0.0,-84.72672271728516,22.11508750915528,75.9613037109375,4.03125,0,F2,6.1,0,450.0,6.396676216861351,[26500|0|2600|0]
320,32000,0.2273343503475189,0.4695351123809814,0.0,-94.62918090820312,24.856746673583984,78.96281433105469,4.03125,0,F2,6.1,0,450.0,6.408007999586834,[26500|0|2700|0]
321,32100,0.2415060997009277,0.4675452411174774,0.0,-102.8108901977539,33.417694091796875,84.9654541015625,4.03125,0,F2,6.1,0,450.0,6.422318767119751,[26500|0|2800|0]
322,32200,0.2555213868618011,0.4561304450035095,0.0,-97.90064239501952,30.2675724029541,88.06672668457031,4.0390625,0,F2,6.1,0,450.0,6.440394326434062,[26500|0|2900|0]
323,32300,0.2626581788063049,0.4697740375995636,0.0,-82.82935333251953,9.604619026184082,63.04045104980469,4.0390625,0,F2,6.1,0,450.0,6.455791774865093,[26500|0|3000|0]
324,32400,0.2840462923049927,0.459653228521347,0.0,-84.65461730957031,-2.487602710723877,77.60955047607422,4.0390625,0,F2,6.1,0,450.0,6.479453604368123,[26500|0|3100|0]
325,32500,0.3186601400375366,0.436868667602539,0.0,-88.32713317871094,2.396450996398926,81.789306640625,4.04296875,0,F2,6.1,0,450.0,6.520893375978432,[26500|0|3200|0]
326,32600,0.3622315227985382,0.4082064032554626,0.0,-88.10698699951172,2.4861772060394287,81.53486633300781,4.04296875,0,F2,6.1,0,450.0,6.573046906953884,[26500|0|3300|0]
327,32700,0.4159109890460968,0.3731825947761535,0.0,-92.70184326171876,-1.381886005401611,87.13870239257812,4.04296875,0,F2,6.1,0,450.0,6.637141776148057,[26500|0|3400|0]
328,32800,0.4828923940658569,0.3288930058479309,0.0,-96.60231018066406,-2.9821927547454834,94.71023559570312,4.04296875,0,F2,6.1,0,450.0,6.717441690879344,[26500|0|3500|0]
329,32900,0.5555270314216614,0.2744687497615814,0.0,-86.89706420898438,0.7615817785263062,79.72721099853516,4.046875,0,F2,6.1,0,450.0,6.808203963847586,[26500|0|3600|0]
330,33000,0.6419109106063843,0.2090267091989517,0.0,-81.8903579711914,1.65662944316864,83.00125885009766,4.046875,0,F2,6.1,0,450.0,6.916577554984919,[26500|0|3700|0]
331,33100,0.4727967381477356,0.3798103928565979,0.0,-83.73085021972656,18.58853530883789,73.74173736572266,4.046875,0,F2,6.1,0,450.0,7.156924533185287,[26500|0|3800|0]
332,33200,0.5678620934486389,0.3461408019065857,0.0,-72.2367172241211,18.879642486572266,75.18488311767578,4.046875,0,F2,6.1,0,450.0,7.257776221982392,[26500|0|3900|0]
333,33300,0.5485826134681702,0.4105994403362274,0.0,-53.344032287597656,17.47411346435547,62.80704116821289,4.046875,0,F2,6.1,0,450.0,7.325056341011126,[26500|0|4000|0]
334,33400,0.6677477359771729,0.3853732943534851,0.0,-41.19329833984375,14.247480392456056,69.06768798828125,4.0546875,0,F2,6.1,0,450.0,7.446862272162808,[26500|0|4100|0]
335,33500,0.8010661602020264,0.3556272387504577,0.0,-43.81935501098633,12.991690635681152,67.7864990234375,4.0546875,0,F2,6.1,0,450.0,7.583458868246812,[26500|0|4200|0]
336,33600,1.000633716583252,0.2923609316349029,0.0,-47.89301300048828,17.25349235534668,60.51803588867188,4.0546875,0,F2,6.1,0,450.0,7.792814630469907,[26500|0|4300|0]
337,33700,1.1252812147140503,0.2589313089847564,0.0,-42.91500473022461,30.82811164855957,49.44041061401367,4.0546875,0,F2,6.1,0,450.0,7.921867094455678,[26500|0|4400|0]
338,33800,1.199096918106079,0.2226344496011734,0.0,-25.052976608276367,33.307411193847656,40.07011032104492,4.0546875,0,F2,6.1,0,450.0,8.00412413104448,[26500|0|4500|0]
339,33900,1.3274363279342651,0.1761046946048736,0.0,-6.993871688842773,38.710227966308594,30.67884063720703,4.0546875,0,F2,6.1,0,450.0,8.140637947982777,[26500|0|4600|0]
340,34000,1.4692060947418213,0.1450755149126052,0.0,0.874313473701477,13.299864768981934,17.389129638671875,4.0546875,0,F2,6.1,0,450.0,8.285763675450527,[26500|0|4700|0]
341,34100,0.7528647780418396,0.3932191133499145,0.0,2.6864051818847656,-12.852424621582031,22.56988906860352,4.05859375,0,F2,6.1,0,450.0,9.043866654904429,[26500|0|4800|0]
342,34200,0.713976263999939,0.3851478695869446,0.0,-0.1433058530092239,-4.987353324890137,25.50725555419922,4.05859375,0,F2,6.1,0,450.0,9.08358392445142,[26500|0|4900|0]
