time.ms,stateEstimate.x,stateEstimate.y,stateEstimate.z,stabilizer.roll,stabilizer.pitch,stabilizer.yaw,pm.vbat,drone_id,node_name,wind_speed,global_wind_direction,relative_wind_direction,travel_dist,waiting_time,curr_node_role
0,0.6412993669509888,0.3871782422065735,0.0,-0.5517703294754028,0.4535200595855713,7.819957256317139,4.0234375,0,F2,7.6,180,270.0,0.0,[6200|0|0|0],start
100,0.6413694024085999,0.3876713514328003,0.0,-0.5656201243400574,0.4488370418548584,7.819350242614746,4.0234375,0,F2,7.6,180,270.0,0.0004980579025703,[6300|0|0|0],start
200,0.6414075493812561,0.3870885968208313,0.0,-0.5568563938140869,0.4473922848701477,7.81544017791748,4.0234375,0,F2,7.6,180,270.0,0.0010820597255931,[6400|0|0|0],start
300,0.6415450572967529,0.3875871300697326,0.0,-0.5709425806999207,0.4396840929985046,7.821919441223144,4.0234375,0,F2,7.6,180,270.0,0.0015992094399742,[6500|0|0|0],start
400,0.6418180465698242,0.388932853937149,0.0,-0.6017646789550781,0.4211238920688629,7.842559337615967,2.818359375,0,fly,7.6,180,270.0,0.0029723430352758,[6500|0|0|0],fly
500,0.6410303115844727,0.3877269625663757,0.0,-0.6760454773902893,0.7060647010803223,7.745296478271484,3.056640625,0,fly,7.6,180,270.0,0.0044127250697557,[6500|0|0|0],fly
600,0.6349023580551147,0.3901457488536834,0.0,-2.347339868545532,5.713745594024658,8.235502243041992,3.27734375,0,fly,7.6,180,270.0,0.0110007704218794,[6500|0|0|0],fly
700,0.6187519431114197,0.3964976072311401,0.0421160236001014,1.500410079956055,0.7519033551216125,6.658359527587891,3.2890625,0,fly,7.6,180,270.0,0.0565522956607239,[6500|0|0|0],fly
800,0.6043615937232971,0.3999309837818146,0.1133316904306411,4.101472854614258,-6.123406887054443,3.668501615524292,3.357421875,0,fly,7.6,180,270.0,0.1292884038338273,[6500|0|0|0],fly
900,0.6008750200271606,0.3983413279056549,0.1964515149593353,3.924404859542847,-6.509746074676514,0.8295397758483887,3.36328125,0,fly,7.6,180,270.0,0.212496506994662,[6500|0|0|0],fly
1000,0.6071726679801941,0.3924172520637512,0.2857541441917419,2.7981374263763428,-5.2899370193481445,-1.0567628145217896,3.357421875,0,fly,7.6,180,270.0,0.3022167089122995,[6500|0|0|0],fly
1100,0.6220226883888245,0.3837770521640777,0.3792181611061096,1.2690761089324951,-3.03500771522522,-2.1796658039093018,3.3515625,0,fly,7.6,180,270.0,0.3972466969066809,[6500|0|0|0],fly
1200,0.6406435370445251,0.3756015002727508,0.4752773642539978,0.2856632173061371,-0.4662302732467651,-2.833224534988404,3.330078125,0,fly,7.6,180,270.0,0.4954350167965413,[6500|0|0|0],fly
1300,0.6576621532440186,0.3688540756702423,0.5729673504829407,-0.2976249754428863,1.5004132986068726,-3.1715567111968994,3.330078125,0,fly,7.6,180,270.0,0.5948256322766924,[6500|0|0|0],fly
1400,0.6712532043457031,0.3639290630817413,0.6722649335861206,-0.4289393126964569,2.5848071575164795,-3.3421854972839355,3.3359375,0,fly,7.6,180,270.0,0.6951699516434529,[6500|0|0|0],fly
1500,0.6798874139785767,0.3615683019161224,0.7722969651222229,-0.2331849187612533,2.796560287475586,-3.315325260162353,3.341796875,0,fly,7.6,180,270.0,0.7956016702511978,[6500|0|0|0],fly
1600,0.6841714382171631,0.3600256145000458,0.8728607296943665,0.0010540829971432,2.4316952228546143,-3.2210476398468018,3.330078125,0,fly,7.6,180,270.0,0.8962684646427052,[6500|0|0|0],fly
1700,0.6850298047065735,0.3587850928306579,0.9732372760772704,0.0302444454282522,1.940107703208924,-3.180176019668579,3.3359375,0,fly,7.6,180,270.0,0.9966563461364474,[6500|0|0|0],fly
1800,0.6829076409339905,0.3587191700935364,1.074793577194214,0.3622874915599823,0.975970983505249,-3.15256404876709,3.326171875,0,fly,7.6,180,270.0,1.0982348390443473,[6500|0|0|0],fly
1900,0.6790713667869568,0.3586755990982055,1.17816162109375,0.2664990127086639,0.3492443561553955,-3.03446364402771,3.310546875,0,fly,7.6,180,270.0,1.2016740549993188,[6500|0|0|0],fly
2000,0.6746247410774231,0.3584598004817962,1.281705617904663,0.262282133102417,0.3245586156845093,-3.0210893154144287,3.326171875,0,fly,7.6,180,270.0,1.3053137111393402,[6500|0|0|0],fly
2100,0.672269880771637,0.3578884899616241,1.3866432905197144,0.2375100553035736,-0.3280343115329742,-3.140089750289917,3.3046875,0,fly,7.6,180,270.0,1.4102793574081738,[6500|0|0|0],fly
2200,0.6701263785362244,0.360091894865036,1.4917901754379272,0.2321085482835769,-0.4913122951984405,1.5335007905960083,3.3671875,0,fly,7.6,180,270.0,1.515471167940199,[6500|0|0|0],fly
2300,0.6698766946792603,0.3599488139152527,1.5906703472137451,-0.1934680789709091,-0.1951388120651245,5.587827205657959,3.435546875,0,fly,7.6,180,270.0,1.6143517584754596,[6500|0|0|0],fly
2400,0.6692580580711365,0.3611657321453094,1.676613211631775,0.2988865673542022,-0.1238355785608291,7.279994487762451,3.431640625,0,fly,7.6,180,270.0,1.7003054643036983,[6500|0|0|0],fly
2500,0.6696979403495789,0.3615545332431793,1.7439979314804075,0.2860285639762878,0.0980684384703636,7.069197654724121,3.3828125,0,fly,7.6,180,270.0,1.7676927415286412,[6500|0|0|0],fly
2600,0.6691433191299438,0.3609500229358673,1.7934811115264893,0.13416488468647,0.5691750049591064,3.764388084411621,3.41015625,0,fly,7.6,180,270.0,1.8171827217759788,[6500|0|0|0],fly
2700,0.6675669550895691,0.3632279932498932,1.828317165374756,0.6113920211791992,-0.0755593478679657,0.3936494588851928,3.373046875,0,fly,7.6,180,270.0,1.852128747588061,[6500|0|0|0],fly
2800,0.6640764474868774,0.3642168939113617,1.8468215465545648,0.6346050500869751,0.0796369165182113,-3.914050340652466,3.330078125,0,fly,7.6,180,270.0,1.8709854092939504,[6500|0|0|0],fly
2900,0.6600698232650757,0.3647412955760956,1.8547993898391724,0.5839482545852661,0.2931031584739685,-6.772075176239014,3.3359375,0,fly,7.6,180,270.0,1.879928228661156,[6500|0|0|0],fly
3000,0.6551123261451721,0.3676174879074096,1.8602794408798216,0.6211066246032715,-0.6775572896003723,-7.149651050567627,3.3359375,0,fly,7.6,180,270.0,1.8878579335376744,[6500|0|0|0],fly
3100,0.6512149572372437,0.36832195520401,1.8601363897323608,0.5650789737701416,-0.9336163997650146,-6.089932918548584,3.330078125,0,fly,7.6,180,270.0,1.8918210411828509,[6500|0|0|0],fly
3200,0.6483801007270813,0.3678514659404754,1.8583998680114744,0.3247352838516235,-0.868440568447113,-6.172628402709961,3.3515625,0,fly,7.6,180,270.0,1.8951786116240208,[6500|0|0|0],fly
3300,0.6463155746459961,0.367008775472641,1.8549624681472776,0.3928724527359009,-0.9143164157867432,-6.144460678100586,3.388671875,0,fly,7.6,180,270.0,1.899275941607125,[6500|0|0|0],fly
3400,0.6469607353210449,0.3667398989200592,1.853888750076294,-0.0926252752542495,-1.1041380167007446,-8.942777633666992,3.599609375,0,fly,7.6,180,92.0,1.9005571119287896,[6500|0|0|0],fly
3500,0.6465106010437012,0.3647912442684173,1.834654450416565,-13.229144096374512,-0.581861674785614,-6.726010799407959,3.642578125,0,fly,7.6,180,92.0,1.9198951097367127,[6500|0|0|0],fly
3600,0.6575859785079956,0.3740640878677368,1.7951807975769043,-13.597821235656738,-1.8124845027923584,0.5490754842758179,3.525390625,0,fly,7.6,180,92.0,1.961928654470653,[6500|0|0|0],fly
3700,0.6751445531845093,0.4028036296367645,1.7384306192398071,-13.38483715057373,-0.8561778664588928,4.891313552856445,3.3515625,0,fly,7.6,180,92.0,2.027919923188997,[6500|0|0|0],fly
3800,0.6463218331336975,0.4670677185058594,1.6854629516601562,-9.158794403076172,1.642673373222351,3.830663919448853,3.29296875,0,fly,7.6,180,92.0,2.116045947257548,[6500|0|0|0],fly
3900,0.6288272142410278,0.5402253866195679,1.6373968124389648,-0.9835014939308168,-0.961024522781372,-1.8253843784332275,3.341796875,0,fly,7.6,180,92.0,2.205312177342985,[6500|0|0|0],fly
4000,0.6160881519317627,0.6031302809715271,1.5954631567001345,4.382073402404785,-3.161327123641968,-4.953890323638916,3.3046875,0,fly,7.6,180,92.0,2.2819786036688106,[6500|0|0|0],fly
4100,0.6052756905555725,0.6567836403846741,1.5639580488204956,7.207926273345947,-4.765215873718262,-8.563210487365723,3.314453125,0,fly,7.6,180,92.0,2.3451305167026657,[6500|0|0|0],fly
4200,0.5936757922172546,0.698574423789978,1.5412715673446655,7.4840803146362305,-4.365390300750732,-7.255707740783691,3.3046875,0,fly,7.6,180,92.0,2.394076442588704,[6500|0|0|0],fly
4300,0.5843138098716736,0.7232558727264404,1.5230047702789309,5.993404865264893,-4.3389573097229,-6.035202980041504,3.298828125,0,fly,7.6,180,92.0,2.426177790069501,[6500|0|0|0],fly
4400,0.5801512002944946,0.7400246858596802,1.513386607170105,3.822080612182617,-4.330067157745361,-5.264498233795166,3.310546875,0,fly,7.6,180,92.0,2.445952255270297,[6500|0|0|0],fly
4500,0.5790958404541016,0.7530384659767151,1.5069657564163208,1.8270601034164429,-4.120039463043213,-4.612271785736084,3.314453125,0,fly,7.6,180,92.0,2.4605021549857464,[6500|0|0|0],fly
4600,0.5808889865875244,0.7648521065711975,1.5033596754074097,0.4253354668617248,-3.6024422645568848,-4.118725299835205,3.310546875,0,fly,7.6,180,92.0,2.4729833928007325,[6500|0|0|0],fly
4700,0.5861180424690247,0.7773879170417786,1.499119758605957,0.1667605340480804,-3.204795837402344,-3.724203586578369,3.314453125,0,fly,7.6,180,92.0,2.487212463889508,[6500|0|0|0],fly
4800,0.5936010479927063,0.7915306687355042,1.4951753616333008,0.3970573544502258,-2.631532907485962,-3.2981505393981934,3.341796875,0,fly,7.6,180,92.0,2.503691877247262,[6500|0|0|0],fly
4900,0.6026439666748047,0.8084174394607544,1.4898767471313477,1.1180930137634275,-1.902542233467102,2.068173408508301,3.3203125,0,fly,7.6,180,92.0,2.5235668041517445,[6500|0|0|0],fly
5000,0.6129324436187744,0.8217734098434448,1.483269453048706,1.8814071416854856,-1.4770938158035278,2.0115654468536377,3.3203125,0,fly,7.6,180,92.0,2.541674565962206,[6500|0|0|0],fly
5100,0.6236247420310974,0.8350626826286316,1.475990653038025,2.390545129776001,-0.7315676212310791,1.6616551876068115,3.3046875,0,fly,7.6,180,92.0,2.560219402065358,[6500|0|0|0],fly
5200,0.6347460150718689,0.8456432819366455,1.4670202732086182,2.8259518146514893,-0.248699739575386,0.677098274230957,3.3046875,0,fly,7.6,180,92.0,2.5779985896184483,[6500|0|0|0],fly
5300,0.6453269720077515,0.8518406748771667,1.4591608047485352,3.0529589653015137,-0.0367705971002578,0.538569450378418,3.310546875,0,fly,7.6,180,92.0,2.59256346426306,[6500|0|0|0],fly
5400,0.6554677486419678,0.8545928597450256,1.4516750574111938,2.6352691650390625,0.35359588265419,0.3269982635974884,3.298828125,0,fly,7.6,180,92.0,2.6054648706007604,[6500|0|0|0],fly
5500,0.6641877889633179,0.8533244729042053,1.4446053504943848,2.182689428329468,0.4751299619674682,1.327701449394226,3.314453125,0,fly,7.6,180,92.0,2.6167621563045707,[6500|0|0|0],fly
5600,0.6721017956733704,0.8486062288284302,1.4378982782363892,1.558655858039856,0.5750483870506287,1.2466495037078855,3.3203125,0,fly,7.6,180,92.0,2.6281585657233006,[6500|0|0|0],fly
5700,0.6786722540855408,0.8421271443367004,1.4310475587844849,0.8708717226982117,0.6786113977432251,1.6243056058883667,3.314453125,0,fly,7.6,180,92.0,2.6396512510755468,[6500|0|0|0],fly
5800,0.6832349896430969,0.834873378276825,1.4221564531326294,0.4672825634479522,0.6247445344924927,1.8544656038284304,3.3046875,0,fly,7.6,180,92.0,2.65199983146084,[6500|0|0|0],fly
5900,0.6868812441825867,0.8278968930244446,1.414223313331604,-0.0138216223567724,0.5755251049995422,1.9288644790649407,3.357421875,0,fly,7.6,180,92.0,2.663175753156433,[6500|0|0|0],fly
6000,0.6894959807395935,0.8208482265472412,1.4072518348693848,-0.2372069656848907,0.3711526989936828,1.866334795951844,3.326171875,0,fly,7.6,180,92.0,2.6734286580286435,[6500|0|0|0],fly
6100,0.6917858123779297,0.8141270279884338,1.399744749069214,-0.4695248901844024,0.3954178690910339,1.7942553758621216,3.3046875,0,fly,7.6,180,92.0,2.683761817091097,[6500|0|0|0],fly
6200,0.6928974986076355,0.8090364336967468,1.391919732093811,-0.4147088527679443,0.2627695798873901,1.7113906145095823,3.29296875,0,fly,7.6,180,92.0,2.6931629280457248,[6500|0|0|0],fly
6300,0.6947641968727112,0.8040584325790405,1.3850692510604858,-0.44200199842453,0.1565503031015396,1.5979527235031128,3.29296875,0,fly,7.6,180,92.0,2.7018343839747296,[6500|0|0|0],fly
6400,0.6962769031524658,0.8002605438232422,1.3787689208984375,-0.5441873073577881,0.1979971677064895,1.63322651386261,3.494140625,0,fly,7.6,180,270.0,2.709344803366551,[6500|0|0|0],fly
6500,0.6975358128547668,0.7973920106887817,1.3614120483398438,-0.0732007026672363,-0.2663782835006714,1.1848783493041992,3.7578125,0,fly,7.6,180,270.0,2.726982103641744,[6500|0|0|0],fly
6600,0.6989837288856506,0.7947162389755249,1.3062405586242676,-0.0250128209590911,-0.3762158155441284,1.2464978694915771,3.642578125,0,fly,7.6,180,270.0,2.782237415535985,[6500|0|0|0],fly
6700,0.6992347240447998,0.7932062149047852,1.2221444845199585,-0.3007317185401916,-0.1880309879779815,2.083690404891968,3.494140625,0,fly,7.6,180,270.0,2.866347420000505,[6500|0|0|0],fly
6800,0.6977075934410095,0.7912042140960693,1.101799249649048,-1.143621563911438,0.9541699290275574,3.488721370697021,3.29296875,0,fly,7.6,180,270.0,2.986718993435655,[6500|0|0|0],fly
6900,0.6940001845359802,0.7907435894012451,0.9695340394973756,-1.4668442010879517,1.3188427686691284,4.746664524078369,3.27734375,0,fly,7.6,180,270.0,3.119036954697022,[6500|0|0|0],fly
7000,0.6882480978965759,0.7908749580383301,0.8375371694564819,-0.0830951258540153,0.3845185339450836,5.01140022277832,3.283203125,0,fly,7.6,180,270.0,3.251159161229529,[6500|0|0|0],fly
7100,0.6803196668624878,0.7917120456695557,0.7117965817451477,1.517167568206787,-0.5223701596260071,4.917768478393555,3.326171875,0,fly,7.6,180,270.0,3.3771522409297905,[6500|0|0|0],fly
7200,0.6733474731445312,0.7874852418899536,0.5906678438186646,1.8910551071166992,-0.49692302942276,4.769052982330322,3.3203125,0,fly,7.6,180,270.0,3.4985550765931084,[6500|0|0|0],fly
7300,0.6686340570449829,0.77899169921875,0.4717056155204773,1.126143455505371,-1.9574393033981323,4.789000034332275,3.27734375,0,fly,7.6,180,270.0,3.617913228053765,[6500|0|0|0],fly
7400,0.6648352146148682,0.7677940130233765,0.3572867214679718,-0.2066993713378906,-2.1347098350524902,4.279547691345215,3.177734375,0,fly,7.6,180,270.0,3.732941497171132,[6500|0|0|0],fly
7500,0.6634909510612488,0.7572147846221924,0.2561036348342895,-1.6543495655059814,-0.5940468907356262,2.858901262283325,3.21484375,0,fly,7.6,180,270.0,3.8346850185313897,[6500|0|0|0],fly
7600,0.6629388332366943,0.7489924430847168,0.1739975363016128,-2.4263670444488525,0.3352428078651428,2.420243501663208,3.283203125,0,fly,7.6,180,270.0,3.917203641585272,[6500|0|0|0],fly
7700,0.661414623260498,0.7463813424110413,0.1159596443176269,-3.8595130443573,-1.222160577774048,2.49459171295166,3.3828125,0,fly,7.6,180,270.0,3.975320231030321,[6500|0|0|0],fly
7800,0.6611295342445374,0.7489996552467346,0.0756884515285492,-0.8576685190200806,-1.6863467693328855,0.8346513509750366,3.404296875,0,fly,7.6,180,270.0,4.015677458468633,[6500|0|0|0],fly
7900,0.6637235283851624,0.7534809112548828,0.0478518009185791,-0.8470537066459656,-1.4398213624954224,0.3742873966693878,3.431640625,0,fly,7.6,180,270.0,4.043991581767681,[6500|0|0|0],fly
8000,0.6673746109008789,0.7588692903518677,0.0308437142521142,-0.4606639444828033,-1.8460155725479128,1.2932758331298828,3.453125,0,fly,7.6,180,270.0,4.06220256869545,[6500|0|0|0],fly
8100,0.6749052405357361,0.7658295631408691,0.0202633719891309,-0.2520724534988403,-2.134201765060425,2.804960012435913,3.45703125,0,fly,7.6,180,270.0,4.076936862787688,[6500|0|0|0],fly
8200,0.6839367747306824,0.7733283042907715,0.0133591126650571,0.6299260854721069,0.8072620630264282,3.031567335128784,3.45703125,0,fly,7.6,180,270.0,4.09055554574757,[6500|0|0|0],fly
8300,0.6911607384681702,0.7821757197380066,0.0092598628252744,1.2588635683059692,0.5306565761566162,3.010794878005981,3.45703125,0,fly,7.6,180,270.0,4.102690876868947,[6500|0|0|0],fly
8400,0.6962955594062805,0.788252592086792,0.0056843687780201,1.7362300157546997,0.8615560531616211,2.8916049003601074,3.453125,0,fly,7.6,180,270.0,4.111413200028051,[6500|0|0|0],fly
8500,0.700851321220398,0.7900477647781372,0.0061496030539274,2.233481407165528,-0.3046368956565857,2.2137606143951416,3.462890625,0,fly,7.6,180,270.0,4.1163319451556415,[6500|0|0|0],fly
8600,0.7067055702209473,0.7878180742263794,0.0087526077404618,1.9744069576263428,-0.3204914331436157,1.855937957763672,3.46875,0,fly,7.6,180,270.0,4.123115704048405,[6500|0|0|0],fly
8700,0.7112026810646057,0.7818829417228699,0.0126182110980153,0.4645057320594787,1.0931521654129028,1.4856480360031128,3.484375,0,fly,7.6,180,270.0,4.13150573939352,[6500|0|0|0],fly
8800,0.7147780060768127,0.7739309668540955,0.0171012692153453,0.3431488573551178,0.3640893399715423,0.8834127187728882,3.478515625,0,fly,7.6,180,270.0,4.141309548007518,[6500|0|0|0],fly
8900,0.7176372408866882,0.7650806903839111,0.0212610401213169,-0.505903959274292,0.9972957372665404,0.7653390765190125,3.484375,0,fly,7.6,180,270.0,4.151498086238632,[6500|0|0|0],fly
9000,0.7196524739265442,0.7563779354095459,0.024371201172471,-1.0564186573028564,0.4257420599460602,0.4652929008007049,3.47265625,0,fly,7.6,180,270.0,4.160957061347643,[6500|0|0|0],fly
9100,0.7209982872009277,0.7489770650863647,0.0258595626801252,-1.7377641201019287,0.541239857673645,-0.0605375170707702,3.46875,0,fly,7.6,180,270.0,4.1686251324797805,[6500|0|0|0],fly
9200,0.7205370664596558,0.7445093989372253,0.0254248771816492,-2.2112157344818115,0.5703122019767761,-0.2514316141605377,3.462890625,0,fly,7.6,180,270.0,4.1731375283927,[6500|0|0|0],fly
9300,0.7203736305236816,0.7433191537857056,0.0246714577078819,-2.0406317710876465,0.6049102544784546,-0.1883875876665115,3.462890625,0,fly,7.6,180,270.0,4.174555638307106,[6500|0|0|0],fly
9400,0.718197226524353,0.7457727789878845,0.0266442392021417,-1.444872260093689,0.622887372970581,-0.2262704372406005,3.47265625,0,F1,7.6,180,270.0,4.17838302355361,[6500|0|100|0],second_intermediate
9500,0.7167266607284546,0.7495163083076477,0.0299037601798772,-0.426490843296051,-0.1598186939954757,-0.1739188134670257,3.478515625,0,F1,7.6,180,270.0,4.183559996852004,[6500|0|200|0],second_intermediate
9600,0.7157229781150818,0.7549058794975281,0.0319433212280273,0.2235035002231598,0.2779339253902435,-0.0774211511015892,3.47265625,0,F1,7.6,180,270.0,4.189409327212679,[6500|0|300|0],second_intermediate
9700,0.7150887250900269,0.7595051527023315,0.0313329435884952,0.6424886584281921,0.0009307996951974,-0.2080346941947937,3.45703125,0,F1,7.6,180,270.0,4.194092077662473,[6500|0|400|0],second_intermediate
9800,0.714720606803894,0.7638741135597229,0.0294417832046747,0.9742220640182496,0.314020037651062,-0.7182056903839111,3.447265625,0,F1,7.6,180,270.0,4.19886699312176,[6500|0|500|0],second_intermediate
9900,0.7153682112693787,0.7659161686897278,0.0273926928639411,0.0471017025411129,-0.2155589163303375,-1.3305824995040894,3.447265625,0,F1,7.6,180,270.0,4.201831474850862,[6500|0|600|0],second_intermediate
10000,0.7165387272834778,0.7674189805984497,0.0281083509325981,0.3768029808998108,0.2202217429876327,-1.6325721740722656,3.45703125,0,F1,7.6,180,270.0,4.2038663502385685,[6500|0|700|0],second_intermediate
10100,0.7180076837539673,0.7676894664764404,0.0308535266667604,0.4843154549598694,0.3632329106330871,-1.2605494260787964,3.462890625,0,F1,7.6,180,270.0,4.206991567916398,[6500|0|800|0],second_intermediate
10200,0.7204741835594177,0.7685436010360718,0.0349822342395782,-0.6409477591514587,-0.0057849455624818,-0.4473055005073547,3.46875,0,F1,7.6,180,270.0,4.21187617571622,[6500|0|900|0],second_intermediate
10300,0.7222881317138672,0.7685612440109253,0.036991287022829,-0.2893659174442291,0.2668296098709106,0.0720133408904075,3.462890625,0,F1,7.6,180,270.0,4.214583021162026,[6500|0|1000|0],second_intermediate
10400,0.7224804759025574,0.7701231837272644,0.0375209525227546,0.2793700397014618,0.0921919271349906,-0.1534304916858673,3.45703125,0,F1,7.6,180,270.0,4.216243502268878,[6500|0|1100|0],second_intermediate
10500,0.7219751477241516,0.7722291946411133,0.037703413516283,-0.0178439803421497,0.1973360180854797,-0.4251992702484131,3.453125,0,F1,7.6,180,270.0,4.218416962770314,[6500|0|1200|0],second_intermediate
10600,0.7218164801597595,0.7739014625549316,0.0386603064835071,-0.4730241894721985,-0.1886578053236007,-0.940298855304718,3.453125,0,F1,7.6,180,270.0,4.220350172412928,[6500|0|1300|0],second_intermediate
10700,0.7206006050109863,0.7765102386474609,0.038672536611557,0.7219864130020142,0.1219234466552734,-1.2759429216384888,3.447265625,0,F1,7.6,180,270.0,4.2232284035805705,[6500|0|1400|0],second_intermediate
10800,0.7185686826705933,0.7779178023338318,0.0397432744503021,1.3824869394302368,0.536575198173523,-1.183637619018555,3.447265625,0,F1,7.6,180,270.0,4.225922178524381,[6500|0|1500|0],second_intermediate
10900,0.7151809334754944,0.7759071588516235,0.0412293449044227,1.1667263507843018,1.1387842893600464,0.3120278418064117,3.45703125,0,F1,7.6,180,270.0,4.23013263422609,[6500|0|1600|0],second_intermediate
11000,0.7092044353485107,0.7727005481719971,0.0424066744744777,-0.4873667359352112,0.3476501107215881,1.8273730278015137,3.453125,0,F1,7.6,180,270.0,4.237016454882459,[6500|0|1700|0],second_intermediate
11100,0.7021827101707458,0.7685917019844055,0.0441646166145801,0.0901215896010398,0.0496745072305202,0.9510297179222108,3.44140625,0,F1,7.6,180,270.0,4.2453397716512296,[6500|0|1800|0],second_intermediate
11201,0.6946921348571777,0.7645779848098755,0.0455994196236133,-0.5162856578826904,-0.0098189525306224,-1.8333731889724727,3.447265625,0,F1,7.6,180,270.0,4.253958199800265,[6500|0|1900|0],second_intermediate
11301,0.6866422891616821,0.7610595226287842,0.0466458015143871,-0.417716383934021,0.1974428296089172,-4.425995349884033,3.447265625,0,F1,7.6,180,270.0,4.262805487910325,[6500|0|2000|0],second_intermediate
11401,0.6789733171463013,0.7582557201385498,0.0391817428171634,-2.44874119758606,-1.763001799583435,-7.73768949508667,3.896484375,0,F1,7.6,180,270.0,4.2738683362059735,[6500|0|2100|0],second_intermediate
11501,0.6723905205726624,0.7573612332344055,0.0,-5.291707992553711,-2.565119743347168,-13.638118743896484,3.900390625,0,F1,7.6,180,270.0,4.31360927589972,[6500|0|2200|0],second_intermediate
11601,0.6635941863059998,0.7588219046592712,0.0,2.9109866619110107,8.961099624633789,-19.03413391113281,3.900390625,0,F1,7.6,180,270.0,4.322526061057067,[6500|0|2300|0],second_intermediate
11701,0.6629157662391663,0.7583832144737244,0.0,-1.332972526550293,1.7245203256607056,-20.13655471801757,3.90625,0,F1,7.6,180,270.0,4.323333961339266,[6500|0|2400|0],second_intermediate
11801,0.6633191108703613,0.7586953043937683,0.0,-1.3608797788619995,1.5294084548950195,-20.0393180847168,3.90625,0,F1,7.6,180,270.0,4.323843948603526,[6500|0|2500|0],second_intermediate
11901,0.6635349988937378,0.758309543132782,0.0,-1.333364725112915,1.3600083589553833,-19.968544006347656,3.90625,0,F1,7.6,180,270.0,4.324286011256455,[6500|0|2600|0],second_intermediate
12001,0.664003312587738,0.7583047151565552,0.0,-1.324289321899414,1.219761848449707,-19.900598526000977,3.912109375,0,F1,7.6,180,270.0,4.32475434983627,[6500|0|2700|0],second_intermediate
12100,0.6637880802154541,0.7587258219718933,0.0,-1.312219500541687,1.109957933425903,-19.74186134338379,3.912109375,0,F1,7.6,180,270.0,4.325227272582607,[6500|0|2800|0],second_intermediate
12200,0.663784384727478,0.761963963508606,0.0,-1.3566285371780396,1.0812432765960691,-20.827531814575195,3.912109375,0,F1,7.6,180,270.0,4.328465416228034,[6500|0|2900|0],second_intermediate
12300,0.662494421005249,0.7643733024597168,0.0,-1.3489598035812378,1.06787109375,-20.86783790588379,3.912109375,0,F1,7.6,180,270.0,4.331198348826179,[6500|0|3000|0],second_intermediate
12400,0.6637093424797058,0.7665683627128601,0.0,3.9019622802734375,11.86394214630127,-20.66046905517578,3.916015625,0,F1,7.6,180,270.0,4.333707197905743,[6500|0|3100|0],second_intermediate
12500,0.6909749507904053,0.7584007978439331,0.0104463007301092,-4.457829475402832,14.238492012023926,-19.21280097961425,3.916015625,0,F1,7.6,180,270.0,4.364026296035214,[6500|0|3200|0],second_intermediate
12600,0.7362531423568726,0.7403023838996887,0.025920582935214,-3.4834136962890625,10.644359588623049,-22.26234245300293,3.916015625,0,F1,7.6,180,270.0,4.415184097283803,[6500|0|3300|0],second_intermediate
12700,0.7414045333862305,0.740057647228241,0.0,-0.0617030933499336,3.617774248123169,-25.30426788330078,3.921875,0,F1,7.6,180,270.0,4.4416127435843045,[6500|0|3400|0],second_intermediate
12800,0.7441504597663879,0.7443153262138367,0.0,-1.1608829498291016,-3.058894634246826,-26.847919464111328,3.921875,0,F1,7.6,180,270.0,4.446679097503014,[6500|0|3500|0],second_intermediate
12900,0.7441347241401672,0.7402084469795227,0.0,-1.0767921209335327,-3.62618899345398,-31.05761909484864,3.921875,0,F1,7.6,180,270.0,4.4507860068829705,[6500|0|3600|0],second_intermediate
13000,0.7375917434692383,0.7376317381858826,0.0,0.7696947455406189,-4.610436916351318,-28.92769432067871,3.921875,0,F1,7.6,180,270.0,4.457818078005149,[6500|0|3700|0],second_intermediate
13100,0.7373225092887878,0.7339819669723511,0.0,0.8448511362075806,-4.321766376495361,-26.26735496520996,3.921875,0,F1,7.6,180,270.0,4.461477766100471,[6500|0|3800|0],second_intermediate
13200,0.7385854721069336,0.731871485710144,0.0,0.6813341379165649,-4.287106513977051,-27.856273651123047,3.927734375,0,F1,7.6,180,270.0,4.463937279515386,[6500|0|3900|0],second_intermediate
13300,0.7375473380088806,0.7349482178688049,0.0,0.7590878009796143,-4.045717239379883,-24.530010223388672,3.927734375,0,F1,7.6,180,270.0,4.467184432604121,[6500|0|4000|0],second_intermediate
13400,0.7367753386497498,0.73543781042099,0.0,1.0529450178146362,-3.918365240097046,-20.773096084594727,3.927734375,0,F1,7.6,180,270.0,4.468098590072861,[6500|0|4100|0],second_intermediate
13500,0.7364775538444519,0.7351182103157043,0.0,1.220366358757019,-3.826316595077514,-18.14632034301757,3.927734375,0,F1,7.6,180,270.0,4.46853541957915,[6500|0|4200|0],second_intermediate
13600,0.7365189790725708,0.7348504662513733,0.0,1.221135139465332,-3.774425506591797,-16.320707321166992,3.958984375,0,F1,7.6,180,270.0,4.468806349336669,[6500|0|4300|0],second_intermediate
13700,0.7367450594902039,0.7346135377883911,0.0,1.1613742113113403,-3.7431585788726807,-14.992576599121094,4.01171875,0,F1,7.6,180,270.0,4.46913383590404,[6500|0|4400|0],second_intermediate
13800,0.7366188168525696,0.7346710562705994,0.0,1.0384763479232788,-3.716154098510742,-14.006108283996582,4.01171875,0,F1,7.6,180,270.0,4.469272564341472,[6500|0|4500|0],second_intermediate
13900,0.7366042733192444,0.7349390983581543,0.0,0.8932990431785583,-3.7030956745147705,-13.28379249572754,4.015625,0,F1,7.6,180,270.0,4.469541000693448,[6500|0|4600|0],second_intermediate
14000,0.7363200783729553,0.7350082993507385,0.0,0.7671523690223694,-3.691403388977051,-12.75365161895752,4.015625,0,F1,7.6,180,270.0,4.469833499488096,[6500|0|4700|0],second_intermediate
14100,0.7362911105155945,0.7351506352424622,0.0,0.6536136865615845,-3.685122013092041,-12.359564781188965,4.015625,0,F1,7.6,180,270.0,4.469978753206922,[6500|0|4800|0],second_intermediate
14200,0.7364972233772278,0.7355125546455383,0.0,0.5530070662498474,-3.6854751110076895,-12.061965942382812,4.015625,0,F1,7.6,180,270.0,4.470395248304197,[6500|0|4900|0],second_intermediate
14300,0.7363555431365967,0.7355896830558777,0.0,0.4755048453807831,-3.666053771972656,-11.848363876342772,4.015625,0,F1,7.6,180,270.0,4.4705565619188325,[6500|0|5000|0],second_intermediate
14400,0.7365174889564514,0.7357968091964722,0.0,0.399883359670639,-3.666736125946045,-11.690372467041016,4.0234375,0,F1,7.6,180,270.0,4.470819483364679,[6500|0|5100|0],second_intermediate
14500,0.7362299561500549,0.7356898784637451,0.0,0.3537408113479614,-3.658727169036865,-11.568533897399902,4.0234375,0,F1,7.6,180,270.0,4.471126255749935,[6500|0|5200|0],second_intermediate
14600,0.7365643978118896,0.7359228134155273,0.0,0.2947487533092499,-3.664212226867676,-11.470361709594728,4.0234375,0,F1,7.6,180,270.0,4.471533821593613,[6500|0|5300|0],second_intermediate
14700,0.736457884311676,0.7358493804931641,0.0,0.2610897123813629,-3.6594414710998535,-11.400348663330078,4.0234375,0,F1,7.6,180,270.0,4.471663195160521,[6500|0|5400|0],second_intermediate
14800,0.7362870573997498,0.7361186146736145,0.0,0.230703130364418,-3.64792275428772,-11.35153102874756,4.02734375,0,F1,7.6,180,270.0,4.471982050735603,[6500|0|5500|0],second_intermediate
14900,0.7364683151245117,0.7362170815467834,0.0,0.2017080038785934,-3.646888017654419,-11.32419776916504,4.02734375,0,F1,7.6,180,270.0,4.472188327462108,[6500|0|5600|0],second_intermediate
15000,0.7364678978919983,0.7361743450164795,0.0,0.1895310878753662,-3.6420435905456543,-11.284416198730469,4.02734375,0,F1,7.6,180,270.0,4.472231066029064,[6500|0|5700|0],second_intermediate
15100,0.7363566756248474,0.7363319396972656,0.0,0.1753322631120681,-3.646081924438477,-11.260873794555664,4.02734375,0,F1,7.6,180,270.0,4.472423955832118,[6500|0|5800|0],second_intermediate
15200,0.7361707091331482,0.7362968325614929,0.0,0.1792340725660324,-3.6463911533355713,-11.262611389160156,4.02734375,0,F1,7.6,180,270.0,4.472613207112212,[6500|0|5900|0],second_intermediate
15300,0.7365539073944092,0.7364748120307922,0.0,0.1651948690414428,-3.642135858535767,-11.24205493927002,4.02734375,0,F1,7.6,180,270.0,4.473035720542679,[6500|0|6000|0],second_intermediate
15400,0.7363952994346619,0.7362285256385803,0.0,0.1711357086896896,-3.6302359104156494,-11.267943382263184,4.02734375,0,F1,7.6,180,270.0,4.473328659908221,[6500|0|6100|0],second_intermediate
15500,0.736617922782898,0.736014187335968,0.0,0.1752334088087082,-3.636225700378418,-11.256609916687012,4.02734375,0,F1,7.6,180,270.0,4.473637693989103,[6500|0|6200|0],second_intermediate
15600,0.7364220023155212,0.7361679077148438,0.0,0.1745742708444595,-3.6212682723999023,-11.267300605773926,4.03125,0,F1,7.6,180,270.0,4.47388672166712,[6500|0|6300|0],second_intermediate
15700,0.7364175915718079,0.7363051176071167,0.0,0.174452394247055,-3.618626356124878,-11.256583213806152,4.03125,0,F1,7.6,180,270.0,4.474024002434883,[6500|0|6400|0],second_intermediate
15800,0.736367404460907,0.7360976338386536,0.0,0.180663987994194,-3.620236873626709,-11.269747734069824,4.03125,0,F1,7.6,180,270.0,4.47423746966955,[6500|0|6500|0],second_intermediate
15900,0.7362964153289795,0.736245334148407,0.0,0.1747608482837677,-3.6147148609161377,-11.279776573181152,4.0390625,0,F1,7.6,180,270.0,4.474401344128673,[6500|0|6600|0],second_intermediate
16000,0.7365103363990784,0.7362393140792847,0.0,0.1786552518606186,-3.614856004714966,-11.256863594055176,4.0390625,0,F1,7.6,180,270.0,4.474615349889027,[6500|0|6700|0],second_intermediate
16100,0.7364329099655151,0.7364345788955688,0.0,0.1780861169099807,-3.610106468200684,-11.255746841430664,4.0390625,0,F1,7.6,180,270.0,4.474825405122461,[6500|0|6800|0],second_intermediate
16200,0.7363165020942688,0.7364099025726318,0.0,0.1778486669063568,-3.6088032722473145,-11.2877197265625,4.0390625,0,F1,7.6,180,270.0,4.474944399716463,[6500|0|6900|0],second_intermediate
16300,0.7364516258239746,0.7362772822380066,0.0,0.1803839206695556,-3.613400936126709,-11.26826000213623,4.0390625,0,F1,7.6,180,270.0,4.475133731635288,[6500|0|7000|0],second_intermediate
16400,0.7362756133079529,0.7360513210296631,0.0,0.1919557005167007,-3.609544277191162,-11.267109870910645,4.0390625,0,F1,7.6,180,270.0,4.475420155924538,[6500|0|7100|0],second_intermediate
16500,0.7363870143890381,0.7361805438995361,0.0,0.1898459047079086,-3.616456031799317,-11.28207302093506,4.0390625,0,F1,7.6,180,270.0,4.475590768793236,[6500|0|7200|0],second_intermediate
16600,0.7364224791526794,0.7359102368354797,0.0,0.2017909586429596,-3.622576713562012,-11.25661563873291,4.0390625,0,F1,7.6,180,270.0,4.475863392450204,[6500|0|7300|0],second_intermediate
16700,0.7363497614860535,0.7364648580551147,0.0,0.183750107884407,-3.6205105781555176,-11.26092529296875,4.0390625,0,F1,7.6,180,270.0,4.47642276044742,[6500|0|7400|0],second_intermediate
16800,0.7364181876182556,0.7364385724067688,0.0,0.1917570084333419,-3.623860359191896,-11.257551193237305,4.04296875,0,F1,7.6,180,270.0,4.476496061681224,[6500|0|7500|0],second_intermediate
16900,0.7362344861030579,0.7364467978477478,0.0,0.1939999908208847,-3.622549533843994,-11.26107692718506,4.04296875,0,F1,7.6,180,270.0,4.476679947255876,[6500|0|7600|0],second_intermediate
17000,0.7361077666282654,0.7364750504493713,0.0,0.1954941898584365,-3.623269557952881,-11.249332427978516,4.04296875,0,F1,7.6,180,270.0,4.476809778048796,[6500|0|7700|0],second_intermediate
17100,0.7363622188568115,0.736225426197052,0.0,0.205007791519165,-3.62594485282898,-11.254232406616213,4.04296875,0,F1,7.6,180,270.0,4.477166230295189,[6500|0|7800|0],second_intermediate
17200,0.7363483309745789,0.7362291216850281,0.0,0.2000120282173156,-3.627936840057373,-11.243531227111816,4.04296875,0,F1,7.6,180,270.0,4.477180601443518,[6500|0|7900|0],second_intermediate
17300,0.7362028360366821,0.7363289594650269,0.0,0.1974831223487854,-3.621530532836914,-11.27390193939209,4.04296875,0,F1,7.6,180,270.0,4.47735705642154,[6500|0|8000|0],second_intermediate
17400,0.7363556623458862,0.7365685105323792,0.0,0.18992780148983,-3.6304314136505127,-11.26459503173828,4.04296875,0,F1,7.6,180,270.0,4.477641205316759,[6500|0|8100|0],second_intermediate
17500,0.7362882494926453,0.736323356628418,0.0,0.1940573453903198,-3.632599115371704,-11.262462615966797,4.04296875,0,F1,7.6,180,270.0,4.477895458988138,[6500|0|8200|0],second_intermediate
17600,0.7365648150444031,0.7362363338470459,0.0,0.1905816942453384,-3.639783620834351,-11.242478370666504,4.046875,0,F1,7.6,180,270.0,4.478185392547591,[6500|0|8300|0],second_intermediate
17700,0.7363453507423401,0.7361886501312256,0.0,0.1943761706352234,-3.62511157989502,-11.24976921081543,4.046875,0,F1,7.6,180,270.0,4.478409977312511,[6500|0|8400|0],second_intermediate
17800,0.7364892959594727,0.7365262508392334,0.0,0.1820391714572906,-3.6322333812713614,-11.24718952178955,4.046875,0,F1,7.6,180,270.0,4.478776984756009,[6500|0|8500|0],second_intermediate
17900,0.7362053990364075,0.7362132668495178,0.0,0.1898478269577026,-3.62270188331604,-11.238253593444824,4.046875,0,F1,7.6,180,270.0,4.479199544149165,[6500|0|8600|0],second_intermediate
18000,0.7364705801010132,0.7364257574081421,0.0,0.1793400049209594,-3.6366589069366455,-11.242942810058594,4.046875,0,F1,7.6,180,270.0,4.479539357678222,[6500|0|8700|0],second_intermediate
18100,0.736345648765564,0.7363914251327515,0.0,0.1818546205759048,-3.634576559066773,-11.256255149841309,4.046875,0,F1,7.6,180,270.0,4.479668920573029,[6500|0|8800|0],second_intermediate
18200,0.7364866733551025,0.7360752820968628,0.0,0.1864175498485565,-3.646004676818848,-11.253091812133787,4.046875,0,F1,7.6,180,270.0,4.480015091562564,[6500|0|8900|0],second_intermediate
18300,0.7363101840019226,0.7360930442810059,0.0,0.1893060952425003,-3.6375229358673096,-11.244524002075195,4.046875,0,F1,7.6,180,270.0,4.480192472471828,[6500|0|9000|0],second_intermediate
18400,0.7365713715553284,0.7361463904380798,0.0,0.1878150552511215,-3.637877225875856,-11.228132247924805,4.046875,0,F1,7.6,180,270.0,4.4804590521982295,[6500|0|9100|0],second_intermediate
18500,0.7361081838607788,0.7364529967308044,0.0,0.1843328028917312,-3.625337839126587,-11.237244606018066,4.0546875,0,F1,7.6,180,270.0,4.481014525203083,[6500|0|9200|0],second_intermediate
18600,0.7362755537033081,0.7360934615135193,0.0,0.1879948675632476,-3.634764909744263,-11.226259231567385,4.0546875,0,F1,7.6,180,270.0,4.481411108405774,[6500|0|9300|0],second_intermediate
18700,0.7365331649780273,0.7360344529151917,0.0,0.185166135430336,-3.63421368598938,-11.242874145507812,4.0546875,0,F1,7.6,180,270.0,4.481675391556086,[6500|0|9400|0],second_intermediate
18800,0.7363241910934448,0.736526370048523,0.0,0.1776025593280792,-3.632210731506348,-11.262259483337402,4.0546875,0,F1,7.6,180,270.0,4.482209856288788,[6500|0|9500|0],second_intermediate
18900,0.7365832328796387,0.7363572716712952,0.0,0.1784805655479431,-3.641626119613648,-11.25814151763916,4.0546875,0,F1,7.6,180,270.0,4.482519205457489,[6500|0|9600|0],second_intermediate
19000,0.7365341186523438,0.7360243797302246,0.0,0.187642902135849,-3.6440930366516113,-11.230321884155272,4.0546875,0,F1,7.6,180,270.0,4.482855701002412,[6500|0|9700|0],second_intermediate
19100,0.7364838123321533,0.7362554669380188,0.0,0.1832435429096222,-3.655965805053711,-11.221894264221191,4.0546875,0,F1,7.6,180,270.0,4.483092200523462,[6500|0|9800|0],second_intermediate
19200,0.7365675568580627,0.736389696598053,0.0,0.1846081912517547,-3.653633117675781,-11.252702713012695,4.0546875,0,F1,7.6,180,270.0,4.483250411607943,[6500|0|9900|0],second_intermediate
19300,0.7362940311431885,0.7363229393959045,0.0,0.1858935803174972,-3.641566038131714,-11.237678527832031,4.0546875,0,F1,7.6,180,270.0,4.483531965937933,[6500|0|10000|0],second_intermediate
19400,0.7362933158874512,0.7363125085830688,0.0,0.1813164204359054,-3.636967897415161,-11.252655029296877,4.0546875,0,F1,7.6,180,270.0,4.483542421245064,[6500|0|10100|0],second_intermediate
19500,0.7364753484725952,0.7363598346710205,0.0,0.1820814162492752,-3.636098861694336,-11.250889778137209,4.0546875,0,F1,7.6,180,270.0,4.4837305053237495,[6500|0|10200|0],second_intermediate
19600,0.7364275455474854,0.7362545728683472,0.0,0.1775618344545364,-3.63782000541687,-11.247714042663574,4.05859375,0,F1,7.6,180,270.0,4.483846113138153,[6500|0|10300|0],second_intermediate
19700,0.7364325523376465,0.7360862493515015,0.0,0.1801480948925018,-3.638992309570313,-11.25603199005127,4.05859375,0,F1,7.6,180,270.0,4.484014511102128,[6500|0|10400|0],second_intermediate
19800,0.7365226745605469,0.7358691096305847,0.0,0.1866201162338256,-3.6423633098602295,-11.25859832763672,4.05859375,0,F1,7.6,180,270.0,4.48424961038639,[6500|0|10500|0],second_intermediate
19900,0.7364857792854309,0.7363723516464233,0.0,0.176065132021904,-3.626598358154297,-11.272872924804688,4.05859375,0,F1,7.6,180,270.0,4.484754203081374,[6500|0|10600|0],second_intermediate
20000,0.7364859580993652,0.7363170981407166,0.0,0.1841870844364166,-3.6186485290527344,-11.294781684875488,4.05859375,0,F1,7.6,180,270.0,4.484809456876422,[6500|0|10700|0],second_intermediate
20100,0.7361966967582703,0.7364230751991272,0.0,0.1881235092878341,-3.607582330703736,-11.283952713012695,4.05859375,0,F1,7.6,180,270.0,4.485117520604183,[6500|0|10800|0],second_intermediate
20200,0.7365034222602844,0.7362663149833679,0.0,0.1931506693363189,-3.615553140640259,-11.284470558166504,4.05859375,0,F1,7.6,180,270.0,4.485461982937147,[6500|0|10900|0],second_intermediate
20300,0.7365837693214417,0.7361592650413513,0.0,0.1971939504146576,-3.630899667739868,-11.271586418151855,4.05859375,0,F1,7.6,180,270.0,4.485595831135948,[6500|0|11000|0],second_intermediate
20400,0.7365451455116272,0.7364283800125122,0.0,0.1922075003385543,-3.6329965591430655,-11.286089897155762,4.05859375,0,F1,7.6,180,270.0,4.48586770365458,[6500|0|11100|0],second_intermediate
20500,0.7369101047515869,0.7363519072532654,0.0,0.1923311799764633,-3.6404740810394287,-11.27163028717041,4.05859375,0,F1,7.6,180,270.0,4.486240588797403,[6500|0|11200|0],second_intermediate
20600,0.7364739179611206,0.7362869381904602,0.0,0.1979224234819412,-3.627852201461792,-11.26511573791504,4.06640625,0,F1,7.6,180,270.0,4.486681587544906,[6500|0|11300|0],second_intermediate
20700,0.7363191246986389,0.7359424829483032,0.0,0.2103489488363266,-3.6273813247680655,-11.254900932312012,4.05859375,0,F1,7.6,180,270.0,4.487059225424308,[6500|0|11400|0],second_intermediate
20800,0.7367311716079712,0.7361729741096497,0.0,0.1969771683216095,-3.632357120513916,-11.28490924835205,4.06640625,0,F1,7.6,180,270.0,4.487531357641965,[6500|0|11500|0],second_intermediate
20900,0.736348569393158,0.7364493608474731,0.0,0.1985530704259872,-3.618232727050781,-11.27089500427246,4.06640625,0,F1,7.6,180,270.0,4.488003347137213,[6500|0|11600|0],second_intermediate
21000,0.7362455129623413,0.736151397228241,0.0,0.2036103308200836,-3.6183483600616455,-11.233309745788574,4.06640625,0,F1,7.6,180,270.0,4.488318629465165,[6500|0|11700|0],second_intermediate
21100,0.7363325953483582,0.7362451553344727,0.0,0.1999838501214981,-3.619812250137329,-11.214009284973145,4.06640625,0,F1,7.6,180,270.0,4.48844659010145,[6500|0|11800|0],second_intermediate
21200,0.7364033460617065,0.7360440492630005,0.0,0.2007966488599777,-3.615287303924561,-11.233320236206056,4.06640625,0,F1,7.6,180,270.0,4.48865977855194,[6500|0|11900|0],second_intermediate
21300,0.7365527153015137,0.7363827228546143,0.0,0.1929617524147033,-3.62056016921997,-11.232943534851074,4.06640625,0,F1,7.6,180,270.0,4.48902992848299,[6500|0|12000|0],second_intermediate
21400,0.7363744974136353,0.7362408638000488,0.0,0.1957935839891433,-3.6189427375793457,-11.254244804382324,4.06640625,0,F1,7.6,180,270.0,4.489257712606498,[6500|0|12100|0],second_intermediate
21500,0.7367770075798035,0.7362021207809448,0.0,0.1977482736110687,-3.626324415206909,-11.23475170135498,4.06640625,0,F1,7.6,180,270.0,4.489662083049777,[6500|0|12200|0],second_intermediate
21600,0.7366535663604736,0.736237108707428,0.0,0.1977331340312957,-3.6208319664001465,-11.239693641662598,4.06640625,0,F1,7.6,180,270.0,4.489790386945389,[6500|0|12300|0],second_intermediate
21700,0.7365819215774536,0.7362897992134094,0.0,0.1965823024511337,-3.621437311172485,-11.23070240020752,4.06640625,0,F1,7.6,180,270.0,4.489879320990358,[6500|0|12400|0],second_intermediate
21800,0.7363258004188538,0.736388623714447,0.0,0.1959715038537979,-3.615554571151733,-11.252485275268556,4.0703125,0,F1,7.6,180,270.0,4.490153846635586,[6500|0|12500|0],second_intermediate
21900,0.7362006902694702,0.7364418506622314,0.0,0.1934888809919357,-3.623098850250244,-11.26806926727295,4.06640625,0,F1,7.6,180,270.0,4.490289808606185,[6500|0|12600|0],second_intermediate
22000,0.7364720106124878,0.7359179258346558,0.0,0.2059153914451599,-3.639543294906616,-11.272605895996094,4.0703125,0,F1,7.6,180,270.0,4.490879818736171,[6500|0|12700|0],second_intermediate
22100,0.7362757325172424,0.7360954284667969,0.0,0.201965257525444,-3.639416933059693,-11.268587112426758,4.0703125,0,F1,7.6,180,270.0,4.491144454854435,[6500|0|12800|0],second_intermediate
22200,0.7366101145744324,0.7366991639137268,0.0,0.1884206235408783,-3.650400400161743,-11.254002571105955,4.06640625,0,F1,7.6,180,270.0,4.491834605453978,[6500|0|12900|0],second_intermediate
22300,0.7361791729927063,0.7364281415939331,0.0,0.202801764011383,-3.6364245414733887,-11.257558822631836,4.0703125,0,F1,7.6,180,270.0,4.492343686729107,[6500|0|13000|0],second_intermediate
22400,0.7365701198577881,0.7359988689422607,0.0,0.2118865102529525,-3.6480965614318848,-11.281020164489746,4.0703125,0,F1,7.6,180,270.0,4.492924302316903,[6500|0|13100|0],second_intermediate
22500,0.7363739609718323,0.7362828254699707,0.0,0.1980834305286407,-3.6460154056549072,-11.296072959899902,4.0703125,0,F1,7.6,180,270.0,4.493269424930141,[6500|0|13200|0],second_intermediate
22600,0.7363033294677734,0.7363196611404419,0.0,0.1996862292289734,-3.6378793716430655,-11.27855110168457,4.0703125,0,F1,7.6,180,270.0,4.493349084681488,[6500|0|13300|0],second_intermediate
22700,0.7366561889648438,0.7361079454421997,0.0,0.2045732885599136,-3.6449553966522217,-11.26638126373291,4.0703125,0,F1,7.6,180,270.0,4.493760586032099,[6500|0|13400|0],second_intermediate
22800,0.7365665435791016,0.736199140548706,0.0,0.2016056329011917,-3.642894506454468,-11.25583553314209,4.0703125,0,F1,7.6,180,270.0,4.493888464265726,[6500|0|13500|0],second_intermediate
22900,0.7364569902420044,0.7362485527992249,0.0,0.1998830139636993,-3.632710695266724,-11.253209114074709,4.0703125,0,F1,7.6,180,270.0,4.494008645396402,[6500|0|13600|0],second_intermediate
23000,0.7363312244415283,0.7360580563545227,0.0,0.2054372280836105,-3.632894992828369,-11.267976760864258,4.0703125,0,F1,7.6,180,270.0,4.4942369126345545,[6500|0|13700|0],second_intermediate
23100,0.7365174293518066,0.7360228300094604,0.0,0.2112542539834976,-3.635850429534912,-11.264586448669434,4.0703125,0,F1,7.6,180,270.0,4.494426420323048,[6500|0|13800|0],second_intermediate
23200,0.736430823802948,0.7363888025283813,0.0,0.1988857090473175,-3.63242244720459,-11.2608003616333,4.0703125,0,F1,7.6,180,270.0,4.494802500641196,[6500|0|13900|0],second_intermediate
23300,0.7365431785583496,0.736009955406189,0.0,0.2132530808448791,-3.635506391525269,-11.25729274749756,4.07421875,0,F1,7.6,180,270.0,4.495197657234276,[6500|0|14000|0],second_intermediate
23400,0.7365598082542419,0.7359427809715271,0.0,0.2092994302511215,-3.64201283454895,-11.262012481689451,4.0703125,0,F1,7.6,180,270.0,4.495266859484656,[6500|0|14100|0],second_intermediate
23500,0.7363787889480591,0.7362441420555115,0.0,0.1962728053331375,-3.6374316215515137,-11.25220775604248,4.07421875,0,F1,7.6,180,270.0,4.495618408189889,[6500|0|14200|0],second_intermediate
23600,0.7364910244941711,0.7359634637832642,0.0,0.2005036622285843,-3.6415224075317374,-11.219369888305664,4.07421875,0,F1,7.6,180,270.0,4.495920694660514,[6500|0|14300|0],second_intermediate
23700,0.7364563941955566,0.7362191081047058,0.0,0.1953305751085281,-3.644596099853516,-11.208613395690918,4.0703125,0,F1,7.6,180,270.0,4.496178673878025,[6500|0|14400|0],second_intermediate
23800,0.7362889647483826,0.7362167835235596,0.0,0.1998616009950637,-3.653198957443237,-11.210140228271484,4.07421875,0,F1,7.6,180,270.0,4.496346119461599,[6500|0|14500|0],second_intermediate
23900,0.7364558577537537,0.7359136939048767,0.0,0.2069646567106247,-3.658482313156128,-11.214767456054688,4.07421875,0,F1,7.6,180,270.0,4.496692120317371,[6500|0|14600|0],second_intermediate
24000,0.7364136576652527,0.7360876202583313,0.0,0.2032535523176193,-3.658973455429077,-11.219874382019045,4.07421875,0,F1,7.6,180,270.0,4.496871093007733,[6500|0|14700|0],second_intermediate
24100,0.7365295886993408,0.7361719608306885,0.0,0.1972232162952423,-3.653806447982788,-11.23629093170166,4.07421875,0,F1,7.6,180,270.0,4.497014457357591,[6500|0|14800|0],second_intermediate
24200,0.7366302609443665,0.7360948920249939,0.0,0.1938305050134658,-3.6649773120880127,-11.239556312561035,4.07421875,0,F1,7.6,180,270.0,4.49714124261592,[6500|0|14900|0],second_intermediate
24300,0.7365682125091553,0.7360158562660217,0.0,0.1997235715389251,-3.667644500732422,-11.23956298828125,4.07421875,0,F1,7.6,180,270.0,4.49724172475119,[6500|0|15000|0],second_intermediate
24400,0.736620306968689,0.7361238598823547,0.0,0.2009383291006088,-3.6683828830718994,-11.22270965576172,4.07421875,0,F1,7.6,180,270.0,4.497361635609144,[6500|0|15100|0],second_intermediate
24500,0.7364810705184937,0.7362819910049438,0.0,0.2015572786331176,-3.660860300064087,-11.211156845092772,4.07421875,0,F1,7.6,180,270.0,4.4975723302720905,[6500|0|15200|0],second_intermediate
24600,0.7363294363021851,0.7363710403442383,0.0,0.1972201913595199,-3.653342485427856,-11.218732833862305,4.07421875,0,F1,7.6,180,270.0,4.497748178844403,[6500|0|15300|0],second_intermediate
24700,0.7366000413894653,0.7360409498214722,0.0,0.2089169472455978,-3.667724609375,-11.208050727844238,4.07421875,0,F1,7.6,180,270.0,4.498175012379264,[6500|0|15400|0],second_intermediate
24800,0.7364832162857056,0.7360378503799438,0.0,0.2082181572914123,-3.662123441696167,-11.206445693969728,4.07421875,0,F1,7.6,180,270.0,4.498291878590832,[6500|0|15500|0],second_intermediate
24900,0.7363384366035461,0.7362168431282043,0.0,0.2008902430534362,-3.6585922241210938,-11.21365451812744,4.07421875,0,F1,7.6,180,270.0,4.498522094924518,[6500|0|15600|0],second_intermediate
25000,0.7365004420280457,0.7361546158790588,0.0,0.1998250782489776,-3.664105176925659,-11.230269432067873,4.08203125,0,F1,7.6,180,270.0,4.498695640273357,[6500|0|15700|0],second_intermediate
25100,0.7364746928215027,0.7361089587211609,0.0,0.2026582658290863,-3.654097557067871,-11.245294570922852,4.08203125,0,F1,7.6,180,270.0,4.498748057805776,[6500|0|15800|0],second_intermediate
25200,0.7364138960838318,0.7361989617347717,0.0,0.1976285427808761,-3.654834032058716,-11.259577751159668,4.07421875,0,F1,7.6,180,270.0,4.49885667081499,[6500|0|15900|0],second_intermediate
25300,0.7364681363105774,0.7360572814941406,0.0,0.201539933681488,-3.648574590682984,-11.240875244140623,4.08203125,0,F1,7.6,180,270.0,4.499008378734304,[6500|0|16000|0],second_intermediate
25400,0.7364775538444519,0.7363391518592834,0.0,0.1930751353502273,-3.646202325820923,-11.241326332092283,4.08203125,0,F1,7.6,180,270.0,4.499290406379563,[6500|0|16100|0],second_intermediate
25500,0.7365840077400208,0.7363413572311401,0.0,0.1898085474967956,-3.6472201347351074,-11.250255584716797,4.08203125,0,F1,7.6,180,270.0,4.499396883116678,[6500|0|16200|0],second_intermediate
25600,0.7366033792495728,0.7363178730010986,0.0,0.1930733025074005,-3.646843910217285,-11.271228790283203,4.08203125,0,F1,7.6,180,270.0,4.499427325922774,[6500|0|16300|0],second_intermediate
25700,0.7365710735321045,0.7363717555999756,0.0,0.1944145113229751,-3.633953332901001,-11.277122497558594,4.08203125,0,F1,7.6,180,270.0,4.4994901510279695,[6500|0|16400|0],second_intermediate
25800,0.7363303303718567,0.7364218831062317,0.0,0.1950443089008331,-3.6226673126220703,-11.282419204711914,4.08203125,0,F1,7.6,180,270.0,4.499736057587641,[6500|0|16500|0],second_intermediate
25900,0.736420750617981,0.7361258268356323,0.0,0.2055856734514236,-3.629625558853149,-11.281121253967283,4.08203125,0,F1,7.6,180,270.0,4.50004561394159,[6500|0|16600|0],second_intermediate
26000,0.7366114258766174,0.7363255620002747,0.0,0.1993856877088546,-3.626589059829712,-11.259851455688477,4.08203125,0,F1,7.6,180,270.0,4.500321750122216,[6500|0|16700|0],second_intermediate
26100,0.7366406321525574,0.7364177703857422,0.0,0.2054450213909149,-3.63431453704834,-11.257189750671388,4.08203125,0,F1,7.6,180,270.0,4.500418473402273,[6500|0|16800|0],second_intermediate
26200,0.7366036772727966,0.7360745072364807,0.0,0.216014951467514,-3.640861988067627,-11.245612144470217,4.08203125,0,F1,7.6,180,270.0,4.500763720057258,[6500|0|16900|0],second_intermediate
26300,0.7366013526916504,0.736201822757721,0.0,0.2140077352523803,-3.645615816116333,-11.247172355651855,4.08203125,0,F1,7.6,180,270.0,4.500891056798328,[6500|0|17000|0],second_intermediate
26400,0.7368393540382385,0.7360504269599915,0.0,0.2119733542203903,-3.6534883975982666,-11.236321449279783,4.08203125,0,F1,7.6,180,270.0,4.501173130066377,[6500|0|17100|0],second_intermediate
26500,0.7365338206291199,0.7361904382705688,0.0,0.2112664431333542,-3.644110679626465,-11.248580932617188,4.08203125,0,F1,7.6,180,270.0,4.501509216113658,[6500|0|17200|0],second_intermediate
26600,0.7364829778671265,0.736098051071167,0.0,0.2116169035434723,-3.641549825668335,-11.242586135864258,4.08203125,0,F1,7.6,180,270.0,4.50161466933106,[6500|0|17300|0],second_intermediate
26700,0.7363671064376831,0.7361001968383789,0.0,0.2147394269704818,-3.646575450897217,-11.227728843688965,4.08203125,0,F1,7.6,180,270.0,4.501730560627015,[6500|0|17400|0],second_intermediate
26800,0.7365306615829468,0.7361111640930176,0.0,0.2149772942066192,-3.656416416168213,-11.218106269836426,4.0859375,0,F1,7.6,180,270.0,4.5018944830666525,[6500|0|17500|0],second_intermediate
26900,0.7364645600318909,0.7361555695533752,0.0,0.2139281630516052,-3.655356168746948,-11.221480369567873,4.08203125,0,F1,7.6,180,270.0,4.501974115095144,[6500|0|17600|0],second_intermediate
27000,0.7362354397773743,0.7363436818122864,0.0,0.2163705378770828,-3.645103454589844,-11.199644088745115,4.08203125,0,F1,7.6,180,270.0,4.502270564606836,[6500|0|17700|0],second_intermediate
27100,0.7363831400871277,0.7363109588623047,0.0,0.2104128450155258,-3.651543617248535,-11.205402374267578,4.0859375,0,F1,7.6,180,270.0,4.502421846373605,[6500|0|17800|0],second_intermediate
27200,0.7366805076599121,0.7360965013504028,0.0,0.2140986025333404,-3.6555349826812735,-11.19299030303955,4.0859375,0,F1,7.6,180,270.0,4.50278847902048,[6500|0|17900|0],second_intermediate
27300,0.7362797260284424,0.736560583114624,0.0,0.2076105624437332,-3.637560367584229,-11.131173133850098,4.0859375,0,F1,7.6,180,270.0,4.50340166561525,[6500|0|18000|0],second_intermediate
27400,0.7360624074935913,0.7363837361335754,0.0,0.2089851200580597,-3.627389907836914,-11.136700630187988,4.0859375,0,F1,7.6,180,270.0,4.503681848056342,[6500|0|18100|0],second_intermediate
27500,0.7361984252929688,0.7364986538887024,0.0,0.2079095244407653,-3.62856674194336,-11.139369010925291,4.0859375,0,F1,7.6,180,270.0,4.503859912460957,[6500|0|18200|0],second_intermediate
27600,0.7361249923706055,0.736300528049469,0.0,0.2103348821401596,-3.626629114151001,-11.141961097717283,4.0859375,0,F1,7.6,180,270.0,4.504071209035134,[6500|0|18300|0],second_intermediate
27700,0.7363465428352356,0.7364032864570618,0.0,0.2051191180944442,-3.641764879226685,-11.136662483215332,4.0859375,0,F1,7.6,180,270.0,4.504315430038958,[6500|0|18400|0],second_intermediate
27800,0.7362194657325745,0.7364779114723206,0.0,0.1988196074962616,-3.6327314376831055,-11.125751495361328,4.0859375,0,F1,7.6,180,270.0,4.5044627985665455,[6500|0|18500|0],second_intermediate
27900,0.7363023161888123,0.7365756630897522,0.0,0.1955069601535797,-3.640624761581421,-11.137516975402832,4.0859375,0,F1,7.6,180,270.0,4.504590937463097,[6500|0|18600|0],second_intermediate
28000,0.7361140847206116,0.7364404201507568,0.0,0.2010110318660736,-3.636053085327149,-11.148866653442385,4.0859375,0,F1,7.6,180,270.0,4.504822716966438,[6500|0|18700|0],second_intermediate
28100,0.7365124821662903,0.7361376285552979,0.0,0.2062212377786636,-3.640611410140991,-11.173748970031738,4.0859375,0,F1,7.6,180,270.0,4.505323120078942,[6500|0|18800|0],second_intermediate
28200,0.7360723614692688,0.7361578345298767,0.0,0.211400955915451,-3.627177000045776,-11.18653392791748,4.0859375,0,F1,7.6,180,270.0,4.505763704360726,[6500|0|18900|0],second_intermediate
28300,0.7363119125366211,0.7361722588539124,0.0,0.2091470807790756,-3.6369261741638175,-11.176090240478516,4.0859375,0,F1,7.6,180,270.0,4.506003689308157,[6500|0|19000|0],second_intermediate
28400,0.7361958026885986,0.7366783022880554,0.0,0.1977623850107193,-3.63516902923584,-11.159494400024414,4.0859375,0,F1,7.6,180,270.0,4.506522882387895,[6500|0|19100|0],second_intermediate
28500,0.7359170317649841,0.7367291450500488,0.0,0.196898877620697,-3.630486011505127,-11.155553817749023,4.0859375,0,F1,7.6,180,270.0,4.5068062517833845,[6500|0|19200|0],second_intermediate
28600,0.7362637519836426,0.736515462398529,0.0,0.2045201510190963,-3.648274421691896,-11.150320053100586,4.0859375,0,F1,7.6,180,270.0,4.507213529557866,[6500|0|19300|0],second_intermediate
28700,0.7364251017570496,0.7364541292190552,0.0,0.2041825801134109,-3.653644800186157,-11.150572776794434,4.0859375,0,F1,7.6,180,270.0,4.507386143312483,[6500|0|19400|0],second_intermediate
28800,0.7361789345741272,0.73665851354599,0.0,0.1986488699913025,-3.641348361968994,-11.131916046142578,4.0859375,0,F1,7.6,180,270.0,4.507706098364084,[6500|0|19500|0],second_intermediate
28900,0.7363835573196411,0.7364956736564636,0.0,0.1996897906064987,-3.650015354156494,-11.139947891235352,4.0859375,0,F1,7.6,180,270.0,4.507967608015154,[6500|0|19600|0],second_intermediate
29001,0.7358930110931396,0.7362231016159058,0.0,0.2135402709245681,-3.636439085006714,-11.121490478515623,4.0859375,0,F1,7.6,180,270.0,4.508528795254521,[6500|0|19700|0],second_intermediate
29100,0.7363715171813965,0.7360821962356567,0.0,0.2092820554971695,-3.63578462600708,-11.12635612487793,4.0859375,0,F1,7.6,180,270.0,4.509027616267192,[6500|0|19800|0],second_intermediate
29201,0.7362269163131714,0.7365543842315674,0.0,0.196287453174591,-3.626452922821045,-11.138886451721191,4.0859375,0,F1,7.6,180,270.0,4.509521449148411,[6500|0|19900|0],second_intermediate
29301,0.7363020181655884,0.7366134524345398,0.0,0.1932249367237091,-3.6323392391204834,-11.124307632446287,4.08984375,0,F1,7.6,180,270.0,4.509616996732571,[6500|0|20000|0],second_intermediate
29401,0.7361706495285034,0.7365444898605347,0.0,0.1907742619514465,-3.633125066757202,-11.157496452331545,4.0859375,0,F1,7.6,180,270.0,4.509765366390599,[6500|0|20100|0],second_intermediate
29501,0.7360429167747498,0.7366436719894409,0.0,0.1937990039587021,-3.63446855545044,-11.186200141906738,4.08984375,0,F1,7.6,180,270.0,4.509927084512885,[6500|0|20200|0],second_intermediate
29601,0.7361432313919067,0.7365807294845581,0.0,0.1989886909723281,-3.631765604019165,-11.16225814819336,4.08984375,0,F1,7.6,180,270.0,4.510045510782506,[6500|0|20300|0],second_intermediate
29701,0.7361565232276917,0.7364534735679626,0.0,0.1973267495632171,-3.631594657897949,-11.158432960510254,4.0859375,0,F1,7.6,180,270.0,4.510173458979864,[6500|0|20400|0],second_intermediate
29801,0.736007571220398,0.736298143863678,0.0,0.2039098143577575,-3.629648447036743,-11.181562423706056,4.08984375,0,F1,7.6,180,270.0,4.510388665897759,[6500|0|20500|0],second_intermediate
29901,0.7361703515052795,0.7363571524620056,0.0,0.1946367174386978,-3.633195638656616,-11.194360733032228,4.08984375,0,F1,7.6,180,270.0,4.510561811604673,[6500|0|20600|0],second_intermediate
30001,0.7361307740211487,0.7364511489868164,0.0,0.191636860370636,-3.6394059658050537,-11.200106620788574,4.08984375,0,F1,7.6,180,270.0,4.5106638004468405,[6500|0|20700|0],second_intermediate
30101,0.7358577847480774,0.7363304495811462,0.0,0.2025719583034515,-3.6286654472351074,-11.204442024230955,4.08984375,0,F1,7.6,180,270.0,4.510962282422412,[6500|0|20800|0],second_intermediate
30202,0.7364276647567749,0.7365725040435791,0.0,0.1961622536182403,-3.635756969451904,-11.181224822998049,4.08984375,0,F1,7.6,180,270.0,4.511581437965952,[6500|0|20900|0],second_intermediate
30300,0.7364605665206909,0.736426055431366,0.0,0.2130219489336013,-3.638259649276733,-11.161022186279297,4.08984375,0,F1,7.6,180,270.0,4.511731537006882,[6500|0|21000|0],second_intermediate
30400,0.7363220453262329,0.7363797426223755,0.0,0.209068015217781,-3.636097431182861,-11.16021728515625,4.08984375,0,F1,7.6,180,270.0,4.511877595206209,[6500|0|21100|0],second_intermediate
30500,0.7365469932556152,0.7364634275436401,0.0,0.2110425680875778,-3.639236450195313,-11.142400741577148,4.08984375,0,F1,7.6,180,270.0,4.512117605074716,[6500|0|21200|0],second_intermediate
30600,0.7365230917930603,0.7361426949501038,0.0,0.216465950012207,-3.643858432769776,-11.15699291229248,4.08984375,0,F1,7.6,180,270.0,4.512439227021213,[6500|0|21300|0],second_intermediate
30702,0.7361494302749634,0.7365292906761169,0.0,0.2079389542341232,-3.637905359268189,-11.133917808532717,4.08984375,0,F1,7.6,180,270.0,4.512976887867358,[6500|0|21400|0],second_intermediate
30802,0.7360003590583801,0.7364717125892639,0.0,0.2100619822740554,-3.628126382827759,-11.122991561889648,4.08984375,0,F1,7.6,180,270.0,4.5131366923219245,[6500|0|21500|0],second_intermediate
30902,0.7363070249557495,0.736262321472168,0.0,0.21216581761837,-3.6354281902313232,-11.129658699035645,4.08984375,0,F1,7.6,180,270.0,4.513508025881582,[6500|0|21600|0],second_intermediate
31000,0.7362411618232727,0.7364028692245483,0.0,0.2149799466133117,-3.634582042694092,-11.144495010375977,4.08984375,0,F1,7.6,180,270.0,4.513663240645438,[6500|0|21700|0],second_intermediate
31100,0.7363772988319397,0.736480712890625,0.0,0.2173976451158523,-3.6394426822662354,-11.142014503479004,4.08984375,0,F1,7.6,180,270.0,4.513820061949721,[6500|0|21800|0],second_intermediate
31200,0.7363060712814331,0.7365252375602722,0.0,0.2185777723789215,-3.637375593185425,-11.133123397827148,4.08984375,0,F1,7.6,180,270.0,4.513904060819703,[6500|0|21900|0],second_intermediate
31300,0.7362231016159058,0.7363989949226379,0.0,0.2206618934869766,-3.639463901519776,-11.16882038116455,4.08984375,0,F1,7.6,180,270.0,4.514055127589558,[6500|0|22000|0],second_intermediate
31400,0.7366153597831726,0.7363581657409668,0.0,0.2217639088630676,-3.6496546268463135,-11.161103248596191,4.08984375,0,F1,7.6,180,270.0,4.514449504936605,[6500|0|22100|0],second_intermediate
31500,0.7364934682846069,0.7361648082733154,0.0,0.2247344255447387,-3.646750450134277,-11.161991119384766,4.08984375,0,F1,7.6,180,270.0,4.514678075817776,[6500|0|22200|0],second_intermediate
