,time.ms,stateEstimate.x,stateEstimate.y,stateEstimate.z,stabilizer.roll,stabilizer.pitch,stabilizer.yaw,pm.vbat,drone_id,node_name,wind_speed,global_wind_direction,relative_wind_direction,travel_dist,waiting_time
0,0,1.2558702230453491,-0.2939662933349609,-0.0073737856000661,-0.6210154294967651,0.7103719115257263,0.0618113614618778,4.13671875,2,"['A1', 'F1', 'E2']",6.1,90,0.0,0.0237342883399817,[100|0|0]
1,100,1.2560546398162842,-0.2935487329959869,-0.0073988568037748,-0.6325021982192993,0.7097281217575073,0.0742611959576606,4.13671875,2,"['A1', 'F1', 'E2']",6.1,90,0.0,0.0241914477731574,[200|0|0]
2,200,1.2560955286026,-0.293816864490509,-0.0071288468316197,-0.6231030225753784,0.705489993095398,0.0819444358348846,4.13671875,2,"['A1', 'F1', 'E2']",6.1,90,0.0,0.0245741640861939,[300|0|0]
3,300,1.2561969757080078,-0.2939293980598449,-0.0072673545219004,-0.6155722141265869,0.6991693377494812,0.0947396233677864,4.13671875,2,"['A1', 'F1', 'E2']",6.1,90,0.0,0.0247794436509099,[400|0|0]
4,400,1.2557077407836914,-0.2940057218074798,-0.0070667574182152,-0.6167017817497253,0.7150760889053345,0.064173124730587,4.13671875,2,"['A1', 'F1', 'E2']",6.1,90,0.0,0.0253136864081194,[500|0|0]
5,500,1.2562516927719116,-0.2936406135559082,-0.0071139233186841,-0.6303814649581909,0.7003092765808105,0.0955492928624153,4.13671875,2,"['A1', 'F1', 'E2']",6.1,90,0.0,0.0259705063400805,[600|0|0]
6,600,1.2562403678894043,-0.2940816581249237,-0.0071376599371433,-0.6231300830841064,0.7023634314537048,0.1026379242539405,4.13671875,2,"['A1', 'F1', 'E2']",6.1,90,0.0,0.0264123343517296,[700|0|0]
7,700,1.2559210062026978,-0.2934378087520599,-0.0071807787753641,-0.6391575932502747,0.7068479657173157,0.1074017286300659,4.13671875,2,"['A1', 'F1', 'E2']",6.1,90,0.0,0.0271323295851045,[800|0|0]
8,800,1.2559068202972412,-0.293578028678894,-0.0070744436234235,-0.625447154045105,0.7100331783294678,0.0899583771824836,4.13671875,2,"['A1', 'F1', 'E2']",6.1,90,0.0,0.0273088799527994,[900|0|0]
9,900,1.2562248706817627,-0.293727308511734,-0.0067478842101991,-0.6222320199012756,0.6979299187660217,0.0789567753672599,4.13671875,2,"['A1', 'F1', 'E2']",6.1,90,0.0,0.0277885481359766,[1000|0|0]
10,1000,1.2558051347732544,-0.2940391302108764,-0.0074377097189426,-0.6156078577041626,0.7057084441184998,0.0856525301933288,4.13671875,2,"['A1', 'F1', 'E2']",6.1,90,0.0,0.0286541521086227,[1100|0|0]
11,1100,1.2559237480163574,-0.2937186956405639,-0.0072414013557136,-0.6277143359184265,0.7057127952575684,0.07908446341753,4.13671875,2,"['A1', 'F1', 'E2']",6.1,90,0.0,0.0290482135108996,[1200|0|0]
12,1200,1.255951762199402,-0.2935041487216949,-0.0073676113970577,-0.635280191898346,0.7045315504074097,0.052684236317873,4.13671875,2,"['A1', 'F1', 'E2']",6.1,90,0.0,0.0292987013337252,[1300|0|0]
13,1301,1.2557969093322754,-0.2939218878746032,-0.0070715611800551,-0.6292914152145386,0.7038764357566833,0.0700508132576942,4.13671875,2,"['A1', 'F1', 'E2']",6.1,90,0.0,0.0298336136081377,[1400|0|0]
14,1401,1.256237268447876,-0.2933761477470398,-0.0069935866631567,-0.6571837663650513,0.6698432564735413,0.0793075636029243,4.13671875,2,"['A1', 'F1', 'E2']",6.1,90,0.0,0.030539183209815,[1500|0|0]
15,1500,1.2561711072921753,-0.2937722504138946,-0.0071361730806529,-0.627373218536377,0.687880277633667,0.0881090387701988,4.13671875,2,"['A1', 'F1', 'E2']",6.1,90,0.0,0.0309653351870105,[1600|0|0]
16,1601,1.256127119064331,-0.2935501337051391,-0.006895740982145,-0.621922492980957,0.7067356109619141,0.104050412774086,4.13671875,2,"['A1', 'F1', 'E2']",6.1,90,0.0,0.0312956053650317,[1700|0|0]
17,1701,1.2498739957809448,-0.303938090801239,-0.01119533367455,-0.3265540897846222,0.9256741404533386,0.0452190488576889,4.13671875,2,"['A1', 'F1', 'E2']",6.1,90,0.0,0.0441601963320318,[1800|0|0]
18,1801,1.2558140754699707,-0.293637067079544,-0.0072523667477071,-0.5954641103744507,0.7370465397834778,0.0946720913052558,4.13671875,2,"['A1', 'F1', 'E2']",6.1,90,0.0,0.0566878706817695,[1900|0|0]
19,1901,1.2562837600708008,-0.2938575744628906,-0.0070459302514791,-0.5834529995918274,0.7346683740615845,0.1207258254289627,4.13671875,2,"['A1', 'F1', 'E2']",6.1,90,0.0,0.0572462998691712,[2000|0|0]
20,2001,1.2559064626693726,-0.2938483655452728,-0.0071768630295991,-0.5789076089859009,0.7376735210418701,0.1290688216686248,4.13671875,2,"['A1', 'F1', 'E2']",6.1,90,0.0,0.0576457764337835,[2100|0|0]
21,2101,1.2558808326721191,-0.293927401304245,-0.0073851002380251,-0.5766439437866211,0.7419727444648743,0.1536455154418945,4.13671875,2,"['A1', 'F1', 'E2']",6.1,90,0.0,0.0578699778676071,[2200|0|0]
22,2201,1.2559610605239868,-0.2936095297336578,-0.0072349999099969,-0.5885140299797058,0.7383407950401306,0.1387080252170562,4.13671875,2,"['A1', 'F1', 'E2']",6.1,90,0.0,0.058230545409237,[2300|0|0]
23,2302,1.2564142942428589,-0.2937386929988861,-0.0071291797794401,-0.5850579738616943,0.7347493171691895,0.1314256489276886,4.13671875,2,"['A1', 'F1', 'E2']",6.1,90,0.0,0.0587135587144762,[2400|0|0]
24,2402,1.2561537027359009,-0.2935951650142669,-0.0070418389514088,-0.5940877199172974,0.732597291469574,0.121788389980793,4.13671875,2,"['A1', 'F1', 'E2']",6.1,90,0.0,0.0590236177993434,[2500|0|0]
25,2500,1.255998134613037,-0.2933853268623352,-0.0075118979439139,-0.594695508480072,0.7373705506324768,0.1450378596782684,4.13671875,2,"['A1', 'F1', 'E2']",6.1,90,0.0,0.0595613807092697,[2600|0|0]
26,2601,1.255760908126831,-0.2937444448471069,-0.0071092010475695,-0.5843736529350281,0.7472292184829712,0.1196286901831626,4.13671875,2,"['A1', 'F1', 'E2']",6.1,90,0.0,0.0601507930632881,[2700|0|0]
27,2702,1.2561722993850708,-0.2934415936470032,-0.0072186505421996,-0.593055784702301,0.7427096366882324,0.122333787381649,4.13671875,2,"['A1', 'F1', 'E2']",6.1,90,0.0,0.0606732304362193,[2800|0|0]
28,2802,1.2557687759399414,-0.2938660383224487,-0.0069609270431101,-0.5919363498687744,0.7510486245155334,0.1246290132403373,4.13671875,2,"['A1', 'F1', 'E2']",6.1,90,0.0,0.0613130787426686,[2900|0|0]
29,2902,1.25602388381958,-0.2936656177043915,-0.0072620762512087,-0.5972817540168762,0.7423970103263855,0.1321908384561538,4.13671875,2,"['A1', 'F1', 'E2']",6.1,90,0.0,0.0617557290560477,[3000|0|0]
30,3002,1.2559267282485962,-0.2935807406902313,-0.007077672984451,-0.594659149646759,0.7477540969848633,0.1486697643995285,4.13671875,2,"['A1', 'F1', 'E2']",6.1,90,0.0,0.0619807798887431,[3100|0|0]
31,3102,1.2557755708694458,-0.2936081290245056,-0.0071629732847213,-0.5948496460914612,0.7498656511306763,0.1342965513467788,4.13671875,2,"['A1', 'F1', 'E2']",6.1,90,0.0,0.0621564921972253,[3200|0|0]
32,3200,1.2563306093215942,-0.2936607599258423,-0.0072260983288288,-0.5903715491294861,0.7364788055419922,0.1235830783843994,4.13671875,2,"['A1', 'F1', 'E2']",6.1,90,0.0,0.0627175826233888,[3300|0|0]
33,3300,1.2558420896530151,-0.293303519487381,-0.0073223276995122,-0.5973016619682312,0.7566567659378052,0.1177395656704902,4.13671875,2,"['A1', 'F1', 'E2']",6.1,90,0.0,0.0633303895173145,[3400|0|0]
34,3400,1.2558037042617798,-0.2936702370643616,-0.0073437462560832,-0.578652560710907,0.7664770483970642,0.103938527405262,4.13671875,2,"['A1', 'F1', 'E2']",6.1,90,0.0,0.0636997321415706,[3500|0|0]
35,3500,1.2559101581573486,-0.2934569120407104,-0.0074181221425533,-0.5815613865852356,0.760900616645813,0.078889213502407,4.13671875,2,"['A1', 'F1', 'E2']",6.1,90,0.0,0.0639494755500637,[3600|0|0]
36,3600,1.2562094926834106,-0.29353728890419,-0.007221040315926,-0.5779369473457336,0.7503103017807007,0.0738334581255912,4.13671875,2,"['A1', 'F1', 'E2']",6.1,90,0.0,0.0643167667765616,[3700|0|0]
37,3700,1.2560991048812866,-0.2937601506710052,-0.0069922213442623,-0.5711423754692078,0.7515908479690552,0.0721995085477829,4.13671875,2,"['A1', 'F1', 'E2']",6.1,90,0.0,0.064654717891013,[3800|0|0]
38,3800,1.2557710409164429,-0.2937303483486175,-0.0071926708333194,-0.5735952258110046,0.7567194700241089,0.0694560185074806,4.13671875,2,"['A1', 'F1', 'E2']",6.1,90,0.0,0.0650403266838484,[3900|0|0]
39,3900,1.2558823823928833,-0.2936452627182007,-0.0072308639064431,-0.5806512236595154,0.7561694979667664,0.0781687721610069,4.13671875,2,"['A1', 'F1', 'E2']",6.1,90,0.0,0.065185568550106,[4000|0|0]
40,4000,1.255780816078186,-0.2937555611133575,-0.0070979064330458,-0.5805751085281372,0.7555607557296753,0.1049527153372764,4.13671875,2,"['A1', 'F1', 'E2']",6.1,90,0.0,0.0653859660101387,[4100|0|0]
41,4100,1.2559959888458252,-0.2935432493686676,-0.0069763669744133,-0.5817628502845764,0.7432619333267212,0.1066272407770156,4.13671875,2,"['A1', 'F1', 'E2']",6.1,90,0.0,0.0657117687677566,[4200|0|0]
42,4200,1.2566893100738523,-0.2966930270195007,-0.0125779816880822,0.6986696124076843,1.5030643939971924,0.2483052164316177,4.13671875,2,"['A1', 'F1', 'E2']",6.1,90,0.0,0.0721755046051275,[4300|0|0]
43,4300,1.254125952720642,-0.2958334684371948,-0.0032437527552247,-0.6790861487388611,0.8502515554428101,0.3130603432655334,4.13671875,2,"['A1', 'F1', 'E2']",6.1,90,0.0,0.0818933990091467,[4400|0|0]
44,4400,1.2552003860473633,-0.2945546507835388,-0.0052377954125404,-1.6844195127487185,0.2898968160152435,0.2759503424167633,4.13671875,2,"['A1', 'F1', 'E2']",6.1,90,0.0,0.0844945502319837,[4500|0|0]
45,4500,1.2557766437530518,-0.2932176887989044,-0.0060489494353532,-1.989454746246338,0.1467223614454269,0.2570151090621948,4.13671875,2,"['A1', 'F1', 'E2']",6.1,90,0.0,0.0861611369055318,[4600|0|0]
46,4600,1.2559237480163574,-0.2927406132221222,-0.0072178351692855,-1.904426336288452,0.1719550788402557,0.1956069618463516,4.13671875,2,"['A1', 'F1', 'E2']",6.1,90,0.0,0.0874321737378995,[4700|0|0]
47,4700,1.2559386491775513,-0.2926909625530243,-0.0069763078354299,-1.722874641418457,0.2431917041540146,0.1623077690601349,4.13671875,2,"['A1', 'F1', 'E2']",6.1,90,0.0,0.0876792014419049,[4800|0|0]
48,4800,1.25608229637146,-0.292838305234909,-0.0072483676485717,-1.537341833114624,0.3172289133071899,0.1384290307760238,4.13671875,2,"['A1', 'F1', 'E2']",6.1,90,0.0,0.0880203186126097,[4900|0|0]
49,4900,1.2561506032943726,-0.29288250207901,-0.0071719749830663,-1.385035276412964,0.3835894167423248,0.0968826860189437,4.13671875,2,"['A1', 'F1', 'E2']",6.1,90,0.0,0.0881319207456058,[5000|0|0]
50,5000,1.2561486959457395,-0.2926336228847503,-0.0069640730507671,-1.2556626796722412,0.4482108056545257,0.0983150526881218,4.13671875,2,"['A1', 'F1', 'E2']",6.1,90,0.0,0.0884562164513557,[5100|0|0]
51,5100,1.2559112310409546,-0.2928085327148437,-0.007430228870362,-1.1344828605651855,0.5128512978553772,0.0973309054970741,4.13671875,2,"['A1', 'F1', 'E2']",6.1,90,0.0,0.0890078361371992,[5200|0|0]
52,5200,1.2566248178482056,-0.2935978174209595,-0.0072364341467618,-1.035472750663757,0.5491929054260254,0.1027793660759925,4.13671875,2,"['A1', 'F1', 'E2']",6.1,90,0.0,0.0900893780336074,[5300|0|0]
53,5300,1.2565909624099731,-0.2933038771152496,-0.0074173077009618,-0.9715781211853028,0.5829590559005737,0.0627649649977684,4.13671875,2,"['A1', 'F1', 'E2']",6.1,90,0.0,0.090436166638708,[5400|0|0]
54,5400,1.2566460371017456,-0.2936842739582062,-0.0076185399666428,-0.8968595266342163,0.6093352437019348,0.0608558617532253,4.13671875,2,"['A1', 'F1', 'E2']",6.1,90,0.0,0.090870020766908,[5500|0|0]
55,5500,1.2565584182739258,-0.2932538390159607,-0.0073906052857637,-0.8534811735153198,0.6369532942771912,0.0441764667630195,4.13671875,2,"['A1', 'F1', 'E2']",6.1,90,0.0,0.0913649000625366,[5600|0|0]
56,5600,1.2566533088684082,-0.2937641143798828,-0.0075627453625202,-0.7916387319564819,0.6527246832847595,0.0263312011957168,4.13671875,2,"['A1', 'F1', 'E2']",6.1,90,0.0,0.0919117248772377,[5700|0|0]
57,5700,1.2564090490341189,-0.2929713428020477,-0.0069339084438979,-0.9777754545211792,0.5093831419944763,0.0433076471090316,4.13671875,2,"['A1', 'F1', 'E2']",6.1,90,0.0,0.0929526790123909,[5800|0|0]
58,5800,1.2562782764434814,-0.2929832339286804,-0.0068861683830618,-0.9071140885353088,0.5508158802986145,0.0406956262886524,4.13671875,2,"['A1', 'F1', 'E2']",6.1,90,0.0,0.0930924001015764,[5900|0|0]
59,5900,1.2561640739440918,-0.2933089733123779,-0.007372529245913,-0.8495193123817444,0.5775964260101318,0.0653039366006851,4.13671875,2,"['A1', 'F1', 'E2']",6.1,90,0.0,0.0936888020179649,[6000|0|0]
60,6000,1.2562264204025269,-0.2932144105434418,-0.0068098427727818,-0.8123588562011719,0.5939328074455261,0.0850190818309784,4.13671875,2,"['A1', 'F1', 'E2']",6.1,90,0.0,0.0942627752448606,[6100|0|0]
61,6100,1.2559839487075806,-0.2935405373573303,-0.0068068243563175,-0.7697023153305054,0.6208037734031677,0.0733449384570121,4.13671875,2,"['A1', 'F1', 'E2']",6.1,90,0.0,0.0946691744727451,[6200|0|0]
62,6200,1.2562079429626465,-0.2932325303554535,-0.0066895149648189,-0.7602487802505493,0.6271295547485352,0.0829658359289169,4.13671875,2,"['A1', 'F1', 'E2']",6.1,90,0.0,0.0950676757059195,[6300|0|0]
63,6300,1.2558410167694092,-0.2930951416492462,-0.0073219020850956,-0.7437417507171631,0.6342131495475769,0.0784564986824989,3.208984375,2,"['C1', 'F1', 'J1']",6.1,90,0.0,0.0958116004049104,[6300|0|0]
64,6400,1.255194902420044,-0.293682724237442,-0.0035371116828173,1.713388204574585,2.33170485496521,1.0135048627853394,3.568359375,2,"['C1', 'F1', 'J1']",6.1,90,0.0,0.0996958449182726,[6300|0|0]
65,6500,1.2498695850372314,-0.3047331273555755,0.0229336470365524,9.641556739807127,4.412014961242676,2.775202512741089,3.673828125,2,"['C1', 'F1', 'J1']",6.1,90,0.0,0.128870688216567,[6300|0|0]
66,6600,1.2398322820663452,-0.3301108777523041,0.070072241127491,-5.347410202026367,0.8809285759925842,7.912398815155029,3.716796875,2,"['C1', 'F1', 'J1']",6.1,90,0.0,0.1833392545553122,[6300|0|0]
67,6700,1.228970646858215,-0.3486629724502563,0.1282775253057479,-6.758582592010498,-1.6356794834136963,11.19224739074707,3.6953125,2,"['C1', 'F1', 'J1']",6.1,90,0.0,0.2453877069401052,[6300|0|0]
68,6800,1.22383713722229,-0.3561061918735504,0.1918724775314331,-6.162264823913574,-6.911273002624512,10.625445365905762,3.68359375,2,"['C1', 'F1', 'J1']",6.1,90,0.0,0.309622217797997,[6300|0|0]
69,6900,1.2281818389892578,-0.3514705598354339,0.2627451717853546,-2.331843376159668,-6.929206848144531,10.74258518218994,3.701171875,2,"['C1', 'F1', 'J1']",6.1,90,0.0,0.3807791170323407,[6300|0|0]
70,7000,1.2448232173919678,-0.3402397036552429,0.3412330150604248,-1.841844916343689,-3.920879364013672,10.86717128753662,3.705078125,2,"['C1', 'F1', 'J1']",6.1,90,0.0,0.4617939869492534,[6300|0|0]
71,7100,1.2655097246170044,-0.3244305551052093,0.4245123863220215,-0.03129867836833,-0.1582815498113632,10.70798397064209,3.7109375,2,"['C1', 'F1', 'J1']",6.1,90,0.0,0.5490482959361188,[6300|0|0]
72,7200,1.2849587202072144,-0.3082489371299743,0.5123693346977234,1.1768393516540527,2.6000607013702397,9.84469985961914,3.705078125,2,"['C1', 'F1', 'J1']",6.1,90,0.0,0.6404755980272075,[6300|0|0]
73,7300,1.2981218099594116,-0.2951202392578125,0.602333128452301,2.319261074066162,4.137409210205078,8.352210998535156,3.7109375,2,"['C1', 'F1', 'J1']",6.1,90,0.0,0.7323402475195944,[6300|0|0]
74,7400,1.3026186227798462,-0.2873819768428802,0.6926974654197693,2.844458103179932,4.436937808990479,6.7581048011779785,3.701171875,2,"['C1', 'F1', 'J1']",6.1,90,0.0,0.8231467199007773,[6300|0|0]
75,7500,1.2997080087661743,-0.2864526212215423,0.7844043374061584,2.9143993854522705,3.126185655593872,6.262634754180908,3.701171875,2,"['C1', 'F1', 'J1']",6.1,90,0.0,0.9149044756783432,[6300|0|0]
76,7600,1.292015790939331,-0.2910730838775635,0.8771089315414429,1.336219072341919,2.100803136825561,5.220557689666748,3.701171875,2,"['C1', 'F1', 'J1']",6.1,90,0.0,1.0080423340606313,[6300|0|0]
77,7700,1.280372977256775,-0.3008497655391693,0.9706504940986632,0.6583306193351746,1.1452580690383911,5.124172210693359,3.701171875,2,"['C1', 'F1', 'J1']",6.1,90,0.0,1.1028113297311852,[6300|0|0]
78,7800,1.265133261680603,-0.3108694851398468,1.065860390663147,-0.4414785504341125,-0.0259226150810718,5.4329681396484375,3.6953125,2,"['C1', 'F1', 'J1']",6.1,90,0.0,1.199752384581741,[6300|0|0]
79,7900,1.2501331567764282,-0.3195155560970306,1.164337992668152,-1.5346862077713013,-1.1034234762191772,9.919275283813477,3.701171875,2,"['C1', 'F1', 'J1']",6.1,90,0.0,1.2997403627930693,[6300|0|0]
80,8000,1.2428581714630127,-0.3264587223529815,1.2726644277572632,-1.6531974077224731,-2.823678970336914,9.874226570129396,3.701171875,2,"['C1', 'F1', 'J1']",6.1,90,0.0,1.4085325937109232,[6300|0|0]
81,8100,1.2324466705322266,-0.3316878378391266,1.374487042427063,-2.228610038757324,-1.5936307907104492,8.34867000579834,3.701171875,2,"['C1', 'F1', 'J1']",6.1,90,0.0,1.511019606832556,[6300|0|0]
82,8200,1.2220633029937744,-0.3347847163677215,1.4740755558013916,-1.799349665641785,-2.3890998363494877,6.888910293579102,3.75390625,2,"['C1', 'F1', 'J1']",6.1,90,0.0,1.6111958364190615,[6300|0|0]
83,8300,1.2144765853881836,-0.3329159915447235,1.5644160509109497,-1.5146743059158323,-3.35274338722229,5.424452304840088,3.7734375,2,"['C1', 'F1', 'J1']",6.1,90,0.0,1.701873592639268,[6300|0|0]
84,8400,1.2099889516830444,-0.3287434577941894,1.633784532546997,-1.0680592060089111,-2.996155023574829,4.053502082824707,3.779296875,2,"['C1', 'F1', 'J1']",6.1,90,0.0,1.7715121964353056,[6300|0|0]
85,8500,1.20795476436615,-0.3215085566043854,1.6952831745147705,-0.4884208142757416,-2.798356056213379,3.0673227310180664,3.7734375,2,"['C1', 'F1', 'J1']",6.1,90,0.0,1.8334683476807372,[6300|0|0]
86,8600,1.2084275484085083,-0.3131868541240692,1.74017596244812,0.560105562210083,-1.8639397621154783,2.5596508979797363,3.763671875,2,"['C1', 'F1', 'J1']",6.1,90,0.0,1.8791283593468584,[6300|0|0]
87,8700,1.2101900577545166,-0.3056712746620178,1.7703415155410769,1.2177942991256714,-1.0303019285202026,2.440704107284546,3.748046875,2,"['C1', 'F1', 'J1']",6.1,90,0.0,1.910265972730821,[6300|0|0]
88,8800,1.2131638526916504,-0.3006106913089752,1.7895874977111816,1.1973087787628174,-0.5330554842948914,2.617037534713745,3.7421875,2,"['C1', 'F1', 'J1']",6.1,90,0.0,1.9303871255281444,[6300|0|0]
89,8900,1.216394543647766,-0.2969582080841064,1.8008702993392944,0.9655190110206604,-0.2176005244255066,2.572985887527466,3.732421875,2,"['C1', 'F1', 'J1']",6.1,90,0.0,1.9426785701275893,[6300|0|0]
90,9000,1.2186957597732544,-0.2943049669265747,1.80467689037323,0.5756548643112183,-0.0687302500009536,2.852396249771118,3.7265625,2,"['C1', 'F1', 'J1']",6.1,90,0.0,1.94785789629958,[6300|0|0]
91,9100,1.223449945449829,-0.2971436679363251,1.8064054250717163,0.0991975888609886,0.1210130453109741,2.991919040679932,3.720703125,2,"['C1', 'F1', 'J1']",6.1,90,0.0,1.9536586149683293,[6300|0|0]
92,9200,1.2259594202041626,-0.2964470088481903,1.804425835609436,-0.2556110322475433,0.0557816661894321,3.2474539279937744,3.720703125,2,"['C1', 'F1', 'J1']",6.1,90,0.0,1.9569299406731295,[6300|0|0]
93,9300,1.228489637374878,-0.2956625521183014,1.8002455234527588,-1.3845776319503784,1.434843897819519,3.423190116882324,3.806640625,2,"['C1', 'F1', 'J1']",6.1,90,-26.778840406955112,1.9618789184483187,[6300|0|0]
94,9400,1.2439855337142944,-0.3234972953796386,1.8030006885528564,-14.994714736938477,13.467928886413574,11.29389762878418,3.794921875,2,"['C1', 'F1', 'J1']",6.1,90,-26.778840406955112,1.9938552639323683,[6300|0|0]
95,9500,1.180929183959961,-0.255341500043869,1.7168225049972534,-17.031606674194336,14.754191398620604,3.323110580444336,3.6796875,2,"['C1', 'F1', 'J1']",6.1,90,-26.778840406955112,2.120535945186991,[6300|0|0]
96,9600,1.1220113039016724,-0.2032778561115265,1.6617262363433838,-15.814053535461426,12.12233829498291,6.905718803405762,3.62109375,2,"['C1', 'F1', 'J1']",6.1,90,-26.778840406955112,2.216543957507089,[6300|0|0]
97,9700,1.068934440612793,-0.1174758300185203,1.6221928596496582,-7.761116027832031,0.8679318428039551,4.7806501388549805,3.65234375,2,"['C1', 'F1', 'J1']",6.1,90,-26.778840406955112,2.324904600597924,[6300|0|0]
98,9800,0.9981268644332886,-0.009601411409676,1.5815606117248535,-3.2613258361816406,-1.4277937412261963,3.7563183307647705,3.630859375,2,"['C1', 'F1', 'J1']",6.1,90,-26.778840406955112,2.460187942536373,[6300|0|0]
99,9900,0.9229149222373962,0.096743606030941,1.5434329509735107,-1.1360113620758057,-3.599957227706909,2.998443365097046,3.63671875,2,"['C1', 'F1', 'J1']",6.1,90,-26.778840406955112,2.5959075708061734,[6300|0|0]
100,10000,0.8519443869590759,0.2050388008356094,1.5149415731430054,-1.3378537893295288,-5.358007907867432,2.2316641807556152,3.63671875,2,"['C1', 'F1', 'J1']",6.1,90,-26.778840406955112,2.7284836799139347,[6300|0|0]
101,10100,0.7963890433311462,0.3031737804412842,1.4992382526397705,0.2783901989459991,-7.00775957107544,2.2128145694732666,3.65234375,2,"['C1', 'F1', 'J1']",6.1,90,-26.778840406955112,2.8423408918183672,[6300|0|0]
102,10200,0.7485023140907288,0.4092452526092529,1.4886683225631714,3.5271894931793213,-7.570911884307861,1.8690948486328125,3.658203125,2,"['C1', 'F1', 'J1']",6.1,90,-26.778840406955112,2.9591998643752464,[6300|0|0]
103,10300,0.7156897783279419,0.5054376125335693,1.483530044555664,6.333905220031738,-7.572307586669922,1.2849998474121094,3.6640625,2,"['C1', 'F1', 'J1']",6.1,90,-26.778840406955112,3.0609644678082466,[6300|0|0]
104,10400,0.699205756187439,0.5859619379043579,1.4831874370574951,9.195470809936523,-6.135507583618164,0.7480416893959045,3.66796875,2,"['C1', 'F1', 'J1']",6.1,90,-26.778840406955112,3.143159402824019,[6300|0|0]
105,10500,0.6982765793800354,0.6411571502685547,1.4880321025848389,10.118990898132324,-4.283040523529053,0.1748667955398559,3.673828125,2,"['C1', 'F1', 'J1']",6.1,90,-26.778840406955112,3.198574613926568,[6300|0|0]
106,10600,0.7104474902153015,0.6678861975669861,1.4987353086471558,8.737404823303223,-2.1127805709838867,-0.492914080619812,3.689453125,2,"['C1', 'F1', 'J1']",6.1,90,-26.778840406955112,3.22983371916095,[6300|0|0]
107,10700,0.7329493165016174,0.6640802621841431,1.5147873163223269,5.411517143249512,0.1358842551708221,-0.53367018699646,3.701171875,2,"['C1', 'F1', 'J1']",6.1,90,-26.778840406955112,3.2577350503256395,[6300|0|0]
108,10800,0.7614613771438599,0.6348759531974792,1.534872055053711,1.028659462928772,2.288170337677002,-0.2480527907609939,3.716796875,2,"['C1', 'F1', 'J1']",6.1,90,-26.778840406955112,3.3032237961356024,[6300|0|0]
109,10900,0.9632888436317444,0.2777385115623474,1.6767711639404297,-1.3125637769699097,3.39599609375,-6.17478609085083,3.7265625,2,"['C1', 'F1', 'J1']",6.1,90,-26.778840406955112,3.7372938775158446,[6300|0|0]
110,11000,1.0076055526733398,0.1849435865879058,1.687995433807373,-10.488537788391112,10.252885818481444,-1.172854781150818,3.810546875,2,"['C1', 'F1', 'J1']",6.1,90,-26.778840406955112,3.84073880506348,[6300|0|0]
111,11100,1.0280638933181765,0.1594410687685012,1.662764549255371,-16.874774932861328,13.69316291809082,3.3137152194976807,3.736328125,2,"['C1', 'F1', 'J1']",6.1,90,-26.778840406955112,3.882036742691717,[6300|0|0]
112,11200,1.027186393737793,0.1629381775856018,1.6137101650238037,-19.14505386352539,15.540006637573242,1.5292589664459229,3.642578125,2,"['C1', 'F1', 'J1']",6.1,90,-26.778840406955112,3.9312234521560674,[6300|0|0]
113,11300,1.0028401613235474,0.1933716833591461,1.5497156381607056,-18.97437858581543,15.037485122680664,-1.39979887008667,3.583984375,2,"['C1', 'F1', 'J1']",6.1,90,-26.778840406955112,4.006151662963937,[6300|0|0]
114,11400,0.9499049782752992,0.2560642063617706,1.4884599447250366,-15.225913047790527,9.98049545288086,-5.132114887237549,3.58984375,2,"['C1', 'F1', 'J1']",6.1,90,-26.778840406955112,4.108546711785015,[6300|0|0]
115,11500,0.7195662260055542,0.4111941456794739,1.4827300310134888,-8.309930801391602,2.816601276397705,1.1152751445770264,3.63671875,2,"['C1', 'F1', 'J1']",6.1,90,-26.778840406955112,4.386312927839161,[6300|0|0]
116,11600,0.6452402472496033,0.5355717539787292,1.467167615890503,3.640376567840576,-11.488386154174805,0.5516335964202881,3.689453125,2,"['C1', 'F1', 'J1']",6.1,90,-26.778840406955112,4.532039827650875,[6300|0|0]
117,11700,0.5596530437469482,0.6519439816474915,1.4425938129425049,12.483217239379885,-16.424678802490234,1.548640251159668,3.65234375,2,"['C1', 'F1', 'J1']",6.1,90,-26.778840406955112,4.678571518992107,[6300|0|0]
118,11800,0.4998456537723541,0.743321418762207,1.4153908491134644,16.42782974243164,-19.64656639099121,1.6653804779052734,3.611328125,2,"['C1', 'F1', 'J1']",6.1,90,-26.778840406955112,4.791118225520157,[6300|0|0]
119,11900,0.471617728471756,0.8046178221702576,1.3879667520523071,17.29100799560547,-18.54817771911621,1.1247828006744385,3.59375,2,"['C1', 'F1', 'J1']",6.1,90,-26.778840406955112,4.8639615226528266,[6300|0|0]
120,12000,0.4743963181972503,0.8344222903251648,1.364614725112915,14.2886323928833,-13.827208518981934,0.7279167175292969,3.59375,2,"['C1', 'F1', 'J1']",6.1,90,-26.778840406955112,4.901926559792774,[6300|0|0]
121,12100,0.5006717443466187,0.8375402092933655,1.3504842519760132,9.071824073791504,-8.08897590637207,1.1911379098892212,3.615234375,2,"['C1', 'F1', 'J1']",6.1,90,-26.778840406955112,4.931923054739616,[6300|0|0]
122,12200,0.6334188580513,0.6705556511878967,1.4155690670013428,4.75089168548584,-2.4490911960601807,0.6398625373840332,3.6484375,2,"['C1', 'F1', 'J1']",6.1,90,-26.778840406955112,5.154951465462294,[6300|0|0]
123,12300,0.7013931274414062,0.5981594324111938,1.431941270828247,-6.384966850280762,5.662134647369385,1.5741714239120483,3.896484375,2,"['C1', 'F1', 'J1']",6.1,90,0.0,5.255598188461271,[6300|0|0]
124,12400,0.7627447247505188,0.5557039976119995,1.4267653226852417,-16.180282592773438,8.901637077331543,4.798457622528076,3.896484375,2,"['C1', 'F1', 'J1']",6.1,90,0.0,5.330386375199199,[6300|0|0]
125,12500,0.8153426647186279,0.5297808051109314,1.377733588218689,-18.179065704345703,13.55047607421875,2.642925977706909,3.78515625,2,"['C1', 'F1', 'J1']",6.1,90,0.0,5.406823710207261,[6300|0|0]
126,12600,0.8594448566436768,0.5209234356880188,1.2827013731002808,-17.824403762817383,14.83949375152588,2.530447483062744,3.6796875,2,"['C1', 'F1', 'J1']",6.1,90,0.0,5.511964464608203,[6300|0|0]
127,12700,0.8665339350700378,0.538567841053009,1.1612818241119385,-11.992476463317873,16.92427635192871,-6.522781848907471,3.626953125,2,"['C1', 'F1', 'J1']",6.1,90,0.0,5.634863963997549,[6300|0|0]
128,12800,0.7573925852775574,0.6116227507591248,1.0693628787994385,-7.231622695922852,8.778078079223633,-6.170036792755127,3.63671875,2,"['C1', 'F1', 'J1']",6.1,90,0.0,5.795169754828871,[6300|0|0]
129,12900,0.7221370935440063,0.6665441393852234,0.9509617686271667,0.5278169512748718,-3.2044167518615723,-4.662289619445801,3.658203125,2,"['C1', 'F1', 'J1']",6.1,90,0.0,5.930366395009091,[6300|0|0]
130,13000,0.6975721716880798,0.7200865149497986,0.8403122425079346,6.357682228088379,-9.18969440460205,-2.7957656383514404,3.673828125,2,"['C1', 'F1', 'J1']",6.1,90,0.0,6.05572005070886,[6300|0|0]
131,13100,0.6892390251159668,0.7654547095298767,0.7283364534378052,8.6579008102417,-7.215667724609375,-3.9586002826690674,3.673828125,2,"['C1', 'F1', 'J1']",6.1,90,0.0,6.176824516973017,[6300|0|0]
132,13200,0.6913098096847534,0.8059743642807007,0.6055474877357483,6.084506988525391,-4.398097991943359,-6.070101261138916,3.658203125,2,"['C1', 'F1', 'J1']",6.1,90,0.0,6.306142963716075,[6300|0|0]
133,13300,0.7045771479606628,0.830869734287262,0.4929613471031189,9.313036918640137,-0.3170633018016815,-7.330482959747314,3.6640625,2,"['C1', 'F1', 'J1']",6.1,90,0.0,6.422209499699713,[6300|0|0]
134,13400,0.7184230089187622,0.845302402973175,0.3805886209011078,5.8421149253845215,1.904228925704956,-6.815671443939209,3.60546875,2,"['C1', 'F1', 'J1']",6.1,90,0.0,6.536348184575353,[6300|0|0]
135,13500,0.7281801104545593,0.8519521355628967,0.2774169743061065,3.913323879241944,2.3833255767822266,-4.244456768035889,3.578125,2,"['C1', 'F1', 'J1']",6.1,90,0.0,6.640193303069284,[6300|0|0]
136,13600,0.7320955991744995,0.8535844087600708,0.1884281784296035,4.073334217071533,3.7113072872161865,-1.5083471536636353,3.57421875,2,"['C1', 'F1', 'J1']",6.1,90,0.0,6.72928315186956,[6300|0|0]
137,13700,0.7280017137527466,0.8492830395698547,0.1154958307743072,4.190707683563232,2.4392428398132324,-0.6721295714378357,3.57421875,2,"['C1', 'F1', 'J1']",6.1,90,0.0,6.802456842560067,[6300|0|0]
138,13800,0.7182506322860718,0.8402583599090576,0.0600074604153633,1.8660888671875,2.3116581439971924,-2.35871958732605,3.578125,2,"['C1', 'F1', 'J1']",6.1,90,0.0,6.859513723633616,[6300|0|0]
139,13900,0.7033261060714722,0.827465832233429,0.0229429714381694,0.0124667035415768,0.493344098329544,-2.9566633701324463,3.59375,2,"['C1', 'F1', 'J1']",6.1,90,0.0,6.901468062982514,[6300|0|0]
140,14000,0.6870017051696777,0.8166284561157227,0.0050638960674405,-1.0821473598480225,-2.401031732559204,-1.4131860733032229,3.626953125,2,"['C1', 'F1', 'J1']",6.1,90,0.0,6.927993449351638,[6300|0|0]
141,14100,0.6736301183700562,0.8078036904335022,0.000531738740392,-0.978767454624176,-2.9129998683929443,0.1507947891950607,3.658203125,2,"['C1', 'F1', 'J1']",6.1,90,0.0,6.94464326235128,[6300|0|0]
142,14200,0.6638842225074768,0.7990371584892273,0.0051464890129864,-0.0789511427283287,-3.0073814392089844,0.5336899161338806,3.673828125,2,"['C1', 'F1', 'J1']",6.1,90,0.0,6.958540401933677,[6300|0|0]
143,14300,0.6589035391807556,0.7906088829040527,0.010697916150093,-0.4570375978946686,-4.030505180358887,0.3168245255947113,3.673828125,2,"['C1', 'F1', 'J1']",6.1,90,0.0,6.969794795697862,[6300|0|0]
144,14400,0.6589205861091614,0.7818052172660828,0.0144812772050499,-0.2350830435752868,-2.379666805267334,-0.226625457406044,3.673828125,2,"['C1', 'F1', 'J1']",6.1,90,0.0,6.979377000044206,[6300|0|0]
145,14500,0.6620481014251709,0.7722877860069275,0.0163390133529901,-1.6995197534561155,-2.354217290878296,-0.3227186799049377,3.658203125,2,"['C1', 'F1', 'J1']",6.1,90,0.0,6.98956591723005,[6300|0|0]
146,14600,0.6689869165420532,0.7642503976821899,0.0160892307758331,-0.6417023539543152,-1.7918390035629272,0.8437985777854919,3.658203125,2,"['C1', 'F1', 'J1']",6.1,90,0.0,7.00018708278025,[6300|0|0]
147,14700,0.6770570874214172,0.7575743794441223,0.0144069781526923,-1.5756138563156128,-1.3148810863494873,1.6541318893432615,3.65234375,2,"['C1', 'F1', 'J1']",6.1,90,0.0,7.010794950210851,[6300|0|0]
148,14800,0.6859501600265503,0.7524222731590271,0.0124786822125315,-1.728319764137268,0.3976128399372101,2.8365979194641118,3.65234375,2,"['C1', 'F1', 'J1']",6.1,90,0.0,7.021251970090622,[6300|0|0]
149,14900,0.6933718919754028,0.7504178881645203,0.0123515333980321,-2.205770254135132,0.599788248538971,3.802682399749756,3.65234375,2,"['C1', 'F1', 'J1']",6.1,90,0.0,7.028940652106927,[6300|0|0]
150,15000,0.6980559229850769,0.7518200278282166,0.0140225747600197,-1.553565263748169,1.085801601409912,4.621921539306641,3.6640625,2,"['C1', 'F1', 'J1']",6.1,90,0.0,7.034107713299672,[6300|0|0]
151,15100,0.7022371292114258,0.7553644776344299,0.016651228070259,-0.8028450608253479,-0.267357587814331,4.65262508392334,3.6640625,2,"['C1', 'F1', 'J1']",6.1,90,0.0,7.040186810943357,[6300|0|0]
152,15200,0.7051944732666016,0.7593080401420593,0.0173587966710329,0.3313035368919372,0.1416383236646652,4.321415424346924,3.65234375,2,"['C1', 'F1', 'J1']",6.1,90,0.0,7.045166592307741,[6300|0|0]
153,15300,0.7083079814910889,0.7634565234184265,0.0178149882704019,0.2702856063842773,0.8159546256065369,4.97347354888916,3.658203125,2,"['G1', 'F1', 'A/B1']",6.1,90,0.0,7.050373506723552,[6300|100|0]
154,15400,0.7101770043373108,0.7661818861961365,0.017965218052268,0.0957127138972282,0.8838178515434265,6.216628551483154,3.65234375,2,"['G1', 'F1', 'A/B1']",6.1,90,0.0,7.0536815904070735,[6300|200|0]
155,15500,0.7111751437187195,0.7682400941848755,0.0167878922075033,0.5852428674697876,-0.0161721762269735,6.602839946746826,3.65234375,2,"['G1', 'F1', 'A/B1']",6.1,90,0.0,7.056254254103397,[6300|300|0]
156,15600,0.7116662859916687,0.768510639667511,0.0147250667214393,1.3016328811645508,0.1595632284879684,7.040011405944824,3.65234375,2,"['G1', 'F1', 'A/B1']",6.1,90,0.0,7.058391931482332,[6300|400|0]
157,15700,0.7128869295120239,0.7656782269477844,0.0127757219597697,1.1916656494140625,1.1659252643585205,7.437332153320312,3.6484375,2,"['G1', 'F1', 'A/B1']",6.1,90,0.0,7.062040558267644,[6300|500|0]
158,15800,0.7125266790390015,0.7600979208946228,0.012177238240838,0.2791676521301269,0.0191405471414327,6.891750812530518,3.6484375,2,"['G1', 'F1', 'A/B1']",6.1,90,0.0,7.067664416268349,[6300|600|0]
159,15900,0.7126996517181396,0.7530274391174316,0.0133566120639443,0.3564444780349731,0.3259272575378418,5.781522750854492,3.65234375,2,"['G1', 'F1', 'A/B1']",6.1,90,0.0,7.07483467112602,[6300|700|0]
160,16000,0.7132429480552673,0.744261622428894,0.0159119050949811,0.561843991279602,-0.3750379383563995,4.606999397277832,3.65234375,2,"['G1', 'F1', 'A/B1']",6.1,90,0.0,7.083981486724984,[6300|800|0]
161,16100,0.7133601307868958,0.7336065173149109,0.0189729146659374,0.4024122059345245,0.0747057721018791,3.0685861110687256,3.65234375,2,"['G1', 'F1', 'A/B1']",6.1,90,0.0,7.095068180387934,[6300|900|0]
162,16200,0.7127558588981628,0.7222263813018799,0.0218923185020685,0.2436691224575042,0.4105309247970581,1.1983100175857544,3.65234375,2,"['G1', 'F1', 'A/B1']",6.1,90,0.0,7.1068323445719725,[6300|1000|0]
163,16300,0.7116208076477051,0.7106161117553711,0.0234349444508552,-0.1772155463695526,0.3633413016796112,0.101756639778614,3.6484375,2,"['G1', 'F1', 'A/B1']",6.1,90,0.0,7.118599519045976,[6300|1100|0]
164,16400,0.7103294134140015,0.7003656625747681,0.0252324640750885,-1.7404513359069824,0.5694767832756042,0.6709210872650146,3.65234375,2,"['G1', 'F1', 'A/B1']",6.1,90,0.0,7.129086200326079,[6300|1200|0]
165,16500,0.7083266377449036,0.6928167343139648,0.0273782350122928,-1.5197361707687378,-0.3837995529174804,2.0007259845733643,3.65234375,2,"['G1', 'F1', 'A/B1']",6.1,90,0.0,7.137185691741127,[6300|1300|0]
166,16600,0.7077142000198364,0.6872314810752869,0.0277503877878189,-0.2068782299757003,0.2093725949525833,3.3029887676239014,3.6484375,2,"['G1', 'F1', 'A/B1']",6.1,90,0.0,7.14281673350936,[6300|1400|0]
167,16700,0.7072131633758545,0.6834360957145691,0.0271429624408483,-0.4214425384998321,0.1169865280389785,3.4293363094329834,3.642578125,2,"['G1', 'F1', 'A/B1']",6.1,90,0.0,7.1466929369750085,[6300|1500|0]
168,16800,0.7081528306007385,0.6797513961791992,0.0272785853594541,0.7886413335800171,-0.4430174231529236,4.037729263305664,3.642578125,2,"['G1', 'F1', 'A/B1']",6.1,90,0.0,7.150497983457711,[6300|1600|0]
169,16900,0.7108671069145203,0.6752682328224182,0.028490288183093,0.5726208090782166,-1.2553977966308594,4.722172260284424,3.6484375,2,"['G1', 'F1', 'A/B1']",6.1,90,0.0,7.155877042234482,[6300|1700|0]
170,17000,0.7141852378845215,0.6680821776390076,0.0279100984334945,1.2212722301483154,0.2844930291175842,4.12565803527832,3.642578125,2,"['G1', 'F1', 'A/B1']",6.1,90,0.0,7.163813414351428,[6300|1800|0]
171,17100,0.7221279144287109,0.6609024405479431,0.0274528283625841,0.5843163728713989,-0.7895340919494629,3.8257322311401367,3.63671875,2,"['G1', 'F1', 'A/B1']",6.1,90,0.0,7.174529935769322,[6300|1900|0]
172,17200,0.7309802174568176,0.6524559259414673,0.0256267320364713,-0.9154356122016908,0.424794852733612,3.24934196472168,3.912109375,2,"['G1', 'F1', 'A/B1']",6.1,90,0.0,7.186900930300526,[6300|2000|0]
173,17300,0.7418385148048401,0.6449288129806519,0.0042204232886433,-1.4158991575241089,-5.970590114593506,5.158486843109131,4.0078125,2,"['G1', 'F1', 'A/B1']",6.1,90,0.0,7.212056249917463,[6300|2100|0]
174,17400,0.7494028806686401,0.6427614092826843,-0.0386223867535591,-2.9135372638702397,-0.83512282371521,11.560872077941896,4.01171875,2,"['G1', 'F1', 'A/B1']",6.1,90,0.0,7.255615676475025,[6300|2200|0]
175,17501,0.7552865147590637,0.6429792642593384,-0.0350019372999668,-2.983647346496582,-0.198072463274002,13.723180770874023,4.015625,2,"['G1', 'F1', 'A/B1']",6.1,90,0.0,7.262527424817295,[6300|2300|0]
176,17600,0.7532825469970703,0.6401851773262024,-0.0371150933206081,-2.910801649093628,-0.1133573502302169,13.690034866333008,4.015625,2,"['G1', 'F1', 'A/B1']",6.1,90,0.0,7.266563293614543,[6300|2400|0]
177,17700,0.7539510130882263,0.6398825645446777,-0.036906860768795,-2.88021183013916,-0.0746745839715004,13.677490234375,4.015625,2,"['G1', 'F1', 'A/B1']",6.1,90,0.0,7.267326040103359,[6300|2500|0]
178,17800,0.7535526156425476,0.6382617950439453,-0.0370031036436557,-2.8014705181121826,0.0245014037936925,13.736069679260254,4.0234375,2,"['G1', 'F1', 'A/B1']",6.1,90,0.0,7.268997828663611,[6300|2600|0]
179,17900,0.7532944679260254,0.6396852135658264,-0.0364938676357269,-2.933025598526001,0.0251317862421274,12.87135887145996,4.0234375,2,"['G1', 'F1', 'A/B1']",6.1,90,0.0,7.27053147850753,[6300|2700|0]
180,18000,0.7503569722175598,0.6488481760025024,-0.0352616421878337,-3.0197343826293945,0.096880555152893,14.755615234375,4.02734375,2,"['G1', 'F1', 'A/B1']",6.1,90,0.0,7.2802323620346945,[6300|2800|0]
181,18100,0.7552564740180969,0.6531900763511658,-0.0342331007122993,-2.923036336898804,0.6959256529808044,11.942524909973145,4.02734375,2,"['G1', 'F1', 'A/B1']",6.1,90,0.0,7.286859210010775,[6300|2900|0]
182,18200,0.7647261023521423,0.657447338104248,-0.019435990601778,6.841529846191406,14.45661735534668,1.5212479829788208,4.02734375,2,"['G1', 'F1', 'A/B1']",6.1,90,0.0,7.304935509577946,[6300|3000|0]
183,18300,0.7583013772964478,0.6649280786514282,0.0143928742036223,16.694095611572266,13.481762886047363,14.609886169433594,4.03125,2,"['G1', 'F1', 'A/B1']",6.1,90,0.0,7.340172289584035,[6300|3100|0]
184,18400,0.7701071500778198,0.7148581743240356,0.0189981739968061,10.618425369262695,8.656312942504883,-0.3873958885669708,4.03125,2,"['G1', 'F1', 'A/B1']",6.1,90,0.0,7.391685389966619,[6300|3200|0]
185,18500,0.7402791976928711,0.7461936473846436,-0.006042253691703,4.761356830596924,10.762655258178713,-1.8465676307678225,4.03125,2,"['G1', 'F1', 'A/B1']",6.1,90,0.0,7.441671804463303,[6300|3300|0]
186,18600,0.7444140911102295,0.7564007639884949,-0.0225729364901781,-0.5268580913543701,9.36839771270752,-0.1120595037937164,4.03125,2,"['G1', 'F1', 'A/B1']",6.1,90,0.0,7.4615349876603965,[6300|3400|0]
187,18700,0.7513744831085205,0.7559967637062073,-0.0274499729275703,-0.8532324433326721,2.315967321395874,3.4965031147003174,4.03125,2,"['G1', 'F1', 'A/B1']",6.1,90,0.0,7.470043557305737,[6300|3500|0]
188,18800,0.7561795711517334,0.7541587948799133,-0.0304192677140235,-0.8616955280303955,-2.1986992359161377,3.402717351913452,4.0390625,2,"['G1', 'F1', 'A/B1']",6.1,90,0.0,7.475983566736564,[6300|3600|0]
189,18900,0.7474768757820129,0.7569812536239624,-0.0286232754588127,-1.0086228847503662,-1.844717025756836,3.1586110591888428,4.0390625,2,"['G1', 'F1', 'A/B1']",6.1,90,0.0,7.485307126584647,[6300|3700|0]
190,19000,0.7501417398452759,0.7588071823120117,-0.0278586484491825,-1.1133192777633667,-1.8433321714401243,2.853736639022827,4.0390625,2,"['G1', 'F1', 'A/B1']",6.1,90,0.0,7.488626790801608,[6300|3800|0]
191,19101,0.7530202269554138,0.7595118284225464,-0.0273076072335243,-1.3131500482559204,-1.7336965799331665,-0.302327960729599,4.0390625,2,"['G1', 'F1', 'A/B1']",6.1,90,0.0,7.491641066934559,[6300|3900|0]
192,19201,0.7481478452682495,0.7594357132911682,-0.0269316807389259,-1.1249780654907229,-1.492281436920166,2.352491855621338,4.0390625,2,"['G1', 'F1', 'A/B1']",6.1,90,0.0,7.4965285220543505,[6300|4000|0]
193,19301,0.7480703592300415,0.7587528228759766,-0.0268427524715662,-1.0761144161224363,-1.4682395458221436,3.5052123069763184,4.04296875,2,"['G1', 'F1', 'A/B1']",6.1,90,0.0,7.497221523960563,[6300|4100|0]
194,19402,0.7480432987213135,0.7588138580322266,-0.0267954468727111,-1.073399543762207,-1.43808913230896,4.2203288078308105,4.04296875,2,"['G1', 'F1', 'A/B1']",6.1,90,0.0,7.497303349269081,[6300|4200|0]
195,19502,0.7463229298591614,0.7562974691390991,-0.0280423965305089,-1.026218295097351,-1.3474962711334229,4.57118558883667,4.04296875,2,"['G1', 'F1', 'A/B1']",6.1,90,0.0,7.500596792077511,[6300|4300|0]
196,19600,0.746121883392334,0.7565454244613647,-0.0284849628806114,-1.0504789352416992,-1.3162859678268433,4.966338634490967,4.11328125,2,"['G1', 'F1', 'A/B1']",6.1,90,0.0,7.501142471926788,[6300|4400|0]
197,19700,0.746411919593811,0.7563774585723877,-0.0280450377613306,-1.111632227897644,-1.293966293334961,5.2185797691345215,4.1171875,2,"['G1', 'F1', 'A/B1']",6.1,90,0.0,7.501695524951915,[6300|4500|0]
198,19802,0.7460333704948425,0.7567810416221619,-0.0280316360294818,-1.201020359992981,-1.263766527175903,5.387137413024902,4.12109375,2,"['G1', 'F1', 'A/B1']",6.1,90,0.0,7.502249021388047,[6300|4600|0]
199,19902,0.7459350228309631,0.7566155195236206,-0.0277262385934591,-1.2441625595092771,-1.2293633222579956,5.50520133972168,4.12109375,2,"['G1', 'F1', 'A/B1']",6.1,90,0.0,7.502610044132518,[6300|4700|0]
200,20002,0.7458271384239197,0.7567048072814941,-0.0278086513280868,-1.260881423950195,-1.214280366897583,5.603820323944092,4.12109375,2,"['G1', 'F1', 'A/B1']",6.1,90,0.0,7.502772534771688,[6300|4800|0]
201,20102,0.7458977103233337,0.7566756010055542,-0.0282323602586984,-1.2717987298965454,-1.2056951522827148,5.670904159545898,4.12109375,2,"['G1', 'F1', 'A/B1']",6.1,90,0.0,7.503203072409325,[6300|4900|0]
202,20202,0.7457728385925293,0.7571535706520081,-0.0281434822827577,-1.281715750694275,-1.197189450263977,5.73684024810791,4.12109375,2,"['G1', 'F1', 'A/B1']",6.1,90,0.0,7.503705015859021,[6300|5000|0]
203,20300,0.7459698915481567,0.7568568587303162,-0.0282496120780706,-1.2734603881835938,-1.193524956703186,5.774959564208984,4.12890625,2,"['G1', 'F1', 'A/B1']",6.1,90,0.0,7.504076676141064,[6300|5100|0]
204,20400,0.7459840178489685,0.7567247152328491,-0.0277223102748394,-1.2696834802627563,-1.1848876476287842,5.827264308929443,4.12890625,2,"['G1', 'F1', 'A/B1']",6.1,90,0.0,7.504620467137669,[6300|5200|0]
205,20500,0.7458716034889221,0.7568165063858032,-0.0280804764479398,-1.2661651372909546,-1.1787397861480713,5.86057710647583,4.12890625,2,"['G1', 'F1', 'A/B1']",6.1,90,0.0,7.505006919737167,[6300|5300|0]
206,20600,0.7457630038261414,0.7569279074668884,-0.0282835327088832,-1.255561590194702,-1.176089644432068,5.88934850692749,4.12890625,2,"['G1', 'F1', 'A/B1']",6.1,90,0.0,7.50526272421862,[6300|5400|0]
207,20700,0.745830774307251,0.7568249702453613,-0.0278210863471031,-1.2486588954925537,-1.1798832416534424,5.904776573181152,4.1328125,2,"['G1', 'F1', 'A/B1']",6.1,90,0.0,7.505741311250631,[6300|5500|0]
208,20800,0.7460354566574097,0.7566906809806824,-0.0281858649104833,-1.2476027011871338,-1.1786658763885498,5.897207736968994,4.1328125,2,"['G1', 'F1', 'A/B1']",6.1,90,0.0,7.506180619651844,[6300|5600|0]
209,20900,0.7458798289299011,0.7568148374557495,-0.0278017204254865,-1.2468218803405762,-1.1746560335159302,5.888255596160889,4.1328125,2,"['G1', 'F1', 'A/B1']",6.1,90,0.0,7.506613287891057,[6300|5700|0]
210,21000,0.7458879351615906,0.7566999197006226,-0.0280128568410873,-1.2429763078689575,-1.172406554222107,5.903103828430176,4.1328125,2,"['G1', 'F1', 'A/B1']",6.1,90,0.0,7.506853808965869,[6300|5800|0]
211,21100,0.7458579540252686,0.7570681571960449,-0.028016397729516,-1.2752822637557983,-1.200287699699402,5.878653049468994,4.1328125,2,"['G1', 'F1', 'A/B1']",6.1,90,0.0,7.507223281914082,[6300|5900|0]
212,21200,0.7458164095878601,0.7569835782051086,-0.028110196813941,-1.2566980123519895,-1.1952332258224487,5.855876922607422,4.1328125,2,"['G1', 'F1', 'A/B1']",6.1,90,0.0,7.5073562398556515,[6300|6000|0]
213,21300,0.7457395792007446,0.7569623589515686,-0.0279277972877025,-1.25053071975708,-1.1798434257507324,5.8643879890441895,4.13671875,2,"['G1', 'F1', 'A/B1']",6.1,90,0.0,7.507555294502111,[6300|6100|0]
214,21400,0.7455897927284241,0.7570158243179321,-0.0282664541155099,-1.240521788597107,-1.1733087301254272,5.879822731018066,4.13671875,2,"['G1', 'F1', 'A/B1']",6.1,90,0.0,7.507929437495779,[6300|6200|0]
215,21500,0.7457582354545593,0.7569136023521423,-0.0279288757592439,-1.2383118867874146,-1.1759763956069946,5.880792140960693,4.13671875,2,"['G1', 'F1', 'A/B1']",6.1,90,0.0,7.508320310146264,[6300|6300|0]
216,21600,0.7457771301269531,0.75692218542099,-0.0278788097202777,-1.2399461269378662,-1.1785671710968018,5.880281448364258,4.13671875,2,"['G1', 'F1', 'A/B1']",6.1,90,0.0,7.508374506880238,[6300|6400|0]
217,21700,0.7459657192230225,0.7570832371711731,-0.0279513262212276,-1.239988088607788,-1.1843348741531372,5.897442817687988,4.13671875,2,"['G1', 'F1', 'A/B1']",6.1,90,0.0,7.508632890618704,[6300|6500|0]
218,21800,0.7455324530601501,0.7573979496955872,-0.0282472297549247,-1.2492353916168213,-1.1697031259536743,5.895327091217041,4.13671875,2,"['G1', 'F1', 'A/B1']",6.1,90,0.0,7.509244709580626,[6300|6600|0]
219,21900,0.7457191348075867,0.7569459676742554,-0.0279397461563348,-1.234276533126831,-1.1708604097366333,5.877202033996582,4.14453125,2,"['G1', 'F1', 'A/B1']",6.1,90,0.0,7.509822363443969,[6300|6700|0]
220,22000,0.7458150386810303,0.7567119002342224,-0.0282140970230102,-1.2304480075836182,-1.172443151473999,5.881723403930664,4.14453125,2,"['G1', 'F1', 'A/B1']",6.1,90,0.0,7.510195530320139,[6300|6800|0]
221,22100,0.7458434104919434,0.7566580176353455,-0.0279463715851306,-1.232440710067749,-1.1725406646728516,5.892990589141846,4.14453125,2,"['G1', 'F1', 'A/B1']",6.1,90,0.0,7.510470093981617,[6300|6900|0]
222,22200,0.7458451390266418,0.7568057775497437,-0.0280573517084121,-1.2322956323623655,-1.176085352897644,5.890695571899414,4.14453125,2,"['G1', 'F1', 'A/B1']",6.1,90,0.0,7.510654898115495,[6300|7000|0]
223,22300,0.7457342743873596,0.7570428252220154,-0.0278687998652458,-1.2443017959594729,-1.1708482503890991,5.899847507476807,4.14453125,2,"['G1', 'F1', 'A/B1']",6.1,90,0.0,7.510977441701285,[6300|7100|0]
224,22400,0.745807409286499,0.7566205263137817,-0.0281541496515274,-1.2247304916381836,-1.1751331090927124,5.886109828948975,4.14453125,2,"['G1', 'F1', 'A/B1']",6.1,90,0.0,7.511492329632682,[6300|7200|0]
225,22500,0.7456687688827515,0.7571766376495361,-0.0282826572656631,-1.2344985008239746,-1.1752657890319824,5.89224100112915,4.1484375,2,"['G1', 'F1', 'A/B1']",6.1,90,0.0,7.51207969254111,[6300|7300|0]
226,22600,0.7458562850952148,0.757287323474884,-0.0280768629163503,-1.2379356622695925,-1.1881176233291626,5.884279251098633,4.1484375,2,"['G1', 'F1', 'A/B1']",6.1,90,0.0,7.512379300611893,[6300|7400|0]
227,22700,0.7458371520042419,0.757127583026886,-0.0275260061025619,-1.2543184757232666,-1.2064430713653564,5.887817859649658,4.1484375,2,"['G1', 'F1', 'A/B1']",6.1,90,0.0,7.512953170209618,[6300|7500|0]
228,22800,0.7457783818244934,0.7569931745529175,-0.0279882382601499,-1.2456848621368408,-1.199122190475464,5.897150039672852,4.1484375,2,"['G1', 'F1', 'A/B1']",6.1,90,0.0,7.513438121897326,[6300|7600|0]
229,22900,0.7455552220344543,0.7573011517524719,-0.0280208494514226,-1.2512426376342771,-1.189234972000122,5.909243106842041,4.1484375,2,"['G1', 'F1', 'A/B1']",6.1,90,0.0,7.513819846584937,[6300|7700|0]
230,23000,0.7456097602844238,0.7571430802345276,-0.0280032604932785,-1.2421904802322388,-1.1841951608657837,5.933725357055664,4.1484375,2,"['G1', 'F1', 'A/B1']",6.1,90,0.0,7.513987984614376,[6300|7800|0]
231,23100,0.7462130188941956,0.7567077279090881,-0.0279247853904962,-1.2328182458877563,-1.1944868564605713,5.903716564178467,4.1484375,2,"['G1', 'F1', 'A/B1']",6.1,90,0.0,7.51473605609444,[6300|7900|0]
232,23200,0.7460097074508667,0.7569555044174194,-0.0281535256654024,-1.2316157817840576,-1.187267541885376,5.915935516357422,4.1484375,2,"['G1', 'F1', 'A/B1']",6.1,90,0.0,7.515129821068039,[6300|8000|0]
233,23300,0.7459859848022461,0.7568072080612183,-0.0278761647641658,-1.2279891967773438,-1.181726574897766,5.923151016235352,4.15234375,2,"['G1', 'F1', 'A/B1']",6.1,90,0.0,7.515445231345067,[6300|8100|0]
234,23400,0.7461303472518921,0.7566783428192139,-0.0280759427696466,-1.2245242595672607,-1.1877750158309937,5.9365010261535645,4.15234375,2,"['C1', 'F1', 'J1']",6.1,90,0.0,7.515723364440794,[6300|8100|0]
235,23500,0.7461779713630676,0.7571699023246765,-0.0281461719423532,-1.2065088748931885,-1.161486029624939,5.971231937408447,3.3046875,2,"['C1', 'F1', 'J1']",6.1,90,0.0,7.516222194010964,[6300|8100|0]
236,23600,0.7454412579536438,0.7567867040634155,-0.0197454914450645,0.78143709897995,3.5055201053619385,6.952697277069092,3.55859375,2,"['C1', 'F1', 'J1']",6.1,90,0.0,7.524663818284324,[6300|8100|0]
237,23700,0.7361010313034058,0.7510710954666138,0.0148836756125092,-1.9328104257583616,11.474085807800291,9.379312515258787,3.66796875,2,"['C1', 'F1', 'J1']",6.1,90,0.0,7.560983058730828,[6300|8100|0]
238,23800,0.7115156650543213,0.7482752203941345,0.0618574693799018,-5.875149726867676,4.09023380279541,12.360629081726074,3.6484375,2,"['C1', 'F1', 'J1']",6.1,90,0.0,7.614075378815037,[6300|8100|0]
239,23900,0.6797543168067932,0.7521262764930725,0.118705540895462,-0.3605426251888275,-4.112265586853027,13.371641159057615,3.63671875,2,"['C1', 'F1', 'J1']",6.1,90,0.0,7.679308170496952,[6300|8100|0]
240,24000,0.6593425869941711,0.7564468383789062,0.1872927099466323,5.35509204864502,-9.910499572753906,14.351241111755373,3.673828125,2,"['C1', 'F1', 'J1']",6.1,90,0.0,7.750998516621146,[6300|8100|0]
241,24100,0.6597022414207458,0.7587506771087646,0.2616828680038452,4.743672847747803,-9.782476425170898,15.117929458618164,3.658203125,2,"['C1', 'F1', 'J1']",6.1,90,0.0,7.825425209682015,[6300|8100|0]
242,24200,0.6787658929824829,0.7594085931777954,0.3402614891529083,1.1940997838974,-3.4931013584136963,15.76468563079834,3.66796875,2,"['C1', 'F1', 'J1']",6.1,90,0.0,7.906285925521718,[6300|8100|0]
243,24300,0.7066648602485657,0.7620992660522461,0.4210784435272217,-0.8089114427566528,0.5035962462425232,16.899612426757812,3.6796875,2,"['C1', 'F1', 'J1']",6.1,90,0.0,7.991825227654545,[6300|8100|0]
244,24400,0.7334789037704468,0.7682429552078247,0.5028902292251587,-4.254109859466553,6.899855613708496,17.744808197021484,3.68359375,2,"['C1', 'F1', 'J1']",6.1,90,0.0,8.078138066360724,[6300|8100|0]
245,24500,0.7521154284477234,0.7780731916427612,0.5830878019332886,0.2209044396877288,3.7886087894439697,14.588871955871582,3.630859375,2,"['C1', 'F1', 'J1']",6.1,90,0.0,8.161057329916844,[6300|8100|0]
246,24600,0.762708306312561,0.7874369025230408,0.6675807237625122,1.0380380153656006,5.264817714691162,11.418573379516602,3.63671875,2,"['C1', 'F1', 'J1']",6.1,90,0.0,8.246724954969416,[6300|8100|0]
247,24700,0.764973521232605,0.7941142320632935,0.757627546787262,2.3765769004821777,3.388355493545532,8.355040550231934,3.63671875,2,"['C1', 'F1', 'J1']",6.1,90,0.0,8.337047423188977,[6300|8100|0]
248,24800,0.7618276476860046,0.7958180904388428,0.8543148636817932,2.552281856536865,2.451832771301269,6.07577657699585,3.642578125,2,"['C1', 'F1', 'J1']",6.1,90,0.0,8.43380090840785,[6300|8100|0]
249,24900,0.7532335519790649,0.7951374650001526,0.9564746618270874,1.6393663883209229,1.419089674949646,4.951051712036133,3.65234375,2,"['C1', 'F1', 'J1']",6.1,90,0.0,8.536323813600276,[6300|8100|0]
250,25000,0.7428152561187744,0.7917585968971252,1.0627399682998655,0.7589892148971558,0.2866866290569305,4.521596431732178,3.6640625,2,"['C1', 'F1', 'J1']",6.1,90,0.0,8.643152054239367,[6300|8100|0]
251,25100,0.7312312126159668,0.7890810966491699,1.1709272861480713,-0.0271642096340656,-0.3506181240081787,4.3665876388549805,3.701171875,2,"['C1', 'F1', 'J1']",6.1,90,0.0,8.751990718392515,[6300|8100|0]
252,25200,0.7166483402252197,0.7896589636802673,1.271144986152649,0.2154246717691421,-0.6649066805839539,3.256404161453247,3.736328125,2,"['C1', 'F1', 'J1']",6.1,90,0.0,8.853265500503749,[6300|8100|0]
253,25300,0.7080902457237244,0.7855734825134277,1.3643382787704468,-0.0176706239581108,-1.6503372192382812,2.1955223083496094,3.7578125,2,"['C1', 'F1', 'J1']",6.1,90,0.0,8.946940053754926,[6300|8100|0]
254,25400,0.7022666931152344,0.7771797776222229,1.4404033422470093,-0.3683898746967315,-1.4930609464645386,0.9846124053001404,3.75390625,2,"['C1', 'F1', 'J1']",6.1,90,0.0,9.023688095609282,[6300|8100|0]
255,25500,0.6920744180679321,0.7744413018226624,1.4953733682632446,-0.2629051208496094,-1.9027965068817136,-0.3464305102825165,3.736328125,2,"['C1', 'F1', 'J1']",6.1,90,0.0,9.0796620670654,[6300|8100|0]
256,25600,0.6831799149513245,0.7709386944770813,1.5321104526519775,-0.7345634698867798,-1.7847126722335815,1.390487790107727,3.716796875,2,"['C1', 'F1', 'J1']",6.1,90,0.0,9.117622491368792,[6300|8100|0]
257,25700,0.6747352480888367,0.7668760418891907,1.5547397136688232,-0.6527597904205322,-1.9221845865249636,2.2480688095092773,3.705078125,2,"['C1', 'F1', 'J1']",6.1,90,0.0,9.142115367856391,[6300|8100|0]
258,25800,0.6661843061447144,0.764761745929718,1.5679527521133425,-0.3454142212867737,-1.5425071716308594,4.808350086212158,3.6953125,2,"['C1', 'F1', 'J1']",6.1,90,0.0,9.157995331347292,[6300|8100|0]
259,25900,0.6600483655929565,0.7610342502593994,1.572715163230896,-0.1954462081193924,-1.7487006187438965,2.405438184738159,3.68359375,2,"['C1', 'F1', 'J1']",6.1,90,0.0,9.166610698436369,[6300|8100|0]
260,26000,0.6558161973953247,0.7556959390640259,1.5720720291137695,-0.6176619529724121,-1.5564638376235962,1.5766034126281738,3.68359375,2,"['C1', 'F1', 'J1']",6.1,90,0.0,9.173453390564786,[6300|8100|0]
261,26100,0.6521836519241333,0.7506471276283264,1.567655086517334,-0.7347952127456665,-1.238992691040039,1.3120100498199463,3.6796875,2,"['C1', 'F1', 'J1']",6.1,90,0.0,9.181081972701312,[6300|8100|0]
262,26200,0.6497275233268738,0.7461488246917725,1.560202956199646,-1.189421534538269,-1.3486318588256836,1.3271117210388184,3.673828125,2,"['C1', 'F1', 'J1']",6.1,90,0.0,9.190126393261364,[6300|8100|0]
263,26300,0.6484748125076294,0.7419670224189758,1.552207350730896,-1.3847594261169434,-1.3687665462493896,1.4777636528015137,3.6640625,2,"['C1', 'F1', 'J1']",6.1,90,0.0,9.199236083786149,[6300|8100|0]
264,26400,0.6490606069564819,0.738306999206543,1.5425485372543335,-1.6743632555007937,-1.2159109115600586,1.1556828022003174,3.658203125,2,"['C1', 'F1', 'J1']",6.1,90,250.7873281828144,9.209581691686454,[6300|8100|0]
265,26500,0.6500073075294495,0.7356998920440674,1.5358867645263672,1.960316061973572,5.0298051834106445,1.596513032913208,3.615234375,2,"['C1', 'F1', 'J1']",6.1,90,250.7873281828144,9.216797817074124,[6300|8100|0]
266,26600,0.6404454708099365,0.7278472781181335,1.5322479009628296,5.816609859466553,15.607155799865724,2.0714542865753174,3.62109375,2,"['C1', 'F1', 'J1']",6.1,90,250.7873281828144,9.229694855298243,[6300|8100|0]
267,26700,0.6063781976699829,0.7079330682754517,1.5315372943878174,4.239222049713135,17.33163070678711,3.3923087120056152,3.63671875,2,"['C1', 'F1', 'J1']",6.1,90,250.7873281828144,9.26916205452184,[6300|8100|0]
268,26800,0.5469305515289307,0.6795914173126221,1.5332283973693848,0.2704954743385315,15.16141414642334,2.8211190700531006,3.630859375,2,"['C1', 'F1', 'J1']",6.1,90,250.7873281828144,9.335041729993907,[6300|8100|0]
269,26900,0.4577597677707672,0.6468129754066467,1.5333795547485352,-1.8407264947891235,9.285914421081545,0.4198966026306152,3.642578125,2,"['C1', 'F1', 'J1']",6.1,90,250.7873281828144,9.4300463497678,[6300|8100|0]
270,27000,0.3626251816749573,0.6224767565727234,1.5407646894454956,-3.976798057556152,0.4211183786392212,0.1782328486442566,3.6484375,2,"['C1', 'F1', 'J1']",6.1,90,250.7873281828144,9.528521632114415,[6300|8100|0]
271,27100,0.2659180462360382,0.6034142971038818,1.5495502948760986,-4.143102645874023,-5.6991705894470215,0.467035174369812,3.6640625,2,"['C1', 'F1', 'J1']",6.1,90,250.7873281828144,9.627480382453056,[6300|8100|0]
272,27200,0.178486481308937,0.5970011353492737,1.557913064956665,-4.380655765533447,-9.893975257873535,-3.7156496047973633,3.66796875,2,"['C1', 'F1', 'J1']",6.1,90,250.7873281828144,9.71554480837359,[6300|8100|0]
273,27300,0.1054273396730423,0.5953888297080994,1.5647541284561155,-2.2974486351013184,-11.714492797851562,-4.573972702026367,3.6640625,2,"['C1', 'F1', 'J1']",6.1,90,250.7873281828144,9.7889412514472,[6300|8100|0]
274,27400,0.0600098147988319,0.5997143983840942,1.5660028457641602,-0.2811600565910339,-11.658653259277344,-4.618648052215576,3.6640625,2,"['C1', 'F1', 'J1']",6.1,90,250.7873281828144,9.834581380774203,[6300|8100|0]
275,27500,0.032662060111761,0.6051740050315857,1.5626819133758545,0.8893295526504517,-9.460206985473633,-5.555864334106445,3.65234375,2,"['C1', 'F1', 'J1']",6.1,90,250.7873281828144,9.862665817444668,[6300|8100|0]
276,27600,0.0151444971561431,0.6134174466133118,1.5575295686721802,1.5954400300979614,-6.653655052185059,-12.744800567626951,3.63671875,2,"['C1', 'F1', 'J1']",6.1,90,250.7873281828144,9.882699938262933,[6300|8100|0]
277,27700,0.0101116504520177,0.6169613003730774,1.5527156591415403,1.8346341848373413,-3.94256329536438,-6.201069355010986,3.65234375,2,"['C1', 'F1', 'J1']",6.1,90,250.7873281828144,9.89051416697644,[6300|8100|0]
278,27800,0.0134537173435091,0.6115517020225525,1.550681710243225,1.0939306020736694,-2.427008628845215,2.93952751159668,3.65234375,2,"['C1', 'F1', 'J1']",6.1,90,250.7873281828144,9.897190252172283,[6300|8100|0]
279,27900,0.0221466869115829,0.602577269077301,1.5499292612075806,-0.2922900319099426,-0.5130114555358887,7.360737323760986,3.65234375,2,"['C1', 'F1', 'J1']",6.1,90,250.7873281828144,9.90970721450951,[6300|8100|0]
280,28000,0.0284412093460559,0.5924879908561707,1.5494673252105713,-1.6277676820755005,0.829032301902771,8.973889350891113,3.658203125,2,"['C1', 'F1', 'J1']",6.1,90,250.7873281828144,9.92160796795485,[6300|8100|0]
281,28100,0.0314198546111583,0.5798812508583069,1.547064185142517,-2.619400978088379,1.0718770027160645,9.177717208862305,3.6640625,2,"['C1', 'F1', 'J1']",6.1,90,250.7873281828144,9.934782841888811,[6300|8100|0]
282,28200,0.0324490405619144,0.5708460211753845,1.5478085279464722,-3.147404432296753,0.9480499625205994,8.571110725402832,3.65234375,2,"['C1', 'F1', 'J1']",6.1,90,250.7873281828144,9.943906911449824,[6300|8100|0]
283,28300,0.0270208939909935,0.560336172580719,1.5440547466278076,-3.011888027191162,0.4773287177085876,7.767534255981445,3.658203125,2,"['C1', 'F1', 'J1']",6.1,90,250.7873281828144,9.956317091418969,[6300|8100|0]
284,28400,0.0206352807581424,0.5553805232048035,1.5418713092803955,-2.678445816040039,-0.3341098129749298,6.4829277992248535,3.658203125,2,"['C1', 'F1', 'J1']",6.1,90,250.7873281828144,9.964689780099832,[6300|8100|0]
285,28500,0.0132997129112482,0.5503860712051392,1.538008451461792,-2.3369269371032715,-1.0508466958999634,5.08205509185791,3.6484375,2,"['C1', 'F1', 'J1']",6.1,90,250.7873281828144,9.97436845650418,[6300|8100|0]
286,28600,0.0054380921646952,0.5473368167877197,1.5327537059783936,-2.040549993515014,-1.7466672658920288,3.974470615386963,3.65234375,2,"['C1', 'F1', 'J1']",6.1,90,250.7873281828144,9.984304018056507,[6300|8100|0]
287,28700,0.0009475476108491,0.545832633972168,1.527412176132202,-1.7047278881072998,-2.14686131477356,2.9253718852996826,3.65234375,2,"['C1', 'F1', 'J1']",6.1,90,250.7873281828144,9.991442610174737,[6300|8100|0]
288,28800,-0.0021544727496802,0.5438276529312134,1.519886493682861,-1.5485756397247314,-2.06584906578064,2.384805917739868,3.642578125,2,"['C1', 'F1', 'J1']",6.1,90,250.7873281828144,9.99982583005853,[6300|8100|0]
289,28900,-0.0011656073620542,0.5452480316162109,1.514697790145874,-1.3366665840148926,-1.7189576625823977,2.190556049346924,3.6484375,2,"['C1', 'F1', 'J1']",6.1,90,250.7873281828144,10.00529556266245,[6300|8100|0]
290,29000,0.0035051309969276,0.5475172996520996,1.5096808671951294,-0.8443572521209717,-1.2939174175262451,2.4073219299316406,3.6484375,2,"['C1', 'F1', 'J1']",6.1,90,250.7873281828144,10.01251601210348,[6300|8100|0]
291,29100,0.0105332704260945,0.5516485571861267,1.5070208311080933,-0.600523829460144,-0.5101878046989441,2.7105395793914795,3.642578125,2,"['C1', 'F1', 'J1']",6.1,90,250.7873281828144,10.021091431896854,[6300|8100|0]
292,29200,0.0165821425616741,0.5539935231208801,1.5018880367279053,-0.6663879156112671,0.0499730221927166,2.9834556579589844,3.6484375,2,"['C1', 'F1', 'J1']",6.1,90,250.7873281828144,10.029363873948451,[6300|8100|0]
293,29300,0.0224791280925273,0.5547084212303162,1.496007800102234,-0.6752450466156006,0.6565366983413696,2.902927160263061,3.6484375,2,"['C1', 'F1', 'J1']",6.1,90,250.7873281828144,10.037722264967773,[6300|8100|0]
