,time.ms,stateEstimate.x,stateEstimate.y,stateEstimate.z,stabilizer.roll,stabilizer.pitch,stabilizer.yaw,pm.vbat,drone_id,node_name,wind_speed,global_wind_direction,relative_wind_direction,travel_dist,waiting_time
0,0,0.829187273979187,-0.2040633261203766,0.0,-0.1363824903964996,0.1436032056808471,-2.2203478813171387,4.14453125,1,"['A1', 'F1', 'E2']",6.1,0,450.0,0.0,[6200|0|0]
1,100,0.8293378353118896,-0.2038743793964386,0.0,-0.1501100063323974,0.1263415068387985,-2.233062982559204,4.14453125,1,"['A1', 'F1', 'E2']",6.1,0,450.0,0.0002415979705876,[6300|0|0]
2,200,0.8292587995529175,-0.2037634551525116,0.0,-0.1519133448600769,0.1281895339488983,-2.210296154022217,4.14453125,1,"['A1', 'F1', 'E2']",6.1,0,450.0,0.0003777994356572,[6400|0|0]
3,300,0.8295273184776306,-0.2038913965225219,0.0,-0.1447685062885284,0.1149341091513633,-2.1815881729125977,4.14453125,1,"['A1', 'F1', 'E2']",6.1,0,450.0,0.0006752408703787,[6500|0|0]
4,400,0.8297050595283508,-0.204054519534111,0.0,-0.1388555765151977,0.1124583110213279,-2.1943275928497314,4.14453125,1,"['A1', 'F1', 'E2']",6.1,0,450.0,0.0009164897004713,[6600|0|0]
5,500,0.829273521900177,-0.2040262669324875,0.0,-0.1351824700832367,0.124351367354393,-2.2069075107574463,4.14453125,1,"['A1', 'F1', 'E2']",6.1,0,450.0,0.001348951183182,[6700|0|0]
6,600,0.8292204141616821,-0.2037999629974365,0.0,-0.1397422552108764,0.1271973848342895,-2.2132718563079834,4.14453125,1,"['A1', 'F1', 'E2']",6.1,0,450.0,0.0015814031199509,[6800|0|0]
7,700,0.8297733068466187,-0.2040800154209137,0.0,-0.1312355697154998,0.1143470481038093,-2.201313734054565,4.14453125,1,"['A1', 'F1', 'E2']",6.1,0,450.0,0.0022011770149737,[6900|0|0]
8,800,0.8292454481124878,-0.2037550956010818,0.0,-0.1451311111450195,0.1337079405784607,-2.1833553314208984,4.14453125,1,"['A1', 'F1', 'E2']",6.1,0,450.0,0.0028210219411592,[7000|0|0]
9,900,0.8294358849525452,-0.2040512710809707,0.0,-0.1339094936847686,0.1302458643913269,-2.183477640151977,4.14453125,1,"['A1', 'F1', 'E2']",6.1,0,450.0,0.003173138548178,[7100|0|0]
10,1000,0.829264760017395,-0.2039193212985992,0.0,-0.1377599984407425,0.1342952251434326,-2.188684701919556,4.14453125,1,"['A1', 'F1', 'E2']",6.1,0,450.0,0.0033892276235567,[7200|0|0]
11,1100,0.829560399055481,-0.2038721740245819,0.0,-0.1405728459358215,0.1321790218353271,-2.211905241012573,4.14453125,1,"['A1', 'F1', 'E2']",6.1,0,450.0,0.003688602482701,[7300|0|0]
12,1200,0.8297513127326965,-0.2039593309164047,0.0,-0.1392101347446441,0.1249763369560241,-2.2039082050323486,4.14453125,1,"['A1', 'F1', 'E2']",6.1,0,450.0,0.0038984699550262,[7400|0|0]
13,1300,0.8295090198516846,-0.2037382572889328,0.0,-0.137869507074356,0.1327137351036071,-2.230477094650269,4.14453125,1,"['A1', 'F1', 'E2']",6.1,0,450.0,0.0042264629259153,[7500|0|0]
14,1400,0.8292713761329651,-0.2039672434329986,0.0,-0.1208175718784332,0.141417846083641,-2.2384512424468994,4.14453125,1,"['A1', 'F1', 'E2']",6.1,0,450.0,0.0045564768517138,[7600|0|0]
15,1500,0.8291077613830566,-0.2036086022853851,0.0,-0.1308061778545379,0.1448333859443664,-2.241966724395752,4.14453125,1,"['A1', 'F1', 'E2']",6.1,0,450.0,0.0049506763686455,[7700|0|0]
16,1600,0.8296447992324829,-0.2040763050317764,0.0,-0.1168932542204856,0.1359824240207672,-2.2070295810699463,4.14453125,1,"['A1', 'F1', 'E2']",6.1,0,450.0,0.0056628248859495,[7800|0|0]
17,1700,0.8293840289115906,-0.2039369046688079,0.0,-0.1146470680832862,0.1452033966779709,-2.2267162799835205,4.14453125,1,"['A1', 'F1', 'E2']",6.1,0,450.0,0.0059585166535962,[7900|0|0]
18,1800,0.8295477628707886,-0.2039077281951904,0.0,-0.1160323694348335,0.1416208893060684,-2.2105963230133057,4.14453125,1,"['A1', 'F1', 'E2']",6.1,0,450.0,0.0061248298401071,[8000|0|0]
19,1900,0.829315721988678,-0.2037310004234314,0.0,-0.1182654947042465,0.1492440551519394,-2.210299253463745,4.14453125,1,"['A1', 'F1', 'E2']",6.1,0,450.0,0.0064165071897275,[8100|0|0]
20,2000,0.829376757144928,-0.2041217535734176,0.0,-0.1109976917505264,0.1475688368082046,-2.2125463485717773,4.14453125,1,"['A1', 'F1', 'E2']",6.1,0,450.0,0.0068119984216437,[8200|0|0]
21,2100,0.829431414604187,-0.2037865668535232,0.0,-0.1143857464194297,0.1521707773208618,-2.1931815147399902,4.14453125,1,"['A1', 'F1', 'E2']",6.1,0,450.0,0.0071516122833252,[8300|0|0]
22,2200,0.8292913436889648,-0.2041399329900741,0.0,-0.1067911982536315,0.1491939276456833,-2.199049711227417,4.13671875,1,"['A1', 'F1', 'E2']",6.1,0,450.0,0.0075317273813575,[8400|0|0]
23,2300,0.8293015360832214,-0.2040319889783859,0.0,-0.1109204217791557,0.147542804479599,-2.2057552337646484,4.14453125,1,"['A1', 'F1', 'E2']",6.1,0,450.0,0.0076401515233187,[8500|0|0]
24,2400,0.8293096423149109,-0.2040859460830688,0.0,-0.1053727865219116,0.1459085047245025,-2.1946680545806885,4.14453125,1,"['A1', 'F1', 'E2']",6.1,0,450.0,0.0076947141491533,[8600|0|0]
25,2500,0.8292949795722961,-0.2038002014160156,0.0,-0.1088191047310829,0.1462215632200241,-2.18033766746521,4.14453125,1,"['A1', 'F1', 'E2']",6.1,0,450.0,0.0079808347719164,[8700|0|0]
26,2600,0.8294936418533325,-0.2040519714355468,0.0,-0.1054730340838432,0.146803930401802,-2.18537712097168,4.14453125,1,"['A1', 'F1', 'E2']",6.1,0,450.0,0.0083015446792178,[8800|0|0]
27,2700,0.8296369314193726,-0.2040467709302902,0.0,-0.1015370860695838,0.15635347366333,-2.1921050548553467,4.13671875,1,"['A1', 'F1', 'E2']",6.1,0,450.0,0.0084449285869302,[8900|0|0]
28,2800,0.829482913017273,-0.2039148658514022,0.0,-0.1073673889040947,0.1522684544324875,-2.19057297706604,4.14453125,1,"['A1', 'F1', 'E2']",6.1,0,450.0,0.0086477107804822,[9000|0|0]
29,2900,0.8295599818229675,-0.2042933106422424,0.0,-0.1030648425221443,0.1560541540384292,-2.180139541625977,4.14453125,1,"['A1', 'F1', 'E2']",6.1,0,450.0,0.0090339232356481,[9100|0|0]
30,3000,0.8296443819999695,-0.2038514167070388,0.0,-0.1137220859527587,0.1606154590845108,-2.189791202545166,4.14453125,1,"['A1', 'F1', 'E2']",6.1,0,450.0,0.0094838050421792,[9200|0|0]
31,3100,0.8293995261192322,-0.2039939016103744,0.0,-0.1089899912476539,0.1705270111560821,-2.169053792953491,4.13671875,1,"['A1', 'F1', 'E2']",6.1,0,450.0,0.0097671005592814,[9300|0|0]
32,3200,0.8292555809020996,-0.2036214172840118,0.0,-0.1221343427896499,0.1803299784660339,-2.17383360862732,4.13671875,1,"['A1', 'F1', 'E2']",6.1,0,450.0,0.0101664309975417,[9400|0|0]
33,3300,0.8295543789863586,-0.204066976904869,0.0,-0.1119786649942398,0.1759330630302429,-2.1526846885681152,4.14453125,1,"['A1', 'F1', 'E2']",6.1,0,450.0,0.0107029043621137,[9500|0|0]
34,3400,0.8293424844741821,-0.2042664438486099,0.0,-0.1064482107758522,0.177618145942688,-2.1622328758239746,4.13671875,1,"['A1', 'F1', 'E2']",6.1,0,450.0,0.0109939135474255,[9600|0|0]
35,3500,0.829401969909668,-0.2036470174789428,0.0,-0.1169923320412635,0.179136261343956,-2.182459831237793,4.14453125,1,"['A1', 'F1', 'E2']",6.1,0,450.0,0.0116161896472992,[9700|0|0]
36,3600,0.8296985030174255,-0.2039509117603302,0.0,-0.1203499138355255,0.1731446981430053,-2.2017529010772705,4.14453125,1,"['A1', 'F1', 'E2']",6.1,0,450.0,0.0120407878317705,[9800|0|0]
37,3700,0.8295422196388245,-0.2038981467485427,0.0,-0.1186635345220565,0.1778096556663513,-2.2137300968170166,4.13671875,1,"['A1', 'F1', 'E2']",6.1,0,450.0,0.0122057382512786,[9900|0|0]
38,3800,0.8297537565231323,-0.2041167765855789,0.0,-0.1121128126978874,0.1714646816253662,-2.195587396621704,4.14453125,1,"['A1', 'F1', 'E2']",6.1,0,450.0,0.0125099534038682,[10000|0|0]
39,3900,0.8295982480049133,-0.2039460837841034,0.0,-0.1170309334993362,0.1771988123655319,-2.2138500213623047,4.14453125,1,"['A1', 'F1', 'E2']",6.1,0,450.0,0.0127408623290189,[10100|0|0]
40,4000,0.8297207355499268,-0.2045669704675674,0.0,-0.0940091088414192,0.1691253930330276,-2.199562788009644,4.14453125,1,"['A1', 'F1', 'E2']",6.1,0,450.0,0.0133737157657531,[10200|0|0]
41,4100,0.8297263383865356,-0.2042676359415054,0.0,-0.1020629256963729,0.1616832613945007,-2.2191312313079834,4.14453125,1,"['A1', 'F1', 'E2']",6.1,0,450.0,0.0136731027231691,[10300|0|0]
42,4200,0.8297598958015442,-0.2042596787214279,0.0,-0.1061411947011947,0.1588682532310485,-2.220777988433838,4.14453125,1,"['A1', 'F1', 'E2']",6.1,0,450.0,0.0137075906551659,[10400|0|0]
43,4300,0.8295857310295105,-0.2041303068399429,0.0,-0.1158514246344566,0.1644527912139892,-2.243728876113892,4.14453125,1,"['A1', 'F1', 'E2']",6.1,0,450.0,0.0139245479125613,[10500|0|0]
44,4400,0.8296579122543335,-0.2044527232646942,0.0,-0.1038889959454536,0.167672574520111,-2.237959384918213,4.14453125,1,"['A1', 'F1', 'E2']",6.1,0,450.0,0.0142549453704304,[10600|0|0]
45,4500,0.8296305537223816,-0.2043277472257614,0.0,-0.105496771633625,0.1635332256555557,-2.2489349842071533,4.14453125,1,"['A1', 'F1', 'E2']",6.1,0,450.0,0.0143828808994202,[10700|0|0]
46,4600,0.8298617005348206,-0.2040685266256332,0.0,-0.1166402399539947,0.1455576419830322,-2.2279157638549805,4.13671875,1,"['A1', 'F1', 'E2']",6.1,0,450.0,0.0147301908020022,[10800|0|0]
47,4700,0.8297117352485657,-0.2039729207754135,0.0,-0.1244129315018653,0.1457257270812988,-2.2237823009490967,4.13671875,1,"['A1', 'F1', 'E2']",6.1,0,450.0,0.0149080392365686,[10900|0|0]
48,4800,0.8295401334762573,-0.2041796445846557,0.0,-0.1177624613046646,0.1502022594213485,-2.2189836502075195,4.14453125,1,"['A1', 'F1', 'E2']",6.1,0,450.0,0.0151767061336121,[11000|0|0]
49,4900,0.8296770453453064,-0.2039485722780227,0.0,-0.1276990622282028,0.1438696235418319,-2.22052264213562,4.14453125,1,"['A1', 'F1', 'E2']",6.1,0,450.0,0.0154452936813116,[11100|0|0]
50,5000,0.8300697207450867,-0.2040822356939315,0.0,-0.1230445727705955,0.1404257714748382,-2.222695589065552,4.14453125,1,"['A1', 'F1', 'E2']",6.1,0,450.0,0.0158600946918516,[11200|0|0]
51,5100,0.8298683762550354,-0.2043591439723968,0.0,-0.1138894259929657,0.1462926268577575,-2.215460538864136,4.14453125,1,"['A1', 'F1', 'E2']",6.1,0,450.0,0.0162024655410146,[11300|0|0]
52,5200,0.8296140432357788,-0.2042183130979538,0.0,-0.1146517246961593,0.1482208669185638,-2.211641550064087,4.14453125,1,"['A1', 'F1', 'E2']",6.1,0,450.0,0.0164931864034936,[11400|0|0]
53,5300,0.8296551704406738,-0.204075202345848,0.0,-0.1224656701087951,0.1374817788600921,-2.2371926307678223,4.14453125,1,"['A1', 'F1', 'E2']",6.1,0,450.0,0.0166420895073927,[11500|0|0]
54,5400,0.8295590281486511,-0.2041516304016113,0.0,-0.1150116920471191,0.1411571055650711,-2.245533943176269,4.14453125,1,"['A1', 'F1', 'E2']",6.1,0,450.0,0.0167649088382129,[11600|0|0]
55,5500,0.8298240900039673,-0.2042517513036728,0.0,-0.1071306690573692,0.1343411356210708,-2.221912384033203,4.14453125,1,"['A1', 'F1', 'E2']",6.1,0,450.0,0.0170482495909705,[11700|0|0]
56,5600,0.8293721079826355,-0.204166442155838,0.0,-0.1137745380401611,0.1443522125482559,-2.2289907932281494,4.14453125,1,"['A1', 'F1', 'E2']",6.1,0,450.0,0.0175082119789018,[11800|0|0]
57,5700,0.8297085165977478,-0.2045132964849472,0.0,-0.106653481721878,0.1447567343711853,-2.233452081680298,4.13671875,1,"['A1', 'F1', 'E2']",6.1,0,450.0,0.0179914082971241,[11900|0|0]
58,5800,0.8297427296638489,-0.2041853964328766,0.0,-0.1189856082201004,0.1427010595798492,-2.245400667190552,4.14453125,1,"['A1', 'F1', 'E2']",6.1,0,450.0,0.0183210884118413,[12000|0|0]
59,5900,0.8297921419143677,-0.2040532380342483,0.0,-0.1225154474377632,0.1414531767368316,-2.2285547256469727,4.14453125,1,"['A1', 'F1', 'E2']",6.1,0,450.0,0.0184621820432686,[12100|0|0]
60,6000,0.8296205997467041,-0.2040765732526779,0.0,-0.1221081167459487,0.1460615396499633,-2.2380778789520264,4.14453125,1,"['A1', 'F1', 'E2']",6.1,0,450.0,0.018635304103405,[12200|0|0]
61,6100,0.8297958970069885,-0.2043016850948333,0.0,-0.111263558268547,0.1422408074140548,-2.2569172382354736,4.14453125,1,"['A1', 'F1', 'E2']",6.1,0,450.0,0.0189206187909726,[12300|0|0]
62,6200,0.8296091556549072,-0.2041766047477722,0.0,-0.1134366691112518,0.1413069367408752,-2.259699583053589,4.13671875,1,"['A1', 'F1', 'E2']",6.1,0,450.0,0.0191453796100628,[12400|0|0]
63,6300,0.8298629522323608,-0.2041562348604202,0.0,-0.1139424741268158,0.1265500485897064,-2.241972208023072,4.14453125,1,"['A1', 'F1', 'E2']",6.1,0,450.0,0.0193999923258448,[12500|0|0]
64,6400,0.829371452331543,-0.2039714902639389,0.0,-0.1237609386444091,0.1320289373397827,-2.2583227157592773,4.14453125,1,"['A1', 'F1', 'E2']",6.1,0,450.0,0.0199250663381831,[12600|0|0]
65,6500,0.82982337474823,-0.2040624618530273,0.0,-0.1211594939231872,0.1256083846092224,-2.268005132675171,4.14453125,1,"['A1', 'F1', 'E2']",6.1,0,450.0,0.0203860540828418,[12700|0|0]
66,6600,0.8295726180076599,-0.2044278383255005,0.0,-0.11138217151165,0.1326392441987991,-2.267541646957397,4.14453125,1,"['A1', 'F1', 'E2']",6.1,0,450.0,0.0208292006833909,[12800|0|0]
67,6700,0.8297898173332214,-0.2039414346218109,0.0,-0.1238244920969009,0.1360929161310196,-2.252307415008545,4.13671875,1,"['A1', 'F1', 'E2']",6.1,0,450.0,0.0213618958213332,[12900|0|0]
68,6800,0.8297102451324463,-0.2041254639625549,0.0,-0.110122762620449,0.1435033082962036,-2.2532894611358643,4.14453125,1,"['A1', 'F1', 'E2']",6.1,0,450.0,0.0215623915404667,[13000|0|0]
69,6900,0.8299462795257568,-0.2043825387954712,0.0,-0.1024950370192527,0.1411196738481521,-2.225446939468384,4.14453125,1,"['A1', 'F1', 'E2']",6.1,0,450.0,0.0219113896845082,[13100|0|0]
70,7000,0.8295659422874451,-0.204196035861969,0.0,-0.1103898137807846,0.1515644192695617,-2.222355842590332,4.14453125,1,"['A1', 'F1', 'E2']",6.1,0,450.0,0.0223349929883805,[13200|0|0]
71,7100,0.8295837044715881,-0.2041319161653518,0.0,-0.1163878589868545,0.1521669030189514,-2.219567060470581,4.14453125,1,"['A1', 'F1', 'E2']",6.1,0,450.0,0.022401527420668,[13300|0|0]
72,7200,0.8297508358955383,-0.2042529135942459,0.0,-0.1107708737254142,0.1584199517965316,-2.216847896575928,4.13671875,1,"['A1', 'F1', 'E2']",6.1,0,450.0,0.0226078603813665,[13400|0|0]
73,7300,0.8296515941619873,-0.2041655927896499,0.0,-0.1140243336558342,0.1613170355558395,-2.203826904296875,4.14453125,1,"['A1', 'F1', 'E2']",6.1,0,450.0,0.0227400490518095,[13500|0|0]
74,7400,0.8297115564346313,-0.2043116688728332,0.0,-0.1071534901857376,0.1647322475910186,-2.213402271270752,4.14453125,1,"['A1', 'F1', 'E2']",6.1,0,450.0,0.0228979531246475,[13600|0|0]
75,7500,0.8301801085472107,-0.2043466717004776,0.0,-0.10502839833498,0.1555528938770294,-2.197582483291626,4.14453125,1,"['A1', 'F1', 'E2']",6.1,0,450.0,0.0233678108479485,[13700|0|0]
76,7600,0.8295544981956482,-0.2043811976909637,0.0,-0.1068916097283363,0.1616524010896682,-2.201810121536255,4.14453125,1,"['A1', 'F1', 'E2']",6.1,0,450.0,0.0239943731800442,[13800|0|0]
77,7700,0.8295472860336304,-0.2039122730493545,0.0,-0.1161622628569603,0.1671768277883529,-2.211416721343994,4.14453125,1,"['A1', 'F1', 'E2']",6.1,0,450.0,0.0244633532806768,[13900|0|0]
78,7800,0.8296118378639221,-0.2042932957410812,0.0,-0.1028773263096809,0.1666445881128311,-2.228903293609619,4.13671875,1,"['A1', 'F1', 'E2']",6.1,0,450.0,0.0248498053869004,[14000|0|0]
79,7900,0.8296933770179749,-0.2040371149778366,0.0,-0.1081896275281906,0.1687525361776352,-2.2344045639038086,4.14453125,1,"['A1', 'F1', 'E2']",6.1,0,450.0,0.0251186496114994,[14100|0|0]
80,8000,0.8297466039657593,-0.2039544582366943,0.0,-0.10982396453619,0.1659054309129715,-2.237377882003784,4.14453125,1,"['A1', 'F1', 'E2']",6.1,0,450.0,0.0252169615885251,[14200|0|0]
81,8100,0.8295978307723999,-0.2041952013969421,0.0,-0.1029564440250396,0.1769822686910629,-2.2165114879608154,4.14453125,1,"['A1', 'F1', 'E2']",6.1,0,450.0,0.0254999646490535,[14300|0|0]
82,8200,0.8295838236808777,-0.2042265385389328,0.0,-0.1010169833898544,0.1709461212158203,-2.1823570728302,4.13671875,1,"['A1', 'F1', 'E2']",6.1,0,450.0,0.0255342897867962,[14400|0|0]
83,8300,0.8298557996749878,-0.2040056139230728,0.0,-0.1051139235496521,0.1628772914409637,-2.201915740966797,4.14453125,1,"['A1', 'F1', 'E2']",6.1,0,450.0,0.0258846875996677,[14500|0|0]
84,8400,0.8296431303024292,-0.2043900340795517,0.0,-0.0966385006904602,0.1640650779008865,-2.190385103225708,4.13671875,1,"['A1', 'F1', 'E2']",6.1,0,450.0,0.0263240133543551,[14600|0|0]
85,8500,0.8297824263572693,-0.2044714391231537,0.0,-0.1034684106707573,0.1590459942817688,-2.2104177474975586,4.14453125,1,"['A1', 'F1', 'E2']",6.1,0,450.0,0.0264853520416495,[14700|0|0]
86,8600,0.8296982645988464,-0.2043046802282333,0.0,-0.1062930449843406,0.1597662419080734,-2.2288951873779297,4.14453125,1,"['A1', 'F1', 'E2']",6.1,0,450.0,0.0266721453247618,[14800|0|0]
87,8700,0.8297449946403503,-0.2044984698295593,0.0,-0.1061749160289764,0.1556702405214309,-2.2328438758850098,4.13671875,1,"['A1', 'F1', 'E2']",6.1,0,450.0,0.0268714895154498,[14900|0|0]
88,8800,0.8298563957214355,-0.2044203430414199,0.0,-0.1039967760443687,0.1572409272193908,-2.2121973037719727,4.13671875,1,"['A1', 'F1', 'E2']",6.1,0,450.0,0.0270075556607319,[15000|0|0]
89,8900,0.8293904066085815,-0.2039846628904342,0.0,-0.1141043081879615,0.1735562980175018,-2.2200448513031006,4.14453125,1,"['A1', 'F1', 'E2']",6.1,0,450.0,0.0276454922149921,[15100|0|0]
90,9000,0.8297861218452454,-0.2040617614984512,0.0,-0.1108965501189231,0.1586377173662185,-2.1990017890930176,4.13671875,1,"['A1', 'F1', 'E2']",6.1,0,450.0,0.0280486481945906,[15200|0|0]
91,9100,0.8295024037361145,-0.2042174041271209,0.0,-0.1026117131114006,0.165107175707817,-2.1850266456604004,4.13671875,1,"['A1', 'F1', 'E2']",6.1,0,450.0,0.0283722538084295,[15300|0|0]
92,9200,0.8296933770179749,-0.2039119899272918,0.0,-0.1168819367885589,0.1616123020648956,-2.1874170303344727,4.13671875,1,"['A1', 'F1', 'E2']",6.1,0,450.0,0.0287324601768376,[15400|0|0]
93,9300,0.8295948505401611,-0.2042246162891388,0.0,-0.1119348183274269,0.1635072231292724,-2.2020373344421387,4.14453125,1,"['A1', 'F1', 'E2']",6.1,0,450.0,0.0290602447233801,[15500|0|0]
94,9400,0.8297666311264038,-0.2042476385831833,0.0,-0.1194497048854827,0.150118350982666,-2.206620693206787,4.13671875,1,"['A1', 'F1', 'E2']",6.1,0,450.0,0.0292335611848976,[15600|0|0]
95,9500,0.8294091820716858,-0.2041565626859665,0.0,-0.1152878925204277,0.1691139191389084,-2.195256471633911,4.14453125,1,"['A1', 'F1', 'E2']",6.1,0,450.0,0.0296024306005078,[15700|0|0]
96,9600,0.829798698425293,-0.2042747735977172,0.0,-0.1123425215482711,0.169437751173973,-2.209307909011841,4.14453125,1,"['A1', 'F1', 'E2']",6.1,0,450.0,0.030009489330158,[15800|0|0]
97,9700,0.8294947147369385,-0.2041589319705963,0.0,-0.1168644875288009,0.1764642745256424,-2.219390153884888,4.13671875,1,"['A1', 'F1', 'E2']",6.1,0,450.0,0.03033479743851,[15900|0|0]
98,9800,0.8295222520828247,-0.2041537910699844,0.0,-0.1230448931455612,0.1714935600757599,-2.23136305809021,4.14453125,1,"['A1', 'F1', 'E2']",6.1,0,450.0,0.0303628105475406,[16000|0|0]
99,9900,0.8298352956771851,-0.2040889263153076,0.0,-0.1280911564826965,0.1615377813577652,-2.228654861450196,4.14453125,1,"['A1', 'F1', 'E2']",6.1,0,450.0,0.0306825037260248,[16100|0|0]
100,10000,0.8296318054199219,-0.204438641667366,0.0,-0.1233692839741706,0.1581464111804962,-2.2065913677215576,4.14453125,1,"['A1', 'F1', 'E2']",6.1,0,450.0,0.0310871135532243,[16200|0|0]
101,10100,0.8221695423126221,-0.2136949449777603,0.0,0.1731746941804886,0.3651735186576843,-2.2282419204711914,4.13671875,1,"['A1', 'F1', 'E2']",6.1,0,450.0,0.0429767948633597,[16300|0|0]
102,10200,0.822080671787262,-0.2137438803911209,0.0,0.1702671945095062,0.3653924763202667,-2.222563982009888,4.13671875,1,"['A1', 'F1', 'E2']",6.1,0,450.0,0.0430782475368511,[16400|0|0]
103,10300,0.822426974773407,-0.2133289277553558,0.0,0.1543777585029602,0.3556644022464752,-2.1964757442474365,4.14453125,1,"['A1', 'F1', 'E2']",6.1,0,450.0,0.0436187208924769,[16500|0|0]
104,10400,0.8221631050109863,-0.2132334858179092,0.0,0.1473337411880493,0.3553540408611297,-2.2046568393707275,4.14453125,1,"['A1', 'F1', 'E2']",6.1,0,450.0,0.0438993209903805,[16600|0|0]
105,10500,0.8224440813064575,-0.2135998755693435,0.0,0.1597770750522613,0.3482319712638855,-2.194255113601685,4.13671875,1,"['A1', 'F1', 'E2']",6.1,0,450.0,0.0443610450731104,[16700|0|0]
106,10600,0.8223180770874023,-0.2132828384637832,0.0,0.155428797006607,0.3498055636882782,-2.211459159851074,4.13671875,1,"['A1', 'F1', 'E2']",6.1,0,450.0,0.0447022042581278,[16800|0|0]
107,10700,0.8223869800567627,-0.2137798368930816,0.0,0.1637338548898697,0.3375070691108703,-2.196923017501831,4.13671875,1,"['A1', 'F1', 'E2']",6.1,0,450.0,0.0452039562465761,[16900|0|0]
108,10800,0.8224261403083801,-0.2137547582387924,0.0,0.1620618104934692,0.3396037518978119,-2.188847064971924,4.14453125,1,"['A1', 'F1', 'E2']",6.1,0,450.0,0.0452504585498276,[17000|0|0]
109,10900,0.8219213485717773,-0.2136070281267166,0.0,0.1576186567544937,0.3490247428417206,-2.2134034633636475,4.14453125,1,"['A1', 'F1', 'E2']",6.1,0,450.0,0.0457764232666636,[17100|0|0]
110,11000,0.8223887085914612,-0.2134900242090225,0.0,0.1571517288684845,0.3372554183006286,-2.192272186279297,4.14453125,1,"['A1', 'F1', 'E2']",6.1,0,450.0,0.0462582067291804,[17200|0|0]
111,11100,0.8223268389701843,-0.2135465443134308,0.0,0.1645546406507492,0.3432900905609131,-2.1925597190856934,4.14453125,1,"['A1', 'F1', 'E2']",6.1,0,450.0,0.0463420063248791,[17300|0|0]
112,11200,0.8219817280769348,-0.2132508009672165,0.0,0.1596745699644088,0.3528041243553161,-2.209722757339477,4.13671875,1,"['A1', 'F1', 'E2']",6.1,0,450.0,0.046796501270362,[17400|0|0]
113,11300,0.8222721219062805,-0.2135823518037796,0.0,0.1668208241462707,0.3368071913719177,-2.210326671600342,4.13671875,1,"['A1', 'F1', 'E2']",6.1,0,450.0,0.0472372444306581,[17500|0|0]
114,11400,0.8225257992744446,-0.2135554701089859,0.0,0.1632765084505081,0.3280427753925323,-2.20721435546875,4.13671875,1,"['A1', 'F1', 'E2']",6.1,0,450.0,0.0474923421229911,[17600|0|0]
115,11500,0.8220345973968506,-0.213468313217163,0.0,0.1645245999097824,0.3374150097370147,-2.221926212310791,4.13671875,1,"['A1', 'F1', 'E2']",6.1,0,450.0,0.0479912164642275,[17700|0|0]
116,11600,0.8223552107810974,-0.2136510163545608,0.0,0.1732582002878189,0.3252396881580353,-2.2152962684631348,4.13671875,1,"['A1', 'F1', 'E2']",6.1,0,450.0,0.0483602332369807,[17800|0|0]
117,11701,0.8222543001174927,-0.2136890739202499,0.0,0.1777714639902115,0.3288254737854004,-2.221125841140747,4.13671875,1,"['A1', 'F1', 'E2']",6.1,0,450.0,0.048468081928838,[17900|0|0]
118,11801,0.8221299052238464,-0.2136461734771728,0.0,0.1763892918825149,0.3309673368930816,-2.217195749282837,4.13671875,1,"['A1', 'F1', 'E2']",6.1,0,450.0,0.0485996666452054,[18000|0|0]
119,11901,0.8222006559371948,-0.2134103775024414,0.0,0.1723811775445938,0.3309719264507293,-2.202066421508789,4.13671875,1,"['A1', 'F1', 'E2']",6.1,0,450.0,0.0488458482959002,[18100|0|0]
120,12001,0.8222730755805969,-0.2137532383203506,0.0,0.1763952821493148,0.331470638513565,-2.2060418128967285,4.13671875,1,"['A1', 'F1', 'E2']",6.1,0,450.0,0.0491962739587844,[18200|0|0]
121,12101,0.8223534226417542,-0.2133280336856842,0.0,0.1485849469900131,0.3195441961288452,-2.2131669521331787,4.13671875,1,"['A1', 'F1', 'E2']",6.1,0,450.0,0.0496290032408747,[18300|0|0]
122,12201,0.8223689198493958,-0.213299810886383,0.0,0.150603175163269,0.3198080956935882,-2.2314767837524414,4.13671875,1,"['A1', 'F1', 'E2']",6.1,0,450.0,0.0496612009091922,[18400|0|0]
123,12301,0.8221805095672607,-0.2135458886623382,0.0,0.1630782485008239,0.3256443440914154,-2.22196102142334,4.14453125,1,"['A1', 'F1', 'E2']",6.1,0,450.0,0.049971124619536,[18500|0|0]
124,12401,0.8224529027938843,-0.2135911881923675,0.0,0.1643439978361129,0.3296076655387878,-2.230344533920288,4.13671875,1,"['A1', 'F1', 'E2']",6.1,0,450.0,0.050247258857419,[18600|0|0]
125,12501,0.822394847869873,-0.2138516753911972,0.0,0.177452266216278,0.3367102444171905,-2.218922615051269,4.13671875,1,"['A1', 'F1', 'E2']",6.1,0,450.0,0.0505141370224234,[18700|0|0]
126,12602,0.8221176266670227,-0.2135194242000579,0.0,0.1737106740474701,0.3509379029273987,-2.1982662677764893,4.14453125,1,"['A1', 'F1', 'E2']",6.1,0,450.0,0.050946852228215,[18800|0|0]
127,12702,0.822040319442749,-0.2136105000972747,0.0,0.1762295812368393,0.3525013625621795,-2.199179172515869,4.13671875,1,"['A1', 'F1', 'E2']",6.1,0,450.0,0.051066314464837,[18900|0|0]
128,12802,0.822213351726532,-0.2133288532495498,0.0,0.1693447828292846,0.3472874462604522,-2.1924214363098145,4.13671875,1,"['A1', 'F1', 'E2']",6.1,0,450.0,0.0513968672111038,[19000|0|0]
129,12900,0.8224947452545166,-0.2135166525840759,0.0,0.1750188618898391,0.3450706899166107,-2.199998140335083,4.13671875,1,"['A1', 'F1', 'E2']",6.1,0,450.0,0.0517351731490359,[19100|0|0]
130,13000,0.8228620886802673,-0.2135355919599533,0.0,0.1773416697978973,0.3503873646259308,-2.1814327239990234,4.14453125,1,"['A1', 'F1', 'E2']",6.1,0,450.0,0.0521030044859294,[19200|0|0]
131,13100,0.8229289650917053,-0.2133479863405227,0.0,0.1764001548290252,0.3510859608650207,-2.205195188522339,4.13671875,1,"['A1', 'F1', 'E2']",6.1,0,450.0,0.0523021735669856,[19300|0|0]
132,13200,0.822754979133606,-0.2130500674247741,0.0,0.1755013614892959,0.3587666153907776,-2.221752643585205,4.13671875,1,"['A1', 'F1', 'E2']",6.1,0,450.0,0.0526471761669419,[19400|0|0]
133,13300,0.8230028748512268,-0.213221937417984,0.0,0.1865975856781005,0.3568039536476135,-2.2125184535980225,4.13671875,1,"['A1', 'F1', 'E2']",6.1,0,450.0,0.0529488242754736,[19500|0|0]
134,13400,0.8229292035102844,-0.2132303565740585,0.0,0.1865266412496566,0.3594354689121246,-2.2329680919647217,4.13671875,1,"['A1', 'F1', 'E2']",6.1,0,450.0,0.0530229751262121,[19600|0|0]
135,13500,0.8227410316467285,-0.2132001519203186,0.0,0.1865822076797485,0.3623124361038208,-2.2350914478302,4.13671875,1,"['A1', 'F1', 'E2']",6.1,0,450.0,0.053213555742597,[19700|0|0]
136,13600,0.8230000138282776,-0.213428109884262,0.0,0.1912915408611297,0.3594921231269836,-2.23584532737732,4.13671875,1,"['A1', 'F1', 'E2']",6.1,0,450.0,0.0535585725591222,[19800|0|0]
137,13700,0.8227454423904419,-0.2130323499441146,0.0,0.1809398382902145,0.3686844408512115,-2.2210564613342285,4.13671875,1,"['A1', 'F1', 'E2']",6.1,0,450.0,0.0540291387576397,[19900|0|0]
138,13800,0.8227558135986328,-0.2134353220462799,0.0,0.190408706665039,0.3675771355628967,-2.2346229553222656,4.14453125,1,"['A1', 'F1', 'E2']",6.1,0,450.0,0.0544322442985131,[20000|0|0]
139,13900,0.8228033781051636,-0.2133778184652328,0.0,0.1945758163928985,0.3683353066444397,-2.2076454162597656,4.14453125,1,"['A1', 'F1', 'E2']",6.1,0,450.0,0.0545068703269131,[20100|0|0]
140,14000,0.8228293061256409,-0.2134992480278015,0.0,0.1906114965677261,0.3684433996677398,-2.2129530906677246,4.14453125,1,"['A1', 'F1', 'E2']",6.1,0,450.0,0.0546310371538497,[20200|0|0]
141,14100,0.8226827383041382,-0.2131231129169464,0.0,0.188480406999588,0.3757537007331848,-2.221588611602783,4.14453125,1,"['A1', 'F1', 'E2']",6.1,0,450.0,0.0550347198856057,[20300|0|0]
142,14200,0.822913408279419,-0.2134339213371276,0.0,0.1976607292890548,0.3728953599929809,-2.2163805961608887,4.13671875,1,"['A1', 'F1', 'E2']",6.1,0,450.0,0.0554217735143855,[20400|0|0]
143,14300,0.8229444026947021,-0.2135056853294372,0.0,0.1969507336616516,0.3683279454708099,-2.21937108039856,4.13671875,1,"['A1', 'F1', 'E2']",6.1,0,450.0,0.0554999446367451,[20500|0|0]
144,14400,0.8228952884674072,-0.2135353237390518,0.0,0.1982104182243347,0.3695943057537079,-2.2180635929107666,4.13671875,1,"['A1', 'F1', 'E2']",6.1,0,450.0,0.0555573087600911,[20600|0|0]
145,14500,0.8227776885032654,-0.2133966982364654,0.0,0.2015944570302963,0.369142085313797,-2.202856540679932,4.14453125,1,"['A1', 'F1', 'E2']",6.1,0,450.0,0.0557390964976685,[20700|0|0]
146,14600,0.82279372215271,-0.2134313285350799,0.0,0.1996725797653198,0.3645497560501098,-2.212686538696289,4.13671875,1,"['A1', 'F1', 'E2']",6.1,0,450.0,0.0557772584616724,[20800|0|0]
147,14700,0.8229812979698181,-0.2136562615633011,0.0,0.2043793052434921,0.3624628484249115,-2.2195916175842285,4.13671875,1,"['A1', 'F1', 'E2']",6.1,0,450.0,0.056070139929759,[20900|0|0]
148,14800,0.8228461146354675,-0.2134796530008316,0.0,0.1975883394479751,0.3568080365657806,-2.222798109054565,4.14453125,1,"['A1', 'F1', 'E2']",6.1,0,450.0,0.0562925474795942,[21000|0|0]
149,14900,0.8228967785835266,-0.2136355489492416,0.0,0.2093817889690399,0.3616117238998413,-2.2193875312805176,4.13671875,1,"['A1', 'F1', 'E2']",6.1,0,450.0,0.0564564693584377,[21100|0|0]
150,15000,0.8228175044059753,-0.2134332656860351,0.0,0.1952666044235229,0.3573373556137085,-2.204439640045166,4.13671875,1,"['A1', 'F1', 'E2']",6.1,0,450.0,0.0566737316740838,[21200|0|0]
151,15100,0.8226439952850342,-0.2134015709161758,0.0,0.1945849806070327,0.3569665551185608,-2.20691466331482,4.14453125,1,"['A1', 'F1', 'E2']",6.1,0,450.0,0.0568501118699285,[21300|0|0]
152,15200,0.8226586580276489,-0.2133447527885437,0.0,0.1917132139205932,0.3521103858947754,-2.2208080291748047,4.13671875,1,"['A1', 'F1', 'E2']",6.1,0,450.0,0.0569087914715682,[21400|0|0]
153,15300,0.8225938677787781,-0.2132465690374374,0.0,0.1892435252666473,0.3580051064491272,-2.2248454093933105,4.13671875,1,"['A1', 'F1', 'E2']",6.1,0,450.0,0.0570264257579394,[21500|0|0]
154,15400,0.8227041959762573,-0.2134297788143158,0.0,0.1953475177288055,0.3598581552505493,-2.228482246398926,4.13671875,1,"['A1', 'F1', 'E2']",6.1,0,450.0,0.0572402905131069,[21600|0|0]
155,15500,0.8228264451026917,-0.2134837806224823,0.0,0.1973279267549514,0.3548218309879303,-2.21120548248291,4.13671875,1,"['A1', 'F1', 'E2']",6.1,0,450.0,0.0573739357307512,[21700|0|0]
156,15600,0.8229324817657471,-0.2132169604301452,0.0,0.1845302581787109,0.3426378667354584,-2.2335033416748047,4.13671875,1,"['A1', 'F1', 'E2']",6.1,0,450.0,0.0576610538056799,[21800|0|0]
157,15700,0.8224528431892395,-0.2130283117294311,0.0,0.1818708181381225,0.3549811840057373,-2.2066283226013184,4.13671875,1,"['A1', 'F1', 'E2']",6.1,0,450.0,0.058176458012449,[21900|0|0]
158,15800,0.8226889967918396,-0.2132778614759445,0.0,0.1866962015628814,0.3428946137428283,-2.206904172897339,4.13671875,1,"['A1', 'F1', 'E2']",6.1,0,450.0,0.0585200327495964,[22000|0|0]
159,15900,0.8228946924209595,-0.2135654091835022,0.0,0.1891344040632248,0.3357859551906585,-2.186741590499878,4.13671875,1,"['A1', 'F1', 'E2']",6.1,0,450.0,0.0588735781865076,[22100|0|0]
160,16000,0.8228638172149658,-0.2135686129331588,0.0,0.185062438249588,0.3434526324272156,-2.1790804862976074,4.13671875,1,"['A1', 'F1', 'E2']",6.1,0,450.0,0.0589046191651811,[22200|0|0]
161,16100,0.82288658618927,-0.2135157287120819,0.0,0.1830563396215438,0.3451987206935882,-2.222618103027344,4.13671875,1,"['A1', 'F1', 'E2']",6.1,0,450.0,0.0589621966523595,[22300|0|0]
162,16200,0.8227744698524475,-0.2133824229240417,0.0,0.1935110390186309,0.3635911047458648,-2.1940126419067383,4.13671875,1,"['A1', 'F1', 'E2']",6.1,0,450.0,0.0591363819161091,[22400|0|0]
163,16300,0.8228241205215454,-0.2135794907808303,0.0,0.1958413422107696,0.3566629886627197,-2.193918466567993,4.13671875,1,"['A1', 'F1', 'E2']",6.1,0,450.0,0.0593396082163783,[22500|0|0]
164,16400,0.8226351737976074,-0.2131827026605606,0.0,0.187722161412239,0.3658227920532226,-2.209441661834717,4.13671875,1,"['A1', 'F1', 'E2']",6.1,0,450.0,0.0597790870860343,[22600|0|0]
165,16500,0.8227502107620239,-0.2130598425865173,0.0,0.1871576607227325,0.3481374979019165,-2.2321135997772217,4.13671875,1,"['A1', 'F1', 'E2']",6.1,0,450.0,0.0599473966252057,[22700|0|0]
166,16600,0.8229149580001831,-0.2132154405117035,0.0,0.1684852093458175,0.3250389397144317,-2.210906505584717,4.13671875,1,"['A1', 'F1', 'E2']",6.1,0,450.0,0.0601740072313196,[22800|0|0]
167,16700,0.8228139877319336,-0.2132775783538818,0.0,0.1434388160705566,0.314653605222702,-2.1958224773406982,4.13671875,1,"['A1', 'F1', 'E2']",6.1,0,450.0,0.0602925656831523,[22900|0|0]
168,16800,0.8226573467254639,-0.2130427807569503,0.0,0.1205385848879814,0.3099115490913391,-2.1960196495056152,4.13671875,1,"['A1', 'F1', 'E2']",6.1,0,450.0,0.0605748179044591,[23000|0|0]
169,16900,0.8227214217185974,-0.2130801230669021,0.0,0.1077535152435302,0.2998487651348114,-2.2086970806121826,4.13671875,1,"['A1', 'F1', 'E2']",6.1,0,450.0,0.0606489802456951,[23100|0|0]
170,17000,0.823287308216095,-0.213443249464035,0.0,0.1188476160168647,0.2817286550998688,-2.22809100151062,4.13671875,1,"['A1', 'F1', 'E2']",6.1,0,450.0,0.061321355370417,[23200|0|0]
171,17100,0.8230733871459961,-0.2131128907203674,0.0,0.1036377549171447,0.2868023812770843,-2.231748580932617,4.13671875,1,"['A1', 'F1', 'E2']",6.1,0,450.0,0.0617149276303006,[23300|0|0]
172,17200,0.8231990337371826,-0.2133893519639969,0.0,0.0961236283183097,0.2774207890033722,-2.2015750408172607,4.13671875,1,"['A1', 'F1', 'E2']",6.1,0,450.0,0.0620186016086161,[23400|0|0]
173,17300,0.8231915235519409,-0.213274747133255,0.0,0.0912088453769683,0.2797170579433441,-2.20620059967041,4.13671875,1,"['A1', 'F1', 'E2']",6.1,0,450.0,0.0621334522512427,[23500|0|0]
174,17400,0.8228722810745239,-0.213166132569313,0.0,0.0864548981189727,0.2933688759803772,-2.19843864440918,4.13671875,1,"['A1', 'F1', 'E2']",6.1,0,450.0,0.0624706656597656,[23600|0|0]
175,17500,0.8227670788764954,-0.2131279408931732,0.0,0.0872213467955589,0.3010323047637939,-2.2075860500335693,4.13671875,1,"['A1', 'F1', 'E2']",6.1,0,450.0,0.0625825857499926,[23700|0|0]
176,17600,0.8227440118789673,-0.2131158858537674,0.0,0.0946418270468711,0.3054206371307373,-2.2241599559783936,4.13671875,1,"['A1', 'F1', 'E2']",6.1,0,450.0,0.062608612857977,[23800|0|0]
177,17700,0.823181688785553,-0.2132965624332428,0.0,0.098375104367733,0.3004077076911926,-2.210064649581909,4.13671875,1,"['A1', 'F1', 'E2']",6.1,0,450.0,0.0630821158684525,[23900|0|0]
178,17800,0.8226646780967712,-0.2128528654575348,0.0,0.0898210331797599,0.3130451738834381,-2.205824851989746,4.13671875,1,"['A1', 'F1', 'E2']",6.1,0,450.0,0.0637634139372646,[24000|0|0]
179,17900,0.8230226039886475,-0.2134086638689041,0.0,0.1052691340446472,0.2977169752120971,-2.1822071075439453,4.13671875,1,"['A1', 'F1', 'E2']",6.1,0,450.0,0.0644244909510504,[24100|0|0]
180,18000,0.8229585886001587,-0.2130970507860183,0.0,0.097195379436016,0.2956784665584564,-2.188148021697998,4.13671875,1,"['A1', 'F1', 'E2']",6.1,0,450.0,0.0647426114995678,[24200|0|0]
181,18100,0.8234044313430786,-0.2132082134485244,0.0,0.1117565557360649,0.300860196352005,-2.2006871700286865,4.14453125,1,"['A1', 'F1', 'E2']",6.1,0,450.0,0.0652021034896501,[24300|0|0]
182,18200,0.8232862949371338,-0.2130267173051834,0.0,0.1085560694336891,0.3086543083190918,-2.2276546955108643,4.13671875,1,"['A1', 'F1', 'E2']",6.1,0,450.0,0.0654186607810471,[24400|0|0]
183,18300,0.8233740925788879,-0.2129334509372711,0.0,0.1017773747444152,0.3086943626403808,-2.228087902069092,4.13671875,1,"['A1', 'F1', 'E2']",6.1,0,450.0,0.0655467507544297,[24500|0|0]
184,18400,0.8235304951667786,-0.2133067697286605,0.0,0.1126041337847709,0.3021418452262878,-2.2170724868774414,4.13671875,1,"['A1', 'F1', 'E2']",6.1,0,450.0,0.0659515083232327,[24600|0|0]
185,18500,0.8235754370689392,-0.2131042778491974,0.0,0.1012192368507385,0.2914060950279236,-2.213503360748291,4.14453125,1,"['A1', 'F1', 'E2']",6.1,0,450.0,0.0661589275504473,[24700|0|0]
186,18600,0.8234487175941467,-0.2130644917488098,0.0,0.1010672375559806,0.2950873076915741,-2.2003438472747803,4.13671875,1,"['A1', 'F1', 'E2']",6.1,0,450.0,0.0662917460697725,[24800|0|0]
187,18700,0.8236523270606995,-0.2133604884147644,0.0,0.115627720952034,0.2923171520233154,-2.207144021987915,4.13671875,1,"['A1', 'F1', 'E2']",6.1,0,450.0,0.0666510103751608,[24900|0|0]
188,18800,0.8230721354484558,-0.2128963023424148,0.0,0.103342093527317,0.3196383118629455,-2.212496519088745,4.14453125,1,"['A1', 'F1', 'E2']",6.1,0,450.0,0.0673940386496439,[25000|0|0]
189,18900,0.823418140411377,-0.2132164388895034,0.0,0.1094885617494583,0.3110899031162262,-2.23237943649292,4.14453125,1,"['A1', 'F1', 'E2']",6.1,0,450.0,0.067865426858181,[25100|0|0]
190,19000,0.8233868479728699,-0.2130831778049469,0.0,0.1036224067211151,0.314939022064209,-2.2478249073028564,4.13671875,1,"['A1', 'F1', 'E2']",6.1,0,450.0,0.0680023126988107,[25200|0|0]
191,19100,0.8232381343841553,-0.212903618812561,0.0,0.1121784225106239,0.3250235021114349,-2.259526491165161,4.13671875,1,"['A1', 'F1', 'E2']",6.1,0,450.0,0.0682354589259194,[25300|0|0]
192,19200,0.8232080340385437,-0.2130740731954574,0.0,0.110973984003067,0.3269203007221222,-2.251448631286621,4.13671875,1,"['A1', 'F1', 'E2']",6.1,0,450.0,0.0684085505994757,[25400|0|0]
193,19300,0.8237819075584412,-0.2131839990615844,0.0,0.1140000894665718,0.3130275905132293,-2.244835376739502,4.13671875,1,"['A1', 'F1', 'E2']",6.1,0,450.0,0.0689928574648156,[25500|0|0]
194,19400,0.8227893114089966,-0.2132284343242645,0.0,0.1540580093860626,0.3639895319938659,-2.239835023880005,4.13671875,1,"['A1', 'F1', 'E2']",6.1,0,450.0,0.0699864477266749,[25600|0|0]
195,19500,0.823035478591919,-0.2134802639484405,0.0,0.1284986734390258,0.3315577208995819,-2.2288410663604736,4.13671875,1,"['A1', 'F1', 'E2']",6.1,0,450.0,0.0703386074085815,[25700|0|0]
196,19600,0.8231144547462463,-0.2134082466363906,0.0,0.1087306812405586,0.319097638130188,-2.2421224117279053,4.13671875,1,"['A1', 'F1', 'E2']",6.1,0,450.0,0.0704454892414027,[25800|0|0]
197,19700,0.822699248790741,-0.2133075147867202,0.0,0.0984383523464202,0.3168961107730865,-2.2172062397003174,4.13671875,1,"['A1', 'F1', 'E2']",6.1,0,450.0,0.0708727396258673,[25900|0|0]
198,19800,0.8226655125617981,-0.2130317687988281,0.0,0.1287857741117477,0.3437165021896362,-2.231796264648437,4.13671875,1,"['A1', 'F1', 'E2']",6.1,0,450.0,0.0711505416830625,[26000|0|0]
199,19900,0.8230152726173401,-0.2130141109228134,0.0,0.151788592338562,0.3534601032733917,-2.2590537071228027,4.13671875,1,"['A1', 'F1', 'E2']",6.1,0,450.0,0.0715007471899268,[26100|0|0]
200,20000,0.8230955600738525,-0.2134734541177749,0.0,0.1808736473321914,0.3621951937675476,-2.218361616134644,4.13671875,1,"['A1', 'F1', 'E2']",6.1,0,450.0,0.0719670542201448,[26200|0|0]
201,20100,0.8229382038116455,-0.2130209356546402,0.0,0.1732101887464523,0.3684145510196686,-2.2219042778015137,4.13671875,1,"['A1', 'F1', 'E2']",6.1,0,450.0,0.0724461512382252,[26300|0|0]
202,20200,0.8230276107788086,-0.2132320702075958,0.0,0.1825670748949051,0.3667065799236297,-2.19643497467041,4.13671875,1,"['A1', 'F1', 'E2']",6.1,0,450.0,0.072675435789011,[26400|0|0]
203,20300,0.8226532340049744,-0.2133232355117797,0.0,0.1898148655891418,0.3829468786716461,-2.2007627487182617,4.13671875,1,"['A1', 'F1', 'E2']",6.1,0,450.0,0.0730607526475489,[26500|0|0]
204,20400,0.8229436278343201,-0.2136092036962509,0.0,0.2037477493286132,0.3763263523578644,-2.220992088317871,4.13671875,1,"['A1', 'F1', 'E2']",6.1,0,450.0,0.0734683141504559,[26600|0|0]
205,20500,0.8230568766593933,-0.2132426798343658,0.0,0.200612723827362,0.3808110654354095,-2.249669313430786,4.13671875,1,"['A1', 'F1', 'E2']",6.1,0,450.0,0.0738519351062334,[26700|0|0]
206,20600,0.8230659365653992,-0.2134212702512741,0.0,0.2117303758859634,0.38532754778862,-2.248706340789795,4.13671875,1,"['A1', 'F1', 'E2']",6.1,0,450.0,0.0740307551803535,[26800|0|0]
207,20700,0.822963535785675,-0.2133948057889938,0.0,0.2100066542625427,0.3913388550281524,-2.2301127910614014,4.13671875,1,"['A1', 'F1', 'E2']",6.1,0,450.0,0.0741365204272538,[26900|0|0]
208,20800,0.8230485320091248,-0.213276207447052,0.0,0.2118078023195266,0.3861417472362518,-2.243149280548096,4.13671875,1,"['A1', 'F1', 'E2']",6.1,0,450.0,0.0742824311009966,[27000|0|0]
209,20900,0.8226304650306702,-0.2132089138031005,0.0,0.2161387205123901,0.4006826877593994,-2.241724729537964,4.13671875,1,"['A1', 'F1', 'E2']",6.1,0,450.0,0.07470587936583,[27100|0|0]
210,21000,0.8224999308586121,-0.213103175163269,0.0,0.2135833948850631,0.3977850079536438,-2.244152784347534,4.13671875,1,"['A1', 'F1', 'E2']",6.1,0,450.0,0.0748738669547415,[27200|0|0]
211,21100,0.8228392004966736,-0.2132692337036132,0.0,0.2147341668605804,0.3831364214420318,-2.2324211597442627,4.13671875,1,"['A1', 'F1', 'E2']",6.1,0,450.0,0.0752515961250893,[27300|0|0]
212,21200,0.8227379322052002,-0.2131862789392471,0.0,0.2051709294319152,0.3814712166786194,-2.2422261238098145,4.13671875,1,"['A1', 'F1', 'E2']",6.1,0,450.0,0.0753825035725053,[27400|0|0]
213,21300,0.8227823376655579,-0.2134600728750229,0.0,0.2125567197799682,0.3818174600601196,-2.259197950363159,4.13671875,1,"['A1', 'F1', 'E2']",6.1,0,450.0,0.0756598750998422,[27500|0|0]
214,21400,0.8227977752685547,-0.2134197056293487,0.0,0.2086028754711151,0.3733687698841095,-2.224888324737549,4.13671875,1,"['A1', 'F1', 'E2']",6.1,0,450.0,0.0757030935462465,[27600|0|0]
215,21500,0.8228532671928406,-0.2135669291019439,0.0,0.2014766633510589,0.3710069954395294,-2.21001935005188,4.13671875,1,"['A1', 'F1', 'E2']",6.1,0,450.0,0.0758604279180282,[27700|0|0]
216,21600,0.8230504393577576,-0.2135041356086731,0.0,0.193010926246643,0.3672139942646026,-2.216792345046997,4.13671875,1,"['A1', 'F1', 'E2']",6.1,0,450.0,0.0760673575809942,[27800|0|0]
217,21700,0.8228170871734619,-0.2134717851877212,0.0,0.1841551810503006,0.3693642914295196,-2.2200405597686768,4.13671875,1,"['A1', 'F1', 'E2']",6.1,0,450.0,0.0763029415185861,[27900|0|0]
218,21800,0.8229867815971375,-0.2134527862071991,0.0,0.1750468462705612,0.361065536737442,-2.228355646133423,4.13671875,1,"['A1', 'F1', 'E2']",6.1,0,450.0,0.0764736961925703,[28000|0|0]
219,21900,0.822888195514679,-0.2135322391986847,0.0,0.1772512644529342,0.3618533015251159,-2.227795362472534,4.13671875,1,"['A1', 'F1', 'E2']",6.1,0,450.0,0.0766003137012748,[28100|0|0]
220,22000,0.8227673768997192,-0.2132560610771179,0.0,0.1697921901941299,0.3622063100337982,-2.2259249687194824,4.13671875,1,"['A1', 'F1', 'E2']",6.1,0,450.0,0.0769017626895845,[28200|0|0]
221,22100,0.8227975964546204,-0.2133762687444687,0.0,0.1824193298816681,0.3697137832641601,-2.218379020690918,4.13671875,1,"['A1', 'F1', 'E2']",6.1,0,450.0,0.0770257106818568,[28300|0|0]
222,22200,0.822812020778656,-0.2135854810476303,0.0,0.1820697486400604,0.3639439344406128,-2.2238481044769287,4.13671875,1,"['A1', 'F1', 'E2']",6.1,0,450.0,0.077235419644274,[28400|0|0]
223,22300,0.8228527903556824,-0.2132448256015777,0.0,0.1700191795825958,0.3589327931404114,-2.2090234756469727,4.13671875,1,"['A1', 'F1', 'E2']",6.1,0,450.0,0.0775785060639064,[28500|0|0]
224,22400,0.8230873346328735,-0.213291198015213,0.0,0.1720221936702728,0.3525690138339996,-2.20497465133667,4.13671875,1,"['A1', 'F1', 'E2']",6.1,0,450.0,0.0778175906069231,[28600|0|0]
225,22500,0.8228961825370789,-0.2133012562990188,0.0,0.1702151894569397,0.3547503650188446,-2.199321746826172,4.13671875,1,"['A1', 'F1', 'E2']",6.1,0,450.0,0.0780090071495724,[28700|0|0]
226,22600,0.8227092623710632,-0.2132816463708877,0.0,0.1710447072982788,0.3603885769844055,-2.2062578201293945,4.13671875,1,"['A1', 'F1', 'E2']",6.1,0,450.0,0.0781969531464561,[28800|0|0]
227,22700,0.8228476643562317,-0.213370218873024,0.0,0.1745423525571823,0.3609900772571563,-2.2433552742004395,4.13671875,1,"['A1', 'F1', 'E2']",6.1,0,450.0,0.0783612705150854,[28900|0|0]
228,22800,0.8226833939552307,-0.2135348320007324,0.0,0.1761467605829239,0.3604588806629181,-2.2381393909454346,4.13671875,1,"['A1', 'F1', 'E2']",6.1,0,450.0,0.0785938264147289,[29000|0|0]
229,22900,0.8229307532310486,-0.2135081440210342,0.0,0.177540972828865,0.3535040020942688,-2.220544576644897,4.13671875,1,"['A1', 'F1', 'E2']",6.1,0,450.0,0.0788426212289705,[29100|0|0]
230,23000,0.8233620524406433,-0.2132405042648315,0.0,0.1679295152425766,0.3540226817131042,-2.2156238555908203,4.13671875,1,"['A1', 'F1', 'E2']",6.1,0,450.0,0.0793502136316887,[29200|0|0]
231,23100,0.8233513236045837,-0.2130497097969055,0.0,0.1658217161893844,0.3525115251541137,-2.25894546508789,4.13671875,1,"['A1', 'F1', 'E2']",6.1,0,450.0,0.0795413095157741,[29300|0|0]
232,23200,0.8234913945198059,-0.2131237238645553,0.0,0.1668838262557983,0.3455259203910827,-2.268357276916504,4.13671875,1,"['A1', 'F1', 'E2']",6.1,0,450.0,0.0796997328205661,[29400|0|0]
233,23300,0.8234208822250366,-0.2133159339427948,0.0,0.177986666560173,0.3514609932899475,-2.2541959285736084,4.13671875,1,"['A1', 'F1', 'E2']",6.1,0,450.0,0.0799044684986744,[29500|0|0]
234,23400,0.8232171535491943,-0.2131378352642059,0.0,0.1742438375949859,0.3569037020206451,-2.2402167320251465,4.13671875,1,"['A1', 'F1', 'E2']",6.1,0,450.0,0.0801750687807799,[29600|0|0]
235,23500,0.8234190344810486,-0.2129386216402053,0.0,0.1656848341226577,0.3554324507713318,-2.2431654930114746,4.13671875,1,"['A1', 'F1', 'E2']",6.1,0,450.0,0.0804586917323085,[29700|0|0]
236,23600,0.8234654068946838,-0.2133857011795044,0.0,0.1831299662590026,0.3588457107543945,-2.2426741123199463,4.13671875,1,"['A1', 'F1', 'E2']",6.1,0,450.0,0.0809081697798328,[29800|0|0]
237,23700,0.8232659697532654,-0.2130750715732574,0.0,0.1752039194107055,0.36320960521698,-2.245185375213623,4.13671875,1,"['A1', 'F1', 'E2']",6.1,0,450.0,0.0812773119281366,[29900|0|0]
238,23800,0.8232875466346741,-0.2131560146808624,0.0,0.1770379841327667,0.3573677539825439,-2.213580846786499,4.13671875,1,"['A1', 'F1', 'E2']",6.1,0,450.0,0.081361081543631,[30000|0|0]
239,23900,0.8232440948486328,-0.2132163643836975,0.0,0.1763178557157516,0.3550992310047149,-2.2152645587921143,4.13671875,1,"['A1', 'F1', 'E2']",6.1,0,450.0,0.0814354464839084,[30100|0|0]
240,24000,0.8231809139251709,-0.2130885422229766,0.0,0.1616911739110946,0.344362199306488,-2.2310585975646973,4.13671875,1,"['A1', 'F1', 'E2']",6.1,0,450.0,0.0815780309636419,[30200|0|0]
241,24100,0.82329261302948,-0.2131625562906265,0.0,0.1701841652393341,0.3426328599452972,-2.2570276260375977,4.13671875,1,"['A1', 'F1', 'E2']",6.1,0,450.0,0.0817120263818976,[30300|0|0]
242,24200,0.8233935236930847,-0.2131367623805999,0.0,0.1697068959474563,0.3413727879524231,-2.2715957164764404,4.13671875,1,"['A1', 'F1', 'E2']",6.1,0,450.0,0.0818161814961437,[30400|0|0]
243,24300,0.8234738707542419,-0.2134349644184112,0.0,0.1794271618127823,0.3413074314594269,-2.24605393409729,4.13671875,1,"['A1', 'F1', 'E2']",6.1,0,450.0,0.0821250181934311,[30500|0|0]
244,24400,0.8232267498970032,-0.2129464149475097,0.0,0.1681732982397079,0.3477555811405182,-2.2378978729248047,4.13671875,1,"['A1', 'F1', 'E2']",6.1,0,450.0,0.0826725118496506,[30600|0|0]
245,24500,0.8233748078346252,-0.2133314162492752,0.0,0.1785659492015838,0.3450437188148498,-2.217517375946045,4.13671875,1,"['A1', 'F1', 'E2']",6.1,0,450.0,0.0830850008255688,[30700|0|0]
246,24600,0.8233131170272827,-0.2129606306552887,0.0,0.1676951795816421,0.3490278422832489,-2.216078519821167,4.13671875,1,"['A1', 'F1', 'E2']",6.1,0,450.0,0.083460883403535,[30800|0|0]
247,24700,0.8235521912574768,-0.213470920920372,0.0,0.182227224111557,0.3413378894329071,-2.201657056808472,4.13671875,1,"['A1', 'F1', 'E2']",6.1,0,450.0,0.0840244014974607,[30900|0|0]
248,24800,0.8236081004142761,-0.213449940085411,0.0,0.1753245592117309,0.3373575210571289,-2.227466821670532,4.13671875,1,"['A1', 'F1', 'E2']",6.1,0,450.0,0.084084117736874,[31000|0|0]
249,24900,0.8235903382301331,-0.2131962180137634,0.0,0.1642457395792007,0.3320023715496063,-2.211243152618408,4.13671875,1,"['A1', 'F1', 'E2']",6.1,0,450.0,0.0843384607824379,[31100|0|0]
250,25000,0.8231508135795593,-0.2130371183156967,0.0,0.1643175482749939,0.3446483910083771,-2.226823091506958,4.13671875,1,"['A1', 'F1', 'E2']",6.1,0,450.0,0.0848058948766018,[31200|0|0]
251,25100,0.8232621550559998,-0.2132363468408584,0.0,0.1747346669435501,0.345286875963211,-2.235032796859741,4.13671875,1,"['A1', 'F1', 'E2']",6.1,0,450.0,0.085034124869403,[31300|0|0]
252,25200,0.8235906958580017,-0.2132245451211929,0.0,0.1731476038694381,0.333293616771698,-2.211538314819336,4.13671875,1,"['A1', 'F1', 'E2']",6.1,0,450.0,0.0853628775715473,[31400|0|0]
253,25300,0.8295688629150391,-0.2038046270608902,0.0,-0.0852385610342025,0.1575799733400344,-2.1910719871521,4.13671875,1,"['A1', 'F1', 'E2']",6.1,0,450.0,0.0965196395401771,[31500|0|0]
254,25400,0.8293176889419556,-0.2038430571556091,0.0,-0.0831832587718963,0.1734994053840637,-2.187733888626098,4.13671875,1,"['A1', 'F1', 'E2']",6.1,0,450.0,0.0967737364447915,[31600|0|0]
255,25500,0.8293656706809998,-0.2034779340028762,0.0,-0.09255401045084,0.1695754081010818,-2.198880195617676,4.13671875,1,"['A1', 'F1', 'E2']",6.1,0,450.0,0.0971419988022805,[31700|0|0]
256,25600,0.8297487497329712,-0.2037284970283508,0.0,-0.0852105692028999,0.161142349243164,-2.193358898162842,4.13671875,1,"['A1', 'F1', 'E2']",6.1,0,450.0,0.0975997447905691,[31800|0|0]
257,25700,0.8292253613471985,-0.2036484330892563,0.0,-0.0873692035675048,0.1767093390226364,-2.209180355072021,4.13671875,1,"['A1', 'F1', 'E2']",6.1,0,450.0,0.098129221548043,[31900|0|0]
258,25800,0.8296677470207214,-0.2038244903087616,0.0,-0.077425517141819,0.1696771085262298,-2.200345993041992,4.13671875,1,"['A1', 'F1', 'E2']",6.1,0,450.0,0.0986053530726014,[32000|0|0]
259,25900,0.8294987082481384,-0.2037217170000076,0.0,-0.0859167724847793,0.1669371575117111,-2.197758913040161,4.13671875,1,"['A1', 'F1', 'E2']",6.1,0,450.0,0.0988031824425863,[32100|0|0]
260,26000,0.8294029831886292,-0.2042382806539535,0.0,-0.0765300989151001,0.1736620515584945,-2.19075608253479,4.13671875,1,"['A1', 'F1', 'E2']",6.1,0,450.0,0.0993285406971098,[32200|0|0]
261,26100,0.8295576572418213,-0.2037480026483535,0.0,-0.0847825035452842,0.1702937185764312,-2.2004263401031494,4.13671875,1,"['A1', 'F1', 'E2']",6.1,0,450.0,0.0998426385336215,[32300|0|0]
262,26200,0.8298360109329224,-0.2037530094385147,0.0,-0.0855432599782943,0.1637716740369796,-2.1959211826324463,4.13671875,1,"['A1', 'F1', 'E2']",6.1,0,450.0,0.1001210372500289,[32400|0|0]
263,26300,0.8297097682952881,-0.2038865089416504,0.0,-0.0870367735624313,0.1698159873485565,-2.203155279159546,4.13671875,1,"['A1', 'F1', 'E2']",6.1,0,450.0,0.1003047743472476,[32500|0|0]
264,26400,0.8296023607254028,-0.2040173113346099,0.0,-0.0891028866171836,0.1753371059894561,-2.20408296585083,4.13671875,1,"['A1', 'F1', 'E2']",6.1,0,450.0,0.1004740246118636,[32600|0|0]
265,26500,0.8296636343002319,-0.2038724273443222,0.0,-0.0917073413729667,0.1698142290115356,-2.212735652923584,4.13671875,1,"['A1', 'F1', 'E2']",6.1,0,450.0,0.1006313326587462,[32700|0|0]
266,26600,0.8298624157905579,-0.2037016153335571,0.0,-0.0945814996957779,0.1618822067975998,-2.2333149909973145,4.13671875,1,"['A1', 'F1', 'E2']",6.1,0,450.0,0.1008934220021347,[32800|0|0]
267,26700,0.829078197479248,-0.2038062512874603,0.0,-0.0900318920612335,0.1867287009954452,-2.2459464073181152,4.13671875,1,"['A1', 'F1', 'E2']",6.1,0,450.0,0.1016845901528099,[32900|0|0]
268,26800,0.829361617565155,-0.2035339772701263,0.0,-0.0941448435187339,0.1738585233688354,-2.25108289718628,4.13671875,1,"['A1', 'F1', 'E2']",6.1,0,450.0,0.1020776042563873,[33000|0|0]
269,26900,0.829639732837677,-0.203777328133583,0.0,-0.0911698639392852,0.1580660492181778,-2.236017227172852,4.13671875,1,"['A1', 'F1', 'E2']",6.1,0,450.0,0.1024471549938444,[33100|0|0]
270,27000,0.8295859694480896,-0.2040320038795471,0.0,-0.0853752270340919,0.1651321053504943,-2.2296135425567627,4.13671875,1,"['A1', 'F1', 'E2']",6.1,0,450.0,0.1027074437520386,[33200|0|0]
271,27100,0.8293700814247131,-0.2040741294622421,0.0,-0.0838740319013595,0.1721481084823608,-2.213065385818481,4.13671875,1,"['A1', 'F1', 'E2']",6.1,0,450.0,0.1029274033013989,[33300|0|0]
272,27201,0.8291937708854675,-0.2040304094552993,0.0,-0.0817577615380287,0.1727565079927444,-2.2111499309539795,4.13671875,1,"['A1', 'F1', 'E2']",6.1,0,450.0,0.1031090536392906,[33400|0|0]
273,27301,0.8295620679855347,-0.2035694420337677,0.0,-0.0880119800567627,0.1626740247011184,-2.204996109008789,4.13671875,1,"['A1', 'F1', 'E2']",6.1,0,450.0,0.1036990822128625,[33500|0|0]
274,27401,0.8296262621879578,-0.2040075212717056,0.0,-0.0775093659758567,0.1647639572620391,-2.200048923492432,4.13671875,1,"['A1', 'F1', 'E2']",6.1,0,450.0,0.1041418398376834,[33600|0|0]
275,27501,0.829574704170227,-0.2038448750972747,0.0,-0.0792670920491218,0.1663188934326172,-2.193734645843506,4.13671875,1,"['A1', 'F1', 'E2']",6.1,0,450.0,0.1043124622490171,[33700|0|0]
276,27601,0.8293517827987671,-0.2037490606307983,0.0,-0.0839033275842666,0.1707587838172912,-2.2028844356536865,4.13671875,1,"['A1', 'F1', 'E2']",6.1,0,450.0,0.1045551026204307,[33800|0|0]
277,27701,0.8296715021133423,-0.2037526667118072,0.0,-0.0813117325305938,0.1618272513151168,-2.2222609519958496,4.13671875,1,"['A1', 'F1', 'E2']",6.1,0,450.0,0.1048748422706661,[33900|0|0]
278,27801,0.8292682766914368,-0.2037836462259292,0.0,-0.0786020830273628,0.1734696328639984,-2.2236015796661377,4.13671875,1,"['A1', 'F1', 'E2']",6.1,0,450.0,0.1052792560082742,[34000|0|0]
279,27901,0.8293179273605347,-0.2039645612239837,0.0,-0.0708731040358543,0.1744753122329712,-2.202223300933838,4.13671875,1,"['A1', 'F1', 'E2']",6.1,0,450.0,0.1054668604470887,[34100|0|0]
280,28001,0.8291739225387573,-0.2036484777927398,0.0,-0.0785375088453292,0.1738618016242981,-2.2249834537506104,4.13671875,1,"['A1', 'F1', 'E2']",6.1,0,450.0,0.1058142019565604,[34200|0|0]
281,28102,0.8294641971588135,-0.2037643492221832,0.0,-0.0760263353586196,0.1731371134519577,-2.226341962814331,4.13671875,1,"['A1', 'F1', 'E2']",6.1,0,450.0,0.1061267488221822,[34300|0|0]
282,28200,0.8295286297798157,-0.2037386447191238,0.0,-0.0806846395134925,0.1724035441875457,-2.242814540863037,4.13671875,1,"['A1', 'F1', 'E2']",6.1,0,450.0,0.1061961194508858,[34400|0|0]
283,28300,0.8295303583145142,-0.2037885934114456,0.0,-0.0776293277740478,0.1787299066781997,-2.2384021282196045,4.13671875,1,"['A1', 'F1', 'E2']",6.1,0,450.0,0.1062460980432716,[34500|0|0]
284,28400,0.8292765617370605,-0.2039646506309509,0.0,-0.0700548589229583,0.1950123310089111,-2.2093427181243896,4.13671875,1,"['A1', 'F1', 'E2']",6.1,0,450.0,0.1065549812692116,[34600|0|0]
285,28500,0.8291925191879272,-0.2037760019302368,0.0,-0.0748111382126808,0.2005614787340164,-2.214902400970459,4.13671875,1,"['A1', 'F1', 'E2']",6.1,0,450.0,0.1067615036223503,[34700|0|0]
286,28600,0.8293538093566895,-0.203792005777359,0.0,-0.0727062672376632,0.1955169737339019,-2.2132833003997803,4.13671875,1,"['A1', 'F1', 'E2']",6.1,0,450.0,0.1069235858288446,[34800|0|0]
287,28700,0.8298775553703308,-0.2039520144462585,0.0,-0.0710863471031189,0.1788822412490844,-2.199197769165039,4.13671875,1,"['A1', 'F1', 'E2']",6.1,0,450.0,0.1074712286512463,[34900|0|0]
288,28800,0.8293160200119019,-0.2038323432207107,0.0,-0.0856203436851501,0.1876108050346374,-2.193357467651367,4.13671875,1,"['A1', 'F1', 'E2']",6.1,0,450.0,0.1080453742434005,[35000|0|0]
289,28900,0.829720139503479,-0.2037505209445953,0.0,-0.080567866563797,0.1788566559553146,-2.210981845855713,4.13671875,1,"['A1', 'F1', 'E2']",6.1,0,450.0,0.1084576938383039,[35100|0|0]
290,29000,0.8296616077423096,-0.20387764275074,0.0,-0.0710100755095481,0.1856726258993148,-2.200209140777588,4.13671875,1,"['A1', 'F1', 'E2']",6.1,0,450.0,0.1085976435459245,[35200|0|0]
291,29100,0.829203724861145,-0.2038796544075012,0.0,-0.073389932513237,0.2031993418931961,-2.2245869636535645,4.13671875,1,"['A1', 'F1', 'E2']",6.1,0,450.0,0.1090555308460611,[35300|0|0]
292,29200,0.8293176889419556,-0.204206496477127,0.0,-0.0687544047832489,0.2018083781003952,-2.232588052749634,4.1328125,1,"['A1', 'F1', 'E2']",6.1,0,450.0,0.1094016717858419,[35400|0|0]
293,29300,0.8294564485549927,-0.2035584300756454,0.0,-0.0862895026803016,0.1985133737325668,-2.2266504764556885,4.13671875,1,"['A1', 'F1', 'E2']",6.1,0,450.0,0.1100644268619744,[35500|0|0]
294,29400,0.8290353417396545,-0.2036315351724624,0.0,-0.0817253738641738,0.2092139422893524,-2.2377593517303467,4.13671875,1,"['A1', 'F1', 'E2']",6.1,0,450.0,0.1104918321790972,[35600|0|0]
295,29500,0.8290932774543762,-0.2037877291440963,0.0,-0.0720041468739509,0.2075714617967605,-2.2597808837890625,4.13671875,1,"['A1', 'F1', 'E2']",6.1,0,450.0,0.1106584248074308,[35700|0|0]
296,29600,0.8294866681098938,-0.2037563920021057,0.0,-0.0656847283244133,0.2022469043731689,-2.2381184101104736,4.13671875,1,"['A1', 'F1', 'E2']",6.1,0,450.0,0.1110530616332804,[35800|0|0]
297,29700,0.8292276859283447,-0.2040053904056549,0.0,-0.0606638304889202,0.2092300206422805,-2.23720121383667,4.13671875,1,"['A1', 'F1', 'E2']",6.1,0,450.0,0.1114123275171742,[35900|0|0]
298,29800,0.8294408321380615,-0.2036406993865966,0.0,-0.0733766481280326,0.2003821283578872,-2.2203071117401123,4.13671875,1,"['A1', 'F1', 'E2']",6.1,0,450.0,0.1118347382723621,[36000|0|0]
299,29900,0.8294982314109802,-0.2038554102182388,0.0,-0.0679955035448074,0.1983160972595214,-2.233936071395874,4.13671875,1,"['A1', 'F1', 'E2']",6.1,0,450.0,0.112056989071587,[36100|0|0]
300,30000,0.8293518424034119,-0.2038708478212356,0.0,-0.0684774443507194,0.1986954808235168,-2.2241313457489014,4.13671875,1,"['A1', 'F1', 'E2']",6.1,0,450.0,0.1122041898226827,[36200|0|0]
301,30100,0.8293138742446899,-0.2035080343484878,0.0,-0.075406014919281,0.1965955942869186,-2.2409989833831787,4.13671875,1,"['A1', 'F1', 'E2']",6.1,0,450.0,0.1125689845554901,[36300|0|0]
302,30200,0.8295084238052368,-0.204286590218544,0.0,-0.0588601380586624,0.1944988071918487,-2.2451038360595703,4.13671875,1,"['A1', 'F1', 'E2']",6.1,0,450.0,0.1133714798977245,[36400|0|0]
303,30300,0.8295115828514099,-0.2037942856550216,0.0,-0.0740852728486061,0.196868896484375,-2.221662998199463,4.13671875,1,"['A1', 'F1', 'E2']",6.1,0,450.0,0.1138637945967106,[36500|0|0]
304,30400,0.8293566107749939,-0.2038885354995727,0.0,-0.0729383155703544,0.1987492591142654,-2.2219369411468506,4.13671875,1,"['A1', 'F1', 'E2']",6.1,0,450.0,0.1140451764526571,[36600|0|0]
305,30500,0.8292893171310425,-0.2033865600824356,0.0,-0.0784285515546798,0.1999352425336837,-2.226482629776001,4.13671875,1,"['A1', 'F1', 'E2']",6.1,0,450.0,0.1145516423981324,[36700|0|0]
306,30600,0.8295910954475403,-0.2038916647434234,0.0,-0.0659469217061996,0.1934482902288437,-2.214423656463623,4.13671875,1,"['A1', 'F1', 'E2']",6.1,0,450.0,0.1151400307655054,[36800|0|0]
307,30700,0.8295742869377136,-0.2042089402675628,0.0,-0.0626419484615325,0.1923002153635025,-2.2102417945861816,4.13671875,1,"['A1', 'F1', 'E2']",6.1,0,450.0,0.1154577512153045,[36900|0|0]
308,30800,0.8293508291244507,-0.2035491168498993,0.0,-0.0774994865059852,0.2006578594446182,-2.2254953384399414,4.13671875,1,"['A1', 'F1', 'E2']",6.1,0,450.0,0.1161543862250516,[37000|0|0]
309,30900,0.8293998837471008,-0.2039252817630767,0.0,-0.0676548779010772,0.2004331797361374,-2.216743469238281,4.13671875,1,"['A1', 'F1', 'E2']",6.1,0,450.0,0.1165337361926397,[37100|0|0]
310,31000,0.8294491767883301,-0.2038400322198867,0.0,-0.0714768320322036,0.1968173682689666,-2.211052179336548,4.13671875,1,"['A1', 'F1', 'E2']",6.1,0,450.0,0.1166322110042808,[37200|0|0]
311,31100,0.8292388319969177,-0.2039011865854263,0.0,-0.0744936987757682,0.1947495341300964,-2.2134807109832764,4.13671875,1,"['A1', 'F1', 'E2']",6.1,0,450.0,0.116851265307363,[37300|0|0]
312,31200,0.829572319984436,-0.2036187797784805,0.0,-0.0838031247258186,0.1864155381917953,-2.21795916557312,4.13671875,1,"['A1', 'F1', 'E2']",6.1,0,450.0,0.1172882639829083,[37400|0|0]
313,31300,0.8295299410820007,-0.2040738761425018,0.0,-0.0737315043807029,0.1807458251714706,-2.216963768005371,4.13671875,1,"['A1', 'F1', 'E2']",6.1,0,450.0,0.1177453292648069,[37500|0|0]
314,31400,0.8298815488815308,-0.2040902376174926,0.0,-0.0836066305637359,0.1807231456041336,-2.211190700531006,4.13671875,1,"['A1', 'F1', 'E2']",6.1,0,450.0,0.1180973175352851,[37600|0|0]
315,31500,0.8295553922653198,-0.2043475061655044,0.0,-0.0753337666392326,0.1851222217082977,-2.2244253158569336,4.13671875,1,"['A1', 'F1', 'E2']",6.1,0,450.0,0.1185127272656649,[37700|0|0]
316,31600,0.8295232057571411,-0.2042237520217895,0.0,-0.0828035399317741,0.1888060569763183,-2.2049756050109863,4.13671875,1,"['A1', 'F1', 'E2']",6.1,0,450.0,0.1186405985266869,[37800|0|0]
317,31700,0.8297698497772217,-0.2037223577499389,0.0,-0.0982371419668197,0.179759532213211,-2.2089169025421143,4.13671875,1,"['A1', 'F1', 'E2']",6.1,0,450.0,0.1191993735158248,[37900|0|0]
318,31800,0.8296567797660828,-0.2040671557188034,0.0,-0.0909815430641174,0.1856249272823333,-2.203472375869751,4.13671875,1,"['A1', 'F1', 'E2']",6.1,0,450.0,0.1195622377697161,[38000|0|0]
319,31900,0.8298341035842896,-0.2037448734045028,0.0,-0.0958259180188179,0.1820676177740097,-2.207517623901367,4.13671875,1,"['A1', 'F1', 'E2']",6.1,0,450.0,0.1199300823382697,[38100|0|0]
