,time.ms,stateEstimate.x,stateEstimate.y,stateEstimate.z,stabilizer.roll,stabilizer.pitch,stabilizer.yaw,pm.vbat,drone_id,node_name,wind_speed,global_wind_direction,relative_wind_direction,travel_dist,waiting_time
0,0,0.8226723670959473,-0.2132121175527572,-0.0129020791500806,0.073023147881031,0.3131385743618011,-2.2377398014068604,4.14453125,1,"['A1', 'F1', 'E2']",6.1,90,0.0,0.5410364556927452,[100|0|0]
1,100,0.8233963251113892,-0.2132161855697631,-0.0130774239078164,0.0633144825696945,0.3067944943904876,-2.2355494499206543,4.14453125,1,"['A1', 'F1', 'E2']",6.1,90,0.0,0.5417813567203659,[200|0|0]
2,200,0.823483943939209,-0.2130609005689621,-0.0126394229009747,0.0706413090229034,0.3072532415390014,-2.2306718826293945,4.14453125,1,"['A1', 'F1', 'E2']",6.1,90,0.0,0.5422542577379759,[300|0|0]
3,300,0.8235514760017395,-0.2132020145654678,-0.0128367953002452,0.0796631574630737,0.3003518283367157,-2.231504440307617,4.14453125,1,"['A1', 'F1', 'E2']",6.1,90,0.0,0.5425061100825614,[400|0|0]
4,400,0.8234519362449646,-0.2132185697555542,-0.0128096351400017,0.0786521285772323,0.3005068004131317,-2.224635601043701,4.14453125,1,"['A1', 'F1', 'E2']",6.1,90,0.0,0.5426106084643769,[500|0|0]
5,500,0.823471188545227,-0.2134572863578796,-0.0128533840179443,0.0898492857813835,0.3035434186458587,-2.2066712379455566,4.14453125,1,"['A1', 'F1', 'E2']",6.1,90,0.0,0.5428540632478839,[600|0|0]
6,600,0.823661208152771,-0.2136780172586441,-0.0128528997302055,0.0912556499242782,0.2937620878219604,-2.2190959453582764,4.14453125,1,"['A1', 'F1', 'E2']",6.1,90,0.0,0.5431453188338184,[700|0|0]
7,700,0.8233047127723694,-0.2131776660680771,-0.0128927305340766,0.0738924443721771,0.3010190725326538,-2.220264196395874,4.14453125,1,"['A1', 'F1', 'E2']",6.1,90,0.0,0.5437609703286486,[800|0|0]
8,800,0.8235039114952087,-0.2130914181470871,-0.0128301065415143,0.070178598165512,0.299613356590271,-2.2418007850646973,4.14453125,1,"['A1', 'F1', 'E2']",6.1,90,0.0,0.5439868919953836,[900|0|0]
9,900,0.8237259387969971,-0.2132847905158996,-0.0125501602888107,0.0736114308238029,0.2899754643440246,-2.2455995082855225,4.14453125,1,"['A1', 'F1', 'E2']",6.1,90,0.0,0.5443931664102345,[1000|0|0]
10,1000,0.8292893767356873,-0.2040645629167556,-0.0102502554655075,-0.1196605563163757,0.1534952670335769,-2.2081139087677,4.14453125,1,"['A1', 'F1', 'E2']",6.1,90,0.0,0.5554047058518352,[1100|0|0]
11,1100,0.8293715715408325,-0.2037985771894455,-0.0099857300519943,-0.132361501455307,0.1449735164642334,-2.2020931243896484,4.14453125,1,"['A1', 'F1', 'E2']",6.1,90,0.0,0.5557887346105499,[1200|0|0]
12,1200,0.8294094204902649,-0.2036826312541961,-0.0102868154644966,-0.1392564177513122,0.1440423280000686,-2.220746755599976,4.14453125,1,"['A1', 'F1', 'E2']",6.1,90,0.0,0.55611358600503,[1300|0|0]
13,1300,0.829210638999939,-0.204066127538681,-0.0099674956873059,-0.130735382437706,0.1473646014928817,-2.201287269592285,4.14453125,1,"['A1', 'F1', 'E2']",6.1,90,0.0,0.5566507532054574,[1400|0|0]
14,1400,0.8294777274131775,-0.2039233744144439,-0.009955758228898,-0.1300188153982162,0.1459264904260635,-2.19382643699646,4.14453125,1,"['A1', 'F1', 'E2']",6.1,90,0.0,0.5569538248849255,[1500|0|0]
15,1500,0.8295559883117676,-0.2041344493627548,-0.0100263329222798,-0.1324256211519241,0.143270343542099,-2.1851048469543457,4.14453125,1,"['A1', 'F1', 'E2']",6.1,90,0.0,0.5571897447641186,[1600|0|0]
16,1600,0.8294886350631714,-0.2039332836866378,-0.0097812702879309,-0.1392661333084106,0.1406578123569488,-2.2178235054016118,4.14453125,1,"['A1', 'F1', 'E2']",6.1,90,0.0,0.5575138740347778,[1700|0|0]
17,1700,0.8292146325111389,-0.2041105926036834,-0.010188415646553,-0.1311769634485244,0.1442600786685943,-2.2401769161224365,4.14453125,1,"['A1', 'F1', 'E2']",6.1,90,0.0,0.5580356816560633,[1800|0|0]
18,1800,0.8293222188949585,-0.2038717716932296,-0.0101487133651971,-0.1378973573446273,0.1451756209135055,-2.2528533935546875,4.14453125,1,"['A1', 'F1', 'E2']",6.1,90,0.0,0.5583006090581911,[1900|0|0]
19,1900,0.829704761505127,-0.2041789889335632,-0.0099986735731363,-0.1252057701349258,0.1370261013507843,-2.211822271347046,4.14453125,1,"['A1', 'F1', 'E2']",6.1,90,0.0,0.5588136716475058,[2000|0|0]
20,2001,0.8293613791465759,-0.2041123956441879,-0.010135468095541,-0.1268125474452972,0.1512977331876754,-2.192649602890014,4.14453125,1,"['A1', 'F1', 'E2']",6.1,90,0.0,0.559189249670976,[2100|0|0]
21,2101,0.8240525722503662,-0.203830599784851,-0.0153736416250467,-0.8524551391601562,-1.22498619556427,-1.974290132522583,4.14453125,1,"['A1', 'F1', 'E2']",6.1,90,0.0,0.5666525801267979,[2200|0|0]
22,2201,0.8332865834236145,-0.2031317055225372,-0.0092630852013826,-0.404985636472702,-0.2799595594406128,-2.064570188522339,4.14453125,1,"['A1', 'F1', 'E2']",6.1,90,0.0,0.5777473678825124,[2300|0|0]
23,2301,0.8314974904060364,-0.203600525856018,-0.0095579428598284,0.1767474114894867,1.314788818359375,-1.9604904651641848,4.14453125,1,"['A1', 'F1', 'E2']",6.1,90,0.0,0.5796202232878697,[2400|0|0]
24,2401,0.8296474814414978,-0.2036948651075363,-0.0096794590353965,0.4307301938533783,1.974924921989441,-1.9345922470092771,4.14453125,1,"['A1', 'F1', 'E2']",6.1,90,0.0,0.5814766174389525,[2500|0|0]
25,2501,0.8286675214767456,-0.2036052048206329,-0.010242449119687,0.4400584697723388,1.9833201169967647,-1.927266240119934,4.14453125,1,"['A1', 'F1', 'E2']",6.1,90,0.0,0.5826103362464944,[2600|0|0]
26,2601,0.8281491994857788,-0.2039502263069152,-0.0098377149552106,0.432731956243515,1.788703441619873,-1.9181174039840696,4.14453125,1,"['A1', 'F1', 'E2']",6.1,90,0.0,0.5833529715918764,[2700|0|0]
27,2701,0.8284012079238892,-0.2037508338689804,-0.0099913943558931,0.3586868047714233,1.547565460205078,-1.924323320388794,4.14453125,1,"['A1', 'F1', 'E2']",6.1,90,0.0,0.5837091779300829,[2800|0|0]
28,2801,0.8280014395713806,-0.20421102643013,-0.0097610056400299,0.3241552710533142,1.347548484802246,-1.9458866119384768,4.14453125,1,"['A1', 'F1', 'E2']",6.1,90,0.0,0.5843608457054117,[2900|0|0]
29,2902,0.8282892107963562,-0.2040310800075531,-0.0100807975977659,0.257789134979248,1.1581850051879885,-1.973163604736328,4.14453125,1,"['A1', 'F1', 'E2']",6.1,90,0.0,0.5848271716527433,[3000|0|0]
30,3002,0.8282303214073181,-0.2039149701595306,-0.009933665394783,0.2008441537618637,1.0000414848327637,-2.001436471939087,4.14453125,1,"['A1', 'F1', 'E2']",6.1,90,0.0,0.5850236337155027,[3100|0|0]
31,3102,0.8283178210258484,-0.2039335519075393,-0.009949717670679,0.1541713178157806,0.8540945053100586,-2.014345407485962,4.14453125,1,"['A1', 'F1', 'E2']",6.1,90,0.0,0.5851145135271412,[3200|0|0]
32,3202,0.8289217948913574,-0.2039579600095749,-0.0100704748183488,0.1149118468165397,0.7201088666915894,-2.0373358726501465,4.14453125,1,"['A1', 'F1', 'E2']",6.1,90,0.0,0.5857309244893866,[3300|0|0]
33,3302,0.8285679221153259,-0.2036371231079101,-0.0101770078763365,0.0549374222755432,0.6163135170936584,-2.0622124671936035,4.14453125,1,"['A1', 'F1', 'E2']",6.1,90,0.0,0.5862203236634054,[3400|0|0]
34,3402,0.8287814259529114,-0.2035440802574157,-0.0100944358855485,-0.0085928030312061,0.504729688167572,-2.0936975479125977,4.14453125,1,"['A1', 'F1', 'E2']",6.1,90,0.0,0.5864674248458277,[3500|0|0]
35,3502,0.8288892507553101,-0.2033615708351135,-0.0102474736049771,0.0005716410232707,0.4534893035888672,-2.1133952140808105,4.14453125,1,"['A1', 'F1', 'E2']",6.1,90,0.0,0.5867288754545654,[3600|0|0]
36,3602,0.8291626572608948,-0.2035220861434936,-0.01011314522475,0.0098896455019712,0.4041591286659241,-2.154138565063477,4.14453125,1,"['A1', 'F1', 'E2']",6.1,90,0.0,0.5870732014559868,[3700|0|0]
37,3702,0.8292458057403564,-0.2039223462343216,-0.0098995184525847,0.0216191615909338,0.3730897307395935,-2.139660596847534,4.14453125,1,"['A1', 'F1', 'E2']",6.1,90,0.0,0.5875344586594343,[3800|0|0]
38,3802,0.8290188908576965,-0.2038434743881225,-0.0100226271897554,0.0102676851674914,0.3464239835739136,-2.146815061569214,4.13671875,1,"['A1', 'F1', 'E2']",6.1,90,0.0,0.5878043973437002,[3900|0|0]
39,3900,0.829126238822937,-0.2038195580244064,-0.0100514870136976,0.0039449352771043,0.3165838420391083,-2.142500400543213,4.14453125,1,"['A1', 'F1', 'E2']",6.1,90,0.0,0.5879181007628776,[4000|0|0]
40,4000,0.8291081786155701,-0.2038088589906692,-0.0099304523319005,-0.0132398940622806,0.2828293144702911,-2.1358299255371094,4.14453125,1,"['A1', 'F1', 'E2']",6.1,90,0.0,0.588040942264866,[4100|0|0]
41,4100,0.8293184041976929,-0.2037102133035659,-0.0099054304882884,-0.0193411149084568,0.259441614151001,-2.152209758758545,4.14453125,1,"['A1', 'F1', 'E2']",6.1,90,0.0,0.5882745056601588,[4200|0|0]
42,4200,0.8293856978416443,-0.2037179619073867,-0.010234641842544,-0.0258973482996225,0.2487780153751373,-2.170290470123291,4.14453125,1,"['A1', 'F1', 'E2']",6.1,90,0.0,0.5886106136653421,[4300|0|0]
43,4300,0.8290992379188538,-0.2038967758417129,-0.0101448819041252,-0.0334309488534927,0.2485976815223693,-2.185614109039306,4.13671875,1,"['A1', 'F1', 'E2']",6.1,90,0.0,0.588960028257223,[4400|0|0]
44,4400,0.8293905854225159,-0.2038352340459823,-0.0104111339896917,-0.0454846136271953,0.2210311889648437,-2.2092771530151367,4.14453125,1,"['A1', 'F1', 'E2']",6.1,90,0.0,0.5893594790471589,[4500|0|0]
45,4500,0.829396665096283,-0.2036384791135788,-0.0101043796166777,-0.0626240670680999,0.2166692912578582,-2.1986515522003174,4.14453125,1,"['A1', 'F1', 'E2']",6.1,90,0.0,0.5897239618467824,[4600|0|0]
46,4600,0.8292710781097412,-0.203500896692276,-0.0106140784919261,-0.0642836540937423,0.2163057178258896,-2.176875114440918,4.14453125,1,"['A1', 'F1', 'E2']",6.1,90,0.0,0.5902666348212982,[4700|0|0]
47,4700,0.8293041586875916,-0.2036269158124923,-0.0100995935499668,-0.063809722661972,0.2089122980833053,-2.182835817337036,4.14453125,1,"['A1', 'F1', 'E2']",6.1,90,0.0,0.5907973606439165,[4800|0|0]
48,4800,0.8295641541481018,-0.2033427208662033,-0.0099295023828744,-0.3186292052268982,0.0480163022875785,-2.192643880844116,4.13671875,1,"['A1', 'F1', 'E2']",6.1,90,0.0,0.5912184252614101,[4900|0|0]
49,4900,0.8295738101005554,-0.2035099118947982,-0.0099801393225789,-0.260273277759552,0.083862654864788,-2.1895594596862797,4.14453125,1,"['A1', 'F1', 'E2']",6.1,90,0.0,0.5913933829052073,[5000|0|0]
50,5000,0.8295592069625854,-0.2033656537532806,-0.009720210917294,-0.2430608570575714,0.0950057879090309,-2.161465644836426,4.14453125,1,"['A1', 'F1', 'E2']",6.1,90,0.0,0.5916910176459662,[5100|0|0]
51,5100,0.8293978571891785,-0.2034228891134262,-0.010065303184092,-0.2218895405530929,0.103177934885025,-2.1895103454589844,4.14453125,1,"['A1', 'F1', 'E2']",6.1,90,0.0,0.5920762426561009,[5200|0|0]
52,5200,0.829617440700531,-0.2037376761436462,-0.0097791934385895,-0.2074203938245773,0.0998699516057968,-2.1963753700256348,4.14453125,1,"['A1', 'F1', 'E2']",6.1,90,0.0,0.5925549561187528,[5300|0|0]
53,5300,0.8295167088508606,-0.2034193575382232,-0.0099541470408439,-0.2086192965507507,0.1061199456453323,-2.2026212215423584,4.13671875,1,"['A1', 'F1', 'E2']",6.1,90,0.0,0.5929318943140026,[5400|0|0]
54,5400,0.8295263051986694,-0.2037221193313598,-0.0101713743060827,-0.1952779740095138,0.1134726852178573,-2.191705703735352,4.14453125,1,"['A1', 'F1', 'E2']",6.1,90,0.0,0.5933046468834607,[5500|0|0]
55,5500,0.8294791579246521,-0.2033423781394958,-0.0098878173157572,-0.215160995721817,0.1125210374593734,-2.21009373664856,4.14453125,1,"['A1', 'F1', 'E2']",6.1,90,0.0,0.5937809144605726,[5600|0|0]
56,5600,0.829485297203064,-0.2037503868341446,-0.0101347221061587,-0.2097097039222717,0.1017117276787757,-2.219595193862915,4.14453125,1,"['A1', 'F1', 'E2']",6.1,90,0.0,0.5942578534096756,[5700|0|0]
57,5700,0.8292960524559021,-0.2041342258453369,-0.0103576565161347,-0.0423883683979511,0.2033406198024749,-2.238316059112549,4.14453125,1,"['A1', 'F1', 'E2']",6.1,90,0.0,0.5947403943011996,[5800|0|0]
58,5800,0.8292186260223389,-0.2039380669593811,-0.0100781004875898,-0.0814487040042877,0.1846313327550888,-2.210968494415283,4.14453125,1,"['A1', 'F1', 'E2']",6.1,90,0.0,0.5950905724476473,[5900|0|0]
59,5900,0.8291836380958557,-0.2041641473770141,-0.0105172647163271,-0.0981029123067855,0.164978414773941,-2.2254741191864014,4.14453125,1,"['A1', 'F1', 'E2']",6.1,90,0.0,0.5955857509306605,[6000|0|0]
60,6000,0.8293654322624207,-0.203843355178833,-0.0098350793123245,-0.1250227987766266,0.1471920609474182,-2.2198851108551025,4.14453125,1,"['A1', 'F1', 'E2']",6.1,90,0.0,0.5963612080080317,[6100|0|0]
61,6100,0.829187273979187,-0.2040633261203766,-0.0098647754639387,-0.1363824903964996,0.1436032056808471,-2.2203478813171387,4.14453125,1,"['A1', 'F1', 'E2']",6.1,90,0.0,0.596645829599674,[6200|0|0]
62,6200,0.8293378353118896,-0.2038743793964386,-0.009756569750607,-0.1501100063323974,0.1263415068387985,-2.233062982559204,4.14453125,1,"['A1', 'F1', 'E2']",6.1,90,0.0,0.5969105522012587,[6300|0|0]
63,6300,0.8292587995529175,-0.2037634551525116,-0.0103797130286693,-0.1519133448600769,0.1281895339488983,-2.210296154022217,4.14453125,1,"['A1', 'F1', 'E2']",6.1,90,0.0,0.5975484067176504,[6400|0|0]
64,6400,0.8295273184776306,-0.2038913965225219,-0.0097723882645368,-0.1447685062885284,0.1149341091513633,-2.1815881729125977,4.14453125,1,"['A1', 'F1', 'E2']",6.1,90,0.0,0.5982246572453529,[6500|0|0]
65,6500,0.8297050595283508,-0.204054519534111,-0.0101398266851902,-0.1388555765151977,0.1124583110213279,-2.1943275928497314,4.14453125,1,"['A1', 'F1', 'E2']",6.1,90,0.0,0.5986642161048851,[6600|0|0]
66,6600,0.829273521900177,-0.2040262669324875,-0.0103539749979972,-0.1351824700832367,0.124351367354393,-2.2069075107574463,4.14453125,1,"['A1', 'F1', 'E2']",6.1,90,0.0,0.5991467950454809,[6700|0|0]
67,6700,0.8292204141616821,-0.2037999629974365,-0.0102091263979673,-0.1397422552108764,0.1271973848342895,-2.2132718563079834,4.14453125,1,"['A1', 'F1', 'E2']",6.1,90,0.0,0.599420683745208,[6800|0|0]
68,6800,0.8297733068466187,-0.2040800154209137,-0.0099038891494274,-0.1312355697154998,0.1143470481038093,-2.201313734054565,4.14453125,1,"['A1', 'F1', 'E2']",6.1,90,0.0,0.6001115451342347,[6900|0|0]
69,6900,0.8292454481124878,-0.2037550956010818,-0.0104331085458397,-0.1451311111450195,0.1337079405784607,-2.1833553314208984,4.14453125,1,"['A1', 'F1', 'E2']",6.1,90,0.0,0.6009265794292535,[7000|0|0]
70,7000,0.8294358849525452,-0.2040512710809707,-0.0100285680964589,-0.1339094936847686,0.1302458643913269,-2.183477640151977,4.14453125,1,"['A1', 'F1', 'E2']",6.1,90,0.0,0.6014628993711947,[7100|0|0]
71,7100,0.829264760017395,-0.2039193212985992,-0.0102817872539162,-0.1377599984407425,0.1342952251434326,-2.188684701919556,4.14453125,1,"['A1', 'F1', 'E2']",6.1,90,0.0,0.6017957873857003,[7200|0|0]
72,7200,0.829560399055481,-0.2038721740245819,-0.009665448218584,-0.1405728459358215,0.1321790218353271,-2.211905241012573,4.14453125,1,"['A1', 'F1', 'E2']",6.1,90,0.0,0.6024809874387956,[7300|0|0]
73,7300,0.8297513127326965,-0.2039593309164047,-0.0097726434469223,-0.1392101347446441,0.1249763369560241,-2.2039082050323486,4.14453125,1,"['A1', 'F1', 'E2']",6.1,90,0.0,0.6027166464571223,[7400|0|0]
74,7400,0.8295090198516846,-0.2037382572889328,-0.0104056419804692,-0.137869507074356,0.1327137351036071,-2.230477094650269,4.14453125,1,"['A1', 'F1', 'E2']",6.1,90,0.0,0.6034295745968568,[7500|0|0]
75,7500,0.8292713761329651,-0.2039672434329986,-0.0102981682866811,-0.1208175718784332,0.141417846083641,-2.2384512424468994,4.14453125,1,"['A1', 'F1', 'E2']",6.1,90,0.0,0.6037766477679279,[7600|0|0]
76,7600,0.8291077613830566,-0.2036086022853851,-0.0102029396221041,-0.1308061778545379,0.1448333859443664,-2.241966724395752,4.14453125,1,"['A1', 'F1', 'E2']",6.1,90,0.0,0.6041821866165064,[7700|0|0]
77,7700,0.8296447992324829,-0.2040763050317764,-0.0100612789392471,-0.1168932542204856,0.1359824240207672,-2.2070295810699463,4.14453125,1,"['A1', 'F1', 'E2']",6.1,90,0.0,0.604908288027995,[7800|0|0]
78,7800,0.8293840289115906,-0.2039369046688079,-0.0099835395812988,-0.1146470680832862,0.1452033966779709,-2.2267162799835205,4.14453125,1,"['A1', 'F1', 'E2']",6.1,90,0.0,0.6052140281614878,[7900|0|0]
79,7900,0.8295477628707886,-0.2039077281951904,-0.0100773628801107,-0.1160323694348335,0.1416208893060684,-2.2105963230133057,4.14453125,1,"['A1', 'F1', 'E2']",6.1,90,0.0,0.605404980740437,[8000|0|0]
80,8000,0.829315721988678,-0.2037310004234314,-0.0103034693747758,-0.1182654947042465,0.1492440551519394,-2.210299253463745,4.14453125,1,"['A1', 'F1', 'E2']",6.1,90,0.0,0.6057740333426651,[8100|0|0]
81,8100,0.829376757144928,-0.2041217535734176,-0.0099518103525042,-0.1109976917505264,0.1475688368082046,-2.2125463485717773,4.14453125,1,"['A1', 'F1', 'E2']",6.1,90,0.0,0.6063032567193858,[8200|0|0]
82,8200,0.829431414604187,-0.2037865668535232,-0.0098129613324999,-0.1143857464194297,0.1521707773208618,-2.1931815147399902,4.14453125,1,"['A1', 'F1', 'E2']",6.1,90,0.0,0.6066701581031422,[8300|0|0]
83,8300,0.8292913436889648,-0.2041399329900741,-0.0102192796766757,-0.1067911982536315,0.1491939276456833,-2.199049711227417,4.13671875,1,"['A1', 'F1', 'E2']",6.1,90,0.0,0.6072265591137145,[8400|0|0]
84,8400,0.8293015360832214,-0.2040319889783859,-0.0101801129058003,-0.1109204217791557,0.147542804479599,-2.2057552337646484,4.14453125,1,"['A1', 'F1', 'E2']",6.1,90,0.0,0.6073418406408593,[8500|0|0]
85,8500,0.8293096423149109,-0.2040859460830688,-0.0098631745204329,-0.1053727865219116,0.1459085047245025,-2.1946680545806885,4.14453125,1,"['A1', 'F1', 'E2']",6.1,90,0.0,0.6076634413564326,[8600|0|0]
86,8600,0.8292949795722961,-0.2038002014160156,-0.0100791957229375,-0.1088191047310829,0.1462215632200241,-2.18033766746521,4.14453125,1,"['A1', 'F1', 'E2']",6.1,90,0.0,0.6080219524032664,[8700|0|0]
87,8700,0.8294936418533325,-0.2040519714355468,-0.0102975089102983,-0.1054730340838432,0.146803930401802,-2.18537712097168,4.14453125,1,"['A1', 'F1', 'E2']",6.1,90,0.0,0.608409915664951,[8800|0|0]
88,8800,0.8296369314193726,-0.2040467709302902,-0.0104163410142064,-0.1015370860695838,0.15635347366333,-2.1921050548553467,4.13671875,1,"['A1', 'F1', 'E2']",6.1,90,0.0,0.6085961413718501,[8900|0|0]
89,8900,0.829482913017273,-0.2039148658514022,-0.0100096371024847,-0.1073673889040947,0.1522684544324875,-2.19057297706604,4.14453125,1,"['A1', 'F1', 'E2']",6.1,90,0.0,0.6090505956487928,[9000|0|0]
90,9000,0.8295599818229675,-0.2042933106422424,-0.0100800823420286,-0.1030648425221443,0.1560541540384292,-2.180139541625977,4.14453125,1,"['A1', 'F1', 'E2']",6.1,90,0.0,0.6094431801521798,[9100|0|0]
91,9100,0.8296443819999695,-0.2038514167070388,-0.0102438377216458,-0.1137220859527587,0.1606154590845108,-2.189791202545166,4.14453125,1,"['A1', 'F1', 'E2']",6.1,90,0.0,0.6099219384045381,[9200|0|0]
92,9200,0.8293995261192322,-0.2039939016103744,-0.0100860157981514,-0.1089899912476539,0.1705270111560821,-2.169053792953491,4.13671875,1,"['A1', 'F1', 'E2']",6.1,90,0.0,0.6102462285671173,[9300|0|0]
93,9300,0.8292555809020996,-0.2036214172840118,-0.0102052055299282,-0.1221343427896499,0.1803299784660339,-2.17383360862732,4.13671875,1,"['A1', 'F1', 'E2']",6.1,90,0.0,0.6106629670835544,[9400|0|0]
94,9400,0.8295543789863586,-0.204066976904869,-0.0101872887462377,-0.1119786649942398,0.1759330630302429,-2.1526846885681152,4.14453125,1,"['A1', 'F1', 'E2']",6.1,90,0.0,0.61119973955121,[9500|0|0]
95,9500,0.8293424844741821,-0.2042664438486099,-0.0098820999264717,-0.1064482107758522,0.177618145942688,-2.1622328758239746,4.13671875,1,"['A1', 'F1', 'E2']",6.1,90,0.0,0.611621434419149,[9600|0|0]
96,9600,0.829401969909668,-0.2036470174789428,-0.0101554337888956,-0.1169923320412635,0.179136261343956,-2.182459831237793,4.14453125,1,"['A1', 'F1', 'E2']",6.1,90,0.0,0.6123010953234398,[9700|0|0]
97,9700,0.8296985030174255,-0.2039509117603302,-0.0104211112484335,-0.1203499138355255,0.1731446981430053,-2.2017529010772705,4.14453125,1,"['A1', 'F1', 'E2']",6.1,90,0.0,0.6128019627018573,[9800|0|0]
98,9800,0.8295422196388245,-0.2038981467485427,-0.0102952728047966,-0.1186635345220565,0.1778096556663513,-2.2137300968170166,4.13671875,1,"['A1', 'F1', 'E2']",6.1,90,0.0,0.6130094330727367,[9900|0|0]
99,9900,0.8297537565231323,-0.2041167765855789,-0.0099397264420986,-0.1121128126978874,0.1714646816253662,-2.195587396621704,4.14453125,1,"['A1', 'F1', 'E2']",6.1,90,0.0,0.6134773647719118,[10000|0|0]
100,10000,0.8295982480049133,-0.2039460837841034,-0.0102535560727119,-0.1170309334993362,0.1771988123655319,-2.2138500213623047,4.14453125,1,"['A1', 'F1', 'E2']",6.1,90,0.0,0.6138669901930089,[10100|0|0]
101,10100,0.8297207355499268,-0.2045669704675674,-0.0100830262526869,-0.0940091088414192,0.1691253930330276,-2.199562788009644,4.14453125,1,"['A1', 'F1', 'E2']",6.1,90,0.0,0.614522416689196,[10200|0|0]
102,10200,0.8297263383865356,-0.2042676359415054,-0.009941573254764,-0.1020629256963729,0.1616832613945007,-2.2191312313079834,4.14453125,1,"['A1', 'F1', 'E2']",6.1,90,0.0,0.6148535382694233,[10300|0|0]
103,10300,0.8297598958015442,-0.2042596787214279,-0.01002674177289,-0.1061411947011947,0.1588682532310485,-2.220777988433838,4.14453125,1,"['A1', 'F1', 'E2']",6.1,90,0.0,0.6149454245792481,[10400|0|0]
104,10400,0.8295857310295105,-0.2041303068399429,-0.0102371359243988,-0.1158514246344566,0.1644527912139892,-2.243728876113892,4.14453125,1,"['A1', 'F1', 'E2']",6.1,90,0.0,0.6152476432923113,[10500|0|0]
105,10500,0.8296579122543335,-0.2044527232646942,-0.0101591786369681,-0.1038889959454536,0.167672574520111,-2.237959384918213,4.14453125,1,"['A1', 'F1', 'E2']",6.1,90,0.0,0.6155871132008892,[10600|0|0]
106,10600,0.8296305537223816,-0.2043277472257614,-0.0102583141997456,-0.105496771633625,0.1635332256555557,-2.2489349842071533,4.14453125,1,"['A1', 'F1', 'E2']",6.1,90,0.0,0.6157489630059095,[10700|0|0]
107,10700,0.8298617005348206,-0.2040685266256332,-0.0101778041571378,-0.1166402399539947,0.1455576419830322,-2.2279157638549805,4.13671875,1,"['A1', 'F1', 'E2']",6.1,90,0.0,0.6161054823397362,[10800|0|0]
108,10800,0.8297117352485657,-0.2039729207754135,-0.010414944961667,-0.1244129315018653,0.1457257270812988,-2.2237823009490967,4.13671875,1,"['A1', 'F1', 'E2']",6.1,90,0.0,0.6164019040441548,[10900|0|0]
109,10900,0.8295401334762573,-0.2041796445846557,-0.0103918286040425,-0.1177624613046646,0.1502022594213485,-2.2189836502075195,4.14453125,1,"['A1', 'F1', 'E2']",6.1,90,0.0,0.616671563584236,[11000|0|0]
110,11000,0.8296770453453064,-0.2039485722780227,-0.0104019837453961,-0.1276990622282028,0.1438696235418319,-2.22052264213562,4.14453125,1,"['A1', 'F1', 'E2']",6.1,90,0.0,0.6169403430434124,[11100|0|0]
111,11100,0.8300697207450867,-0.2040822356939315,-0.0105589618906378,-0.1230445727705955,0.1404257714748382,-2.222695589065552,4.14453125,1,"['A1', 'F1', 'E2']",6.1,90,0.0,0.6173838540539054,[11200|0|0]
112,11200,0.8298683762550354,-0.2043591439723968,-0.0103004723787307,-0.1138894259929657,0.1462926268577575,-2.215460538864136,4.14453125,1,"['A1', 'F1', 'E2']",6.1,90,0.0,0.6178128466250795,[11300|0|0]
113,11300,0.8296140432357788,-0.2042183130979538,-0.0104225305840373,-0.1146517246961593,0.1482208669185638,-2.211641550064087,4.14453125,1,"['A1', 'F1', 'E2']",6.1,90,0.0,0.6181281509627649,[11400|0|0]
114,11400,0.8296551704406738,-0.204075202345848,-0.0102136330679059,-0.1224656701087951,0.1374817788600921,-2.2371926307678223,4.14453125,1,"['A1', 'F1', 'E2']",6.1,90,0.0,0.6183846861583943,[11500|0|0]
115,11500,0.8295590281486511,-0.2041516304016113,-0.0102909440174698,-0.1150116920471191,0.1411571055650711,-2.245533943176269,4.14453125,1,"['A1', 'F1', 'E2']",6.1,90,0.0,0.6185298122103133,[11600|0|0]
116,11600,0.8298240900039673,-0.2042517513036728,-0.0101784262806177,-0.1071306690573692,0.1343411356210708,-2.221912384033203,4.14453125,1,"['A1', 'F1', 'E2']",6.1,90,0.0,0.6188346764805708,[11700|0|0]
117,11700,0.8293721079826355,-0.204166442155838,-0.0104399165138602,-0.1137745380401611,0.1443522125482559,-2.2289907932281494,4.14453125,1,"['A1', 'F1', 'E2']",6.1,90,0.0,0.6193637724457725,[11800|0|0]
118,11800,0.8297085165977478,-0.2045132964849472,-0.01046590693295,-0.106653481721878,0.1447567343711853,-2.233452081680298,4.13671875,1,"['A1', 'F1', 'E2']",6.1,90,0.0,0.6198476672523452,[11900|0|0]
119,11900,0.8297427296638489,-0.2041853964328766,-0.0101591451093554,-0.1189856082201004,0.1427010595798492,-2.245400667190552,4.14453125,1,"['A1', 'F1', 'E2']",6.1,90,0.0,0.6202979913516948,[12000|0|0]
120,12000,0.8297921419143677,-0.2040532380342483,-0.010441867634654,-0.1225154474377632,0.1414531767368316,-2.2285547256469727,4.14453125,1,"['A1', 'F1', 'E2']",6.1,90,0.0,0.6206139651467167,[12100|0|0]
121,12100,0.8296205997467041,-0.2040765732526779,-0.0104800956323742,-0.1221081167459487,0.1460615396499633,-2.2380778789520264,4.14453125,1,"['A1', 'F1', 'E2']",6.1,90,0.0,0.6207912576381415,[12200|0|0]
122,12200,0.8297958970069885,-0.2043016850948333,-0.0100739886984229,-0.111263558268547,0.1422408074140548,-2.2569172382354736,4.14453125,1,"['A1', 'F1', 'E2']",6.1,90,0.0,0.6212875713622568,[12300|0|0]
123,12300,0.8296091556549072,-0.2041766047477722,-0.0103061916306614,-0.1134366691112518,0.1413069367408752,-2.259699583053589,4.13671875,1,"['A1', 'F1', 'E2']",6.1,90,0.0,0.6216107363782134,[12400|0|0]
124,12400,0.8298629522323608,-0.2041562348604202,-0.0101838801056146,-0.1139424741268158,0.1265500485897064,-2.2419722080230717,4.14453125,1,"['A1', 'F1', 'E2']",6.1,90,0.0,0.6218932036226811,[12500|0|0]
125,12500,0.829371452331543,-0.2039714902639389,-0.0104911355301737,-0.1237609386444091,0.1320289373397827,-2.2583227157592773,4.14453125,1,"['A1', 'F1', 'E2']",6.1,90,0.0,0.6225015691496087,[12600|0|0]
126,12600,0.82982337474823,-0.2040624618530273,-0.0103205945342779,-0.1211594939231872,0.1256083846092224,-2.268005132675171,4.14453125,1,"['A1', 'F1', 'E2']",6.1,90,0.0,0.622993091206089,[12700|0|0]
127,12700,0.8295726180076599,-0.2044278383255005,-0.0099548865109682,-0.11138217151165,0.1326392441987991,-2.267541646957397,4.14453125,1,"['A1', 'F1', 'E2']",6.1,90,0.0,0.6235676530111991,[12800|0|0]
128,12800,0.8297898173332214,-0.2039414346218109,-0.0104707032442092,-0.1238244920969009,0.1360929161310196,-2.252307415008545,4.13671875,1,"['A1', 'F1', 'E2']",6.1,90,0.0,0.6243091589196575,[12900|0|0]
129,12900,0.8297102451324463,-0.2041254639625549,-0.0102238208055496,-0.110122762620449,0.1435033082962036,-2.2532894611358643,4.14453125,1,"['A1', 'F1', 'E2']",6.1,90,0.0,0.6246271989673079,[13000|0|0]
130,13000,0.8299462795257568,-0.2043825387954712,-0.0102615458890795,-0.1024950370192527,0.1411196738481521,-2.225446939468384,4.14453125,1,"['A1', 'F1', 'E2']",6.1,90,0.0,0.6249782301432335,[13100|0|0]
131,13100,0.8295659422874451,-0.204196035861969,-0.0103864949196577,-0.1103898137807846,0.1515644192695617,-2.222355842590332,4.14453125,1,"['A1', 'F1', 'E2']",6.1,90,0.0,0.6254198770828742,[13200|0|0]
132,13200,0.8295837044715881,-0.2041319161653518,-0.0103395394980907,-0.1163878589868545,0.1521669030189514,-2.219567060470581,4.14453125,1,"['A1', 'F1', 'E2']",6.1,90,0.0,0.6255013119789221,[13300|0|0]
133,13300,0.8297508358955383,-0.2042529135942459,-0.0103572020307183,-0.1107708737254142,0.1584199517965316,-2.216847896575928,4.13671875,1,"['A1', 'F1', 'E2']",6.1,90,0.0,0.6257083995346309,[13400|0|0]
134,13400,0.8296515941619873,-0.2041655927896499,-0.010066251270473,-0.1140243336558342,0.1613170355558395,-2.203826904296875,4.14453125,1,"['A1', 'F1', 'E2']",6.1,90,0.0,0.6260279714193154,[13500|0|0]
135,13500,0.8297115564346313,-0.2043116688728332,-0.0103374067693948,-0.1071534901857376,0.1647322475910186,-2.213402271270752,4.14453125,1,"['A1', 'F1', 'E2']",6.1,90,0.0,0.6263417531919129,[13600|0|0]
136,13600,0.8301801085472107,-0.2043466717004776,-0.0104179671034216,-0.10502839833498,0.1555528938770294,-2.197582483291626,4.14453125,1,"['A1', 'F1', 'E2']",6.1,90,0.0,0.6268184672021582,[13700|0|0]
137,13700,0.8295544981956482,-0.2043811976909637,-0.0102879991754889,-0.1068916097283363,0.1616524010896682,-2.201810121536255,4.14453125,1,"['A1', 'F1', 'E2']",6.1,90,0.0,0.6274583672086376,[13800|0|0]
138,13800,0.8295472860336304,-0.2039122730493545,-0.0102724405005574,-0.1161622628569603,0.1671768277883529,-2.211416721343994,4.14453125,1,"['A1', 'F1', 'E2']",6.1,90,0.0,0.627927605322131,[13900|0|0]
139,13900,0.8296118378639221,-0.2042932957410812,-0.0105935772880911,-0.1028773263096809,0.1666445881128311,-2.228903293609619,4.13671875,1,"['A1', 'F1', 'E2']",6.1,90,0.0,0.6284300732979385,[14000|0|0]
140,14000,0.8296933770179749,-0.2040371149778366,-0.0100557534024119,-0.1081896275281906,0.1687525361776352,-2.2344045639038086,4.14453125,1,"['A1', 'F1', 'E2']",6.1,90,0.0,0.6290313484006222,[14100|0|0]
141,14100,0.8297466039657593,-0.2039544582366943,-0.0105031756684184,-0.10982396453619,0.1659054309129715,-2.237377882003784,4.14453125,1,"['A1', 'F1', 'E2']",6.1,90,0.0,0.6294894443828629,[14200|0|0]
142,14200,0.8295978307723999,-0.2041952013969421,-0.0102307181805372,-0.1029564440250396,0.1769822686910629,-2.2165114879608154,4.14453125,1,"['A1', 'F1', 'E2']",6.1,90,0.0,0.6298822850820922,[14300|0|0]
143,14300,0.8295838236808777,-0.2042265385389328,-0.0100121088325977,-0.1010169833898544,0.1709461212158203,-2.1823570728302,4.13671875,1,"['A1', 'F1', 'E2']",6.1,90,0.0,0.6301035728180551,[14400|0|0]
144,14400,0.8298557996749878,-0.2040056139230728,-0.0102467834949493,-0.1051139235496521,0.1628772914409637,-2.201915740966797,4.14453125,1,"['A1', 'F1', 'E2']",6.1,90,0.0,0.6305252964531705,[14500|0|0]
145,14500,0.8296431303024292,-0.2043900340795517,-0.0100940493866801,-0.0966385006904602,0.1640650779008865,-2.190385103225708,4.13671875,1,"['A1', 'F1', 'E2']",6.1,90,0.0,0.6309904145312544,[14600|0|0]
146,14600,0.8297824263572693,-0.2044714391231537,-0.0102557195350527,-0.1034684106707573,0.1590459942817688,-2.2104177474975586,4.14453125,1,"['A1', 'F1', 'E2']",6.1,90,0.0,0.6312188163895933,[14700|0|0]
147,14700,0.8296982645988464,-0.2043046802282333,-0.0102669782936573,-0.1062930449843406,0.1597662419080734,-2.2288951873779297,4.14453125,1,"['A1', 'F1', 'E2']",6.1,90,0.0,0.6314059486697088,[14800|0|0]
148,14800,0.8297449946403503,-0.2044984698295593,-0.0102272005751729,-0.1061749160289764,0.1556702405214309,-2.2328438758850098,4.13671875,1,"['A1', 'F1', 'E2']",6.1,90,0.0,0.6316092228029596,[14900|0|0]
149,14900,0.8298563957214355,-0.2044203430414199,-0.0102825816720724,-0.1039967760443687,0.1572409272193908,-2.2121973037719727,4.13671875,1,"['A1', 'F1', 'E2']",6.1,90,0.0,0.6317561277442847,[15000|0|0]
150,15000,0.8293904066085815,-0.2039846628904342,-0.0104253944009542,-0.1141043081879615,0.1735562980175018,-2.2200448513031006,4.14453125,1,"['A1', 'F1', 'E2']",6.1,90,0.0,0.6324098543865382,[15100|0|0]
151,15100,0.8297861218452454,-0.2040617614984512,-0.0100234150886535,-0.1108965501189231,0.1586377173662185,-2.1990017890930176,4.13671875,1,"['A1', 'F1', 'E2']",6.1,90,0.0,0.6329791716191983,[15200|0|0]
152,15200,0.8295024037361145,-0.2042174041271209,-0.0101479431614279,-0.1026117131114006,0.165107175707817,-2.1850266456604004,4.13671875,1,"['A1', 'F1', 'E2']",6.1,90,0.0,0.6333259104751359,[15300|0|0]
153,15300,0.8296933770179749,-0.2039119899272918,-0.0103248776867985,-0.1168819367885589,0.1616123020648956,-2.1874170303344727,4.13671875,1,"['A1', 'F1', 'E2']",6.1,90,0.0,0.633727226378272,[15400|0|0]
154,15400,0.8295948505401611,-0.2042246162891388,-0.0104848621413111,-0.1119348183274269,0.1635072231292724,-2.2020373344421387,4.14453125,1,"['A1', 'F1', 'E2']",6.1,90,0.0,0.634091969760169,[15500|0|0]
155,15500,0.8297666311264038,-0.2042476385831833,-0.0104802576825022,-0.1194497048854827,0.150118350982666,-2.206620693206787,4.13671875,1,"['A1', 'F1', 'E2']",6.1,90,0.0,0.6342653473737005,[15600|0|0]
156,15600,0.8294091820716858,-0.2041565626859665,-0.0103020509704947,-0.1152878925204277,0.1691139191389084,-2.195256471633911,4.14453125,1,"['A1', 'F1', 'E2']",6.1,90,0.0,0.6346750085483036,[15700|0|0]
157,15700,0.829798698425293,-0.2042747735977172,-0.0103230597451329,-0.1123425215482711,0.169437751173973,-2.209307909011841,4.14453125,1,"['A1', 'F1', 'E2']",6.1,90,0.0,0.6350826090610562,[15800|0|0]
158,15800,0.8294947147369385,-0.2041589319705963,-0.0105436705052852,-0.1168644875288009,0.1764642745256424,-2.219390153884888,4.13671875,1,"['A1', 'F1', 'E2']",6.1,90,0.0,0.6354756669103031,[15900|0|0]
159,15900,0.8295222520828247,-0.2041537910699844,-0.0102699166163802,-0.1230448931455612,0.1714935600757599,-2.23136305809021,4.14453125,1,"['A1', 'F1', 'E2']",6.1,90,0.0,0.6357508503508809,[16000|0|0]
160,16000,0.8298352956771851,-0.2040889263153076,-0.0104788281023502,-0.1280911564826965,0.1615377813577652,-2.2286548614501958,4.14453125,1,"['A1', 'F1', 'E2']",6.1,90,0.0,0.6361327505175992,[16100|0|0]
161,16100,0.8296318054199219,-0.204438641667366,-0.0104696312919259,-0.1233692839741706,0.1581464111804962,-2.2065913677215576,4.14453125,1,"['A1', 'F1', 'E2']",6.1,90,0.0,0.6365374648533824,[16200|0|0]
162,16200,0.8221695423126221,-0.2136949449777603,-0.0128306411206722,0.1731746941804886,0.3651735186576843,-2.2282419204711914,4.13671875,1,"['A1', 'F1', 'E2']",6.1,90,0.0,0.648659300072029,[16300|0|0]
163,16300,0.822080671787262,-0.2137438803911209,-0.0128769241273403,0.1702671945095062,0.3653924763202667,-2.222563982009888,4.13671875,1,"['A1', 'F1', 'E2']",6.1,90,0.0,0.648770811334531,[16400|0|0]
164,16400,0.822426974773407,-0.2133289277553558,-0.0126651022583246,0.1543777585029602,0.3556644022464752,-2.1964757442474365,4.14453125,1,"['A1', 'F1', 'E2']",6.1,90,0.0,0.6493513110781438,[16500|0|0]
165,16500,0.8221631050109863,-0.2132334858179092,-0.0130248731002211,0.1473337411880493,0.3553540408611297,-2.2046568393707275,4.14453125,1,"['A1', 'F1', 'E2']",6.1,90,0.0,0.6498075691998495,[16600|0|0]
166,16600,0.8224440813064575,-0.2135998755693435,-0.0132388388738036,0.1597770750522613,0.3482319712638855,-2.194255113601685,4.13671875,1,"['A1', 'F1', 'E2']",6.1,90,0.0,0.6503164606232765,[16700|0|0]
167,16700,0.8223180770874023,-0.2132828384637832,-0.0131878815591335,0.155428797006607,0.3498055636882782,-2.211459159851074,4.13671875,1,"['A1', 'F1', 'E2']",6.1,90,0.0,0.650661404441079,[16800|0|0]
168,16800,0.8223869800567627,-0.2137798368930816,-0.0131541509181261,0.1637338548898697,0.3375070691108703,-2.196923017501831,4.13671875,1,"['A1', 'F1', 'E2']",6.1,90,0.0,0.6511642889348294,[16900|0|0]
169,16900,0.8224261403083801,-0.2137547582387924,-0.0128426738083362,0.1620618104934692,0.3396037518978119,-2.188847064971924,4.14453125,1,"['A1', 'F1', 'E2']",6.1,90,0.0,0.6514792182191628,[17000|0|0]
170,17000,0.8219213485717773,-0.2136070281267166,-0.0129860462620854,0.1576186567544937,0.3490247428417206,-2.2134034633636475,4.14453125,1,"['A1', 'F1', 'E2']",6.1,90,0.0,0.6520243737417896,[17100|0|0]
171,17100,0.8223887085914612,-0.2134900242090225,-0.0126937590539455,0.1571517288684845,0.3372554183006286,-2.192272186279297,4.14453125,1,"['A1', 'F1', 'E2']",6.1,90,0.0,0.6525878869331142,[17200|0|0]
172,17200,0.8223268389701843,-0.2135465443134308,-0.0130647839978337,0.1645546406507492,0.3432900905609131,-2.1925597190856934,4.14453125,1,"['A1', 'F1', 'E2']",6.1,90,0.0,0.6529682576486359,[17300|0|0]
173,17300,0.8219817280769348,-0.2132508009672165,-0.0133125195279717,0.1596745699644088,0.3528041243553161,-2.209722757339477,4.13671875,1,"['A1', 'F1', 'E2']",6.1,90,0.0,0.6534858854573578,[17400|0|0]
174,17400,0.8222721219062805,-0.2135823518037796,-0.0127669582143425,0.1668208241462707,0.3368071913719177,-2.210326671600342,4.13671875,1,"['A1', 'F1', 'E2']",6.1,90,0.0,0.6541872353559651,[17500|0|0]
175,17500,0.8225257992744446,-0.2135554701089859,-0.0129053322598338,0.1632765084505081,0.3280427753925323,-2.20721435546875,4.13671875,1,"['A1', 'F1', 'E2']",6.1,90,0.0,0.654477445984818,[17600|0|0]
176,17600,0.8220345973968506,-0.213468313217163,-0.0132236815989017,0.1645245999097824,0.3374150097370147,-2.221926212310791,4.13671875,1,"['A1', 'F1', 'E2']",6.1,90,0.0,0.6550692414816149,[17700|0|0]
177,17700,0.8223552107810974,-0.2136510163545608,-0.0129639552906155,0.1732582002878189,0.3252396881580353,-2.2152962684631348,4.13671875,1,"['A1', 'F1', 'E2']",6.1,90,0.0,0.6555204965467268,[17800|0|0]
178,17801,0.8222543001174927,-0.2136890739202499,-0.0129744689911603,0.1777714639902115,0.3288254737854004,-2.221125841140747,4.13671875,1,"['A1', 'F1', 'E2']",6.1,90,0.0,0.6556288564942835,[17900|0|0]
179,17901,0.8221299052238464,-0.2136461734771728,-0.0128490403294563,0.1763892918825149,0.3309673368930816,-2.217195749282837,4.13671875,1,"['A1', 'F1', 'E2']",6.1,90,0.0,0.6558106445212774,[18000|0|0]
180,18001,0.8222006559371948,-0.2134103775024414,-0.0128841418772935,0.1723811775445938,0.3309719264507293,-2.202066421508789,4.13671875,1,"['A1', 'F1', 'E2']",6.1,90,0.0,0.6560593160391467,[18100|0|0]
181,18101,0.8222730755805969,-0.2137532383203506,-0.0128940539434552,0.1763952821493148,0.331470638513565,-2.2060418128967285,4.13671875,1,"['A1', 'F1', 'E2']",6.1,90,0.0,0.6564098818593053,[18200|0|0]
182,18201,0.8223534226417542,-0.2133280336856842,-0.0128545807674527,0.1485849469900131,0.3195441961288452,-2.2131669521331787,4.13671875,1,"['A1', 'F1', 'E2']",6.1,90,0.0,0.656844407765555,[18300|0|0]
183,18301,0.8223689198493958,-0.213299810886383,-0.01310077868402,0.150603175163269,0.3198080956935882,-2.2314767837524414,4.13671875,1,"['A1', 'F1', 'E2']",6.1,90,0.0,0.6570927021552765,[18400|0|0]
184,18401,0.8221805095672607,-0.2135458886623382,-0.01280471496284,0.1630782485008239,0.3256443440914154,-2.22196102142334,4.14453125,1,"['A1', 'F1', 'E2']",6.1,90,0.0,0.657521312039941,[18500|0|0]
185,18501,0.8224529027938843,-0.2135911881923675,-0.0131810875609517,0.1643439978361129,0.3296076655387878,-2.230344533920288,4.13671875,1,"['A1', 'F1', 'E2']",6.1,90,0.0,0.6579881165492815,[18600|0|0]
186,18601,0.822394847869873,-0.2138516753911972,-0.0131787611171603,0.177452266216278,0.3367102444171905,-2.218922615051269,4.13671875,1,"['A1', 'F1', 'E2']",6.1,90,0.0,0.6582550048541896,[18700|0|0]
187,18702,0.8221176266670227,-0.2135194242000579,-0.0128599293529987,0.1737106740474701,0.3509379029273987,-2.1982662677764893,4.14453125,1,"['A1', 'F1', 'E2']",6.1,90,0.0,0.6587924954523973,[18800|0|0]
188,18802,0.822040319442749,-0.2136105000972747,-0.0131524261087179,0.1762295812368393,0.3525013625621795,-2.199179172515869,4.13671875,1,"['A1', 'F1', 'E2']",6.1,90,0.0,0.659108447312789,[18900|0|0]
189,18902,0.822213351726532,-0.2133288532495498,-0.0131295705214142,0.1693447828292846,0.3472874462604522,-2.1924214363098145,4.13671875,1,"['A1', 'F1', 'E2']",6.1,90,0.0,0.6594397892750206,[19000|0|0]
190,19000,0.8224947452545166,-0.2135166525840759,-0.0131517061963677,0.1750188618898391,0.3450706899166107,-2.199998140335083,4.13671875,1,"['A1', 'F1', 'E2']",6.1,90,0.0,0.6597788186185083,[19100|0|0]
191,19100,0.8228620886802673,-0.2135355919599533,-0.0127521259710192,0.1773416697978973,0.3503873646259308,-2.1814327239990234,4.14453125,1,"['A1', 'F1', 'E2']",6.1,90,0.0,0.6603219247305071,[19200|0|0]
192,19200,0.8229289650917053,-0.2133479863405227,-0.0127840116620063,0.1764001548290252,0.3510859608650207,-2.205195188522339,4.13671875,1,"['A1', 'F1', 'E2']",6.1,90,0.0,0.6605236300109002,[19300|0|0]
193,19300,0.822754979133606,-0.2130500674247741,-0.0131945852190256,0.1755013614892959,0.3587666153907776,-2.221752643585205,4.13671875,1,"['A1', 'F1', 'E2']",6.1,90,0.0,0.6610599111309297,[19400|0|0]
194,19400,0.8230028748512268,-0.213221937417984,-0.012864863499999,0.1865975856781005,0.3568039536476135,-2.2125184535980225,4.13671875,1,"['A1', 'F1', 'E2']",6.1,90,0.0,0.6615067981338494,[19500|0|0]
195,19500,0.8229292035102844,-0.2132303565740585,-0.0129395611584186,0.1865266412496566,0.3594354689121246,-2.2329680919647217,4.13671875,1,"['A1', 'F1', 'E2']",6.1,90,0.0,0.6616120506342407,[19600|0|0]
196,19600,0.8227410316467285,-0.2132001519203186,-0.0132879512384533,0.1865822076797485,0.3623124361038208,-2.2350914478302,4.13671875,1,"['A1', 'F1', 'E2']",6.1,90,0.0,0.6620091609705557,[19700|0|0]
197,19700,0.8230000138282776,-0.213428109884262,-0.0128733357414603,0.1912915408611297,0.3594921231269836,-2.23584532737732,4.13671875,1,"['A1', 'F1', 'E2']",6.1,90,0.0,0.6625485519363977,[19800|0|0]
198,19800,0.8227454423904419,-0.2130323499441146,-0.0128632402047514,0.1809398382902145,0.3686844408512115,-2.2210564613342285,4.13671875,1,"['A1', 'F1', 'E2']",6.1,90,0.0,0.6630192264173808,[19900|0|0]
199,19900,0.8227558135986328,-0.2134353220462799,-0.0128094628453254,0.190408706665039,0.3675771355628967,-2.2346229553222656,4.14453125,1,"['A1', 'F1', 'E2']",6.1,90,0.0,0.6634259032933765,[20000|0|0]
200,20000,0.8228033781051636,-0.2133778184652328,-0.0127214482054114,0.1945758163928985,0.3683353066444397,-2.2076454162597656,4.14453125,1,"['A1', 'F1', 'E2']",6.1,90,0.0,0.6635412966248734,[20100|0|0]
201,20100,0.8228293061256409,-0.2134992480278015,-0.0131966322660446,0.1906114965677261,0.3684433996677398,-2.2129530906677246,4.14453125,1,"['A1', 'F1', 'E2']",6.1,90,0.0,0.6640324353958855,[20200|0|0]
202,20200,0.8226827383041382,-0.2131231129169464,-0.0131694581359624,0.188480406999588,0.3757537007331848,-2.221588611602783,4.14453125,1,"['A1', 'F1', 'E2']",6.1,90,0.0,0.664437031714781,[20300|0|0]
203,20300,0.822913408279419,-0.2134339213371276,-0.0132634211331605,0.1976607292890548,0.3728953599929809,-2.2163805961608887,4.13671875,1,"['A1', 'F1', 'E2']",6.1,90,0.0,0.6648353275299662,[20400|0|0]
204,20400,0.8229444026947021,-0.2135056853294372,-0.01265718229115,0.1969507336616516,0.3683279454708099,-2.21937108039856,4.13671875,1,"['A1', 'F1', 'E2']",6.1,90,0.0,0.6654465854607394,[20500|0|0]
205,20500,0.8228952884674072,-0.2135353237390518,-0.0130860144272446,0.1982104182243347,0.3695943057537079,-2.2180635929107666,4.13671875,1,"['A1', 'F1', 'E2']",6.1,90,0.0,0.6658792373341835,[20600|0|0]
206,20600,0.8227776885032654,-0.2133966982364654,-0.0132327144965529,0.2015944570302963,0.369142085313797,-2.202856540679932,4.14453125,1,"['A1', 'F1', 'E2']",6.1,90,0.0,0.6661128346198453,[20700|0|0]
207,20700,0.82279372215271,-0.2134313285350799,-0.0127876577898859,0.1996725797653198,0.3645497560501098,-2.212686538696289,4.13671875,1,"['A1', 'F1', 'E2']",6.1,90,0.0,0.666559524453674,[20800|0|0]
208,20800,0.8229812979698181,-0.2136562615633011,-0.0130253890529274,0.2043793052434921,0.3624628484249115,-2.2195916175842285,4.13671875,1,"['A1', 'F1', 'E2']",6.1,90,0.0,0.6669367454867247,[20900|0|0]
209,20900,0.8228461146354675,-0.2134796530008316,-0.0127518009394407,0.1975883394479751,0.3568080365657806,-2.222798109054565,4.14453125,1,"['A1', 'F1', 'E2']",6.1,90,0.0,0.6672893296242932,[21000|0|0]
210,21000,0.8228967785835266,-0.2136355489492416,-0.0128076756373047,0.2093817889690399,0.3616117238998413,-2.2193875312805176,4.13671875,1,"['A1', 'F1', 'E2']",6.1,90,0.0,0.6674625126610636,[21100|0|0]
211,21100,0.8228175044059753,-0.2134332656860351,-0.013171867467463,0.1952666044235229,0.3573373556137085,-2.204439640045166,4.13671875,1,"['A1', 'F1', 'E2']",6.1,90,0.0,0.6678865864788759,[21200|0|0]
212,21200,0.8226439952850342,-0.2134015709161758,-0.0131440255790948,0.1945849806070327,0.3569665551185608,-2.20691466331482,4.14453125,1,"['A1', 'F1', 'E2']",6.1,90,0.0,0.6680651505968674,[21300|0|0]
213,21300,0.8226586580276489,-0.2133447527885437,-0.0129148242995142,0.1917132139205932,0.3521103858947754,-2.2208080291748047,4.13671875,1,"['A1', 'F1', 'E2']",6.1,90,0.0,0.6683017441771057,[21400|0|0]
214,21400,0.8225938677787781,-0.2132465690374374,-0.0133229652419686,0.1892435252666473,0.3580051064491272,-2.2248454093933105,4.13671875,1,"['A1', 'F1', 'E2']",6.1,90,0.0,0.6687264992291505,[21500|0|0]
215,21500,0.8227041959762573,-0.2134297788143158,-0.0129230823367834,0.1953475177288055,0.3598581552505493,-2.228482246398926,4.13671875,1,"['A1', 'F1', 'E2']",6.1,90,0.0,0.6691799796271417,[21600|0|0]
216,21600,0.8228264451026917,-0.2134837806224823,-0.0128526715561747,0.1973279267549514,0.3548218309879303,-2.21120548248291,4.13671875,1,"['A1', 'F1', 'E2']",6.1,90,0.0,0.6693310382986078,[21700|0|0]
217,21700,0.8229324817657471,-0.2132169604301452,-0.0130460150539875,0.1845302581787109,0.3426378667354584,-2.2335033416748047,4.13671875,1,"['A1', 'F1', 'E2']",6.1,90,0.0,0.6696771863841106,[21800|0|0]
218,21800,0.8224528431892395,-0.2130283117294311,-0.0134120900183916,0.1818708181381225,0.3549811840057373,-2.2066283226013184,4.13671875,1,"['A1', 'F1', 'E2']",6.1,90,0.0,0.6703093670354427,[21900|0|0]
219,21900,0.8226889967918396,-0.2132778614759445,-0.0130376629531383,0.1866962015628814,0.3428946137428283,-2.206904172897339,4.13671875,1,"['A1', 'F1', 'E2']",6.1,90,0.0,0.6708175394738926,[22000|0|0]
220,22000,0.8228946924209595,-0.2135654091835022,-0.013133211992681,0.1891344040632248,0.3357859551906585,-2.186741590499878,4.13671875,1,"['A1', 'F1', 'E2']",6.1,90,0.0,0.6711837689032374,[22100|0|0]
221,22100,0.8228638172149658,-0.2135686129331588,-0.0128882564604282,0.185062438249588,0.3434526324272156,-2.1790804862976074,4.13671875,1,"['A1', 'F1', 'E2']",6.1,90,0.0,0.6714306833725142,[22200|0|0]
222,22200,0.82288658618927,-0.2135157287120819,-0.0130622740834951,0.1830563396215438,0.3451987206935882,-2.222618103027344,4.13671875,1,"['A1', 'F1', 'E2']",6.1,90,0.0,0.671613979035768,[22300|0|0]
223,22300,0.8227744698524475,-0.2133824229240417,-0.0128144361078739,0.1935110390186309,0.3635911047458648,-2.1940126419067383,4.13671875,1,"['A1', 'F1', 'E2']",6.1,90,0.0,0.6719169050469779,[22400|0|0]
224,22400,0.8228241205215454,-0.2135794907808303,-0.0130762495100498,0.1958413422107696,0.3566629886627197,-2.193918466567993,4.13671875,1,"['A1', 'F1', 'E2']",6.1,90,0.0,0.6722483370712001,[22500|0|0]
225,22500,0.8226351737976074,-0.2131827026605606,-0.0133438780903816,0.187722161412239,0.3658227920532226,-2.209441661834717,4.13671875,1,"['A1', 'F1', 'E2']",6.1,90,0.0,0.6727628919602883,[22600|0|0]
226,22600,0.8227502107620239,-0.2130598425865173,-0.0131808435544371,0.1871576607227325,0.3481374979019165,-2.2321135997772217,4.13671875,1,"['A1', 'F1', 'E2']",6.1,90,0.0,0.6729972172915837,[22700|0|0]
227,22700,0.8229149580001831,-0.2132154405117035,-0.0127007802948355,0.1684852093458175,0.3250389397144317,-2.210906505584717,4.13671875,1,"['A1', 'F1', 'E2']",6.1,90,0.0,0.6735280780078009,[22800|0|0]
228,22800,0.8228139877319336,-0.2132775783538818,-0.0129903526976704,0.1434388160705566,0.314653605222702,-2.1958224773406982,4.13671875,1,"['A1', 'F1', 'E2']",6.1,90,0.0,0.6738409810007309,[22900|0|0]
229,22900,0.8226573467254639,-0.2130427807569503,-0.0130852153524756,0.1205385848879814,0.3099115490913391,-2.1960196495056152,4.13671875,1,"['A1', 'F1', 'E2']",6.1,90,0.0,0.6741387480904324,[23000|0|0]
230,23000,0.8227214217185974,-0.2130801230669021,-0.0129878856241703,0.1077535152435302,0.2998487651348114,-2.2086970806121826,4.13671875,1,"['A1', 'F1', 'E2']",6.1,90,0.0,0.6742611128274671,[23100|0|0]
231,23100,0.823287308216095,-0.213443249464035,-0.0127992192283272,0.1188476160168647,0.2817286550998688,-2.22809100151062,4.13671875,1,"['A1', 'F1', 'E2']",6.1,90,0.0,0.674959456093537,[23200|0|0]
232,23200,0.8230733871459961,-0.2131128907203674,-0.0131175760179758,0.1036377549171447,0.2868023812770843,-2.231748580932617,4.13671875,1,"['A1', 'F1', 'E2']",6.1,90,0.0,0.6754656676790082,[23300|0|0]
233,23300,0.8231990337371826,-0.2133893519639969,-0.0127657828852534,0.0961236283183097,0.2774207890033722,-2.2015750408172607,4.13671875,1,"['A1', 'F1', 'E2']",6.1,90,0.0,0.6759304001755442,[23400|0|0]
234,23400,0.8231915235519409,-0.213274747133255,-0.0129675902426242,0.0912088453769683,0.2797170579433441,-2.20620059967041,4.13671875,1,"['A1', 'F1', 'E2']",6.1,90,0.0,0.6761626002608171,[23500|0|0]
235,23500,0.8228722810745239,-0.213166132569313,-0.0130496174097061,0.0864548981189727,0.2933688759803772,-2.19843864440918,4.13671875,1,"['A1', 'F1', 'E2']",6.1,90,0.0,0.6765096468557105,[23600|0|0]
236,23600,0.8227670788764954,-0.2131279408931732,-0.0129956034943461,0.0872213467955589,0.3010323047637939,-2.2075860500335693,4.13671875,1,"['A1', 'F1', 'E2']",6.1,90,0.0,0.6766339191762365,[23700|0|0]
237,23700,0.8227440118789673,-0.2131158858537674,-0.0129260476678609,0.0946418270468711,0.3054206371307373,-2.2241599559783936,4.13671875,1,"['A1', 'F1', 'E2']",6.1,90,0.0,0.6767081850725016,[23800|0|0]
238,23800,0.823181688785553,-0.2132965624332428,-0.0130208190530538,0.098375104367733,0.3004077076911926,-2.210064649581909,4.13671875,1,"['A1', 'F1', 'E2']",6.1,90,0.0,0.6771910791772293,[23900|0|0]
239,23900,0.8226646780967712,-0.2128528654575348,-0.0131425643339753,0.0898210331797599,0.3130451738834381,-2.205824851989746,4.13671875,1,"['A1', 'F1', 'E2']",6.1,90,0.0,0.6778831694690219,[24000|0|0]
240,24000,0.8230226039886475,-0.2134086638689041,-0.0130826765671372,0.1052691340446472,0.2977169752120971,-2.1822071075439453,4.13671875,1,"['A1', 'F1', 'E2']",6.1,90,0.0,0.6785469535926442,[24100|0|0]
241,24100,0.8229585886001587,-0.2130970507860183,-0.0131325526162981,0.097195379436016,0.2956784665584564,-2.188148021697998,4.13671875,1,"['A1', 'F1', 'E2']",6.1,90,0.0,0.6788689602752904,[24200|0|0]
242,24200,0.8234044313430786,-0.2132082134485244,-0.013086948543787,0.1117565557360649,0.300860196352005,-2.2006871700286865,4.14453125,1,"['A1', 'F1', 'E2']",6.1,90,0.0,0.6793307097965456,[24300|0|0]
243,24300,0.8232862949371338,-0.2130267173051834,-0.0131993358954787,0.1085560694336891,0.3086543083190918,-2.2276546955108643,4.13671875,1,"['A1', 'F1', 'E2']",6.1,90,0.0,0.6795746933559866,[24400|0|0]
244,24400,0.8233740925788879,-0.2129334509372711,-0.0129660936072468,0.1017773747444152,0.3086943626403808,-2.228087902069092,4.13671875,1,"['A1', 'F1', 'E2']",6.1,90,0.0,0.679840792973237,[24500|0|0]
245,24500,0.8235304951667786,-0.2133067697286605,-0.0131703494116663,0.1126041337847709,0.3021418452262878,-2.2170724868774414,4.13671875,1,"['A1', 'F1', 'E2']",6.1,90,0.0,0.6802941682296664,[24600|0|0]
246,24600,0.8235754370689392,-0.2131042778491974,-0.0130719281733036,0.1012192368507385,0.2914060950279236,-2.213503360748291,4.14453125,1,"['A1', 'F1', 'E2']",6.1,90,0.0,0.6805237536734106,[24700|0|0]
247,24700,0.8234487175941467,-0.2130644917488098,-0.0130017399787902,0.1010672375559806,0.2950873076915741,-2.2003438472747803,4.13671875,1,"['A1', 'F1', 'E2']",6.1,90,0.0,0.680673977312445,[24800|0|0]
248,24800,0.8236523270606995,-0.2133604884147644,-0.0128258299082517,0.115627720952034,0.2923171520233154,-2.207144021987915,4.13671875,1,"['A1', 'F1', 'E2']",6.1,90,0.0,0.6810739963045479,[24900|0|0]
249,24900,0.8230721354484558,-0.2128963023424148,-0.0130894733592867,0.103342093527317,0.3196383118629455,-2.212496519088745,4.14453125,1,"['A1', 'F1', 'E2']",6.1,90,0.0,0.6818624117318163,[25000|0|0]
250,25000,0.823418140411377,-0.2132164388895034,-0.0132165132090449,0.1094885617494583,0.3110899031162262,-2.23237943649292,4.14453125,1,"['A1', 'F1', 'E2']",6.1,90,0.0,0.6823506186209263,[25100|0|0]
251,25100,0.8233868479728699,-0.2130831778049469,-0.0130471875891089,0.1036224067211151,0.314939022064209,-2.2478249073028564,4.13671875,1,"['A1', 'F1', 'E2']",6.1,90,0.0,0.6825683544676112,[25200|0|0]
252,25200,0.8232381343841553,-0.212903618812561,-0.0131404502317309,0.1121784225106239,0.3250235021114349,-2.259526491165161,4.13671875,1,"['A1', 'F1', 'E2']",6.1,90,0.0,0.682819462181001,[25300|0|0]
253,25300,0.8232080340385437,-0.2130740731954574,-0.0129418624565005,0.110973984003067,0.3269203007221222,-2.251448631286621,4.13671875,1,"['A1', 'F1', 'E2']",6.1,90,0.0,0.6830828968634661,[25400|0|0]
254,25400,0.8237819075584412,-0.2131839990615844,-0.0131987547501921,0.1140000894665718,0.3130275905132293,-2.244835376739502,4.13671875,1,"['A1', 'F1', 'E2']",6.1,90,0.0,0.683721182194209,[25500|0|0]
255,25500,0.8227893114089966,-0.2132284343242645,-0.0127695584669709,0.1540580093860626,0.3639895319938659,-2.239835023880005,4.13671875,1,"['A1', 'F1', 'E2']",6.1,90,0.0,0.6848035088814862,[25600|0|0]
256,25600,0.823035478591919,-0.2134802639484405,-0.0129055045545101,0.1284986734390258,0.3315577208995819,-2.2288410663604736,4.13671875,1,"['A1', 'F1', 'E2']",6.1,90,0.0,0.6851809976631444,[25700|0|0]
257,25700,0.8231144547462463,-0.2134082466363906,-0.012832854874432,0.1087306812405586,0.319097638130188,-2.2421224117279053,4.13671875,1,"['A1', 'F1', 'E2']",6.1,90,0.0,0.6853102327288297,[25800|0|0]
258,25800,0.822699248790741,-0.2133075147867202,-0.0126816444098949,0.0984383523464202,0.3168961107730865,-2.2172062397003174,4.13671875,1,"['A1', 'F1', 'E2']",6.1,90,0.0,0.6857634517659528,[25900|0|0]
259,25900,0.8226655125617981,-0.2130317687988281,-0.0130398897454142,0.1287857741117477,0.3437165021896362,-2.231796264648437,4.13671875,1,"['A1', 'F1', 'E2']",6.1,90,0.0,0.6862167879584228,[26000|0|0]
260,26000,0.8230152726173401,-0.2130141109228134,-0.0134256407618522,0.151788592338562,0.3534601032733917,-2.2590537071228027,4.13671875,1,"['A1', 'F1', 'E2']",6.1,90,0.0,0.6867377944302838,[26100|0|0]
261,26100,0.8230955600738525,-0.2134734541177749,-0.0128420712426304,0.1808736473321914,0.3621951937675476,-2.218361616134644,4.13671875,1,"['A1', 'F1', 'E2']",6.1,90,0.0,0.6874847854812312,[26200|0|0]
262,26200,0.8229382038116455,-0.2130209356546402,-0.0130539881065487,0.1732101887464523,0.3684145510196686,-2.2219042778015137,4.13671875,1,"['A1', 'F1', 'E2']",6.1,90,0.0,0.6880086582806267,[26300|0|0]
263,26300,0.8230276107788086,-0.2132320702075958,-0.0130687979981303,0.1825670748949051,0.3667065799236297,-2.19643497467041,4.13671875,1,"['A1', 'F1', 'E2']",6.1,90,0.0,0.6882384206320199,[26400|0|0]
264,26400,0.8226532340049744,-0.2133232355117797,-0.0130069442093372,0.1898148655891418,0.3829468786716461,-2.2007627487182617,4.13671875,1,"['A1', 'F1', 'E2']",6.1,90,0.0,0.6886286705169161,[26500|0|0]
265,26500,0.8229436278343201,-0.2136092036962509,-0.0126210553571581,0.2037477493286132,0.3763263523578644,-2.220992088317871,4.13671875,1,"['A1', 'F1', 'E2']",6.1,90,0.0,0.6891899338997302,[26600|0|0]
266,26600,0.8230568766593933,-0.2132426798343658,-0.0133204590529203,0.200612723827362,0.3808110654354095,-2.249669313430786,4.13671875,1,"['A1', 'F1', 'E2']",6.1,90,0.0,0.6899876372075817,[26700|0|0]
267,26700,0.8230659365653992,-0.2134212702512741,-0.0130080310627818,0.2117303758859634,0.38532754778862,-2.248706340789795,4.13671875,1,"['A1', 'F1', 'E2']",6.1,90,0.0,0.6903476203570905,[26800|0|0]
268,26800,0.822963535785675,-0.2133948057889938,-0.0132545866072177,0.2100066542625427,0.3913388550281524,-2.2301127910614014,4.13671875,1,"['A1', 'F1', 'E2']",6.1,90,0.0,0.6906159036475579,[26900|0|0]
269,26900,0.8230485320091248,-0.213276207447052,-0.0127809783443808,0.2118078023195266,0.3861417472362518,-2.243149280548096,4.13671875,1,"['A1', 'F1', 'E2']",6.1,90,0.0,0.6911114787794395,[27000|0|0]
270,27000,0.8226304650306702,-0.2132089138031005,-0.0133583955466747,0.2161387205123901,0.4006826877593994,-2.241724729537964,4.13671875,1,"['A1', 'F1', 'E2']",6.1,90,0.0,0.6918275228133475,[27100|0|0]
271,27100,0.8224999308586121,-0.213103175163269,-0.013081956654787,0.2135833948850631,0.3977850079536438,-2.244152784347534,4.13671875,1,"['A1', 'F1', 'E2']",6.1,90,0.0,0.6921510012376302,[27200|0|0]
272,27200,0.8228392004966736,-0.2132692337036132,-0.0127680981531739,0.2147341668605804,0.3831364214420318,-2.2324211597442627,4.13671875,1,"['A1', 'F1', 'E2']",6.1,90,0.0,0.6926421086445856,[27300|0|0]
273,27300,0.8227379322052002,-0.2131862789392471,-0.0131523590534925,0.2051709294319152,0.3814712166786194,-2.2422261238098145,4.13671875,1,"['A1', 'F1', 'E2']",6.1,90,0.0,0.6930480559309452,[27400|0|0]
274,27400,0.8227823376655579,-0.2134600728750229,-0.0130417225882411,0.2125567197799682,0.3818174600601196,-2.259197950363159,4.13671875,1,"['A1', 'F1', 'E2']",6.1,90,0.0,0.6933466784210903,[27500|0|0]
275,27500,0.8227977752685547,-0.2134197056293487,-0.0130059830844402,0.2086028754711151,0.3733687698841095,-2.224888324737549,4.13671875,1,"['A1', 'F1', 'E2']",6.1,90,0.0,0.6934027600245047,[27600|0|0]
276,27600,0.8228532671928406,-0.2135669291019439,-0.0127512039616703,0.2014766633510589,0.3710069954395294,-2.21001935005188,4.13671875,1,"['A1', 'F1', 'E2']",6.1,90,0.0,0.6937022036852213,[27700|0|0]
277,27700,0.8230504393577576,-0.2135041356086731,-0.0127369491383433,0.193010926246643,0.3672139942646026,-2.216792345046997,4.13671875,1,"['A1', 'F1', 'E2']",6.1,90,0.0,0.6939096237551357,[27800|0|0]
278,27800,0.8228170871734619,-0.2134717851877212,-0.0128403082489967,0.1841551810503006,0.3693642914295196,-2.2200405597686768,4.13671875,1,"['A1', 'F1', 'E2']",6.1,90,0.0,0.6941668841240353,[27900|0|0]
279,27900,0.8229867815971375,-0.2134527862071991,-0.0128724435344338,0.1750468462705612,0.361065536737442,-2.228355646133423,4.13671875,1,"['A1', 'F1', 'E2']",6.1,90,0.0,0.6943406363477839,[28000|0|0]
280,28000,0.822888195514679,-0.2135322391986847,-0.0126180406659841,0.1772512644529342,0.3618533015251159,-2.227795362472534,4.13671875,1,"['A1', 'F1', 'E2']",6.1,90,0.0,0.6946248067420651,[28100|0|0]
281,28100,0.8227673768997192,-0.2132560610771179,-0.0131860077381134,0.1697921901941299,0.3622063100337982,-2.2259249687194824,4.13671875,1,"['A1', 'F1', 'E2']",6.1,90,0.0,0.6952678138085706,[28200|0|0]
282,28200,0.8227975964546204,-0.2133762687444687,-0.0129696745425462,0.1824193298816681,0.3697137832641601,-2.218379020690918,4.13671875,1,"['A1', 'F1', 'E2']",6.1,90,0.0,0.6955171392109921,[28300|0|0]
283,28300,0.822812020778656,-0.2135854810476303,-0.0128356525674462,0.1820697486400604,0.3639439344406128,-2.2238481044769287,4.13671875,1,"['A1', 'F1', 'E2']",6.1,90,0.0,0.6957660161659875,[28400|0|0]
284,28400,0.8228527903556824,-0.2132448256015777,-0.0132144596427679,0.1700191795825958,0.3589327931404114,-2.2090234756469727,4.13671875,1,"['A1', 'F1', 'E2']",6.1,90,0.0,0.6962770964841861,[28500|0|0]
285,28500,0.8230873346328735,-0.213291198015213,-0.0126788895577192,0.1720221936702728,0.3525690138339996,-2.20497465133667,4.13671875,1,"['A1', 'F1', 'E2']",6.1,90,0.0,0.6968636088324862,[28600|0|0]
286,28600,0.8228961825370789,-0.2133012562990188,-0.0127682397142052,0.1702151894569397,0.3547503650188446,-2.199321746826172,4.13671875,1,"['A1', 'F1', 'E2']",6.1,90,0.0,0.6970748521596326,[28700|0|0]
287,28700,0.8227092623710632,-0.2132816463708877,-0.0127729550004005,0.1710447072982788,0.3603885769844055,-2.2062578201293945,4.13671875,1,"['A1', 'F1', 'E2']",6.1,90,0.0,0.6972628572969787,[28800|0|0]
288,28800,0.8228476643562317,-0.213370218873024,-0.0131837669759988,0.1745423525571823,0.3609900772571563,-2.2433552742004395,4.13671875,1,"['A1', 'F1', 'E2']",6.1,90,0.0,0.6977053125793838,[28900|0|0]
289,28900,0.8226833939552307,-0.2135348320007324,-0.0129471560940146,0.1761467605829239,0.3604588806629181,-2.2381393909454346,4.13671875,1,"['A1', 'F1', 'E2']",6.1,90,0.0,0.6980370759829297,[29000|0|0]
290,29000,0.8229307532310486,-0.2135081440210342,-0.0132711641490459,0.177540972828865,0.3535040020942688,-2.220544576644897,4.13671875,1,"['A1', 'F1', 'E2']",6.1,90,0.0,0.6984455855658267,[29100|0|0]
291,29100,0.8233620524406433,-0.2132405042648315,-0.0129713006317615,0.1679295152425766,0.3540226817131042,-2.2156238555908203,4.13671875,1,"['A1', 'F1', 'E2']",6.1,90,0.0,0.6990351346954974,[29200|0|0]
292,29200,0.8233513236045837,-0.2130497097969055,-0.0130710881203413,0.1658217161893844,0.3525115251541137,-2.25894546508789,4.13671875,1,"['A1', 'F1', 'E2']",6.1,90,0.0,0.6992507157238635,[29300|0|0]
293,29300,0.8234913945198059,-0.2131237238645553,-0.0131613537669181,0.1668838262557983,0.3455259203910827,-2.268357276916504,4.13671875,1,"['A1', 'F1', 'E2']",6.1,90,0.0,0.6994330501157188,[29400|0|0]
294,29400,0.8234208822250366,-0.2133159339427948,-0.0130232172086834,0.177986666560173,0.3514609932899475,-2.2541959285736084,4.13671875,1,"['A1', 'F1', 'E2']",6.1,90,0.0,0.6996800286706812,[29500|0|0]
295,29500,0.8232171535491943,-0.2131378352642059,-0.013075259514153,0.1742438375949859,0.3569037020206451,-2.2402167320251465,4.13671875,1,"['A1', 'F1', 'E2']",6.1,90,0.0,0.6999555879460362,[29600|0|0]
296,29600,0.8234190344810486,-0.2129386216402053,-0.0132724978029727,0.1656848341226577,0.3554324507713318,-2.2431654930114746,4.13671875,1,"['A1', 'F1', 'E2']",6.1,90,0.0,0.7003010512888243,[29700|0|0]
