,time.ms,stateEstimate.x,stateEstimate.y,stateEstimate.z,stabilizer.roll,stabilizer.pitch,stabilizer.yaw,pm.vbat,drone_id,node_name,wind_speed,global_wind_direction,relative_wind_direction,travel_dist,waiting_time
0,0,0.7895406484603882,-0.7897777557373047,0.0086228959262371,0.2990752160549164,-0.25920370221138,-7.993529796600342,4.1640625,2,G1,6.1,90,450.0,0.0,[6200|0|0|0]
1,100,0.7896250486373901,-0.7894392609596252,0.0086660450324416,0.2797340750694275,-0.2573028802871704,-8.010233879089355,4.16015625,2,G1,6.1,90,450.0,0.000351516642224,[6300|0|0|0]
2,200,0.7892084121704102,-0.7894958853721619,0.0081938775256276,0.2665278911590576,-0.2480955570936203,-7.996211528778076,4.16015625,2,G1,6.1,90,450.0,0.0009837621832946,[6400|0|0|0]
3,300,0.7894831299781799,-0.7896122932434082,0.0083169229328632,0.2591342628002167,-0.2528099715709686,-8.005464553833008,4.16015625,2,G1,6.1,90,450.0,0.0013065017666055,[6500|0|0|0]
4,400,0.7893879413604736,-0.7896851897239685,0.0086867474019527,0.2508754432201385,-0.2533069550991058,-7.994275093078613,4.16015625,2,G1,6.1,90,450.0,0.0016952753610744,[6600|0|0|0]
5,500,0.789391040802002,-0.7893152236938477,0.008400828577578,0.2327193170785904,-0.2482264041900634,-7.977750301361084,4.16015625,2,G1,6.1,90,450.0,0.0021628585559317,[6700|0|0|0]
6,600,0.7891753315925598,-0.7894608378410339,0.0084147602319717,0.2299164831638336,-0.2378746122121811,-7.992266178131103,4.1640625,2,G1,6.1,90,450.0,0.0024234886269003,[6800|0|0|0]
7,700,0.7891785502433777,-0.789517879486084,0.0084662782028317,0.2325785011053085,-0.24527208507061,-8.005138397216797,4.16015625,2,G1,6.1,90,450.0,0.0025004185320389,[6900|0|0|0]
8,800,0.7896671295166016,-0.7897170782089233,0.0086462460458278,0.2357487380504608,-0.2625836133956909,-8.02885913848877,4.16015625,2,G1,6.1,90,450.0,0.0030578934300544,[7000|0|0|0]
9,900,0.7892785668373108,-0.7895039916038513,0.0085960794240236,0.2397975772619247,-0.2449127435684204,-8.028359413146973,4.16015625,2,G1,6.1,90,450.0,0.0035038794690086,[7100|0|0|0]
10,1000,0.7894331216812134,-0.7896811366081238,0.0084055373445153,0.2434782981872558,-0.2506025731563568,-8.055839538574219,4.16015625,2,G1,6.1,90,450.0,0.0038064911614062,[7200|0|0|0]
11,1100,0.7894222140312195,-0.7895065546035767,0.0084873614832758,0.2364804297685623,-0.2496834695339203,-8.058342933654785,4.16015625,2,G1,6.1,90,450.0,0.0039996052282786,[7300|0|0|0]
12,1200,0.7894310355186462,-0.7895299792289734,0.0086702583357691,0.2436506301164627,-0.2459853291511535,-8.0226411819458,4.1640625,2,G1,6.1,90,450.0,0.0041842069356579,[7400|0|0|0]
13,1300,0.7895535826683044,-0.7893590927124023,0.008600159548223,0.2385521680116653,-0.245044469833374,-8.006918907165527,4.1640625,2,G1,6.1,90,450.0,0.0044058684917531,[7500|0|0|0]
14,1400,0.7892240285873413,-0.7895017862319946,0.0084334434941411,0.2374297678470611,-0.2318701297044754,-8.000450134277344,4.16015625,2,G1,6.1,90,450.0,0.004801799767989,[7600|0|0|0]
15,1500,0.7895520925521851,-0.7897786498069763,0.0085925217717885,0.2429773211479187,-0.2383355647325515,-8.01380443572998,4.1640625,2,G1,6.1,90,450.0,0.0052596046419254,[7700|0|0|0]
16,1600,0.7893965840339661,-0.7895082831382751,0.0083245877176523,0.2325670272111892,-0.2374615967273712,-7.99920129776001,4.16015625,2,G1,6.1,90,450.0,0.0056707854928281,[7800|0|0|0]
17,1700,0.7894864678382874,-0.7898240685462952,0.0085556264966726,0.237775444984436,-0.2421915829181671,-8.050115585327148,4.16015625,2,G1,6.1,90,450.0,0.0060722558399383,[7900|0|0|0]
18,1800,0.7895757555961609,-0.7895514369010925,0.0083676166832447,0.2295320630073547,-0.2456339448690414,-8.048789024353027,4.1640625,2,G1,6.1,90,450.0,0.0064152543933131,[8000|0|0|0]
19,1900,0.789409875869751,-0.7896767258644104,0.0087705161422491,0.2385132610797882,-0.2458325326442718,-8.027202606201172,4.16015625,2,G1,6.1,90,450.0,0.006868621112459,[8100|0|0|0]
20,2000,0.7894519567489624,-0.7895565032958984,0.0084729716181755,0.235707625746727,-0.2491468042135238,-8.05033016204834,4.16015625,2,G1,6.1,90,450.0,0.007192282988776,[8200|0|0|0]
21,2100,0.7895601391792297,-0.7896711230278015,0.0085721220821142,0.2355372160673141,-0.2504846751689911,-8.042001724243164,4.16015625,2,G1,6.1,90,450.0,0.0073784870050037,[8300|0|0|0]
22,2200,0.7894510626792908,-0.7896144986152649,0.0086596738547086,0.2315899282693863,-0.2529380023479461,-8.031777381896973,4.1640625,2,G1,6.1,90,450.0,0.007529382067277,[8400|0|0|0]
23,2300,0.7891402840614319,-0.7893226146697998,0.0080493036657571,0.2250825017690658,-0.2420372366905212,-8.045042991638184,4.16015625,2,G1,6.1,90,450.0,0.0082739163878421,[8500|0|0|0]
24,2400,0.7894493937492371,-0.7894708514213562,0.0082855615764856,0.2317204028367996,-0.2490785419940948,-8.055092811584473,4.16015625,2,G1,6.1,90,450.0,0.0086902584755402,[8600|0|0|0]
25,2500,0.7894861698150635,-0.7895326614379883,0.0086042592301964,0.2338149696588516,-0.2553390264511108,-8.068910598754883,4.16015625,2,G1,6.1,90,450.0,0.0090169711193948,[8700|0|0|0]
26,2600,0.7894608378410339,-0.7896320819854736,0.0087367873638868,0.2322752475738525,-0.2560859322547912,-8.064326286315918,4.16015625,2,G1,6.1,90,450.0,0.0091845714188873,[8800|0|0|0]
27,2700,0.7899309992790222,-0.7893487215042114,0.0085457758978009,0.2197300940752029,-0.263526439666748,-8.078783988952637,4.16015625,2,G1,6.1,90,450.0,0.0097658031457301,[8900|0|0|0]
28,2800,0.7896726131439209,-0.7895380854606628,0.0085564386099576,0.2299380153417587,-0.2505102753639221,-8.085512161254883,4.16015625,2,G1,6.1,90,450.0,0.0100863273979265,[9000|0|0|0]
29,2900,0.7894299626350403,-0.7895680069923401,0.0086877066642045,0.2317045181989669,-0.2414403706789016,-8.087188720703125,4.16015625,2,G1,6.1,90,450.0,0.0103638267124909,[9100|0|0|0]
30,3001,0.7893805503845215,-0.7893331050872803,0.0081077562645077,0.2260765582323074,-0.2348713874816894,-8.071467399597168,4.16015625,2,G1,6.1,90,450.0,0.010991491385394,[9200|0|0|0]
31,3100,0.7894656658172607,-0.7893947958946228,0.008459297940135,0.2282338291406631,-0.248599961400032,-8.064042091369629,4.16015625,2,G1,6.1,90,450.0,0.0113584136418787,[9300|0|0|0]
32,3200,0.7891916632652283,-0.7895172238349915,0.0082055544480681,0.2323465049266815,-0.2501789927482605,-8.063582420349121,4.16015625,2,G1,6.1,90,450.0,0.0117514171518751,[9400|0|0|0]
33,3301,0.7896630167961121,-0.7894856929779053,0.0089199347421526,0.227660596370697,-0.2569597065448761,-8.05038833618164,4.1640625,2,G1,6.1,90,450.0,0.0126078677053815,[9500|0|0|0]
34,3401,0.7896212339401245,-0.7895508408546448,0.0084356153383851,0.2380525767803192,-0.2479071468114853,-8.065169334411621,4.16015625,2,G1,6.1,90,450.0,0.0130983321156743,[9600|0|0|0]
35,3501,0.7893797159194946,-0.7895457148551941,0.0082522006705403,0.2402506172657013,-0.2359241098165512,-8.069314956665039,4.16015625,2,G1,6.1,90,450.0,0.0134016441176458,[9700|0|0|0]
36,3601,0.7894228100776672,-0.7894530296325684,0.008324141614139,0.2376603186130523,-0.2385348230600357,-8.052010536193848,4.1640625,2,G1,6.1,90,450.0,0.0135266367427389,[9800|0|0|0]
37,3701,0.7895071506500244,-0.7895864248275757,0.008889066055417,0.2362248003482818,-0.2400463670492172,-8.061737060546875,4.1640625,2,G1,6.1,90,450.0,0.0141131921404209,[9900|0|0|0]
38,3800,0.7894407510757446,-0.7893725037574768,0.0084927473217248,0.2317022234201431,-0.2380995601415634,-8.026788711547852,4.16015625,2,G1,6.1,90,450.0,0.0145684279764138,[10000|0|0|0]
39,3901,0.7891744375228882,-0.7894241809844971,0.0083177108317613,0.2312355637550354,-0.2419765889644622,-8.030580520629883,4.16015625,2,G1,6.1,90,450.0,0.0148912765741284,[10100|0|0|0]
40,4001,0.7894418239593506,-0.7896230816841125,0.0082829669117927,0.2352745980024337,-0.2546368241310119,-8.057435989379883,4.16015625,2,G1,6.1,90,450.0,0.0152263349790168,[10200|0|0|0]
41,4100,0.7895084023475647,-0.7895938158035278,0.0087445378303527,0.2375622391700744,-0.259028673171997,-8.056443214416504,4.16015625,2,G1,6.1,90,450.0,0.0156936003066454,[10300|0|0|0]
42,4200,0.789508581161499,-0.7896705269813538,0.0086742313578724,0.2394172698259353,-0.2647199034690857,-8.063529968261719,4.16015625,2,G1,6.1,90,450.0,0.015797656238002,[10400|0|0|0]
43,4300,0.789633572101593,-0.789583146572113,0.0086054038256406,0.2353874891996383,-0.2618861794471741,-8.085095405578613,4.16015625,2,G1,6.1,90,450.0,0.0159649741994341,[10500|0|0|0]
44,4400,0.7896748185157776,-0.7899202108383179,0.0087214922532439,0.2361510246992111,-0.2573465704917907,-8.08738899230957,4.16015625,2,G1,6.1,90,450.0,0.0163238475883315,[10600|0|0|0]
45,4500,0.7895863652229309,-0.7896541953086853,0.008442873135209,0.2323377281427383,-0.2444712966680526,-8.063097953796387,4.16015625,2,G1,6.1,90,450.0,0.0167190903744208,[10700|0|0|0]
46,4600,0.7898550033569336,-0.7895419001579285,0.0086454777047038,0.2257431596517563,-0.2548154890537262,-8.094720840454102,4.16015625,2,G1,6.1,90,450.0,0.0170738089382205,[10800|0|0|0]
47,4700,0.7893304824829102,-0.7895558476448059,0.0082841422408819,0.2292177528142929,-0.2429327964782714,-8.077736854553223,4.16015625,2,G1,6.1,90,450.0,0.017710896057139,[10900|0|0|0]
48,4800,0.7894537448883057,-0.7897824645042419,0.0086680892854928,0.2338519543409347,-0.2499893456697464,-8.05980110168457,4.16015625,2,G1,6.1,90,450.0,0.0181734586525031,[11000|0|0|0]
49,4900,0.7893823981285095,-0.7896655797958374,0.0083065154030919,0.2257881164550781,-0.2458192706108093,-8.060002326965332,4.16015625,2,G1,6.1,90,450.0,0.0185600955204124,[11100|0|0|0]
50,5000,0.7894879579544067,-0.789584755897522,0.0083775008097291,0.2217114865779876,-0.244745671749115,-8.06199836730957,4.16015625,2,G1,6.1,90,450.0,0.0187108081852346,[11200|0|0|0]
51,5100,0.7895904779434204,-0.7899356484413147,0.0086824391037225,0.2273963838815689,-0.2467680722475052,-8.053664207458496,4.16015625,2,G1,6.1,90,450.0,0.0191868578555215,[11300|0|0|0]
52,5200,0.7896257042884827,-0.7896250486373901,0.0086740972474217,0.2201994061470031,-0.2396194040775299,-8.065791130065918,4.16015625,2,G1,6.1,90,450.0,0.0194995601422911,[11400|0|0|0]
53,5300,0.7894870042800903,-0.7895100712776184,0.0086833219975233,0.2177859991788864,-0.2344772070646286,-8.05852222442627,4.16015625,2,G1,6.1,90,450.0,0.0196799557675223,[11500|0|0|0]
54,5400,0.789549708366394,-0.7896753549575806,0.0085235852748155,0.222650334239006,-0.241565853357315,-8.057670593261719,4.16015625,2,G1,6.1,90,450.0,0.0199182125992868,[11600|0|0|0]
55,5500,0.7895156145095825,-0.7897024750709534,0.0085155488923192,0.2250233143568039,-0.2449028491973877,-8.080602645874023,4.16015625,2,G1,6.1,90,450.0,0.0199625124307229,[11700|0|0|0]
56,5600,0.7893680334091187,-0.7897006869316101,0.0082143284380435,0.2272211760282516,-0.2496912181377411,-8.073973655700684,4.16015625,2,G1,6.1,90,450.0,0.020297948178267,[11800|0|0|0]
57,5700,0.7894850969314575,-0.789705216884613,0.0085438694804906,0.2310333997011184,-0.2585420310497284,-8.081136703491211,4.16015625,2,G1,6.1,90,450.0,0.0206476933532069,[11900|0|0|0]
58,5800,0.7895973324775696,-0.7897032499313354,0.0081234360113739,0.2308620065450668,-0.261023461818695,-8.061210632324219,4.16015625,2,G1,6.1,90,450.0,0.0210828542299752,[12000|0|0|0]
59,5900,0.7895025610923767,-0.7895234227180481,0.0084563875570893,0.2207233309745788,-0.2521203756332397,-8.051348686218262,4.16015625,2,G1,6.1,90,450.0,0.0214729518765771,[12100|0|0|0]
60,6000,0.7895467877388,-0.7894880771636963,0.0087995221838355,0.2186085283756256,-0.2573089897632599,-8.049800872802734,4.16015625,2,G1,6.1,90,450.0,0.0218207257636626,[12200|0|0|0]
61,6100,0.789421796798706,-0.7896777987480164,0.0087097454816102,0.2257848083972931,-0.2508799135684967,-8.059060096740723,4.16015625,2,G1,6.1,90,450.0,0.0220650142630336,[12300|0|0|0]
62,6200,0.7894474864006042,-0.7894803285598755,0.0084397420287132,0.2215259075164795,-0.2520088851451874,-8.047070503234863,4.16015625,2,G1,6.1,90,450.0,0.0224005083694295,[12400|0|0|0]
63,6300,0.7894558310508728,-0.7897832989692688,0.0088587179780006,0.2340757995843887,-0.254192590713501,-8.047295570373535,4.16015625,2,G1,6.1,90,450.0,0.0229176172053986,[12500|0|0|0]
64,6400,0.7894777655601501,-0.7895443439483643,0.0082621313631534,0.2231347113847732,-0.2518719136714935,-8.06248950958252,4.16015625,2,G1,6.1,90,450.0,0.0235606539179801,[12600|0|0|0]
65,6500,0.7893170714378357,-0.7895588278770447,0.008340211585164,0.226627692580223,-0.2510732412338257,-8.06873893737793,4.16015625,2,G1,6.1,90,450.0,0.0237398992978526,[12700|0|0|0]
66,6600,0.7892639636993408,-0.7895523309707642,0.0081671373918652,0.2217344045639038,-0.2539996802806854,-8.056640625,4.16015625,2,G1,6.1,90,450.0,0.0239210548058155,[12800|0|0|0]
67,6700,0.7892001867294312,-0.7894288897514343,0.0084338020533323,0.2243756502866745,-0.2515750229358673,-8.049847602844238,4.16015625,2,G1,6.1,90,450.0,0.0242217461395713,[12900|0|0|0]
68,6800,0.7896193265914917,-0.7894034385681152,0.0086122304201126,0.2279385328292846,-0.2578885555267334,-8.046618461608887,4.16015625,2,G1,6.1,90,450.0,0.024677994612196,[13000|0|0|0]
69,6900,0.7896246314048767,-0.7896407246589661,0.0086380597203969,0.234757512807846,-0.2564643621444702,-8.055702209472656,4.16015625,2,G1,6.1,90,450.0,0.0249167413037113,[13100|0|0|0]
70,7000,0.7892728447914124,-0.7893217206001282,0.0084244441241025,0.2300748229026794,-0.2464910298585891,-8.027788162231445,4.16015625,2,G1,6.1,90,450.0,0.0254374610305779,[13200|0|0|0]
71,7100,0.7893921732902527,-0.7896610498428345,0.0083914063870906,0.2395396828651428,-0.2604606747627258,-8.029574394226074,4.16015625,2,G1,6.1,90,450.0,0.025798674426866,[13300|0|0|0]
72,7200,0.7891945242881775,-0.7895481586456299,0.0084612164646387,0.2292658984661102,-0.2596153020858764,-8.021851539611816,4.16015625,2,G1,6.1,90,450.0,0.026036756339986,[13400|0|0|0]
73,7300,0.7896609306335449,-0.7899906039237976,0.0087235895916819,0.2316010594367981,-0.2795938849449157,-8.035999298095703,4.16015625,2,G1,6.1,90,450.0,0.0267311138566633,[13500|0|0|0]
74,7400,0.7891609072685242,-0.7895435094833374,0.0083739450201392,0.2171226143836975,-0.2563745975494385,-8.047070503234863,4.16015625,2,G1,6.1,90,450.0,0.0274875318169646,[13600|0|0|0]
75,7500,0.7896485924720764,-0.7896552085876465,0.0087843863293528,0.2247711569070816,-0.2709426581859588,-8.029828071594238,4.16015625,2,G1,6.1,90,450.0,0.0281346605645691,[13700|0|0|0]
76,7600,0.7894719243049622,-0.7897547483444214,0.0087552452459931,0.2275075018405914,-0.2625839412212372,-8.017884254455566,4.16015625,2,G1,6.1,90,450.0,0.0283395239512191,[13800|0|0|0]
77,7700,0.7895830273628235,-0.789779543876648,0.0088236853480339,0.2243881374597549,-0.268237292766571,-8.025189399719238,4.16015625,2,G1,6.1,90,450.0,0.0284723499857601,[13900|0|0|0]
78,7800,0.7894150614738464,-0.7898159623146057,0.0084113869816064,0.2289499789476394,-0.2633557021617889,-8.043931007385254,4.16015625,2,G1,6.1,90,450.0,0.0289190364366873,[14000|0|0|0]
79,7900,0.7895035147666931,-0.7895869016647339,0.0086649162694811,0.2289100736379623,-0.266871839761734,-8.045768737792969,4.16015625,2,G1,6.1,90,450.0,0.0292719810019456,[14100|0|0|0]
80,8000,0.7894608378410339,-0.78975510597229,0.008666462264955,0.2409207969903946,-0.25858935713768,-8.04992961883545,4.16015625,2,G1,6.1,90,450.0,0.0294455217728502,[14200|0|0|0]
81,8100,0.7895165085792542,-0.7896891236305237,0.00838612485677,0.2384684681892395,-0.2608153522014618,-8.042905807495117,4.16015625,2,G1,6.1,90,450.0,0.0297388508763276,[14300|0|0|0]
82,8200,0.7891777157783508,-0.7893316149711609,0.0081278150901198,0.2416139841079712,-0.2475846260786056,-8.024555206298828,4.16015625,2,G1,6.1,90,450.0,0.0302950135674623,[14400|0|0|0]
83,8300,0.7895008325576782,-0.7898090481758118,0.008590992540121,0.2592628896236419,-0.2508522868156433,-8.052672386169434,4.16015625,2,G1,6.1,90,450.0,0.0310345271022781,[14500|0|0|0]
84,8400,0.7895074486732483,-0.7897706627845764,0.0085603492334485,0.2572986185550689,-0.2576979398727417,-8.035188674926758,4.16015625,2,G1,6.1,90,450.0,0.0310840874038243,[14600|0|0|0]
85,8500,0.7893856763839722,-0.789668619632721,0.0087488638237118,0.2569474875926971,-0.2542870640754699,-8.02341079711914,4.16015625,2,G1,6.1,90,450.0,0.0313306214704729,[14700|0|0|0]
86,8600,0.7895030975341797,-0.7898257970809937,0.0085287671536207,0.2576939165592193,-0.2676732242107391,-8.057156562805176,4.16015625,2,G1,6.1,90,450.0,0.0316254689241617,[14800|0|0|0]
87,8700,0.7894955277442932,-0.7895928621292114,0.0087720658630132,0.253087043762207,-0.2595662176609039,-8.038750648498535,4.16015625,2,G1,6.1,90,450.0,0.0319623817548357,[14900|0|0|0]
88,8800,0.7894684672355652,-0.7897675037384033,0.0087747257202863,0.2546785175800323,-0.2596852779388428,-8.044394493103027,4.16015625,2,G1,6.1,90,450.0,0.0321391274411606,[15000|0|0|0]
89,8900,0.7893696427345276,-0.789484977722168,0.0082389572635293,0.2478790283203125,-0.250981330871582,-8.042001724243164,4.16015625,2,G1,6.1,90,450.0,0.032752833454746,[15100|0|0|0]
90,9000,0.7892701625823975,-0.7894136309623718,0.0084881782531738,0.236051857471466,-0.2430403083562851,-8.051729202270508,4.16015625,2,G1,6.1,90,450.0,0.0330304982931405,[15200|0|0|0]
91,9100,0.7892500758171082,-0.7895134687423706,0.0083797750994563,0.2377820909023285,-0.2401157468557357,-8.028129577636719,4.16015625,2,G1,6.1,90,450.0,0.0331792339788073,[15300|0|0|0]
92,9200,0.7896479964256287,-0.7898476123809814,0.0086350431665778,0.2370599806308746,-0.2479706406593322,-8.041356086730957,4.16015625,2,G1,6.1,90,450.0,0.0337581593349642,[15400|0|0|0]
93,9300,0.789531409740448,-0.7898344993591309,0.0086134765297174,0.2348913699388504,-0.2426921874284744,-8.059134483337402,4.16015625,2,G1,6.1,90,450.0,0.0338774469132317,[15500|0|0|0]
94,9400,0.7892166972160339,-0.7895568013191223,0.0082469172775745,0.2244946211576461,-0.2340713739395141,-8.065176010131836,4.16015625,2,G1,6.1,90,450.0,0.0344346953854407,[15600|0|0|0]
95,9500,0.7894544005393982,-0.789738118648529,0.0085797104984521,0.2275883257389068,-0.2462373971939087,-8.067266464233398,4.16015625,2,G1,6.1,90,450.0,0.0348820544937013,[15700|0|0|0]
96,9600,0.7893394231796265,-0.7895692586898804,0.0081647802144289,0.2275055795907974,-0.2421050816774368,-8.069404602050781,4.16015625,2,G1,6.1,90,450.0,0.0353445484066282,[15800|0|0|0]
97,9700,0.7893359661102295,-0.7897006869316101,0.0083498563617467,0.2283887267112732,-0.2401767522096634,-8.070626258850098,4.16015625,2,G1,6.1,90,450.0,0.0355715693623988,[15900|0|0|0]
98,9800,0.7893115878105164,-0.7894555926322937,0.0080171097069978,0.2235302925109863,-0.2421695739030838,-8.059261322021484,4.16015625,2,G1,6.1,90,450.0,0.0359855571077499,[16000|0|0|0]
99,9900,0.7893284559249878,-0.7894616723060608,0.0085054812952876,0.2240452915430069,-0.246407151222229,-8.062370300292969,4.16015625,2,G1,6.1,90,450.0,0.0364742577359136,[16100|0|0|0]
100,10000,0.7895830273628235,-0.7898592352867126,0.0084787812083959,0.2329376190900802,-0.2563554048538208,-8.03494930267334,4.16015625,2,G1,6.1,90,450.0,0.036947095800357,[16200|0|0|0]
101,10100,0.7894420623779297,-0.7894575595855713,0.0081660831347107,0.2216047644615173,-0.2513788938522339,-8.040810585021973,4.16015625,2,G1,6.1,90,450.0,0.0374752951766724,[16300|0|0|0]
102,10200,0.7896341681480408,-0.7896389365196228,0.0086991656571626,0.2224694639444351,-0.2627951502799988,-8.049347877502441,4.16015625,2,G1,6.1,90,450.0,0.0380702566837126,[16400|0|0|0]
103,10300,0.7893835306167603,-0.7894952297210693,0.0081702694296836,0.2228386849164962,-0.2557806074619293,-8.05066204071045,4.16015625,2,G1,6.1,90,450.0,0.0386729191393861,[16500|0|0|0]
104,10400,0.7893783450126648,-0.789686381816864,0.0088128335773944,0.2295730710029602,-0.2558530867099762,-8.0606689453125,4.16015625,2,G1,6.1,90,450.0,0.0393433329654218,[16600|0|0|0]
105,10500,0.7895523905754089,-0.7897833585739136,0.0086360070854425,0.226273164153099,-0.266282320022583,-8.0867338180542,4.16015625,2,G1,6.1,90,450.0,0.0396097235763201,[16700|0|0|0]
106,10600,0.7896651029586792,-0.7898702025413513,0.0088281976059079,0.2303991764783859,-0.2695519626140594,-8.093063354492188,4.16015625,2,G1,6.1,90,450.0,0.0398488535664501,[16800|0|0|0]
107,10700,0.7896214127540588,-0.7896823287010193,0.0085220048204064,0.2284678369760513,-0.2642920613288879,-8.073675155639648,4.16015625,2,G1,6.1,90,450.0,0.040210736746156,[16900|0|0|0]
108,10800,0.7896088361740112,-0.789727509021759,0.0087222857400774,0.2266390025615692,-0.259475439786911,-8.059176445007324,4.16015625,2,G1,6.1,90,450.0,0.0404164352598407,[17000|0|0|0]
109,10900,0.7892408967018127,-0.7896884083747864,0.0083568496629595,0.2258868515491485,-0.2508854866027832,-8.072433471679688,4.16015625,2,G1,6.1,90,450.0,0.0409364851057735,[17100|0|0|0]
110,11000,0.789395272731781,-0.7898171544075012,0.0085184704512357,0.2354733198881149,-0.2550960779190063,-8.088550567626953,4.16015625,2,G1,6.1,90,450.0,0.0411944168385471,[17200|0|0|0]
111,11100,0.789182722568512,-0.7892938256263733,0.0081914467737078,0.2246370315551757,-0.24893119931221,-8.059857368469238,4.16015625,2,G1,6.1,90,450.0,0.041847099817279,[17300|0|0|0]
112,11200,0.7893668413162231,-0.7897260785102844,0.0085937986150383,0.2353925555944442,-0.2557818591594696,-8.017105102539062,4.16015625,2,G1,6.1,90,450.0,0.0424656701634243,[17400|0|0|0]
113,11300,0.7891070246696472,-0.7895707488059998,0.0082447109743952,0.231088787317276,-0.250284731388092,-8.011706352233887,4.16015625,2,G1,6.1,90,450.0,0.042927724475947,[17500|0|0|0]
114,11400,0.7892829775810242,-0.7895188927650452,0.0081896586343646,0.2264317572116851,-0.252334326505661,-8.025880813598633,4.16015625,2,G1,6.1,90,450.0,0.0431192427156746,[17600|0|0|0]
115,11500,0.7892864346504211,-0.7895320653915405,0.0081461602821946,0.2237618565559387,-0.2504020929336548,-8.019770622253418,4.16015625,2,G1,6.1,90,450.0,0.043164823150722,[17700|0|0|0]
116,11600,0.7894450426101685,-0.7895458340644836,0.0082521913573145,0.2214744538068771,-0.2524251639842987,-8.021493911743164,4.16015625,2,G1,6.1,90,450.0,0.0433561047497871,[17800|0|0|0]
117,11700,0.7893711924552917,-0.7895129919052124,0.0081912809982895,0.218667060136795,-0.2494198381900787,-8.028329849243164,4.16015625,2,G1,6.1,90,450.0,0.043457310108526,[17900|0|0|0]
118,11800,0.7893967032432556,-0.7897874116897583,0.0085531044751405,0.2263584583997726,-0.2466915547847747,-8.038957595825195,4.16015625,2,G1,6.1,90,450.0,0.0439121433162553,[18000|0|0|0]
119,11900,0.789396345615387,-0.7895412445068359,0.0084836576133966,0.218435987830162,-0.2417878806591034,-8.064030647277832,4.16015625,2,G1,6.1,90,450.0,0.0441679191486783,[18100|0|0|0]
120,12000,0.7895423173904419,-0.7897151708602905,0.0084458068013191,0.2194209694862365,-0.2406651377677917,-8.072587966918945,4.16015625,2,G1,6.1,90,450.0,0.0443981164977369,[18200|0|0|0]
121,12100,0.7895781993865967,-0.7896877527236938,0.008737688884139,0.2203153073787689,-0.2397339642047882,-8.057059288024902,4.16015625,2,G1,6.1,90,450.0,0.0446934712372177,[18300|0|0|0]
122,12200,0.7894667387008667,-0.7893567681312561,0.0084397867321968,0.21014304459095,-0.2355506718158722,-8.032876014709473,4.16015625,2,G1,6.1,90,450.0,0.0451525136938885,[18400|0|0|0]
123,12300,0.7895611524581909,-0.7894866466522217,0.0085597550496459,0.2184595465660095,-0.2355331182479858,-8.045007705688477,4.16015625,2,G1,6.1,90,450.0,0.0453529501800178,[18500|0|0|0]
124,12400,0.7896143794059753,-0.7897355556488037,0.0087025044485926,0.2269341498613357,-0.2414606213569641,-8.027384757995605,4.16015625,2,G1,6.1,90,450.0,0.0456447826447121,[18600|0|0|0]
125,12500,0.7895940542221069,-0.7895398736000061,0.0088478466495871,0.2237573117017746,-0.2363964915275573,-8.030708312988281,4.16015625,2,G1,6.1,90,450.0,0.0458893821800977,[18700|0|0|0]
126,12600,0.7896971702575684,-0.7896686792373657,0.0086498027667403,0.2311648875474929,-0.2360433489084243,-8.030287742614746,4.16015625,2,G1,6.1,90,450.0,0.0461471518224491,[18800|0|0|0]
127,12700,0.7894840836524963,-0.789766788482666,0.0085298689082264,0.2362501770257949,-0.2358604222536087,-8.02053451538086,4.16015625,2,G1,6.1,90,450.0,0.0464106199527657,[18900|0|0|0]
128,12800,0.7895470857620239,-0.7897261381149292,0.0086389305070042,0.2353135645389557,-0.235127568244934,-8.062186241149902,4.16015625,2,G1,6.1,90,450.0,0.0465429685475071,[19000|0|0|0]
129,12900,0.7894431948661804,-0.7898297905921936,0.0086767235770821,0.2436600476503372,-0.2340586483478546,-8.07863712310791,4.16015625,2,G1,6.1,90,450.0,0.046694512173002,[19100|0|0|0]
130,13000,0.7894319891929626,-0.7895990610122681,0.0083905644714832,0.2388181388378143,-0.2407468110322952,-8.067002296447754,4.16015625,2,G1,6.1,90,450.0,0.0470622739707489,[19200|0|0|0]
131,13100,0.7894105315208435,-0.7898157835006714,0.0084151644259691,0.2370355874300003,-0.2420447319746017,-8.09083366394043,4.16015625,2,G1,6.1,90,450.0,0.0472814410906214,[19300|0|0|0]
132,13200,0.789402961730957,-0.7897487282752991,0.008607042953372,0.2328268885612487,-0.242843359708786,-8.083003997802734,4.16015625,2,G1,6.1,90,450.0,0.0474848398965347,[19400|0|0|0]
133,13300,0.7893097996711731,-0.7895587682723999,0.0081368712708354,0.2295156419277191,-0.2414532005786895,-8.058438301086426,4.16015625,2,G1,6.1,90,450.0,0.0480004224632919,[19500|0|0|0]
134,13400,0.7893301844596863,-0.7895830869674683,0.0085960933938622,0.2286882251501083,-0.2465846836566925,-8.07541275024414,4.16015625,2,G1,6.1,90,450.0,0.0484607396330888,[19600|0|0|0]
135,13500,0.7893969416618347,-0.7896194458007812,0.0084170494228601,0.2369237542152404,-0.2440398782491684,-8.059309005737305,4.16015625,2,G1,6.1,90,450.0,0.0486552524407668,[19700|0|0|0]
136,13600,0.7893540263175964,-0.7895263433456421,0.0085037304088473,0.2347329705953598,-0.2444957643747329,-8.035845756530762,4.16015625,2,G1,6.1,90,450.0,0.0487895036502799,[19800|0|0|0]
137,13700,0.7894637584686279,-0.7896270155906677,0.008352493867278,0.2362871319055557,-0.2520799934864044,-8.030860900878906,4.16015625,2,G1,6.1,90,450.0,0.0490017500575389,[19900|0|0|0]
138,13800,0.7895291447639465,-0.7897648215293884,0.0084128221496939,0.2373597919940948,-0.2527865767478943,-8.023405075073242,4.16015625,2,G1,6.1,90,450.0,0.0491657785490318,[20000|0|0|0]
139,13900,0.7895558476448059,-0.7896008491516113,0.0086213471367955,0.2271306961774826,-0.2467688024044037,-8.033254623413086,4.16015625,2,G1,6.1,90,450.0,0.0494323918547121,[20100|0|0|0]
140,14000,0.7895633578300476,-0.7897025346755981,0.008344960398972,0.2232232540845871,-0.2498676478862762,-8.035369873046875,4.16015625,2,G1,6.1,90,450.0,0.0497269864532973,[20200|0|0|0]
141,14100,0.789656400680542,-0.7898514270782471,0.0087698772549629,0.2295421212911605,-0.251485526561737,-8.043601989746094,4.16015625,2,G1,6.1,90,450.0,0.0501867475370134,[20300|0|0|0]
142,14200,0.7892969846725464,-0.7894400358200073,0.0083425333723425,0.2159483283758163,-0.2426823228597641,-8.039644241333008,4.16015625,2,G1,6.1,90,450.0,0.0508803219224781,[20400|0|0|0]
143,14300,0.7895632386207581,-0.7899357080459595,0.0088071795180439,0.221618115901947,-0.2467624992132187,-8.042336463928223,4.16015625,2,G1,6.1,90,450.0,0.051610032934615,[20500|0|0|0]
144,14400,0.7893468141555786,-0.7896990776062012,0.0082872845232486,0.2134830057621002,-0.2446715831756591,-8.038516998291016,4.16015625,2,G1,6.1,90,450.0,0.0522208719639522,[20600|0|0|0]
145,14500,0.7894540429115295,-0.789767861366272,0.0086361896246671,0.2116914093494415,-0.2497664839029312,-8.033798217773438,4.16015625,2,G1,6.1,90,450.0,0.052592306994002,[20700|0|0|0]
146,14600,0.7895612120628357,-0.7896389365196228,0.0084937680512666,0.2135570049285888,-0.2554987668991089,-8.029619216918945,4.16015625,2,G1,6.1,90,450.0,0.0528122859649176,[20800|0|0|0]
147,14700,0.7894647121429443,-0.789543092250824,0.008116508834064,0.2139724791049957,-0.2515856623649597,-8.008441925048828,4.16015625,2,G1,6.1,90,450.0,0.0532133132400061,[20900|0|0|0]
148,14800,0.789554238319397,-0.789455235004425,0.0087662925943732,0.2137922793626785,-0.2484305053949356,-8.037558555603027,4.16015625,2,G1,6.1,90,450.0,0.0538750932390818,[21000|0|0|0]
149,14900,0.7896152138710022,-0.7895577549934387,0.0083880489692091,0.2171357721090316,-0.2465535402297973,-8.033391952514648,4.16015625,2,G1,6.1,90,450.0,0.0542716996006271,[21100|0|0|0]
150,15000,0.789794385433197,-0.7894765138626099,0.0086090322583913,0.2168806195259094,-0.252444177865982,-8.0374755859375,4.16015625,2,G1,6.1,90,450.0,0.0545675647458123,[21200|0|0|0]
151,15100,0.7897116541862488,-0.789454996585846,0.0086993128061294,0.227400466799736,-0.2517971992492676,-8.011645317077637,4.16015625,2,G1,6.1,90,450.0,0.0546918950708373,[21300|0|0|0]
152,15200,0.7896084785461426,-0.7896860837936401,0.0086179058998823,0.2404704540967941,-0.2516649961471557,-8.032520294189453,4.16015625,2,G1,6.1,90,450.0,0.0549577401285348,[21400|0|0|0]
153,15300,0.7894576191902161,-0.7895633578300476,0.0087545691058039,0.2392311543226242,-0.2396944612264633,-8.022236824035645,4.16015625,2,G1,6.1,90,450.0,0.0551954311869763,[21500|0|0|0]
154,15400,0.7895693182945251,-0.7895321846008301,0.0087794624269008,0.2334489673376083,-0.25004443526268,-8.040849685668945,4.16015625,2,G1,6.1,90,450.0,0.0553140403668847,[21600|0|0|0]
155,15500,0.789688766002655,-0.789599597454071,0.0086238086223602,0.2328271865844726,-0.253078818321228,-8.077045440673828,4.16015625,2,G1,6.1,90,450.0,0.0555215020612466,[21700|0|0|0]
156,15600,0.7894256114959717,-0.7898530960083008,0.0084757972508668,0.2414598166942596,-0.2478915899991989,-8.054615020751953,4.16015625,2,G1,6.1,90,450.0,0.0559157344514376,[21800|0|0|0]
157,15700,0.7893788814544678,-0.7898578643798828,0.0083455620333552,0.2398342341184616,-0.2518595159053802,-8.03868579864502,4.16015625,2,G1,6.1,90,450.0,0.0560541817194742,[21900|0|0|0]
158,15800,0.7894425988197327,-0.7895640134811401,0.0084878802299499,0.2310281693935394,-0.2585143744945526,-8.017364501953125,4.16015625,2,G1,6.1,90,450.0,0.0563868417898315,[22000|0|0|0]
159,15900,0.789397656917572,-0.7897566556930542,0.0086334077641367,0.2326738536357879,-0.2584694623947143,-8.037830352783203,4.16015625,2,G1,6.1,90,450.0,0.056632420819041,[22100|0|0|0]
160,16000,0.7896277904510498,-0.7896799445152283,0.0084303459152579,0.2276789247989654,-0.2676579356193542,-8.043389320373535,4.16015625,2,G1,6.1,90,450.0,0.0569487753077154,[22200|0|0|0]
161,16100,0.7891491055488586,-0.7896347045898438,0.0082447882741689,0.231578916311264,-0.2515130341053009,-8.03541088104248,4.16015625,2,G1,6.1,90,450.0,0.0574641562586644,[22300|0|0|0]
162,16200,0.7894673347473145,-0.789824903011322,0.0087274275720119,0.2302507907152176,-0.2522400319576263,-8.035019874572754,4.16015625,2,G1,6.1,90,450.0,0.0580727496813244,[22400|0|0|0]
163,16300,0.7895969152450562,-0.7897174954414368,0.0087489867582917,0.2245450764894485,-0.2490406930446624,-8.020309448242188,4.16015625,2,G1,6.1,90,450.0,0.0582424325914147,[22500|0|0|0]
164,16400,0.7894444465637207,-0.7895232439041138,0.0085067301988601,0.221350759267807,-0.2412133663892746,-7.994576454162598,4.16015625,2,G1,6.1,90,450.0,0.0585883640862632,[22600|0|0|0]
165,16500,0.7893731594085693,-0.7898141145706177,0.008714479394257,0.2282322198152542,-0.2361767292022705,-8.001029014587402,4.16015625,2,G1,6.1,90,450.0,0.0589528463647214,[22700|0|0|0]
166,16600,0.7895618677139282,-0.7897065877914429,0.0085434522479772,0.2314060181379318,-0.2364050596952438,-8.001391410827637,4.16015625,2,G1,6.1,90,450.0,0.0592292936788985,[22800|0|0|0]
167,16700,0.7893995046615601,-0.7897584438323975,0.0083904666826128,0.2262968868017196,-0.2299277931451797,-8.014925956726074,4.16015625,2,G1,6.1,90,450.0,0.0594583251024361,[22900|0|0|0]
168,16800,0.7895846962928772,-0.7896535396575928,0.0083968108519911,0.2216354012489318,-0.2347097992897033,-8.031546592712402,4.16015625,2,G1,6.1,90,450.0,0.0596712595399666,[23000|0|0|0]
169,16900,0.7896528244018555,-0.789490282535553,0.0088921850547194,0.2246937006711959,-0.2302947044372558,-7.994233131408691,4.16015625,2,G1,6.1,90,450.0,0.0601972727792091,[23100|0|0|0]
170,17000,0.7895440459251404,-0.7897051572799683,0.0084540350362658,0.2232095301151275,-0.2294743806123733,-8.030010223388672,4.16015625,2,G1,6.1,90,450.0,0.0606972521302376,[23200|0|0|0]
171,17100,0.7895427346229553,-0.7897123098373413,0.0086929239332675,0.2206216752529144,-0.2265828102827072,-8.022591590881348,4.16015625,2,G1,6.1,90,450.0,0.060936251677729,[23300|0|0|0]
172,17200,0.7895081639289856,-0.7894117832183838,0.0083496235311031,0.2161150574684143,-0.2287609726190567,-7.960129261016846,4.16015625,2,G1,6.1,90,450.0,0.06139381757212,[23400|0|0|0]
173,17300,0.7892587780952454,-0.7894364595413208,0.0083589861169457,0.2105953097343444,-0.229292020201683,-7.971232414245605,4.16015625,2,G1,6.1,90,450.0,0.0616445961058857,[23500|0|0|0]
174,17400,0.7893353700637817,-0.789549708366394,0.0081604029983282,0.1973231434822082,-0.2348703145980835,-8.024802207946777,4.16015625,2,G1,6.1,90,450.0,0.0618856912759422,[23600|0|0|0]
175,17500,0.7893574833869934,-0.7892491221427917,0.0082590095698833,0.1953854113817215,-0.2418930530548095,-7.955204486846924,4.16015625,2,G1,6.1,90,450.0,0.0622028100751907,[23700|0|0|0]
176,17600,0.7896208763122559,-0.7897223830223083,0.0087651088833808,0.200745090842247,-0.2593368887901306,-7.958775043487549,4.16015625,2,G1,6.1,90,450.0,0.062944084793687,[23800|0|0|0]
177,17700,0.7893840670585632,-0.7894901037216187,0.0088296979665756,0.1984868645668029,-0.253648430109024,-7.971049785614014,4.16015625,2,G1,6.1,90,450.0,0.0632820256847187,[23900|0|0|0]
178,17800,0.7895423769950867,-0.789512038230896,0.0087488749995827,0.2009067088365554,-0.2520214915275574,-7.997935771942139,4.16015625,2,G1,6.1,90,450.0,0.0634611220573588,[24000|0|0|0]
179,17900,0.7893249988555908,-0.7895025014877319,0.0082586109638214,0.2031488269567489,-0.2478789985179901,-7.982260704040527,4.16015625,2,G1,6.1,90,450.0,0.0639975016149128,[24100|0|0|0]
180,18000,0.7894012928009033,-0.7894629836082458,0.0087830368429422,0.2030298262834549,-0.2557699680328369,-7.972836494445801,4.16015625,2,G1,6.1,90,450.0,0.0645289194651795,[24200|0|0|0]
181,18100,0.7895334959030151,-0.7894026041030884,0.0087635572999715,0.2008965015411377,-0.2526035904884338,-7.9778337478637695,4.16015625,2,G1,6.1,90,450.0,0.064675557787065,[24300|0|0|0]
182,18200,0.7898367047309875,-0.7895514369010925,0.0083783231675624,0.2059159576892852,-0.2585610747337341,-7.986668586730957,4.16015625,2,G1,6.1,90,450.0,0.0651878976468213,[24400|0|0|0]
183,18300,0.7895163893699646,-0.7895547747612,0.0087942611426115,0.2103441953659057,-0.2485580891370773,-7.999619483947754,4.16015625,2,G1,6.1,90,450.0,0.065712890476206,[24500|0|0|0]
184,18400,0.7895406484603882,-0.7894408702850342,0.0088028963655233,0.2065226435661316,-0.2487134337425232,-8.00948715209961,4.16015625,2,G1,6.1,90,450.0,0.0658296693280307,[24600|0|0|0]
185,18500,0.789252758026123,-0.789042055606842,0.008112009614706,0.2016601264476776,-0.2347483336925506,-7.984583854675293,4.16015625,2,G1,6.1,90,450.0,0.0666777604505746,[24700|0|0|0]
186,18601,0.7894681096076965,-0.7895907163619995,0.0088757742196321,0.2110296040773391,-0.2519854605197906,-7.990128993988037,4.16015625,2,G1,6.1,90,450.0,0.0676425097960909,[24800|0|0|0]
187,18700,0.7897428870201111,-0.7894085645675659,0.0089469105005264,0.2100212126970291,-0.255267471075058,-7.973946571350098,4.16015625,2,G1,6.1,90,450.0,0.0679797667797815,[24900|0|0|0]
188,18800,0.789537787437439,-0.7891492247581482,0.0084969578310847,0.2049540281295776,-0.2526180446147918,-7.951953411102295,4.16015625,2,G1,6.1,90,450.0,0.0685381397557562,[25000|0|0|0]
189,18901,0.7895326614379883,-0.789617121219635,0.0087678646668791,0.2137254774570465,-0.2582924664020538,-7.991814136505127,4.16015625,2,G1,6.1,90,450.0,0.069078828102424,[25100|0|0|0]
190,19001,0.7895238995552063,-0.7891787886619568,0.00848048646003,0.2037072926759719,-0.2527866065502167,-7.998040199279785,4.16015625,2,G1,6.1,90,450.0,0.0696030403070534,[25200|0|0|0]
191,19101,0.789371907711029,-0.7893568873405457,0.008624686859548,0.2117213308811187,-0.2476173490285873,-7.962392330169678,4.16015625,2,G1,6.1,90,450.0,0.0698780210613485,[25300|0|0|0]
192,19201,0.7896040081977844,-0.7895042300224304,0.0087237879633903,0.2180708646774292,-0.256448894739151,-7.948914051055908,4.16015625,2,G1,6.1,90,450.0,0.0701702564641316,[25400|0|0|0]
193,19301,0.7893616557121277,-0.7892868518829346,0.0084261279553174,0.2140340358018875,-0.250543862581253,-7.935803413391113,4.16015625,2,G1,6.1,90,450.0,0.0706113794211863,[25500|0|0|0]
194,19402,0.7894386053085327,-0.7893155813217163,0.0085988352075219,0.2139591723680496,-0.2524454295635223,-7.956671237945557,3.162109375,2,E2,6.1,90,450.0,0.0708026238093487,[25500|0|0|0]
195,19502,0.7898946404457092,-0.7892518639564514,0.0097192972898483,-0.1237791776657104,0.7966281175613403,-7.040299892425537,3.521484375,2,E2,6.1,90,450.0,0.0720140127753325,[25500|0|0|0]
196,19601,0.7875014543533325,-0.7837896347045898,0.0322692431509494,-2.1313419342041016,8.380849838256836,-4.660002708435059,3.7421875,2,E2,6.1,90,450.0,0.0953391782926708,[25500|0|0|0]
197,19701,0.7741735577583313,-0.7696462273597717,0.0817810744047164,-0.7007261514663696,3.5307388305664062,-2.894345283508301,3.75390625,2,E2,6.1,90,450.0,0.1485283711148033,[25500|0|0|0]
198,19802,0.7568387389183044,-0.7500948905944824,0.1460833102464676,-0.4599012732505798,0.3355949521064758,-1.55696439743042,3.763671875,2,E2,6.1,90,450.0,0.2179367873751856,[25500|0|0|0]
199,19900,0.7439783215522766,-0.7312366962432861,0.2199171036481857,2.006320714950561,-2.641406774520874,0.0538496039807796,3.76953125,2,E2,6.1,90,450.0,0.2952184208795539,[25500|0|0|0]
200,20002,0.7368667721748352,-0.7129487991333008,0.2934060394763946,4.753478050231934,-2.769695520401001,1.7681270837783811,3.763671875,2,E2,6.1,90,450.0,0.3712818483885468,[25500|0|0|0]
201,20102,0.7350868582725525,-0.7003116011619568,0.3694480955600738,4.432924747467041,-1.864535450935364,1.103088617324829,3.7578125,2,E2,6.1,90,450.0,0.4483873680320839,[25500|0|0|0]
202,20200,0.7358388304710388,-0.6940999627113342,0.4474588930606842,3.7072036266326895,0.260109931230545,-0.1315826028585434,3.763671875,2,E2,6.1,90,450.0,0.526648689520478,[25500|0|0|0]
203,20302,0.7326808571815491,-0.6905723810195923,0.533643901348114,2.276768207550049,1.0678002834320068,-0.2912274599075317,3.76953125,2,E2,6.1,90,450.0,0.6129636492979893,[25500|0|0|0]
204,20402,0.7324104905128479,-0.693444550037384,0.6115179657936096,1.953384280204773,1.6205769777297974,0.1142054796218872,3.76953125,2,E2,6.1,90,450.0,0.6908911307551974,[25500|0|0|0]
205,20500,0.7286356687545776,-0.6985850930213928,0.6994429230690002,0.7053999900817871,1.212573766708374,0.1623285412788391,3.76953125,2,E2,6.1,90,450.0,0.7790470867273064,[25500|0|0|0]
206,20600,0.7220785617828369,-0.7051482796669006,0.7902542948722839,0.327739417552948,1.2990237474441528,0.2973410785198211,3.763671875,2,E2,6.1,90,450.0,0.8703311287038581,[25500|0|0|0]
207,20700,0.7135007381439209,-0.7116000652313232,0.882805585861206,-0.1983662545680999,0.5476316213607788,0.2826855182647705,3.810546875,2,E2,6.1,90,450.0,0.9635027234045274,[25500|0|0|0]
208,20800,0.7033385634422302,-0.7178717255592346,0.9727334976196288,-0.6722524762153625,-0.3277812898159027,-0.0160656683146953,3.837890625,2,E2,6.1,90,450.0,1.054220047169986,[25500|0|0|0]
209,20900,0.695114254951477,-0.7237889766693115,1.053242564201355,-0.3608795702457428,-1.5317226648330688,-0.4592548608779907,3.84765625,2,E2,6.1,90,450.0,1.135364134525206,[25500|0|0|0]
210,21000,0.6870553493499756,-0.7294928431510925,1.118442177772522,-0.2501878142356872,-1.8738335371017456,4.721929550170898,3.837890625,2,E2,6.1,90,450.0,1.2013070618348531,[25500|0|0|0]
211,21100,0.6798222064971924,-0.7336564660072327,1.167330265045166,-0.4751569032669067,-1.8058902025222776,7.715452194213867,3.826171875,2,E2,6.1,90,450.0,1.2509024163349935,[25500|0|0|0]
212,21200,0.684127926826477,-0.7294450402259827,1.2054376602172852,0.0335964858531951,-1.636207938194275,8.352784156799316,3.81640625,2,E2,6.1,90,450.0,1.2894828375544287,[25500|0|0|0]
213,21300,0.6808775067329407,-0.7333537340164185,1.229731202125549,-0.2365486174821853,-1.0486032962799072,8.047709465026855,3.806640625,2,E2,6.1,90,450.0,1.314302573580028,[25500|0|0|0]
214,21400,0.6791530847549438,-0.737127423286438,1.2461801767349243,-0.0728184208273887,-0.4650471806526184,7.340330600738525,3.794921875,2,E2,6.1,90,450.0,1.331266745459749,[25500|0|0|0]
215,21500,0.6766178011894226,-0.741159200668335,1.2560914754867554,0.0491150803864002,-0.6184996366500854,6.685397624969482,3.7890625,2,E2,6.1,90,450.0,1.3422629600158056,[25500|0|0|0]
216,21600,0.675538957118988,-0.744679868221283,1.2619402408599854,0.3336304426193237,-0.6380471587181091,6.1018147468566895,3.78515625,2,E2,6.1,90,450.0,1.349174331872231,[25500|0|0|0]
217,21700,0.67400723695755,-0.7476920485496521,1.264820218086243,0.6527414917945862,-0.5703041553497314,5.297451019287109,3.779296875,2,E2,6.1,90,450.0,1.3536143392829605,[25500|0|0|0]
218,21800,0.6737343668937683,-0.7548611760139465,1.267208218574524,0.8706750273704529,-0.70073401927948,-2.526599645614624,3.7734375,2,E2,6.1,90,450.0,1.3611756482306914,[25500|0|0|0]
219,21900,0.6740416884422302,-0.7620725631713867,1.2691959142684937,0.4982720911502838,-0.3496530652046203,-6.35838794708252,3.7734375,2,E2,6.1,90,450.0,1.3686622686591936,[25500|0|0|0]
220,22000,0.6720449924468994,-0.7723802924156189,1.2714444398880005,-0.5436140894889832,-0.5937241911888123,-6.462601184844971,3.779296875,2,E2,6.1,90,450.0,1.379399677309876,[25500|0|0|0]
221,22100,0.6719598174095154,-0.7823952436447144,1.27429461479187,-1.232155203819275,-0.7529568076133728,-3.746606111526489,3.78515625,2,E2,6.1,90,450.0,1.3898126499829797,[25500|0|0|0]
222,22200,0.6727174520492554,-0.7909033298492432,1.2757236957550049,-2.0885651111602783,-0.9470568895339966,-0.8263276815414429,3.78515625,2,E2,6.1,90,450.0,1.3984731241911406,[25500|0|0|0]
223,22300,0.6759567856788635,-0.796533465385437,1.275810718536377,-2.417277812957764,-0.8227498531341553,1.011501431465149,3.779296875,2,E2,6.1,90,450.0,1.404969221595298,[25500|0|0|0]
224,22400,0.6805064678192139,-0.798957884311676,1.2741554975509644,-2.3095998764038086,-0.4558248817920685,1.732021689414978,3.837890625,2,E2,6.1,90,28.0,1.4103837549287146,[25500|0|0|0]
225,22500,0.6864185333251953,-0.8059003949165344,1.2654258012771606,-13.21953296661377,-12.363299369812012,-1.0830366611480713,3.837890625,2,E2,6.1,90,28.0,1.4230074853234296,[25500|0|0|0]
226,22600,0.7056920528411865,-0.7832497954368591,1.2313287258148191,-15.61732578277588,-14.213805198669434,-3.1891446113586426,3.7734375,2,E2,6.1,90,28.0,1.4682526924332062,[25500|0|0|0]
227,22700,0.7414872646331787,-0.7403339147567749,1.1708495616912842,-18.51593780517578,-16.245830535888672,-4.6056413650512695,3.705078125,2,E2,6.1,90,28.0,1.5505983012709716,[25500|0|0|0]
228,22800,0.804715096950531,-0.6709679961204529,1.0984891653060913,-14.2686767578125,-11.898025512695312,-4.105897426605225,3.6640625,2,E2,6.1,90,28.0,1.6691116609095975,[25500|0|0|0]
229,22900,0.903736174106598,-0.5879518985748291,1.037768006324768,-9.916241645812988,-6.010931015014648,-7.372267723083496,3.658203125,2,E2,6.1,90,28.0,1.8118838757165672,[25500|0|0|0]
230,23000,1.115942120552063,-0.6040477752685547,1.1180411577224731,-4.905010223388672,5.277656555175781,-9.164629936218262,3.7890625,2,E2,6.1,90,28.0,2.0393354525162763,[25500|0|0|0]
231,23100,1.243333101272583,-0.5318229794502258,1.1198267936706543,-6.239267349243164,12.836654663085938,-6.165445327758789,3.806640625,2,E2,6.1,90,28.0,2.185787054063254,[25500|0|0|0]
232,23200,1.3507375717163086,-0.4528146088123321,1.1189429759979248,-5.438319206237793,16.454755783081055,-3.9507460594177246,3.7890625,2,E2,6.1,90,28.0,2.3191243108065605,[25500|0|0|0]
233,23300,1.4325358867645264,-0.368163138628006,1.1102759838104248,-4.289705753326416,17.882015228271484,-2.474162578582764,3.7734375,2,E2,6.1,90,28.0,2.437158003041759,[25500|0|0|0]
234,23400,1.4862966537475586,-0.2797333300113678,1.0931271314620972,-3.869328498840332,18.553375244140625,-1.3924000263214111,3.7421875,2,E2,6.1,90,28.0,2.542058595296731,[25500|0|0|0]
235,23500,1.5118907690048218,-0.1878083497285843,1.0732653141021729,-2.725224733352661,15.61818790435791,-0.6609492301940918,3.7265625,2,E2,6.1,90,28.0,2.639525269214697,[25500|0|0|0]
236,23600,1.512847661972046,-0.095052033662796,1.05451500415802,-2.0224945545196533,10.976057052612305,-0.3301239609718323,3.7265625,2,E2,6.1,90,28.0,2.734162597670487,[25500|0|0|0]
237,23700,1.4981470108032229,-0.0016363589093089,1.0407594442367554,-1.5400182008743286,6.336160182952881,-0.2222572863101959,3.732421875,2,E2,6.1,90,28.0,2.829723117045301,[25500|0|0|0]
238,23800,1.475390911102295,0.0909387245774269,1.0326359272003174,1.0989339351654053,2.1732192039489746,-0.2659534513950348,3.748046875,2,E2,6.1,90,28.0,2.925399538828392,[25500|0|0|0]
239,23900,1.4657362699508667,0.2073516696691513,1.0364383459091189,3.098801851272583,-0.8368028998374939,-0.607122004032135,3.748046875,2,E2,6.1,90,28.0,3.042274019656025,[25500|0|0|0]
240,24000,1.4409728050231934,0.2891948819160461,1.0315970182418823,8.402525901794434,-2.0612266063690186,-3.120070695877075,3.7421875,2,E2,6.1,90,28.0,3.1279185118297543,[25500|0|0|0]
241,24100,1.4258580207824707,0.351332426071167,1.027491569519043,10.614537239074709,-3.320124626159668,-2.908524513244629,3.736328125,2,E2,6.1,90,28.0,3.191999599566224,[25500|0|0|0]
242,24200,1.4191731214523315,0.3939825296401977,1.0204973220825195,10.400819778442385,-3.542968511581421,-2.8061554431915283,3.732421875,2,E2,6.1,90,28.0,3.235733324661468,[25500|0|0|0]
243,24300,1.419420599937439,0.42063769698143,1.0147995948791504,8.299665451049805,-1.9624181985855105,-4.037027835845947,3.7265625,2,E2,6.1,90,28.0,3.262991778155269,[25500|0|0|0]
244,24400,1.4233287572860718,0.4326208233833313,1.008007526397705,5.489640712738037,-0.8477445840835571,-5.7666120529174805,3.7265625,2,E2,6.1,90,28.0,3.2773096413506715,[25500|0|0|0]
245,24500,1.430463433265686,0.4410587549209595,1.0067402124404907,3.228039503097534,0.5606978535652161,-1.33452570438385,3.732421875,2,E2,6.1,90,28.0,3.288432068002888,[25500|0|0|0]
246,24600,1.4354194402694702,0.44051393866539,1.0045853853225708,0.8998109698295593,1.3414572477340698,1.9014294147491453,3.732421875,2,E2,6.1,90,28.0,3.293863652493809,[25500|0|0|0]
247,24700,1.4387588500976562,0.4374471008777618,1.0033466815948486,-0.2462622970342636,1.139052391052246,3.278420925140381,3.732421875,2,E2,6.1,90,28.0,3.2985638162081155,[25500|0|0|0]
248,24800,1.4394783973693848,0.4352043569087982,1.0016157627105713,-0.5766893029212952,0.859757661819458,3.7750210762023926,3.736328125,2,E2,6.1,90,28.0,3.3014867819914464,[25500|0|0|0]
249,24900,1.4399433135986328,0.4340314567089081,0.999671459197998,-0.463825523853302,0.5056492686271667,3.8102307319641113,3.748046875,2,E2,6.1,90,28.0,3.303804573640436,[25500|0|0|0]
250,25000,1.437878966331482,0.4333982169628143,0.9965806603431702,0.009698124602437,0.402645081281662,3.390869617462158,3.7421875,2,E2,6.1,90,28.0,3.307574926379429,[25500|0|0|0]
251,25100,1.4343563318252563,0.4292236864566803,0.9893091320991516,0.1414133161306381,-0.0082805110141634,2.7689266204833984,3.7421875,2,E2,6.1,90,28.0,3.316669473196872,[25500|0|0|0]
252,25200,1.4326391220092771,0.4326354265213012,0.9890912771224976,-0.2749643623828888,-0.4811490178108215,2.8816170692443848,3.736328125,2,E2,6.1,90,28.0,3.320495207193308,[25500|0|0|0]
253,25300,1.429666519165039,0.4317143261432647,0.9867731332778932,0.1706987917423248,-0.6354607939720154,3.012969255447388,3.7421875,2,E2,6.1,90,28.0,3.3243757463904124,[25500|0|0|0]
254,25400,1.428110957145691,0.4307290017604828,0.984730303287506,0.455711156129837,-0.7494084239006042,3.162341356277466,3.875,2,E2,6.1,90,450.0,3.3271259812358336,[25500|0|0|0]
255,25500,1.4272074699401855,0.4298290908336639,0.9723330140113832,0.4637335240840912,-0.2868830859661102,2.944657564163208,3.953125,2,E2,6.1,90,450.0,3.339588681994601,[25500|0|0|0]
256,25600,1.426283836364746,0.428215354681015,0.9231756329536438,1.2164359092712402,0.6470696330070496,2.3933238983154297,3.87890625,2,E2,6.1,90,450.0,3.388781215531794,[25500|0|0|0]
257,25700,1.425060510635376,0.4239103496074676,0.8328979015350342,0.6119100451469421,-1.5113496780395508,0.95653635263443,3.794921875,2,E2,6.1,90,450.0,3.479169812072586,[25500|0|0|0]
258,25800,1.4250563383102417,0.418962150812149,0.7158324718475342,-1.1981655359268188,0.1730023771524429,-0.3865828216075897,3.736328125,2,E2,6.1,90,450.0,3.5963397720309525,[25500|0|0|0]
259,25900,1.4265084266662598,0.4182663261890411,0.590081512928009,-3.989856958389282,-0.0575922317802906,-1.471306324005127,3.701171875,2,E2,6.1,90,450.0,3.722101039524883,[25500|0|0|0]
260,26000,1.4273465871810913,0.4278075397014618,0.4619630873203277,-4.643087387084961,0.573639452457428,-0.3447545170783996,3.673828125,2,E2,6.1,90,450.0,3.850576983765543,[25500|0|0|0]
261,26100,1.4273245334625244,0.448201984167099,0.3423299491405487,-4.631987571716309,-0.7364422082901001,2.7097318172454834,3.642578125,2,E2,6.1,90,450.0,3.971936044416862,[25500|0|0|0]
262,26200,1.430206298828125,0.4756669700145721,0.2387972772121429,6.586975574493408,-2.830012083053589,4.089702606201172,3.6484375,2,E2,6.1,90,450.0,4.079088478714264,[25500|0|0|0]
263,26300,1.439569354057312,0.4955456256866455,0.1562743335962295,6.971792697906494,-1.90740978717804,4.483432769775391,3.642578125,2,E2,6.1,90,450.0,4.164486745544387,[25500|0|0|0]
264,26400,1.4543209075927734,0.5063489675521851,0.0994649901986122,2.275087833404541,4.567285537719727,4.828335762023926,3.673828125,2,E2,6.1,90,450.0,4.224166072152868,[25500|0|0|0]
265,26500,1.4590518474578855,0.5129334926605225,0.0644625201821327,3.350391864776612,6.091943740844727,5.076381206512451,3.65234375,2,E2,6.1,90,450.0,4.260095317485384,[25500|0|0|0]
266,26600,1.4532376527786257,0.5123867392539978,0.0491500832140445,3.769907236099243,3.2302064895629883,4.656794548034668,3.6796875,2,E2,6.1,90,450.0,4.276483560983623,[25500|0|0|0]
267,26700,1.4428391456604004,0.5035991668701172,0.0516196191310882,3.403282880783081,-0.4645049571990967,3.844321012496948,3.716796875,2,E2,6.1,90,450.0,4.290320070165324,[25500|0|0|0]
268,26800,1.4329657554626465,0.4888469278812408,0.0641098022460937,2.0713727474212646,-1.3629637956619265,1.7247157096862793,3.732421875,2,E2,6.1,90,450.0,4.312025301411003,[25500|0|0|0]
269,26900,1.4271481037139893,0.4696248769760132,0.0829822719097137,1.9725314378738403,-3.586543321609497,1.1697158813476562,3.7421875,2,E2,6.1,90,450.0,4.339584372949719,[25500|0|0|0]
270,27000,1.4288169145584106,0.4469368755817413,0.1020409613847732,-2.8906540870666504,-2.71396279335022,2.7204701900482178,3.75390625,2,E2,6.1,90,450.0,4.369262041008509,[25500|0|0|0]
271,27100,1.4358677864074707,0.4251794517040252,0.1182049736380577,-0.3510894477367401,-0.7092270851135254,6.846712589263916,3.75390625,2,E2,6.1,90,450.0,4.397268746986735,[25500|0|0|0]
272,27200,1.4452556371688845,0.4035989642143249,0.1319848001003265,-6.071389675140381,-0.3323847651481628,11.113534927368164,3.7421875,2,E2,6.1,90,450.0,4.42454021191882,[25500|0|0|0]
273,27300,1.4529099464416504,0.3897929191589355,0.1405116021633148,-7.31597900390625,2.8365793228149414,16.471586227416992,3.779296875,2,E2,6.1,90,450.0,4.442481830684582,[25500|0|0|0]
274,27400,1.4537177085876465,0.3837946057319641,0.1409534215927124,-4.844992637634277,2.769493818283081,21.256736755371094,3.763671875,2,E2,6.1,90,450.0,4.44855039295755,[25500|0|0|0]
275,27500,1.4516290426254272,0.3797793090343475,0.136438250541687,2.574003934860229,-4.931175708770752,22.266921997070312,3.7734375,2,E2,6.1,90,450.0,4.454943506650552,[25500|0|0|0]
276,27600,1.45898175239563,0.3710162043571472,0.1229743286967277,7.3840179443359375,-6.85845422744751,21.05127143859864,3.7421875,2,E2,6.1,90,450.0,4.47261075137053,[25500|0|0|0]
277,27700,1.475983500480652,0.3525720536708832,0.101503774523735,-0.7468213438987732,-1.9624229669570925,17.195629119873047,3.673828125,2,E2,6.1,90,450.0,4.505629395028008,[25500|0|0|0]
278,27800,1.4916456937789917,0.3368085622787475,0.078140452504158,-10.249887466430664,8.430280685424805,17.749021530151367,3.705078125,2,E2,6.1,90,450.0,4.537872793973761,[25500|0|0|0]
279,27900,1.491799235343933,0.3305294811725616,0.0565534047782421,-8.067813873291016,4.511919021606445,16.16891860961914,3.65234375,2,E2,6.1,90,450.0,4.560355032831828,[25500|0|0|0]
280,28000,1.4805381298065186,0.3320878446102142,0.0443409346044063,-3.065606117248535,-0.9128424525260924,13.972347259521484,3.673828125,2,E2,6.1,90,450.0,4.577039918875054,[25500|0|0|0]
281,28100,1.469550848007202,0.3385416567325592,0.0449024960398674,-0.184800386428833,-2.91653823852539,11.138931274414062,3.6796875,2,E2,6.1,90,450.0,4.58979481611078,[25500|0|0|0]
282,28200,1.4620294570922852,0.3469577431678772,0.0594540648162364,-4.674152851104736,0.5257833003997803,7.829273700714111,3.701171875,2,E2,6.1,90,450.0,4.608210841361499,[25500|0|0|0]
283,28300,1.4542540311813354,0.3615731000900268,0.0831861644983291,0.3421114087104797,1.2782132625579834,7.269021511077881,3.732421875,2,E2,6.1,90,450.0,4.637146605760929,[25500|0|0|0]
284,28400,1.4440503120422363,0.3726961016654968,0.1091533675789833,0.7778003215789795,-1.1605392694473269,6.9501800537109375,3.7421875,2,E2,6.1,90,450.0,4.667182129464528,[25500|0|0|0]
285,28500,1.4334162473678589,0.382422924041748,0.1394334286451339,0.4256983697414398,-0.8086941838264465,4.556458473205566,3.748046875,2,B2,6.1,90,450.0,4.700716835415346,[25500|100|0|0]
286,28600,1.4273651838302612,0.3862864077091217,0.1602394133806228,1.5929769277572632,-0.2207372784614563,2.425753831863404,3.75390625,2,B2,6.1,90,450.0,4.722726625891347,[25500|200|0|0]
287,28700,1.4221999645233154,0.3896269798278808,0.1712502688169479,-2.735536575317383,0.0479474738240242,2.2750301361083984,3.736328125,2,B2,6.1,90,450.0,4.735339232680157,[25500|300|0|0]
288,28800,1.4164032936096191,0.3985568583011627,0.1784602254629135,1.9624205827713013,-1.8342130184173584,3.001101493835449,3.7265625,2,B2,6.1,90,450.0,4.74819721067306,[25500|400|0|0]
289,28900,1.4128506183624268,0.4072903394699096,0.1809746921062469,0.4691424071788788,-1.946714162826538,0.918799638748169,3.7265625,2,B2,6.1,90,450.0,4.757955168309641,[25500|500|0|0]
290,29000,1.4102847576141355,0.4156906604766845,0.1803861111402511,0.8404884934425354,-0.6735888719558716,-1.971157908439636,3.716796875,2,B2,6.1,90,450.0,4.766758318992778,[25500|600|0|0]
291,29100,1.4084246158599854,0.4268793165683746,0.1783998012542724,-0.8195201754570007,0.5289404988288879,-4.240478038787842,3.720703125,2,B2,6.1,90,450.0,4.778273160695849,[25500|700|0|0]
292,29200,1.4060922861099243,0.4382593035697937,0.1750282943248748,-1.5237172842025757,0.1741366386413574,-4.579046726226807,3.7265625,2,B2,6.1,90,450.0,4.790369066002624,[25500|800|0|0]
293,29300,1.401572585105896,0.4526691436767578,0.17368745803833,-0.7267772555351257,0.6417451500892639,-4.193455219268799,3.7265625,2,B2,6.1,90,450.0,4.805530498356508,[25500|900|0|0]
294,29400,1.395520806312561,0.4690476655960083,0.1731797307729721,-0.3291378915309906,1.239978313446045,-3.016455888748169,3.7265625,2,B2,6.1,90,450.0,4.822998692132592,[25500|1000|0|0]
295,29500,1.3871077299118042,0.4868300855159759,0.1726263016462326,-0.0547947809100151,0.2991893887519836,-1.9954949617385864,3.732421875,2,B2,6.1,90,450.0,4.8426786463127565,[25500|1100|0|0]
296,29600,1.3771164417266846,0.5031370520591736,0.1716130971908569,0.8411456346511841,0.3389165699481964,-2.4513533115386963,3.736328125,2,B2,6.1,90,450.0,4.861829875534597,[25500|1200|0|0]
297,29700,1.367054104804993,0.5193691253662109,0.171491339802742,-0.9751757383346558,-0.295307844877243,-2.87921142578125,3.7265625,2,B2,6.1,90,450.0,4.880928190984715,[25500|1300|0|0]
298,29800,1.3572596311569214,0.5368223190307617,0.1712382584810257,-1.5838730335235596,0.0190329644829034,-4.223355293273926,3.736328125,2,B2,6.1,90,450.0,4.900943428512421,[25500|1400|0|0]
299,29900,1.3459707498550415,0.5593240261077881,0.1714741289615631,-0.4778596460819244,-0.3224290907382965,-5.970285892486572,3.7265625,2,B2,6.1,90,450.0,4.926119236291156,[25500|1500|0|0]
300,30000,1.3386363983154297,0.577163577079773,0.1674913167953491,-0.9736961126327516,0.1133824661374092,-6.9282073974609375,3.716796875,2,B2,6.1,90,450.0,4.945814542436023,[25500|1600|0|0]
301,30100,1.3265948295593262,0.6007262468338013,0.1654638648033142,-0.6263499855995178,0.5725749135017395,-6.859161853790283,3.720703125,2,B2,6.1,90,450.0,4.97235336956959,[25500|1700|0|0]
302,30200,1.310140609741211,0.6295475363731384,0.1686003655195236,0.0225755926221609,0.2492975145578384,-7.114712238311768,3.732421875,2,B2,6.1,90,450.0,5.0056887219342485,[25500|1800|0|0]
303,30300,1.298098921775818,0.6499084830284119,0.1697265952825546,0.3108949363231659,0.4487027823925018,-6.668097972869873,3.732421875,2,B2,6.1,90,450.0,5.029370757134668,[25500|1900|0|0]
304,30400,1.2814621925354004,0.6736167073249817,0.1715759485960006,-0.4413151443004608,0.4734041094779968,-6.542173385620117,4.02734375,2,B2,6.1,90,450.0,5.058392830919864,[25500|2000|0|0]
305,30500,1.265411376953125,0.6984331011772156,0.152427852153778,-3.797567367553711,-5.071301460266113,-8.818853378295898,4.05859375,2,B2,6.1,90,450.0,5.093608334352956,[25500|2100|0|0]
306,30600,1.2531189918518066,0.7251339554786682,0.0719871595501899,-11.1734619140625,-14.190603256225586,-12.683253288269045,4.06640625,2,B2,6.1,90,450.0,5.179251450704776,[25500|2200|0|0]
307,30700,1.2440135478973389,0.7418729066848755,0.0,-1.0946967601776123,0.3957750797271728,-20.502180099487305,4.05859375,2,B2,6.1,90,450.0,5.25371790447556,[25500|2300|0|0]
308,30800,1.245602250099182,0.7426787614822388,0.0,-5.59149169921875,-3.2073237895965576,-32.119380950927734,4.06640625,2,B2,6.1,90,450.0,5.2554993018598,[25500|2400|0|0]
309,30900,1.2460066080093384,0.7452425360679626,0.0,-0.0972751006484031,2.3335845470428467,-31.117650985717773,4.06640625,2,B2,6.1,90,450.0,5.258094768185128,[25500|2500|0|0]
310,31000,1.2476990222930908,0.7451649308204651,0.0,-2.655458450317383,-0.6892021298408508,-31.1015625,4.0703125,2,B2,6.1,90,450.0,5.259788960819479,[25500|2600|0|0]
311,31100,1.2461321353912354,0.7450419068336487,0.0,-0.0689582973718643,1.5695180892944336,-30.926788330078125,4.0703125,2,B2,6.1,90,450.0,5.261360669909781,[25500|2700|0|0]
312,31200,1.2469327449798584,0.7451106905937195,0.0,-1.1566485166549685,0.1597211211919784,-30.81532859802246,4.0703125,2,B2,6.1,90,450.0,5.262164228818041,[25500|2800|0|0]
313,31300,1.246665596961975,0.745182991027832,0.0,-1.0676496028900146,-0.0275991763919591,-30.78124046325684,4.0703125,2,B2,6.1,90,450.0,5.262440987587065,[25500|2900|0|0]
314,31400,1.2458102703094482,0.7438870668411255,0.0,-0.4326958358287811,0.8233233690261841,-30.76059913635254,4.07421875,2,B2,6.1,90,450.0,5.263993728125666,[25500|3000|0|0]
315,31500,1.2460730075836182,0.7432142496109009,0.0,-0.229971170425415,0.719427227973938,-30.664777755737305,4.07421875,2,B2,6.1,90,450.0,5.264716025779356,[25500|3100|0|0]
316,31600,1.2462762594223022,0.7432055473327637,0.0,-0.2360811233520507,0.497871994972229,-30.632997512817383,4.07421875,2,B2,6.1,90,450.0,5.264919463827845,[25500|3200|0|0]
317,31700,1.2464522123336792,0.7433254718780518,0.0,-0.2505080997943878,0.3156856596469879,-30.584625244140625,4.08203125,2,B2,6.1,90,450.0,5.265132398849823,[25500|3300|0|0]
318,31800,1.2462036609649658,0.7431034445762634,0.0,-0.0241073463112115,0.4004414081573486,-30.5437240600586,4.08203125,2,B2,6.1,90,450.0,5.26546567637026,[25500|3400|0|0]
319,31900,1.246044397354126,0.7432921528816223,0.0,0.2409835457801818,0.5752033591270447,-30.51987838745117,4.07421875,2,B2,6.1,90,450.0,5.265712608997204,[25500|3500|0|0]
320,32000,1.2459454536437988,0.7429956197738647,0.0,0.2907156646251678,0.5362516045570374,-30.50009536743164,4.08203125,2,B2,6.1,90,450.0,5.266025213766536,[25500|3600|0|0]
321,32100,1.245736837387085,0.7431001663208008,0.0,0.4460064470767975,0.5609927177429199,-30.50727653503418,4.08203125,2,B2,6.1,90,450.0,5.266258560553618,[25500|3700|0|0]
322,32200,1.2458837032318115,0.7431233525276184,0.0,0.5600666403770447,0.5837017893791199,-30.47089195251465,4.08203125,2,B2,6.1,90,450.0,5.266407245376428,[25500|3800|0|0]
