,time.ms,stateEstimate.x,stateEstimate.y,stateEstimate.z,stabilizer.roll,stabilizer.pitch,stabilizer.yaw,pm.vbat,drone_id,node_name,wind_speed,global_wind_direction,relative_wind_direction,travel_dist,waiting_time
0,0,1.7774332761764526,-0.1253596693277359,0.0,0.1391990035772323,0.4447503983974457,1.663083553314209,4.14453125,1,B1,6.1,90,450.0,0.0,[6200|0|0|0]
1,100,1.7776225805282593,-0.1252204179763794,0.0,0.1354818344116211,0.4415968358516693,1.6554365158081057,4.14453125,1,B1,6.1,90,450.0,0.0002350044179745,[6300|0|0|0]
2,200,1.7773540019989014,-0.1254960149526596,0.0,0.137290820479393,0.4569651782512665,1.6669180393218994,4.14453125,1,B1,6.1,90,450.0,0.0006198266103788,[6400|0|0|0]
3,300,1.7775006294250488,-0.12556192278862,0.0,0.1307693570852279,0.4558680355548858,1.6728919744491575,3.537109375,1,J1,6.1,90,450.0,0.0007805855757263,[6400|0|0|0]
4,400,1.7773054838180542,-0.1250244379043579,0.0,0.0122021902352571,0.3686713278293609,2.426603317260742,3.505859375,1,J1,6.1,90,450.0,0.0013524000637725,[6400|0|0|0]
5,501,1.7778304815292358,-0.1233351826667785,0.0,-1.8467037677764893,-0.7098525166511536,3.7135531902313232,3.689453125,1,J1,6.1,90,450.0,0.0031213562120236,[6400|0|0|0]
6,601,1.7808691263198853,-0.1160390749573707,0.0311691928654909,-2.2356441020965576,-0.3234408497810364,5.445082187652588,3.732421875,1,J1,6.1,90,450.0,0.0352769954337401,[6400|0|0|0]
7,701,1.786057472229004,-0.1079230308532714,0.0840437263250351,0.647832989692688,-0.3280325829982757,5.793258666992188,3.7421875,1,J1,6.1,90,450.0,0.0890218128000389,[6400|0|0|0]
8,801,1.7920629978179932,-0.0986045002937316,0.1499515026807785,3.009419202804565,-1.4654817581176758,4.839782238006592,3.7421875,1,J1,6.1,90,450.0,0.1558554595174504,[6400|0|0|0]
9,901,1.7992873191833496,-0.0937197133898735,0.2231186628341674,4.2655029296875,-2.0726659297943115,3.305311918258667,3.748046875,1,J1,6.1,90,450.0,0.2295405006533398,[6400|0|0|0]
10,1001,1.810237169265747,-0.0960050299763679,0.3019725382328033,3.999336004257202,-2.727076530456543,1.6230944395065308,3.748046875,1,J1,6.1,90,450.0,0.3091838026574072,[6400|0|0|0]
11,1101,1.8243882656097408,-0.1049064397811889,0.3864116072654724,3.0173234939575195,-1.852213740348816,0.1414525657892227,3.75390625,1,J1,6.1,90,450.0,0.3952619357886166,[6400|0|0|0]
12,1201,1.840606570243836,-0.1189429610967636,0.4738926589488983,2.3718881607055664,0.1435818076133728,-1.165016770362854,3.7578125,1,J1,6.1,90,450.0,0.4853340832010389,[6400|0|0|0]
13,1301,1.8568925857543943,-0.1363906413316726,0.5629991888999939,0.793194591999054,0.6050534248352051,-1.7903472185134888,3.7890625,1,J1,6.1,90,450.0,0.5775817364325183,[6400|0|0|0]
14,1402,1.8709838390350344,-0.1544691324234008,0.6543586850166321,-1.2566676139831543,2.222437620162964,-2.452195882797241,3.826171875,1,J1,6.1,90,450.0,0.6717727805389453,[6400|0|0|0]
15,1500,1.8811557292938232,-0.1720122992992401,0.7276797294616699,-1.027099609375,2.167667865753174,-2.911025285720825,3.837890625,1,J1,6.1,90,450.0,0.7478464659628921,[6400|0|0|0]
16,1600,1.888088345527649,-0.1860280930995941,0.7909438610076904,-2.633551597595215,2.01534390449524,-3.230081558227539,3.826171875,1,J1,6.1,90,450.0,0.813014356706507,[6400|0|0|0]
17,1700,1.891634225845337,-0.1976008862257003,0.8387736082077026,-3.122605323791504,2.0380947589874268,-2.889997720718384,3.81640625,1,J1,6.1,90,450.0,0.8623518427103976,[6400|0|0|0]
18,1800,1.89231550693512,-0.2043824046850204,0.8723189234733582,-3.2648370265960693,1.711316704750061,-1.7422722578048706,3.80078125,1,J1,6.1,90,450.0,0.8965825498723832,[6400|0|0|0]
19,1900,1.8903650045394893,-0.2065564692020416,0.8945721983909607,-3.2375733852386475,0.9462835788726808,-0.6306402683258057,3.7890625,1,J1,6.1,90,450.0,0.9190266863155152,[6400|0|0|0]
20,2000,1.886812925338745,-0.204561710357666,0.909549593925476,-3.0037803649902344,0.3286634087562561,0.8417866826057434,3.78515625,1,J1,6.1,90,450.0,0.9345482425033752,[6400|0|0|0]
21,2100,1.8820867538452148,-0.1983268558979034,0.919636845588684,-1.6121199131011963,0.3984594643115997,0.1243505254387855,3.7734375,1,J1,6.1,90,450.0,0.9473139290590435,[6400|0|0|0]
22,2200,1.8766636848449707,-0.1893181502819061,0.9278327822685242,-0.3603036403656006,-0.1771528720855713,-0.3135443925857544,3.7734375,1,J1,6.1,90,450.0,0.960645839361662,[6400|0|0|0]
23,2300,1.8717195987701416,-0.1807356476783752,0.9346827864646912,0.2261842936277389,-0.8978220224380493,-0.6146141886711121,3.76953125,1,J1,6.1,90,450.0,0.9726885091463252,[6400|0|0|0]
24,2400,1.868000864982605,-0.171883150935173,0.940308392047882,0.8895734548568726,-1.046245813369751,-0.9786006212234496,3.76953125,1,J1,6.1,90,450.0,0.9838169914214872,[6400|0|0|0]
25,2500,1.8658603429794312,-0.1656346172094345,0.9468935132026672,1.212881326675415,-0.8686655759811401,-1.266751050949097,3.76953125,1,J1,6.1,90,450.0,0.993143825224604,[6400|0|0|0]
26,2600,1.8648830652236936,-0.1605528891086578,0.9523868560791016,1.2784581184387207,-0.6628738641738892,-1.0636943578720093,3.7734375,1,J1,6.1,90,450.0,1.0006907350730223,[6400|0|0|0]
27,2700,1.8653485774993896,-0.1571505963802337,0.9563789963722228,1.1014585494995115,-0.4554522931575775,-0.7268876433372498,3.7734375,1,J1,6.1,90,450.0,1.0059566140697973,[6400|0|0|0]
28,2800,1.865703821182251,-0.1558070331811905,0.9585141539573668,0.9354491233825684,0.3694585859775543,-0.0264927856624126,3.76953125,1,J1,6.1,90,450.0,1.008504212558067,[6400|0|0|0]
29,2900,1.8656959533691408,-0.1556660681962967,0.9590436816215516,0.7591248154640198,0.1777287423610687,0.1637379974126815,3.763671875,1,J1,6.1,90,450.0,1.0090522386309744,[6400|0|0|0]
30,3000,1.865297079086304,-0.1553348302841186,0.9574331641197203,0.0620149932801723,-0.0115369195118546,0.4157808125019073,3.7578125,1,J1,6.1,90,450.0,1.0107441564397577,[6400|0|0|0]
31,3100,1.8645814657211304,-0.1557743400335312,0.956052303314209,0.0504979453980922,0.0279686320573091,0.3996612727642059,3.7578125,1,J1,6.1,90,450.0,1.0123603395582317,[6400|0|0|0]
32,3200,1.8637986183166504,-0.1559755802154541,0.9549906849861144,0.2531567811965942,-0.313272476196289,0.0411041863262653,3.7578125,1,J1,6.1,90,450.0,1.013694648796777,[6400|0|0|0]
33,3300,1.8638452291488647,-0.1567300409078598,0.954933226108551,0.2853277921676636,-0.2868469953536987,-0.368488073348999,3.7578125,1,J1,6.1,90,401.0,1.014452728626792,[6400|0|0|0]
34,3400,1.861888647079468,-0.1564214676618576,0.955711305141449,-8.55875301361084,8.37240219116211,0.5334054231643677,3.736328125,1,J1,6.1,90,401.0,1.016580835255669,[6400|0|0|0]
35,3500,1.844356894493103,-0.1393721103668213,0.9540114402770996,-16.028812408447266,16.225025177001953,3.200822830200196,3.720703125,1,J1,6.1,90,401.0,1.0410947593291493,[6400|0|0|0]
36,3600,1.800953030586243,-0.0980556309223175,0.9478204250335692,-17.41400909423828,15.060735702514648,1.9154528379440308,3.716796875,1,J1,6.1,90,401.0,1.1013382282322508,[6400|0|0|0]
37,3700,1.7319085597991943,-0.0315071083605289,0.9411327242851256,-12.835116386413574,10.619033813476562,-0.3022045493125915,3.7109375,1,J1,6.1,90,401.0,1.1974661125464352,[6400|0|0|0]
38,3800,1.647421956062317,0.0529639646410942,0.939549207687378,-6.197968482971191,1.986361742019653,-2.467799663543701,3.716796875,1,J1,6.1,90,401.0,1.3169477258174864,[6400|0|0|0]
39,3900,1.5592312812805176,0.1602943688631057,0.9381378293037416,0.2279476821422577,-4.702588081359863,-2.141552448272705,3.748046875,1,J1,6.1,90,401.0,1.4558700162458813,[6400|0|0|0]
40,4000,1.4839508533477783,0.2422175407409668,0.9513701796531676,9.930545806884766,-8.86540412902832,0.9000329971313477,3.736328125,1,J1,6.1,90,401.0,1.5679130616170058,[6400|0|0|0]
41,4100,1.4286208152770996,0.3053194880485534,0.9668024778366088,10.616167068481444,-12.597761154174805,-1.5775223970413208,3.7578125,1,J1,6.1,90,401.0,1.6532443260757892,[6400|0|0|0]
42,4200,1.3960936069488523,0.3429641127586365,0.983153223991394,6.777796268463135,-11.108107566833496,-10.731268882751465,3.76953125,1,J1,6.1,90,401.0,1.7056130567364651,[6400|0|0|0]
43,4300,1.3781492710113523,0.3646615743637085,0.994737446308136,5.774118900299072,-6.882375717163086,-8.255892753601074,3.7578125,1,J1,6.1,90,401.0,1.7360592919557023,[6400|0|0|0]
44,4400,1.3728039264678955,0.379147320985794,1.0066219568252563,2.8567564487457275,-3.8101086616516113,-6.064675331115723,3.7890625,1,J1,6.1,90,401.0,1.755543930872528,[6400|0|0|0]
45,4500,1.3644521236419678,0.3888696134090423,1.009113311767578,2.2345128059387207,0.1225751265883445,-5.016408920288086,3.76953125,1,J1,6.1,90,401.0,1.768600822916769,[6400|0|0|0]
46,4600,1.3557060956954956,0.3935818076133728,1.0060977935791016,0.752165675163269,-0.8850064277648926,-4.717290878295898,3.7421875,1,J1,6.1,90,401.0,1.778983073588219,[6400|0|0|0]
47,4700,1.3454715013504028,0.3947395086288452,1.0002399682998655,0.4056557118892669,-1.262346625328064,-5.067309379577637,3.75390625,1,J1,6.1,90,401.0,1.790832179463849,[6400|0|0|0]
48,4800,1.336404800415039,0.394831120967865,0.9934502243995668,-0.6665559411048889,-2.155213594436645,-5.139601707458496,3.736328125,1,J1,6.1,90,401.0,1.8021597600044423,[6400|0|0|0]
49,4900,1.330586552619934,0.3946762084960937,0.9876147508621216,-0.4900769889354706,-2.8889753818511963,-4.377379417419434,3.720703125,1,J1,6.1,90,401.0,1.810401650363176,[6400|0|0|0]
50,5000,1.3291064500808716,0.3932074606418609,0.9850794076919556,-0.592964768409729,-2.861560583114624,-3.3979618549346924,3.748046875,1,J1,6.1,90,401.0,1.8136843152525544,[6400|0|0|0]
51,5100,1.3310283422470093,0.3911442458629608,0.9823405146598816,0.248325228691101,-2.23816180229187,-2.789902925491333,3.736328125,1,J1,6.1,90,401.0,1.8176152260583696,[6400|0|0|0]
52,5200,1.3364572525024414,0.3876813054084778,0.9801477193832396,0.3836056292057037,-1.9812926054000848,-2.8031742572784424,3.720703125,1,J1,6.1,90,401.0,1.8244176796067664,[6400|0|0|0]
53,5300,1.3433759212493896,0.3822347819805145,0.9772226214408876,0.286114364862442,-0.9315380454063416,-3.4717259407043457,3.736328125,1,J1,6.1,90,401.0,1.8336960842462344,[6400|0|0|0]
54,5400,1.3522801399230957,0.3773896992206573,0.9739612936973572,-0.9665696620941162,-0.3238109052181244,-4.369481563568115,3.732421875,1,J1,6.1,90,401.0,1.8443448492351784,[6400|0|0|0]
55,5500,1.3603817224502563,0.3722209930419922,0.9700960516929626,-0.66082763671875,0.5112881660461426,-4.768397808074951,3.7109375,1,J1,6.1,90,401.0,1.854702998623863,[6400|0|0|0]
56,5600,1.366860270500183,0.3701079189777374,0.9639418125152588,-1.3668358325958252,0.6038420796394348,-4.601083755493164,3.736328125,1,J1,6.1,90,401.0,1.8638851185693124,[6400|0|0|0]
57,5700,1.3728468418121338,0.3674402832984924,0.9581555128097534,-0.2348896563053131,1.1032215356826782,-4.15077543258667,3.7265625,1,J1,6.1,90,401.0,1.8726279202067844,[6400|0|0|0]
58,5800,1.377463936805725,0.3662413358688354,0.9520407915115356,-0.3903387188911438,0.8016275763511658,-3.714908123016357,3.7109375,1,J1,6.1,90,401.0,1.8803832317849096,[6400|0|0|0]
59,5900,1.3809148073196411,0.365526020526886,0.9485740065574646,-0.9094664454460144,0.4735725820064544,-3.128561496734619,3.732421875,1,J1,6.1,90,401.0,1.8853267913587408,[6400|0|0|0]
60,6000,1.3846596479415894,0.3653729557991028,0.94765442609787,-1.1311249732971191,-0.2062134444713592,-2.6806607246398926,3.732421875,1,J1,6.1,90,401.0,1.8891859218717388,[6400|0|0|0]
61,6100,1.3890737295150757,0.3690150082111358,0.948233962059021,-1.4041478633880615,-0.2781048417091369,-1.9858916997909544,3.720703125,1,J1,6.1,90,401.0,1.8949378366694087,[6400|0|0|0]
62,6200,1.3953397274017334,0.3755366504192352,0.9506729245185852,-0.9339142441749572,-0.3456774055957794,-1.429456353187561,3.7421875,1,J1,6.1,90,401.0,1.9043049645368624,[6400|0|0|0]
63,6300,1.4022196531295776,0.38328817486763,0.9535589814186096,0.3226222693920135,0.7181487679481506,-0.9199926853179932,3.7421875,1,J1,6.1,90,450.0,1.915063627731,[6400|0|0|0]
64,6400,1.4091540575027466,0.3913405239582062,0.9497686624526978,0.5637608766555786,0.1920761615037918,-0.0902650654315948,3.953125,1,J1,6.1,90,450.0,1.9263460391643097,[6400|0|0|0]
65,6500,1.4154013395309448,0.3989115357398987,0.913493812084198,1.5542466640472412,0.712820291519165,1.060678243637085,3.896484375,1,J1,6.1,90,450.0,1.963925468662313,[6400|0|0|0]
66,6600,1.421066403388977,0.4037092924118042,0.8348938226699829,1.8529213666915887,0.4662309885025024,-1.3790923357009888,3.806640625,1,J1,6.1,90,450.0,2.042875261274537,[6400|0|0|0]
67,6700,1.4264682531356812,0.407436728477478,0.7266356348991394,2.263237714767456,0.7066922783851624,-0.0520919784903526,3.7421875,1,J1,6.1,90,450.0,2.1513322065557725,[6400|0|0|0]
68,6800,1.4318618774414062,0.4111396372318268,0.6039313077926636,-1.597514510154724,-0.7829382419586182,0.0931246727705001,3.716796875,1,J1,6.1,90,450.0,2.2742108239269303,[6400|0|0|0]
69,6900,1.4384524822235107,0.4190558493137359,0.4767926335334778,0.49275803565979,2.1383419036865234,1.7996035814285278,3.658203125,1,J1,6.1,90,450.0,2.401766086372284,[6400|0|0|0]
70,7000,1.4425342082977295,0.4340050220489502,0.3600592911243438,-3.5564539432525635,2.0165586471557617,2.649732828140259,3.66796875,1,J1,6.1,90,450.0,2.519523512818433,[6400|0|0|0]
71,7100,1.441978096961975,0.4540373682975769,0.2526110112667084,-7.275428295135498,3.650681734085083,7.864513397216797,3.6640625,1,J1,6.1,90,450.0,2.6288246427321145,[6400|0|0|0]
72,7200,1.4399628639221191,0.4803826808929443,0.1612149178981781,3.879340171813965,1.776041030883789,28.32309532165528,3.6953125,1,J1,6.1,90,450.0,2.723963396891404,[6400|0|0|0]
73,7300,1.4416582584381104,0.5019661784172058,0.0748599991202354,16.320507049560547,-6.079617023468018,32.87520217895508,3.689453125,1,J1,6.1,90,450.0,2.812990885483915,[6400|0|0|0]
74,7400,1.457337498664856,0.5031400322914124,0.0,11.278294563293455,1.5831557512283323,30.84228515625,3.65234375,1,J1,6.1,90,450.0,2.8894842575842983,[6400|0|0|0]
75,7500,1.4732657670974731,0.4907028079032898,0.0,-5.94672441482544,4.472848892211914,18.47917556762696,3.68359375,1,J1,6.1,90,450.0,2.9096930251306388,[6400|0|0|0]
76,7600,1.4718706607818604,0.4987978041172027,0.0159856360405683,-18.11191177368164,17.17133903503418,6.856612205505371,3.732421875,1,J1,6.1,90,450.0,2.9276656666993297,[6400|0|0|0]
77,7700,1.4417243003845217,0.5262244939804077,0.0467389449477195,10.58614730834961,7.568708896636963,2.228321552276612,3.7109375,1,J1,6.1,90,450.0,2.978722423067095,[6400|0|0|0]
78,7800,1.3983290195465088,0.5379542708396912,0.0713004618883133,7.135343551635742,2.4938225746154785,1.5990623235702517,3.705078125,1,J1,6.1,90,450.0,3.029947477274989,[6400|0|0|0]
79,7900,1.3606421947479248,0.5413832068443298,0.0940988659858703,13.182794570922852,-4.97763729095459,2.7611234188079834,3.732421875,1,J1,6.1,90,450.0,3.0741269022929605,[6400|0|0|0]
80,8000,1.3220068216323853,0.5104568004608154,0.1173101514577865,8.047731399536133,-5.084262847900391,-0.5329191088676453,3.748046875,1,J1,6.1,90,450.0,3.128788574796041,[6400|0|0|0]
81,8100,1.2932124137878418,0.4668111801147461,0.1337401419878006,-1.7845498323440552,-9.43199634552002,-3.167340040206909,3.7421875,1,J1,6.1,90,450.0,3.1835973577357075,[6400|0|0|0]
82,8200,1.276732087135315,0.4262909293174743,0.1429861038923263,-2.419432640075684,-5.914516925811768,-2.782001495361328,3.720703125,1,J1,6.1,90,450.0,3.228307308560862,[6400|0|0|0]
83,8300,1.2720800638198853,0.3949192464351654,0.1469835489988327,-5.682834625244141,-5.694972038269043,-2.208203077316284,3.7265625,1,J1,6.1,90,450.0,3.2602729678716758,[6400|0|0|0]
84,8400,1.2768681049346924,0.377692699432373,0.1450374275445938,-6.547019958496094,-4.913092613220215,-1.956693649291992,3.7109375,1,J1,6.1,90,450.0,3.278258146438238,[6400|0|0|0]
85,8500,1.2902930974960327,0.3735234439373016,0.1414190530776977,-6.465234756469727,-3.055908203125,-1.3309404850006104,3.705078125,1,J1,6.1,90,450.0,3.2927738534633164,[6400|0|0|0]
86,8600,1.3098056316375732,0.3816148936748504,0.1388893127441406,-2.7124478816986084,0.0431707315146923,-0.6702740788459778,3.7109375,1,J1,6.1,90,450.0,3.314048489385825,[6400|0|0|0]
87,8700,1.330506443977356,0.39749875664711,0.1383466869592666,-1.5693503618240356,1.4175091981887815,0.6627299785614014,3.716796875,1,J1,6.1,90,450.0,3.340146672793695,[6400|0|0|0]
88,8800,1.3509323596954346,0.4143764078617096,0.1399173140525818,3.2667832374572754,1.8662688732147217,0.3132273256778717,3.7109375,1,J1,6.1,90,450.0,3.366689845416989,[6400|0|0|0]
89,8900,1.3691996335983276,0.4277805089950561,0.1401853114366531,4.720438957214356,1.906849384307861,-0.026259122416377,3.7109375,1,J1,6.1,90,450.0,3.3893489505545307,[6400|0|0|0]
90,9000,1.3851972818374634,0.4348854422569275,0.1423995941877365,2.67765212059021,1.61544930934906,0.4562222063541412,3.716796875,1,J1,6.1,90,450.0,3.4069928694486005,[6400|0|0|0]
91,9100,1.400775909423828,0.4355592429637909,0.1438812017440796,6.460994243621826,1.189274549484253,1.6867135763168335,3.7109375,1,J1,6.1,90,450.0,3.422656291993441,[6400|0|0|0]
92,9200,1.41559898853302,0.4295269548892975,0.1448548734188079,0.7786852717399597,1.7897086143493652,0.6300885677337646,3.716796875,1,J1,6.1,90,450.0,3.4386893893305497,[6400|0|0|0]
93,9300,1.4278370141983032,0.4212471544742584,0.144917219877243,2.4253909587860107,2.8834986686706543,-1.6851623058319092,3.716796875,1,J1,6.1,90,450.0,3.4534653242985267,[6400|0|0|0]
94,9400,1.4345180988311768,0.4119845330715179,0.1427328735589981,-0.4931735694408417,2.804406881332397,-4.543098449707031,3.705078125,1,B2,6.1,90,450.0,3.4650930676720346,[6400|100|0|0]
95,9500,1.436285376548767,0.4016184210777282,0.1407835930585861,0.0210580416023731,3.0676491260528564,-6.334700584411621,3.7109375,1,B2,6.1,90,450.0,3.4757878908528155,[6400|200|0|0]
96,9600,1.4325915575027466,0.3942824006080627,0.1391039788722992,-2.1481285095214844,1.0001261234283447,-5.365491390228272,3.705078125,1,B2,6.1,90,450.0,3.484171362645031,[6400|300|0|0]
97,9700,1.4277085065841677,0.3896318972110748,0.1395742297172546,-0.3783787488937378,0.4834726750850677,-3.7132389545440674,3.7109375,1,B2,6.1,90,450.0,3.490930985709671,[6400|400|0|0]
98,9800,1.424856185913086,0.3870657980442047,0.1399866044521331,0.3481987714767456,-0.9684357047080994,-3.3054909706115723,3.6953125,1,B2,6.1,90,450.0,3.494789826347331,[6400|500|0|0]
99,9900,1.4225751161575315,0.3837640881538391,0.1422970294952392,-0.6046116352081299,1.264629364013672,-1.2992228269577026,3.701171875,1,B2,6.1,90,450.0,3.499420445237896,[6400|600|0|0]
100,10000,1.4198722839355469,0.3810479640960693,0.1448592692613601,-0.1576911211013794,0.7415220737457275,1.362260341644287,3.716796875,1,B2,6.1,90,450.0,3.5040299684818423,[6400|700|0|0]
101,10100,1.4169317483901978,0.3800356090068817,0.1454628705978393,0.5183401107788086,0.1597297191619873,2.63796615600586,3.6953125,1,B2,6.1,90,450.0,3.507197924714726,[6400|800|0|0]
102,10200,1.4125664234161377,0.3760920763015747,0.1452191025018692,1.7644470930099487,0.2327305972576141,1.025631308555603,3.705078125,1,B2,6.1,90,450.0,3.513085788097277,[6400|900|0|0]
103,10300,1.4074152708053589,0.3690856397151947,0.1429499387741089,1.0934360027313232,0.1002685278654098,-0.6057237386703491,3.705078125,1,B2,6.1,90,450.0,3.5220732032363418,[6400|1000|0|0]
104,10400,1.4019033908843994,0.3587101697921753,0.1408726572990417,0.4753429293632507,-0.7766790986061096,-1.80278754234314,3.6953125,1,B2,6.1,90,450.0,3.5340040998796463,[6400|1100|0|0]
105,10500,1.3982943296432495,0.3477301299571991,0.1394655853509903,-0.1303789466619491,0.0024523285683244,-2.6347501277923584,3.6953125,1,B2,6.1,90,450.0,3.5456474004979,[6400|1200|0|0]
106,10600,1.3971002101898191,0.3381095230579376,0.1394267082214355,-0.2704281210899353,-1.687574863433838,-2.1238255500793457,3.6953125,1,B2,6.1,90,450.0,3.555341909758836,[6400|1300|0|0]
107,10700,1.3993141651153564,0.3288001120090484,0.1392848640680313,1.976401329040528,-1.0045207738876345,-1.06535005569458,3.6953125,1,B2,6.1,90,450.0,3.564912011652408,[6400|1400|0|0]
108,10800,1.4053735733032229,0.3176063895225525,0.140215590596199,0.6278157830238342,-0.9309818148612976,-1.699480056762695,3.705078125,1,B2,6.1,90,450.0,3.577674538931991,[6400|1500|0|0]
109,10900,1.41319477558136,0.3055629432201385,0.1388175040483474,0.4014100432395935,-0.08371102809906,-3.192817211151123,3.6953125,1,B2,6.1,90,450.0,3.592102652111127,[6400|1600|0|0]
110,11000,1.4215292930603027,0.2917942702770233,0.136133536696434,1.1240272521972656,0.8821731209754944,-4.028012275695801,3.689453125,1,B2,6.1,90,450.0,3.6084196437752607,[6400|1700|0|0]
111,11100,1.426240086555481,0.2645924985408783,0.1344532668590545,1.790500521659851,-0.7079755067825317,-3.9670372009277344,3.68359375,1,B2,6.1,90,450.0,3.636077396172481,[6400|1800|0|0]
112,11200,1.4352327585220337,0.2461647242307663,0.1343616694211959,-0.2501964867115021,-0.9183090925216676,-4.649372577667236,3.68359375,1,B2,6.1,90,450.0,3.656582502980618,[6400|1900|0|0]
113,11300,1.445034384727478,0.2319237887859344,0.1320541352033615,-1.3635963201522827,0.0170070342719554,-5.70518684387207,4.0390625,1,B2,6.1,90,450.0,3.6740238570788977,[6400|2000|0|0]
114,11400,1.454537272453308,0.2215103209018707,0.0899591371417045,-7.916708946228027,1.2894384860992432,-7.705291271209717,4.04296875,1,B2,6.1,90,450.0,3.718416807536296,[6400|2100|0|0]
115,11500,1.4641627073287964,0.2163868397474289,0.0,-20.366758346557617,-1.1804091930389404,-10.700178146362305,4.04296875,1,B2,6.1,90,450.0,3.8090343853618056,[6400|2200|0|0]
116,11600,1.4681580066680908,0.2152342796325683,0.0,-1.0615458488464355,-1.0811983346939087,-11.972811698913574,4.046875,1,B2,6.1,90,450.0,3.813192607533472,[6400|2300|0|0]
117,11700,1.4712045192718506,0.2152249664068222,0.0,-4.934174537658691,-0.9862384796142578,-11.047310829162598,4.046875,1,B2,6.1,90,450.0,3.81623913437252,[6400|2400|0|0]
118,11800,1.4715338945388794,0.2147351503372192,0.0,-4.5348896980285645,-0.8959248065948486,-11.03038215637207,4.0546875,1,B2,6.1,90,450.0,3.816829395203485,[6400|2500|0|0]
119,11900,1.4719586372375488,0.2147780656814575,0.0,-4.081865787506104,-0.7807231545448303,-11.05955696105957,4.0546875,1,B2,6.1,90,450.0,3.817256300446887,[6400|2600|0|0]
120,12000,1.472226858139038,0.214497223496437,0.0,-3.6123297214508057,-0.6864192485809326,-11.066489219665527,4.0546875,1,B2,6.1,90,450.0,3.817644649239704,[6400|2700|0|0]
121,12100,1.473125696182251,0.2151844203472137,0.0,-3.1928858757019043,-0.6196157336235046,-11.05915641784668,4.05859375,1,B2,6.1,90,450.0,3.8187760860871,[6400|2800|0|0]
122,12200,1.4722222089767456,0.2143686413764953,0.0,-2.766167640686035,-0.4869002401828766,-11.065874099731444,4.05859375,1,B2,6.1,90,450.0,3.819993371780591,[6400|2900|0|0]
123,12300,1.472364902496338,0.2139857858419418,0.0,-2.3624370098114014,-0.3925849497318268,-11.07084846496582,4.05859375,1,B2,6.1,90,450.0,3.820401954453831,[6400|3000|0|0]
124,12400,1.4722541570663452,0.2134189158678054,0.0,-1.9925131797790527,-0.2998073101043701,-11.052133560180664,4.05859375,1,B2,6.1,90,450.0,3.820979540913023,[6400|3100|0|0]
125,12500,1.472206950187683,0.2133270651102066,0.0,-1.6800681352615356,-0.2093695700168609,-11.035079956054688,4.05859375,1,B2,6.1,90,450.0,3.821082812647125,[6400|3200|0|0]
126,12600,1.472484111785889,0.213103711605072,0.0,-1.414797306060791,-0.1412908434867859,-11.041988372802734,4.06640625,1,B2,6.1,90,450.0,3.821438769582408,[6400|3300|0|0]
127,12700,1.472350835800171,0.2127671390771865,0.0,-1.1848737001419067,-0.0709305703639984,-11.037056922912598,4.06640625,1,B2,6.1,90,450.0,3.821800768967623,[6400|3400|0|0]
128,12800,1.4722570180892944,0.2126350551843643,0.0,-0.9979949593544006,-0.0060080853290855,-11.027960777282717,4.06640625,1,B2,6.1,90,450.0,3.821962781058583,[6400|3500|0|0]
129,12900,1.4721139669418335,0.21244478225708,0.0,-0.8373633623123169,0.0442718565464019,-11.000481605529783,4.06640625,1,B2,6.1,90,450.0,3.822200830250237,[6400|3600|0|0]
130,13000,1.4732718467712402,0.2134246677160263,0.0,-0.7332203984260559,0.0678898319602012,-10.981054306030272,4.0703125,1,B2,6.1,90,450.0,3.823717689245662,[6400|3700|0|0]
131,13100,1.4730321168899536,0.2130655497312545,0.0,-0.6096703410148621,0.1163652837276458,-10.982763290405272,4.0703125,1,B2,6.1,90,450.0,3.8241494717637994,[6400|3800|0|0]
132,13200,1.4728091955184937,0.2130795866250991,0.0,-0.5195122361183167,0.155617743730545,-10.973773002624512,4.0703125,1,B2,6.1,90,450.0,3.824372834635025,[6400|3900|0|0]
133,13300,1.4729193449020386,0.2128196507692337,0.0,-0.4398385286331177,0.1815723031759262,-10.966059684753418,4.0703125,1,B2,6.1,90,450.0,3.8246551456972586,[6400|4000|0|0]
134,13400,1.4727195501327517,0.2127628773450851,0.0,-0.382893443107605,0.2033771872520446,-10.955129623413086,4.0703125,1,B2,6.1,90,450.0,3.824862850226636,[6400|4100|0|0]
135,13500,1.4729738235473633,0.2127650529146194,0.0,-0.343648225069046,0.2070271223783493,-10.93317413330078,4.07421875,1,B2,6.1,90,450.0,3.8251171329481903,[6400|4200|0|0]
136,13600,1.4727177619934082,0.2129270136356353,0.0,-0.3147318959236145,0.238175481557846,-10.917651176452637,4.07421875,1,B2,6.1,90,450.0,3.825420116107072,[6400|4300|0|0]
137,13700,1.4725316762924194,0.2126094400882721,0.0,-0.2755479514598846,0.2654555141925812,-10.932068824768066,4.07421875,1,B2,6.1,90,450.0,3.8257881933355136,[6400|4400|0|0]
138,13800,1.4726747274398804,0.2124619781970977,0.0,-0.2514776289463043,0.2881810069084167,-10.937139511108398,4.07421875,1,B2,6.1,90,450.0,3.825993640750047,[6400|4500|0|0]
139,13900,1.4730048179626465,0.2119122594594955,0.0,-0.2116578370332718,0.301046758890152,-10.795610427856444,4.07421875,1,B2,6.1,90,450.0,3.826634850890088,[6400|4600|0|0]
140,14000,1.4730854034423828,0.2120820730924606,0.0,-0.1965486705303192,0.3215808272361755,-10.331661224365234,4.07421875,1,B2,6.1,90,450.0,3.826822815486449,[6400|4700|0|0]
141,14100,1.4766817092895508,0.2232285737991333,0.0,-0.3398012816905975,0.3146305382251739,-2.7039682865142822,4.07421875,1,B2,6.1,90,450.0,3.838535112176263,[6400|4800|0|0]
142,14200,1.4515913724899292,0.2381080836057663,0.0,-7.328527927398682,-6.628832340240479,8.7726411819458,4.08203125,1,B2,6.1,90,450.0,3.867705727747487,[6400|4900|0|0]
143,14300,1.390154242515564,0.319331020116806,0.0492585375905036,-11.2429780960083,-11.344001770019531,-0.2880813479423523,4.08203125,1,B2,6.1,90,450.0,3.9808343708071408,[6400|5000|0|0]
144,14400,1.341694951057434,0.4410766959190368,0.0562394671142101,-6.302079200744629,-6.838991165161133,-12.329427719116213,4.08203125,1,B2,6.1,90,450.0,4.112055732948298,[6400|5100|0|0]
145,14500,1.3597441911697388,0.5580534934997559,0.0370496325194835,-1.2430224418640137,-7.019562244415283,-13.750630378723145,4.08203125,1,B2,6.1,90,450.0,4.231962346580096,[6400|5200|0|0]
146,14600,1.363906741142273,0.5655983686447144,0.0109850671142339,1.1387643814086914,-4.479213237762451,-14.46755027770996,4.08203125,1,B2,6.1,90,450.0,4.259414368964455,[6400|5300|0|0]
147,14700,1.368178129196167,0.5575221180915833,0.0,0.6996784210205078,-0.1853332370519638,-12.50784683227539,4.08203125,1,B2,6.1,90,450.0,4.27370220569393,[6400|5400|0|0]
148,14800,1.3686678409576416,0.5532162189483643,0.0,3.066089868545532,-0.2101703137159347,-10.71407413482666,4.08203125,1,B2,6.1,90,450.0,4.278035862930134,[6400|5500|0|0]
149,14900,1.3673210144042969,0.5530195832252502,0.0,3.3317692279815674,-0.7219030857086182,-11.083048820495604,4.08203125,1,B2,6.1,90,450.0,4.27939696813268,[6400|5600|0|0]
150,15000,1.3512479066848757,0.5577106475830078,0.008280579932034,3.119401216506958,-0.2994647622108459,-2.880556344985962,4.0859375,1,B2,6.1,90,450.0,4.298076338587263,[6400|5700|0|0]
151,15100,1.2906512022018433,0.5785885453224182,0.0468787215650081,2.738830089569092,-0.5940768718719482,-5.615731716156006,4.08203125,1,B2,6.1,90,450.0,4.372893874938979,[6400|5800|0|0]
152,15200,1.2919049263000488,0.5791710615158081,0.0473804883658885,2.7318122386932373,-1.203723430633545,-7.490814685821533,4.0859375,1,B2,6.1,90,450.0,4.374364561565168,[6400|5900|0|0]
153,15300,1.293772578239441,0.5785768032073975,0.0461731478571891,2.692141532897949,-1.4478574991226196,-8.650793075561523,4.0859375,1,B2,6.1,90,450.0,4.376666503746843,[6400|6000|0|0]
154,15400,1.2952755689620972,0.5777039527893066,0.0449039041996002,2.659269094467163,-1.550329089164734,-9.427216529846191,4.0859375,1,B2,6.1,90,450.0,4.378818672055103,[6400|6100|0|0]
155,15500,1.295762300491333,0.5782096982002258,0.0449193194508552,2.5994555950164795,-1.548892617225647,-9.954505920410156,4.0859375,1,B2,6.1,90,450.0,4.379520757258044,[6400|6200|0|0]
156,15600,1.2957104444503784,0.5778446197509766,0.0448303967714309,2.585389852523804,-1.51129949092865,-10.35208225250244,4.0859375,1,B2,6.1,90,450.0,4.379900070540181,[6400|6300|0|0]
157,15700,1.2958418130874634,0.5775672793388367,0.0443008132278919,2.565884828567505,-1.4780415296554563,-10.64742946624756,4.12109375,1,B2,6.1,90,450.0,4.3805121441898365,[6400|6400|0|0]
158,15800,1.2961483001708984,0.577788770198822,0.0443547070026397,2.5382790565490723,-1.4419604539871216,-10.870025634765623,4.1484375,1,B2,6.1,90,450.0,4.380894108942564,[6400|6500|0|0]
159,15900,1.2960349321365356,0.5779457092285156,0.0445245057344436,2.516665458679199,-1.3924407958984375,-11.047819137573242,4.15234375,1,B2,6.1,90,450.0,4.38115162356269,[6400|6600|0|0]
160,16001,1.2958705425262451,0.5780903100967407,0.0446498282253742,2.508352518081665,-1.3466012477874756,-11.18292999267578,4.15234375,1,B2,6.1,90,450.0,4.381403891439749,[6400|6700|0|0]
161,16100,1.295552134513855,0.5779802203178406,0.0444233641028404,2.5133306980133057,-1.3002502918243408,-11.286458969116213,4.15234375,1,B2,6.1,90,450.0,4.381809834071863,[6400|6800|0|0]
162,16200,1.2957838773727417,0.5777671337127686,0.0445626303553581,2.510103702545166,-1.292407751083374,-11.37859058380127,4.15234375,1,B2,6.1,90,450.0,4.382154080702923,[6400|6900|0|0]
163,16300,1.2955156564712524,0.5781384110450745,0.0448941998183727,2.4896938800811768,-1.26889967918396,-11.45481300354004,4.15234375,1,B2,6.1,90,450.0,4.38271952532292,[6400|7000|0|0]
164,16400,1.295302152633667,0.5783145427703857,0.0450389087200164,2.4748125076293945,-1.2464715242385864,-11.522627830505373,4.15234375,1,B2,6.1,90,450.0,4.383031850377214,[6400|7100|0|0]
165,16500,1.2952948808670044,0.5781938433647156,0.0450454428791999,2.481861114501953,-1.2349928617477417,-11.579154014587402,4.15234375,1,B2,6.1,90,450.0,4.383152945052389,[6400|7200|0|0]
166,16600,1.2951650619506836,0.5782745480537415,0.0451602488756179,2.474529981613159,-1.2170884609222412,-11.63311004638672,4.15234375,1,B2,6.1,90,450.0,4.383344116741399,[6400|7300|0|0]
167,16700,1.295242428779602,0.5783351063728333,0.0448212288320064,2.4671530723571777,-1.2057052850723269,-11.68242359161377,4.16015625,1,B2,6.1,90,450.0,4.383697086323939,[6400|7400|0|0]
168,16800,1.2952749729156494,0.5781669020652771,0.0448593087494373,2.4674713611602783,-1.1984457969665527,-11.69932746887207,4.16015625,1,B2,6.1,90,450.0,4.383872590996193,[6400|7500|0|0]
169,16900,1.2953773736953735,0.5778718590736389,0.0451013892889022,2.461219787597656,-1.197658658027649,-11.722086906433104,4.16015625,1,B2,6.1,90,450.0,4.384267735620591,[6400|7600|0|0]
170,17000,1.2951096296310425,0.5784417986869812,0.0450632572174072,2.4426417350769043,-1.1820396184921265,-11.725933074951172,4.16015625,1,B2,6.1,90,450.0,4.384898585921151,[6400|7700|0|0]
171,17100,1.295277714729309,0.5778304934501648,0.0447832569479942,2.4627628326416016,-1.189928650856018,-11.721501350402832,4.16015625,1,B2,6.1,90,450.0,4.385591656511849,[6400|7800|0|0]
172,17200,1.2953593730926514,0.5785155892372131,0.0448159947991371,2.428586721420288,-1.183302402496338,-11.744887351989746,4.16015625,1,B2,6.1,90,450.0,4.38628237794096,[6400|7900|0|0]
173,17300,1.295170545578003,0.5783958435058594,0.0448258854448795,2.4406545162200928,-1.1673506498336792,-11.744476318359377,4.16015625,1,B2,6.1,90,450.0,4.386506191915812,[6400|8000|0|0]
174,17400,1.2951899766921997,0.5784898996353149,0.0447818860411644,2.4385218620300293,-1.1658732891082764,-11.761748313903809,4.16015625,1,B2,6.1,90,450.0,4.38661183315404,[6400|8100|0|0]
175,17500,1.295150637626648,0.5781226754188538,0.0445884503424167,2.451538562774658,-1.17169451713562,-11.773463249206545,4.16015625,1,B2,6.1,90,450.0,4.387028748681197,[6400|8200|0|0]
176,17600,1.295196771621704,0.5779303312301636,0.0450121201574802,2.4563114643096924,-1.173857808113098,-11.768632888793944,4.16015625,1,B2,6.1,90,450.0,4.387496317654311,[6400|8300|0|0]
177,17700,1.2951244115829468,0.578045666217804,0.045212984085083,2.450007438659668,-1.1739100217819214,-11.800823211669922,4.1640625,1,B2,6.1,90,450.0,4.387738978841967,[6400|8400|0|0]
178,17800,1.2952754497528076,0.5779054760932922,0.0448444820940494,2.448728561401367,-1.175350308418274,-11.776033401489258,4.1640625,1,B2,6.1,90,450.0,4.388161186749474,[6400|8500|0|0]
179,17900,1.2948238849639893,0.5784257054328918,0.0451042056083679,2.43720817565918,-1.1556023359298706,-11.771222114562988,4.1640625,1,B2,6.1,90,450.0,4.38889739706465,[6400|8600|0|0]
180,18000,1.2946985960006714,0.5785334706306458,0.0456749573349952,2.4291369915008545,-1.159554362297058,-11.76610279083252,4.1640625,1,B2,6.1,90,450.0,4.389491592483367,[6400|8700|0|0]
181,18100,1.2951301336288452,0.5782647728919983,0.0451454855501651,2.429757595062256,-1.1835999488830566,-11.748626708984377,4.1640625,1,B2,6.1,90,450.0,4.390225597640171,[6400|8800|0|0]
182,18200,1.295540452003479,0.5780642628669739,0.0446218401193618,2.440191984176636,-1.192692518234253,-11.73950481414795,4.1640625,1,B2,6.1,90,450.0,4.390920414145372,[6400|8900|0|0]
183,18300,1.295166015625,0.5779873132705688,0.045117262750864,2.451301336288452,-1.1710857152938845,-11.757549285888672,4.1640625,1,B2,6.1,90,450.0,4.391546167631755,[6400|9000|0|0]
184,18400,1.295272946357727,0.57830810546875,0.0450641475617885,2.44203519821167,-1.165385603904724,-11.76210594177246,4.1640625,1,B2,6.1,90,450.0,4.39188845850123,[6400|9100|0|0]
185,18500,1.295119047164917,0.5785011649131775,0.0447265952825546,2.4460794925689697,-1.1524072885513306,-11.752777099609377,4.171875,1,B2,6.1,90,450.0,4.392306667123625,[6400|9200|0|0]
186,18600,1.2951444387435913,0.5778319835662842,0.0449360944330692,2.4685287475585938,-1.1572445631027222,-11.747014999389648,4.171875,1,B2,6.1,90,450.0,4.39300833535104,[6400|9300|0|0]
187,18700,1.2952255010604858,0.5778698921203613,0.0451350286602973,2.460171222686768,-1.164717674255371,-11.750436782836914,4.171875,1,B2,6.1,90,450.0,4.393226470594537,[6400|9400|0|0]
188,18800,1.2956286668777466,0.5778896808624268,0.0445171371102333,2.4495186805725098,-1.1757067441940308,-11.752297401428224,4.171875,1,B2,6.1,90,450.0,4.393964524954432,[6400|9500|0|0]
189,18900,1.2953357696533203,0.5778773427009583,0.0448187142610549,2.4529800415039062,-1.1581463813781738,-11.752958297729492,4.171875,1,B2,6.1,90,450.0,4.3943851076362,[6400|9600|0|0]
190,19000,1.2951322793960571,0.5786027312278748,0.0451610088348388,2.4334912300109863,-1.1502704620361328,-11.761798858642578,4.171875,1,B2,6.1,90,450.0,4.395212611337113,[6400|9700|0|0]
191,19100,1.2949663400650024,0.5783752799034119,0.0451284833252429,2.4475464820861816,-1.1423934698104858,-11.764016151428224,4.171875,1,B2,6.1,90,450.0,4.395496033064165,[6400|9800|0|0]
192,19200,1.2951245307922363,0.5784767270088196,0.0452615171670913,2.4460995197296143,-1.151847243309021,-11.743603706359863,4.171875,1,B2,6.1,90,450.0,4.39572628037567,[6400|9900|0|0]
193,19300,1.294824481010437,0.5784438848495483,0.0450511090457439,2.4505271911621094,-1.147331476211548,-11.747228622436523,4.171875,1,B2,6.1,90,450.0,4.396094220665,[6400|10000|0|0]
194,19400,1.2952604293823242,0.5779913663864136,0.0449193529784679,2.452974319458008,-1.1853680610656738,-11.809011459350586,3.55859375,1,J1,6.1,90,450.0,4.396736235932492,[6400|10000|0|0]
195,19500,1.296161651611328,0.5759657025337219,0.044981762766838,2.8291146755218506,-1.4816845655441284,-12.278186798095703,3.58984375,1,J1,6.1,90,450.0,4.398954210353407,[6400|10000|0|0]
196,19600,1.2964919805526731,0.572502851486206,0.0518189258873462,3.332149028778076,1.9274860620498653,-10.513362884521484,3.658203125,1,J1,6.1,90,450.0,4.406625406747922,[6400|10000|0|0]
197,19700,1.29341721534729,0.570210874080658,0.0819358974695205,-4.311489582061768,2.988060474395752,-5.30881404876709,3.7109375,1,J1,6.1,90,450.0,4.436985566806414,[6400|10000|0|0]
198,19800,1.2885520458221436,0.5772420763969421,0.1293786764144897,-1.3506951332092283,0.0585624128580093,-1.3908053636550903,3.6796875,1,J1,6.1,90,450.0,4.485192671620354,[6400|10000|0|0]
199,19900,1.285973310470581,0.5865124464035034,0.1902316361665725,3.992036104202272,-4.119512557983398,-0.5383250713348389,3.701171875,1,J1,6.1,90,450.0,4.5468016997466,[6400|10000|0|0]
200,20000,1.292933464050293,0.5904908776283264,0.2555107772350311,5.0879411697387695,-4.336064338684082,0.0087062288075685,3.7109375,1,J1,6.1,90,450.0,4.612571281708929,[6400|10000|0|0]
201,20100,1.3101128339767456,0.5847676992416382,0.3383149802684784,5.035189151763916,-3.082228183746338,0.2653997242450714,3.716796875,1,J1,6.1,90,450.0,4.697332248916248,[6400|10000|0|0]
202,20200,1.3315989971160889,0.5731200575828552,0.4220528900623321,4.2276787757873535,0.7138367891311646,0.3358275890350342,3.716796875,1,J1,6.1,90,450.0,4.784563896265736,[6400|10000|0|0]
203,20300,1.3526334762573242,0.5559086203575134,0.5074331760406494,3.101827621459961,2.1734211444854736,0.3262631893157959,3.716796875,1,J1,6.1,90,450.0,4.87416566029884,[6400|10000|0|0]
204,20400,1.3689249753952026,0.5353285670280457,0.5954029560089111,0.3205569684505462,2.58048152923584,-1.7486178874969482,3.736328125,1,J1,6.1,90,450.0,4.965967804755643,[6400|10000|0|0]
205,20500,1.3787922859191897,0.5145337581634521,0.6828956604003906,-0.7884445190429688,3.0758771896362305,-3.647773265838623,3.7734375,1,J1,6.1,90,450.0,5.056437474891145,[6400|10000|0|0]
206,20600,1.3815525770187378,0.4970067739486694,0.7671564817428589,-1.156290054321289,3.701511859893799,-3.750127077102661,3.7890625,1,J1,6.1,90,450.0,5.142546129484785,[6400|10000|0|0]
207,20700,1.3792487382888794,0.4838664531707763,0.8376842141151428,-2.25998592376709,1.809536814689636,-3.055265188217163,3.7890625,1,J1,6.1,90,450.0,5.21432451576238,[6400|10000|0|0]
208,20800,1.3732941150665283,0.4749312400817871,0.8948879241943359,-1.9363666772842407,1.4330134391784668,-2.2872753143310547,3.78515625,1,J1,6.1,90,450.0,5.272527264988599,[6400|10000|0|0]
209,20900,1.3646295070648191,0.4688746035099029,0.9367700219154358,-0.0358140617609024,0.4625846743583679,-1.9390705823898315,3.76953125,1,J1,6.1,90,450.0,5.315722963708575,[6400|10000|0|0]
210,21000,1.354481816291809,0.4614584445953369,0.9663406014442444,0.9897359609603882,-0.1335247159004211,-1.7046564817428589,3.7578125,1,J1,6.1,90,450.0,5.347853855615591,[6400|10000|0|0]
211,21100,1.3438001871109009,0.4495503008365631,0.9868085980415344,0.1905191838741302,-1.279630422592163,-1.8660143613815308,3.75390625,1,J1,6.1,90,450.0,5.3738315378533255,[6400|10000|0|0]
212,21200,1.3347063064575195,0.434736967086792,1.0007011890411377,-0.5416465401649475,-1.812433123588562,-2.044910192489624,3.748046875,1,J1,6.1,90,450.0,5.396083225582626,[6400|10000|0|0]
213,21300,1.3286542892456057,0.4190049171447754,1.0101864337921145,-1.705552339553833,-1.8867518901824951,-1.143202781677246,3.736328125,1,J1,6.1,90,450.0,5.415424739889871,[6400|10000|0|0]
214,21400,1.3257458209991455,0.4035635888576507,1.0168251991271973,-2.893555164337158,-1.479404330253601,-0.8799883723258972,3.736328125,1,J1,6.1,90,450.0,5.432482495075877,[6400|10000|0|0]
215,21500,1.3241790533065796,0.3940183520317077,1.0210665464401243,-3.6461451053619385,-1.4153032302856443,-1.1369723081588743,3.732421875,1,J1,6.1,90,450.0,5.443044470937178,[6400|10000|0|0]
216,21600,1.3810433149337769,0.3455332517623901,0.993708610534668,-5.151840686798096,0.8055493235588074,-1.1779487133026123,3.66796875,1,J1,6.1,90,450.0,5.522623399401559,[6400|10000|0|0]
217,21700,1.3793048858642578,0.3470566570758819,1.0043962001800537,-8.146411895751953,2.911674976348877,-1.0621216297149658,3.716796875,1,J1,6.1,90,450.0,5.533558090609229,[6400|10000|0|0]
218,21800,1.3725907802581787,0.360372394323349,1.0204070806503296,-5.770298480987549,2.709286689758301,-1.0019755363464355,3.75390625,1,J1,6.1,90,450.0,5.555438135535294,[6400|10000|0|0]
219,21900,1.3645228147506714,0.379158079624176,1.0364711284637451,-1.7239006757736206,-0.2405837625265121,-1.22367262840271,3.76953125,1,J1,6.1,90,450.0,5.581439052284588,[6400|10000|0|0]
220,22000,1.3580645322799685,0.396427184343338,1.0479414463043213,0.6099575161933899,-1.7150899171829224,-1.0537471771240234,3.76953125,1,J1,6.1,90,450.0,5.603153093401723,[6400|10000|0|0]
221,22100,1.3548911809921265,0.4054905772209167,1.0499451160430908,2.1949594020843506,-3.1041927337646484,-0.9448052644729614,3.7578125,1,J1,6.1,90,450.0,5.612962779496163,[6400|10000|0|0]
222,22200,1.3605228662490845,0.4147706031799316,1.0525743961334229,2.4454009532928467,-2.9107441902160645,-0.6897056102752686,3.748046875,1,J1,6.1,90,450.0,5.62413183829388,[6400|10000|0|0]
223,22300,1.3714590072631836,0.4151334166526794,1.0471018552780151,2.6405346393585205,-1.6971200704574585,-0.466714859008789,3.7421875,1,J1,6.1,90,450.0,5.636366196360831,[6400|10000|0|0]
224,22400,1.383234977722168,0.4049920439720154,1.0346391201019287,0.4634559452533722,0.7025676369667053,-0.1522152423858642,3.65234375,1,J1,6.1,90,446.0,5.656287056989034,[6400|10000|0|0]
225,22500,1.3945351839065552,0.4032501876354217,1.0363670587539673,-6.910006523132324,10.160995483398438,0.5713416934013367,3.611328125,1,J1,6.1,90,446.0,5.667850555390997,[6400|10000|0|0]
226,22600,1.380465030670166,0.4065077304840088,1.046356439590454,-9.617615699768066,20.93726921081543,4.920533180236816,3.611328125,1,J1,6.1,90,446.0,5.685410980414391,[6400|10000|0|0]
227,22700,1.3360849618911743,0.4152120053768158,1.061004877090454,-7.674288272857666,21.67720031738281,6.346900939941406,3.611328125,1,J1,6.1,90,446.0,5.73294971859105,[6400|10000|0|0]
228,22800,1.247399091720581,0.4347763657569885,1.0888727903366089,-4.581597805023193,14.898719787597656,6.254893779754639,3.611328125,1,J1,6.1,90,446.0,5.827947446741232,[6400|10000|0|0]
229,22900,1.1355470418930054,0.4527114331722259,1.1311781406402588,2.8453497886657715,2.3906970024108887,4.760543346405029,3.62109375,1,J1,6.1,90,446.0,5.948870109456432,[6400|10000|0|0]
230,23000,1.0112148523330688,0.4536625146865845,1.175133466720581,5.773386478424072,-5.29357385635376,3.160245418548584,3.68359375,1,J1,6.1,90,446.0,6.080746826914982,[6400|10000|0|0]
231,23100,0.8976377844810486,0.4704674780368805,1.2351526021957395,4.345811367034912,-6.960870265960693,1.598908305168152,3.68359375,1,J1,6.1,90,446.0,6.210301656073345,[6400|10000|0|0]
232,23200,0.8007116913795471,0.484482079744339,1.303304672241211,3.7883920669555664,-7.427270889282227,0.653154194355011,3.7265625,1,J1,6.1,90,446.0,6.329615449225782,[6400|10000|0|0]
233,23300,0.7164212465286255,0.4907576143741607,1.3692818880081177,2.5836308002471924,-6.376688003540039,0.3124530911445617,3.748046875,1,J1,6.1,90,446.0,6.436840700115717,[6400|10000|0|0]
234,23400,0.6426896452903748,0.492095798254013,1.4267255067825315,1.7076579332351685,-6.315770149230957,0.1395364552736282,3.75390625,1,J1,6.1,90,446.0,6.530317483838483,[6400|10000|0|0]
235,23500,0.5788716673851013,0.4896002411842346,1.4727355241775513,0.6663243770599365,-6.674726963043213,0.0621448121964931,3.748046875,1,J1,6.1,90,446.0,6.609031420404357,[6400|10000|0|0]
236,23600,0.5255327820777893,0.4829854071140289,1.506676197052002,-0.7296215891838074,-6.751145362854004,-0.0715850740671157,3.7421875,1,J1,6.1,90,446.0,6.672598408619731,[6400|10000|0|0]
237,23700,0.484870046377182,0.4724705517292022,1.528624176979065,-1.628893256187439,-6.934659481048584,-0.2118440866470337,3.732421875,1,J1,6.1,90,446.0,6.7199875854568525,[6400|10000|0|0]
238,23800,0.4564225375652313,0.4626171290874481,1.540107011795044,-3.0118672847747803,-6.11094331741333,-0.1289446353912353,3.716796875,1,J1,6.1,90,446.0,6.752208792615711,[6400|10000|0|0]
239,23900,0.509174644947052,0.3590982854366302,1.584510087966919,-2.211430549621582,-5.046790599822998,3.1430108547210693,3.7109375,1,J1,6.1,90,446.0,6.876589534684373,[6400|10000|0|0]
240,24000,0.5499036908149719,0.3078436553478241,1.623100996017456,-8.263980865478516,-0.3185822665691376,6.624152660369873,3.76953125,1,J1,6.1,90,446.0,6.952583945446063,[6400|10000|0|0]
241,24100,0.5534993410110474,0.3150396943092346,1.610501050949097,-11.17172908782959,5.235668182373047,3.3391363620758057,3.736328125,1,J1,6.1,90,446.0,6.96753286824312,[6400|10000|0|0]
242,24200,0.5478112697601318,0.3328356742858886,1.5801939964294434,-8.544618606567383,6.91288423538208,-1.5265940427780151,3.689453125,1,J1,6.1,90,446.0,7.003135798059951,[6400|10000|0|0]
243,24300,0.4965371787548065,0.3757728040218353,1.5510390996932983,-3.838521718978882,6.791228294372559,-0.7297660112380981,3.6484375,1,J1,6.1,90,446.0,7.076092206428779,[6400|10000|0|0]
244,24400,0.4620908796787262,0.4173882603645324,1.5228735208511353,-0.6083102226257324,0.1133376583456993,-0.2844538390636444,3.658203125,1,J1,6.1,90,446.0,7.137015876362261,[6400|10000|0|0]
245,24500,0.426961600780487,0.4568454027175903,1.5005333423614502,3.026661396026612,-3.3371481895446777,-0.369732528924942,3.6796875,1,J1,6.1,90,446.0,7.194374536506399,[6400|10000|0|0]
246,24600,0.3936871588230133,0.4913227260112762,1.4799429178237915,5.671579837799072,-6.41957426071167,-0.2745718657970428,3.68359375,1,J1,6.1,90,446.0,7.246526620757363,[6400|10000|0|0]
247,24700,0.3729355037212372,0.5221887826919556,1.473567008972168,6.217804431915283,-6.587122440338135,-1.985523104667664,3.68359375,1,J1,6.1,90,446.0,7.284262503656299,[6400|10000|0|0]
248,24800,0.3729457259178161,0.5391972661018372,1.486528992652893,5.282176971435547,-5.7418718338012695,-4.156132698059082,3.6953125,1,J1,6.1,90,446.0,7.305647115725189,[6400|10000|0|0]
249,24900,0.379056453704834,0.5480239987373352,1.4876025915145874,4.021538734436035,-2.7887496948242188,-1.528856873512268,3.720703125,1,J1,6.1,90,446.0,7.316436222158135,[6400|10000|0|0]
250,25000,0.3824816048145294,0.5509505271911621,1.4850387573242188,2.631762981414795,-0.2371904253959655,-2.351973533630371,3.705078125,1,J1,6.1,90,446.0,7.321619799559024,[6400|10000|0|0]
251,25100,0.386817067861557,0.5461453795433044,1.47639799118042,2.107372045516968,0.6168246269226074,-2.228056192398072,3.6953125,1,J1,6.1,90,446.0,7.332415563696021,[6400|10000|0|0]
252,25200,0.3875550031661987,0.5407065749168396,1.4695149660110474,0.2673167884349823,0.516162097454071,-1.9839707612991333,3.6953125,1,J1,6.1,90,446.0,7.341219039132513,[6400|10000|0|0]
253,25300,0.3868618011474609,0.532133936882019,1.4613704681396484,-0.5540382266044617,-0.1381798982620239,-1.7202051877975464,3.701171875,1,J1,6.1,90,446.0,7.353064016865377,[6400|10000|0|0]
254,25400,0.3861980736255646,0.5298734903335571,1.4585952758789062,-1.126252293586731,-0.2095876038074493,-0.8903343677520752,3.701171875,1,J1,6.1,90,450.0,7.356704325218506,[6400|10000|0|0]
255,25500,0.3873008489608764,0.5215489268302917,1.4368537664413452,-0.7755768299102783,-1.4562220573425293,0.1956002116203308,3.900390625,1,J1,6.1,90,450.0,7.380011141894827,[6400|10000|0|0]
256,25600,0.3900790810585022,0.5177993178367615,1.3809369802474976,-1.759496569633484,-1.0842103958129885,1.756968379020691,3.810546875,1,J1,6.1,90,450.0,7.436122327227531,[6400|10000|0|0]
257,25700,0.39270681142807,0.5155417323112488,1.2887966632843018,-1.766705870628357,-0.9843043684959412,2.6827008724212646,3.7421875,1,J1,6.1,90,450.0,7.528327748268696,[6400|10000|0|0]
258,25800,0.3970251083374023,0.5147601366043091,1.17471182346344,-1.0911225080490112,-0.353561133146286,2.232294797897339,3.701171875,1,J1,6.1,90,450.0,7.642496961531282,[6400|10000|0|0]
259,25900,0.4017190337181091,0.5148173570632935,1.0515916347503662,-0.0039271931163966,-1.4166250228881836,3.87374210357666,3.68359375,1,J1,6.1,90,450.0,7.765706608387377,[6400|10000|0|0]
260,26000,0.4087227880954742,0.5150193572044373,0.9259490370750428,-0.957948625087738,0.2861908078193664,0.7477632761001587,3.6953125,1,J1,6.1,90,450.0,7.891544423570408,[6400|10000|0|0]
261,26100,0.416112869977951,0.5151825547218323,0.8030518293380737,0.8523401021957397,1.1540963649749756,-0.793786883354187,3.701171875,1,J1,6.1,90,450.0,8.014663729989845,[6400|10000|0|0]
262,26200,0.4214397668838501,0.5152029395103455,0.6821781396865845,0.0333246104419231,0.8081117868423462,-1.9529646635055544,3.705078125,1,J1,6.1,90,450.0,8.13565474245007,[6400|10000|0|0]
263,26300,0.4252527058124542,0.5143017768859863,0.5598050355911255,0.8615621328353882,1.299731731414795,-2.89660906791687,3.701171875,1,J1,6.1,90,450.0,8.258090550951124,[6400|10000|0|0]
264,26400,0.4267273545265198,0.5131605863571167,0.4370754063129425,0.6048566699028015,1.4228999614715576,-3.6770036220550537,3.6484375,1,J1,6.1,90,450.0,8.380834344307095,[6400|10000|0|0]
265,26500,0.426330953836441,0.5119163393974304,0.3196021020412445,-0.1628536880016327,0.5102642178535461,-4.485175609588623,3.611328125,1,J1,6.1,90,450.0,8.498314906531297,[6400|10000|0|0]
266,26600,0.4240064322948456,0.5115127563476562,0.2162661999464035,-1.1806540489196775,1.2702829837799072,-5.180760383605957,3.599609375,1,J1,6.1,90,450.0,8.601677738059028,[6400|10000|0|0]
267,26700,0.4219544231891632,0.5150874853134155,0.1317726373672485,-3.5940308570861816,-3.743390083312988,-6.887716293334961,3.630859375,1,J1,6.1,90,450.0,8.68627177771825,[6400|10000|0|0]
268,26800,0.4263259470462799,0.525510847568512,0.0660610124468803,-2.2097949981689453,-2.4630167484283447,-8.228012084960938,3.599609375,1,J1,6.1,90,450.0,8.752948417939617,[6400|10000|0|0]
269,26900,0.4337173700332641,0.5378609299659729,0.0207597874104976,3.954923868179321,2.920573711395264,-8.854795455932617,3.626953125,1,J1,6.1,90,450.0,8.800481129400184,[6400|10000|0|0]
270,27000,0.4345956742763519,0.5418573617935181,0.0,6.904335021972656,5.883372783660889,-8.381067276000977,3.63671875,1,J1,6.1,90,450.0,8.821640327377063,[6400|10000|0|0]
271,27100,0.4237007200717926,0.5351114869117737,0.0,2.802994966506958,2.5083673000335693,-5.202287673950195,3.65234375,1,J1,6.1,90,450.0,8.834454649639266,[6400|10000|0|0]
272,27200,0.4081199467182159,0.5236502289772034,0.0105948215350508,-0.5054596662521362,-2.4447154998779297,-1.9965903759002688,3.701171875,1,J1,6.1,90,450.0,8.856508474139742,[6400|10000|0|0]
273,27300,0.3963903486728668,0.5119460821151733,0.0331164374947547,-0.6656924486160278,-4.356720447540283,-0.0829785019159317,3.720703125,1,J1,6.1,90,450.0,8.884469048338243,[6400|10000|0|0]
274,27400,0.3901657462120056,0.5031556487083435,0.0523755587637424,-2.5936479568481445,-5.21690034866333,1.345366597175598,3.716796875,1,J1,6.1,90,450.0,8.90653556476765,[6400|10000|0|0]
275,27500,0.3909137845039367,0.4981889724731445,0.0629735514521598,-1.532213807106018,-3.901707410812378,2.6041100025177,3.701171875,1,J1,6.1,90,450.0,8.918263517834372,[6400|10000|0|0]
276,27600,0.3853185772895813,0.4810736775398254,0.0578052513301372,-1.4238845109939575,-3.4416208267211914,2.8708150386810303,3.68359375,1,J1,6.1,90,450.0,8.93699720381918,[6400|10000|0|0]
277,27700,0.3952196836471557,0.4814915359020233,0.0575863420963287,-1.298006534576416,-0.1341407597064972,3.746377229690552,3.66796875,1,J1,6.1,90,450.0,8.94690954128153,[6400|10000|0|0]
278,27800,0.4064935743808746,0.4853157103061676,0.0564206391572952,-1.46387779712677,0.0645502507686615,4.153017520904541,3.673828125,1,J1,6.1,90,450.0,8.958871304759011,[6400|10000|0|0]
279,27900,0.4150978922843933,0.4933184087276459,0.0537886545062065,-2.0627212524414062,3.4959895610809326,3.926340818405152,3.66796875,1,J1,6.1,90,450.0,8.970913099135826,[6400|10000|0|0]
280,28000,0.4196024537086487,0.5037946105003357,0.0505624487996101,0.1841330826282501,0.0151932761073112,2.368903875350952,3.66796875,1,J1,6.1,90,450.0,8.982764271249515,[6400|10000|0|0]
281,28100,0.4227461516857147,0.5150851607322693,0.0470111034810543,4.669622421264648,1.1181727647781372,1.1550663709640503,3.65234375,1,J1,6.1,90,450.0,8.995010552933456,[6400|10000|0|0]
282,28200,0.4220719933509826,0.5187533497810364,0.0449515208601951,3.000760078430176,1.6231924295425415,-0.614862322807312,3.6640625,1,J1,6.1,90,450.0,8.999271067096082,[6400|10000|0|0]
283,28300,0.4193707704544067,0.5158699154853821,0.0436028130352497,3.4058430194854736,-0.3498533070087433,-1.263069987297058,3.66796875,1,J1,6.1,90,450.0,9.003445969642419,[6400|10000|0|0]
284,28400,0.4172486960887909,0.5072197318077087,0.0443469993770122,1.4468828439712524,0.3766654729843139,0.1146254539489746,3.65234375,1,J1,6.1,90,450.0,9.01238368135079,[6400|10000|0|0]
285,28500,0.4147461652755737,0.4969428479671478,0.0480708740651607,1.5275287628173828,0.8562899231910706,1.6217093467712402,3.66796875,1,J1,6.1,90,450.0,9.023597255474884,[6400|10000|0|100]
286,28600,0.4115959703922272,0.4861771762371063,0.0542882196605205,-0.183456003665924,0.1194461286067962,2.3739101886749268,3.66796875,1,J1,6.1,90,450.0,9.036422184396878,[6400|10000|0|200]
287,28700,0.410680890083313,0.4773961901664734,0.059939831495285,-0.5276163816452026,-1.166550636291504,2.275261878967285,3.6640625,1,J1,6.1,90,450.0,9.046904732020202,[6400|10000|0|300]
288,28801,0.4092403650283813,0.4689096808433532,0.0647768750786781,-0.5481061339378357,-1.0957220792770386,0.9509719014167786,3.673828125,1,J1,6.1,90,450.0,9.056778583525716,[6400|10000|0|400]
289,28901,0.4106953740119934,0.4621674716472626,0.0651046857237815,-1.2303308248519895,0.2438301593065261,0.5422583222389221,3.6640625,1,J1,6.1,90,450.0,9.06368379140132,[6400|10000|0|500]
290,29001,0.4125421643257141,0.4564754664897918,0.0630502924323082,0.299215018749237,-0.5266242027282715,1.2475924491882324,3.6484375,1,J1,6.1,90,450.0,9.070010725016552,[6400|10000|0|600]
291,29101,0.4150110185146332,0.4511273801326751,0.0630055516958236,0.4422523379325866,1.0018463134765625,1.4948188066482544,3.658203125,1,J1,6.1,90,450.0,9.075901333679742,[6400|10000|0|700]
292,29201,0.4172637462615967,0.4469684064388275,0.0644684433937072,0.4240130186080932,-0.0670761466026306,1.5519397258758545,3.6640625,1,J1,6.1,90,450.0,9.080852282741064,[6400|10000|0|800]
293,29301,0.4184670150279999,0.4437340795993805,0.066952459514141,0.6146509647369385,0.8693376779556274,2.14878249168396,3.658203125,1,J1,6.1,90,450.0,9.085104230755226,[6400|10000|0|900]
294,29401,0.4195178747177124,0.4409490525722503,0.0680984705686569,-0.6153857111930847,0.7386429309844971,2.825854539871216,3.6640625,1,J1,6.1,90,450.0,9.088293905184754,[6400|10000|0|1000]
295,29501,0.4202472269535064,0.4409583806991577,0.0681070685386657,-1.4438716173171997,0.8575991988182068,3.255120038986206,3.65234375,1,J1,6.1,90,450.0,9.089023367742325,[6400|10000|0|1100]
296,29601,0.4205807745456695,0.4455446004867553,0.0682947561144828,-1.1167384386062622,1.0451229810714722,3.943207979202272,3.6484375,1,J1,6.1,90,450.0,9.093625529469438,[6400|10000|0|1200]
297,29702,0.420476883649826,0.4541873335838318,0.0690842643380165,-0.7979615926742554,0.1765175610780716,4.576312065124512,3.65234375,1,J1,6.1,90,450.0,9.102304869993958,[6400|10000|0|1300]
298,29802,0.4196723699569702,0.4643453657627105,0.0693114250898361,0.9493950605392456,0.911333441734314,4.771958351135254,3.6484375,1,J1,6.1,90,450.0,9.112497242732251,[6400|10000|0|1400]
299,29902,0.4197334945201874,0.4749222695827484,0.0691569596529007,0.7995810508728027,-0.7562474608421326,3.734934568405152,3.642578125,1,J1,6.1,90,450.0,9.123075451002167,[6400|10000|0|1500]
300,30002,0.42086061835289,0.4830484092235565,0.0702017918229103,2.0344078540802,0.7297879457473755,1.701242208480835,3.6484375,1,J1,6.1,90,450.0,9.131345652200425,[6400|10000|0|1600]
301,30100,0.4229530692100525,0.4860636293888092,0.0741941183805465,1.976359724998474,0.5200535655021667,-0.0213535912334918,3.658203125,1,J1,6.1,90,450.0,9.136768619522602,[6400|10000|0|1700]
302,30200,0.4243846833705902,0.4874669015407562,0.0803972780704498,-0.6279969811439514,0.0927544608712196,-0.0967626944184303,3.65234375,1,J1,6.1,90,450.0,9.14328765948072,[6400|10000|0|1800]
303,30300,0.4271374940872192,0.488169252872467,0.087185800075531,1.6027321815490725,-0.5393115878105164,0.3375917971134186,3.6640625,1,J1,6.1,90,450.0,9.150646687626352,[6400|10000|0|1900]
304,30400,0.4298900663852691,0.4892535209655761,0.0935488045215606,-0.3534691035747528,0.0111396806314587,2.7072556018829346,3.931640625,1,J1,6.1,90,450.0,9.15766381788978,[6400|10000|0|2000]
305,30500,0.4333581030368805,0.4918877780437469,0.0793199837207794,-1.551493763923645,0.2518236041069031,6.363697052001953,4.0078125,1,J1,6.1,90,450.0,9.172544205315903,[6400|10000|0|2100]
306,30600,0.4353941082954407,0.4962635934352875,0.0051246806979179,-10.949031829833984,0.4258822798728943,11.655208587646484,4.0078125,1,J1,6.1,90,450.0,9.24689631401773,[6400|10000|0|2200]
307,30700,0.4396740198135376,0.4939974844455719,0.0,-1.309634566307068,0.395347535610199,5.795722961425781,4.01171875,1,J1,6.1,90,450.0,9.253947217847143,[6400|10000|0|2300]
308,30800,0.439889132976532,0.4950053691864013,0.0,-0.9491721391677856,0.2674219012260437,5.5462260246276855,4.01171875,1,J1,6.1,90,450.0,9.254977802789634,[6400|10000|0|2400]
309,30900,0.4400044679641723,0.4951995611190796,0.0,-1.0378499031066897,0.3285994231700897,5.525285243988037,4.015625,1,J1,6.1,90,450.0,9.255203662626904,[6400|10000|0|2500]
310,31000,0.4403881430625915,0.4964004456996918,0.0,-1.340302348136902,0.1269755959510803,5.501945018768311,4.015625,1,J1,6.1,90,450.0,9.25646434908955,[6400|10000|0|2600]
311,31100,0.4402930438518524,0.4963403940200805,0.0,-1.2479526996612549,0.2143945544958114,5.463458061218262,4.015625,1,J1,6.1,90,450.0,9.256576821593333,[6400|10000|0|2700]
312,31200,0.4405583441257477,0.4961703419685364,0.0,-1.0922536849975586,0.2042969167232513,5.482428550720215,4.0234375,1,J1,6.1,90,450.0,9.256891943689611,[6400|10000|0|2800]
313,31300,0.4404084682464599,0.4959973096847534,0.0,-0.9248866438865662,0.2376765608787536,5.490597724914551,4.0234375,1,J1,6.1,90,450.0,9.257120860596858,[6400|10000|0|2900]
314,31400,0.4402560889720917,0.4959292411804199,0.0,-0.7897650003433228,0.218048095703125,5.472261428833008,4.0234375,1,J1,6.1,90,450.0,9.257287752072193,[6400|10000|0|3000]
315,31500,0.4406437873840332,0.495646208524704,0.0,-0.6683759093284607,0.210705280303955,5.479527473449707,4.02734375,1,J1,6.1,90,450.0,9.25776777034562,[6400|10000|0|3100]
316,31600,0.4408570826053619,0.4956213235855102,0.0,-0.5575125217437744,0.1986800581216812,5.466100692749023,4.02734375,1,J1,6.1,90,450.0,9.257982512310871,[6400|10000|0|3200]
317,31700,0.4406870305538177,0.4956144094467163,0.0,-0.4712282121181488,0.2029815465211868,5.469086170196533,4.02734375,1,J1,6.1,90,450.0,9.258152704865202,[6400|10000|0|3300]
318,31800,0.4405923187732696,0.495606929063797,0.0,-0.3856116533279419,0.1872544735670089,5.4807658195495605,4.02734375,1,J1,6.1,90,450.0,9.258247711588664,[6400|10000|0|3400]
319,31900,0.4405025839805603,0.4956434369087219,0.0,-0.3100599646568298,0.1790470629930496,5.480809211730957,4.03125,1,J1,6.1,90,450.0,9.258344588602265,[6400|10000|0|3500]
320,32000,0.4408293664455414,0.4954174160957336,0.0,-0.265015959739685,0.1717106401920318,5.467658042907715,4.03125,1,J1,6.1,90,450.0,9.25874191993418,[6400|10000|0|3600]
321,32100,0.4406656324863434,0.4951648712158203,0.0,-0.2213259935379028,0.1742873787879943,5.467728137969971,4.03125,1,J1,6.1,90,450.0,9.259042897883148,[6400|10000|0|3700]
322,32200,0.4408113062381744,0.4953670799732208,0.0,-0.1873735785484314,0.1766205728054046,5.4624505043029785,4.03125,1,J1,6.1,90,450.0,9.259292115104747,[6400|10000|0|3800]
323,32300,0.4410733580589294,0.4946427345275879,0.0,-0.1375115662813186,0.1810418218374252,5.454051971435547,4.03125,1,J1,6.1,90,450.0,9.26006240562226,[6400|10000|0|3900]
324,32400,0.4406616389751434,0.4948993027210235,0.0,-0.1282171905040741,0.1911152750253677,5.451394557952881,4.0390625,1,J1,6.1,90,450.0,9.26054752400146,[6400|10000|0|4000]
325,32500,0.4408853054046631,0.4951984286308288,0.0,-0.114486463367939,0.1869970858097076,5.486985206604004,4.0390625,1,J1,6.1,90,450.0,9.260921024980858,[6400|10000|0|4100]
