time.ms,stateEstimate.x,stateEstimate.y,stateEstimate.z,stabilizer.roll,stabilizer.pitch,stabilizer.yaw,pm.vbat,drone_id,node_name,wind_speed,global_wind_direction,relative_wind_direction,travel_dist,waiting_time
0,1.824775218963623,-0.1450687050819397,-0.011995186097919941,0.41191554069519043,0.5125852227210999,-13.237884521484375,4.0546875,1,B1,0,None,0,0.04911322507474006,[100|0|0|0]
100,1.8246411085128784,-0.1453668177127838,-0.011728215962648392,0.44099050760269165,0.5167837738990784,-13.23619556427002,4.0546875,1,B1,0,None,0,0.04953527934470381,[200|0|0|0]
200,1.8247289657592773,-0.14495401084423065,-0.01212244387716055,0.44035202264785767,0.5235044360160828,-13.244415283203125,4.0546875,1,B1,0,None,0,0.05011281207542136,[300|0|0|0]
300,1.8248114585876465,-0.14538423717021942,-0.01208012830466032,0.46250560879707336,0.5275241732597351,-13.236706733703613,4.0546875,1,B1,0,None,0,0.050552914752057344,[400|0|0|0]
400,1.8246557712554932,-0.14490655064582825,-0.01204453594982624,0.4514221251010895,0.525854766368866,-13.24118423461914,4.0546875,1,B1,0,None,0,0.051056591013857094,[500|0|0|0]
500,1.8246759176254272,-0.14530684053897858,-0.011651427485048771,0.4685312509536743,0.527868390083313,-13.235608100891113,4.0546875,1,B1,0,None,0,0.05161799295530326,[600|0|0|0]
600,1.8245456218719482,-0.14525911211967468,-0.011738624423742294,0.45812147855758667,0.5269317626953125,-13.226773262023926,4.0546875,1,B1,0,None,0,0.05178187795004479,[700|0|0|0]
700,1.824601411819458,-0.14528632164001465,-0.01220838725566864,0.45137009024620056,0.5230287313461304,-13.210034370422363,4.0546875,1,B1,0,None,0,0.05225572391077436,[800|0|0|0]
800,1.824535846710205,-0.14516352117061615,-0.012328161858022213,0.4441758692264557,0.5228968858718872,-13.221517562866211,4.0546875,1,B1,0,None,0,0.052439366754917,[900|0|0|0]
900,1.824530839920044,-0.1448746770620346,-0.012161419726908207,0.43187904357910156,0.5308493971824646,-13.253829956054688,4.0546875,1,B1,0,None,0,0.05277292173583982,[1000|0|0|0]
1000,1.824886441230774,-0.1451311707496643,-0.01175667904317379,0.4362529218196869,0.5242383480072021,-13.262537002563477,4.0546875,1,B1,0,None,0,0.05336962629008469,[1100|0|0|0]
1100,1.824877142906189,-0.14543455839157104,-0.011785668320953846,0.43986397981643677,0.5277576446533203,-13.248662948608398,4.0546875,1,B1,0,None,0,0.0536745375859201,[1200|0|0|0]
1199,1.8245562314987183,-0.14538200199604034,-0.01189422607421875,0.4361959993839264,0.5357798337936401,-13.224824905395508,4.0546875,1,B1,0,None,0,0.05401736566521048,[1300|0|0|0]
1299,1.824691653251648,-0.1453147828578949,-0.011877349577844143,0.43069443106651306,0.5424159169197083,-13.208834648132324,4.0546875,1,B1,0,None,0,0.05416949153358745,[1400|0|0|0]
1399,1.825714111328125,-0.1451931893825531,-0.011742920614778996,0.4180085062980652,0.5413851737976074,-13.222487449645996,4.0546875,1,B1,0,None,0,0.05520789253392866,[1500|0|0|0]
1499,1.8256586790084839,-0.14505313336849213,-0.012092070654034615,0.4141367971897125,0.5428522825241089,-13.248941421508789,4.0546875,1,B1,0,None,0,0.055588147946839035,[1600|0|0|0]
1599,1.8259309530258179,-0.14507421851158142,-0.011593984439969063,0.41409724950790405,0.5411880612373352,-13.260662078857422,4.0546875,1,B1,0,None,0,0.056156186326190675,[1700|0|0|0]
1699,1.8253397941589355,-0.14491350948810577,-0.012128574773669243,0.41482752561569214,0.5525770783424377,-13.283805847167969,4.0546875,1,B1,0,None,0,0.056969256446786534,[1800|0|0|0]
1799,1.8255512714385986,-0.1452181488275528,-0.011805511079728603,0.42448461055755615,0.5557135939598083,-13.280170440673828,4.0546875,1,B1,0,None,0,0.0574610876345888,[1900|0|0|0]
1899,1.8257322311401367,-0.14533187448978424,-0.011896577663719654,0.42349743843078613,0.5444673299789429,-13.25429630279541,4.0546875,1,B1,0,None,0,0.05769340866796833,[2000|0|0|0]
1999,1.8256207704544067,-0.1448102742433548,-0.012167651206254959,0.4225326478481293,0.5557602643966675,-13.268654823303223,4.0546875,1,B1,0,None,0,0.05829171558502787,[2100|0|0|0]
2099,1.8256632089614868,-0.1448022872209549,-0.011937098577618599,0.42062100768089294,0.5487072467803955,-13.28449821472168,4.0546875,1,B1,0,None,0,0.05852627758958346,[2200|0|0|0]
2199,1.8259426355361938,-0.1447429209947586,-0.011323027312755585,0.26596778631210327,0.4485410451889038,-13.267629623413086,4.0546875,1,B1,0,None,0,0.05920354199717901,[2300|0|0|0]
2299,1.8256570100784302,-0.1445462554693222,-0.011984371580183506,0.2895743250846863,0.4738367199897766,-13.267958641052246,4.0546875,1,B1,0,None,0,0.05995029193596552,[2400|0|0|0]
2399,1.8259241580963135,-0.1452179253101349,-0.01180723961442709,0.3321675956249237,0.4873925745487213,-13.276054382324219,4.0546875,1,B1,0,None,0,0.06069452588561378,[2500|0|0|0]
2499,1.825904369354248,-0.14473393559455872,-0.012054791674017906,0.33660951256752014,0.4948923885822296,-13.25340747833252,4.0546875,1,B1,0,None,0,0.06123851086822239,[2600|0|0|0]
2599,1.8277782201766968,-0.14430439472198486,-0.012654031626880169,-0.8521732687950134,-0.7541748285293579,-10.98095417022705,4.0546875,1,B1,0,None,0,0.0632521917732095,[2700|0|0|0]
2699,1.8275691270828247,-0.1440594345331192,-0.011709731072187424,0.4139740467071533,1.2085057497024536,-12.464436531066895,4.0546875,1,B1,0,None,0,0.06424990363222849,[2800|0|0|0]
2799,1.8265502452850342,-0.1445896327495575,-0.011449596844613552,1.2886314392089844,2.4928646087646484,-12.83461856842041,4.0546875,1,B1,0,None,0,0.06542757085302503,[2900|0|0|0]
2899,1.8258190155029297,-0.14426369965076447,-0.012471955269575119,1.453969120979309,2.7921204566955566,-13.051762580871582,4.0546875,1,B1,0,None,0,0.06672608774864684,[3000|0|0|0]
2999,1.8254578113555908,-0.14519913494586945,-0.011967241764068604,1.4373425245285034,2.6156110763549805,-13.121708869934082,4.0546875,1,B1,0,None,0,0.06784869335616162,[3100|0|0|0]
3099,1.8251835107803345,-0.14476074278354645,-0.011873895302414894,1.2731133699417114,2.3548672199249268,-13.173356056213379,4.0546875,1,B1,0,None,0,0.0683741855592203,[3200|0|0|0]
3199,1.8252909183502197,-0.1448407620191574,-0.01209628488868475,1.134787917137146,2.0626840591430664,-13.22335433959961,4.0546875,1,B1,0,None,0,0.06863379409570879,[3300|0|0|0]
3299,1.8252010345458984,-0.1447405368089676,-0.0119427889585495,1.0058737993240356,1.8258363008499146,-13.271105766296387,4.0546875,1,B1,0,None,0,0.06883796361254454,[3400|0|0|0]
3399,1.825419545173645,-0.14526574313640594,-0.0116420341655612,0.9155915975570679,1.5996806621551514,-13.289531707763672,4.0546875,1,B1,0,None,0,0.06948142458752665,[3500|0|0|0]
3499,1.825351357460022,-0.14512163400650024,-0.011790825985372066,0.8167496919631958,1.4344207048416138,-13.286683082580566,4.0546875,1,B1,0,None,0,0.06969949799547441,[3600|0|0|0]
3599,1.8254390954971313,-0.1451750099658966,-0.011464295908808708,0.7389387488365173,1.275793194770813,-13.284574508666992,4.0546875,1,B1,0,None,0,0.07004179734852341,[3700|0|0|0]
3699,1.8254191875457764,-0.14505818486213684,-0.011425405740737915,0.6753429770469666,1.1516320705413818,-13.276176452636719,4.0546875,1,B1,0,None,0,0.07016652455713566,[3800|0|0|0]
3799,1.8253529071807861,-0.14519409835338593,-0.011468456126749516,0.6277560591697693,1.046074390411377,-13.278514862060547,4.0546875,1,B1,0,None,0,0.07032374700980226,[3900|0|0|0]
3899,1.8255984783172607,-0.14507758617401123,-0.011762391775846481,0.5704152584075928,0.9380077719688416,-13.288403511047363,4.0546875,1,B1,0,None,0,0.07072409490454148,[4000|0|0|0]
3999,1.8255102634429932,-0.1450371891260147,-0.012099487707018852,0.5277163982391357,0.8634992241859436,-13.295175552368164,4.0546875,1,B1,0,None,0,0.07107487610748978,[4100|0|0|0]
4099,1.8257349729537964,-0.14481809735298157,-0.011568186804652214,0.4935738146305084,0.7933330535888672,-13.305977821350098,4.0546875,1,B1,0,None,0,0.071691946782625,[4200|0|0|0]
4199,1.8255606889724731,-0.14480330049991608,-0.011865897104144096,0.46227556467056274,0.7361883521080017,-13.286094665527344,4.0546875,1,B1,0,None,0,0.07203723691487622,[4300|0|0|0]
4299,1.8257086277008057,-0.14505964517593384,-0.0116883534938097,0.44162389636039734,0.6798809766769409,-13.279956817626953,4.0546875,1,B1,0,None,0,0.07238237484938048,[4400|0|0|0]
4399,1.8254348039627075,-0.14524510502815247,-0.01148258987814188,0.42641258239746094,0.6386007070541382,-13.27810287475586,4.0546875,1,B1,0,None,0,0.0727718789724186,[4500|0|0|0]
4499,1.8256498575210571,-0.1450677067041397,-0.01173754595220089,0.4097777307033539,0.6116738319396973,-13.26255989074707,4.0546875,1,B1,0,None,0,0.07314966303510646,[4600|0|0|0]
4599,1.8256243467330933,-0.14513742923736572,-0.011371435597538948,0.39389389753341675,0.5825775861740112,-13.245916366577148,4.0546875,1,B1,0,None,0,0.07352322537760458,[4700|0|0|0]
4699,1.8256397247314453,-0.14470574259757996,-0.011814147233963013,0.3767184615135193,0.5680403709411621,-13.233908653259277,4.0546875,1,B1,0,None,0,0.07414175866759641,[4800|0|0|0]
4799,1.825569748878479,-0.14489668607711792,-0.01194391306489706,0.3759138882160187,0.5451740026473999,-13.227469444274902,4.0546875,1,B1,0,None,0,0.07438299548745282,[4900|0|0|0]
4899,1.8257639408111572,-0.14490793645381927,-0.011606326326727867,0.25304561853408813,0.5050363540649414,-13.233469009399414,4.0546875,1,B1,0,None,0,0.07477261309932495,[5000|0|0|0]
4999,1.8258949518203735,-0.14474700391292572,-0.01162882149219513,0.24941207468509674,0.48612651228904724,-13.248022079467773,4.0546875,1,B1,0,None,0,0.0749813454631877,[5100|0|0|0]
5099,1.8256810903549194,-0.14477398991584778,-0.011917217634618282,0.3155323266983032,0.504516065120697,-13.277939796447754,4.0546875,1,B1,0,None,0,0.07534139727296574,[5200|0|0|0]
5199,1.8256644010543823,-0.14503541588783264,-0.011728472076356411,0.3688637614250183,0.5175729990005493,-13.278457641601562,4.0546875,1,B1,0,None,0,0.0756642702469729,[5300|0|0|0]
5299,1.8257161378860474,-0.14497384428977966,-0.012040394358336926,0.4048791825771332,0.531345784664154,-13.278237342834473,4.0546875,1,B1,0,None,0,0.07598639331574239,[5400|0|0|0]
5399,1.8256014585494995,-0.14480215311050415,-0.011951150372624397,0.4266515374183655,0.5508415699005127,-13.291291236877441,4.0546875,1,B1,0,None,0,0.0762113237500058,[5500|0|0|0]
5499,1.8257522583007812,-0.14479713141918182,-0.012376747094094753,0.4468725323677063,0.5538615584373474,-13.279550552368164,4.0546875,1,B1,0,None,0,0.0766628748010473,[5600|0|0|0]
5599,1.8257815837860107,-0.14500461518764496,-0.011739096604287624,0.46073994040489197,0.5577535629272461,-13.275952339172363,4.0546875,1,B1,0,None,0,0.07733407346419473,[5700|0|0|0]
5699,1.8255301713943481,-0.14489521086215973,-0.012096199207007885,0.4688831865787506,0.5681471228599548,-13.295917510986328,4.046875,1,B1,0,None,0,0.07778429537168699,[5800|0|0|0]
5799,1.8257266283035278,-0.14528867602348328,-0.011798184365034103,0.47905269265174866,0.5665151476860046,-13.291303634643555,4.0546875,1,B1,0,None,0,0.07831554201532481,[5900|0|0|0]
5899,1.8256343603134155,-0.14507198333740234,-0.01231357827782631,0.4727587103843689,0.5632412433624268,-13.287364959716797,4.0546875,1,B1,0,None,0,0.07888219886699396,[6000|0|0|0]
5999,1.8256226778030396,-0.1450725495815277,-0.012393135577440262,0.46604272723197937,0.5559597611427307,-13.27308464050293,4.0546875,1,B1,0,None,0,0.07896261133868188,[6100|0|0|0]
6099,1.8259263038635254,-0.14494051039218903,-0.01201663352549076,0.449453741312027,0.5483834743499756,-13.266901969909668,4.0546875,1,B1,0,None,0,0.07946398637520599,[6200|0|0|0]
6199,1.8257452249526978,-0.14470994472503662,-0.011996766552329063,0.4360983073711395,0.5492246150970459,-13.283881187438965,4.0546875,1,B1,0,None,0,0.07975783122446928,[6300|0|0|0]
6299,1.8258147239685059,-0.14522060751914978,-0.012086275033652782,0.4438380002975464,0.5405763387680054,-13.287557601928711,4.0546875,1,B1,0,None,0,0.08028091665794897,[6400|0|0|0]
6399,1.8257383108139038,-0.14502133429050446,-0.011929178610444069,0.43549370765686035,0.5385351777076721,-13.297677040100098,4.0546875,1,B1,0,None,0,0.08054592246172682,[6500|0|0|0]
6499,1.8255839347839355,-0.1452287882566452,-0.011990158818662167,0.4417167007923126,0.5416964292526245,-13.290970802307129,4.0546875,1,B1,0,None,0,0.08081160590586779,[6600|0|0|0]
6599,1.825627088546753,-0.1447390764951706,-0.012153505347669125,0.4341104328632355,0.544397234916687,-13.261685371398926,4.0546875,1,B1,0,None,0,0.08132964253112751,[6700|0|0|0]
6699,1.825716257095337,-0.14492326974868774,-0.012026224285364151,0.43564414978027344,0.5427290201187134,-13.258819580078125,4.0546875,1,B1,0,None,0,0.0815706376628611,[6800|0|0|0]
6799,1.825791597366333,-0.14513954520225525,-0.011669029481709003,0.439700722694397,0.5355760455131531,-13.305289268493652,3.208984375,1,J1,0,None,0,0.08199494811053808,[6800|0|0|0]
6899,1.8256497383117676,-0.14478299021720886,-0.010951444506645203,0.6477622389793396,1.009329915046692,-11.498504638671875,3.326171875,1,J1,0,None,0,0.08280869478190513,[6800|0|0|0]
6999,1.8252595663070679,-0.14481540024280548,0.010325584560632706,0.44382479786872864,-1.4880139827728271,-6.641417026519775,3.537109375,1,J1,0,None,0,0.10408932565913243,[6800|0|0|0]
7099,1.8286926746368408,-0.1456942856311798,0.06417202949523926,0.7333564162254333,-4.166152477264404,-2.6777753829956055,3.60546875,1,J1,0,None,0,0.15805226020151503,[6800|0|0|0]
7199,1.83925461769104,-0.14676706492900848,0.13649994134902954,0.5913163423538208,-2.6781203746795654,-0.7945512533187866,3.630859375,1,J1,0,None,0,0.23115514885601113,[6800|0|0|0]
7299,1.854743480682373,-0.1491168737411499,0.2163088619709015,0.8308883309364319,-1.522497534751892,0.004669949412345886,3.642578125,1,J1,0,None,0,0.31248712466532097,[6800|0|0|0]
7399,1.8720433712005615,-0.15256807208061218,0.29929205775260925,0.48469921946525574,-0.08057842403650284,-0.030411746352910995,3.63671875,1,J1,0,None,0,0.3973246621358585,[6800|0|0|0]
7499,1.888532280921936,-0.15574927628040314,0.38257133960723877,-0.024065792560577393,1.5784968137741089,0.0503946989774704,3.630859375,1,J1,0,None,0,0.4822801975069173,[6800|0|0|0]
7599,1.901579737663269,-0.1589246243238449,0.46883371472358704,-0.21938461065292358,2.2204577922821045,0.12644383311271667,3.63671875,1,J1,0,None,0,0.5695814937362834,[6800|0|0|0]
7699,1.9102795124053955,-0.16184209287166595,0.5548693537712097,-0.20295238494873047,2.3320775032043457,0.1921638548374176,3.6796875,1,J1,0,None,0,0.656105067920572,[6800|0|0|0]
7799,1.915387749671936,-0.16353772580623627,0.6365466713905334,0.07605122029781342,1.8202862739562988,0.342672199010849,3.701171875,1,J1,0,None,0,0.7379595331164791,[6800|0|0|0]
7899,1.9173649549484253,-0.16538859903812408,0.7077808976173401,-0.020313909277319908,1.4879271984100342,0.4473845958709717,3.705078125,1,J1,0,None,0,0.8092452263414016,[6800|0|0|0]
7999,1.9171175956726074,-0.167244091629982,0.7647280097007751,-0.20195423066616058,0.7227556705474854,0.6069887280464172,3.6953125,1,J1,0,None,0,0.8662230958524064,[6800|0|0|0]
8099,1.9167766571044922,-0.1680501252412796,0.8033374547958374,0.04876982048153877,0.3806670308113098,0.5585286617279053,3.673828125,1,J1,0,None,0,0.9048424586104634,[6800|0|0|0]
8199,1.9141368865966797,-0.16998159885406494,0.833968460559845,-0.5781431794166565,0.05587349459528923,1.55599844455719,3.658203125,1,J1,0,None,0,0.9356476122826246,[6800|0|0|0]
8299,1.910771369934082,-0.1714557260274887,0.8562517166137695,-0.48287704586982727,0.5499104857444763,2.040738821029663,3.65234375,1,J1,0,None,0,0.9582317494964837,[6800|0|0|0]
8399,1.905853271484375,-0.1713389754295349,0.8740971684455872,-1.0083835124969482,0.20166552066802979,0.9129205942153931,3.6484375,1,J1,0,None,0,0.9767428670787599,[6800|0|0|0]
8499,1.9013482332229614,-0.17104831337928772,0.8873695135116577,-0.41809916496276855,-0.0233430415391922,0.6536587476730347,3.642578125,1,J1,0,None,0,0.9907619611192855,[6800|0|0|0]
8599,1.8960237503051758,-0.16898499429225922,0.8978029489517212,-0.22755731642246246,0.23973608016967773,0.8910751342773438,3.642578125,1,J1,0,None,0,1.0026558242040304,[6800|0|0|0]
8699,1.8902480602264404,-0.1663629710674286,0.9062873721122742,-0.05568825080990791,-0.1463378369808197,3.1529712677001953,3.642578125,1,J1,0,None,0,1.013249172968443,[6800|0|0|0]
8799,1.8846412897109985,-0.16420699656009674,0.9143735766410828,0.184999018907547,-0.38563746213912964,2.1037425994873047,3.63671875,1,J1,0,None,0,1.0233224447989266,[6800|0|0|0]
8899,1.8794610500335693,-0.16231419146060944,0.9207255840301514,0.3807862102985382,-0.27757808566093445,0.487829327583313,3.63671875,1,J1,0,None,0,1.0317346735244808,[6800|0|0|0]
8999,1.8744218349456787,-0.16066710650920868,0.9259430766105652,0.3487567901611328,-0.7645207047462463,-0.03309333696961403,3.63671875,1,J1,0,None,0,1.0391730070990006,[6800|0|0|0]
9099,1.8705991506576538,-0.16001413762569427,0.9306075572967529,0.5220620632171631,-0.4885752499103546,-0.1471758484840393,3.63671875,1,J1,0,None,0,1.045239032453429,[6800|0|0|0]
9199,1.8668581247329712,-0.15965984761714935,0.9342659711837769,0.21924147009849548,-0.9661972522735596,-0.05973488464951515,3.630859375,1,J1,0,None,0,1.0504835332445503,[6800|0|0|0]
9299,1.8643423318862915,-0.15968644618988037,0.9366441965103149,0.31820055842399597,-0.4681154787540436,0.0981241762638092,3.630859375,1,J1,0,None,0,1.0539455957563002,[6800|0|0|0]
9399,1.8629603385925293,-0.16067835688591003,0.9390304088592529,0.2797664999961853,-0.519794762134552,0.424861341714859,3.630859375,1,J1,0,None,0,1.0568760908795047,[6800|0|0|0]
9499,1.861575722694397,-0.16140660643577576,0.9408167600631714,-0.10574083030223846,-0.5825809240341187,1.125446081161499,3.630859375,1,J1,0,None,0,1.05925065593778,[6800|0|0|0]
9599,1.8612135648727417,-0.16242505609989166,0.9427452683448792,-0.0348803885281086,-0.5208179950714111,1.6794227361679077,3.626953125,1,J1,0,None,0,1.0614614345786075,[6800|0|0|0]
9699,1.8615111112594604,-0.16280853748321533,0.9432201981544495,0.05775187537074089,-0.3444828689098358,2.1842432022094727,3.626953125,1,J1,0,None,WindDirection.NONE,1.0621405149476535,[6800|0|0|0]
9799,1.861879825592041,-0.16293835639953613,0.9424023628234863,-0.07904181629419327,-0.22889040410518646,2.3153672218322754,3.62109375,1,J1,0,None,WindDirection.NONE,1.0630469683875259,[6800|0|0|0]
9899,1.859053611755371,-0.15907950699329376,0.9427863955497742,-11.3562650680542,10.486791610717773,3.08965802192688,3.599609375,1,J1,0,None,WindDirection.NONE,1.067845476960562,[6800|0|0|0]
9999,1.8390538692474365,-0.1375558078289032,0.9419610500335693,-14.88943099975586,15.282352447509766,3.212364673614502,3.578125,1,J1,0,None,WindDirection.NONE,1.0972383421037222,[6800|0|0|0]
10099,1.7938593626022339,-0.09005054086446762,0.939338743686676,-16.470590591430664,14.68824291229248,1.9555754661560059,3.568359375,1,J1,0,None,WindDirection.NONE,1.1628597586599236,[6800|0|0|0]
10199,1.7265923023223877,-0.01845017448067665,0.9383549690246582,-11.819692611694336,9.683684349060059,-0.04222709685564041,3.5625,1,J1,0,None,WindDirection.NONE,1.2611065788505598,[6800|0|0|0]
10299,1.6453768014907837,0.06994602084159851,0.9430299401283264,-5.1442952156066895,2.800164222717285,-1.5647902488708496,3.583984375,1,J1,0,None,WindDirection.NONE,1.3812385907275038,[6800|0|0|0]
10399,1.5635067224502563,0.16392551362514496,0.9547750353813171,1.5433958768844604,-3.5148448944091797,-1.886436939239502,3.611328125,1,J1,0,None,WindDirection.NONE,1.5064296533815793,[6800|0|0|0]
10499,1.488748550415039,0.257100373506546,0.9672588109970093,6.737342834472656,-7.486195087432861,-1.1855794191360474,3.62109375,1,J1,0,None,WindDirection.NONE,1.6265387015569304,[6800|0|0|0]
10599,1.432266354560852,0.3238241672515869,0.9875994920730591,9.475282669067383,-9.558094024658203,-3.256537675857544,3.630859375,1,J1,0,None,WindDirection.NONE,1.7162941827649272,[6800|0|0|0]
10699,1.390274167060852,0.37827664613723755,0.9991076588630676,8.806034088134766,-9.729543685913086,-7.794497013092041,3.62109375,1,J1,0,None,WindDirection.NONE,1.7860140090031935,[6800|0|0|0]
10799,1.3599437475204468,0.41951677203178406,1.0029927492141724,7.9332427978515625,-7.685839653015137,-5.46319055557251,3.60546875,1,J1,0,None,WindDirection.NONE,1.8373538206539124,[6800|0|0|0]
10899,1.340571641921997,0.4458160996437073,1.0051510334014893,6.753359794616699,-5.480954647064209,-2.8079209327697754,3.599609375,1,J1,0,None,WindDirection.NONE,1.8700889897964412,[6800|0|0|0]
10999,1.328993320465088,0.45870456099510193,1.0079292058944702,4.94383430480957,-3.8104095458984375,2.499464988708496,3.60546875,1,J1,0,None,WindDirection.NONE,1.8876357332597358,[6800|0|0|0]
11099,1.3221765756607056,0.4676479995250702,1.0090692043304443,2.751547336578369,-2.4557113647460938,1.6175377368927002,3.60546875,1,J1,0,None,WindDirection.NONE,1.898938507206932,[6800|0|0|0]
11199,1.3171172142028809,0.4735071063041687,1.0105175971984863,1.3920772075653076,-1.3917927742004395,1.0345654487609863,3.611328125,1,J1,0,None,WindDirection.NONE,1.9068140460780185,[6800|0|0|0]
11299,1.3127740621566772,0.4772562086582184,1.0125772953033447,0.6368139386177063,-0.8253781795501709,0.5793068408966064,3.611328125,1,J1,0,None,WindDirection.NONE,1.9129100361075986,[6800|0|0|0]
11399,1.307832956314087,0.4811811149120331,1.01422917842865,0.5996320843696594,-0.7534745931625366,0.22645467519760132,3.611328125,1,J1,0,None,WindDirection.NONE,1.9194329291703878,[6800|0|0|0]
11499,1.3019565343856812,0.4852766990661621,1.0139696598052979,0.6004399657249451,-0.626388430595398,-0.22513137757778168,3.60546875,1,J1,0,None,WindDirection.NONE,1.9266004597186357,[6800|0|0|0]
11599,1.296525001525879,0.4881082773208618,1.0130351781845093,0.3866819739341736,-1.5690829753875732,-0.3610992431640625,3.60546875,1,J1,0,None,WindDirection.NONE,1.932796639228559,[6800|0|0|0]
11699,1.2926417589187622,0.49101534485816956,1.011391282081604,0.8242728114128113,-1.6446986198425293,-0.3000990152359009,3.599609375,1,J1,0,None,WindDirection.NONE,1.9379184562117537,[6800|0|0|0]
11799,1.2893750667572021,0.4931698441505432,1.0092982053756714,0.8298986554145813,-1.4725772142410278,-0.39195486903190613,3.60546875,1,J1,0,None,WindDirection.NONE,1.942356261409839,[6800|0|0|0]
11899,1.288283109664917,0.494166761636734,1.0071479082107544,1.0211611986160278,-1.7016494274139404,-0.3476610779762268,3.60546875,1,J1,0,None,WindDirection.NONE,1.9449658576742284,[6800|0|0|0]
11999,1.2884271144866943,0.4943293333053589,1.0039411783218384,0.8042301535606384,-1.2243181467056274,-0.5563634037971497,3.59375,1,J1,0,None,WindDirection.NONE,1.948179933515991,[6800|0|0|0]
12099,1.290151596069336,0.49395161867141724,1.000370979309082,0.35599127411842346,-1.2183297872543335,-0.5856836438179016,3.59375,1,J1,0,None,WindDirection.NONE,1.9521627498642866,[6800|0|0|0]
12199,1.2928279638290405,0.4928330183029175,0.9977340698242188,0.2233695536851883,-1.1856087446212769,-0.597586452960968,3.59375,1,J1,0,None,WindDirection.NONE,1.9560828905251502,[6800|0|0|0]
12299,1.2967556715011597,0.49170833826065063,0.9944356679916382,0.3137206435203552,-0.778999924659729,-0.6411756873130798,3.59375,1,J1,0,None,WindDirection.NONE,1.961333723545183,[6800|0|0|0]
12399,1.3012311458587646,0.49046602845191956,0.9909129738807678,0.34942466020584106,-0.5903996825218201,-0.6693543791770935,3.59375,1,J1,0,None,WindDirection.NONE,1.9671631813403139,[6800|0|0|0]
12499,1.3062173128128052,0.48897433280944824,0.986515998840332,0.2658085227012634,-0.38509976863861084,-0.7347671389579773,3.58984375,1,J1,0,None,WindDirection.NONE,1.9739764335952614,[6800|0|0|0]
12599,1.3104159832000732,0.4882356524467468,0.9822168350219727,0.14925649762153625,0.06195997819304466,-0.8372623920440674,3.58984375,1,J1,0,None,WindDirection.NONE,1.9800309601032762,[6800|0|0|0]
12699,1.314352035522461,0.4867672622203827,0.9790384769439697,0.1868586391210556,0.646867573261261,-1.2405489683151245,3.58984375,1,J1,0,None,WindDirection.NONE,1.9852988475179294,[6800|0|0|0]
12799,1.3173913955688477,0.48532792925834656,0.9756106734275818,0.31839293241500854,0.7890759110450745,-1.5880258083343506,3.81640625,1,J1,0,None,0,1.9901008497892885,[6800|0|0|0]
12899,1.3195672035217285,0.4820154011249542,0.9602638483047485,0.8519833087921143,-0.4800187349319458,-1.5973105430603027,3.81640625,1,J1,0,None,0,2.0059511502354366,[6800|0|0|0]
12999,1.3213392496109009,0.47881650924682617,0.9066909551620483,0.0064344750717282295,-0.47282499074935913,-1.4830750226974487,3.716796875,1,J1,0,None,0,2.059648710108016,[6800|0|0|0]
13099,1.3225866556167603,0.47448062896728516,0.8150856494903564,-0.009889751672744751,-0.6081305742263794,-1.3196622133255005,3.626953125,1,J1,0,None,0,2.1513650549258623,[6800|0|0|0]
13199,1.3244472742080688,0.47052201628685,0.6874966621398926,-0.18867193162441254,-0.3020339608192444,-1.583296775817871,3.578125,1,J1,0,None,0,2.2790289974038105,[6800|0|0|0]
13299,1.3269126415252686,0.4663601219654083,0.5614109039306641,-0.15051957964897156,-0.7783164978027344,-2.2392094135284424,3.546875,1,J1,0,None,0,2.405207513101007,[6800|0|0|0]
13399,1.329991340637207,0.4616732597351074,0.4499085545539856,0.5294907093048096,0.8726894855499268,-2.590693473815918,3.505859375,1,J1,0,None,0,2.516850779724241,[6800|0|0|0]
13499,1.3310695886611938,0.45965346693992615,0.33205196261405945,-0.18483732640743256,0.19907081127166748,-2.0009610652923584,3.478515625,1,J1,0,None,0,2.63472960922908,[6800|0|0|0]
13599,1.3350518941879272,0.4554150402545929,0.24242186546325684,-0.958526074886322,0.2530658543109894,-0.654076337814331,3.48828125,1,J1,0,None,0,2.72454818934109,[6800|0|0|0]
13699,1.3404426574707031,0.4511083662509918,0.17025496065616608,-2.6598613262176514,0.26087987422943115,1.4662948846817017,3.494140625,1,J1,0,None,0,2.797044188673328,[6800|0|0|0]
13799,1.345766305923462,0.4517105221748352,0.11639963835477829,-1.193760871887207,0.959520697593689,3.161489486694336,3.505859375,1,J1,0,None,0,2.851165345024533,[6800|0|0|0]
13899,1.3495311737060547,0.4551962912082672,0.08022163063287735,-0.7979261875152588,0.2839001417160034,4.11997652053833,3.521484375,1,J1,0,None,0,2.8877053649739084,[6800|0|0|0]
13999,1.3533285856246948,0.45957496762275696,0.060714200139045715,0.2261098474264145,0.5090068578720093,4.674437522888184,3.546875,1,J1,0,None,0,2.9080556226846674,[6800|0|0|0]
14099,1.3561193943023682,0.4640795886516571,0.054098792374134064,1.204994797706604,0.8753583431243896,4.422179698944092,3.568359375,1,J1,0,None,0,2.9165316974593165,[6800|0|0|0]
14199,1.3564916849136353,0.46573707461357117,0.054019853472709656,1.4598329067230225,0.6953929662704468,3.5204946994781494,3.578125,1,J1,0,None,0,2.9182323124549394,[6800|0|0|0]
14299,1.3575108051300049,0.464918315410614,0.05648806691169739,0.9269861578941345,0.10884775966405869,1.8062083721160889,3.583984375,1,J1,0,None,0,2.9210253484783806,[6800|0|0|0]
14399,1.3582441806793213,0.46061787009239197,0.060075923800468445,1.8779332637786865,-0.13321995735168457,-1.453220009803772,3.583984375,1,J1,0,None,0,2.9266737453027596,[6800|0|0|0]
14499,1.3598086833953857,0.4549860954284668,0.06270237267017365,-0.19572637975215912,-1.2307826280593872,-5.296820163726807,3.583984375,1,J1,0,None,0,2.9330817706053764,[6800|0|0|0]
14599,1.3640183210372925,0.4492536783218384,0.06162945181131363,-0.3219844102859497,-0.11678395420312881,-7.615518093109131,3.568359375,1,J1,0,None,0,2.940274323290613,[6800|0|0|0]
14699,1.369404673576355,0.44391974806785583,0.05820770934224129,-1.5604653358459473,-0.5491460561752319,-8.919951438903809,3.5625,1,J1,0,None,0,2.9485912895135855,[6800|0|0|0]
14800,1.3755295276641846,0.44060376286506653,0.05232616513967514,-1.6007248163223267,0.7321141958236694,-8.73369026184082,3.552734375,1,J1,0,None,0,2.957707327999082,[6800|0|0|0]
14900,1.3816611766815186,0.4408092498779297,0.047392588108778,-1.5914371013641357,1.5959421396255493,-7.1707682609558105,3.546875,1,J1,0,None,0,2.9655800357228594,[6800|0|0|0]
15000,1.3843554258346558,0.44291454553604126,0.04689466953277588,-0.40642040967941284,2.3729186058044434,-5.531247138977051,3.5625,1,J1,0,None,0,2.9690353463044965,[6800|0|0|0]
15100,1.3812073469161987,0.44184502959251404,0.04766271635890007,-1.069162130355835,1.7932299375534058,-4.112560272216797,3.578125,1,J1,0,None,0,2.9724477005002696,[6800|0|0|0]
15200,1.3784960508346558,0.450400173664093,0.05814064294099808,0.6757144331932068,2.131434440612793,-3.648799180984497,3.583984375,1,J1,0,None,0,2.986243662300271,[6800|0|0|0]
15300,1.3709416389465332,0.44959643483161926,0.0593818724155426,1.0936528444290161,0.6972223520278931,-3.280301809310913,3.578125,1,J1,0,None,0,2.993941440271524,[6800|0|0|0]
15400,1.3639100790023804,0.4505305886268616,0.063414067029953,1.175818920135498,-0.4139115512371063,-3.416672468185425,3.57421875,1,J1,0,None,0,3.002100733866552,[6800|0|0|0]
15500,1.3593006134033203,0.4535215497016907,0.0703667476773262,0.9495093822479248,-0.6945074796676636,-3.378819465637207,3.57421875,1,J1,0,None,0,3.0109626066620967,[6800|0|0|0]
15601,1.35459566116333,0.4505869448184967,0.07080523669719696,-0.44483643770217896,-0.9252291917800903,-2.742938280105591,3.5625,1,J1,0,None,0,3.016525048034516,[6800|0|0|0]
15701,1.3504008054733276,0.4482581615447998,0.07047894597053528,-0.847210705280304,-0.9239600896835327,-2.1223175525665283,3.5625,1,J1,0,None,0,3.0213340511988007,[6800|0|0|0]
15801,1.3478761911392212,0.4470340609550476,0.06988707929849625,-1.0150777101516724,-0.9848828315734863,-1.586504578590393,3.5625,1,B2,0,None,0,3.0242015249907084,[6800|100|0|0]
15899,1.3461861610412598,0.44701647758483887,0.0696418359875679,-0.6549909114837646,-0.7235520482063293,-1.1455738544464111,3.568359375,1,B2,0,None,0,3.0259093467578957,[6800|200|0|0]
15999,1.34601628780365,0.4473586082458496,0.06981592625379562,-0.34106937050819397,-0.41344019770622253,-0.6355880498886108,3.568359375,1,B2,0,None,0,3.026329129709973,[6800|300|0|0]
16099,1.3456672430038452,0.4476660192012787,0.06983420252799988,0.09527122974395752,-0.3531454801559448,0.01980334147810936,3.5625,1,B2,0,None,0,3.0267946055847372,[6800|400|0|0]
16199,1.3458272218704224,0.4478318393230438,0.06980173289775848,-0.14713680744171143,-0.46881750226020813,0.39481863379478455,3.55859375,1,B2,0,None,0,3.0270272938470573,[6800|500|0|0]
16299,1.3466651439666748,0.4476185142993927,0.07074915617704391,-0.371757835149765,-0.03912905603647232,0.852558970451355,3.5625,1,B2,0,None,0,3.028309959772088,[6800|600|0|0]
16399,1.347010850906372,0.44840216636657715,0.07225190103054047,-0.4326794743537903,0.11162179708480835,1.0739476680755615,3.5625,1,B2,0,None,0,3.03003966088652,[6800|700|0|0]
16499,1.3472943305969238,0.44963932037353516,0.07336286455392838,-0.49271097779273987,0.05253179743885994,1.1857951879501343,3.5625,1,B2,0,None,0,3.0317264183445403,[6800|800|0|0]
16599,1.34830641746521,0.45154646039009094,0.07408339530229568,-0.4861637055873871,-0.2666419744491577,1.2366058826446533,3.55859375,1,B2,0,None,0,3.0340025263013493,[6800|900|0|0]
16699,1.349656581878662,0.4547863006591797,0.0754682868719101,-0.45221954584121704,-0.41394051909446716,1.5145009756088257,3.5625,1,B2,0,None,0,3.037775778687839,[6800|1000|0|0]
16799,1.3506523370742798,0.459262490272522,0.07501763105392456,-0.8077350854873657,-0.5974937081336975,1.91827392578125,3.5625,1,B2,0,None,0,3.042383477954336,[6800|1100|0|0]
16899,1.3528870344161987,0.4649808406829834,0.07395759969949722,-0.11517408490180969,-0.22765333950519562,2.8419201374053955,3.552734375,1,B2,0,None,0,3.0486138126242532,[6800|1200|0|0]
16999,1.3562179803848267,0.4705681800842285,0.07224671542644501,0.21492595970630646,-0.5754604339599609,3.9674761295318604,3.552734375,1,B2,0,None,0,3.0553399324288955,[6800|1300|0|0]
17099,1.360697865486145,0.4750637412071228,0.07098042219877243,-0.16395160555839539,0.5080154538154602,4.385733127593994,3.552734375,1,B2,0,None,0,3.0618116353631426,[6800|1400|0|0]
17199,1.3657782077789307,0.48002615571022034,0.07026764005422592,-0.003977219574153423,-0.2937052547931671,3.8488125801086426,3.552734375,1,B2,0,None,0,3.0689491064767798,[6800|1500|0|0]
17299,1.370286464691162,0.48586249351501465,0.07110554724931717,-0.025060122832655907,-0.44872382283210754,2.764544725418091,3.55859375,1,B2,0,None,0,3.076371323654008,[6800|1600|0|0]
17399,1.3753132820129395,0.49091988801956177,0.07074277102947235,0.33657559752464294,0.28586772084236145,1.4170719385147095,3.552734375,1,B2,0,None,0,3.083511193270943,[6800|1700|0|0]
17499,1.379546880722046,0.4950940012931824,0.06908541172742844,0.46318957209587097,0.09428828954696655,0.14743459224700928,3.541015625,1,B2,0,None,0,3.08968317994517,[6800|1800|0|0]
17599,1.3827564716339111,0.4991738498210907,0.06739193201065063,0.46189749240875244,0.12049180269241333,-0.8351605534553528,3.541015625,1,B2,0,None,0,3.095143446548857,[6800|1900|0|0]
17699,1.3859715461730957,0.5021176338195801,0.06721659749746323,-0.09373871237039566,0.02035766839981079,-1.369265079498291,3.541015625,1,B2,0,None,0,3.099506164820049,[6800|2000|0|0]
17799,1.3878707885742188,0.5053713321685791,0.05360471457242966,3.3463680744171143,0.817308783531189,-1.8107755184173584,3.931640625,1,B2,0,None,0,3.1136297986091743,[6800|2100|0|0]
17899,1.3897122144699097,0.5058640241622925,-0.013403911143541336,-6.0435285568237305,-14.173295021057129,-2.9367594718933105,3.9375,1,B2,0,None,0,3.180665531730198,[6800|2200|0|0]
17999,1.4048405885696411,0.507992148399353,-0.014242599718272686,-3.7535760402679443,-13.865386009216309,-2.320274829864502,3.9375,1,B2,0,None,0,3.1959658589879782,[6800|2300|0|0]
18099,1.404719352722168,0.5087121725082397,-0.011744373477995396,-4.57749605178833,-12.639931678771973,-3.564875841140747,3.9375,1,B2,0,None,0,3.1985686012333225,[6800|2400|0|0]
18199,1.40225088596344,0.5117838978767395,-0.011910976842045784,-8.721259117126465,-8.32591724395752,-2.885983943939209,3.943359375,1,B2,0,None,0,3.202512784489631,[6800|2500|0|0]
18299,1.4022998809814453,0.5113747119903564,-0.011705833487212658,-8.274802207946777,-8.556241035461426,-2.915083169937134,3.943359375,1,B2,0,None,0,3.2029731293575687,[6800|2600|0|0]
18399,1.402254581451416,0.5113223195075989,-0.01174960844218731,-8.180872917175293,-8.47221851348877,-2.8545310497283936,3.94921875,1,B2,0,None,0,3.203055063882364,[6800|2700|0|0]
18499,1.4019774198532104,0.5112085342407227,-0.012216621078550816,-8.06209945678711,-8.404184341430664,-2.855159044265747,3.94921875,1,B2,0,None,0,3.2036099210180313,[6800|2800|0|0]
18599,1.4019107818603516,0.5116650462150574,-0.011707847937941551,-7.964784622192383,-8.348795890808105,-2.8221240043640137,3.94921875,1,B2,0,None,0,3.204296720780268,[6800|2900|0|0]
18699,1.401801347732544,0.5109227895736694,-0.012050632387399673,-7.852286338806152,-8.31829833984375,-2.772346258163452,3.94921875,1,B2,0,None,0,3.2051215976976346,[6800|3000|0|0]
18799,1.402167558670044,0.511076807975769,-0.011895204894244671,-7.74669075012207,-8.297924041748047,-2.769434690475464,3.953125,1,B2,0,None,0,3.2055482003518203,[6800|3100|0|0]
18899,1.4019355773925781,0.5109419822692871,-0.01212103571742773,-7.631462097167969,-8.274388313293457,-2.7693355083465576,3.953125,1,B2,0,None,0,3.2058989037092642,[6800|3200|0|0]
18999,1.4022743701934814,0.5111636519432068,-0.011887889355421066,-7.549982070922852,-8.259871482849121,-2.7576303482055664,3.953125,1,B2,0,None,0,3.206366103059003,[6800|3300|0|0]
19099,1.4023356437683105,0.5108321309089661,-0.011909090913832188,-7.4492974281311035,-8.266166687011719,-2.758333206176758,3.953125,1,B2,0,None,0,3.2067039050027444,[6800|3400|0|0]
19199,1.402151346206665,0.5108988285064697,-0.011855142191052437,-7.382289886474609,-8.254528999328613,-2.74924373626709,3.953125,1,B2,0,None,0,3.2069071895949564,[6800|3500|0|0]
19299,1.4022518396377563,0.5108077526092529,-0.012104629538953304,-7.311863899230957,-8.257046699523926,-2.686741590499878,3.958984375,1,B2,0,None,0,3.2071911573493037,[6800|3600|0|0]
19399,1.4020745754241943,0.5104383230209351,-0.01177276112139225,-7.250633239746094,-8.259147644042969,-2.6913723945617676,3.958984375,1,B2,0,None,0,3.2077184499328935,[6800|3700|0|0]
19499,1.4019957780838013,0.5107972025871277,-0.01158479880541563,-7.231510162353516,-8.257766723632812,-2.7123711109161377,3.958984375,1,B2,0,None,0,3.2081311645995956,[6800|3800|0|0]
19599,1.4023517370224,0.5106867551803589,-0.011641810648143291,-7.187212944030762,-8.26720142364502,-2.7167303562164307,3.96484375,1,B2,0,None,0,3.2085082000698653,[6800|3900|0|0]
19699,1.4021954536437988,0.5107012391090393,-0.011720380745828152,-7.158936500549316,-8.259591102600098,-2.702152967453003,3.958984375,1,B2,0,None,0,3.20868372083464,[6800|4000|0|0]
19799,1.4001578092575073,0.5113257765769958,-0.01098287757486105,-7.1672797203063965,-8.25971508026123,-2.694720983505249,3.96484375,1,B2,0,None,0,3.210938926506204,[6800|4100|0|0]
19899,1.3999460935592651,0.5121326446533203,-0.009422274306416512,-7.037862300872803,-8.44137954711914,-2.6648075580596924,3.96484375,1,B2,0,None,0,3.2127084863924336,[6800|4200|0|0]
19999,1.3956401348114014,0.5104882121086121,-0.006258737295866013,-8.327014923095703,-7.770613670349121,-2.6211233139038086,3.96484375,1,B2,0,None,0,3.218298960929494,[6800|4300|0|0]
20099,1.3763151168823242,0.5047679543495178,0.012066435068845749,-10.843145370483398,-2.9775032997131348,-13.19042682647705,3.96484375,1,B2,0,None,0,3.245538447139517,[6800|4400|0|0]
20199,1.3372851610183716,0.5003876686096191,0.03277651593089104,-10.107422828674316,-8.72730827331543,-9.699724197387695,3.96484375,1,B2,0,None,0,3.2899392557719924,[6800|4500|0|0]
20299,1.3093292713165283,0.4963403046131134,0.03253711014986038,-6.830142498016357,-4.73645544052124,-12.52618408203125,3.96875,1,B2,0,None,0,3.318187622795058,[6800|4600|0|0]
20399,1.2978832721710205,0.4915817081928253,0.018895376473665237,-2.5322465896606445,1.5873743295669556,-4.749146938323975,3.96875,1,B2,0,None,0,3.336619986561607,[6800|4700|0|0]
20499,1.2951058149337769,0.5136656165122986,0.01694951020181179,0.7515955567359924,1.5115234851837158,-3.2095208168029785,3.96875,1,B2,0,None,0,3.3589627632671903,[6800|4800|0|0]
20599,1.2845550775527954,0.5116598010063171,0.021036243066191673,0.841363251209259,1.0284842252731323,-3.2899484634399414,3.96875,1,B2,0,None,0,3.37045374845695,[6800|4900|0|0]
20699,1.329791784286499,0.4840794503688812,-0.00550531130284071,1.3356788158416748,-0.6553349494934082,-15.70753002166748,3.96875,1,B2,0,None,0,3.4297115706049106,[6800|5000|0|0]
20799,1.3320175409317017,0.49788427352905273,-0.010083992034196854,0.44009944796562195,-0.376420259475708,-12.293609619140625,3.96875,1,B2,0,None,0,3.4444252191112112,[6800|5100|0|0]
20899,1.3322319984436035,0.4992751479148865,-0.008001682348549366,0.38487255573272705,-0.17563198506832123,-9.065403938293457,3.96875,1,B2,0,None,0,3.446938491322596,[6800|5200|0|0]
20999,1.3317984342575073,0.4987034201622009,-0.008100801147520542,0.31375524401664734,-0.08335498720407486,-7.432199954986572,3.974609375,1,B2,0,None,0,3.4476628358973436,[6800|5300|0|0]
21099,1.3317538499832153,0.4991281032562256,-0.007645893841981888,0.20533603429794312,-0.04463237151503563,-6.451022148132324,3.974609375,1,B2,0,None,0,3.448286762290836,[6800|5400|0|0]
21199,1.3315396308898926,0.4987887144088745,-0.008072001859545708,0.11956809461116791,-0.019535090774297714,-5.785946369171143,3.974609375,1,B2,0,None,0,3.4488721191497542,[6800|5500|0|0]
21299,1.3316112756729126,0.4990072250366211,-0.007870761677622795,0.032063040882349014,-0.016229473054409027,-5.335081577301025,4.01171875,1,B2,0,None,0,3.4491776964398015,[6800|5600|0|0]
21399,1.331378698348999,0.49916085600852966,-0.007836476899683475,-0.03691869229078293,-0.016812795773148537,-4.961069583892822,4.046875,1,B2,0,None,0,3.449458534708431,[6800|5700|0|0]
21499,1.3315439224243164,0.49960413575172424,-0.007768883369863033,-0.09997984766960144,-0.02499917522072792,-4.689326763153076,4.046875,1,B2,0,None,0,3.449936410017549,[6800|5800|0|0]
21599,1.3314803838729858,0.4999334514141083,-0.007722022943198681,-0.1403283029794693,-0.02704153023660183,-4.463443756103516,4.046875,1,B2,0,None,0,3.4502750571090526,[6800|5900|0|0]
21699,1.3314117193222046,0.499783992767334,-0.007654193788766861,-0.15850651264190674,-0.035615116357803345,-4.332394123077393,4.046875,1,B2,0,None,0,3.4504529714193835,[6800|6000|0|0]
21799,1.3317627906799316,0.499673455953598,-0.007661000359803438,-0.16335433721542358,-0.04811655730009079,-4.230339527130127,4.046875,1,B2,0,None,0,3.4508210961466386,[6800|6100|0|0]
21899,1.3316192626953125,0.49955567717552185,-0.007764844689518213,-0.16348157823085785,-0.0440840944647789,-4.157901287078857,4.0546875,1,B2,0,None,0,3.451033830177174,[6800|6200|0|0]
21999,1.3317214250564575,0.4994361698627472,-0.007952653802931309,-0.1537432074546814,-0.058163512498140335,-4.05989933013916,4.0546875,1,B2,0,None,0,3.4512787616143608,[6800|6300|0|0]
22099,1.3310649394989014,0.4993615746498108,-0.008011787198483944,-0.14395985007286072,-0.05484132468700409,-4.004919528961182,4.0546875,1,B2,0,None,0,3.451942112570901,[6800|6400|0|0]
22199,1.3315002918243408,0.4997555613517761,-0.007563804276287556,-0.1444532573223114,-0.07516845315694809,-3.927070379257202,4.0546875,1,B2,0,None,0,3.4526806556415277,[6800|6500|0|0]
22299,1.3316609859466553,0.49947047233581543,-0.007940647192299366,-0.13239486515522003,-0.08336346596479416,-3.8700673580169678,4.05859375,1,B2,0,None,0,3.453179763777422,[6800|6600|0|0]
22399,1.3312172889709473,0.4992729425430298,-0.00770574389025569,-0.11552613228559494,-0.06634995341300964,-3.848090410232544,4.05859375,1,B2,0,None,0,3.4537192677965,[6800|6700|0|0]
22499,1.3312734365463257,0.4993589520454407,-0.007476196624338627,-0.11121796816587448,-0.07233493030071259,-3.840311288833618,4.05859375,1,B2,0,None,0,3.453970747680419,[6800|6800|0|0]
22599,1.3319467306137085,0.49919211864471436,-0.007688034325838089,-0.0937669575214386,-0.08394579589366913,-3.7968194484710693,4.05859375,1,B2,0,None,0,3.454696029347461,[6800|6900|0|0]
22699,1.3317204713821411,0.4993002712726593,-0.008099331520497799,-0.08352311700582504,-0.07130666822195053,-3.8186445236206055,4.05859375,1,B2,0,None,0,3.455177750857398,[6800|7000|0|0]
22799,1.331974744796753,0.4990580379962921,-0.008076946251094341,-0.06146104633808136,-0.07709240168333054,-3.808809995651245,4.05859375,1,B2,0,None,0,3.455529650033078,[6800|7100|0|0]
22899,1.3315508365631104,0.49927881360054016,-0.007975812070071697,-0.05426250770688057,-0.06459537148475647,-3.7871885299682617,4.06640625,1,B2,0,None,0,3.4560181868081035,[6800|7200|0|0]
22999,1.3316658735275269,0.4992077052593231,-0.008067944087088108,-0.04986073821783066,-0.059223808348178864,-3.8083763122558594,4.06640625,1,B2,0,None,0,3.456181827291885,[6800|7300|0|0]
23099,1.3320320844650269,0.49925461411476135,-0.008047576062381268,-0.05128912255167961,-0.06195856258273125,-3.814377784729004,4.06640625,1,B2,0,None,0,3.456551591741087,[6800|7400|0|0]
23199,1.331762433052063,0.4993804693222046,-0.007780119311064482,-0.06487519294023514,-0.05709298700094223,-3.818777322769165,4.06640625,1,B2,0,None,0,3.456951697391608,[6800|7500|0|0]
23299,1.331821322441101,0.49929994344711304,-0.007859310135245323,-0.04066426679491997,-0.042646221816539764,-3.827209949493408,4.06640625,1,B2,0,None,0,3.4570790691441085,[6800|7600|0|0]
23399,1.332079529762268,0.49912697076797485,-0.008030538447201252,-0.0170830599963665,-0.041629064828157425,-3.811772108078003,4.06640625,1,B2,0,None,0,3.4574339067171582,[6800|7700|0|0]
23499,1.3315868377685547,0.4995754361152649,-0.008161433041095734,-0.019937578588724136,-0.021823925897479057,-3.8168020248413086,4.06640625,1,B2,0,None,0,3.4581128764978555,[6800|7800|0|0]
23599,1.3317711353302002,0.49908527731895447,-0.008142632432281971,-0.0055925194174051285,-0.02168135903775692,-3.8411765098571777,4.06640625,1,B2,0,None,0,3.4586368752571297,[6800|7900|0|0]
23699,1.3317246437072754,0.49956244230270386,-0.007783866487443447,-0.014248519204556942,-0.0096533028408885,-3.821502923965454,4.06640625,1,B2,0,None,0,3.4592356748028,[6800|8000|0|0]
23799,1.3319439888000488,0.4995591640472412,-0.008076814003288746,-0.01073789969086647,-0.0058191618882119656,-3.8319571018218994,4.06640625,1,B2,0,None,0,3.4596016546707196,[6800|8100|0|0]
23899,1.331790566444397,0.4993455708026886,-0.00804304052144289,0.00034559209598228335,0.0010074521414935589,-3.852923631668091,4.0703125,1,B2,0,None,0,3.4598667982948337,[6800|8200|0|0]
23999,1.3319437503814697,0.4992031455039978,-0.008066841401159763,0.006500939838588238,0.002372917952015996,-3.847382068634033,4.0703125,1,B2,0,None,0,3.4600773137720786,[6800|8300|0|0]
24099,1.3315848112106323,0.4991912841796875,-0.007941708900034428,0.002384333172813058,0.017348643392324448,-3.8287911415100098,4.0703125,1,B2,0,None,0,3.460457624384886,[6800|8400|0|0]
24199,1.3317005634307861,0.49918627738952637,-0.007945648394525051,-0.0016460857586935163,0.011698958463966846,-3.813551425933838,4.0703125,1,B2,0,None,0,3.4605735517933582,[6800|8500|0|0]
24299,1.3315953016281128,0.499276340007782,-0.00800655223429203,-0.009115434251725674,0.014850574545562267,-3.804421901702881,4.0703125,1,B2,0,None,0,3.46072488123533,[6800|8600|0|0]
24399,1.331709623336792,0.49927082657814026,-0.007969683036208153,-0.009023052640259266,0.006058031227439642,-3.8167004585266113,4.0703125,1,B2,0,None,0,3.460845127602215,[6800|8700|0|0]
24499,1.331588864326477,0.4994833469390869,-0.007883386686444283,-0.012125039473176003,0.008978174068033695,-3.7978415489196777,4.0703125,1,B2,0,None,0,3.4611043470119274,[6800|8800|0|0]
24599,1.3315553665161133,0.49953362345695496,-0.008200054056942463,-0.016389252617955208,0.004550055600702763,-3.7937793731689453,4.07421875,1,B2,0,None,0,3.461426725756708,[6800|8900|0|0]
24699,1.3315600156784058,0.4994525909423828,-0.00797443836927414,-0.010278266854584217,-0.000354194751707837,-3.796919107437134,4.0703125,1,B2,0,None,0,3.4616664971512696,[6800|9000|0|0]
24799,1.3317219018936157,0.49939408898353577,-0.00793383363634348,-0.004651564173400402,-0.004568116273730993,-3.7955708503723145,4.07421875,1,B2,0,None,0,3.4618433540714064,[6800|9100|0|0]
24899,1.3316370248794556,0.49964749813079834,-0.007954069413244724,-0.014392775483429432,-0.005355463363230228,-3.7954347133636475,4.07421875,1,B2,0,None,0,3.462111364873644,[6800|9200|0|0]
24999,1.33194899559021,0.4994180500507355,-0.00798258651047945,-0.012519331648945808,-0.015428796410560608,-3.7858903408050537,4.07421875,1,B2,0,None,0,3.4624996757937168,[6800|9300|0|0]
25099,1.3318177461624146,0.4995812773704529,-0.00794336386024952,-0.0211360864341259,-0.011848662979900837,-3.7970283031463623,4.07421875,1,B2,0,None,0,3.462712767291646,[6800|9400|0|0]
25199,1.3318768739700317,0.49950724840164185,-0.00834124069660902,-0.02042008750140667,-0.016020813956856728,-3.8270816802978516,4.07421875,1,B2,0,None,0,3.4631217689576186,[6800|9500|0|0]
25299,1.3315012454986572,0.49948880076408386,-0.008474965579807758,-0.023913757875561714,-0.009778406471014023,-3.8357021808624268,4.07421875,1,B2,0,None,0,3.463520917311273,[6800|9600|0|0]
25399,1.3315340280532837,0.49906766414642334,-0.008127272129058838,-0.013585870154201984,-0.005936101544648409,-3.805479049682617,4.07421875,1,B2,0,None,0,3.464068020119085,[6800|9700|0|0]
25499,1.3319135904312134,0.49936744570732117,-0.008007115684449673,-0.0258079394698143,-0.00895751267671585,-3.825198173522949,4.07421875,1,B2,0,None,0,3.464566391621255,[6800|9800|0|0]
25599,1.3315502405166626,0.499193012714386,-0.007938466034829617,-0.01914159394800663,-0.0029137111268937588,-3.8372671604156494,4.07421875,1,B2,0,None,0,3.464975247101616,[6800|9900|0|0]
25699,1.3318208456039429,0.49971866607666016,-0.008152822032570839,-0.034885961562395096,-0.008458144031465054,-3.8658058643341064,4.07421875,1,B2,0,None,0,3.4656041247242895,[6800|10000|0|0]
25799,1.3315832614898682,0.49930185079574585,-0.008383954875171185,-0.022481348365545273,0.001067466102540493,-3.8524129390716553,4.08203125,1,B2,0,None,0,3.4661366691643063,[6800|10100|0|0]
25899,1.3318405151367188,0.4993874430656433,-0.00791650265455246,-0.026974640786647797,-0.012814383953809738,-3.8579885959625244,4.07421875,1,B2,0,None,0,3.4666770551874837,[6800|10200|0|0]
25999,1.3317768573760986,0.49908384680747986,-0.008118282072246075,-0.025064371526241302,-0.014086607843637466,-3.8335113525390625,4.08203125,1,B2,0,None,0,3.4670471064432076,[6800|10300|0|0]
26099,1.3318172693252563,0.49952319264411926,-0.007891840301454067,-0.034499842673540115,-0.009684388525784016,-3.8365111351013184,4.08203125,1,B2,0,None,0,3.4675430235384628,[6800|10400|0|0]
26199,1.3315684795379639,0.49929559230804443,-0.00795263797044754,-0.029168054461479187,-0.00823814608156681,-3.8416588306427,4.08203125,1,B2,0,None,0,3.467885652532854,[6800|10500|0|0]
26299,1.331739068031311,0.4990667998790741,-0.008149126544594765,-0.1288706362247467,-0.07375480979681015,-3.8379201889038086,4.08203125,1,B2,0,None,0,3.4682321408723213,[6800|10600|0|0]
26399,1.331796407699585,0.4995573163032532,-0.007699367590248585,-0.12364361435174942,-0.06297829002141953,-3.8283920288085938,4.08203125,1,B2,0,None,0,3.4689001059290137,[6800|10700|0|0]
26499,1.331402063369751,0.4993908703327179,-0.008063890971243382,-0.10081606358289719,-0.04720563814043999,-3.8095710277557373,4.08203125,1,B2,0,None,0,3.469462323864401,[6800|10800|0|0]
26599,1.3318499326705933,0.49897101521492004,-0.008009089156985283,-0.08487400412559509,-0.05871274322271347,-3.8204712867736816,4.08203125,1,B2,0,None,0,3.47007865857008,[6800|10900|0|0]
26699,1.3317601680755615,0.4993401765823364,-0.00776042602956295,-0.0904805064201355,-0.054859817028045654,-3.832634449005127,4.08203125,1,B2,0,None,0,3.4705327193024202,[6800|11000|0|0]
26799,1.3316543102264404,0.4991910457611084,-0.007957414723932743,-0.07900568842887878,-0.04409908875823021,-3.82820463180542,4.08203125,1,B2,0,None,0,3.4708015137066965,[6800|11100|0|0]
26899,1.3318737745285034,0.49920302629470825,-0.007988722063601017,-0.07747378200292587,-0.04964330419898033,-3.8369340896606445,4.08203125,1,B2,0,None,0,3.4710235233069,[6800|11200|0|0]
26999,1.3319319486618042,0.4996349811553955,-0.007871412672102451,-0.07512286305427551,-0.04516945406794548,-3.817209482192993,4.0859375,1,B2,0,None,0,3.471474888707424,[6800|11300|0|0]
27099,1.3316386938095093,0.498987078666687,-0.00796259380877018,-0.05856022983789444,-0.03164874017238617,-3.84065318107605,4.0859375,1,B2,0,None,0,3.472191889434727,[6800|11400|0|0]
27199,1.3283952474594116,0.49561235308647156,-0.010574563406407833,0.06089936941862106,0.04212821274995804,-3.80491042137146,4.0859375,1,B2,0,None,0,3.4775520295585207,[6800|11500|0|0]
27299,1.3285757303237915,0.49535471200942993,-0.010739999823272228,0.0693468376994133,0.031059065833687782,-3.8022375106811523,4.0859375,1,B2,0,None,0,3.477907447899267,[6800|11600|0|0]
27399,1.3283905982971191,0.4958367347717285,-0.011091714724898338,0.06103089824318886,0.034641291946172714,-3.807342767715454,4.0859375,1,B2,0,None,0,3.4785322063987687,[6800|11700|0|0]
27499,1.3283638954162598,0.4956905245780945,-0.01103252824395895,0.0590955950319767,0.04071890935301781,-3.798715829849243,4.0859375,1,B2,0,None,0,3.478692186097777,[6800|11800|0|0]
27599,1.3283052444458008,0.49609318375587463,-0.01073188055306673,0.0538080632686615,0.05132574215531349,-3.756768226623535,4.0859375,1,B2,0,None,0,3.4791981143375748,[6800|11900|0|0]
27699,1.3282415866851807,0.4956617057323456,-0.010598081164062023,0.06258328258991241,0.0442369244992733,-3.7267024517059326,4.0859375,1,B2,0,None,0,3.479654324674781,[6800|12000|0|0]
27799,1.3285716772079468,0.4956416189670563,-0.010934879072010517,0.06321573257446289,0.03547293692827225,-3.7590320110321045,4.0859375,1,B2,0,None,0,3.480126337452318,[6800|12100|0|0]
27899,1.3286278247833252,0.4954221248626709,-0.010793821886181831,0.0652109757065773,0.036670833826065063,-3.765048027038574,4.0859375,1,B2,0,None,0,3.4803932219624616,[6800|12200|0|0]
27999,1.328485369682312,0.4954429566860199,-0.010789061896502972,0.06162960082292557,0.03951355442404747,-3.7525360584259033,4.0859375,1,B2,0,None,0,3.4805372708367037,[6800|12300|0|0]
28099,1.3286563158035278,0.4953915774822235,-0.010802125558257103,0.06251904368400574,0.03239000588655472,-3.771162748336792,4.08984375,1,B2,0,None,0,3.4807162486515297,[6800|12400|0|0]
28199,1.3284999132156372,0.49558520317077637,-0.010906370356678963,0.06117609515786171,0.038094062358140945,-3.7987968921661377,4.0859375,1,B2,0,None,0,3.480986099823038,[6800|12500|0|0]
28299,1.3285986185073853,0.4954674541950226,-0.010890817269682884,0.05790403112769127,0.04088917374610901,-3.78440260887146,4.08984375,1,B2,0,None,0,3.481140532508779,[6800|12600|0|0]
28399,1.328587293624878,0.4957558810710907,-0.010924591682851315,0.04864294454455376,0.04137395694851875,-3.7932422161102295,4.08984375,1,B2,0,None,0,3.48143115086124,[6800|12700|0|0]
28499,1.3282477855682373,0.4957641065120697,-0.010752825997769833,0.047250423580408096,0.051222238689661026,-3.7803237438201904,4.08984375,1,B2,0,None,0,3.4818117252021707,[6800|12800|0|0]
28600,1.3283647298812866,0.4957526922225952,-0.010640101507306099,0.05451580882072449,0.04899412393569946,-3.7801475524902344,4.08984375,1,B2,0,None,0,3.4819745535446334,[6800|12900|0|0]
28700,1.3282586336135864,0.49582865834236145,-0.010820494033396244,0.05596160516142845,0.048155494034290314,-3.798482656478882,4.08984375,1,B2,0,None,0,3.482197193911237,[6800|13000|0|0]
28800,1.3285514116287231,0.49572572112083435,-0.010932589881122112,0.054011184722185135,0.03929736465215683,-3.7757527828216553,4.08984375,1,B2,0,None,0,3.4825271643899174,[6800|13100|0|0]
28900,1.3282593488693237,0.4958697259426117,-0.010835543274879456,0.04957302287220955,0.04799291118979454,-3.7791426181793213,4.08984375,1,B2,0,None,0,3.4828669526885774,[6800|13200|0|0]
29000,1.328309416770935,0.49565383791923523,-0.010783843696117401,0.05798077955842018,0.04372701048851013,-3.781421661376953,4.08984375,1,B2,0,None,0,3.4830945208758384,[6800|13300|0|0]
29100,1.3287367820739746,0.4955226182937622,-0.010968179441988468,0.08313697576522827,0.058510370552539825,-3.795590877532959,4.08984375,1,B2,0,None,0,3.4835780902706075,[6800|13400|0|0]
29200,1.328469157218933,0.4958185851573944,-0.011067105457186699,0.08363314718008041,0.07270487397909164,-3.787111282348633,4.08984375,1,B2,0,None,0,3.4839891934254084,[6800|13500|0|0]
29300,1.3288620710372925,0.4957004189491272,-0.010809960775077343,0.03368424251675606,0.020478585734963417,-3.8083460330963135,4.08984375,1,B2,0,None,0,3.4844734122901495,[6800|13600|0|0]
29400,1.3285285234451294,0.49560752511024475,-0.010889326222240925,0.0476020947098732,0.03995591774582863,-3.8342068195343018,4.08984375,1,B2,0,None,0,3.484828633539153,[6800|13700|0|0]
29501,1.3286899328231812,0.4958857297897339,-0.010827960446476936,0.05939893797039986,0.04514182731509209,-3.8496100902557373,4.08984375,1,B2,0,None,0,3.4851560729830933,[6800|13800|0|0]
29601,1.3288384675979614,0.49564284086227417,-0.010842755436897278,0.06453827768564224,0.041677579283714294,-3.854094982147217,4.09765625,1,B2,0,None,0,3.485441163323412,[6800|13900|0|0]
29701,1.3288742303848267,0.49540629982948303,-0.0109616219997406,0.07685472816228867,0.03174623101949692,-3.860689401626587,4.09765625,1,B2,0,None,0,3.485708296056113,[6800|14000|0|0]
29801,1.3286975622177124,0.4954800605773926,-0.011085177771747112,0.07585523277521133,0.042191628366708755,-3.859143018722534,4.08984375,1,B2,0,None,0,3.485936151971112,[6800|14100|0|0]
29899,1.32867431640625,0.49549639225006104,-0.010891471058130264,0.0781412199139595,0.04937789589166641,-3.852956533432007,4.09765625,1,B2,0,None,0,3.4861319308825984,[6800|14200|0|0]
29999,1.3286707401275635,0.49544602632522583,-0.010680163279175758,0.07050824910402298,0.0595504567027092,-3.831686019897461,4.09765625,1,B2,0,None,0,3.4863491876284094,[6800|14300|0|0]
30101,1.3285155296325684,0.495486855506897,-0.010767335072159767,0.06823477149009705,0.06081083044409752,-3.805185317993164,4.09765625,1,B2,0,None,0,3.486531824539587,[6800|14400|0|0]
30201,1.3287235498428345,0.4958951771259308,-0.010945071466267109,0.05715351179242134,0.054262980818748474,-3.806993246078491,4.09765625,1,B2,0,None,0,3.487023341760282,[6800|14500|0|0]
30301,1.328634262084961,0.49577832221984863,-0.010984930209815502,0.057077694684267044,0.05867546424269676,-3.8047118186950684,4.09765625,1,B2,0,None,0,3.4871757100385383,[6800|14600|0|0]
30399,1.3286937475204468,0.4956105351448059,-0.011162742972373962,0.058949798345565796,0.056123074144124985,-3.806734800338745,4.09765625,1,B2,0,None,0,3.487427321640248,[6800|14700|0|0]
30499,1.3285471200942993,0.4957584738731384,-0.010828379541635513,0.0556735135614872,0.056807853281497955,-3.7988016605377197,4.09765625,1,B2,0,None,0,3.4878212561186253,[6800|14800|0|0]
30599,1.3287584781646729,0.495719850063324,-0.010671363212168217,0.06029658019542694,0.04347962141036987,-3.7923457622528076,4.09765625,1,B2,0,None,0,3.4880873729356736,[6800|14900|0|0]
30699,1.3287538290023804,0.49568963050842285,-0.010615866631269455,0.0585981048643589,0.04184645041823387,-3.777643918991089,4.09765625,1,B2,0,None,0,3.4881507346488756,[6800|15000|0|0]
30799,1.3287644386291504,0.4955703020095825,-0.010882276110351086,0.06519826501607895,0.030442751944065094,-3.787658929824829,4.09765625,1,B2,0,None,0,3.488442840563503,[6800|15100|0|0]
30899,1.3287274837493896,0.49557051062583923,-0.010585249401628971,0.06640762090682983,0.03352571651339531,-3.7871296405792236,4.09765625,1,B2,0,None,0,3.488742157406252,[6800|15200|0|0]
30999,1.328603744506836,0.49559757113456726,-0.010713462717831135,0.057444650679826736,0.03479621931910515,-3.764672040939331,4.09765625,1,B2,0,None,0,3.488922385943759,[6800|15300|0|0]
31099,1.3288474082946777,0.4957633316516876,-0.010964447632431984,0.0550101213157177,0.027889434248209,-3.7752621173858643,4.09765625,1,B2,0,None,0,3.4893094802706335,[6800|15400|0|0]
31199,1.328750491142273,0.4956621527671814,-0.010770989581942558,0.05672706663608551,0.03295992314815521,-3.7862229347229004,4.09765625,1,B2,0,None,0,3.489548344496501,[6800|15500|0|0]
31299,1.3287959098815918,0.4957994818687439,-0.010794252157211304,0.05679384618997574,0.03416382521390915,-3.774369955062866,4.09765625,1,B2,0,None,0,3.489694848050811,[6800|15600|0|0]
31399,1.328817367553711,0.49569910764694214,-0.01106258761137724,0.06314419209957123,0.02867068164050579,-3.7779922485351562,4.09765625,1,B2,0,None,0,3.489982144643303,[6800|15700|0|0]
31499,1.3286200761795044,0.4956856667995453,-0.010874559171497822,0.06340859085321426,0.033246103674173355,-3.765897512435913,4.09765625,1,B2,0,None,0,3.4902550168421773,[6800|15800|0|0]
31599,1.328798532485962,0.4959530532360077,-0.010900512337684631,0.05865729972720146,0.03235623240470886,-3.7505991458892822,4.09765625,1,B2,0,None,0,3.490577531534174,[6800|15900|0|0]
31699,1.3287466764450073,0.4960029721260071,-0.011108703911304474,0.05925581604242325,0.03567907214164734,-3.7556040287017822,4.09765625,1,B2,0,None,0,3.4907978147062244,[6800|16000|0|0]
31799,1.3285436630249023,0.4957580864429474,-0.01089021097868681,0.06291791051626205,0.04228884354233742,-3.745351552963257,4.09765625,1,B2,0,None,0,3.491183719627305,[6800|16100|0|0]
31899,1.3289289474487305,0.4958176612854004,-0.01092709880322218,0.0680273100733757,0.036055393517017365,-3.769153356552124,4.1015625,1,B2,0,None,0,3.491575323969335,[6800|16200|0|0]
31999,1.3287162780761719,0.4956212341785431,-0.010816947557032108,0.06955951452255249,0.044733017683029175,-3.7930688858032227,4.1015625,1,B2,0,None,0,3.4918850741386165,[6800|16300|0|0]
32099,1.3290135860443115,0.4955035448074341,-0.01088657695800066,0.07551272213459015,0.04122467339038849,-3.7912144660949707,4.1015625,1,B2,0,None,0,3.492212321857433,[6800|16400|0|0]
32199,1.3286380767822266,0.4954527020454407,-0.010646788403391838,0.07740098983049393,0.05520883947610855,-3.800600528717041,4.1015625,1,B2,0,None,0,3.492660753282826,[6800|16500|0|0]
