time.ms,stateEstimate.x,stateEstimate.y,stateEstimate.z,stabilizer.roll,stabilizer.pitch,stabilizer.yaw,pm.vbat,drone_id,node_name,wind_speed,global_wind_direction,relative_wind_direction,travel_dist,waiting_time,curr_node_role
0,1.292455792427063,-0.3348099589347839,0.0,-0.4768880903720855,0.7719497680664062,4.80672025680542,4.11328125,0,C1,0,None,None,0.0,[6200|0|0],start
100,1.2923156023025513,-0.3346418142318725,0.0,-0.4876062273979187,0.7729271650314331,4.8035407066345215,4.11328125,0,C1,0,None,None,0.0002189198760454,[6300|0|0],start
200,1.292749285697937,-0.3353277444839477,0.0,-0.4728720188140869,0.7550221085548401,4.79569673538208,4.11328125,0,C1,0,None,None,0.0010304502809874,[6400|0|0],start
300,1.292488932609558,-0.3348746299743652,0.0,-0.4942009747028351,0.74751216173172,4.774693012237549,4.11328125,0,C1,0,None,None,0.0015530366273672,[6500|0|0],start
400,1.29266095161438,-0.3348187506198883,0.0,-0.4570969939231872,0.7673828601837158,4.7831549644470215,4.11328125,0,C1,0,None,None,0.001733904093421,[6600|0|0],start
500,1.293381929397583,-0.3346631526947021,0.0,-0.5763720273971558,0.6535048484802246,4.777074813842773,4.11328125,0,C1,0,None,None,0.0024714809898829,[6700|0|0],start
600,1.2933149337768557,-0.3347388207912445,0.0,-0.5256068706512451,0.701652467250824,4.767794132232666,4.11328125,0,C1,0,None,None,0.002572545692084,[6800|0|0],start
700,1.2932758331298828,-0.3347231745719909,0.0,-0.4841660857200622,0.727846086025238,4.7669830322265625,4.11328125,0,C1,0,None,None,0.0026146605917114,[6900|0|0],start
800,1.2931737899780271,-0.3346378207206726,0.0,-0.4612597823143005,0.751443088054657,4.771716117858887,4.11328125,0,C1,0,None,None,0.0027476947406188,[7000|0|0],start
900,1.2936913967132568,-0.3349218964576721,0.0,-0.4296586513519287,0.7439525723457336,4.7854084968566895,4.11328125,0,C1,0,None,None,0.0033381316607948,[7100|0|0],start
1000,1.292523741722107,-0.3352369666099548,0.0,-0.3753354549407959,0.8208302855491638,4.798417568206787,4.11328125,0,C1,0,None,None,0.0045475477923297,[7200|0|0],start
1100,1.292166233062744,-0.3348944783210754,0.0,-0.4060325920581817,0.8103947639465332,4.815055847167969,4.11328125,0,C1,0,None,None,0.005042634319655,[7300|0|0],start
1200,1.2922768592834473,-0.3348844051361084,0.0,-0.4199566543102264,0.7951732277870178,4.810588836669922,4.11328125,0,C1,0,None,None,0.0051537182058064,[7400|0|0],start
1300,1.2926101684570312,-0.3349852561950683,0.0,-0.4378060698509216,0.7736005187034607,4.816496849060059,4.11328125,0,C1,0,None,None,0.00550195080234,[7500|0|0],start
1400,1.2927440404891968,-0.3350192308425903,0.0,-0.4474231004714966,0.761254608631134,4.810435771942139,4.11328125,0,C1,0,None,None,0.0056400666872714,[7600|0|0],start
1500,1.2924776077270508,-0.3348833322525024,0.0,-0.4631038904190063,0.7530527710914612,4.804882049560547,4.11328125,0,C1,0,None,None,0.0059391567130707,[7700|0|0],start
1600,1.2926976680755615,-0.3350989818572998,0.0,-0.4634695053100586,0.7469397187232971,4.805657386779785,4.11328125,0,C1,0,None,None,0.0062472659616108,[7800|0|0],start
1700,1.292559266090393,-0.335043340921402,0.0,-0.4684453904628753,0.7513852715492249,4.79688024520874,4.11328125,0,C1,0,None,None,0.006396433730402,[7900|0|0],start
1800,1.292569875717163,-0.3348470330238342,0.0,-0.4709252417087555,0.7476619482040405,4.817741870880127,4.1171875,0,C1,0,None,None,0.0065930281220507,[8000|0|0],start
1900,1.292504906654358,-0.3347781896591186,0.0,-0.4756270349025726,0.7433712482452393,4.820704936981201,4.11328125,0,C1,0,None,None,0.0066876874479892,[8100|0|0],start
2000,1.2925958633422852,-0.3348778784275055,0.0,-0.4733075797557831,0.7370243668556213,4.808555603027344,4.11328125,0,C1,0,None,None,0.0068226354736183,[8200|0|0],start
2100,1.2926077842712402,-0.3351797461509704,0.0,-0.4091926217079162,0.782791256904602,4.820732593536377,4.11328125,0,C1,0,None,None,0.0071247384875342,[8300|0|0],start
2200,1.2933536767959597,-0.3349840641021728,0.0,-0.3963735103607178,0.8081318736076355,4.820742607116699,4.11328125,0,C1,0,None,None,0.0078958721482273,[8400|0|0],start
2300,1.2936546802520752,-0.3347275555133819,0.0,-0.3906495571136474,0.8195675611495972,4.81998872756958,4.11328125,0,C1,0,None,None,0.008291346214023,[8500|0|0],start
2400,1.2934134006500244,-0.3345841467380523,0.0,-0.3807417154312134,0.8376543521881104,4.813348293304443,4.11328125,0,C1,0,None,None,0.0085720273911748,[8600|0|0],start
2500,1.2934755086898804,-0.3351963460445404,0.0,-0.345013290643692,0.8509075045585632,4.8083672523498535,4.11328125,0,C1,0,None,None,0.0091873690844471,[8700|0|0],start
2600,1.2933868169784546,-0.3350917100906372,0.0,-0.3491447269916534,0.8528872728347778,4.811861991882324,4.11328125,0,C1,0,None,None,0.0093245365096065,[8800|0|0],start
2700,1.293550968170166,-0.33475461602211,0.0,-0.3571812212467193,0.8479482531547546,4.819334506988525,4.11328125,0,C1,0,None,None,0.0096994738707437,[8900|0|0],start
2800,1.2933295965194702,-0.3350270390510559,0.0,-0.3505032658576965,0.8596583604812622,4.798730373382568,4.11328125,0,C1,0,None,None,0.0100505005284663,[9000|0|0],start
2900,1.2932631969451904,-0.3348279595375061,0.0,-0.353733092546463,0.8623726963996887,4.803863048553467,4.11328125,0,C1,0,None,None,0.0102603613303797,[9100|0|0],start
3000,1.293296456336975,-0.3348207771778106,0.0,-0.3540886342525482,0.8613151907920837,4.8150715827941895,4.11328125,0,C1,0,None,None,0.0102943874002774,[9200|0|0],start
3100,1.29326331615448,-0.3350553810596466,0.0,-0.3527974188327789,0.858062744140625,4.806183338165283,4.11328125,0,C1,0,None,None,0.0105313204141618,[9300|0|0],start
3200,1.2934157848358154,-0.3349838852882385,0.0,-0.3593065440654754,0.8578331470489502,4.807313919067383,4.11328125,0,C1,0,None,None,0.010699719773179,[9400|0|0],start
3300,1.2935889959335327,-0.3351919054985046,0.0,-0.3592795133590698,0.8492723703384399,4.815062999725342,4.11328125,0,C1,0,None,None,0.0109704123889844,[9500|0|0],start
3400,1.2933566570281982,-0.334764301776886,0.0,-0.3738951086997986,0.8509466052055359,4.823135852813721,4.11328125,0,C1,0,None,None,0.011457060423681,[9600|0|0],start
3500,1.293309450149536,-0.3346016108989715,0.0,-0.3692772388458252,0.8497510552406311,4.828064441680908,4.11328125,0,C1,0,None,None,0.0116264617552862,[9700|0|0],start
3600,1.2932804822921753,-0.3349113762378692,0.0,-0.3677785396575928,0.84475177526474,4.840063571929932,4.11328125,0,C1,0,None,None,0.0119375786174819,[9800|0|0],start
3700,1.293198585510254,-0.334815502166748,0.0,-0.3689751327037811,0.8420235514640808,4.831455707550049,4.11328125,0,C1,0,None,None,0.0120636695386556,[9900|0|0],start
3800,1.2934900522232056,-0.3345805406570434,0.0,-0.3784136772155761,0.8264134526252747,4.82464075088501,4.11328125,0,C1,0,None,None,0.0124380486991353,[10000|0|0],start
3900,1.2933603525161743,-0.3348352909088135,0.0,-0.37006476521492,0.8326399326324463,4.82619571685791,4.11328125,0,C1,0,None,None,0.0127239152847673,[10100|0|0],start
4000,1.2935527563095093,-0.3349107205867767,0.0,-0.3665973246097564,0.8252324461936951,4.824024677276611,4.11328125,0,C1,0,None,None,0.0129305764954657,[10200|0|0],start
4100,1.2933772802352903,-0.3349236845970154,0.0,-0.3641746342182159,0.8325498700141907,4.840513706207275,4.11328125,0,C1,0,None,None,0.0131065308025593,[10300|0|0],start
4200,1.2933048009872437,-0.3346499502658844,0.0,-0.3798547685146332,0.821430504322052,4.816159248352051,4.11328125,0,C1,0,None,None,0.0133896981125319,[10400|0|0],start
4300,1.2934719324111938,-0.3345746695995331,0.0,-0.3752158880233764,0.8205512166023254,4.80985689163208,4.11328125,0,C1,0,None,None,0.0135730013901838,[10500|0|0],start
4400,1.2933262586593628,-0.3349378705024719,0.0,-0.3621304631233215,0.8271759152412415,4.815761566162109,4.11328125,0,C1,0,None,None,0.0139643270063503,[10600|0|0],start
4500,1.293405294418335,-0.3349454402923584,0.0,-0.3552961349487304,0.8270849585533142,4.831682205200195,4.11328125,0,C1,0,None,None,0.0140437244428028,[10700|0|0],start
4600,1.293214201927185,-0.3345235288143158,0.0,-0.3566627502441406,0.8332274556159973,4.834815502166748,4.11328125,0,C1,0,None,None,0.0145068935646989,[10800|0|0],start
4700,1.2933666706085205,-0.3348493278026581,0.0,-0.3493969142436981,0.8314301371574402,4.838621616363525,4.11328125,0,C1,0,None,None,0.0148666041144372,[10900|0|0],start
4800,1.2935011386871338,-0.3347313702106476,0.0,-0.354166179895401,0.8285195231437683,4.830764293670654,4.11328125,0,C1,0,None,None,0.0150454774150688,[11000|0|0],start
4900,1.293494701385498,-0.3348512351512909,0.0,-0.3522840440273285,0.8332390785217285,4.842609882354736,4.11328125,0,C1,0,None,None,0.0151655150876878,[11100|0|0],start
5000,1.293307542800903,-0.3346588611602783,0.0,-0.3550573289394378,0.8375502228736877,4.837820053100586,4.11328125,0,C1,0,None,None,0.0154339104829644,[11200|0|0],start
5100,1.2932517528533936,-0.3349251747131347,0.0,-0.3502422571182251,0.8368711471557617,4.837370872497559,4.11328125,0,C1,0,None,None,0.015706005000877,[11300|0|0],start
5200,1.2933597564697266,-0.3348583281040191,0.0,-0.3428780436515808,0.8423736691474915,4.833491802215576,4.11328125,0,C1,0,None,None,0.015833021733205,[11400|0|0],start
5300,1.2934490442276,-0.3349737823009491,0.0,-0.3490867614746094,0.8381903171539307,4.830751895904541,4.11328125,0,C1,0,None,None,0.0159789736954899,[11500|0|0],start
5400,1.2935446500778198,-0.3352936506271362,0.0,-0.3464196622371673,0.8372294306755066,4.815311908721924,4.11328125,0,C1,0,None,None,0.0163128242978467,[11600|0|0],start
5500,1.2934372425079346,-0.3350158333778381,0.0,-0.3537358343601227,0.8421526551246643,4.816193103790283,4.11328125,0,C1,0,None,None,0.0166106813274367,[11700|0|0],start
5600,1.2931431531906128,-0.3346399068832397,0.0,-0.3700740337371826,0.8470235466957092,4.812179565429688,4.11328125,0,C1,0,None,None,0.017087975006322,[11800|0|0],start
5700,1.293420910835266,-0.3345716893672943,0.0,-0.3665954172611236,0.8422228693962097,4.812858581542969,4.11328125,0,C1,0,None,None,0.017373987136563,[11900|0|0],start
5800,1.2934528589248655,-0.3351656496524811,0.0,-0.3535732924938202,0.8414101004600525,4.821911334991455,4.11328125,0,C1,0,None,None,0.0179688060172386,[12000|0|0],start
5900,1.3001494407653809,-0.3236186504364013,0.0,-0.6448251008987427,0.5956331491470337,4.878373146057129,4.11328125,0,C1,0,None,None,0.0313171167434267,[12100|0|0],start
6000,1.2932453155517578,-0.334915816783905,0.0,-0.3617887198925018,0.839270830154419,4.824400901794434,4.11328125,0,C1,0,None,None,0.0445569397199077,[12200|0|0],start
6100,1.2933615446090698,-0.3348321318626404,0.0,-0.3684282898902893,0.8318992257118225,4.800503253936768,4.11328125,0,C1,0,None,None,0.0447001610863678,[12300|0|0],start
6200,1.2935211658477783,-0.3350902199745178,0.0,-0.3651983141899109,0.8319668769836426,4.795044422149658,4.11328125,0,C1,0,None,None,0.0450036218142047,[12400|0|0],start
6300,1.2932157516479492,-0.3349140286445617,0.0,-0.381415992975235,0.837569534778595,4.791941642761231,4.11328125,0,C1,0,None,None,0.0453562139556499,[12500|0|0],start
6400,1.2998164892196655,-0.3237863481044769,0.0,-0.6610251665115356,0.6013590097427368,4.850060939788818,4.11328125,0,C1,0,None,None,0.0582943363346062,[12600|0|0],start
6500,1.299945831298828,-0.3227364122867584,0.0,-0.9085677266120912,0.3857101500034332,4.844449520111084,4.11328125,0,C1,0,None,None,0.0593522090087831,[12700|0|0],start
6600,1.299777269363403,-0.3228598237037658,0.0,-0.8548171520233154,0.4302298426628113,4.849200248718262,4.11328125,0,C1,0,None,None,0.0595611192859883,[12800|0|0],start
6700,1.299544095993042,-0.3230527639389038,0.0,-0.8258359432220459,0.4567775726318359,4.839276313781738,4.11328125,0,C1,0,None,None,0.0598637671919461,[12900|0|0],start
6800,1.2997647523880005,-0.3229366540908813,0.0,-0.8049077987670898,0.4673840701580047,4.845564365386963,4.11328125,0,C1,0,None,None,0.0601131078052523,[13000|0|0],start
6900,1.2996841669082642,-0.3234277963638305,0.0,-0.7813018560409546,0.4802915751934051,4.841809272766113,4.11328125,0,C1,0,None,None,0.0606108173107091,[13100|0|0],start
7000,1.3002338409423828,-0.3233461678028106,0.0,-0.7873509526252747,0.4859721958637237,4.880316257476807,4.11328125,0,C1,0,None,None,0.0611665193583555,[13200|0|0],start
7100,1.300403356552124,-0.3238617479801178,0.0,-0.7694548964500427,0.4846507310867309,4.886446475982666,4.11328125,0,C1,0,None,None,0.0617092517612743,[13300|0|0],start
7200,1.30010187625885,-0.3233495056629181,0.0,-0.7762957215309143,0.4899925291538238,4.887660026550293,4.11328125,0,C1,0,None,None,0.0623036275336294,[13400|0|0],start
7300,1.3000575304031372,-0.3238797485828399,0.0,-0.7565865516662598,0.4983933269977569,4.872529029846191,4.11328125,0,C1,0,None,None,0.0628357216127603,[13500|0|0],start
7400,1.3000184297561646,-0.3239275217056274,0.0,-0.7572091817855835,0.4928290247917175,4.878050804138184,4.11328125,0,C1,0,None,None,0.0628974559780243,[13600|0|0],start
7500,1.3001619577407837,-0.3238576054573059,0.0,-0.7609516382217407,0.4821597933769226,4.866470813751221,4.11328125,0,C1,0,None,None,0.0630571073611945,[13700|0|0],start
7601,1.3004049062728882,-0.3237191140651703,0.0,-0.7679229378700256,0.472898006439209,4.863149166107178,4.11328125,0,C1,0,None,None,0.0633367568828237,[13800|0|0],start
7701,1.3004062175750732,-0.323833018541336,0.0,-0.7693055272102356,0.4731104671955108,4.844706058502197,4.11328125,0,C1,0,None,None,0.0634506689067895,[13900|0|0],start
7801,1.3003798723220823,-0.3237025439739227,0.0,-0.7738728523254395,0.4724082946777344,4.867832660675049,4.11328125,0,C1,0,None,None,0.0635837767018162,[14000|0|0],start
7901,1.3002746105194092,-0.3236823081970215,0.0,-0.7866970300674438,0.4683449864387512,4.8618268966674805,4.11328125,0,C1,0,None,None,0.063690965944601,[14100|0|0],start
8001,1.3001667261123655,-0.3236518800258636,0.0,-0.7842581868171692,0.4722501337528229,4.862054824829102,4.11328125,0,C1,0,None,None,0.0638030592935704,[14200|0|0],start
8101,1.292538285255432,-0.3348963260650635,0.0,-0.5639325380325317,0.6714316010475159,4.797289848327637,4.11328125,0,C1,0,None,None,0.0773909464227827,[14300|0|0],start
8201,1.300132155418396,-0.3348293602466583,0.0,-0.5324404239654541,0.6956223845481873,4.78774356842041,4.11328125,0,C1,0,None,None,0.0849851118458421,[14400|0|0],start
8301,1.3001796007156372,-0.3241516649723053,0.0,-0.7110415697097778,0.5186229348182678,4.86277961730957,4.11328125,0,C1,0,None,None,0.0956629125289496,[14500|0|0],start
8401,1.2999181747436523,-0.3239743113517761,0.0,-0.7003278136253357,0.5429506897926331,4.880431175231934,4.11328125,0,C1,0,None,None,0.0959788204990026,[14600|0|0],start
8501,1.300010085105896,-0.3242340683937073,0.0,-0.6710855960845947,0.559552788734436,4.88862419128418,4.11328125,0,C1,0,None,None,0.0962543585826146,[14700|0|0],start
8601,1.3002647161483765,-0.3239694237709045,0.0,-0.6709954738616943,0.5493571162223816,4.881615161895752,4.11328125,0,C1,0,None,None,0.0966216101914241,[14800|0|0],start
8701,1.300049066543579,-0.3240330219268799,0.0,-0.6677556037902832,0.5605478882789612,4.87604570388794,4.11328125,0,C1,0,None,None,0.0968464423009919,[14900|0|0],start
8802,1.3001612424850464,-0.3240239322185516,0.0,-0.6688035726547241,0.5599194169044495,4.886321544647217,4.11328125,0,C1,0,None,None,0.0969589859131677,[15000|0|0],start
8902,1.3000415563583374,-0.3237457275390625,0.0,-0.6881323456764221,0.5443277359008789,4.888791084289551,4.11328125,0,C1,0,None,None,0.0972618433261795,[15100|0|0],start
9000,1.29995858669281,-0.3242751955986023,0.0,-0.6718282699584961,0.5570375919342041,4.899394512176514,4.11328125,0,C1,0,None,None,0.0977977727911939,[15200|0|0],start
9100,1.3001527786254885,-0.3241640031337738,0.0,-0.6743379831314087,0.5576446056365967,4.894937038421631,4.11328125,0,C1,0,None,None,0.0980215456022144,[15300|0|0],start
9202,1.3001205921173096,-0.3240213394165039,0.0,-0.6776648163795471,0.553999662399292,4.888831615447998,4.11328125,0,C1,0,None,None,0.0981677950724152,[15400|0|0],start
9302,1.300061583518982,-0.3238436281681061,0.0,-0.68280428647995,0.5542717576026917,4.899561882019043,4.11328125,0,C1,0,None,None,0.0983550470483292,[15500|0|0],start
9402,1.2996879816055298,-0.323955088853836,0.0,-0.6792661547660828,0.5565828084945679,4.869778156280518,4.11328125,0,C1,0,None,None,0.098744921225723,[15600|0|0],start
9502,1.3000965118408203,-0.323811262845993,0.0,-0.6826503276824951,0.5414850115776062,4.870617866516113,4.11328125,0,C1,0,None,None,0.0991780296113248,[15700|0|0],start
9602,1.3001128435134888,-0.3237776756286621,0.0,-0.6799460053443909,0.5376420617103577,4.874937534332275,4.11328125,0,C1,0,None,None,0.0992153769633083,[15800|0|0],start
9701,1.3003019094467163,-0.3239345550537109,0.0,-0.6783995032310486,0.5349537134170532,4.867466926574707,4.11328125,0,C1,0,None,None,0.0994610537450986,[15900|0|0],start
9800,1.3000156879425049,-0.3236945271492004,0.0,-0.6843523979187012,0.550065815448761,4.86731481552124,4.11328125,0,C1,0,None,None,0.0998345991163947,[16000|0|0],start
9900,1.3000166416168213,-0.3237483501434326,0.0,-0.6945271492004395,0.53872150182724,4.8721442222595215,4.11328125,0,C1,0,None,None,0.0998884305589058,[16100|0|0],start
10000,1.3003729581832886,-0.3233571350574493,0.0,-0.7297754883766174,0.5025471448898315,4.855679035186768,4.11328125,0,C1,0,None,None,0.1004175909684604,[16200|0|0],start
10100,1.300411343574524,-0.3236531019210815,0.0,-0.6876304149627686,0.5336530208587646,4.864389896392822,4.11328125,0,C1,0,None,None,0.1007160366463125,[16300|0|0],start
10200,1.3002519607543943,-0.3235166668891907,0.0,-0.6677762269973755,0.5609353184700012,4.861311912536621,4.11328125,0,C1,0,None,None,0.1009258398905188,[16400|0|0],start
10300,1.3003149032592771,-0.3238835632801056,0.0,-0.6386494636535645,0.5765889883041382,4.85392951965332,4.11328125,0,C1,0,None,None,0.1012980961471315,[16500|0|0],start
10400,1.30024516582489,-0.323773980140686,0.0,-0.6263435482978821,0.5953015685081482,4.855945587158203,4.11328125,0,C1,0,None,None,0.1014279875409957,[16600|0|0],start
10500,1.3000580072402954,-0.3234851658344269,0.0,-0.6193021535873413,0.611147403717041,4.856078624725342,4.11328125,0,C1,0,None,None,0.1017721416333545,[16700|0|0],start
10600,1.2999659776687622,-0.3240345120429992,0.0,-0.6085193753242493,0.6186468601226807,4.851659774780273,4.11328125,0,C1,0,None,None,0.1023291431584057,[16800|0|0],start
10700,1.3002359867095947,-0.3237069249153137,0.0,-0.6166688203811646,0.6136892437934875,4.854750633239746,4.11328125,0,C1,0,None,None,0.1027536643102422,[16900|0|0],start
10800,1.30005943775177,-0.3237966895103454,0.0,-0.6147314310073853,0.6248787045478821,4.853490829467773,4.11328125,0,C1,0,None,None,0.1029517229304287,[17000|0|0],start
10900,1.2998974323272705,-0.324151337146759,0.0,-0.610579788684845,0.6295432448387146,4.853402614593506,4.11328125,0,C1,0,None,None,0.1033416212550994,[17100|0|0],start
11000,1.3002276420593262,-0.3237687349319458,0.0,-0.6243945956230164,0.6141359210014343,4.857536315917969,4.11328125,0,C1,0,None,None,0.1038470150836373,[17200|0|0],start
11100,1.3003971576690674,-0.3235020339488983,0.0,-0.8617690205574036,0.4127479791641235,4.873518466949463,4.11328125,0,C1,0,None,None,0.1041630292546873,[17300|0|0],start
11200,1.3004307746887207,-0.3235315680503845,0.0,-0.8218073844909668,0.4487611055374145,4.8634033203125,4.11328125,0,C1,0,None,None,0.1042077770720751,[17400|0|0],start
11300,1.3002822399139404,-0.3235518634319305,0.0,-0.7979817986488342,0.4736685156822204,4.861227035522461,4.11328125,0,C1,0,None,None,0.1043576919873808,[17500|0|0],start
11400,1.3003041744232178,-0.3234826028347015,0.0,-0.780708909034729,0.4818347096443176,4.855461120605469,4.11328125,0,C1,0,None,None,0.1044303428856943,[17600|0|0],start
11500,1.29992938041687,-0.3235077261924743,0.0,-0.7746478319168091,0.4904271960258484,4.862406253814697,4.11328125,0,C1,0,None,None,0.1048059779882873,[17700|0|0],start
11600,1.300289511680603,-0.3235764801502228,0.0,-0.7343267798423767,0.5132742524147034,4.871239185333252,4.11328125,0,C1,0,None,None,0.1051726135482431,[17800|0|0],start
11700,1.300046682357788,-0.3235324621200561,0.0,-0.7053093910217285,0.5402477383613586,4.878796577453613,4.11328125,0,C1,0,None,None,0.1054194002314303,[17900|0|0],start
11800,1.3002545833587646,-0.3237794637680053,0.0,-0.6818485260009766,0.5501014590263367,4.88931131362915,4.11328125,0,C1,0,None,None,0.1057422510333445,[18000|0|0],start
11900,1.3000900745391846,-0.3239112496376037,0.0,-0.6615994572639465,0.5593554973602295,4.88543176651001,4.11328125,0,C1,0,None,None,0.1059530368657561,[18100|0|0],start
12000,1.3000906705856323,-0.3242868781089782,0.0,-0.6527480483055115,0.5611793994903564,4.892871379852295,4.11328125,0,C1,0,None,None,0.1063286658100329,[18200|0|0],start
12100,1.300341010093689,-0.3237857520580292,0.0,-0.6572047472000122,0.5679819583892822,4.888275146484375,4.11328125,0,C1,0,None,None,0.1068888418432884,[18300|0|0],start
12200,1.3002251386642456,-0.324182391166687,0.0,-0.6485562324523926,0.5757019519805908,4.875265121459961,4.11328125,0,C1,0,None,None,0.1073020594260195,[18400|0|0],start
12300,1.3000417947769165,-0.3241132497787475,0.0,-0.6500181555747986,0.581475019454956,4.869169235229492,4.11328125,0,C1,0,None,None,0.1074980071551391,[18500|0|0],start
12400,1.3001643419265747,-0.3237712383270263,0.0,-0.6575714945793152,0.5720562934875488,4.871502876281738,4.11328125,0,C1,0,None,None,0.1078613109357385,[18600|0|0],start
12500,1.3001030683517456,-0.32406085729599,0.0,-0.6516262888908386,0.5692673325538635,4.861204624176025,4.11328125,0,C1,0,None,None,0.1081573406608607,[18700|0|0],start
12600,1.3000144958496094,-0.323975920677185,0.0,-0.6554381251335144,0.5746930837631226,4.866778373718262,4.11328125,0,C1,0,None,None,0.1082800570711272,[18800|0|0],start
12700,1.3000222444534302,-0.3240933418273926,0.0,-0.6654018759727478,0.5602470636367798,4.851161479949951,4.11328125,0,C1,0,None,None,0.1083977336081991,[18900|0|0],start
12800,1.3001123666763306,-0.3239851891994476,0.0,-0.6732661128044128,0.5628360509872437,4.8627214431762695,4.11328125,0,C1,0,None,None,0.1085385135996465,[19000|0|0],start
12900,1.3007664680480957,-0.3239392340183258,0.0,-0.706933319568634,0.5327861309051514,4.849596977233887,4.11328125,0,C1,0,None,None,0.1091942273201198,[19100|0|0],start
13000,1.3009134531021118,-0.3238552510738373,0.0,-0.6731370687484741,0.5586280226707458,4.861591339111328,4.11328125,0,C1,0,None,None,0.1093635132943441,[19200|0|0],start
13100,1.3006786108016968,-0.3240506052970886,0.0,-0.653782308101654,0.5852710604667664,4.864655017852783,4.11328125,0,C1,0,None,None,0.1096689869897851,[19300|0|0],start
13200,1.299970269203186,-0.3234667778015136,0.0,-0.6502990126609802,0.5965001583099365,4.865609645843506,4.11328125,0,C1,0,None,None,0.1105869207372692,[19400|0|0],start
13300,1.3003970384597778,-0.3241731524467468,0.0,-0.6333900094032288,0.6029284000396729,4.860677719116211,4.11328125,0,C1,0,None,None,0.1114122068317844,[19500|0|0],start
13400,1.300516963005066,-0.3241738975048065,0.0,-0.6250574588775635,0.5950648188591003,4.855627059936523,4.11328125,0,C1,0,None,None,0.1115321336914701,[19600|0|0],start
13500,1.3009215593338013,-0.3241070210933685,0.0,-0.6274181008338928,0.5888587236404419,4.835124969482422,4.11328125,0,C1,0,None,None,0.1119422198331927,[19700|0|0],start
13600,1.300761342048645,-0.3239869475364685,0.0,-0.6291142106056213,0.5910093188285828,4.826565265655518,4.11328125,0,C1,0,None,None,0.1121424378082336,[19800|0|0],start
13700,1.300575613975525,-0.3241935968399048,0.0,-0.6173873543739319,0.6052848100662231,4.84108304977417,4.11328125,0,C1,0,None,None,0.1124202846217039,[19900|0|0],start
13800,1.3005945682525637,-0.3237104415893554,0.0,-0.6324734687805176,0.6076579093933105,4.842467308044434,4.11328125,0,C1,0,None,None,0.1129038115193544,[20000|0|0],start
13900,1.3003746271133425,-0.3240988850593567,0.0,-0.6205929517745972,0.6112649440765381,4.834996223449707,4.11328125,0,C1,0,None,None,0.1133501997294457,[20100|0|0],start
14000,1.3006184101104736,-0.3242997825145721,0.0,-0.6222496032714844,0.5989262461662292,4.849412441253662,4.11328125,0,C1,0,None,None,0.113666095182408,[20200|0|0],start
14100,1.3007999658584597,-0.3239495456218719,0.0,-0.6370568871498108,0.5889489650726318,4.847966194152832,4.11328125,0,C1,0,None,None,0.1140605928004427,[20300|0|0],start
14200,1.300920486450195,-0.3240211904048919,0.0,-0.6294048428535461,0.5960179567337036,4.872837543487549,4.11328125,0,C1,0,None,None,0.114200800460598,[20400|0|0],start
14300,1.3008701801300049,-0.3242442309856415,0.0,-0.6252138018608093,0.5971404314041138,4.874161720275879,4.11328125,0,C1,0,None,None,0.1144294439090329,[20500|0|0],start
14400,1.3009612560272217,-0.3241919279098511,0.0,-0.6341565251350403,0.5873217582702637,4.879770278930664,4.11328125,0,C1,0,None,None,0.1145344697667584,[20600|0|0],start
14500,1.3005986213684082,-0.3239862024784088,0.0,-0.6475239396095276,0.6002727150917053,4.861647605895996,4.11328125,0,C1,0,None,None,0.1149513952384136,[20700|0|0],start
14600,1.3009437322616575,-0.324038416147232,0.0,-0.6433677077293396,0.5908917784690857,4.856866359710693,4.11328125,0,C1,0,None,None,0.1153004336257742,[20800|0|0],start
14700,1.300742506980896,-0.3241910636425018,0.0,-0.6429173946380615,0.5926672220230103,4.857799530029297,4.11328125,0,C1,0,None,None,0.1155530061330462,[20900|0|0],start
14800,1.300979495048523,-0.3241511881351471,0.0,-0.6431887149810791,0.5893574357032776,4.87500524520874,4.11328125,0,C1,0,None,None,0.1157933255044759,[21000|0|0],start
14900,1.3005759716033936,-0.3240641057491302,0.0,-0.648933470249176,0.5992777943611145,4.8726887702941895,4.11328125,0,C1,0,None,None,0.1162061384315064,[21100|0|0],start
15000,1.3006974458694458,-0.3239655494689941,0.0,-0.6503482460975647,0.5938692092895508,4.877390861511231,4.11328125,0,C1,0,None,None,0.1163625652120371,[21200|0|0],start
15100,1.3007619380950928,-0.324347585439682,0.0,-0.6445375680923462,0.58858722448349,4.862968921661377,4.11328125,0,C1,0,None,None,0.1167500064721893,[21300|0|0],start
15200,1.300682783126831,-0.3241649270057678,0.0,-0.6528794169425964,0.5928154587745667,4.877379894256592,4.11328125,0,C1,0,None,None,0.116949078349863,[21400|0|0],start
15300,1.3002294301986694,-0.3234167397022247,0.0,-0.8784429430961609,0.3991170525550842,4.885058403015137,4.11328125,0,C1,0,None,None,0.1178239001137988,[21500|0|0],start
15400,1.3001469373703003,-0.3235859274864197,0.0,-0.8404805660247803,0.4297755360603332,4.8819122314453125,4.11328125,0,C1,0,None,None,0.1180121275641167,[21600|0|0],start
15500,1.3004807233810425,-0.3238700628280639,0.0,-0.8089960813522339,0.4409014880657196,4.875942230224609,4.11328125,0,C1,0,None,None,0.1184504721698077,[21700|0|0],start
15600,1.3000885248184204,-0.3233925104141235,0.0,-0.8012858033180237,0.4682921469211578,4.879235744476318,4.11328125,0,C1,0,None,None,0.1190684333502901,[21800|0|0],start
15700,1.3001723289489746,-0.3236121535301208,0.0,-0.7855263352394104,0.465264081954956,4.872860431671143,4.11328125,0,C1,0,None,None,0.1193035210588224,[21900|0|0],start
15800,1.3002310991287231,-0.3232950568199157,0.0,-0.7755144238471985,0.4767405688762665,4.895756244659424,4.11328125,0,C1,0,None,None,0.1196260179698937,[22000|0|0],start
15900,1.3001890182495115,-0.3235588073730469,0.0,-0.7685631513595581,0.4792393445968628,4.8818440437316895,4.11328125,0,C1,0,None,None,0.119893104387879,[22100|0|0],start
16000,1.300303936004639,-0.3234712183475494,0.0,-0.7719156742095947,0.4786670506000519,4.871315956115723,4.11328125,0,C1,0,None,None,0.1200375963524692,[22200|0|0],start
16100,1.3002374172210691,-0.3235488533973694,0.0,-0.7740650177001953,0.4787255227565765,4.874379634857178,4.11328125,0,C1,0,None,None,0.1201398311289797,[22300|0|0],start
16200,1.3000226020812988,-0.324009895324707,0.0,-0.7628331184387207,0.4901190996170044,4.873793601989746,4.11328125,0,C1,0,None,None,0.1206484618427964,[22400|0|0],start
16300,1.2999181747436523,-0.3240396976470947,0.0,-0.7663785219192505,0.4985062777996063,4.880527973175049,4.11328125,0,C1,0,None,None,0.1207570585612902,[22500|0|0],start
16400,1.3003231287002563,-0.323546826839447,0.0,-0.785513162612915,0.4759732782840729,4.878465175628662,4.11328125,0,C1,0,None,None,0.1213949530196457,[22600|0|0],start
16500,1.300021767616272,-0.3237864673137665,0.0,-0.7817069888114929,0.4838953912258148,4.85686731338501,4.11328125,0,C1,0,None,None,0.1217799803691577,[22700|0|0],start
16600,1.3000341653823853,-0.3232969641685486,0.0,-0.7975733280181885,0.4847963452339172,4.8489508628845215,4.11328125,0,C1,0,None,None,0.1222696404898362,[22800|0|0],start
16700,1.3000978231430054,-0.323776513338089,0.0,-0.7860920429229736,0.486813336610794,4.84578800201416,4.11328125,0,C1,0,None,None,0.1227533963337224,[22900|0|0],start
16800,1.3001375198364258,-0.3237035274505615,0.0,-0.7895985245704651,0.4866688251495361,4.869439125061035,4.11328125,0,C1,0,None,None,0.1228364792275495,[23000|0|0],start
16900,1.3000890016555786,-0.3236525654792785,0.0,-0.7896397113800049,0.4813212156295776,4.85929536819458,4.11328125,0,C1,0,None,None,0.1229068435394538,[23100|0|0],start
17000,1.300320744514465,-0.3236979842185974,0.0,-0.7931631207466125,0.4777458906173706,4.869853973388672,4.11328125,0,C1,0,None,None,0.1231429952164036,[23200|0|0],start
17100,1.3001950979232788,-0.3237022757530212,0.0,-0.7930591702461243,0.4829418361186981,4.851080894470215,4.11328125,0,C1,0,None,None,0.123268715076189,[23300|0|0],start
17200,1.300257682800293,-0.323782742023468,0.0,-0.7918527126312256,0.4843637943267822,4.841256141662598,4.11328125,0,C1,0,None,None,0.123370654702981,[23400|0|0],start
17300,1.300087571144104,-0.3236434161663055,0.0,-0.7999024391174316,0.4880539178848266,4.826744079589844,4.11328125,0,C1,0,None,None,0.1235905402869683,[23500|0|0],start
17400,1.3001611232757568,-0.3237649798393249,0.0,-0.7957665920257568,0.4866831302642822,4.844494342803955,4.11328125,0,C1,0,None,None,0.1237326235114131,[23600|0|0],start
17500,1.3002545833587646,-0.3238913416862488,0.0,-0.7937464714050293,0.4799094498157501,4.844996452331543,4.11328125,0,C1,0,None,None,0.1238897925397675,[23700|0|0],start
17600,1.3000746965408323,-0.3235318660736084,0.0,-0.8016478419303894,0.4858314990997314,4.85198974609375,4.11328125,0,C1,0,None,None,0.1242917651549404,[23800|0|0],start
17700,1.3002021312713623,-0.3238425552845001,0.0,-0.7930683493614197,0.4804528355598449,4.833896636962891,4.11328125,0,C1,0,None,None,0.12462757372587,[23900|0|0],start
17800,1.3000975847244265,-0.3236040771007538,0.0,-0.8014000654220581,0.4799605011940002,4.838042259216309,4.11328125,0,C1,0,None,None,0.1248879615608377,[24000|0|0],start
17900,1.3003066778182983,-0.3238790333271026,0.0,-0.7826575636863708,0.4835680425167084,4.8592729568481445,4.11328125,0,C1,0,None,None,0.1252333900604044,[24100|0|0],start
18000,1.3003631830215454,-0.3236258625984192,0.0,-0.7931368350982666,0.476940244436264,4.845931529998779,4.11328125,0,C1,0,None,None,0.1254927898596643,[24200|0|0],start
18100,1.3001538515090942,-0.3235309422016144,0.0,-0.7986341118812561,0.477980226278305,4.86166524887085,4.11328125,0,C1,0,None,None,0.1257226366865615,[24300|0|0],start
18200,1.30031156539917,-0.3236836194992065,0.0,-0.7931406497955322,0.4744732677936554,4.868529796600342,4.11328125,0,C1,0,None,None,0.1259421452930507,[24400|0|0],start
18300,1.30048930644989,-0.3236640095710754,0.0,-0.7914584875106812,0.473641961812973,4.866060733795166,4.11328125,0,C1,0,None,None,0.1261209648400592,[24500|0|0],start
18400,1.3003047704696655,-0.3235248327255249,0.0,-0.7941349744796753,0.4730584025382995,4.879305362701416,4.11328125,0,C1,0,None,None,0.126352100562817,[24600|0|0],start
18500,1.3005815744400024,-0.3241399228572845,0.0,-0.7519032955169678,0.4997204542160034,4.902480125427246,4.11328125,0,C1,0,None,None,0.1270266050536711,[24700|0|0],start
18600,1.3006263971328735,-0.3243582546710968,0.0,-0.7200717329978943,0.5178703665733337,4.891714572906494,4.11328125,0,C1,0,None,None,0.1272494903486521,[24800|0|0],start
18700,1.3006969690322876,-0.3239514827728271,0.0,-0.714181661605835,0.5318116545677185,4.8754048347473145,4.11328125,0,C1,0,None,None,0.1276623387108977,[24900|0|0],start
18800,1.3007539510726929,-0.324347585439682,0.0,-0.6918542385101318,0.54044508934021,4.866940021514893,4.11328125,0,C1,0,None,None,0.1280625190147837,[25000|0|0],start
18900,1.3006037473678589,-0.32438924908638,0.0,-0.680080771446228,0.5470411777496338,4.877986431121826,4.11328125,0,C1,0,None,None,0.1282183940044454,[25100|0|0],start
19000,1.3007594347000122,-0.3245551884174347,0.0,-0.664984941482544,0.5454415082931519,4.889362812042236,4.11328125,0,C1,0,None,None,0.1284459339064052,[25200|0|0],start
19100,1.300618052482605,-0.3244157433509826,0.0,-0.6660321354866028,0.5486071705818176,4.879391670227051,4.11328125,0,C1,0,None,None,0.1286445135074644,[25300|0|0],start
19200,1.3008346557617188,-0.324351966381073,0.0,-0.6708300709724426,0.5454109311103821,4.870978832244873,4.11328125,0,C1,0,None,None,0.1288703109441498,[25400|0|0],start
19300,1.3006839752197266,-0.324449211359024,0.0,-0.6707320809364319,0.5498113632202148,4.871279716491699,4.11328125,0,C1,0,None,None,0.1290496464160223,[25500|0|0],start
19400,1.3009182214736938,-0.3244454860687256,0.0,-0.6806753277778625,0.5294309854507446,4.886797428131104,4.11328125,0,C1,0,None,None,0.1292839222903362,[25600|0|0],start
19500,1.300765037536621,-0.3242881894111633,0.0,-0.6816990971565247,0.5461212992668152,4.88609504699707,4.11328125,0,C1,0,None,None,0.1295034844843892,[25700|0|0],start
19600,1.3008182048797607,-0.3241485059261322,0.0,-0.685438334941864,0.548606276512146,4.87330961227417,4.10546875,0,C1,0,None,None,0.129652944319686,[25800|0|0],start
19700,1.3006871938705444,-0.3242843747138977,0.0,-0.6815786957740784,0.5529573559761047,4.872489929199219,4.11328125,0,C1,0,None,None,0.1298416880931588,[25900|0|0],start
19800,1.3004863262176514,-0.32410928606987,0.0,-0.6853479146957397,0.5567947626113892,4.870658874511719,4.11328125,0,C1,0,None,None,0.1301081535641794,[26000|0|0],start
19900,1.3005640506744385,-0.3243951201438904,0.0,-0.6722193360328674,0.5524078607559204,4.876549243927002,4.11328125,0,C1,0,None,None,0.1304043666784298,[26100|0|0],start
20000,1.3006541728973389,-0.3244745135307312,0.0,-0.6695893406867981,0.5494567155838013,4.884866714477539,4.11328125,0,C1,0,None,None,0.1305244721526371,[26200|0|0],start
20100,1.3006031513214111,-0.3240701556205749,0.0,-0.6937636733055115,0.5460293889045715,4.885012626647949,4.11328125,0,C1,0,None,None,0.1309320362834388,[26300|0|0],start
20200,1.3005787134170532,-0.3242644071578979,0.0,-0.6900251507759094,0.5508927702903748,4.88706636428833,4.10546875,0,C1,0,None,None,0.1311278189969805,[26400|0|0],start
20300,1.3005383014678955,-0.324506402015686,0.0,-0.6837650537490845,0.5538649559020996,4.864865303039551,4.11328125,0,C1,0,None,None,0.1313731649503415,[26500|0|0],start
20400,1.3006421327590942,-0.323969304561615,0.0,-0.7267217636108398,0.5247824788093567,4.854131698608398,4.11328125,0,C1,0,None,None,0.1319202066418071,[26600|0|0],start
20500,1.3007233142852783,-0.3240396082401275,0.0,-0.6942374110221863,0.5609456896781921,4.8712687492370605,4.11328125,0,C1,0,None,None,0.1320275986685407,[26700|0|0],start
20600,1.300668716430664,-0.3241458833217621,0.0,-0.6799423694610596,0.5753529667854309,4.880661964416504,4.11328125,0,C1,0,None,None,0.1321470780337253,[26800|0|0],start
20700,1.300495982170105,-0.3239614069461822,0.0,-0.6684284806251526,0.5934366583824158,4.873073577880859,4.11328125,0,C1,0,None,None,0.1323998005256369,[26900|0|0],start
20800,1.300502061843872,-0.3238730430603027,0.0,-0.6558699607849121,0.5971824526786804,4.858414173126221,4.11328125,0,C1,0,None,None,0.1324883733135621,[27000|0|0],start
20900,1.30070960521698,-0.3243480026721954,0.0,-0.6377792954444885,0.5960590243339539,4.87090539932251,4.11328125,0,C1,0,None,None,0.1330066983897935,[27100|0|0],start
21000,1.3005566596984863,-0.3239416182041168,0.0,-0.902155339717865,0.3754849135875702,4.865151882171631,3.521484375,0,fly,0,None,None,0.1334409110882752,[27100|0|0],fly
21100,1.300319790840149,-0.3239313960075378,0.0,-0.8720601201057434,0.3916927874088287,4.670311450958252,3.3046875,0,fly,0,None,None,0.1336780004160674,[27100|0|0],fly
21200,1.2984482049942017,-0.3244985342025757,0.0078561836853623,-0.8791422247886658,4.959347724914551,5.134994029998779,3.630859375,0,fly,0,None,None,0.1417739315798789,[27100|0|0],fly
21300,1.2866941690444946,-0.323865532875061,0.0511413402855396,-3.612973928451538,5.649109363555908,8.531984329223633,3.701171875,0,fly,0,None,None,0.1866310696260084,[27100|0|0],fly
21400,1.266243577003479,-0.321197509765625,0.1102070361375808,-0.977258801460266,-0.9719811081886292,10.26654052734375,3.689453125,0,fly,0,None,None,0.2491938500040124,[27100|0|0],fly
21500,1.247369408607483,-0.319517970085144,0.1777255982160568,1.751339554786682,-5.103949546813965,10.062387466430664,3.6953125,0,fly,0,None,None,0.3193209582527043,[27100|0|0],fly
21600,1.2417261600494385,-0.3171445727348327,0.2540605962276459,2.575093030929565,-5.868008136749268,9.004958152770996,3.701171875,0,fly,0,None,None,0.3959010548228944,[27100|0|0],fly
21700,1.2443114519119265,-0.320268303155899,0.3340959250926971,1.8316653966903689,-4.415610313415527,8.014182090759277,3.705078125,0,fly,0,None,None,0.4760390314151109,[27100|0|0],fly
21800,1.2558974027633667,-0.3232513070106506,0.419390320777893,0.9408067464828492,-2.034243106842041,7.195416927337647,3.705078125,0,fly,0,None,None,0.5621683905467811,[27100|0|0],fly
21900,1.269550323486328,-0.3294081389904022,0.5072407126426697,-0.2868128418922424,0.1884521096944809,6.72020435333252,3.705078125,0,fly,0,None,None,0.651286290965772,[27100|0|0],fly
22000,1.283185958862305,-0.3331754803657532,0.5967410802841187,-0.9097464680671692,1.8993241786956787,6.252679347991943,3.705078125,0,fly,0,None,None,0.7418977649693415,[27100|0|0],fly
22100,1.2913172245025637,-0.3360994160175323,0.6883498430252075,-1.3282545804977417,2.9365620613098145,5.821129322052002,3.705078125,0,fly,0,None,None,0.833913156570754,[27100|0|0],fly
22200,1.2942262887954712,-0.3376077711582184,0.7794387340545654,-1.2266305685043335,2.8862128257751465,5.364848613739014,3.6953125,0,fly,0,None,None,0.9250609698152248,[27100|0|0],fly
22300,1.291561484336853,-0.3375087678432464,0.8723825812339783,-1.0678819417953491,2.2084193229675293,5.172940731048584,3.7265625,0,fly,0,None,None,1.0180430633223572,[27100|0|0],fly
22400,1.28713059425354,-0.337548166513443,0.9688133597373962,-0.4698973000049591,0.8743573427200317,4.672910690307617,3.763671875,0,fly,0,None,None,1.1145755934972204,[27100|0|0],fly
22500,1.278463363647461,-0.3358475863933563,1.0495338439941406,-0.3167581558227539,0.0589577220380306,4.008736610412598,3.7734375,0,fly,0,None,None,1.1957778683284537,[27100|0|0],fly
22600,1.2693461179733276,-0.3317240476608276,1.1166845560073853,-0.074499100446701,-0.5483055114746094,5.475955963134766,3.76953125,0,fly,0,None,None,1.2636700318250371,[27100|0|0],fly
22700,1.260013222694397,-0.3281454443931579,1.1688793897628784,0.1193540543317794,-0.8002304434776306,8.057024955749512,3.763671875,0,fly,0,None,None,1.3168133287344166,[27100|0|0],fly
22800,1.2524272203445437,-0.3248359560966491,1.2040926218032837,0.0513726696372032,-0.8699430823326111,11.526782989501951,3.748046875,0,fly,0,None,None,1.3529861341988554,[27100|0|0],fly
22900,1.2453786134719849,-0.3209443688392639,1.2332793474197388,0.1583336144685745,-0.5246129035949707,10.966374397277832,3.7421875,0,fly,0,None,None,1.3832630604370977,[27100|0|0],fly
23000,1.23846697807312,-0.3173580169677734,1.2519114017486572,0.3256123661994934,-0.2689373195171356,10.169464111328123,3.732421875,0,fly,0,None,None,1.403456774116081,[27100|0|0],fly
23100,1.2311294078826904,-0.3164711892604828,1.2626644372940063,0.4245776236057281,-0.1912519633769989,10.962396621704102,3.716796875,0,fly,0,None,None,1.416504922380162,[27100|0|0],fly
23200,1.2242519855499268,-0.3127017021179199,1.2702703475952148,0.4105738401412964,-0.0856755748391151,10.931951522827148,3.716796875,0,fly,0,None,None,1.4274300238795157,[27100|0|0],fly
23300,1.2195274829864502,-0.3077238798141479,1.2751097679138184,0.5656113028526306,-0.0385919734835624,8.441476821899414,3.716796875,0,fly,0,None,None,1.4358276204630829,[27100|0|0],fly
23400,1.2116657495498655,-0.3080273270606994,1.276005506515503,0.6214739084243774,-0.1073157265782356,2.707584857940674,3.705078125,0,fly,0,None,None,1.4437460344773851,[27100|0|0],fly
23500,1.2011072635650637,-0.3073902428150177,1.27316153049469,0.5484179258346558,-0.1132204383611679,-1.8945101499557493,3.705078125,0,fly,0,None,None,1.454699376535146,[27100|0|0],fly
23600,1.1886664628982544,-0.3075149655342102,1.2689969539642334,0.3915497064590454,-0.4333852231502533,-3.4890007972717285,3.701171875,0,fly,0,None,None,1.4678193145939171,[27100|0|0],fly
23700,1.17129647731781,-0.3098107278347015,1.2612879276275637,0.2314389497041702,-1.043806076049805,-4.20200777053833,3.6953125,0,fly,0,None,None,1.48696131058871,[27100|0|0],fly
23800,1.1579912900924685,-0.3120988607406616,1.25661039352417,0.1010233983397483,-1.8849780559539795,-4.045958995819092,3.6953125,0,fly,0,None,None,1.5012491685312128,[27100|0|0],fly
23900,1.1524537801742554,-0.308925598859787,1.2575247287750244,-0.2818257510662079,-2.651928901672364,-3.295212984085083,3.6953125,0,fly,0,None,None,1.50769661888076,[27100|0|0],fly
24000,1.1484768390655518,-0.3120497763156891,1.2575892210006714,-0.1024184972047805,-2.9372096061706543,-1.2929271459579468,3.705078125,0,fly,0,None,None,1.5127543559839745,[27100|0|0],fly
24101,1.1432384252548218,-0.312298983335495,1.2550829648971558,-7.47161865234375,6.693103313446045,2.0030908584594727,3.6484375,0,fly,0,None,None,1.518566791192007,[27100|0|0],fly
24200,1.1252052783966064,-0.2949587106704712,1.2562464475631714,-20.177778244018555,17.401941299438477,6.503565788269043,3.6484375,0,fly,0,None,None,1.543611414040464,[27100|0|0],fly
24300,1.083866834640503,-0.2464766949415207,1.2547147274017334,-18.377138137817383,11.730568885803224,2.008235216140747,3.599609375,0,fly,0,None,None,1.607343030589644,[27100|0|0],fly
24400,1.0268843173980713,-0.168675422668457,1.2594541311264038,-12.231821060180664,5.557685852050781,2.006019353866577,3.62109375,0,fly,0,None,None,1.703896162005755,[27100|0|0],fly
24501,0.964722752571106,-0.0702522471547126,1.2767225503921509,-7.08850622177124,-0.5748974084854126,1.713415265083313,3.65234375,0,fly,0,None,None,1.8215795504846903,[27100|0|0],fly
24600,0.9099006652832032,0.0445483215153217,1.3063665628433228,-2.840238094329834,-3.981142044067383,1.4291443824768066,3.68359375,0,fly,0,None,None,1.952206497535331,[27100|0|0],fly
24700,0.8613272905349731,0.1676148474216461,1.3363947868347168,0.240299567580223,-5.190269470214844,0.8099287748336792,3.705078125,0,fly,0,None,None,2.0878768213691057,[27100|0|0],fly
24800,0.8219521641731262,0.2909616231918335,1.3637276887893677,2.133413791656494,-4.714460372924805,0.2370344400405883,3.701171875,0,fly,0,None,None,2.220209414475169,[27100|0|0],fly
24900,0.7929148077964783,0.409927099943161,1.3878419399261477,5.569190502166748,-4.213351249694824,-0.3323545455932617,3.705078125,0,fly,0,None,None,2.345019068876993,[27100|0|0],fly
25000,0.7714731693267822,0.51959627866745,1.4068013429641724,9.03296947479248,-3.1567223072052,-0.827375054359436,3.705078125,0,fly,0,None,None,2.458361609813234,[27100|0|0],fly
25100,0.7568585276603699,0.6138432621955872,1.4201308488845823,11.660843849182127,-2.248844623565674,-0.9240446090698242,3.701171875,0,fly,0,None,None,2.5546619596738283,[27100|0|0],fly
25200,0.7473680377006531,0.6886722445487976,1.427137851715088,12.66374683380127,-1.397984743118286,-0.7008751630783081,3.689453125,0,fly,0,None,None,2.630415138408184,[27100|0|0],fly
25300,0.7401280999183655,0.7447906732559204,1.4295388460159302,12.09994411468506,-0.5205736756324768,-0.3594168126583099,3.6796875,0,fly,0,None,None,2.687049575928835,[27100|0|0],fly
25400,0.7346484065055847,0.7810871005058289,1.4303033351898191,10.44936752319336,0.0567365102469921,0.1630111038684845,3.68359375,0,fly,0,None,None,2.7237652689592404,[27100|0|0],fly
25500,0.7312806844711304,0.7972514033317566,1.4307321310043335,8.065239906311035,0.3328669965267181,0.7341576218605042,3.68359375,0,fly,0,None,None,2.7402822330689123,[27100|0|0],fly
25602,0.7788981795310974,0.7052088379859924,1.4695006608963013,4.874662399291992,0.8536701798439026,-0.6607329845428467,3.7109375,0,fly,0,None,None,2.850926973482543,[27100|0|0],fly
25702,0.7763169407844543,0.6987951397895813,1.4690181016921997,-3.217137575149536,2.7538371086120605,1.1665421724319458,3.701171875,0,fly,0,None,None,2.857857426671713,[27100|0|0],fly
25801,0.7666597366333008,0.7010968923568726,1.4624613523483276,-5.044731140136719,2.589741468429565,1.6047536134719849,3.6953125,0,fly,0,None,None,2.8697549314040702,[27100|0|0],fly
25900,0.7516651749610901,0.7130410671234131,1.451556921005249,-4.581791877746582,1.3732869625091553,1.76680326461792,3.673828125,0,fly,0,None,None,2.891809563876893,[27100|0|0],fly
26000,0.7330369353294373,0.7347471117973328,1.4405155181884766,-2.200226306915283,0.1254100054502487,1.3779938220977783,3.673828125,0,fly,0,None,None,2.922470227002839,[27100|0|0],fly
26100,0.7142695188522339,0.7589098215103149,1.42867112159729,0.1519253998994827,-1.4878698587417605,0.8210776448249817,3.673828125,0,fly,0,None,None,2.9552778814833403,[27100|0|0],fly
26200,0.6974560618400574,0.7831094861030579,1.418623924255371,2.2395949363708496,-2.3615200519561768,-0.3129769265651703,3.6640625,0,fly,0,None,None,2.986410858814926,[27100|0|0],fly
26302,0.6852713823318481,0.8023393750190735,1.4115478992462158,3.514019012451172,-2.764883756637573,-1.0298218727111816,3.6640625,0,fly,0,None,None,3.010250430379245,[27100|0|0],fly
26401,0.6762911677360535,0.8178050518035889,1.4056735038757324,4.219648361206055,-2.9015066623687744,-1.8677626848220823,3.6640625,0,fly,0,None,None,3.029074349566236,[27100|0|0],fly
26500,0.6725525259971619,0.8265982866287231,1.402344822883606,3.883133888244629,-2.6059577465057373,-2.6493465900421143,3.673828125,0,fly,0,None,None,3.039192577567674,[27100|0|0],fly
26600,0.6728123426437378,0.8288582563400269,1.400711178779602,3.3614726066589355,-2.037175178527832,-3.6462562084198,3.6796875,0,fly,0,None,None,3.0419932490665107,[27100|0|0],fly
26700,0.6752718091011047,0.827050507068634,1.3999395370483398,2.706430673599243,-0.9766764640808104,-4.380513668060303,3.6796875,0,fly,0,None,None,3.0451416397100872,[27100|0|0],fly
26800,0.678379476070404,0.8210263848304749,1.3969699144363403,1.3536062240600586,-0.5553897023200989,-4.580867290496826,3.673828125,0,fly,0,None,None,3.052542065453925,[27100|0|0],fly
26900,0.6824570298194885,0.8119744658470154,1.3943397998809814,0.6802310943603516,0.5047606825828552,-4.358182430267334,3.673828125,0,fly,0,None,None,3.0628124687777527,[27100|0|0],fly
27000,0.6843018531799316,0.8037294149398804,1.3913335800170898,-0.7660269141197205,0.4901712238788605,-3.653024435043335,3.673828125,0,fly,0,None,None,3.071780277627329,[27100|0|0],fly
27100,0.6854866743087769,0.7958672642707825,1.3810536861419678,-1.7566828727722168,0.1531564593315124,-2.889737606048584,3.896484375,0,fly,0,None,None,3.0847761782246224,[27100|0|0],fly
27200,0.6861187815666199,0.7903251051902771,1.3390599489212036,-2.214456558227539,-0.6475368738174438,-2.845086574554444,3.83203125,0,fly,0,None,None,3.12713876847387,[27100|0|0],fly
27300,0.685614824295044,0.7866986393928528,1.2575299739837646,-1.9094531536102293,-0.0278282165527343,-3.0946855545043945,3.748046875,0,fly,0,None,None,3.2087509124256792,[27100|0|0],fly
27400,0.6851176023483276,0.7852952480316162,1.1471197605133057,-0.2758007943630218,-0.0733392313122749,-3.32956600189209,3.6796875,0,fly,0,None,None,3.319171164080751,[27100|0|0],fly
27500,0.6829403042793274,0.7844600677490234,1.023105263710022,-0.8069022297859192,0.3740134537220001,-3.135997772216797,3.658203125,0,fly,0,None,None,3.4432075844191234,[27100|0|0],fly
27600,0.6810058951377869,0.7846752405166626,0.8959416151046753,-0.0553635209798812,-0.0260470770299434,-2.378286600112915,3.6640625,0,fly,0,None,None,3.570386127281789,[27100|0|0],fly
27700,0.6784791946411133,0.7845142483711243,0.7709722518920898,0.8071006536483765,0.2664443254470825,-1.0281364917755127,3.66796875,0,fly,0,None,None,3.6953811346846046,[27100|0|0],fly
27800,0.6717419028282166,0.7905951738357544,0.6543201804161072,-0.5888754725456238,-0.1532139182090759,0.5915416479110718,3.6640625,0,fly,0,None,None,3.8123857266249055,[27100|0|0],fly
27900,0.6706242561340332,0.7893568873405457,0.5326051115989685,0.2695326805114746,-0.6203017830848694,2.2148070335388184,3.673828125,0,fly,0,None,None,3.934112225238552,[27100|0|0],fly
28000,0.670815110206604,0.7880874276161194,0.4104118049144745,0.013024472631514,-0.1091195344924926,3.622726202011109,3.626953125,0,fly,0,None,None,4.056312274959327,[27100|0|0],fly
28100,0.6719677448272705,0.7874922156333923,0.2916809320449829,-0.8607599139213562,0.4461714029312134,5.936046123504639,3.615234375,0,fly,0,None,None,4.1750502344172205,[27100|0|0],fly
28200,0.6694198250770569,0.7911098599433899,0.1803825944662094,-5.049632549285889,5.257038116455078,10.287103652954102,3.63671875,0,fly,0,None,None,4.286436495658029,[27100|0|0],fly
28300,0.6580647826194763,0.8007194995880127,0.0755543932318687,-4.3730902671813965,4.015957355499268,14.076675415039062,3.58984375,0,fly,0,None,None,4.392314887869757,[27100|0|0],fly
28400,0.6420839428901672,0.8136830925941467,0.0,3.519792318344116,-2.399452209472656,17.343708038330078,3.58984375,0,fly,0,None,None,4.47062139027357,[27100|0|0],fly
28500,0.6314879655838013,0.8244631290435791,0.0,1.5367732048034668,3.042459487915039,17.89461326599121,3.716796875,0,fly,0,None,None,4.485737074873618,[27100|0|0],fly
28600,0.6250972151756287,0.8318260312080383,0.0,7.328668594360352,-2.2063915729522705,15.138054847717283,3.6953125,0,fly,0,None,None,4.495486639944069,[27100|0|0],fly
28700,0.6263377070426941,0.8309206366539001,0.0,9.348085403442385,-10.5220365524292,13.13284683227539,3.6796875,0,fly,0,None,None,4.4970224001372365,[27100|0|0],fly
28800,0.6416890025138855,0.8176845908164978,0.0012636873871088,4.300236701965332,-5.61613130569458,9.1925630569458,3.6796875,0,fly,0,None,None,4.517331316599371,[27100|0|0],fly
28900,0.6695080399513245,0.7992430329322815,0.0,5.733822822570801,-5.6385040283203125,6.147902965545654,3.642578125,0,fly,0,None,None,4.55073171789868,[27100|0|0],fly
29000,0.7057228088378906,0.7747485041618347,0.0,-0.1512480229139328,0.3656348884105682,3.804970979690552,3.642578125,0,fly,0,None,None,4.594452324312517,[27100|0|0],fly
29100,0.7355860471725464,0.752183198928833,0.0,0.4271564185619354,3.1342520713806152,2.5468852519989014,3.6640625,0,fly,0,None,None,4.631882339061258,[27100|0|0],fly
29200,0.7630423307418823,0.7277151346206665,0.0050121136009693,-2.87909197807312,4.811458110809326,1.7877672910690308,3.6796875,0,fly,0,None,None,4.668999113721476,[27100|0|0],fly
29300,0.7818050384521484,0.7073662281036377,0.0143208978697657,-3.672741174697876,7.217082977294922,1.5125828981399536,3.68359375,0,fly,0,None,None,4.69820135099232,[27100|0|0],fly
29400,0.7897284626960754,0.6922406554222107,0.0200623236596584,-3.8159525394439697,5.065114974975586,0.7134535908699036,3.66796875,0,fly,0,None,None,4.716215999775774,[27100|0|0],fly
29500,0.7895725965499878,0.6821907162666321,0.0205168910324573,-3.313286066055298,4.203550338745117,-0.7165567874908447,3.658203125,0,fly,0,None,None,4.726277421284823,[27100|0|0],fly
29600,0.7846375703811646,0.6780871152877808,0.0166693348437547,-3.262331008911133,2.5141866207122803,-2.143087387084961,3.6484375,0,fly,0,None,None,4.733760583243903,[27100|0|0],fly
29700,0.777032196521759,0.6786177754402161,0.0144134256988763,-3.565194606781006,2.060789108276367,-2.795440912246704,3.642578125,0,fly,0,None,None,4.7417112082387485,[27100|0|0],fly
29800,0.766075611114502,0.6825366020202637,0.0139370057731866,-0.2317217886447906,1.0586466789245603,-2.3450071811676025,3.65234375,0,fly,0,None,None,4.753357278026304,[27100|0|0],fly
29900,0.7555468082427979,0.6876712441444397,0.0169314406812191,-1.03304123878479,-0.4388070702552795,-0.6773633360862732,3.658203125,0,fly,0,None,None,4.765448054679315,[27100|0|0],fly
30000,0.7464110851287842,0.6927419304847717,0.0198029447346925,-2.4134740829467773,-1.7784863710403442,1.6290440559387207,3.65234375,0,F1,0,None,None,4.776284051740364,[27100|100|0],intermediate
30100,0.7400854825973511,0.700954794883728,0.0215467605739831,0.2749398052692413,-0.920295476913452,2.315007209777832,3.658203125,0,F1,0,None,None,4.786796201030718,[27100|200|0],intermediate
30200,0.7354726791381836,0.707871675491333,0.0231475308537483,-0.5055466294288635,-0.024714408442378,2.19750452041626,3.65234375,0,F1,0,None,None,4.79526282128802,[27100|300|0],intermediate
30300,0.7295635342597961,0.7156925797462463,0.0221443008631467,-0.200028970837593,0.1798978596925735,1.9641170501708984,3.65234375,0,F1,0,None,None,4.80511629818566,[27100|400|0],intermediate
30400,0.7237581014633179,0.7229785919189453,0.0197662785649299,-0.7824678421020508,-0.233891949057579,2.347113609313965,3.65234375,0,F1,0,None,None,4.814731079170475,[27100|500|0],intermediate
30500,0.7158200144767761,0.7307373285293579,0.0137279471382498,-0.0087174922227859,1.1448805332183838,2.998366594314575,3.630859375,0,F1,0,None,None,4.827367244143049,[27100|600|0],intermediate
30600,0.7070412039756775,0.7392633557319641,0.011423235759139,-1.00678288936615,0.5731731653213501,2.9149603843688965,3.642578125,0,F1,0,None,None,4.839820048976289,[27100|700|0],intermediate
30700,0.6956449747085571,0.7478668689727783,0.0102755203843116,-0.0061688912101089,1.9785314798355105,2.7174670696258545,3.642578125,0,F1,0,None,None,4.8541452621396335,[27100|800|0],intermediate
30800,0.6820622682571411,0.7561709880828857,0.0121874818578362,1.0329456329345703,0.5429273247718811,2.816842555999756,3.65234375,0,F1,0,None,None,4.870179722074924,[27100|900|0],intermediate
30900,0.6673640012741089,0.7632025480270386,0.0153859350830316,-0.8770216703414917,0.5213515162467957,2.9200339317321777,3.642578125,0,F1,0,None,None,4.886784299473535,[27100|1000|0],intermediate
31000,0.6506924033164978,0.7718818783760071,0.0181493330746889,-0.6575544476509094,0.9071346521377563,2.042801856994629,3.6484375,0,F1,0,None,None,4.905781913066486,[27100|1100|0],intermediate
31100,0.6331725716590881,0.7805562615394592,0.0186960007995367,0.5673338174819946,0.4227191805839538,2.259875774383545,3.6484375,0,F1,0,None,None,4.925339220400875,[27100|1200|0],intermediate
31200,0.6160884499549866,0.7899830937385559,0.0181176848709583,-1.8095122575759888,-1.634292721748352,3.7210476398468018,3.630859375,0,F1,0,None,None,4.944860153499057,[27100|1300|0],intermediate
31300,0.6001172065734863,0.8007300496101379,0.0177625678479671,3.535951614379883,1.492031812667847,3.61365008354187,3.642578125,0,F1,0,None,None,4.964113822857309,[27100|1400|0],intermediate
31400,0.5832557082176208,0.8087279796600342,0.0174525585025548,-0.4773312211036682,-0.2411548048257827,2.176172971725464,3.62109375,0,F1,0,None,None,4.982778578887917,[27100|1500|0],intermediate
31500,0.5672582983970642,0.8148849010467529,0.0156567245721817,1.422978401184082,1.0294026136398315,0.5709614157676697,3.630859375,0,F1,0,None,None,5.000013712233341,[27100|1600|0],intermediate
31600,0.5498954057693481,0.8196147084236145,0.0134818833321332,0.6032192707061768,0.8813849091529846,-1.582951307296753,3.611328125,0,F1,0,None,None,5.018140241207285,[27100|1700|0],intermediate
31700,0.5322566032409668,0.823826253414154,0.0094882901757955,-1.1853644847869873,0.3451565206050873,-1.462425708770752,3.626953125,0,F1,0,None,None,5.036709389064441,[27100|1800|0],intermediate
31800,0.5130471587181091,0.829184353351593,0.0094110108911991,0.3056765496730804,0.7631114721298218,-3.037480592727661,3.62109375,0,F1,0,None,None,5.056652256609109,[27100|1900|0],intermediate
31900,0.4937712252140045,0.8365727663040161,0.0117722284048795,-1.8568006753921509,0.6321941614151001,-3.6283986568450928,3.626953125,0,F1,0,None,None,5.077430264371094,[27100|2000|0],intermediate
32000,0.4757012128829956,0.8453591465950012,0.0097507396712899,3.2629761695861816,-0.1831201612949371,-1.6799901723861694,3.990234375,0,F1,0,None,None,5.097624625984194,[27100|2100|0],intermediate
32100,0.4577690958976745,0.8515733480453491,0.0,9.038708686828612,3.943392038345337,2.718579053878784,3.990234375,0,F1,0,None,None,5.118961309029551,[27100|2200|0],intermediate
32200,0.4467056095600128,0.8547323942184448,0.0,-0.7716102600097656,-0.2890389561653137,4.283547401428223,3.99609375,0,F1,0,None,None,5.130466972968124,[27100|2300|0],intermediate
32300,0.4467885792255401,0.8545538783073425,0.0,-0.7972181439399719,-0.2307076603174209,4.197734355926514,3.99609375,0,F1,0,None,None,5.130663827980543,[27100|2400|0],intermediate
32400,0.4464932978153229,0.8546719551086426,0.0,-0.8987377882003784,-0.0670124292373657,4.094617366790772,4.0,0,F1,0,None,None,5.130981842512012,[27100|2500|0],intermediate
32500,0.4469467997550964,0.8548095226287842,0.0,-0.944220244884491,0.0861425772309303,4.009877681732178,4.0,0,F1,0,None,None,5.131455750553699,[27100|2600|0],intermediate
32600,0.4467461109161377,0.8552132248878479,0.0,-0.9910295605659484,0.2405085563659668,3.9295096397399902,4.0,0,F1,0,None,None,5.131906584807118,[27100|2700|0],intermediate
32700,0.4465548694133758,0.8554091453552246,0.0,-0.9882932305336,0.3625776171684265,3.849666118621826,4.0078125,0,F1,0,None,None,5.132180369653148,[27100|2800|0],intermediate
32800,0.4465375542640686,0.8549232482910156,0.0,-1.056232452392578,0.525529682636261,3.727340221405029,4.0078125,0,F1,0,None,None,5.1326665751358425,[27100|2900|0],intermediate
32900,0.4435589611530304,0.8572147488594055,0.0,-1.1152855157852173,2.0570106506347656,4.718568801879883,4.0078125,0,F1,0,None,None,5.136424632050799,[27100|3000|0],intermediate
33000,0.4399254322052002,0.8563053011894226,0.0,-1.4181404113769531,10.88502311706543,5.048411846160889,4.01171875,0,F1,0,None,None,5.140170246510292,[27100|3100|0],intermediate
33100,0.4510731995105743,0.845377504825592,0.0,-16.416057586669922,18.617572784423828,3.887437343597412,4.01171875,0,F1,0,None,None,5.155780802210334,[27100|3200|0],intermediate
33200,0.4916150271892547,0.8146857619285583,0.0298146363347768,-7.015347003936768,13.808526039123535,5.0492753982543945,4.01171875,0,F1,0,None,None,5.21472599211893,[27100|3300|0],intermediate
33300,0.5745809674263,0.7713785767555237,0.0539895519614219,-4.895570755004883,19.08282852172852,5.6987152099609375,4.01171875,0,F1,0,None,None,5.311386667021312,[27100|3400|0],intermediate
33400,0.6672601103782654,0.7368436455726624,0.043250635266304,-7.921430110931396,28.357589721679688,4.477851867675781,4.015625,0,F1,0,None,None,5.410872391333398,[27100|3500|0],intermediate
33500,0.7218446135520935,0.7196589708328247,0.0214347895234823,-17.10155487060547,30.43515396118164,17.846935272216797,4.015625,0,F1,0,None,None,5.472115449373655,[27100|3600|0],intermediate
33600,0.7326002717018127,0.7166929244995117,0.0006297472864389,-22.98103904724121,24.57722282409668,31.8281478881836,4.015625,0,F1,0,None,None,5.495723316612568,[27100|3700|0],intermediate
33700,0.7386287450790405,0.726665198802948,0.0,-25.77396011352539,15.044794082641602,35.346866607666016,4.015625,0,F1,0,None,None,5.507393163556196,[27100|3800|0],intermediate
33800,0.7492614984512329,0.7915641665458679,0.0,-18.35455703735352,1.4754774570465088,35.80949020385742,4.0234375,0,F1,0,None,None,5.5731573746316005,[27100|3900|0],intermediate
33900,0.7605634331703186,0.7098541855812073,0.0,-7.909759044647217,-0.6299359202384949,38.513671875,4.0234375,0,F1,0,None,None,5.655645281124854,[27100|4000|0],intermediate
34000,0.7627670764923096,0.7109460234642029,0.0,-7.959248065948486,-5.031346797943115,39.332637786865234,4.0234375,0,F1,0,None,None,5.658104580588787,[27100|4100|0],intermediate
34100,0.7640902996063232,0.710939347743988,0.0,-5.515179634094238,-5.489778995513916,41.46098327636719,4.0234375,0,F1,0,None,None,5.659427820542348,[27100|4200|0],intermediate
