time.ms,stateEstimate.x,stateEstimate.y,stateEstimate.z,stabilizer.roll,stabilizer.pitch,stabilizer.yaw,pm.vbat,drone_id,node_name,wind_speed,global_wind_direction,relative_wind_direction,travel_dist,waiting_time
0,0.6538681387901306,0.38942277431488037,-0.029618658125400543,0.009960469789803028,0.837663471698761,-8.885473251342773,4.0859375,0,F2,6.1,270,0,0.0632672877593218,[100|0|0|0]
100,0.6537218689918518,0.3895359933376312,-0.02943161316215992,0.011563717387616634,0.841931164264679,-8.885721206665039,4.0859375,0,F2,6.1,270,0,0.06353034520414112,[200|0|0|0]
200,0.6537225842475891,0.3895828127861023,-0.02948429249227047,0.018625326454639435,0.8396421074867249,-8.904508590698242,4.0859375,0,F2,6.1,270,0,0.0636008270043934,[300|0|0|0]
300,0.6533873677253723,0.389338880777359,-0.02956477738916874,0.053735408931970596,0.8517724275588989,-8.883617401123047,4.0859375,0,F2,6.1,270,0,0.06402314295280807,[400|0|0|0]
400,0.6211591958999634,0.3050425350666046,0.041898973286151886,-1.4488242864608765,-2.8502330780029297,-6.074625492095947,4.0859375,0,F2,6.1,270,0,0.1791387223501229,[500|0|0|0]
500,0.662460446357727,0.3965248763561249,-0.037404533475637436,-2.90071702003479,-2.753523826599121,-7.256338596343994,4.0859375,0,F2,6.1,270,0,0.3070600194116535,[600|0|0|0]
600,0.6585527658462524,0.393604040145874,-0.035093754529953,2.412652015686035,4.909331321716309,-7.824305534362793,4.0859375,0,F2,6.1,270,0,0.3124582552792948,[700|0|0|0]
700,0.654123842716217,0.3919603228569031,-0.0345880500972271,4.443897247314453,7.589812278747559,-8.395546913146973,4.0859375,0,F2,6.1,270,0,0.31720935026793723,[800|0|0|0]
800,0.6523120999336243,0.39010024070739746,-0.03306528180837631,4.493480682373047,7.300412178039551,-8.683935165405273,4.0859375,0,F2,6.1,270,0,0.32021952314913793,[900|0|0|0]
900,0.6516016125679016,0.3894648849964142,-0.03166323900222778,3.9079911708831787,6.413534641265869,-8.810373306274414,4.0859375,0,F2,6.1,270,0,0.32191486771783284,[1000|0|0|0]
1000,0.6512142419815063,0.38860684633255005,-0.031107209622859955,3.3190317153930664,5.542242527008057,-8.884244918823242,4.0859375,0,F2,6.1,270,0,0.3230082363613425,[1100|0|0|0]
1100,0.6513833403587341,0.38889145851135254,-0.030675437301397324,2.7569961547851562,4.784235000610352,-8.949413299560547,4.0859375,0,F2,6.1,270,0,0.32355231879175633,[1200|0|0|0]
1200,0.6511979699134827,0.389034241437912,-0.030523085966706276,2.2998642921447754,4.157703876495361,-8.993541717529297,4.0859375,0,F2,6.1,270,0,0.3238315321425685,[1300|0|0|0]
1300,0.6510536074638367,0.3888242542743683,-0.03035174123942852,1.9353504180908203,3.6344761848449707,-9.037120819091797,4.0859375,0,F2,6.1,270,0,0.32413860565377844,[1400|0|0|0]
1400,0.6515308022499084,0.3888337016105652,-0.030192123726010323,1.6405965089797974,3.1751763820648193,-9.03977108001709,4.0859375,0,F2,6.1,270,0,0.32464187681985607,[1500|0|0|0]
1500,0.6519962549209595,0.38880088925361633,-0.030208874493837357,1.3616114854812622,2.773832082748413,-9.06674575805664,4.0859375,0,F2,6.1,270,0,0.32510878519200187,[1600|0|0|0]
1600,0.652281641960144,0.38885387778282166,-0.02980211190879345,1.1297932863235474,2.433891534805298,-9.043376922607422,4.0859375,0,F2,6.1,270,0,0.325608494454427,[1700|0|0|0]
1700,0.6524366736412048,0.38865926861763,-0.029824504628777504,0.9360573887825012,2.1533234119415283,-9.04442024230957,4.0859375,0,F2,6.1,270,0,0.3258583123545411,[1800|0|0|0]
1800,0.6522735953330994,0.38887321949005127,-0.0297883041203022,0.7667869925498962,1.9279123544692993,-9.020256042480469,4.0859375,0,F2,6.1,270,0,0.32612975293219715,[1900|0|0|0]
1900,0.6526379585266113,0.38883718848228455,-0.02959110587835312,0.6240308880805969,1.716170072555542,-9.013033866882324,4.0859375,0,F2,6.1,270,0,0.3265456205997727,[2000|0|0|0]
2000,0.6531907320022583,0.3888940215110779,-0.029608502984046936,0.5015696883201599,1.5390266180038452,-9.005995750427246,4.0859375,0,F2,6.1,270,0,0.3271015802816087,[2100|0|0|0]
2100,0.6530117988586426,0.3889777958393097,-0.0294302050024271,0.4037263095378876,1.4122518301010132,-8.97326374053955,4.0859375,0,F2,6.1,270,0,0.3273677106598157,[2200|0|0|0]
2200,0.6531836986541748,0.38883429765701294,-0.029632404446601868,0.328718900680542,1.2927701473236084,-8.945460319519043,4.0859375,0,F2,6.1,270,0,0.3276694156204164,[2300|0|0|0]
2300,0.6532222628593445,0.38906294107437134,-0.02925744466483593,0.2551739513874054,1.199243426322937,-8.924799919128418,4.0859375,0,F2,6.1,270,0,0.3281102782386589,[2400|0|0|0]
2400,0.6534864902496338,0.38915130496025085,-0.029630661010742188,0.22108934819698334,1.128735065460205,-8.917664527893066,4.0859375,0,F2,6.1,270,0,0.3285760192943524,[2500|0|0|0]
2500,0.653299868106842,0.3890328109264374,-0.029424965381622314,0.1720823496580124,1.06544828414917,-8.91015625,4.0859375,0,F2,6.1,270,0,0.32887797848376144,[2600|0|0|0]
2600,0.6533972024917603,0.3891294002532959,-0.029528139159083366,0.12980468571186066,1.0061084032058716,-8.88680648803711,4.0859375,0,F2,6.1,270,0,0.32904958357956565,[2700|0|0|0]
2700,0.6536796689033508,0.38922616839408875,-0.029625046998262405,0.0936649963259697,0.9547017216682434,-8.891305923461914,4.0859375,0,F2,6.1,270,0,0.3293634983387658,[2800|0|0|0]
2800,0.6534833312034607,0.38942819833755493,-0.029584288597106934,0.06287415325641632,0.9350766539573669,-8.89760971069336,4.0859375,0,F2,6.1,270,0,0.32964814871680853,[2900|0|0|0]
2900,0.6533248424530029,0.3894202709197998,-0.029609182849526405,0.04719024524092674,0.9075286984443665,-8.903884887695312,4.0859375,0,F2,6.1,270,0,0.32980877639741635,[3000|0|0|0]
3000,0.6536926031112671,0.3895835876464844,-0.029605869203805923,0.03380671143531799,0.8739528656005859,-8.902323722839355,4.0859375,0,F2,6.1,270,0,0.3302111832005768,[3100|0|0|0]
3100,0.6537583470344543,0.38925498723983765,-0.029627332463860512,0.037286579608917236,0.8582825660705566,-8.896916389465332,4.0859375,0,F2,6.1,270,0,0.3305469824891654,[3200|0|0|0]
3200,0.65380859375,0.38962310552597046,-0.02989855781197548,0.02318606711924076,0.8439216613769531,-8.898078918457031,4.0859375,0,F2,6.1,270,0,0.33100698139619517,[3300|0|0|0]
3300,0.6536498665809631,0.38936319947242737,-0.029476750642061234,0.04798506945371628,0.8471485376358032,-8.86963939666748,4.0859375,0,F2,6.1,270,0,0.3315272378324359,[3400|0|0|0]
3400,0.6537119746208191,0.3892359137535095,-0.029334312304854393,0.03162730112671852,0.8309811949729919,-8.861055374145508,4.0859375,0,F2,6.1,270,0,0.3317281053080546,[3500|0|0|0]
3500,0.6538424491882324,0.389468252658844,-0.029508035629987717,0.01947603188455105,0.8240931034088135,-8.85889720916748,4.0859375,0,F2,6.1,270,0,0.33204620084931397,[3600|0|0|0]
3600,0.6537460684776306,0.38940030336380005,-0.029558291658759117,0.017324943095445633,0.8292139172554016,-8.868264198303223,4.0859375,0,F2,6.1,270,0,0.33217438827654827,[3700|0|0|0]
3700,0.6538881659507751,0.38924068212509155,-0.029482880607247353,0.020070672035217285,0.8242154121398926,-8.873056411743164,4.0859375,0,F2,6.1,270,0,0.3324010101166498,[3800|0|0|0]
3800,0.6536564826965332,0.38918137550354004,-0.02941734716296196,0.017898207530379295,0.8352754712104797,-8.868178367614746,4.0859375,0,F2,6.1,270,0,0.3326489799494438,[3900|0|0|0]
3900,0.6537035703659058,0.38947924971580505,-0.02932433784008026,0.01155026350170374,0.8405940532684326,-8.870110511779785,4.0859375,0,F2,6.1,270,0,0.3329645699193135,[4000|0|0|0]
4000,0.6536787152290344,0.389133095741272,-0.02948504500091076,0.020390700548887253,0.83385169506073,-8.867738723754883,4.0859375,0,F2,6.1,270,0,0.3333470187962319,[4100|0|0|0]
4100,0.6537221074104309,0.38956543803215027,-0.029378389939665794,0.0066877626813948154,0.8339222073554993,-8.872459411621094,4.0859375,0,F2,6.1,270,0,0.33379443140219806,[4200|0|0|0]
4200,0.6535346508026123,0.3895499110221863,-0.0294669009745121,0.01139409001916647,0.8418877720832825,-8.85395622253418,4.0859375,0,F2,6.1,270,0,0.3340023142325204,[4300|0|0|0]
4300,0.653491735458374,0.3893638253211975,-0.029523590579628944,0.03978922963142395,0.852088212966919,-8.868885040283203,4.0859375,0,F2,6.1,270,0,0.334201520974906,[4400|0|0|0]
4400,0.6536019444465637,0.38929489254951477,-0.02939831279218197,0.024248939007520676,0.8437466025352478,-8.8673734664917,4.0859375,0,F2,6.1,270,0,0.33438205427409834,[4500|0|0|0]
4500,0.6539385318756104,0.38906654715538025,-0.029413670301437378,0.02388031594455242,0.8361762166023254,-8.847248077392578,4.0859375,0,F2,6.1,270,0,0.3347890783145495,[4600|0|0|0]
4600,0.6537140011787415,0.38946986198425293,-0.02958758920431137,0.010074353776872158,0.8424831628799438,-8.854110717773438,4.0859375,0,F2,6.1,270,0,0.335282357819295,[4700|0|0|0]
4700,0.6538848876953125,0.38937029242515564,-0.02922011725604534,0.015849698334932327,0.8380768895149231,-8.862480163574219,4.0859375,0,F2,6.1,270,0,0.33569967296568565,[4800|0|0|0]
4800,0.6534188985824585,0.38952958583831787,-0.02950175292789936,0.018068626523017883,0.8551995754241943,-8.890580177307129,4.0859375,0,F2,6.1,270,0,0.3362669814324266,[4900|0|0|0]
4900,0.6538700461387634,0.3892960250377655,-0.029402386397123337,0.017288360744714737,0.8389372825622559,-8.882390975952148,4.0859375,0,F2,6.1,270,0,0.33678462848646346,[5000|0|0|0]
5000,0.6538294553756714,0.3893607258796692,-0.02981075830757618,0.020007764920592308,0.8401593565940857,-8.882890701293945,4.0859375,0,F2,6.1,270,0,0.33720008176450844,[5100|0|0|0]
5100,0.6539849042892456,0.38931864500045776,-0.02968055009841919,0.020510775968432426,0.8350061774253845,-8.87112045288086,4.0859375,0,F2,6.1,270,0,0.33740717918810054,[5200|0|0|0]
5200,0.6536412835121155,0.38931795954704285,-0.029763204976916313,0.021905649453401566,0.8488556742668152,-8.86639404296875,4.0859375,0,F2,6.1,270,0,0.3377606017924445,[5300|0|0|0]
5300,0.6538044214248657,0.38948145508766174,-0.0295589417219162,0.02432192675769329,0.8480755090713501,-8.866358757019043,4.0859375,0,F2,6.1,270,0,0.33806893318514075,[5400|0|0|0]
5400,0.6536468267440796,0.389303058385849,-0.0293439831584692,0.048594146966934204,0.8543710708618164,-8.884803771972656,4.0859375,0,F2,6.1,270,0,0.33838966461582526,[5500|0|0|0]
5500,0.6534295678138733,0.38942235708236694,-0.029620803892612457,0.028689878061413765,0.8490930795669556,-8.882674217224121,4.0859375,0,F2,6.1,270,0,0.33876123337204256,[5600|0|0|0]
5600,0.6536902189254761,0.38941943645477295,-0.029294978827238083,0.022243091836571693,0.8325032591819763,-8.881905555725098,4.0859375,0,F2,6.1,270,0,0.33917849768308717,[5700|0|0|0]
5700,0.6538037657737732,0.3890777826309204,-0.02942635491490364,0.023934923112392426,0.8168354630470276,-8.871084213256836,4.0859375,0,F2,6.1,270,0,0.33956174681683904,[5800|0|0|0]
5800,0.6539190411567688,0.38942331075668335,-0.029770031571388245,0.014367449097335339,0.815447986125946,-8.883069038391113,4.0859375,0,F2,6.1,270,0,0.3400625379348019,[5900|0|0|0]
5900,0.6536343097686768,0.38929495215415955,-0.029442444443702698,0.02271796576678753,0.8277866840362549,-8.87954044342041,4.0859375,0,F2,6.1,270,0,0.3405151539093675,[6000|0|0|0]
6000,0.6536607146263123,0.38953009247779846,-0.029504407197237015,0.015380200929939747,0.8228617310523987,-8.887934684753418,4.0859375,0,F2,6.1,270,0,0.3407597506614582,[6100|0|0|0]
6100,0.6537980437278748,0.38905537128448486,-0.029544828459620476,0.022929703816771507,0.8207858800888062,-8.87901782989502,4.0859375,0,F2,6.1,270,0,0.34125558669480965,[6200|0|0|0]
6200,0.6539478898048401,0.3894583582878113,-0.029353709891438484,0.010457372292876244,0.8165100812911987,-8.888998031616211,4.0859375,0,F2,6.1,270,0,0.3417260956519357,[6300|0|0|0]
6300,0.6535928249359131,0.3893914520740509,-0.029867494478821754,0.03422622010111809,0.8345281481742859,-8.898186683654785,4.0859375,0,F2,6.1,270,0,0.342354205598377,[6400|0|0|0]
6400,0.6536648273468018,0.3892469108104706,-0.02938966453075409,0.02587766759097576,0.824045717716217,-8.901692390441895,4.0859375,0,F2,6.1,270,0,0.3428585844077272,[6500|0|0|0]
6500,0.6537154912948608,0.3890429735183716,-0.02927504852414131,0.0304800346493721,0.8245406150817871,-8.917923927307129,4.0859375,0,F2,6.1,270,0,0.34309794623365913,[6600|0|0|0]
6600,0.6539521813392639,0.38910606503486633,-0.02960248477756977,0.023143284022808075,0.8191215395927429,-8.894546508789062,4.0859375,0,F2,6.1,270,0,0.3435068682514479,[6700|0|0|0]
6700,0.6536805033683777,0.38955995440483093,-0.02984360046684742,0.013012695126235485,0.8321194052696228,-8.932005882263184,3.3203125,0,A/E1,6.1,270,0,0.3440882126034868,[6700|0|0|0]
6800,0.653804361820221,0.3896649181842804,-0.029451705515384674,0.16605348885059357,0.8295665979385376,-8.47799015045166,3.125,0,A/E1,6.1,270,0,0.34451240591327764,[6700|0|0|0]
6900,0.6539214849472046,0.38697806000709534,-0.015031032264232635,9.504568099975586,-2.364759922027588,-5.143991470336914,3.36328125,0,A/E1,6.1,270,0,0.35918171883882644,[6700|0|0|0]
7000,0.6595374345779419,0.36898350715637207,0.028925713151693344,3.6515238285064697,-6.217568874359131,-2.098705291748047,3.388671875,0,A/E1,6.1,270,0,0.4070099353026774,[6700|0|0|0]
7100,0.6727684736251831,0.3454379737377167,0.0950513705611229,0.843203067779541,-0.35563552379608154,-1.2281566858291626,3.404296875,0,A/E1,6.1,270,0,0.4784386067593682,[6700|0|0|0]
7200,0.6872223019599915,0.32542476058006287,0.175581157207489,-2.766141653060913,1.4224607944488525,-1.0930384397506714,3.3984375,0,A/E1,6.1,270,0,0.562667392763531,[6700|0|0|0]
7300,0.6990219950675964,0.3128848969936371,0.25416257977485657,-2.314072608947754,2.8924684524536133,-0.8216514587402344,3.435546875,0,A/E1,6.1,270,0,0.6431131565358453,[6700|0|0|0]
7400,0.7056626677513123,0.3055081069469452,0.3428319990634918,-3.8159453868865967,2.1720004081726074,-0.7537633776664734,3.435546875,0,A/E1,6.1,270,0,0.7323363681013848,[6700|0|0|0]
7500,0.708581268787384,0.3049984872341156,0.4342527389526367,-1.380068302154541,1.9299238920211792,-1.1334724426269531,3.419921875,0,A/E1,6.1,270,0,0.8238051038865598,[6700|0|0|0]
7600,0.7085813283920288,0.30884048342704773,0.5274888277053833,0.065031036734581,1.066499948501587,-1.5340551137924194,3.326171875,0,A/E1,6.1,270,0,0.9171203179765467,[6700|0|0|0]
7700,0.7068837285041809,0.31375956535339355,0.6209337711334229,1.2030940055847168,0.3799305856227875,-2.144042730331421,3.330078125,0,A/E1,6.1,270,0,1.0107100431852833,[6700|0|0|0]
7800,0.7055961489677429,0.31719130277633667,0.7163985967636108,1.8022582530975342,-0.6189537644386292,-2.264427661895752,3.3984375,0,A/E1,6.1,270,0,1.1062452074726015,[6700|0|0|0]
7900,0.7060608863830566,0.3185335695743561,0.8140810132026672,2.1248936653137207,-0.6332170963287354,-2.18701171875,3.42578125,0,A/E1,6.1,270,0,1.2039379510229569,[6700|0|0|0]
8000,0.7079517245292664,0.3169262111186981,0.9121652245521545,1.9683632850646973,-0.3438034653663635,-2.202470302581787,3.416015625,0,A/E1,6.1,270,0,1.3020535531775124,[6700|0|0|0]
8100,0.7115391492843628,0.3127427101135254,1.0104761123657227,1.3796144723892212,-0.46612635254859924,-2.18448543548584,3.419921875,0,A/E1,6.1,270,0,1.400518785415728,[6700|0|0|0]
8200,0.7150315046310425,0.30734843015670776,1.110414981842041,0.8764530420303345,0.29658323526382446,-2.056952953338623,3.435546875,0,A/E1,6.1,270,0,1.500664042089844,[6700|0|0|0]
8300,0.7177930474281311,0.3019368648529053,1.2105941772460938,0.4005437195301056,0.8594215512275696,-1.9827897548675537,3.416015625,0,A/E1,6.1,270,0,1.601027294077117,[6700|0|0|0]
8400,0.7189247608184814,0.2985302805900574,1.310579538345337,-0.15006335079669952,0.3734867572784424,-1.8758108615875244,3.36328125,0,A/E1,6.1,270,0,1.7010770718164197,[6700|0|0|0]
8500,0.7193667888641357,0.2954738438129425,1.4108223915100098,-0.6579377055168152,0.5287720561027527,2.1723432540893555,3.298828125,0,A/E1,6.1,270,0,1.801367484145614,[6700|0|0|0]
8600,0.7187182903289795,0.29587069153785706,1.5095767974853516,-0.43972817063331604,0.4681040644645691,6.769498825073242,3.494140625,0,A/E1,6.1,270,0,1.9001248167240585,[6700|0|0|0]
8700,0.7140713334083557,0.2999320328235626,1.6000579595565796,-0.5183721780776978,0.2071559578180313,4.259976863861084,3.53125,0,A/E1,6.1,270,0,1.990816213181611,[6700|0|0|0]
8800,0.7096602320671082,0.30698075890541077,1.6769448518753052,0.3189907371997833,0.26615872979164124,1.4921625852584839,3.462890625,0,A/E1,6.1,270,0,2.068151435201406,[6700|0|0|0]
8900,0.7037386298179626,0.31461817026138306,1.7349637746810913,0.7119969129562378,-0.05826996639370918,-1.7730411291122437,3.447265625,0,A/E1,6.1,270,0,2.126969721719811,[6700|0|0|0]
9000,0.6979209184646606,0.3217800557613373,1.77706778049469,0.841664731502533,-0.1201230138540268,-3.352095365524292,3.568359375,0,A/E1,6.1,270,0,2.1700729196853485,[6700|0|0|0]
9100,0.6915832757949829,0.32693296670913696,1.8090153932571411,0.6971564292907715,-0.3099103569984436,-4.084160327911377,3.515625,0,A/E1,6.1,270,0,2.203048185674632,[6700|0|0|0]
9200,0.6856828331947327,0.33064234256744385,1.8307533264160156,0.7312753200531006,-1.0537227392196655,-4.626941680908203,3.447265625,0,A/E1,6.1,270,0,2.225876072790104,[6700|0|0|0]
9300,0.6810697317123413,0.33200153708457947,1.8412914276123047,0.7697999477386475,-1.4826189279556274,-4.0460205078125,3.42578125,0,A/E1,6.1,270,0,2.2374596685982064,[6700|0|0|0]
9400,0.6798549890518188,0.33008649945259094,1.8439908027648926,0.3219677805900574,-1.4727914333343506,-3.762944459915161,3.431640625,0,A/E1,6.1,270,0,2.240985231684812,[6700|0|0|0]
9500,0.6807666420936584,0.32666751742362976,1.845585823059082,-0.24916334450244904,-0.8955791592597961,-3.2554986476898193,3.41015625,0,A/E1,6.1,270,0,2.2448665509350065,[6700|0|0|0]
9600,0.6865266561508179,0.31804174184799194,1.8476704359054565,-0.70695561170578,0.0630519837141037,-2.9889392852783203,3.39453125,0,A/E1,6.1,270,0,2.2554461245057706,[6700|0|0|0]
9700,0.6944564580917358,0.30744725465774536,1.8504698276519775,-1.2845484018325806,0.9180916547775269,-2.705540418624878,3.404296875,0,A/E1,6.1,270,182.72631099390625,2.2689724511245157,[6700|0|0|0]
9800,0.7041021585464478,0.2943181097507477,1.8525195121765137,-10.040821075439453,0.3545561730861664,-1.3686105012893677,3.568359375,0,A/E1,6.1,270,182.72631099390625,2.285392414276152,[6700|0|0|0]
9900,0.7366288900375366,0.29045578837394714,1.8607558012008667,-13.900897979736328,-2.827174663543701,14.803790092468262,3.626953125,0,A/E1,6.1,270,182.72631099390625,2.319167290216764,[6700|0|0|0]
10000,0.7428959608078003,0.3175598680973053,1.808154821395874,-16.591814041137695,2.1549551486968994,6.471675395965576,3.447265625,0,A/E1,6.1,270,182.72631099390625,2.378671663082419,[6700|0|0|0]
10100,0.7432306408882141,0.3620741367340088,1.7331488132476807,-12.713772773742676,3.0771191120147705,3.173250675201416,3.3359375,0,A/E1,6.1,270,182.72631099390625,2.4658928381567304,[6700|0|0|0]
10200,0.693449079990387,0.4372972548007965,1.6487698554992676,-7.923873424530029,1.6042258739471436,8.683581352233887,3.310546875,0,A/E1,6.1,270,182.72631099390625,2.5894101640985694,[6700|0|0|0]
10300,0.6621248722076416,0.5156940817832947,1.5840444564819336,-0.9262635707855225,-1.8522109985351562,-0.39693117141723633,3.3046875,0,A/E1,6.1,270,182.72631099390625,2.6957898884453333,[6700|0|0|0]
10400,0.6389399170875549,0.5922744870185852,1.5483397245407104,4.1861114501953125,-5.595580577850342,-4.11614990234375,3.3515625,0,A/E1,6.1,270,182.72631099390625,2.7834079715841256,[6700|0|0|0]
10500,0.6156832575798035,0.6584128141403198,1.5274792909622192,8.894430160522461,-6.131289482116699,-5.458322525024414,3.2890625,0,A/E1,6.1,270,182.72631099390625,2.8565537726598107,[6700|0|0|0]
10600,0.5946213006973267,0.7031497955322266,1.516587734222412,10.499741554260254,-6.699787139892578,-6.165154933929443,3.3359375,0,A/E1,6.1,270,182.72631099390625,2.9071860700597467,[6700|0|0|0]
10700,0.5761377215385437,0.726201057434082,1.5105388164520264,9.340678215026855,-6.783243656158447,-5.913179874420166,3.310546875,0,A/E1,6.1,270,182.72631099390625,2.937345525956361,[6700|0|0|0]
10800,0.5614414215087891,0.7303633689880371,1.5057926177978516,6.303098678588867,-6.489226818084717,-6.034051895141602,3.26171875,0,A/E1,6.1,270,182.72631099390625,2.953340289902779,[6700|0|0|0]
10900,0.551358699798584,0.7272112965583801,1.4994406700134277,3.271876573562622,-6.663417339324951,-4.548031806945801,3.310546875,0,A/E1,6.1,270,182.72631099390625,2.9656668497774272,[6700|0|0|0]
11000,0.5452370643615723,0.7142332792282104,1.497291088104248,-0.6469411253929138,-6.786516189575195,-2.838240146636963,3.462890625,0,A/E1,6.1,270,182.72631099390625,2.9801762969285126,[6700|0|0|0]
11100,0.5561147928237915,0.7094879150390625,1.5162653923034668,-3.7659530639648438,-5.684554100036621,-2.913541793823242,3.509765625,0,A/E1,6.1,270,182.72631099390625,3.0025563701551556,[6700|0|0|0]
11200,0.5693715214729309,0.7075386643409729,1.5122454166412354,-3.8900182247161865,-3.5569286346435547,-2.5943219661712646,3.45703125,0,A/E1,6.1,270,182.72631099390625,3.016545674536927,[6700|0|0|0]
11300,0.5811337232589722,0.7086777687072754,1.4953213930130005,-3.0747992992401123,-2.4582271575927734,-2.4478962421417236,3.3984375,0,A/E1,6.1,270,182.72631099390625,3.0371871261666437,[6700|0|0|0]
11400,0.5952461361885071,0.7151749134063721,1.4780902862548828,-1.8886808156967163,-1.4264957904815674,-1.2737576961517334,3.388671875,0,A/E1,6.1,270,182.72631099390625,3.06038807718259,[6700|0|0|0]
11500,0.6088524460792542,0.7238489389419556,1.462981939315796,-0.4888177812099457,-1.3582043647766113,-0.8051641583442688,3.388671875,0,A/E1,6.1,270,182.72631099390625,3.0824931113392435,[6700|0|0|0]
11600,0.6244003772735596,0.7341238856315613,1.454914927482605,0.7162510752677917,-1.0101960897445679,-0.1953713595867157,3.435546875,0,A/E1,6.1,270,182.72631099390625,3.102800483739777,[6700|0|0|0]
11700,0.6399986147880554,0.7368744015693665,1.4457148313522339,1.0815919637680054,-0.5548089146614075,0.16103175282478333,3.41015625,0,A/E1,6.1,270,182.72631099390625,3.121117473675102,[6700|0|0|0]
11800,0.6555934548377991,0.7421629428863525,1.4410227537155151,1.047654390335083,0.027769483625888824,0.9125003218650818,3.42578125,0,A/E1,6.1,270,182.72631099390625,3.1382400697979906,[6700|0|0|0]
11901,0.6717461943626404,0.7449864745140076,1.436821699142456,0.8507383465766907,0.22649504244327545,1.4417108297348022,3.44140625,0,A/E1,6.1,270,182.72631099390625,3.1551673313761537,[6700|0|0|0]
12001,0.6878233551979065,0.7478452324867249,1.4321024417877197,0.7888659238815308,0.6919894814491272,2.058709144592285,3.39453125,0,A/E1,6.1,270,182.72631099390625,3.172164948492968,[6700|0|0|0]
12101,0.7016007304191589,0.7477609515190125,1.4220315217971802,0.6950164437294006,0.8601958751678467,2.230522871017456,3.3828125,0,A/E1,6.1,270,182.72631099390625,3.189230897066796,[6700|0|0|0]
12201,0.7132676839828491,0.7457496523857117,1.4135242700576782,0.04547708109021187,1.0867568254470825,2.172576427459717,3.39453125,0,A/E1,6.1,270,182.72631099390625,3.2038095273803813,[6700|0|0|0]
12301,0.7232658267021179,0.7434132099151611,1.4064807891845703,-0.1433795839548111,1.2887850999832153,2.1060163974761963,3.388671875,0,A/E1,6.1,270,182.72631099390625,3.2162607298951142,[6700|0|0|0]
12401,0.7305596470832825,0.7399527430534363,1.400991439819336,-0.15342961251735687,1.0806915760040283,2.101165533065796,3.388671875,0,A/E1,6.1,270,182.72631099390625,3.2260232911936355,[6700|0|0|0]
12501,0.7353715896606445,0.7379937767982483,1.395505666732788,-0.3215920627117157,0.8483527898788452,1.9333633184432983,3.388671875,0,A/E1,6.1,270,182.72631099390625,3.233578822049498,[6700|0|0|0]
12601,0.7393977642059326,0.7350333333015442,1.39003586769104,-0.6230402588844299,0.9807868003845215,1.5459933280944824,3.373046875,0,A/E1,6.1,270,182.72631099390625,3.2409878036747557,[6700|0|0|0]
12701,0.7411102652549744,0.7329663634300232,1.3872157335281372,-0.346161425113678,0.5239359736442566,1.5208765268325806,3.373046875,0,A/E1,6.1,270,0,3.2448811545438034,[6700|0|0|0]
12801,0.7425892949104309,0.7314995527267456,1.3832098245620728,-0.3322293162345886,-0.15231524407863617,1.4330456256866455,3.83203125,0,A/E1,6.1,270,0,3.2493962812314354,[6700|0|0|0]
12901,0.7435786128044128,0.7268914580345154,1.3529542684555054,0.30643874406814575,-0.3865413963794708,0.447914719581604,3.80078125,0,A/E1,6.1,270,0,3.2800167312919024,[6700|0|0|0]
13002,0.7451452016830444,0.7266729474067688,1.2835402488708496,0.5715628862380981,0.03396327793598175,0.9284170866012573,3.642578125,0,A/E1,6.1,270,0,3.3494487704561675,[6700|0|0|0]
13102,0.7461465001106262,0.7215404510498047,1.172930359840393,0.18351814150810242,0.09527679532766342,1.7918187379837036,3.357421875,0,A/E1,6.1,270,0,3.4601822011296783,[6700|0|0|0]
13202,0.7468010187149048,0.7158724069595337,1.0410276651382446,-0.23630192875862122,0.47692081332206726,2.86365008354187,3.310546875,0,A/E1,6.1,270,0,3.5922082439700995,[6700|0|0|0]
13302,0.7469019889831543,0.709225594997406,0.9065398573875427,-1.4213305711746216,0.2624531686306,3.5665218830108643,3.314453125,0,A/E1,6.1,270,0,3.726860242610464,[6700|0|0|0]
13401,0.7459684610366821,0.7043402194976807,0.7760841250419617,-1.175946593284607,0.9458951354026794,2.7814435958862305,3.3515625,0,A/E1,6.1,270,0,3.8574107557079698,[6700|0|0|0]
13502,0.7445417046546936,0.6996769905090332,0.6476901769638062,-0.6068332195281982,-0.2654571235179901,1.0331337451934814,3.326171875,0,A/E1,6.1,270,0,3.9858972812329063,[6700|0|0|0]
13602,0.7430636882781982,0.6946085691452026,0.5217108130455017,-1.766007661819458,-0.5542523264884949,-0.2630254328250885,3.310546875,0,A/E1,6.1,270,0,4.111987223578801,[6700|0|0|0]
13701,0.7416092157363892,0.6908919215202332,0.40514063835144043,-0.7702798247337341,0.6004486083984375,-0.5274568200111389,3.29296875,0,A/E1,6.1,270,0,4.228625701741657,[6700|0|0|0]
13801,0.7370402216911316,0.6881856918334961,0.3077961802482605,-0.29104897379875183,0.1560152918100357,-0.12939424812793732,3.27734375,0,A/E1,6.1,270,0,4.326114895548482,[6700|0|0|0]
13902,0.7309703230857849,0.6860376596450806,0.23421205580234528,-1.704284429550171,-0.72751384973526,1.840537428855896,3.310546875,0,A/E1,6.1,270,0,4.399980185650353,[6700|0|0|0]
14001,0.7234140038490295,0.6872115731239319,0.18344424664974213,-1.2538127899169922,-1.204155683517456,4.068747520446777,3.330078125,0,A/E1,6.1,270,0,4.451320681162363,[6700|0|0|0]
14101,0.7178565859794617,0.6927579045295715,0.14900003373622894,-0.6908044815063477,-2.0570566654205322,5.355764865875244,3.345703125,0,A/E1,6.1,270,0,4.486648439209961,[6700|0|0|0]
14202,0.7154999375343323,0.699907124042511,0.1255442053079605,-1.171252727508545,-2.6476781368255615,6.1584320068359375,3.3515625,0,A/E1,6.1,270,0,4.511282582564145,[6700|0|0|0]
14302,0.7167181968688965,0.709558367729187,0.10873668640851974,0.5793312788009644,-1.8597394227981567,6.078104019165039,3.3515625,0,A/E1,6.1,270,0,4.53070224662048,[6700|0|0|0]
14402,0.7213221788406372,0.7189866900444031,0.09650439769029617,1.5085251331329346,-1.1825499534606934,5.525479316711426,3.345703125,0,A/E1,6.1,270,0,4.546818040084089,[6700|0|0|0]
14502,0.729243278503418,0.726312518119812,0.0893205776810646,1.2389024496078491,-1.154965877532959,4.586021423339844,3.3359375,0,A/E1,6.1,270,0,4.559780248490961,[6700|0|0|0]
14600,0.7377136945724487,0.7311998009681702,0.08617059886455536,2.0391299724578857,0.3760393559932709,2.5990374088287354,3.345703125,0,A/E1,6.1,270,0,4.570054286089043,[6700|0|0|0]
14700,0.7458869814872742,0.7326579689979553,0.08464273065328598,1.0037899017333984,0.2699320912361145,0.7377303242683411,3.298828125,0,A/E1,6.1,270,0,4.578496042675569,[6700|0|0|0]
14800,0.7517610192298889,0.7320416569709778,0.08411026000976562,0.6362087726593018,0.9112554788589478,0.5320316553115845,3.298828125,0,A/E1,6.1,270,0,4.5844262774856315,[6700|0|0|0]
14900,0.7560690641403198,0.7298828363418579,0.08563421666622162,0.7778080105781555,1.5997025966644287,0.5484279990196228,3.283203125,0,A/E1,6.1,270,0,4.589480206783689,[6700|0|0|0]
15000,0.7582467198371887,0.7268316149711609,0.08969858288764954,0.6694284081459045,1.2137510776519775,0.9042244553565979,3.27734375,0,A/E1,6.1,270,0,4.595009330490841,[6700|0|0|0]
15100,0.7585570812225342,0.7224003076553345,0.09502346068620682,-0.4226837754249573,0.3799723982810974,2.153010606765747,3.310546875,0,A/E1,6.1,270,0,4.601943819101141,[6700|0|0|0]
15200,0.7600280046463013,0.7169973254203796,0.09803768247365952,-0.6143915057182312,0.03861108794808388,3.2757067680358887,3.2890625,0,A/E1,6.1,270,0,4.60830317172022,[6700|0|0|0]
15300,0.7613075375556946,0.7116989493370056,0.09941521286964417,-0.5375467538833618,0.26010972261428833,3.976851463317871,3.357421875,0,A/E1,6.1,270,0,4.613925233937854,[6700|0|0|0]
15400,0.7621498107910156,0.7063518762588501,0.10010828822851181,-1.044932246208191,0.2816135585308075,5.066595554351807,3.39453125,0,A/E1,6.1,270,0,4.619382428103279,[6700|0|0|0]
15500,0.7630389928817749,0.7017090320587158,0.09844647347927094,-2.2323639392852783,0.014426814392209053,6.237017631530762,3.37890625,0,A/E1,6.1,270,0,4.624393243936858,[6700|0|0|0]
15600,0.7629727125167847,0.7000472545623779,0.09608219563961029,-3.23254656791687,1.2154420614242554,6.743993759155273,3.36328125,0,A/E1,6.1,270,0,4.6272838679589725,[6700|0|0|0]
15700,0.7616202235221863,0.7034323811531067,0.09293431788682938,-2.111334800720215,0.9898492097854614,6.287983417510986,3.341796875,0,A/E1,6.1,270,0,4.632100240334757,[6700|0|0|0]
15800,0.7577373385429382,0.7104557156562805,0.09083488583564758,-0.3482741415500641,1.0036159753799438,5.69007682800293,3.330078125,0,F1,6.1,270,0,4.640395518403819,[6700|0|100|0]
15900,0.7528743147850037,0.7195225954055786,0.09098845720291138,0.5297873020172119,-0.5004813075065613,4.013085842132568,3.314453125,0,F1,6.1,270,0,4.650685362553432,[6700|0|200|0]
16000,0.7496779561042786,0.7270005941390991,0.0924251601099968,1.5186957120895386,-0.8409036993980408,2.278108835220337,3.298828125,0,F1,6.1,270,0,4.6589437697314295,[6700|0|300|0]
16100,0.7470112442970276,0.7322266697883606,0.09509287029504776,2.626960515975952,-0.6372129917144775,0.6807765960693359,3.3359375,0,F1,6.1,270,0,4.665388914895517,[6700|0|400|0]
16200,0.7463853359222412,0.7324928045272827,0.09781712293624878,1.704397439956665,-0.9468589425086975,0.04446741193532944,3.330078125,0,F1,6.1,270,0,4.668196786232665,[6700|0|500|0]
16300,0.7473286986351013,0.7293984889984131,0.10060308873653412,0.9841662645339966,-1.3194268941879272,-0.11268090456724167,3.326171875,0,F1,6.1,270,0,4.67246601651933,[6700|0|600|0]
16400,0.74977707862854,0.7234426736831665,0.10361853241920471,0.5843676924705505,-0.6600092649459839,0.04059663042426109,3.36328125,0,F1,6.1,270,0,4.679576515887515,[6700|0|700|0]
16500,0.7536624073982239,0.7177769541740417,0.10627259314060211,-0.6836122870445251,-0.12042021751403809,-0.10233201831579208,3.3203125,0,F1,6.1,270,0,4.686941310217126,[6700|0|800|0]
16600,0.7576439380645752,0.7132461667060852,0.10794135183095932,-0.6688370704650879,0.026255296543240547,-0.7184847593307495,3.36328125,0,F1,6.1,270,0,4.693199534972879,[6700|0|900|0]
16700,0.760551393032074,0.7111544013023376,0.10829506814479828,-0.6742951273918152,0.4972493648529053,-1.2456586360931396,3.357421875,0,F1,6.1,270,0,4.696798686556659,[6700|0|1000|0]
16800,0.7620837688446045,0.7105371356010437,0.10703792423009872,-0.1834992915391922,0.19716835021972656,-1.5652841329574585,3.341796875,0,F1,6.1,270,0,4.698874644985696,[6700|0|1100|0]
16900,0.7626838088035583,0.7100005149841309,0.10793867707252502,-0.28010860085487366,-0.36176127195358276,-1.6653363704681396,3.341796875,0,F1,6.1,270,0,4.7000826869228725,[6700|0|1200|0]
17000,0.762789249420166,0.7117055654525757,0.11092603206634521,-0.18242086470127106,0.25237151980400085,-1.4648025035858154,3.36328125,0,F1,6.1,270,0,4.703523995494139,[6700|0|1300|0]
17100,0.7606568932533264,0.7131567001342773,0.11466052383184433,-0.651968777179718,-0.051312271505594254,-2.394740581512451,3.3515625,0,F1,6.1,270,0,4.708062625621532,[6700|0|1400|0]
17200,0.7570488452911377,0.7137645483016968,0.11622828990221024,0.18383289873600006,0.08909433335065842,-3.588162899017334,3.3515625,0,F1,6.1,270,0,4.71204325119341,[6700|0|1500|0]
17300,0.7522478699684143,0.7136239409446716,0.11570476740598679,0.9019901156425476,-0.05660424754023552,-3.8734095096588135,3.341796875,0,F1,6.1,270,0,4.716874732361985,[6700|0|1600|0]
17400,0.747323215007782,0.7110668420791626,0.11669279634952545,1.0809904336929321,-0.3181798458099365,-2.903729200363159,3.341796875,0,F1,6.1,270,0,4.722510970671579,[6700|0|1700|0]
17500,0.7423136830329895,0.704979658126831,0.11728357523679733,0.31290361285209656,0.10913970321416855,-1.34373140335083,3.341796875,0,F1,6.1,270,0,4.730416553431227,[6700|0|1800|0]
17600,0.7357686758041382,0.6968830823898315,0.12001223117113113,0.5733026266098022,-0.2016233652830124,0.3742106258869171,3.330078125,0,F1,6.1,270,0,4.741179323590376,[6700|0|1900|0]
17700,0.7280956506729126,0.687923014163971,0.11895500123500824,0.11125413328409195,0.27739545702934265,1.5989762544631958,3.94921875,0,F1,6.1,270,0,4.7530231351565195,[6700|0|2000|0]
17800,0.7182985544204712,0.6785253882408142,0.07646917551755905,-3.432008981704712,0.6460115313529968,3.9927632808685303,3.958984375,0,F1,6.1,270,0,4.797625196262086,[6700|0|2100|0]
17900,0.7068566083908081,0.6707582473754883,-0.034091804176568985,-11.465970993041992,1.3875312805175781,7.607885837554932,3.958984375,0,F1,6.1,270,0,4.90904771120899,[6700|0|2200|0]
18000,0.7003500461578369,0.658298909664154,-0.03892409801483154,-3.908433437347412,0.8966110348701477,7.629566669464111,3.96484375,0,F1,6.1,270,0,4.923911139885978,[6700|0|2300|0]
18100,0.6981853246688843,0.6575093865394592,-0.035893406718969345,-3.959787130355835,0.8657885193824768,7.536846160888672,3.96484375,0,F1,6.1,270,0,4.92771829835654,[6700|0|2400|0]
18200,0.6975433230400085,0.6585027575492859,-0.034343067556619644,-3.9511301517486572,0.8019691705703735,7.448955059051514,3.96484375,0,F1,6.1,270,0,4.929668299272683,[6700|0|2500|0]
18300,0.6976315379142761,0.6585442423820496,-0.03387460485100746,-3.888674020767212,0.7186106443405151,7.394949913024902,3.96875,0,F1,6.1,270,0,4.9301467970907975,[6700|0|2600|0]
18400,0.6980424523353577,0.6586738228797913,-0.03365909680724144,-3.82135272026062,0.6435960531234741,7.740062236785889,3.96875,0,F1,6.1,270,0,4.930628549603791,[6700|0|2700|0]
18500,0.6988149285316467,0.6612816452980042,-0.03146449103951454,-3.717155694961548,0.454330712556839,8.138114929199219,3.96875,0,F1,6.1,270,0,4.934123367440891,[6700|0|2800|0]
18600,0.6942648887634277,0.6875323057174683,-0.022916747257113457,-9.447884559631348,4.2919230461120605,8.092893600463867,3.974609375,0,F1,6.1,270,0,4.96210307362448,[6700|0|2900|0]
18700,0.6873385310173035,0.7384225130081177,0.04814101755619049,-1.7130730152130127,14.793256759643555,-1.3899571895599365,3.974609375,0,F1,6.1,270,0,5.049778575162683,[6700|0|3000|0]
18800,0.685111403465271,0.7927004098892212,0.07256922125816345,-3.75846004486084,12.9170560836792,8.309365272521973,3.974609375,0,F1,6.1,270,0,5.109341880335195,[6700|0|3100|0]
18900,0.6659603118896484,0.825891375541687,0.06275013089179993,-1.6227107048034668,14.09972858428955,4.952931880950928,3.98046875,0,F1,6.1,270,0,5.148899674069222,[6700|0|3200|0]
19000,0.6446899175643921,0.8521491289138794,0.0669526681303978,-3.7989609241485596,6.566464900970459,0.8243354558944702,3.98046875,0,F1,6.1,270,0,5.182951995666267,[6700|0|3300|0]
19100,0.6235647201538086,0.8697890043258667,0.08403509110212326,-6.3801703453063965,4.956088542938232,1.2778573036193848,3.98046875,0,F1,6.1,270,0,5.215344098789891,[6700|0|3400|0]
19200,0.6052749752998352,0.8934241533279419,0.09989383071660995,-4.44393253326416,2.403317928314209,-0.25685662031173706,3.98046875,0,F1,6.1,270,0,5.249176548558328,[6700|0|3500|0]
19300,0.5876631140708923,0.9196280241012573,0.11893295496702194,-4.386334419250488,1.1006057262420654,4.031649589538574,3.98046875,0,F1,6.1,270,0,5.286045353145333,[6700|0|3600|0]
19400,0.7706549167633057,0.7703536748886108,-0.030473047867417336,-0.24577626585960388,-1.1915203332901,-0.007796644698828459,3.984375,0,F1,6.1,270,0,5.565492995591002,[6700|0|3700|0]
19500,0.7583584785461426,0.7551764249801636,-0.03644708916544914,0.16586017608642578,-1.1061770915985107,-3.6233694553375244,3.984375,0,F1,6.1,270,0,5.585919460704735,[6700|0|3800|0]
19600,0.7659564018249512,0.7673308849334717,-0.025792576372623444,-0.44934478402137756,-0.946773886680603,-3.4829823970794678,3.984375,0,F1,6.1,270,0,5.603779415289216,[6700|0|3900|0]
19700,0.7661232352256775,0.7685163617134094,-0.024497391656041145,-0.6096031069755554,-0.7564316987991333,-3.2287769317626953,3.984375,0,F1,6.1,270,0,5.6055431306941035,[6700|0|4000|0]
19800,0.7655600905418396,0.7686287760734558,-0.02406572736799717,-0.7383583188056946,-0.5833458304405212,-3.0939455032348633,3.984375,0,F1,6.1,270,0,5.6062615337709705,[6700|0|4100|0]
19900,0.7652394771575928,0.7692946195602417,-0.02388816513121128,-0.8352717161178589,-0.4484347105026245,-3.0131967067718506,3.984375,0,F1,6.1,270,0,5.6070215790584275,[6700|0|4200|0]
20000,0.7647016048431396,0.7696218490600586,-0.024019908159971237,-0.8739513754844666,-0.3464627265930176,-2.953887701034546,4.07421875,0,F1,6.1,270,0,5.6076648068546495,[6700|0|4300|0]
20100,0.7644572257995605,0.7696119546890259,-0.02355714701116085,-0.8661884665489197,-0.28405728936195374,-2.9161906242370605,4.07421875,0,F1,6.1,270,0,5.608188225326207,[6700|0|4400|0]
20200,0.7644332051277161,0.7699682116508484,-0.02368217147886753,-0.8395071625709534,-0.2420559674501419,-2.879664421081543,4.07421875,0,F1,6.1,270,0,5.608566546794073,[6700|0|4500|0]
20300,0.7641730904579163,0.7700120210647583,-0.023943684995174408,-0.7848833203315735,-0.2142425924539566,-2.8642845153808594,4.08203125,0,F1,6.1,270,0,5.608937987536861,[6700|0|4600|0]
20400,0.7639305591583252,0.7698131203651428,-0.02398461475968361,-0.7183563709259033,-0.2001885622739792,-2.832157850265503,4.08203125,0,F1,6.1,270,0,5.6092543072567835,[6700|0|4700|0]
20500,0.763674259185791,0.7703533172607422,-0.023823825642466545,-0.6574649810791016,-0.2054719626903534,-2.8346810340881348,4.08203125,0,F1,6.1,270,0,5.609873464346827,[6700|0|4800|0]
20600,0.7636182308197021,0.769763171672821,-0.023653797805309296,-0.5636247992515564,-0.2118513137102127,-2.8314898014068604,4.08203125,0,F1,6.1,270,0,5.610490165618236,[6700|0|4900|0]
20700,0.7638925313949585,0.7701584696769714,-0.0237460657954216,-0.5096315145492554,-0.22888806462287903,-2.804464817047119,4.0859375,0,F1,6.1,270,0,5.6109800785693515,[6700|0|5000|0]
20800,0.7638324499130249,0.769944429397583,-0.024058764800429344,-0.44232720136642456,-0.24081164598464966,-2.7899158000946045,4.0859375,0,F1,6.1,270,0,5.611363749904488,[6700|0|5100|0]
20900,0.7639756202697754,0.7699288129806519,-0.024143358692526817,-0.3879939019680023,-0.2628221809864044,-2.7698404788970947,4.0859375,0,F1,6.1,270,0,5.611530776100367,[6700|0|5200|0]
21000,0.7642974853515625,0.7698174118995667,-0.02383357286453247,-0.3407599925994873,-0.28185078501701355,-2.775683879852295,4.0859375,0,F1,6.1,270,0,5.611991183084423,[6700|0|5300|0]
21100,0.7640294432640076,0.769877552986145,-0.023810328915715218,-0.2989291548728943,-0.2853729724884033,-2.739434003829956,4.0859375,0,F1,6.1,270,0,5.6122668709371695,[6700|0|5400|0]
21200,0.7637473344802856,0.7698898315429688,-0.02382245473563671,-0.2596608102321625,-0.29231640696525574,-2.737084150314331,4.0859375,0,F1,6.1,270,0,5.612549507035925,[6700|0|5500|0]
21300,0.7638161182403564,0.7696710824966431,-0.023673292249441147,-0.21947115659713745,-0.3094412684440613,-2.7640151977539062,4.08984375,0,F1,6.1,270,0,5.612823061049249,[6700|0|5600|0]
21400,0.7639819979667664,0.7700732946395874,-0.02374793216586113,-0.19566309452056885,-0.31500548124313354,-2.7360947132110596,4.08984375,0,F1,6.1,270,0,5.613264492593986,[6700|0|5700|0]
21500,0.7641003727912903,0.7699090838432312,-0.024032358080148697,-0.16059784591197968,-0.32035109400749207,-2.7128193378448486,4.08984375,0,F1,6.1,270,0,5.61361359986323,[6700|0|5800|0]
21600,0.7637526392936707,0.7696302533149719,-0.024037973955273628,-0.14569105207920074,-0.3204425573348999,-2.6764984130859375,4.08984375,0,F1,6.1,270,0,5.61405935381656,[6700|0|5900|0]
21700,0.7642743587493896,0.7696695923805237,-0.023884283378720284,-0.11467240005731583,-0.31496477127075195,-2.631174087524414,4.08984375,0,F1,6.1,270,0,5.614604660653007,[6700|0|6000|0]
21800,0.7639409899711609,0.769302487373352,-0.023756062611937523,-0.026961591094732285,-0.5141618847846985,-2.581040859222412,4.09765625,0,F1,6.1,270,0,5.615116853383942,[6700|0|6100|0]
21900,0.7641750574111938,0.7696074843406677,-0.02403361164033413,-0.02646164409816265,-0.5245965719223022,-2.575942039489746,4.09765625,0,F1,6.1,270,0,5.615591030755523,[6700|0|6200|0]
22000,0.7641770839691162,0.7694888114929199,-0.023661542683839798,-0.02419646456837654,-0.5154634118080139,-2.563581705093384,4.09765625,0,F1,6.1,270,0,5.615981572251546,[6700|0|6300|0]
22100,0.7641838788986206,0.7694814205169678,-0.023873845115303993,-0.015839843079447746,-0.5159584879875183,-2.554516553878784,4.09765625,0,F1,6.1,270,0,5.616194111941953,[6700|0|6400|0]
22200,0.7642998099327087,0.7692182660102844,-0.023931628093123436,-0.012534001842141151,-0.5223291516304016,-2.5514235496520996,4.09765625,0,F1,6.1,270,0,5.616487419240836,[6700|0|6500|0]
22300,0.7640846371650696,0.7698134183883667,-0.02377316728234291,-0.027817262336611748,-0.5162892937660217,-2.5551161766052246,4.09765625,0,F1,6.1,270,0,5.617139811378759,[6700|0|6600|0]
22400,0.7644183039665222,0.7696278095245361,-0.023790715262293816,-0.01140101533383131,-0.5184577703475952,-2.5241682529449463,4.09765625,0,F1,6.1,270,0,5.617522031362962,[6700|0|6700|0]
22500,0.7641209363937378,0.7693116068840027,-0.023703642189502716,0.005555603187531233,-0.5015051364898682,-2.533806085586548,4.09765625,0,F1,6.1,270,0,5.61796474267209,[6700|0|6800|0]
22600,0.7642756104469299,0.7696908712387085,-0.023799555376172066,-0.011984320357441902,-0.5023818016052246,-2.5331523418426514,4.1015625,0,F1,6.1,270,0,5.618385414578518,[6700|0|6900|0]
22700,0.7641521692276001,0.7692276835441589,-0.023793376982212067,-0.007502363063395023,-0.49501052498817444,-2.5596776008605957,4.1015625,0,F1,6.1,270,0,5.618864808724878,[6700|0|7000|0]
22800,0.7642313241958618,0.769623339176178,-0.023755189031362534,-0.01680835522711277,-0.4905567467212677,-2.5639395713806152,4.1015625,0,F1,6.1,270,0,5.6192701076364715,[6700|0|7100|0]
22900,0.7644039988517761,0.7696027755737305,-0.02400345355272293,-0.016135338693857193,-0.5023733377456665,-2.567011594772339,4.1015625,0,F1,6.1,270,0,5.6195732159852625,[6700|0|7200|0]
23000,0.7640970945358276,0.7692270874977112,-0.023863546550273895,-0.005262678023427725,-0.4930073916912079,-2.559931755065918,4.1015625,0,F1,6.1,270,0,5.6200780979110085,[6700|0|7300|0]
23100,0.7640535235404968,0.7698695659637451,-0.023925593122839928,-0.036601316183805466,-0.49302971363067627,-2.5650670528411865,4.1015625,0,F1,6.1,270,0,5.62072503437475,[6700|0|7400|0]
23200,0.7637940645217896,0.7696890234947205,-0.02379758283495903,-0.011385553516447544,-0.462192565202713,-2.5632026195526123,4.1015625,0,F1,6.1,270,0,5.6210660639912255,[6700|0|7500|0]
23300,0.7637549042701721,0.7696857452392578,-0.023880338296294212,0.004301564767956734,-0.5194293856620789,-2.574138641357422,4.10546875,0,F1,6.1,270,0,5.621157675882628,[6700|0|7600|0]
23400,0.7639333605766296,0.7694879174232483,-0.023793330416083336,0.007039195857942104,-0.5190432071685791,-2.570552349090576,4.10546875,0,F1,6.1,270,0,5.621437948730618,[6700|0|7700|0]
23500,0.7639032006263733,0.7693828344345093,-0.024105122312903404,0.00563495047390461,-0.5205530524253845,-2.554962158203125,4.10546875,0,F1,6.1,270,0,5.621768351884423,[6700|0|7800|0]
23600,0.7641200423240662,0.7696908712387085,-0.024041464552283287,0.0030867340974509716,-0.5258728861808777,-2.5541532039642334,4.10546875,0,F1,6.1,270,0,5.622150398092475,[6700|0|7900|0]
23700,0.7641197443008423,0.7697681188583374,-0.024042770266532898,0.0032568443566560745,-0.5204527974128723,-2.54714035987854,4.10546875,0,F1,6.1,270,0,5.622227657321347,[6700|0|8000|0]
23800,0.7640796303749084,0.7695795297622681,-0.024073822423815727,0.018591245636343956,-0.5081713199615479,-2.5323214530944824,4.10546875,0,F1,6.1,270,0,5.622422949949682,[6700|0|8100|0]
23900,0.764173150062561,0.769715428352356,-0.02408611960709095,0.010500178672373295,-0.5139250755310059,-2.547273874282837,4.10546875,0,F1,6.1,270,0,5.622588375399607,[6700|0|8200|0]
24000,0.7642293572425842,0.7694116830825806,-0.023731816560029984,0.013484688475728035,-0.5145606398582458,-2.5542333126068115,4.10546875,0,F1,6.1,270,0,5.623058429742374,[6700|0|8300|0]
24100,0.7640792727470398,0.7692094445228577,-0.023871537297964096,0.0148348119109869,-0.5084863901138306,-2.5609490871429443,4.11328125,0,F1,6.1,270,0,5.623346436123294,[6700|0|8400|0]
24200,0.76407790184021,0.7694939374923706,-0.023822426795959473,0.007426762953400612,-0.5053808689117432,-2.5661323070526123,4.11328125,0,F1,6.1,270,0,5.623635140072859,[6700|0|8500|0]
24300,0.7640637159347534,0.7693924903869629,-0.023675469681620598,0.01127025205641985,-0.506477952003479,-2.575411558151245,4.11328125,0,F1,6.1,270,0,5.623814274515566,[6700|0|8600|0]
24400,0.7641130089759827,0.7693848609924316,-0.023686151951551437,0.02164146676659584,-0.5087347626686096,-2.572801351547241,4.11328125,0,F1,6.1,270,0,5.623865285518942,[6700|0|8700|0]
24500,0.7640809416770935,0.7695358991622925,-0.024181291460990906,0.028840385377407074,-0.5061596632003784,-2.56640362739563,4.11328125,0,F1,6.1,270,0,5.624383941449421,[6700|0|8800|0]
24600,0.7641056776046753,0.7691328525543213,-0.024018943309783936,0.044081706553697586,-0.5030600428581238,-2.5628890991210938,4.11328125,0,F1,6.1,270,0,5.624819160195009,[6700|0|8900|0]
24700,0.7642927169799805,0.7694507241249084,-0.0235808826982975,0.03538009524345398,-0.5172898173332214,-2.554271936416626,4.11328125,0,F1,6.1,270,0,5.625391805951684,[6700|0|9000|0]
24800,0.7636013031005859,0.7695471048355103,-0.023977622389793396,0.029726453125476837,-0.5050299167633057,-2.5678799152374268,4.11328125,0,F1,6.1,270,0,5.626194765961151,[6700|0|9100|0]
24900,0.7642554640769958,0.7693119049072266,-0.023901278153061867,0.029033171012997627,-0.5263424515724182,-2.5718209743499756,4.11328125,0,F1,6.1,270,0,5.626894104242532,[6700|0|9200|0]
25000,0.7641386389732361,0.769473671913147,-0.02367558889091015,0.017501968890428543,-0.5267850756645203,-2.5829966068267822,4.11328125,0,F1,6.1,270,0,5.627195355486718,[6700|0|9300|0]
25100,0.764106035232544,0.769608736038208,-0.023723801597952843,0.011362007819116116,-0.5160973072052002,-2.579721450805664,4.1171875,0,F1,6.1,270,0,5.627342426173485,[6700|0|9400|0]
25200,0.7643246650695801,0.7696775197982788,-0.023916494101285934,0.01419147476553917,-0.5214158296585083,-2.5945563316345215,4.1171875,0,F1,6.1,270,0,5.627641859992772,[6700|0|9500|0]
25300,0.7640331387519836,0.7697253823280334,-0.02381330169737339,0.017532924190163612,-0.5094018578529358,-2.582054615020752,4.1171875,0,F1,6.1,270,0,5.627954793033263,[6700|0|9600|0]
25400,0.7642147541046143,0.7692580819129944,-0.024540403857827187,0.03261987864971161,-0.5153051018714905,-2.5854949951171875,4.1171875,0,F1,6.1,270,0,5.628837986877186,[6700|0|9700|0]
25500,0.7640745639801025,0.7694178223609924,-0.024227911606431007,0.029836514964699745,-0.5051645040512085,-2.590583086013794,4.1171875,0,F1,6.1,270,0,5.629215904446134,[6700|0|9800|0]
25600,0.7642176151275635,0.769516110420227,-0.023568755015730858,0.02833646908402443,-0.5120161175727844,-2.614885091781616,4.1171875,0,F1,6.1,270,0,5.62989752867138,[6700|0|9900|0]
25700,0.7640340924263,0.7695363163948059,-0.023787789046764374,0.02670036442577839,-0.509106457233429,-2.6043004989624023,4.1171875,0,F1,6.1,270,0,5.630183998163715,[6700|0|10000|0]
25800,0.7642797231674194,0.7691091299057007,-0.023994846269488335,0.042481742799282074,-0.5137914419174194,-2.612548351287842,4.1171875,0,F1,6.1,270,0,5.63071850302893,[6700|0|10100|0]
25900,0.7639157772064209,0.7696448564529419,-0.023694593459367752,0.0285481009632349,-0.5015750527381897,-2.580907106399536,4.12109375,0,F1,6.1,270,0,5.631432373707647,[6700|0|10200|0]
26000,0.7641299366950989,0.7693039178848267,-0.023888275027275085,0.03414865583181381,-0.5056573748588562,-2.5622427463531494,4.1171875,0,F1,6.1,270,0,5.631879157708666,[6700|0|10300|0]
26100,0.7640057802200317,0.7692533135414124,-0.023662492632865906,0.026484912261366844,-0.4980316460132599,-2.5768704414367676,4.12109375,0,F1,6.1,270,0,5.632141747349548,[6700|0|10400|0]
26200,0.7642822861671448,0.7692177891731262,-0.02420778200030327,0.02083607204258442,-0.5110687017440796,-2.5720741748809814,4.12109375,0,F1,6.1,270,0,5.632754167151458,[6700|0|10500|0]
26300,0.7642629742622375,0.7693468332290649,-0.023723546415567398,0.015420133247971535,-0.5122938752174377,-2.5943655967712402,4.12109375,0,F1,6.1,270,0,5.633255674299532,[6700|0|10600|0]
26400,0.7637766003608704,0.7693271040916443,-0.023849593475461006,0.011766338720917702,-0.49952635169029236,-2.598714828491211,4.12109375,0,F1,6.1,270,0,5.633758502970256,[6700|0|10700|0]
26500,0.7641024589538574,0.7697350978851318,-0.023723946884274483,0.001191008253954351,-0.5045500993728638,-2.5875351428985596,4.12109375,0,F1,6.1,270,0,5.63429555960044,[6700|0|10800|0]
26600,0.764072597026825,0.7696872353553772,-0.023861540481448174,0.005112149752676487,-0.4982292354106903,-2.599135398864746,4.12109375,0,F1,6.1,270,0,5.634444269231681,[6700|0|10900|0]
26700,0.764490008354187,0.7695854306221008,-0.023876246064901352,0.011193612590432167,-0.5150275230407715,-2.584157705307007,4.12109375,0,F1,6.1,270,0,5.634874167677959,[6700|0|11000|0]
26800,0.7643529772758484,0.769578754901886,-0.02357417717576027,0.017258785665035248,-0.5070856213569641,-2.559807062149048,4.12109375,0,F1,6.1,270,0,5.63520593219604,[6700|0|11100|0]
26900,0.7642503976821899,0.7696065306663513,-0.023622535169124603,0.014414845034480095,-0.5093176960945129,-2.570692539215088,4.12109375,0,F1,6.1,270,0,5.635322690757392,[6700|0|11200|0]
27000,0.7643211483955383,0.7691776156425476,-0.02407648414373398,0.017425348982214928,-0.5129966139793396,-2.5564889907836914,4.12109375,0,F1,6.1,270,0,5.635951215564089,[6700|0|11300|0]
27100,0.7639337778091431,0.7694683074951172,-0.023920219391584396,0.008067223243415356,-0.5064374208450317,-2.55165696144104,4.12109375,0,F1,6.1,270,0,5.6364601128003935,[6700|0|11400|0]
27200,0.7640419602394104,0.7693883180618286,-0.02407767064869404,0.01002933643758297,-0.5056641101837158,-2.550370693206787,4.12890625,0,F1,6.1,270,0,5.636667218198734,[6700|0|11500|0]
27300,0.7642734050750732,0.7695841193199158,-0.023855332285165787,0.008581613190472126,-0.511626124382019,-2.543515920639038,4.12890625,0,F1,6.1,270,0,5.637043169249431,[6700|0|11600|0]
27400,0.7643523216247559,0.7695994973182678,-0.023847056552767754,0.005904547870159149,-0.5204337239265442,-2.540289878845215,4.12890625,0,F1,6.1,270,0,5.637123994940853,[6700|0|11700|0]
27500,0.7640753984451294,0.7697325348854065,-0.023898877203464508,0.004526119213551283,-0.5159018635749817,-2.553647994995117,4.12890625,0,F1,6.1,270,0,5.637435556847259,[6700|0|11800|0]
27600,0.7538415193557739,0.7557480931282043,-0.03380145505070686,0.2899089455604553,-0.30617377161979675,-2.667757034301758,4.12890625,0,F1,6.1,270,0,5.6573944631423645,[6700|0|11900|0]
27700,0.753943681716919,0.755930483341217,-0.03334353119134903,0.2904967963695526,-0.31135210394859314,-2.685184955596924,4.12890625,0,F1,6.1,270,0,5.657897849275275,[6700|0|12000|0]
27800,0.7536638379096985,0.7557549476623535,-0.03362131491303444,0.28495973348617554,-0.30166035890579224,-2.69279146194458,4.12890625,0,F1,6.1,270,0,5.658329461516792,[6700|0|12100|0]
27900,0.7538341879844666,0.7560307383537292,-0.03348351642489433,0.28051429986953735,-0.30301424860954285,-2.6699025630950928,4.12890625,0,F1,6.1,270,0,5.658681694503261,[6700|0|12200|0]
28000,0.7537024617195129,0.7554694414138794,-0.033578988164663315,0.2969791293144226,-0.29202908277511597,-2.6739766597747803,4.12890625,0,F1,6.1,270,0,5.659266092412786,[6700|0|12300|0]
28100,0.7537916302680969,0.7560372352600098,-0.03368410840630531,0.28071990609169006,-0.29123061895370483,-2.6819348335266113,4.12890625,0,F1,6.1,270,0,5.659850379283221,[6700|0|12400|0]
28200,0.7535337209701538,0.7557751536369324,-0.03399306908249855,0.2854151129722595,-0.28326109051704407,-2.674276828765869,4.12890625,0,F1,6.1,270,0,5.660330650750783,[6700|0|12500|0]
28300,0.7535443902015686,0.7558643817901611,-0.03349301218986511,0.27718228101730347,-0.2745327651500702,-2.667410373687744,4.12890625,0,F1,6.1,270,0,5.660838718060987,[6700|0|12600|0]
28400,0.7533012628555298,0.7560920715332031,-0.03374065086245537,0.26650750637054443,-0.2670033276081085,-2.6835243701934814,4.12890625,0,F1,6.1,270,0,5.661253782438693,[6700|0|12700|0]
28500,0.753780722618103,0.7558556795120239,-0.03354956954717636,0.26097869873046875,-0.2838291823863983,-2.675729990005493,4.12890625,0,F1,6.1,270,0,5.661821475067368,[6700|0|12800|0]
28600,0.7640054821968079,0.7693581581115723,-0.02351292595267296,-0.010230674408376217,-0.4891657829284668,-2.5944132804870605,4.1328125,0,F1,6.1,270,0,5.681508954627146,[6700|0|12900|0]
28700,0.75356125831604,0.756045937538147,-0.033632341772317886,0.2582474648952484,-0.2747379243373871,-2.6971681118011475,4.1328125,0,F1,6.1,270,0,5.701224420779333,[6700|0|13000|0]
28800,0.7536569237709045,0.7560374736785889,-0.033711787313222885,0.26895543932914734,-0.27158358693122864,-2.6863064765930176,4.1328125,0,F1,6.1,270,0,5.701349060701279,[6700|0|13100|0]
28900,0.7537678480148315,0.7556918859481812,-0.03372275084257126,0.275314599275589,-0.2841063439846039,-2.6921467781066895,4.1328125,0,F1,6.1,270,0,5.701712179505908,[6700|0|13200|0]
29000,0.7536781430244446,0.7555374503135681,-0.03350915387272835,0.27740055322647095,-0.27240660786628723,-2.7024545669555664,4.1328125,0,F1,6.1,270,0,5.701990605467457,[6700|0|13300|0]
29100,0.7537563443183899,0.7559362649917603,-0.03339114785194397,0.2628711462020874,-0.28997236490249634,-2.7081494331359863,4.1328125,0,F1,6.1,270,0,5.702413800470803,[6700|0|13400|0]
29200,0.7536318898200989,0.755806565284729,-0.03390428423881531,0.26009589433670044,-0.29130077362060547,-2.711941957473755,4.1328125,0,F1,6.1,270,0,5.702957509848762,[6700|0|13500|0]
29300,0.7534160017967224,0.7557095885276794,-0.03334297239780426,0.266926646232605,-0.2835181951522827,-2.719752073287964,4.1328125,0,F1,6.1,270,0,5.703566675764506,[6700|0|13600|0]
29400,0.7537056803703308,0.7557788491249084,-0.033451225608587265,0.2709595859050751,-0.29255223274230957,-2.710873603820801,4.1328125,0,F1,6.1,270,0,5.703883581845201,[6700|0|13700|0]
29501,0.7538732886314392,0.7561365962028503,-0.033472031354904175,0.2646132707595825,-0.3000943064689636,-2.6935489177703857,4.1328125,0,F1,6.1,270,0,5.704279193245501,[6700|0|13800|0]
29601,0.75396329164505,0.7557440400123596,-0.033528994768857956,0.27729037404060364,-0.3045952320098877,-2.704756021499634,4.1328125,0,F1,6.1,270,0,5.704685943458385,[6700|0|13900|0]
29701,0.7535958290100098,0.7561101317405701,-0.03361191600561142,0.2837032079696655,-0.29216867685317993,-2.694553852081299,4.1328125,0,F1,6.1,270,0,5.705211231829777,[6700|0|14000|0]
29801,0.7535716891288757,0.7560033798217773,-0.033453647047281265,0.2820621430873871,-0.29844576120376587,-2.6971676349639893,4.1328125,0,F1,6.1,270,0,5.705403657839448,[6700|0|14100|0]
29901,0.753425657749176,0.7559053897857666,-0.03374341502785683,0.282188355922699,-0.2940096855163574,-2.689089059829712,4.1328125,0,F1,6.1,270,0,5.705742616086997,[6700|0|14200|0]
30001,0.7537286877632141,0.7559854984283447,-0.03395574167370796,0.28300347924232483,-0.30256184935569763,-2.6865131855010986,4.1328125,0,F1,6.1,270,0,5.706121201861376,[6700|0|14300|0]
30101,0.7538770437240601,0.7558007836341858,-0.03388169780373573,0.2869475781917572,-0.3066730797290802,-2.6736373901367188,4.1328125,0,F1,6.1,270,0,5.706369418583174,[6700|0|14400|0]
30201,0.7536482214927673,0.7555966377258301,-0.033783044666051865,0.28761860728263855,-0.2980371117591858,-2.6628494262695312,4.1328125,0,F1,6.1,270,0,5.706691548381558,[6700|0|14500|0]
30301,0.7536863088607788,0.7558900713920593,-0.033685218542814255,0.27890193462371826,-0.29544657468795776,-2.665922164916992,4.13671875,0,F1,6.1,270,0,5.707003195480801,[6700|0|14600|0]
30401,0.753726601600647,0.7559158205986023,-0.03348774462938309,0.2777833938598633,-0.29206350445747375,-2.670910596847534,4.13671875,0,F1,6.1,270,0,5.707206376368212,[6700|0|14700|0]
30501,0.7536925673484802,0.7557736039161682,-0.033191923052072525,0.2896045744419098,-0.28543782234191895,-2.686680793762207,4.13671875,0,F1,6.1,270,0,5.707536367763079,[6700|0|14800|0]
30602,0.7644151449203491,0.7690672278404236,-0.024087700992822647,0.024644579738378525,-0.5011463761329651,-2.5806357860565186,4.13671875,0,F1,6.1,270,0,5.726890462061919,[6700|0|14900|0]
30702,0.7541208863258362,0.7557862401008606,-0.03362637013196945,0.2830806374549866,-0.29807621240615845,-2.67270565032959,4.13671875,0,F1,6.1,270,0,5.746212537630948,[6700|0|15000|0]
30802,0.7536928653717041,0.7557173371315002,-0.03358074277639389,0.29438987374305725,-0.28620201349258423,-2.6649153232574463,4.13671875,0,F1,6.1,270,0,5.746648463555778,[6700|0|15100|0]
30900,0.7532414197921753,0.7559972405433655,-0.033595260232686996,0.28961849212646484,-0.2784248888492584,-2.643805742263794,4.13671875,0,F1,6.1,270,0,5.7471798389294895,[6700|0|15200|0]
31000,0.7538348436355591,0.7555840611457825,-0.03359551355242729,0.29480689764022827,-0.30337321758270264,-2.6460986137390137,4.13671875,0,F1,6.1,270,0,5.7479029358363105,[6700|0|15300|0]
31102,0.7536867260932922,0.7557006478309631,-0.03330793231725693,0.2918924391269684,-0.29177817702293396,-2.6672468185424805,4.13671875,0,F1,6.1,270,0,5.748246787880525,[6700|0|15400|0]
31202,0.7538131475448608,0.7558677792549133,-0.03391445800662041,0.2931564152240753,-0.2990805208683014,-2.659400701522827,4.13671875,0,F1,6.1,270,0,5.7488884955305855,[6700|0|15500|0]
31302,0.7537433505058289,0.7558257579803467,-0.03390529751777649,0.2932726740837097,-0.2999100387096405,-2.6475536823272705,4.13671875,0,F1,6.1,270,0,5.748970479240734,[6700|0|15600|0]
31402,0.7534093260765076,0.7557961344718933,-0.034061480313539505,0.29083314538002014,-0.30314111709594727,-2.652256965637207,4.13671875,0,F1,6.1,270,0,5.749340402120979,[6700|0|15700|0]
31502,0.75355464220047,0.7558932304382324,-0.03353957086801529,0.2877178490161896,-0.30651041865348816,-2.6400816440582275,4.13671875,0,F1,6.1,270,0,5.749890796408641,[6700|0|15800|0]
31600,0.7537311911582947,0.7559633255004883,-0.03377911075949669,0.28768661618232727,-0.3109169006347656,-2.6444292068481445,4.13671875,0,F1,6.1,270,0,5.75019651230923,[6700|0|15900|0]
31700,0.7534365057945251,0.7558937072753906,-0.03356045112013817,0.3035135269165039,-0.2954002618789673,-2.644284248352051,4.13671875,0,F1,6.1,270,0,5.750570006885857,[6700|0|16000|0]
31800,0.7537904977798462,0.7556840181350708,-0.0336497537791729,0.3072105646133423,-0.30212217569351196,-2.6435422897338867,4.13671875,0,F1,6.1,270,0,5.750991023306143,[6700|0|16100|0]
31900,0.7537946105003357,0.7560057640075684,-0.03329819440841675,0.30360618233680725,-0.30364570021629333,-2.654953718185425,4.13671875,0,F1,6.1,270,0,5.751467606260208,[6700|0|16200|0]
32000,0.753777265548706,0.755854070186615,-0.033322300761938095,0.2986965477466583,-0.31107524037361145,-2.66436767578125,4.13671875,0,F1,6.1,270,0,5.751622179799155,[6700|0|16300|0]
32100,0.7538002133369446,0.7554941773414612,-0.033758487552404404,0.3086387515068054,-0.3064092993736267,-2.6704604625701904,4.14453125,0,F1,6.1,270,0,5.752188137727941,[6700|0|16400|0]
32200,0.7537320256233215,0.755702555179596,-0.03383050858974457,0.30593055486679077,-0.3046504557132721,-2.656153678894043,4.14453125,0,F1,6.1,270,0,5.752418914497861,[6700|0|16500|0]
