time.ms,stateEstimate.x,stateEstimate.y,stateEstimate.z,stabilizer.roll,stabilizer.pitch,stabilizer.yaw,pm.vbat,drone_id,node_name,wind_speed,global_wind_direction,relative_wind_direction,travel_dist,waiting_time
0,0.7848576903343201,-0.8050581216812134,0.008825530298054218,0.3309570848941803,-0.16979949176311493,2.9003617763519287,4.12890625,2,G1,6.1,270,0,0.10729061837180735,[100|0|0|0]
100,0.7847838997840881,-0.8049322962760925,0.008890321478247643,0.3310384452342987,-0.17135965824127197,2.902811050415039,4.12890625,2,G1,6.1,270,0,0.10745022719019849,[200|0|0|0]
200,0.7846158742904663,-0.8048620820045471,0.008701352402567863,0.33150702714920044,-0.16311468183994293,2.9335832595825195,4.12890625,2,G1,6.1,270,0,0.10771266179538383,[300|0|0|0]
300,0.7845548987388611,-0.80512535572052,0.00882396288216114,0.3335772454738617,-0.15932415425777435,2.926480770111084,4.12890625,2,G1,6.1,270,0,0.10800941825634439,[400|0|0|0]
400,0.784599781036377,-0.8049166798591614,0.009222378954291344,0.32391056418418884,-0.16321423649787903,2.909456729888916,4.12109375,2,G1,6.1,270,0,0.10846140874548739,[500|0|0|0]
500,0.7845701575279236,-0.8048434853553772,0.008642873726785183,0.32929322123527527,-0.16661137342453003,2.914034605026245,4.12109375,2,G1,6.1,270,0,0.10904626881109648,[600|0|0|0]
600,0.7846143841743469,-0.8051787614822388,0.009066261351108551,0.33495858311653137,-0.16875925660133362,2.8950273990631104,4.12109375,2,G1,6.1,270,0,0.10958813886740827,[700|0|0|0]
700,0.7846412062644958,-0.8049036860466003,0.008437096141278744,0.3304804861545563,-0.16511677205562592,2.8964591026306152,4.12890625,2,G1,6.1,270,0,0.1102753322761891,[800|0|0|0]
800,0.784715473651886,-0.8050289154052734,0.008769804611802101,0.33610406517982483,-0.16632331907749176,2.904691696166992,4.12890625,2,G1,6.1,270,0,0.11063850298461893,[900|0|0|0]
900,0.7848918437957764,-0.8051334023475647,0.009119109250605106,0.3355349004268646,-0.1644112914800644,2.90244722366333,4.12109375,2,G1,6.1,270,0,0.11104351863796406,[1000|0|0|0]
1000,0.7849473357200623,-0.8054108023643494,0.00894238892942667,0.33754634857177734,-0.16330261528491974,2.8939075469970703,4.12109375,2,G1,6.1,270,0,0.1113770755220041,[1100|0|0|0]
1100,0.78489089012146,-0.8050888180732727,0.0088011110201478,0.33106130361557007,-0.16108113527297974,2.8816416263580322,4.12109375,2,G1,6.1,270,0,0.11173319268945313,[1200|0|0|0]
1200,0.7846491932868958,-0.8049697279930115,0.008481789380311966,0.3338072896003723,-0.15282973647117615,2.8775432109832764,4.12109375,2,G1,6.1,270,0,0.11215100379117546,[1300|0|0|0]
1300,0.7844759225845337,-0.8050227761268616,0.008650369942188263,0.3377982974052429,-0.13875959813594818,2.89284086227417,4.12109375,2,G1,6.1,270,0,0.11239850378439677,[1400|0|0|0]
1400,0.7847733497619629,-0.8050618171691895,0.008577894419431686,0.3427315652370453,-0.14778290688991547,2.9030849933624268,4.12890625,2,G1,6.1,270,0,0.1127071132953623,[1500|0|0|0]
1500,0.7847381234169006,-0.8050693869590759,0.008458826690912247,0.34986740350723267,-0.14804384112358093,2.915451765060425,4.12109375,2,G1,6.1,270,0,0.11283151313893193,[1600|0|0|0]
1600,0.7849088907241821,-0.8051788210868835,0.008856411091983318,0.3506626784801483,-0.15348096191883087,2.907036304473877,4.12109375,2,G1,6.1,270,0,0.11327784335025559,[1700|0|0|0]
1700,0.7849039435386658,-0.8051999807357788,0.00887136347591877,0.34824275970458984,-0.15460337698459625,2.883101224899292,4.12890625,2,G1,6.1,270,0,0.11330422097659416,[1800|0|0|0]
1800,0.78460693359375,-0.8050751686096191,0.008636977523565292,0.3416978418827057,-0.14849255979061127,2.883584976196289,4.12890625,2,G1,6.1,270,0,0.11370262999867575,[1900|0|0|0]
1900,0.7847752571105957,-0.8051358461380005,0.008925850503146648,0.34700363874435425,-0.15387456119060516,2.906534433364868,4.12109375,2,G1,6.1,270,0,0.11404242724278757,[2000|0|0|0]
2000,0.7851907014846802,-0.8050802946090698,0.009019618853926659,0.35259518027305603,-0.1655990332365036,2.8911798000335693,4.12109375,2,G1,6.1,270,0,0.1144719298666829,[2100|0|0|0]
2100,0.7849016189575195,-0.8052996397018433,0.00904014240950346,0.3558681309223175,-0.15044569969177246,2.888869524002075,4.12890625,2,G1,6.1,270,0,0.11483538852123235,[2200|0|0|0]
2200,0.7848886251449585,-0.8053127527236938,0.008872497826814651,0.3538382649421692,-0.14956796169281006,2.8770556449890137,4.12109375,2,G1,6.1,270,0,0.11500404644903839,[2300|0|0|0]
2300,0.7847341299057007,-0.8051765561103821,0.009008409455418587,0.34740740060806274,-0.14372840523719788,2.9085898399353027,4.12109375,2,G1,6.1,270,0,0.1152508059822295,[2400|0|0|0]
2400,0.7848977446556091,-0.8051484227180481,0.008851280435919762,0.34086093306541443,-0.1463463455438614,2.8797991275787354,4.12109375,2,G1,6.1,270,0,0.1154793903275388,[2500|0|0|0]
2500,0.7847161293029785,-0.8051859736442566,0.008887097239494324,0.34126046299934387,-0.1396346241235733,2.9001224040985107,4.12109375,2,G1,6.1,270,0,0.11566827402664637,[2600|0|0|0]
2600,0.784684956073761,-0.8051800727844238,0.008827566169202328,0.3432554304599762,-0.14426885545253754,2.9017527103424072,4.12109375,2,G1,6.1,270,0,0.11573573170743014,[2700|0|0|0]
2700,0.7848414778709412,-0.8052273392677307,0.00878668949007988,0.3441220819950104,-0.15184961259365082,2.9054067134857178,4.12109375,2,G1,6.1,270,0,0.115904266856087,[2800|0|0|0]
2800,0.7846446633338928,-0.8050451278686523,0.008543659001588821,0.3438209891319275,-0.14933159947395325,2.914550304412842,4.12109375,2,G1,6.1,270,0,0.11626620714713491,[2900|0|0|0]
2900,0.7844051122665405,-0.8050358891487122,0.008615120314061642,0.3490057587623596,-0.14847378432750702,2.909639835357666,4.12109375,2,G1,6.1,270,0,0.11651636067398612,[3000|0|0|0]
3000,0.784647524356842,-0.8049740791320801,0.008633306249976158,0.3537004292011261,-0.15678641200065613,2.90576434135437,4.12109375,2,G1,6.1,270,0,0.11676718895776905,[3100|0|0|0]
3100,0.784848690032959,-0.8051666021347046,0.008818579837679863,0.3605031371116638,-0.15825410187244415,2.8854331970214844,4.12109375,2,G1,6.1,270,0,0.11710164229993765,[3200|0|0|0]
3200,0.7846280336380005,-0.8049096465110779,0.008418203331530094,0.3559390902519226,-0.15554818511009216,2.8899343013763428,4.12109375,2,G1,6.1,270,0,0.11762606272652892,[3300|0|0|0]
3300,0.7847438454627991,-0.8051620125770569,0.008813982829451561,0.3630533516407013,-0.1630917489528656,2.8825929164886475,4.12109375,2,G1,6.1,270,0,0.11810953187859125,[3400|0|0|0]
3400,0.7847370505332947,-0.8051340579986572,0.008930131793022156,0.3677826523780823,-0.16344402730464935,2.904698610305786,4.12109375,2,G1,6.1,270,0,0.11822919060689385,[3500|0|0|0]
3500,0.78472501039505,-0.805081307888031,0.008813356049358845,0.3638508915901184,-0.164918914437294,2.920684576034546,4.12109375,2,G1,6.1,270,0,0.11835789225182564,[3600|0|0|0]
3600,0.7846742272377014,-0.8051871061325073,0.008670060895383358,0.3650030493736267,-0.1617213785648346,2.9116785526275635,4.12109375,2,G1,6.1,270,0,0.11854311022816008,[3700|0|0|0]
3700,0.7848144173622131,-0.8052982091903687,0.008905886672437191,0.3645757734775543,-0.16581879556179047,2.9180209636688232,4.12109375,2,G1,6.1,270,0,0.11883910171046962,[3800|0|0|0]
3800,0.7846838235855103,-0.8052124381065369,0.008813769556581974,0.3683391511440277,-0.1661689430475235,2.9421377182006836,4.12109375,2,G1,6.1,270,0,0.11902047694684074,[3900|0|0|0]
3900,0.7846910953521729,-0.8050193190574646,0.00885055959224701,0.3614543676376343,-0.1718636155128479,2.9408774375915527,4.12109375,2,G1,6.1,270,0,0.11921720353993177,[4000|0|0|0]
4000,0.7847970724105835,-0.8053349256515503,0.008919723331928253,0.3663646876811981,-0.17517511546611786,2.9071102142333984,4.12109375,2,G1,6.1,270,0,0.11955723630603886,[4100|0|0|0]
4100,0.784721314907074,-0.8049929141998291,0.008845017291605473,0.35502803325653076,-0.17414936423301697,2.876621723175049,4.12109375,2,G1,6.1,270,0,0.11991541506714445,[4200|0|0|0]
4200,0.7846038341522217,-0.8049796223640442,0.008692275732755661,0.35250142216682434,-0.1688854992389679,2.8881475925445557,4.12109375,2,G1,6.1,270,0,0.12010856885162477,[4300|0|0|0]
4300,0.7845437526702881,-0.8051323294639587,0.008699135854840279,0.3572787046432495,-0.16531583666801453,2.908543825149536,4.12109375,2,G1,6.1,270,0,0.12027281349875418,[4400|0|0|0]
4400,0.7847236394882202,-0.805238664150238,0.008871495723724365,0.35435768961906433,-0.16850320994853973,2.893852949142456,4.12890625,2,G1,6.1,270,0,0.12054369032901768,[4500|0|0|0]
4500,0.7848591804504395,-0.8052520751953125,0.008875780738890171,0.3553122282028198,-0.17446647584438324,2.91241455078125,4.12109375,2,G1,6.1,270,0,0.12067996053825021,[4600|0|0|0]
4600,0.8270885348320007,-0.7846816778182983,0.10607168078422546,1.4379323720932007,-0.17270924150943756,1.9519206285476685,4.12109375,2,G1,6.1,270,0,0.2286313505494704,[4700|0|0|0]
4700,0.7812166213989258,-0.8067063093185425,-0.006634806282818317,1.036895990371704,-1.0954163074493408,2.387418270111084,4.12109375,2,G1,6.1,270,0,0.35229245624453837,[4800|0|0|0]
4800,0.7809945940971375,-0.8046708106994629,-0.0028956120368093252,-2.7159252166748047,-1.2844644784927368,2.5111167430877686,4.12109375,2,G1,6.1,270,0,0.35655556829565793,[4900|0|0|0]
4900,0.7831677198410034,-0.8041149973869324,0.002743183635175228,-3.6536831855773926,-1.3921676874160767,2.4956488609313965,4.12109375,2,G1,6.1,270,0,0.36262412830338886,[5000|0|0|0]
5000,0.7839576601982117,-0.8040052652359009,0.005410082638263702,-3.347277879714966,-1.2112889289855957,2.482105255126953,4.12109375,2,G1,6.1,270,0,0.36540772259954457,[5100|0|0|0]
5100,0.7846911549568176,-0.803913414478302,0.007085764780640602,-2.8470470905303955,-1.0385804176330566,2.466219663619995,4.12109375,2,G1,6.1,270,0,0.3672392142770727,[5200|0|0|0]
5200,0.7844530940055847,-0.8038997650146484,0.007498898543417454,-2.3707754611968994,-0.8446735739707947,2.4859800338745117,4.12109375,2,G1,6.1,270,0,0.36771622458126546,[5300|0|0|0]
5300,0.7847240567207336,-0.8039515614509583,0.008008449338376522,-1.9521695375442505,-0.7249836325645447,2.4768075942993164,4.12109375,2,G1,6.1,270,0,0.3682956602346893,[5400|0|0|0]
5400,0.7847360968589783,-0.8040772676467896,0.008584397844970226,-1.5863220691680908,-0.6167135238647461,2.5151586532592773,4.12109375,2,G1,6.1,270,0,0.36888529036862655,[5500|0|0|0]
5500,0.7845061421394348,-0.8040606379508972,0.008138746954500675,-1.282102108001709,-0.5211491584777832,2.5543320178985596,4.12109375,2,G1,6.1,270,0,0.3693870477163576,[5600|0|0|0]
5600,0.7846885919570923,-0.8040026426315308,0.008647284470498562,-1.0234463214874268,-0.46349036693573,2.5760624408721924,4.12109375,2,G1,6.1,270,0,0.3699304276922575,[5700|0|0|0]
5700,0.7848853468894958,-0.804397463798523,0.008682160638272762,-0.7899102568626404,-0.416533499956131,2.6379613876342773,4.12109375,2,G1,6.1,270,0,0.3703729348723222,[5800|0|0|0]
5800,0.7846618890762329,-0.8042595982551575,0.008341599255800247,-0.5993624329566956,-0.35835540294647217,2.6832542419433594,4.12109375,2,G1,6.1,270,0,0.37080296086873094,[5900|0|0|0]
5900,0.7845909595489502,-0.8044027090072632,0.00863904319703579,-0.4361255168914795,-0.31434178352355957,2.7044575214385986,4.12109375,2,G1,6.1,270,0,0.37114057689824753,[6000|0|0|0]
6000,0.7844362854957581,-0.8042902946472168,0.008319308049976826,-0.30174532532691956,-0.2838008999824524,2.751436233520508,4.12109375,2,G1,6.1,270,0,0.3715131243654787,[6100|0|0|0]
6100,0.7846593260765076,-0.804773211479187,0.00850645825266838,-0.17662663757801056,-0.25548702478408813,2.7610816955566406,4.12109375,2,G1,6.1,270,0,0.37207702237543144,[6200|0|0|0]
6200,0.7848634719848633,-0.8046694993972778,0.00879412330687046,-0.08297882229089737,-0.24247020483016968,2.764130115509033,4.12109375,2,G1,6.1,270,0,0.372444694690464,[6300|0|0|0]
6300,0.7845957279205322,-0.8046387434005737,0.008345012553036213,-0.0021156033035367727,-0.21760006248950958,2.787101984024048,4.12109375,2,G1,6.1,270,0,0.3729684630405266,[6400|0|0|0]
6400,0.7846643328666687,-0.8048450946807861,0.008663898333907127,0.07253826409578323,-0.2078346610069275,2.7946698665618896,4.12109375,2,G1,6.1,270,0,0.37335443665454876,[6500|0|0|0]
6500,0.7847120761871338,-0.804914653301239,0.008940127678215504,0.12983307242393494,-0.1958310753107071,2.8048746585845947,4.12109375,2,G1,6.1,270,0,0.3736432626869374,[6600|0|0|0]
6600,0.7848251461982727,-0.804948091506958,0.008777233771979809,0.17686381936073303,-0.18981149792671204,2.8245301246643066,4.12109375,2,G1,6.1,270,0,0.3738443531285536,[6700|0|0|0]
6700,0.784489631652832,-0.8047915697097778,0.008259929716587067,0.20893949270248413,-0.1771933138370514,2.8372247219085693,4.12109375,2,G1,6.1,270,0,0.3744804919254529,[6800|0|0|0]
6800,0.7849026918411255,-0.8050029873847961,0.008807015605270863,0.24583247303962708,-0.1834186315536499,2.8426878452301025,4.12109375,2,G1,6.1,270,0,0.3751978615108551,[6900|0|0|0]
6900,0.7847297787666321,-0.8048931360244751,0.00881351251155138,0.2665071189403534,-0.17711235582828522,2.8411097526550293,4.12109375,2,G1,6.1,270,0,0.37540282117148704,[7000|0|0|0]
7000,0.7845976948738098,-0.8051505088806152,0.008765514008700848,0.2899302840232849,-0.1671827733516693,2.848259687423706,4.12109375,2,G1,6.1,270,0,0.37569606304792474,[7100|0|0|0]
7100,0.7845808267593384,-0.8051336407661438,0.008573940955102444,0.30659496784210205,-0.16327780485153198,2.847571611404419,4.12109375,2,G1,6.1,270,0,0.3758891156351559,[7200|0|0|0]
7200,0.7844869494438171,-0.8048722147941589,0.008588630706071854,0.3137517273426056,-0.1629866361618042,2.850933074951172,4.12109375,2,G1,6.1,270,0,0.3761672743631895,[7300|0|0|0]
7300,0.7845407128334045,-0.8049986362457275,0.008983345702290535,0.32623836398124695,-0.1598798781633377,2.8668885231018066,4.12109375,2,G1,6.1,270,0,0.3765852131310928,[7400|0|0|0]
7400,0.784813642501831,-0.8053610920906067,0.008764163590967655,0.34075674414634705,-0.1671629101037979,2.853888988494873,4.12109375,2,G1,6.1,270,0,0.3770891036363798,[7500|0|0|0]
7500,0.7847567796707153,-0.8053039312362671,0.008257154375314713,0.3463059663772583,-0.1666359007358551,2.8599236011505127,4.12109375,2,G1,6.1,270,0,0.3776024836998692,[7600|0|0|0]
7600,0.7847980856895447,-0.8050751686096191,0.008857711218297482,0.3443317115306854,-0.1618182212114334,2.855401039123535,4.12109375,2,G1,6.1,270,0,0.37824646122136807,[7700|0|0|0]
7700,0.7846367359161377,-0.8051365613937378,0.008794676512479782,0.34800443053245544,-0.1563364863395691,2.8538455963134766,4.12109375,2,G1,6.1,270,0,0.37843024423869515,[7800|0|0|0]
7800,0.7846429347991943,-0.8051784038543701,0.008363657630980015,0.35805845260620117,-0.16326023638248444,2.8635175228118896,4.12109375,2,G1,6.1,270,0,0.3788633337142914,[7900|0|0|0]
7900,0.7847082018852234,-0.8049643635749817,0.008668899536132812,0.3529198169708252,-0.16811653971672058,2.872415781021118,4.12109375,2,G1,6.1,270,0,0.3792418117907776,[8000|0|0|0]
8000,0.7847996354103088,-0.8052101731300354,0.008957483805716038,0.36633795499801636,-0.1683945655822754,2.8986029624938965,4.12109375,2,G1,6.1,270,0,0.3796317647462942,[8100|0|0|0]
8100,0.7846298217773438,-0.8050182461738586,0.008471066132187843,0.3591558635234833,-0.1627809703350067,2.8756966590881348,4.12109375,2,G1,6.1,270,0,0.38018155996232345,[8200|0|0|0]
8200,0.7847764492034912,-0.8050721287727356,0.009135766886174679,0.3548106849193573,-0.15781569480895996,2.85202956199646,4.12109375,2,G1,6.1,270,0,0.3808643703524839,[8300|0|0|0]
8300,0.7848471999168396,-0.8050878047943115,0.00897429883480072,0.3579899072647095,-0.1533091813325882,2.893503189086914,4.12109375,2,G1,6.1,270,0,0.38104135434245545,[8400|0|0|0]
8400,0.7845508456230164,-0.8049117922782898,0.008527515456080437,0.35261690616607666,-0.14891105890274048,2.8736631870269775,4.12109375,2,G1,6.1,270,0,0.3816056429749517,[8500|0|0|0]
8500,0.7845026254653931,-0.8049540519714355,0.008684515953063965,0.35279926657676697,-0.15538479387760162,2.8911609649658203,4.12109375,2,G1,6.1,270,0,0.3817752313628769,[8600|0|0|0]
8600,0.7846213579177856,-0.8050430417060852,0.008762627840042114,0.35627907514572144,-0.15940716862678528,2.921492576599121,4.12109375,2,G1,6.1,270,0,0.3819429156943198,[8700|0|0|0]
8700,0.7847228050231934,-0.8051354885101318,0.008718091063201427,0.3534749448299408,-0.1674257218837738,2.909733772277832,4.12109375,2,G1,6.1,270,0,0.3820872120950559,[8800|0|0|0]
8800,0.7848073244094849,-0.8052912950515747,0.008982705883681774,0.3554229736328125,-0.16738994419574738,2.899388551712036,4.12109375,2,G1,6.1,270,0,0.3824057088897546,[8900|0|0|0]
8900,0.7845641374588013,-0.805121898651123,0.00854355189949274,0.35021400451660156,-0.16010026633739471,2.909810781478882,4.12109375,2,G1,6.1,270,0,0.3829355119241909,[9000|0|0|0]
9000,0.7848137021064758,-0.8050292134284973,0.008717619813978672,0.350555419921875,-0.16697266697883606,2.903440475463867,4.12109375,2,G1,6.1,270,0,0.3832535884915699,[9100|0|0|0]
9100,0.7848536372184753,-0.8052465319633484,0.009035691618919373,0.35323306918144226,-0.16222314536571503,2.891714572906494,4.12109375,2,G1,6.1,270,0,0.38364087628102167,[9200|0|0|0]
9200,0.7844232320785522,-0.8050567507743835,0.008725007995963097,0.3441484868526459,-0.15483823418617249,2.893723487854004,4.12109375,2,G1,6.1,270,0,0.3842046047597509,[9300|0|0|0]
9300,0.7847926616668701,-0.8051169514656067,0.008540966548025608,0.33993130922317505,-0.17055083811283112,2.87186598777771,4.12109375,2,G1,6.1,270,0,0.3846217061844756,[9400|0|0|0]
9400,0.784878134727478,-0.805162787437439,0.008641926571726799,0.3384275436401367,-0.1778046190738678,2.8782246112823486,4.12109375,2,G1,6.1,270,0,0.3847617044229975,[9500|0|0|0]
9500,0.7848027348518372,-0.805149495601654,0.008587204851210117,0.3439997434616089,-0.17699652910232544,2.8844797611236572,4.12109375,2,G1,6.1,270,0,0.3848558122379838,[9600|0|0|0]
9600,0.7846832275390625,-0.8051477670669556,0.008904939517378807,0.3447706401348114,-0.1736915558576584,2.874850034713745,4.12109375,2,G1,6.1,270,0,0.3851952828607543,[9700|0|0|0]
9700,0.7849752902984619,-0.8052216172218323,0.009022810496389866,0.3463261127471924,-0.18142291903495789,2.857922315597534,4.12109375,2,G1,6.1,270,0,0.3855187763977783,[9800|0|0|0]
9800,0.7846986651420593,-0.8051786422729492,0.008869864977896214,0.34648773074150085,-0.17167669534683228,2.8500499725341797,4.12109375,2,G1,6.1,270,0,0.38583777585704676,[9900|0|0|0]
9900,0.7849648594856262,-0.805191159248352,0.008944508619606495,0.3449329733848572,-0.18239298462867737,2.8540585041046143,4.12109375,2,G1,6.1,270,0,0.38611452082351955,[10000|0|0|0]
10000,0.784768283367157,-0.8052143454551697,0.008991934359073639,0.34395164251327515,-0.17749258875846863,2.874870538711548,4.12109375,2,G1,6.1,270,0,0.3863180619036558,[10100|0|0|0]
10100,0.784747302532196,-0.8051489591598511,0.008577588014304638,0.34293025732040405,-0.18048310279846191,2.8899242877960205,4.12109375,2,G1,6.1,270,0,0.38673806006612155,[10200|0|0|0]
10200,0.7848842144012451,-0.8051770329475403,0.008809869177639484,0.3443014621734619,-0.18820583820343018,2.888887643814087,4.12109375,2,G1,6.1,270,0,0.38700914591282315,[10300|0|0|0]
10300,0.7845894694328308,-0.8050255179405212,0.008767887949943542,0.34436142444610596,-0.18195168673992157,2.8973190784454346,4.12109375,2,G1,6.1,270,0,0.3873432025206554,[10400|0|0|0]
10400,0.7847760915756226,-0.8051826357841492,0.008957098238170147,0.34699708223342896,-0.18861575424671173,2.904829263687134,4.12109375,2,G1,6.1,270,0,0.38765193278178517,[10500|0|0|0]
10500,0.7847760319709778,-0.8053112626075745,0.00880986638367176,0.34767529368400574,-0.1783638894557953,2.8929290771484375,4.12109375,2,G1,6.1,270,0,0.3878474374677552,[10600|0|0|0]
10600,0.7848537564277649,-0.8051952719688416,0.008685396052896976,0.34765350818634033,-0.183210551738739,2.888875722885132,4.12109375,2,G1,6.1,270,0,0.38803448768213544,[10700|0|0|0]
10700,0.7846328020095825,-0.8052055835723877,0.008904882706701756,0.34722763299942017,-0.17730087041854858,2.886810779571533,4.12109375,2,G1,6.1,270,0,0.38834609893880057,[10800|0|0|0]
10800,0.7847037315368652,-0.8052560091018677,0.008627500385046005,0.3471944332122803,-0.17356383800506592,2.8789303302764893,4.12109375,2,G1,6.1,270,0,0.38863681303242353,[10900|0|0|0]
10900,0.7846626043319702,-0.8052760362625122,0.008930339477956295,0.3478924036026001,-0.1769844889640808,2.8911609649658203,4.12109375,2,G1,6.1,270,0,0.38894308750139,[11000|0|0|0]
11000,0.7848460674285889,-0.8052944540977478,0.008757113479077816,0.353206992149353,-0.18243522942066193,2.898521661758423,4.12109375,2,G1,6.1,270,0,0.3891960799344055,[11100|0|0|0]
11100,0.7846704721450806,-0.805092990398407,0.00875396840274334,0.35002225637435913,-0.17349004745483398,2.8792285919189453,4.12109375,2,G1,6.1,270,0,0.38946334612614625,[11200|0|0|0]
11200,0.7846242785453796,-0.804913341999054,0.008685088716447353,0.34438061714172363,-0.16992546617984772,2.869396448135376,4.12109375,2,G1,6.1,270,0,0.38966121428232015,[11300|0|0|0]
11300,0.7846900224685669,-0.80511873960495,0.009053952991962433,0.3459581732749939,-0.1598232537508011,2.8545987606048584,4.12109375,2,G1,6.1,270,0,0.390088497904397,[11400|0|0|0]
11400,0.7846252918243408,-0.8048944473266602,0.00876537524163723,0.3363862633705139,-0.15549612045288086,2.8711040019989014,4.12109375,2,G1,6.1,270,0,0.39045967737633086,[11500|0|0|0]
11500,0.7848319411277771,-0.8050630688667297,0.008918040432035923,0.33345505595207214,-0.16863574087619781,2.886712074279785,4.12109375,2,G1,6.1,270,0,0.3907669945069071,[11600|0|0|0]
11600,0.7847672700881958,-0.8052821755409241,0.008919407613575459,0.33871200680732727,-0.16492918133735657,2.8949499130249023,4.12109375,2,G1,6.1,270,0,0.39099545007637826,[11700|0|0|0]
11700,0.7849588394165039,-0.8053095936775208,0.008895056322216988,0.33794736862182617,-0.16692811250686646,2.8939688205718994,4.12109375,2,G1,6.1,270,0,0.3911904976273849,[11800|0|0|0]
11800,0.7845812439918518,-0.8051179051399231,0.008844186551868916,0.33344951272010803,-0.14776353538036346,2.8904709815979004,4.12109375,2,G1,6.1,270,0,0.3916170073385285,[11900|0|0|0]
11900,0.7848137021064758,-0.8051388263702393,0.008844400756061077,0.3308228850364685,-0.1586468666791916,2.8727359771728516,4.12109375,2,G1,6.1,270,0,0.3918504051080464,[12000|0|0|0]
12000,0.7847368717193604,-0.8053290247917175,0.008987932465970516,0.33745092153549194,-0.14903372526168823,2.8797426223754883,4.12109375,2,G1,6.1,270,0,0.3921007642494147,[12100|0|0|0]
12100,0.7845830917358398,-0.8052077293395996,0.008312753401696682,0.33390504121780396,-0.14194360375404358,2.878462553024292,4.12109375,2,G1,6.1,270,0,0.39280377750595385,[12200|0|0|0]
12200,0.7846323251724243,-0.8049221038818359,0.008661440573632717,0.3290878236293793,-0.14495155215263367,2.9300332069396973,4.12109375,2,G1,6.1,270,0,0.3932571962718573,[12300|0|0|0]
12300,0.7847524881362915,-0.8051856160163879,0.00846509076654911,0.3345920443534851,-0.14999370276927948,2.8896350860595703,4.12109375,2,G1,6.1,270,0,0.39360709772896096,[12400|0|0|0]
12400,0.7846866846084595,-0.8052203059196472,0.00891752727329731,0.33634641766548157,-0.14746807515621185,2.9161908626556396,4.12109375,2,G1,6.1,270,0,0.3940656086735433,[12500|0|0|0]
12500,0.7843561172485352,-0.8047201633453369,0.008581092581152916,0.33903419971466064,-0.14279237389564514,2.963350772857666,4.12109375,2,G1,6.1,270,0,0.39475307189158726,[12600|0|0|0]
12600,0.7846035361289978,-0.805212140083313,0.008695406839251518,0.34991568326950073,-0.15677499771118164,2.9546871185302734,4.12109375,2,G1,6.1,270,0,0.39531549963158913,[12700|0|0|0]
12700,0.7847999334335327,-0.8052487373352051,0.008613022044301033,0.3492770791053772,-0.16413630545139313,2.9109857082366943,4.12109375,2,G1,6.1,270,0,0.39553159802240606,[12800|0|0|0]
12800,0.7848003506660461,-0.8049721717834473,0.009078208357095718,0.34148967266082764,-0.16074655950069427,2.9551799297332764,4.12109375,2,G1,6.1,270,0,0.39607278836241,[12900|0|0|0]
12900,0.7845494151115417,-0.805010199546814,0.008865712210536003,0.34453722834587097,-0.14556428790092468,2.9701945781707764,4.12109375,2,G1,6.1,270,0,0.39640380101413775,[13000|0|0|0]
13000,0.784551203250885,-0.8049992918968201,0.008785613812506199,0.34770631790161133,-0.14800770580768585,2.9733705520629883,4.12109375,2,G1,6.1,270,0,0.3964846584667172,[13100|0|0|0]
13100,0.7846250534057617,-0.8050249814987183,0.008853232488036156,0.35057175159454346,-0.15228340029716492,2.9703736305236816,4.12109375,2,G1,6.1,270,0,0.39658803199476683,[13200|0|0|0]
13200,0.7845337390899658,-0.8049100637435913,0.008569161407649517,0.3458395004272461,-0.14789599180221558,2.9737548828125,4.12109375,2,G1,6.1,270,0,0.3969077831064533,[13300|0|0|0]
13300,0.7848276495933533,-0.8050910234451294,0.00887142401188612,0.3537290394306183,-0.15765033662319183,2.9790961742401123,4.12109375,2,G1,6.1,270,0,0.39736657770047346,[13400|0|0|0]
13400,0.7846609354019165,-0.8050223588943481,0.008664512075483799,0.3528113067150116,-0.14813339710235596,2.9761343002319336,4.12109375,2,G1,6.1,270,0,0.3976410244012847,[13500|0|0|0]
13500,0.7846747636795044,-0.805060088634491,0.008311707526445389,0.35199174284935,-0.1464282125234604,2.959345817565918,4.12109375,2,G1,6.1,270,0,0.3979961100309214,[13600|0|0|0]
13600,0.7845592498779297,-0.8049294352531433,0.008917457424104214,0.347549170255661,-0.1437547206878662,2.9425477981567383,4.12109375,2,G1,6.1,270,0,0.39862646444149175,[13700|0|0|0]
13701,0.784746527671814,-0.8050697445869446,0.008839823305606842,0.3556452691555023,-0.15323814749717712,2.948737859725952,4.12109375,2,G1,6.1,270,0,0.39887301410705384,[13800|0|0|0]
13801,0.7844316959381104,-0.8048534989356995,0.00867114495486021,0.3517167568206787,-0.15296503901481628,2.9362058639526367,4.12109375,2,G1,6.1,270,0,0.3992905468461772,[13900|0|0|0]
13901,0.7846494913101196,-0.8049534559249878,0.008932982571423054,0.3537748456001282,-0.15785092115402222,2.927549123764038,4.12109375,2,G1,6.1,270,0,0.39964549073078937,[14000|0|0|0]
14000,0.7846459150314331,-0.8050324320793152,0.009064511395990849,0.35312357544898987,-0.1574878990650177,2.9024806022644043,4.12109375,2,G1,6.1,270,0,0.3997989503489753,[14100|0|0|0]
14101,0.7844471335411072,-0.8046708703041077,0.008668910712003708,0.3450174331665039,-0.15336871147155762,2.9292547702789307,4.12109375,2,G1,6.1,270,0,0.4003705628920134,[14200|0|0|0]
14201,0.7846043109893799,-0.8050577044487,0.008790204301476479,0.3612232506275177,-0.15894004702568054,2.9350745677948,4.12109375,2,G1,6.1,270,0,0.40080537036724256,[14300|0|0|0]
14301,0.7845674753189087,-0.8047649264335632,0.008467525243759155,0.35811886191368103,-0.15873828530311584,2.9370415210723877,4.12109375,2,G1,6.1,270,0,0.4012426318531475,[14400|0|0|0]
14402,0.7845125198364258,-0.8048612475395203,0.008558611385524273,0.3563252389431,-0.1627565622329712,2.925790548324585,4.12109375,2,G1,6.1,270,0,0.4013861398519816,[14500|0|0|0]
14501,0.7848147749900818,-0.8050193786621094,0.0087179159745574,0.36016061902046204,-0.16612550616264343,2.9395790100097656,4.12109375,2,G1,6.1,270,0,0.40176262568429133,[14600|0|0|0]
14601,0.7845967411994934,-0.8048150539398193,0.008910462260246277,0.35197150707244873,-0.15828537940979004,2.9436066150665283,4.12109375,2,G1,6.1,270,0,0.402118099168689,[14700|0|0|0]
14702,0.7847786545753479,-0.8049373626708984,0.008883930742740631,0.35239526629447937,-0.16268903017044067,2.942471504211426,4.12109375,2,G1,6.1,270,0,0.4023389063774348,[14800|0|0|0]
14802,0.7845162749290466,-0.8050630688667297,0.00852770172059536,0.3549177348613739,-0.15596763789653778,2.9164576530456543,4.12109375,2,G1,6.1,270,0,0.4027988457676615,[14900|0|0|0]
14902,0.7844797372817993,-0.804823637008667,0.008970766328275204,0.3524452745914459,-0.15796642005443573,2.963151454925537,4.12109375,2,G1,6.1,270,0,0.40330379018133516,[15000|0|0|0]
15002,0.7844144105911255,-0.804776668548584,0.008609326556324959,0.3466663062572479,-0.158111110329628,2.9513165950775146,4.12109375,2,G1,6.1,270,0,0.4036740769911251,[15100|0|0|0]
15102,0.7842786908149719,-0.8047637343406677,0.008702907711267471,0.3409988582134247,-0.15551131963729858,2.9594521522521973,4.12109375,2,G1,6.1,270,0,0.40383943896962676,[15200|0|0|0]
15200,0.784991443157196,-0.804693341255188,0.008833239786326885,0.3404560387134552,-0.1729041188955307,2.9373576641082764,4.12109375,2,G1,6.1,270,0,0.4045674207946874,[15300|0|0|0]
15302,0.784874677658081,-0.8051862716674805,0.008806932717561722,0.348270982503891,-0.16303595900535583,2.9562265872955322,4.12109375,2,G1,6.1,270,0,0.40507467480897746,[15400|0|0|0]
15402,0.784793496131897,-0.8051412105560303,0.008834131062030792,0.3416878879070282,-0.16111738979816437,2.95194673538208,4.12109375,2,G1,6.1,270,0,0.40517142548804774,[15500|0|0|0]
15502,0.7847282886505127,-0.8048831820487976,0.008539866656064987,0.33359092473983765,-0.15756435692310333,2.946049213409424,4.12109375,2,G1,6.1,270,0,0.4055681902379835,[15600|0|0|0]
15600,0.7847458124160767,-0.8050792813301086,0.00875046756118536,0.3374176323413849,-0.15536713600158691,2.934246301651001,4.12109375,2,G1,6.1,270,0,0.4058564865295444,[15700|0|0|0]
15700,0.7847738265991211,-0.804844081401825,0.008891740813851357,0.32911020517349243,-0.15518726408481598,2.932310104370117,4.12109375,2,G1,6.1,270,0,0.4061322798083514,[15800|0|0|0]
15800,0.7847275733947754,-0.805042028427124,0.009079537354409695,0.33290064334869385,-0.15106742084026337,2.930638313293457,4.12109375,2,G1,6.1,270,0,0.4064090286554722,[15900|0|0|0]
15900,0.7844970226287842,-0.804762065410614,0.008717839606106281,0.3259330689907074,-0.14404195547103882,2.9480223655700684,4.12109375,2,G1,6.1,270,0,0.40692123779970946,[16000|0|0|0]
16000,0.7848026156425476,-0.8051007390022278,0.008889161050319672,0.3358473777770996,-0.15176242589950562,2.939058303833008,4.12109375,2,G1,6.1,270,0,0.40740851382925014,[16100|0|0|0]
16100,0.7845686078071594,-0.8050537705421448,0.008953106589615345,0.33520272374153137,-0.14744484424591064,2.9425203800201416,4.12109375,2,G1,6.1,270,0,0.40765560639340664,[16200|0|0|0]
16200,0.7846609950065613,-0.804870069026947,0.008940831758081913,0.33116012811660767,-0.15611925721168518,2.925102472305298,4.12109375,2,G1,6.1,270,0,0.4078615974436696,[16300|0|0|0]
16300,0.7846027612686157,-0.8049482703208923,0.008791384287178516,0.33647069334983826,-0.15475980937480927,2.9300262928009033,4.12109375,2,G1,6.1,270,0,0.40804003835032854,[16400|0|0|0]
16400,0.7847359776496887,-0.8048667311668396,0.00902562402188778,0.3379616439342499,-0.15380549430847168,2.9390828609466553,4.12109375,2,G1,6.1,270,0,0.4083215760763023,[16500|0|0|0]
16500,0.7846181392669678,-0.8048486709594727,0.008690065704286098,0.3377515375614166,-0.15035784244537354,2.9461143016815186,4.12109375,2,G1,6.1,270,0,0.4086776820156576,[16600|0|0|0]
16600,0.7847794890403748,-0.8052853941917419,0.008872900158166885,0.34832826256752014,-0.15349580347537994,2.9348342418670654,4.12109375,2,G1,6.1,270,0,0.40917787134831884,[16700|0|0|0]
16700,0.7848187685012817,-0.8050284385681152,0.008909053169190884,0.3348065912723541,-0.15621870756149292,2.9368317127227783,4.12109375,2,G1,6.1,270,0,0.4094403139301699,[16800|0|0|0]
16800,0.7845556139945984,-0.804783821105957,0.00862355437129736,0.326127827167511,-0.15700870752334595,2.9392309188842773,4.12109375,2,G1,6.1,270,0,0.40989922302877124,[16900|0|0|0]
16900,0.7847272753715515,-0.8051942586898804,0.00884389877319336,0.3386569619178772,-0.16393262147903442,2.955613374710083,4.12109375,2,G1,6.1,270,0,0.41039568883230776,[17000|0|0|0]
17000,0.784679114818573,-0.8049848079681396,0.008699679747223854,0.3329218626022339,-0.16129840910434723,2.9452247619628906,4.12109375,2,G1,6.1,270,0,0.4106545095639977,[17100|0|0|0]
17100,0.7844527363777161,-0.8048222064971924,0.008485952392220497,0.33331817388534546,-0.15366752445697784,2.9638099670410156,4.12109375,2,G1,6.1,270,0,0.4110057442705911,[17200|0|0|0]
17200,0.7848861813545227,-0.8049798607826233,0.009103266522288322,0.3402787446975708,-0.16216732561588287,2.9744184017181396,4.12109375,2,G1,6.1,270,0,0.41177633245945405,[17300|0|0|0]
17300,0.7847462892532349,-0.8051201105117798,0.008854520507156849,0.3440328538417816,-0.1559830605983734,2.9796335697174072,4.12109375,2,G1,6.1,270,0,0.41209431731219864,[17400|0|0|0]
17400,0.7846901416778564,-0.8049766421318054,0.009037855081260204,0.3412790596485138,-0.15346062183380127,2.9548494815826416,4.12109375,2,G1,6.1,270,0,0.41233379025917805,[17500|0|0|0]
17500,0.7846137881278992,-0.8047877550125122,0.008820921182632446,0.3375175893306732,-0.15186138451099396,2.964564561843872,4.12109375,2,G1,6.1,270,0,0.4126313949043028,[17600|0|0|0]
17600,0.784726619720459,-0.8051921725273132,0.008965201675891876,0.3511919379234314,-0.149176225066185,2.957310676574707,4.12109375,2,G1,6.1,270,0,0.41307535588827843,[17700|0|0|0]
17700,0.7850522994995117,-0.8048111796379089,0.008909151889383793,0.3407614231109619,-0.16036468744277954,2.945344924926758,4.12109375,2,G1,6.1,270,0,0.4135797014829138,[17800|0|0|0]
17800,0.784875750541687,-0.8049543499946594,0.008820286020636559,0.3433353006839752,-0.16147436201572418,2.9536876678466797,4.12109375,2,G1,6.1,270,0,0.41382375973044755,[17900|0|0|0]
17900,0.784855306148529,-0.8053193688392639,0.008557448163628578,0.355409175157547,-0.1576514095067978,2.9429867267608643,4.12109375,2,G1,6.1,270,0,0.4142740268391781,[18000|0|0|0]
18000,0.7848305106163025,-0.80488520860672,0.008784042671322823,0.3437255024909973,-0.1520967036485672,2.9363367557525635,4.12109375,2,G1,6.1,270,0,0.414764388947072,[18100|0|0|0]
18100,0.7847082018852234,-0.8051694631576538,0.008778282441198826,0.34861963987350464,-0.1449163854122162,2.9320762157440186,4.12109375,2,G1,6.1,270,0,0.41507389380272997,[18200|0|0|0]
18200,0.784572184085846,-0.8050382137298584,0.008795512840151787,0.3520961403846741,-0.13687610626220703,2.952571392059326,4.12109375,2,G1,6.1,270,0,0.4152636940679884,[18300|0|0|0]
18300,0.784710168838501,-0.8052094578742981,0.00871275644749403,0.3571050763130188,-0.14184989035129547,2.9812333583831787,4.12109375,2,G1,6.1,270,0,0.41549866846977696,[18400|0|0|0]
18400,0.7848747968673706,-0.8051810264587402,0.008302981033921242,0.35817670822143555,-0.15057247877120972,2.9851584434509277,4.12109375,2,G1,6.1,270,0,0.41594119148934644,[18500|0|0|0]
18500,0.7846954464912415,-0.8051174879074097,0.008928156457841396,0.35303372144699097,-0.1465948075056076,2.981060028076172,4.12109375,2,G1,6.1,270,0,0.4165946805983579,[18600|0|0|0]
18600,0.784674346446991,-0.8050837516784668,0.008726973086595535,0.3504408597946167,-0.1455790400505066,2.9559402465820312,4.12109375,2,G1,6.1,270,0,0.4167997612992454,[18700|0|0|0]
18700,0.7847146391868591,-0.8051684498786926,0.009016908705234528,0.349361777305603,-0.14090588688850403,2.943950653076172,4.12109375,2,G1,6.1,270,0,0.4171044906102136,[18800|0|0|0]
18800,0.7847486734390259,-0.8051748275756836,0.008817152120172977,0.34610721468925476,-0.14067207276821136,2.9322006702423096,4.12109375,2,G1,6.1,270,0,0.41730722614882215,[18900|0|0|0]
18900,0.7848469614982605,-0.8052171468734741,0.00896827969700098,0.34519392251968384,-0.1411556601524353,2.9441421031951904,4.12109375,2,G1,6.1,270,0,0.4174924044683725,[19000|0|0|0]
19000,0.7846164107322693,-0.8050941824913025,0.008881352841854095,0.3407856523990631,-0.14327789843082428,2.953505277633667,4.12109375,2,G1,6.1,270,0,0.41776777725774666,[19100|0|0|0]
19100,0.7844430804252625,-0.8047489523887634,0.008758368901908398,0.3322729766368866,-0.13550828397274017,2.941260576248169,4.12109375,2,G1,6.1,270,0,0.4181731810916096,[19200|0|0|0]
19200,0.7845733165740967,-0.8049536347389221,0.008460547775030136,0.3373611271381378,-0.1494360715150833,2.9392893314361572,4.12109375,2,G1,6.1,270,0,0.41855730833946464,[19300|0|0|0]
19300,0.784746527671814,-0.804929792881012,0.008654379285871983,0.337058424949646,-0.15787237882614136,2.9343745708465576,4.12109375,2,G1,6.1,270,0,0.4188183469824972,[19400|0|0|0]
19400,0.7846025824546814,-0.8050293326377869,0.008919336833059788,0.3367631137371063,-0.15266619622707367,2.9047210216522217,4.12109375,2,G1,6.1,270,0,0.41913588578410405,[19500|0|0|0]
19500,0.7848607301712036,-0.8050792813301086,0.009014424867928028,0.3409322202205658,-0.15942959487438202,2.914132595062256,4.12109375,2,G1,6.1,270,0,0.41941548701762316,[19600|0|0|0]
19600,0.784701943397522,-0.8048670887947083,0.008647149428725243,0.3353345990180969,-0.15592487156391144,2.919708728790283,4.12109375,2,G1,6.1,270,0,0.4198683999891944,[19700|0|0|0]
19700,0.7848483324050903,-0.8047422170639038,0.008695956319570541,0.33339208364486694,-0.16241343319416046,2.920464038848877,4.12109375,2,G1,6.1,270,0,0.4200669064205384,[19800|0|0|0]
19800,0.7847158908843994,-0.8051049113273621,0.00905702542513609,0.34207883477211,-0.15753968060016632,2.942143678665161,4.12109375,2,G1,6.1,270,0,0.42059554503447266,[19900|0|0|0]
19900,0.7847970128059387,-0.8049840331077576,0.008945049718022346,0.337952584028244,-0.1611899435520172,2.940943717956543,4.12109375,2,G1,6.1,270,0,0.4207792046901203,[20000|0|0|0]
20000,0.7846100926399231,-0.8048194646835327,0.008839682675898075,0.33872056007385254,-0.15583950281143188,2.952897787094116,4.12109375,2,G1,6.1,270,0,0.4210496194239666,[20100|0|0|0]
20100,0.7846667170524597,-0.8050426244735718,0.00917952973395586,0.3505609929561615,-0.16049379110336304,2.971977949142456,4.12109375,2,G1,6.1,270,0,0.4214601101532845,[20200|0|0|0]
20200,0.7848113179206848,-0.8050640821456909,0.00896643940359354,0.35192200541496277,-0.16198471188545227,2.9732139110565186,4.12109375,2,G1,6.1,270,0,0.4217185232560447,[20300|0|0|0]
20300,0.7848405241966248,-0.8048192262649536,0.008792733773589134,0.34250396490097046,-0.16521993279457092,2.9429097175598145,4.12109375,2,G1,6.1,270,0,0.42202015391559566,[20400|0|0|0]
20400,0.7845903635025024,-0.8049366474151611,0.008768744766712189,0.3522830903530121,-0.15924856066703796,2.929433584213257,4.12109375,2,G1,6.1,270,0,0.4222975409590039,[20500|0|0|0]
20500,0.7844720482826233,-0.8046744465827942,0.00867241807281971,0.35044312477111816,-0.16218732297420502,2.956446886062622,4.12109375,2,G1,6.1,270,0,0.42260089982191257,[20600|0|0|0]
20600,0.7845479249954224,-0.8050833344459534,0.00891345739364624,0.36149489879608154,-0.16662675142288208,2.9723150730133057,4.12109375,2,G1,6.1,270,0,0.4230815728026059,[20700|0|0|0]
20700,0.7844094038009644,-0.8049262166023254,0.00867321528494358,0.356440007686615,-0.16839973628520966,2.956894874572754,4.12109375,2,G1,6.1,270,0,0.42340030530627354,[20800|0|0|0]
20800,0.7846585512161255,-0.8049325346946716,0.008551280945539474,0.35160762071609497,-0.1745276153087616,2.9531970024108887,4.12109375,2,G1,6.1,270,0,0.4236777622144562,[20900|0|0|0]
20900,0.7846812009811401,-0.804988443851471,0.008606655523180962,0.3530453145503998,-0.17243671417236328,2.9525351524353027,4.12109375,2,G1,6.1,270,0,0.4237596474360667,[21000|0|0|0]
21000,0.7849308252334595,-0.8051396608352661,0.008852052502334118,0.3597104251384735,-0.17950330674648285,2.9684736728668213,4.12109375,2,G1,6.1,270,0,0.42414095901589555,[21100|0|0|0]
21100,0.7848458886146545,-0.8050928115844727,0.008910913951694965,0.36168739199638367,-0.17871171236038208,2.9240686893463135,4.12109375,2,G1,6.1,270,0,0.42425442157242754,[21200|0|0|0]
21200,0.7846902012825012,-0.8050622940063477,0.008713020011782646,0.35806816816329956,-0.17016273736953735,2.942077159881592,4.12109375,2,G1,6.1,270,0,0.4245080588713835,[21300|0|0|0]
21300,0.7845878005027771,-0.8051877617835999,0.008876939304172993,0.36398959159851074,-0.1690348982810974,2.9654457569122314,4.12109375,2,G1,6.1,270,0,0.4247384880736007,[21400|0|0|0]
21400,0.7846866250038147,-0.8047716617584229,0.008859183639287949,0.35612019896507263,-0.1724584847688675,2.9749040603637695,4.12109375,2,G1,6.1,270,0,0.4251665310347543,[21500|0|0|0]
21500,0.7848252654075623,-0.804730236530304,0.00863281823694706,0.3512552082538605,-0.17353135347366333,2.9763851165771484,4.12109375,2,G1,6.1,270,0,0.4254351916132785,[21600|0|0|0]
21600,0.7846242785453796,-0.8049846887588501,0.008577939122915268,0.35747984051704407,-0.1582794338464737,2.9766643047332764,4.12109375,2,G1,6.1,270,0,0.42576405841388176,[21700|0|0|0]
21700,0.7848482728004456,-0.805365800857544,0.008665409870445728,0.3635907471179962,-0.1635882705450058,2.9657859802246094,4.12109375,2,G1,6.1,270,0,0.42621469240033516,[21800|0|0|0]
21800,0.7846895456314087,-0.8051611185073853,0.008833084255456924,0.3519788384437561,-0.15749740600585938,2.9609012603759766,4.12109375,2,G1,6.1,270,0,0.4265232436570914,[21900|0|0|0]
21900,0.7847834825515747,-0.8049902319908142,0.008508700877428055,0.34376102685928345,-0.16062432527542114,2.944608688354492,4.12109375,2,G1,6.1,270,0,0.42690172869306703,[22000|0|0|0]
22000,0.7847319841384888,-0.8051357269287109,0.008886199444532394,0.3452412188053131,-0.1611080765724182,2.95096492767334,4.12109375,2,G1,6.1,270,0,0.42730955957918254,[22100|0|0|0]
22100,0.7848373651504517,-0.8050028085708618,0.008737020194530487,0.3338666558265686,-0.15336473286151886,2.942335844039917,4.12109375,2,G1,6.1,270,0,0.4275354509162603,[22200|0|0|0]
22200,0.7849458456039429,-0.8052975535392761,0.008824863471090794,0.3443991541862488,-0.15380312502384186,2.941883087158203,4.12109375,2,G1,6.1,270,0,0.4278615782632155,[22300|0|0|0]
22300,0.7846248149871826,-0.8047258257865906,0.008743634447455406,0.32966503500938416,-0.14234963059425354,2.9543933868408203,4.12109375,2,G1,6.1,270,0,0.42852228351850646,[22400|0|0|0]
22400,0.7847184538841248,-0.8052813410758972,0.008790233172476292,0.34082144498825073,-0.14496691524982452,2.9353010654449463,4.12109375,2,G1,6.1,270,0,0.42908755948725763,[22500|0|0|0]
22500,0.7848447561264038,-0.8050814270973206,0.00885718408972025,0.3376528024673462,-0.1462002843618393,2.9256839752197266,4.12109375,2,G1,6.1,270,0,0.42933332417258663,[22600|0|0|0]
22600,0.7847844362258911,-0.8049569725990295,0.008727429434657097,0.33453458547592163,-0.14175349473953247,2.9210991859436035,4.12109375,2,G1,6.1,270,0,0.4295229651044903,[22700|0|0|0]
22700,0.784907341003418,-0.8051533699035645,0.008949609473347664,0.33974185585975647,-0.14167769253253937,2.904653549194336,4.12109375,2,G1,6.1,270,0,0.4298439658134615,[22800|0|0|0]
22800,0.7847959995269775,-0.8051042556762695,0.008852923288941383,0.3369683623313904,-0.141405388712883,2.901782512664795,4.12109375,2,G1,6.1,270,0,0.42999939216243027,[22900|0|0|0]
22900,0.7847138047218323,-0.805106520652771,0.008583432994782925,0.342855304479599,-0.13995181024074554,2.916771650314331,4.12109375,2,G1,6.1,270,0,0.43028114761447517,[23000|0|0|0]
23000,0.7847354412078857,-0.8052147030830383,0.008852256461977959,0.34699854254722595,-0.13832740485668182,2.9132440090179443,4.12109375,2,G1,6.1,270,0,0.4305717291559778,[23100|0|0|0]
23100,0.7845761179924011,-0.8048505783081055,0.008646711707115173,0.3391111493110657,-0.1371646225452423,2.9084558486938477,4.12109375,2,G1,6.1,270,0,0.43101918796409744,[23200|0|0|0]
23200,0.784464955329895,-0.8049545884132385,0.008777663111686707,0.3375694751739502,-0.13341356813907623,2.9070253372192383,4.12109375,2,G1,6.1,270,0,0.4312199951100472,[23300|0|0|0]
23300,0.7844363451004028,-0.8047937750816345,0.00863709207624197,0.32959437370300293,-0.12804052233695984,2.89677095413208,4.12109375,2,G1,6.1,270,0,0.43143549380809243,[23400|0|0|0]
23400,0.784528911113739,-0.8049811124801636,0.00871956069022417,0.3347105383872986,-0.12773020565509796,2.9311163425445557,4.12109375,2,G1,6.1,270,0,0.4316601376150508,[23500|0|0|0]
23500,0.7848464846611023,-0.8046125173568726,0.008614180609583855,0.32459813356399536,-0.13874702155590057,2.951460838317871,4.12109375,2,G1,6.1,270,0,0.4321579531273589,[23600|0|0|0]
23600,0.7845791578292847,-0.8049010634422302,0.008488037623465061,0.3313146233558655,-0.14414316415786743,2.958648920059204,4.12109375,2,G1,6.1,270,0,0.43257103245549317,[23700|0|0|0]
23700,0.7845314741134644,-0.8050567507743835,0.008480755612254143,0.332072377204895,-0.14782899618148804,2.9606051445007324,4.12109375,2,G1,6.1,270,0,0.43273402113557474,[23800|0|0|0]
23800,0.7844605445861816,-0.805066704750061,0.00840335339307785,0.33363133668899536,-0.14604267477989197,2.9586169719696045,4.12109375,2,G1,6.1,270,0,0.432839478155283,[23900|0|0|0]
23900,0.784504234790802,-0.8049564361572266,0.008440755307674408,0.33526667952537537,-0.14689017832279205,2.9457521438598633,4.12109375,2,G1,6.1,270,0,0.43296384414645805,[24000|0|0|0]
24000,0.7848246693611145,-0.8051058650016785,0.0090658999979496,0.3383425772190094,-0.15135128796100616,2.929396390914917,4.12109375,2,G1,6.1,270,0,0.43368204549509565,[24100|0|0|0]
24100,0.7847238779067993,-0.8052278757095337,0.008937334641814232,0.3341423571109772,-0.14633622765541077,2.919895648956299,4.12109375,2,G1,6.1,270,0,0.4338859439524035,[24200|0|0|0]
24200,0.7846347093582153,-0.8051905035972595,0.008635402657091618,0.33464011549949646,-0.14607010781764984,2.929194688796997,4.12109375,2,G1,6.1,270,0,0.43420297806449704,[24300|0|0|0]
24300,0.7847407460212708,-0.8050435185432434,0.00897055771201849,0.3333626389503479,-0.15617425739765167,2.9301137924194336,4.12109375,2,G1,6.1,270,0,0.43458399944297743,[24400|0|0|0]
24400,0.784796953201294,-0.8048792481422424,0.009174222126603127,0.3303745687007904,-0.16322481632232666,2.9221787452697754,4.12109375,2,G1,6.1,270,0,0.4348516245641811,[24500|0|0|0]
24500,0.7845866084098816,-0.8050488829612732,0.008456329815089703,0.3377196192741394,-0.1592843234539032,2.9175496101379395,4.12109375,2,G1,6.1,270,0,0.43561869058091757,[24600|0|0|0]
24600,0.7847033739089966,-0.8052294254302979,0.008705048821866512,0.3443146049976349,-0.1652095913887024,2.910094976425171,4.12109375,2,G1,6.1,270,0,0.435947462400326,[24700|0|0|0]
24700,0.7848556041717529,-0.8053418397903442,0.009018179960548878,0.35175085067749023,-0.16577112674713135,2.901876211166382,4.12109375,2,G1,6.1,270,0,0.43631333416919593,[24800|0|0|0]
24800,0.7843680381774902,-0.8047842383384705,0.008603015914559364,0.33923983573913574,-0.1534823626279831,2.934603214263916,4.12109375,2,G1,6.1,270,0,0.43716245204262427,[24900|0|0|0]
24900,0.7848238945007324,-0.8051124811172485,0.008923851884901524,0.34461313486099243,-0.16756126284599304,2.9026103019714355,4.12109375,2,G1,6.1,270,0,0.43780935545823224,[25000|0|0|0]
25000,0.7846595644950867,-0.8049709796905518,0.008882016874849796,0.3421567976474762,-0.1606283038854599,2.935805320739746,4.1171875,2,G1,6.1,270,0,0.43803021100509215,[25100|0|0|0]
25100,0.7846018075942993,-0.8050739169120789,0.008828341029584408,0.34689804911613464,-0.16328956186771393,2.951869010925293,4.12109375,2,G1,6.1,270,0,0.43815987606410667,[25200|0|0|0]
25200,0.7847719192504883,-0.8050635457038879,0.008621790446341038,0.34134483337402344,-0.1699775606393814,2.9550459384918213,4.12109375,2,G1,6.1,270,0,0.43842766083023216,[25300|0|0|0]
25300,0.7845966815948486,-0.8050011992454529,0.008758800104260445,0.33942365646362305,-0.16035519540309906,2.948625087738037,4.12109375,2,G1,6.1,270,0,0.43865867373722367,[25400|0|0|0]
25400,0.7848317623138428,-0.8049530982971191,0.00842233281582594,0.33708658814430237,-0.1702122688293457,2.9610562324523926,4.12109375,2,G1,6.1,270,0,0.439071937432532,[25500|0|0|0]
25500,0.7846196889877319,-0.8050509095191956,0.008656597696244717,0.3354427218437195,-0.16260552406311035,2.9558160305023193,4.12109375,2,G1,6.1,270,0,0.43940272764552113,[25600|0|0|0]
25600,0.7849085927009583,-0.8050581216812134,0.009062056429684162,0.3365836441516876,-0.1679958552122116,2.9400994777679443,4.12109375,2,G1,6.1,270,0,0.43990063743184715,[25700|0|0|0]
25700,0.7847583889961243,-0.8051692247390747,0.008720271289348602,0.33866849541664124,-0.16011933982372284,2.9228885173797607,4.12109375,2,G1,6.1,270,0,0.44029015267489446,[25800|0|0|0]
25800,0.7848461270332336,-0.8050518035888672,0.008783906698226929,0.33735713362693787,-0.16231150925159454,2.9414312839508057,4.12109375,2,G1,6.1,270,0,0.4404499499055807,[25900|0|0|0]
25900,0.7845948338508606,-0.8048267960548401,0.00885146576911211,0.3317800462245941,-0.15775330364704132,2.9262406826019287,4.1171875,2,G1,6.1,270,0,0.4407939570013432,[26000|0|0|0]
26000,0.7847952842712402,-0.8050196766853333,0.008963835425674915,0.3379526436328888,-0.16272470355033875,2.937873601913452,4.12109375,2,G1,6.1,270,0,0.4410939740814668,[26100|0|0|0]
26100,0.7848413586616516,-0.80506432056427,0.009151820093393326,0.33948302268981934,-0.16077052056789398,2.9084973335266113,4.12109375,2,G1,6.1,270,0,0.4412926047957974,[26200|0|0|0]
26200,0.7848582863807678,-0.8051982522010803,0.008457065559923649,0.3428269922733307,-0.1557747721672058,2.92301082611084,4.12109375,2,G1,6.1,270,0,0.4420003534042664,[26300|0|0|0]
26300,0.7850313782691956,-0.8048834800720215,0.009033581241965294,0.3348310589790344,-0.16298186779022217,2.924635410308838,4.12109375,2,G1,6.1,270,0,0.4426796270065149,[26400|0|0|0]
26400,0.7844319939613342,-0.8051460981369019,0.008783082477748394,0.34014904499053955,-0.13917897641658783,2.9160923957824707,4.12109375,2,G1,6.1,270,0,0.44338032624826285,[26500|0|0|0]
26500,0.7846547961235046,-0.8049444556236267,0.00881227571517229,0.3326581120491028,-0.14812231063842773,2.9038968086242676,4.1171875,2,G1,6.1,270,0,0.4436822413882261,[26600|0|0|0]
26600,0.7845427989959717,-0.8051309585571289,0.008604493923485279,0.3319346606731415,-0.15017257630825043,2.911421060562134,4.12109375,2,G1,6.1,270,0,0.4439830735237057,[26700|0|0|0]
26700,0.7848571538925171,-0.8051511645317078,0.008778911083936691,0.3304334878921509,-0.15580250322818756,2.9108128547668457,4.12109375,2,G1,6.1,270,0,0.4443431410566085,[26800|0|0|0]
26800,0.7848501205444336,-0.804948091506958,0.009042790159583092,0.3255622386932373,-0.15058381855487823,2.9141571521759033,4.12109375,2,G1,6.1,270,0,0.4446761880321694,[26900|0|0|0]
26900,0.7847581505775452,-0.8049706816673279,0.008894309401512146,0.3264768421649933,-0.14770174026489258,2.906989812850952,4.1171875,2,G1,6.1,270,0,0.44485229971739304,[27000|0|0|0]
27000,0.7848884463310242,-0.805126428604126,0.008846866898238659,0.3273152709007263,-0.15278580784797668,2.8940954208374023,4.12109375,2,G1,6.1,270,0,0.4450608300097093,[27100|0|0|0]
27100,0.7845893502235413,-0.8048616647720337,0.008776620030403137,0.3199092745780945,-0.1415228545665741,2.897696018218994,4.12109375,2,G1,6.1,270,0,0.4454664073645213,[27200|0|0|0]
27200,0.7847726941108704,-0.80502849817276,0.008619232103228569,0.3215678632259369,-0.14787952601909637,2.9295971393585205,4.12109375,2,G1,6.1,270,0,0.44576003863710506,[27300|0|0|0]
27300,0.7848255634307861,-0.8052171468734741,0.0087310541421175,0.3232596516609192,-0.1517861783504486,2.93056058883667,4.12109375,2,G1,6.1,270,0,0.4459856215833815,[27400|0|0|0]
27400,0.7849586009979248,-0.8049153685569763,0.008812645450234413,0.316618949174881,-0.15558429062366486,2.9592039585113525,4.1171875,2,G1,6.1,270,0,0.4463253660287204,[27500|0|0|0]
27500,0.784589409828186,-0.8048297762870789,0.00854765810072422,0.32134687900543213,-0.14716653525829315,2.9537274837493896,4.12109375,2,G1,6.1,270,0,0.4467878013775852,[27600|0|0|0]
27600,0.784827709197998,-0.80502849817276,0.008714834228157997,0.32619708776474,-0.15688806772232056,2.963702917098999,4.12109375,2,G1,6.1,270,0,0.4471402568146056,[27700|0|0|0]
27700,0.784978985786438,-0.8047471642494202,0.008954547345638275,0.31678685545921326,-0.16178208589553833,2.9491336345672607,4.12109375,2,G1,6.1,270,0,0.4475396260188815,[27800|0|0|0]
27800,0.7846693992614746,-0.8049106001853943,0.008706492371857166,0.32331228256225586,-0.15375810861587524,2.9559364318847656,4.12109375,2,G1,6.1,270,0,0.44796867891961073,[27900|0|0|0]
27900,0.784713089466095,-0.8049684166908264,0.009077145718038082,0.326945960521698,-0.15431341528892517,2.9409537315368652,4.12109375,2,G1,6.1,270,0,0.44834635005342327,[28000|0|0|0]
28000,0.7845649719238281,-0.8050559759140015,0.008803419768810272,0.3369673192501068,-0.15578719973564148,2.9486939907073975,4.1171875,2,G1,6.1,270,0,0.44866966308930467,[28100|0|0|0]
28100,0.7850179076194763,-0.8048237562179565,0.008923242799937725,0.34045466780662537,-0.17144615948200226,2.963968276977539,4.12109375,2,G1,6.1,270,0,0.4491925725369264,[28200|0|0|0]
28200,0.7846464514732361,-0.8051586747169495,0.00869469903409481,0.3545122742652893,-0.16225825250148773,2.967618227005005,4.12109375,2,G1,6.1,270,0,0.449742465546932,[28300|0|0|0]
28300,0.7844729423522949,-0.804940402507782,0.008709126152098179,0.35567283630371094,-0.15399543941020966,2.9636688232421875,4.1171875,2,G1,6.1,270,0,0.45002167212650795,[28400|0|0|0]
28400,0.7845898270606995,-0.8051779270172119,0.008820408023893833,0.35852932929992676,-0.15460766851902008,2.9478418827056885,4.1171875,2,G1,6.1,270,0,0.45030883685733175,[28500|0|0|0]
28500,0.7848480939865112,-0.8052252531051636,0.008942621760070324,0.35469505190849304,-0.15864695608615875,2.9447085857391357,4.12109375,2,G1,6.1,270,0,0.4505984534329611,[28600|0|0|0]
28600,0.7847525477409363,-0.805067777633667,0.00918420497328043,0.3471362590789795,-0.15560868382453918,2.9415090084075928,4.1171875,2,G1,6.1,270,0,0.45090224622101155,[28700|0|0|0]
28700,0.7848857045173645,-0.8051242828369141,0.00880048330873251,0.34853672981262207,-0.1590030938386917,2.943701982498169,4.12109375,2,G1,6.1,270,0,0.4513123265557585,[28800|0|0|0]
28800,0.784829318523407,-0.8052106499671936,0.008739880286157131,0.3491773307323456,-0.1568455994129181,2.924856424331665,4.12109375,2,G1,6.1,270,0,0.4514319567687173,[28900|0|0|0]
28900,0.7848530411720276,-0.8052189946174622,0.00879316683858633,0.34875816106796265,-0.14966386556625366,2.9318227767944336,4.1171875,2,G1,6.1,270,0,0.45149087920854686,[29000|0|0|0]
29000,0.785009503364563,-0.8053792715072632,0.00913894921541214,0.35728001594543457,-0.14734522998332977,2.88496732711792,4.12109375,2,G1,6.1,270,0,0.45190286774142197,[29100|0|0|0]
29100,0.7848127484321594,-0.8050962090492249,0.008972632698714733,0.3487420082092285,-0.14712688326835632,2.9620566368103027,4.12109375,2,G1,6.1,270,0,0.4522856183682042,[29200|0|0|0]
29200,0.7848933935165405,-0.8054481148719788,0.008685302920639515,0.3605845272541046,-0.14893531799316406,2.9545557498931885,4.1171875,2,G1,6.1,270,0,0.45274702896527763,[29300|0|0|0]
29300,0.7847338914871216,-0.8051960468292236,0.009158747270703316,0.35357534885406494,-0.14202244579792023,2.91251277923584,4.12109375,2,G1,6.1,270,0,0.45330660804652934,[29400|0|0|0]
29400,0.7848308086395264,-0.8051865696907043,0.008952613919973373,0.351959228515625,-0.15525303781032562,2.885575532913208,4.1171875,2,G1,6.1,270,0,0.45353458547714015,[29500|0|0|0]
29500,0.785027265548706,-0.8048588037490845,0.009101765230298042,0.3414720892906189,-0.16800862550735474,2.9226841926574707,4.1171875,2,G1,6.1,270,0,0.4539447951101596,[29600|0|0|0]
29600,0.784980297088623,-0.8051692247390747,0.009169299155473709,0.34931251406669617,-0.16641412675380707,2.8750147819519043,4.12109375,2,G1,6.1,270,0,0.4542659306863867,[29700|0|0|0]
29700,0.7846124172210693,-0.8049558997154236,0.008745446801185608,0.3390806317329407,-0.16195227205753326,2.8614983558654785,4.12109375,2,G1,6.1,270,0,0.4548663421960221,[29800|0|0|0]
29800,0.784631609916687,-0.8049666881561279,0.008893012069165707,0.33397579193115234,-0.16542759537696838,2.873025417327881,4.12109375,2,G1,6.1,270,0,0.45501554091696816,[29900|0|0|0]
29900,0.7844407558441162,-0.805055558681488,0.008600383065640926,0.33388933539390564,-0.16025680303573608,2.8743746280670166,4.1171875,2,G1,6.1,270,0,0.4553760336089864,[30000|0|0|0]
30000,0.7847126126289368,-0.8049919009208679,0.008547467179596424,0.33048251271247864,-0.1689419001340866,2.897491216659546,4.12109375,2,G1,6.1,270,0,0.4556602140321967,[30100|0|0|0]
30100,0.7848290801048279,-0.8051227331161499,0.008768470026552677,0.3315483033657074,-0.1753176599740982,2.894092559814453,4.12109375,2,G1,6.1,270,0,0.4559422140226675,[30200|0|0|0]
30200,0.7846848964691162,-0.8052976727485657,0.008791262283921242,0.3356209099292755,-0.1673298180103302,2.8839995861053467,4.12109375,2,G1,6.1,270,0,0.45617005669380867,[30300|0|0|0]
30300,0.784715473651886,-0.8050563335418701,0.008836657740175724,0.3246965706348419,-0.17312079668045044,2.872897148132324,4.12109375,2,G1,6.1,270,0,0.45641752451847106,[30400|0|0|0]
30400,0.7847684621810913,-0.8050945997238159,0.009018809534609318,0.3285427391529083,-0.17638161778450012,2.8833303451538086,4.1171875,2,G1,6.1,270,0,0.45661104805999364,[30500|0|0|0]
30500,0.7848049998283386,-0.8050690293312073,0.009267730638384819,0.3314095139503479,-0.18005193769931793,2.88897967338562,4.12109375,2,G1,6.1,270,0,0.4568639325406352,[30600|0|0|0]
30600,0.7850596904754639,-0.8052157759666443,0.008627389557659626,0.3333459794521332,-0.1885608583688736,2.8711941242218018,4.12109375,2,G1,6.1,270,0,0.4575685165316607,[30700|0|0|0]
30701,0.7851336002349854,-0.8050017952919006,0.008957142941653728,0.3323843479156494,-0.18630947172641754,2.8583312034606934,4.12109375,2,G1,6.1,270,0,0.4579685011263288,[30800|0|0|0]
30800,0.7848780751228333,-0.8050035238265991,0.00897938571870327,0.3328584134578705,-0.17621161043643951,2.841069221496582,4.12109375,2,G1,6.1,270,0,0.45822499832300634,[30900|0|0|0]
30901,0.784430742263794,-0.8049860000610352,0.008758125826716423,0.33160173892974854,-0.16254505515098572,2.834800958633423,4.12109375,2,G1,6.1,270,0,0.4587243676341758,[31000|0|0|0]
31001,0.7849385738372803,-0.8051443696022034,0.009021738544106483,0.33573392033576965,-0.17294493317604065,2.849091053009033,4.1171875,2,G1,6.1,270,0,0.4593180556695691,[31100|0|0|0]
31100,0.7848995327949524,-0.8050177097320557,0.009169007651507854,0.3349234163761139,-0.1687827855348587,2.874385118484497,4.12109375,2,G1,6.1,270,0,0.4595161847075385,[31200|0|0|0]
31201,0.784925103187561,-0.8051921725273132,0.008578131906688213,0.3428965210914612,-0.17566898465156555,2.896371603012085,4.12109375,2,G1,6.1,270,0,0.4601328087889069,[31300|0|0|0]
31301,0.7847862243652344,-0.8051047325134277,0.008594612590968609,0.33980998396873474,-0.1708400547504425,2.910181760787964,4.1171875,2,G1,6.1,270,0,0.46029774725098743,[31400|0|0|0]
31401,0.7846918106079102,-0.8051437139511108,0.008504570461809635,0.33886244893074036,-0.16634677350521088,2.908998489379883,4.12109375,2,G1,6.1,270,0,0.46043391294078995,[31500|0|0|0]
31500,0.7847400903701782,-0.805201530456543,0.008947881869971752,0.3367639183998108,-0.16591690480709076,2.9167652130126953,4.12109375,2,G1,6.1,270,0,0.4608835780254382,[31600|0|0|0]
31600,0.7846608757972717,-0.8049914240837097,0.00861018244177103,0.3270206153392792,-0.1702069640159607,2.9119606018066406,4.1171875,2,G1,6.1,270,0,0.4612891153730069,[31700|0|0|0]
31700,0.7845748066902161,-0.8049375414848328,0.008746055886149406,0.32696080207824707,-0.1623079925775528,2.9333178997039795,4.12109375,2,G1,6.1,270,0,0.46145874089743744,[31800|0|0|0]
31800,0.7849043011665344,-0.8051550984382629,0.008845639415085316,0.3300541043281555,-0.16903074085712433,2.9182424545288086,4.12109375,2,G1,6.1,270,0,0.4618659441846853,[31900|0|0|0]
31900,0.7846933603286743,-0.8049484491348267,0.008963252417743206,0.32810160517692566,-0.16663916409015656,2.9252312183380127,4.1171875,2,G1,6.1,270,0,0.462183800740512,[32000|0|0|0]
32000,0.7847573161125183,-0.8051794767379761,0.009038508869707584,0.3345276713371277,-0.17207908630371094,2.9130496978759766,4.12109375,2,G1,6.1,270,0,0.4624350528634211,[32100|0|0|0]
32100,0.7848052382469177,-0.805387556552887,0.008871669881045818,0.34198135137557983,-0.17353929579257965,2.9208152294158936,4.12109375,2,G1,6.1,270,0,0.4627060307010323,[32200|0|0|0]
32200,0.7848190665245056,-0.8051612973213196,0.008749746717512608,0.33850404620170593,-0.17357724905014038,2.913856029510498,4.12109375,2,G1,6.1,270,0,0.4629634209085703,[32300|0|0|0]
32300,0.7847696542739868,-0.8050881624221802,0.00886611733585596,0.3290495276451111,-0.16520456969738007,2.910290002822876,4.12109375,2,G1,6.1,270,0,0.46310947707854294,[32400|0|0|0]
32400,0.7847747206687927,-0.8050953149795532,0.008979050442576408,0.32847321033477783,-0.16746839880943298,2.9184703826904297,4.12109375,2,G1,6.1,270,0,0.46322274982030737,[32500|0|0|0]
