time.ms,stateEstimate.x,stateEstimate.y,stateEstimate.z,stabilizer.roll,stabilizer.pitch,stabilizer.yaw,pm.vbat,drone_id,node_name,wind_speed,global_wind_direction,relative_wind_direction,travel_dist,waiting_time
0,0.8031948804855347,1.2045509815216064,-0.0500224307179451,0.8621460795402527,0.5014957785606384,4.901904106140137,4.0703125,2,"['C1', 'F2', 'F1']",6.1,180,0,0.09003556004364441,[100|0|0]
100,0.8018057346343994,1.2033367156982422,-0.05113084614276886,0.8775014281272888,0.5400688052177429,4.873485565185547,4.0703125,2,"['C1', 'F2', 'F1']",6.1,180,0,0.09218794301131164,[200|0|0]
200,0.8019159436225891,1.2035741806030273,-0.051015619188547134,0.8839249014854431,0.5417124032974243,4.896974086761475,4.0703125,2,"['C1', 'F2', 'F1']",6.1,180,0,0.09247397247318863,[300|0|0]
300,0.8018029928207397,1.2032195329666138,-0.05132240802049637,0.9021404981613159,0.552126407623291,4.88812780380249,4.0703125,2,"['C1', 'F2', 'F1']",6.1,180,0,0.09295631282715139,[400|0|0]
400,0.8028870224952698,1.2043040990829468,-0.0498846173286438,0.877625048160553,0.5329115390777588,4.942913055419922,4.0703125,2,"['C1', 'F2', 'F1']",6.1,180,0,0.09505837040712803,[500|0|0]
500,0.8018335700035095,1.2031747102737427,-0.051148731261491776,0.8999883532524109,0.556546688079834,4.91597318649292,4.0703125,2,"['C1', 'F2', 'F1']",6.1,180,0,0.09705418233964365,[600|0|0]
600,0.802162766456604,1.2032743692398071,-0.05123255401849747,0.8845286965370178,0.5280789732933044,4.883937358856201,4.0703125,2,"['C1', 'F2', 'F1']",6.1,180,0,0.0974081999505602,[700|0|0]
700,0.8016660213470459,1.2035855054855347,-0.05116381123661995,0.8820212483406067,0.5497214794158936,4.871285438537598,4.0703125,2,"['C1', 'F2', 'F1']",6.1,180,0,0.0979983584354908,[800|0|0]
800,0.8016687035560608,1.2033027410507202,-0.05130169913172722,0.8933095335960388,0.5553339719772339,4.852409362792969,4.0703125,2,"['C1', 'F2', 'F1']",6.1,180,0,0.0983129629355512,[900|0|0]
900,0.8017957210540771,1.2034376859664917,-0.050993453711271286,0.8899191617965698,0.55104660987854,4.860186576843262,4.0703125,2,"['C1', 'F2', 'F1']",6.1,180,0,0.09867262779945503,[1000|0|0]
1000,0.801993191242218,1.2034574747085571,-0.05164085328578949,0.8917753100395203,0.547982394695282,4.86535120010376,4.0703125,2,"['C1', 'F2', 'F1']",6.1,180,0,0.0993497631467847,[1100|0|0]
1100,0.8017033934593201,1.2032649517059326,-0.05126430466771126,0.8954004049301147,0.5541927218437195,4.869228839874268,4.0703125,2,"['C1', 'F2', 'F1']",6.1,180,0,0.09986243918805127,[1200|0|0]
1201,0.8018891215324402,1.2036044597625732,-0.05130014196038246,0.891132652759552,0.5423414707183838,4.886275291442871,4.0703125,2,"['C1', 'F2', 'F1']",6.1,180,0,0.10025108420502023,[1300|0|0]
1301,0.801617443561554,1.2033342123031616,-0.05145065486431122,0.9013375639915466,0.5488264560699463,4.867976665496826,4.0703125,2,"['C1', 'F2', 'F1']",6.1,180,0,0.10066278402701723,[1400|0|0]
1400,0.8018133640289307,1.203414797782898,-0.05116143077611923,0.9094618558883667,0.5495373010635376,4.874484539031982,4.0703125,2,"['C1', 'F2', 'F1']",6.1,180,0,0.10102129403004632,[1500|0|0]
1500,0.8019271492958069,1.2037473917007446,-0.05139362812042236,0.8984993696212769,0.5576102137565613,4.882800102233887,4.0703125,2,"['C1', 'F2', 'F1']",6.1,180,0,0.10144257945330248,[1600|0|0]
1601,0.80190110206604,1.2033402919769287,-0.05142461881041527,0.9028732776641846,0.5637446045875549,4.883180141448975,4.0703125,2,"['C1', 'F2', 'F1']",6.1,180,0,0.10185168709949816,[1700|0|0]
1701,0.8015320897102356,1.2034146785736084,-0.051476605236530304,0.9082348346710205,0.5718404054641724,4.891021728515625,4.0703125,2,"['C1', 'F2', 'F1']",6.1,180,0,0.10223169509020644,[1800|0|0]
1801,0.8017352223396301,1.203046441078186,-0.05126368999481201,0.9141775369644165,0.5671776533126831,4.893327236175537,4.0703125,2,"['C1', 'F2', 'F1']",6.1,180,0,0.10270307033172388,[1900|0|0]
1901,0.8020822405815125,1.203277587890625,-0.05125056207180023,0.9032240509986877,0.5596513748168945,4.874075889587402,4.0703125,2,"['C1', 'F2', 'F1']",6.1,180,0,0.10312023079421091,[2000|0|0]
2001,0.801825761795044,1.2035117149353027,-0.05131916701793671,0.8723807334899902,0.5508588552474976,4.877377033233643,4.0703125,2,"['C1', 'F2', 'F1']",6.1,180,0,0.10347421310957748,[2100|0|0]
2102,0.801583468914032,1.203508973121643,-0.051330044865608215,0.8768181204795837,0.5646572709083557,4.879793167114258,4.0703125,2,"['C1', 'F2', 'F1']",6.1,180,0,0.10371676554782783,[2200|0|0]
2202,0.8016217947006226,1.2033590078353882,-0.051522064954042435,0.8933892250061035,0.5651533007621765,4.8959641456604,4.0703125,2,"['C1', 'F2', 'F1']",6.1,180,0,0.10396340327276378,[2300|0|0]
2301,0.8019521832466125,1.2033307552337646,-0.05118802934885025,0.9001742601394653,0.5564396381378174,4.879483699798584,4.0703125,2,"['C1', 'F2', 'F1']",6.1,180,0,0.10443407788048761,[2400|0|0]
2401,0.801503598690033,1.2033886909484863,-0.051365043967962265,0.9017590880393982,0.5746766924858093,4.894583702087402,4.0703125,2,"['C1', 'F2', 'F1']",6.1,180,0,0.10491979263919007,[2500|0|0]
2502,0.8020054697990417,1.2032240629196167,-0.05115901306271553,0.9053813219070435,0.5612301230430603,4.884777069091797,4.0703125,2,"['C1', 'F2', 'F1']",6.1,180,0,0.10548673684443782,[2600|0|0]
2602,0.801618218421936,1.2036218643188477,-0.05121875926852226,0.8734732270240784,0.5618594288825989,4.897222518920898,4.0703125,2,"['C1', 'F2', 'F1']",6.1,180,0,0.10604510875580933,[2700|0|0]
2702,0.8019015789031982,1.2031511068344116,-0.051437679678201675,0.8937636017799377,0.5590304732322693,4.915119647979736,4.0703125,2,"['C1', 'F2', 'F1']",6.1,180,0,0.10663657466122392,[2800|0|0]
2802,0.8019076585769653,1.2034658193588257,-0.05118008330464363,0.8776583075523376,0.5578421950340271,4.90031623840332,4.0703125,2,"['C1', 'F2', 'F1']",6.1,180,0,0.1070433139230692,[2900|0|0]
2902,0.8016793727874756,1.2037044763565063,-0.05133981630206108,0.872825562953949,0.5613399744033813,4.8897504806518555,4.0703125,2,"['C1', 'F2', 'F1']",6.1,180,0,0.10741017383460066,[3000|0|0]
3000,0.8020205497741699,1.2034515142440796,-0.05159786343574524,0.8884958624839783,0.5589036345481873,4.9021477699279785,4.0703125,2,"['C1', 'F2', 'F1']",6.1,180,0,0.10790714454779797,[3100|0|0]
3100,0.8016517162322998,1.2034578323364258,-0.051322467625141144,0.894836962223053,0.5749661922454834,4.919797420501709,4.0703125,2,"['C1', 'F2', 'F1']",6.1,180,0,0.1083674932769128,[3200|0|0]
3202,0.8017858266830444,1.2035101652145386,-0.05130327492952347,0.9064188599586487,0.5744170546531677,4.910894870758057,4.06640625,2,"['C1', 'F2', 'F1']",6.1,180,0,0.10851272654684627,[3300|0|0]
3300,0.8020233511924744,1.2031644582748413,-0.05134611576795578,0.9093706011772156,0.5736675262451172,4.915095329284668,4.0703125,2,"['C1', 'F2', 'F1']",6.1,180,0,0.10893435021574113,[3400|0|0]
3400,0.8015483021736145,1.2033295631408691,-0.05117408558726311,0.9035020470619202,0.5789786577224731,4.9322381019592285,4.0703125,2,"['C1', 'F2', 'F1']",6.1,180,0,0.10946588156023075,[3500|0|0]
3500,0.8017767667770386,1.203601598739624,-0.05126852169632912,0.8780160546302795,0.5544576048851013,4.931042671203613,4.0703125,2,"['C1', 'F2', 'F1']",6.1,180,0,0.10983346504830274,[3600|0|0]
3600,0.801934540271759,1.2035635709762573,-0.05112019181251526,0.8701325058937073,0.540316104888916,4.919787883758545,4.0703125,2,"['C1', 'F2', 'F1']",6.1,180,0,0.11005332941752889,[3700|0|0]
3700,0.8020119667053223,1.2035514116287231,-0.05123123526573181,0.8795479536056519,0.5447769165039062,4.925444602966309,4.0703125,2,"['C1', 'F2', 'F1']",6.1,180,0,0.1101892461230843,[3800|0|0]
3800,0.801705539226532,1.2033271789550781,-0.05122993886470795,0.8899094462394714,0.560684084892273,4.922146320343018,4.0703125,2,"['C1', 'F2', 'F1']",6.1,180,0,0.11056895623928266,[3900|0|0]
3900,0.8016259670257568,1.203354001045227,-0.051082365214824677,0.8964553475379944,0.5616542100906372,4.924918174743652,4.0703125,2,"['C1', 'F2', 'F1']",6.1,180,0,0.11073874770489865,[4000|0|0]
4000,0.8019452095031738,1.2033255100250244,-0.05115818232297897,0.9001343846321106,0.5466139316558838,4.9105401039123535,4.0703125,2,"['C1', 'F2', 'F1']",6.1,180,0,0.11106810424651944,[4100|0|0]
4100,2.1194677174207754e-05,3.5607827157946303e-05,3.6973506212234497e-07,-2.16569551412249e-05,5.246461296337657e-05,0.001131707918830216,4.0703125,2,"['C1', 'F2', 'F1']",6.1,180,0,1.5579979269175004,[4200|0|0]
4200,0.8025599718093872,1.2033724784851074,-0.05099361017346382,0.11044273525476456,0.007309822831302881,4.439925670623779,4.0703125,2,"['C1', 'F2', 'F1']",6.1,180,0,3.005301799320475,[4300|0|0]
4300,0.8023242354393005,1.2036666870117188,-0.05135975405573845,0.20307670533657074,0.35875922441482544,4.778591632843018,4.0703125,2,"['C1', 'F2', 'F1']",6.1,180,0,3.0058273386965824,[4400|0|0]
4400,0.8016838431358337,1.2034990787506104,-0.051195792853832245,0.40232202410697937,0.6135356426239014,4.890769004821777,4.0703125,2,"['C1', 'F2', 'F1']",6.1,180,0,3.00650930505005,[4500|0|0]
4500,0.802116870880127,1.2033748626708984,-0.05143389105796814,0.5577905774116516,0.6048821210861206,4.900942802429199,4.0703125,2,"['C1', 'F2', 'F1']",6.1,180,0,3.0070188474100155,[4600|0|0]
4600,0.8016476035118103,1.203552484512329,-0.051532622426748276,0.6379042863845825,0.66025310754776,4.898677349090576,4.0703125,2,"['C1', 'F2', 'F1']",6.1,180,0,3.0075302271756508,[4700|0|0]
4700,0.8015295267105103,1.2035274505615234,-0.051474712789058685,0.696419894695282,0.6524524092674255,4.898776531219482,4.0703125,2,"['C1', 'F2', 'F1']",6.1,180,0,3.007664101578863,[4800|0|0]
4800,0.801828145980835,1.2035434246063232,-0.05110355094075203,0.7125548720359802,0.6096139550209045,4.885022163391113,4.0703125,2,"['C1', 'F2', 'F1']",6.1,180,0,3.0081407458449094,[4900|0|0]
4900,0.8017774224281311,1.2033170461654663,-0.051259737461805344,0.7729774117469788,0.6150921583175659,4.868070125579834,4.0703125,2,"['C1', 'F2', 'F1']",6.1,180,0,3.008420414053046,[5000|0|0]
5000,0.8015100359916687,1.2036205530166626,-0.051698312163352966,0.8014673590660095,0.6205404996871948,4.85385799407959,4.0703125,2,"['C1', 'F2', 'F1']",6.1,180,0,3.0090170376227823,[5100|0|0]
5100,0.8019713163375854,1.2036609649658203,-0.05092019960284233,0.8102371692657471,0.5816972851753235,4.852778911590576,4.0703125,2,"['C1', 'F2', 'F1']",6.1,180,0,3.0099225053693024,[5200|0|0]
5200,0.8019669651985168,1.20353364944458,-0.05106985941529274,0.8326917290687561,0.577060878276825,4.84135627746582,4.0703125,2,"['C1', 'F2', 'F1']",6.1,180,0,3.010119040948327,[5300|0|0]
5300,0.8020222187042236,1.2033753395080566,-0.051220886409282684,0.8454203009605408,0.5772891640663147,4.832691669464111,4.0703125,2,"['C1', 'F2', 'F1']",6.1,180,0,3.0103447047221334,[5400|0|0]
5400,0.8020637631416321,1.2032440900802612,-0.05124150589108467,0.852612316608429,0.5827975273132324,4.827150821685791,4.0703125,2,"['C1', 'F2', 'F1']",6.1,180,0,3.0104839078672345,[5500|0|0]
5500,0.8020246624946594,1.2034324407577515,-0.05118614807724953,0.8633590936660767,0.5884760022163391,4.826828479766846,4.0703125,2,"['C1', 'F2', 'F1']",6.1,180,0,3.010684081106848,[5600|0|0]
5600,0.8018671274185181,1.203462839126587,-0.052000656723976135,0.871839702129364,0.5958192348480225,4.852391719818115,4.0703125,2,"['C1', 'F2', 'F1']",6.1,180,0,3.011514241149632,[5700|0|0]
5700,0.8019267916679382,1.2033920288085938,-0.0512210875749588,0.8883164525032043,0.5850960612297058,4.843452453613281,4.0703125,2,"['C1', 'F2', 'F1']",6.1,180,0,3.0122992901811534,[5800|0|0]
5800,0.8016223311424255,1.2034099102020264,-0.05142679810523987,0.8781598806381226,0.5734478831291199,4.848766326904297,4.0703125,2,"['C1', 'F2', 'F1']",6.1,180,0,3.0126671662174687,[5900|0|0]
5900,0.8018748760223389,1.2037255764007568,-0.051384784281253815,0.8830953240394592,0.5691767334938049,4.872924327850342,4.0703125,2,"['C1', 'F2', 'F1']",6.1,180,0,3.0130736009930446,[6000|0|0]
6000,0.8019733428955078,1.2032073736190796,-0.05131283029913902,0.9012112021446228,0.5714855194091797,4.865639686584473,4.0703125,2,"['C1', 'F2', 'F1']",6.1,180,0,3.0136059610437544,[6100|0|0]
6100,0.8018813133239746,1.2035280466079712,-0.051343731582164764,0.9004738330841064,0.5668770670890808,4.858076095581055,4.0703125,2,"['C1', 'F2', 'F1']",6.1,180,0,3.0139410065587726,[6200|0|0]
6200,0.801663339138031,1.2037384510040283,-0.051412779837846756,0.8967382907867432,0.5720750689506531,4.860747337341309,4.0703125,2,"['E1B', 'F2', 'G1']",6.1,180,0,3.0142517321889204,[6200|0|0]
6300,0.8018856048583984,1.2032322883605957,-0.051275577396154404,0.9315961599349976,0.6511197686195374,5.059869766235352,3.029296875,2,"['E1B', 'F2', 'G1']",6.1,180,0,3.01482131728534,[6200|0|0]
6400,0.8022207617759705,1.202939748764038,-0.04401535168290138,1.75370454788208,-0.6318590641021729,5.414628028869629,3.388671875,2,"['E1B', 'F2', 'G1']",6.1,180,0,3.0220951599412085,[6200|0|0]
6500,0.8084825873374939,1.202467679977417,-0.0012919814325869083,1.3879306316375732,-2.1786839962005615,3.7964487075805664,3.5625,2,"['E1B', 'F2', 'G1']",6.1,180,0,3.065277559988539,[6200|0|0]
6600,0.8211004734039307,1.204019546508789,0.06667544692754745,2.067230224609375,-0.34245845675468445,1.6051671504974365,3.60546875,2,"['E1B', 'F2', 'G1']",6.1,180,0,3.134423714302476,[6200|0|0]
6700,0.8355235457420349,1.2085942029953003,0.14665402472019196,2.5377438068389893,2.7219417095184326,-0.15460051596164703,3.62109375,2,"['E1B', 'F2', 'G1']",6.1,180,0,3.2158210447462556,[6200|0|0]
6800,0.8450756669044495,1.2168232202529907,0.2381046861410141,2.2784969806671143,3.0652904510498047,-1.4625834226608276,3.62109375,2,"['E1B', 'F2', 'G1']",6.1,180,0,3.3081367163195843,[6200|0|0]
6900,0.8502033352851868,1.2209782600402832,0.3145425021648407,3.512916326522827,3.5631144046783447,-1.8495408296585083,3.611328125,2,"['E1B', 'F2', 'G1']",6.1,180,0,3.3848589233860467,[6200|0|0]
7000,0.8500680327415466,1.2226003408432007,0.3988090753555298,3.2513785362243652,2.6118597984313965,-2.4689722061157227,3.59375,2,"['E1B', 'F2', 'G1']",6.1,180,0,3.469141215774254,[6200|0|0]
7100,0.8482159376144409,1.216545820236206,0.48957982659339905,2.8561887741088867,1.2899826765060425,-2.511760950088501,3.59375,2,"['E1B', 'F2', 'G1']",6.1,180,0,3.560132516217909,[6200|0|0]
7200,0.841951847076416,1.2109601497650146,0.5796757936477661,2.623594045639038,0.6144225597381592,-2.076479911804199,3.59375,2,"['E1B', 'F2', 'G1']",6.1,180,0,3.650618547318532,[6200|0|0]
7300,0.8348582983016968,1.2025861740112305,0.6734936237335205,2.9222519397735596,-0.41699400544166565,-1.7713384628295898,3.60546875,2,"['E1B', 'F2', 'G1']",6.1,180,0,3.7450760888181063,[6200|0|0]
7400,0.8281054496765137,1.1895703077316284,0.7707617282867432,2.304659843444824,-0.00783601962029934,-2.3074464797973633,3.60546875,2,"['E1B', 'F2', 'G1']",6.1,180,0,3.8434432474786053,[6200|0|0]
7500,0.8223409652709961,1.1726300716400146,0.8677955865859985,0.5985172986984253,-0.9327302575111389,-2.643317461013794,3.599609375,2,"['E1B', 'F2', 'G1']",6.1,180,0,3.9421132557675533,[6200|0|0]
7600,0.8177797198295593,1.1544091701507568,0.966160774230957,-0.9473024606704712,-0.8099455237388611,-2.2103307247161865,3.59375,2,"['E1B', 'F2', 'G1']",6.1,180,0,4.04225573602187,[6200|0|0]
7700,0.8154382705688477,1.1379616260528564,1.063793420791626,-1.9099475145339966,-0.6783233880996704,-1.8212655782699585,3.58984375,2,"['E1B', 'F2', 'G1']",6.1,180,0,4.141291778783752,[6200|0|0]
7800,0.814034640789032,1.126961588859558,1.1636158227920532,-2.321397066116333,-0.5651555061340332,-1.1184344291687012,3.599609375,2,"['E1B', 'F2', 'G1']",6.1,180,0,4.241728240967301,[6200|0|0]
7900,0.8150424957275391,1.1177889108657837,1.2640395164489746,-2.485602617263794,0.10092739760875702,-0.46527427434921265,3.59375,2,"['E1B', 'F2', 'G1']",6.1,180,0,4.342575016031523,[6200|0|0]
8000,0.8169782161712646,1.1131051778793335,1.3644219636917114,-1.9487888813018799,0.1311783343553543,-0.38677722215652466,3.578125,2,"['E1B', 'F2', 'G1']",6.1,180,0,4.443085314423108,[6200|0|0]
8100,0.8183084726333618,1.1108890771865845,1.466416835784912,-1.4315954446792603,0.5293285250663757,-0.5655956864356995,3.58984375,2,"['E1B', 'F2', 'G1']",6.1,180,0,4.54511293136011,[6200|0|0]
8200,0.8196634650230408,1.1104763746261597,1.5710079669952393,-0.6229032874107361,0.535232424736023,-0.6000626683235168,3.59375,2,"['E1B', 'F2', 'G1']",6.1,180,0,4.649713653420885,[6200|0|0]
8300,0.8197107315063477,1.1105839014053345,1.67543625831604,-0.07100680470466614,0.3493489921092987,-0.9327853322029114,3.6640625,2,"['E1B', 'F2', 'G1']",6.1,180,0,4.754142010797177,[6200|0|0]
8400,0.8204185366630554,1.1109105348587036,1.7729840278625488,0.5543329119682312,0.1475057303905487,-0.8673660159111023,3.701171875,2,"['E1B', 'F2', 'G1']",6.1,180,0,4.851692895063039,[6200|0|0]
8500,0.8199760317802429,1.1105316877365112,1.854641318321228,1.0454822778701782,0.32018035650253296,-0.2771574556827545,3.705078125,2,"['E1B', 'F2', 'G1']",6.1,180,0,4.9333522632994296,[6200|0|0]
8600,0.8184446692466736,1.1067001819610596,1.9178951978683472,0.7674766182899475,0.2516959309577942,1.7562981843948364,3.6953125,2,"['E1B', 'F2', 'G1']",6.1,180,0,4.9967405807205285,[6200|0|0]
8700,0.8151860237121582,1.1014543771743774,1.9602527618408203,0.21993409097194672,-0.30863991379737854,8.183503150939941,3.673828125,2,"['E1B', 'F2', 'G1']",6.1,180,0,5.039545959637923,[6200|0|0]
8800,0.8143637180328369,1.0949110984802246,1.9873032569885254,-0.30459195375442505,-0.8251152038574219,7.583548545837402,3.65234375,2,"['E1B', 'F2', 'G1']",6.1,180,0,5.067388731957425,[6200|0|0]
8900,0.8148833513259888,1.0851646661758423,2.001974582672119,-0.7024100422859192,-0.5973964333534241,2.587442398071289,3.615234375,2,"['E1B', 'F2', 'G1']",6.1,180,0,5.085010047423,[6200|0|0]
9000,0.8153194785118103,1.0775994062423706,2.009800434112549,-1.2495079040527344,-0.012906569056212902,-1.949678897857666,3.630859375,2,"['E1B', 'F2', 'G1']",6.1,180,0,5.0959035002985065,[6200|0|0]
9100,0.8158055543899536,1.0679765939712524,2.002707004547119,-1.9719350337982178,0.06283116340637207,-3.2888147830963135,3.59375,2,"['E1B', 'F2', 'G1']",6.1,180,0,5.107868095100012,[6200|0|0]
9200,0.8192768692970276,1.0612187385559082,2.0083816051483154,-2.3842170238494873,0.15828244388103485,-1.9455171823501587,3.583984375,2,"['E1B', 'F2', 'G1']",6.1,180,279.34467190209966,5.117350696482643,[6200|0|0]
9300,0.8245104551315308,1.0550180673599243,1.9919649362564087,5.138500690460205,2.544100761413574,1.1703529357910156,3.6484375,2,"['E1B', 'F2', 'G1']",6.1,180,279.34467190209966,5.13566314474808,[6200|0|0]
9400,0.8234947919845581,1.0388113260269165,1.9737772941589355,14.168920516967773,5.4474053382873535,-1.1826390027999878,3.615234375,2,"['E1B', 'F2', 'G1']",6.1,180,279.34467190209966,5.160045112702471,[6200|0|0]
9500,0.8131574392318726,1.0044113397598267,1.9475278854370117,17.86989974975586,4.643199443817139,-3.3492023944854736,3.568359375,2,"['E1B', 'F2', 'G1']",6.1,180,279.34467190209966,5.204533890785938,[6200|0|0]
9600,0.7895710468292236,0.9460507035255432,1.918088436126709,15.481413841247559,3.3345787525177,-3.8367295265197754,3.546875,2,"['E1B', 'F2', 'G1']",6.1,180,279.34467190209966,5.274024630772903,[6200|0|0]
9700,0.7590922117233276,0.8586917519569397,1.8917534351348877,10.483125686645508,-1.026095986366272,-7.617144584655762,3.552734375,2,"['E1B', 'F2', 'G1']",6.1,180,279.34467190209966,5.370222749703666,[6200|0|0]
9800,0.7246314287185669,0.7688927054405212,1.871468424797058,2.715886354446411,-3.5958523750305176,-7.421927452087402,3.552734375,2,"['E1B', 'F2', 'G1']",6.1,180,279.34467190209966,5.468522780044276,[6200|0|0]
9900,0.69650799036026,0.6639075875282288,1.8584681749343872,-2.1199047565460205,-3.620875120162964,-8.011083602905273,3.55859375,2,"['E1B', 'F2', 'G1']",6.1,180,279.34467190209966,5.577984231088209,[6200|0|0]
10000,0.6750674843788147,0.5755378007888794,1.8492505550384521,-6.783164978027344,-4.434243202209473,-3.50346302986145,3.568359375,2,"['E1B', 'F2', 'G1']",6.1,180,279.34467190209966,5.669383788098319,[6200|0|0]
10100,0.6630894541740417,0.4994782507419586,1.8434094190597534,-7.993195056915283,-3.051025629043579,3.135246515274048,3.57421875,2,"['E1B', 'F2', 'G1']",6.1,180,279.34467190209966,5.746601967502189,[6200|0|0]
10200,0.6576091051101685,0.4396621286869049,1.8337600231170654,-8.523921012878418,-2.2440545558929443,5.902284622192383,3.5625,2,"['E1B', 'F2', 'G1']",6.1,180,279.34467190209966,5.80743874524087,[6200|0|0]
10300,0.649978756904602,0.3998919129371643,1.8278863430023193,-8.03498363494873,-0.9742967486381531,0.9361183643341064,3.568359375,2,"['E1B', 'F2', 'G1']",6.1,180,279.34467190209966,5.848358085321197,[6200|0|0]
10400,0.6425800919532776,0.3754226863384247,1.825481653213501,-6.077792167663574,-0.777289092540741,-4.258612155914307,3.578125,2,"['E1B', 'F2', 'G1']",6.1,180,279.34467190209966,5.874034257668003,[6200|0|0]
10500,0.6379731297492981,0.3602769076824188,1.8217089176177979,-4.232432842254639,-1.37389075756073,-5.829894065856934,3.5625,2,"['E1B', 'F2', 'G1']",6.1,180,279.34467190209966,5.8903085393947245,[6200|0|0]
10600,0.6375583410263062,0.35123831033706665,1.8193882703781128,-2.764406681060791,-1.3920135498046875,-5.6762213706970215,3.578125,2,"['E1B', 'F2', 'G1']",6.1,180,279.34467190209966,5.8996495080418825,[6200|0|0]
10700,0.6392019987106323,0.34190258383750916,1.8176580667495728,-1.4582244157791138,-1.1910992860794067,-4.5019097328186035,3.583984375,2,"['E1B', 'F2', 'G1']",6.1,180,279.34467190209966,5.909285430647113,[6200|0|0]
10800,0.6402488350868225,0.3334544897079468,1.8134912252426147,-0.9435306191444397,-0.7756945490837097,-3.2454569339752197,3.57421875,2,"['E1B', 'F2', 'G1']",6.1,180,279.34467190209966,5.91876323255286,[6200|0|0]
10900,0.6401628851890564,0.3275652527809143,1.8092936277389526,-1.172482967376709,-0.5861177444458008,-2.4719395637512207,3.57421875,2,"['E1B', 'F2', 'G1']",6.1,180,279.34467190209966,5.9259958201790415,[6200|0|0]
11000,0.6394760012626648,0.32278546690940857,1.803735613822937,-1.301586389541626,-0.5775559544563293,-1.9663965702056885,3.583984375,2,"['E1B', 'F2', 'G1']",6.1,180,279.34467190209966,5.9333585425829085,[6200|0|0]
11100,0.6370466351509094,0.3190574645996094,1.7965631484985352,-1.4409821033477783,-0.6701512932777405,-1.9417951107025146,3.568359375,2,"['E1B', 'F2', 'G1']",6.1,180,279.34467190209966,5.941799163398735,[6200|0|0]
11200,0.635585367679596,0.3181752562522888,1.791548252105713,-1.5710325241088867,-1.034474492073059,-2.0816707611083984,3.5625,2,"['E1B', 'F2', 'G1']",6.1,180,279.34467190209966,5.947096594853841,[6200|0|0]
11300,0.6338884234428406,0.3191261291503906,1.7849748134613037,-1.4244451522827148,-1.1993012428283691,-2.172163248062134,3.568359375,2,"['E1B', 'F2', 'G1']",6.1,180,279.34467190209966,5.95395180270064,[6200|0|0]
11400,0.632564902305603,0.32300126552581787,1.779006838798523,-1.2439100742340088,-1.0917489528656006,-2.4513022899627686,3.568359375,2,"['E1B', 'F2', 'G1']",6.1,180,279.34467190209966,5.961189558686059,[6200|0|0]
11500,0.6324020624160767,0.3260093927383423,1.7721954584121704,-0.7218529582023621,-1.0462898015975952,-1.5704727172851562,3.5625,2,"['E1B', 'F2', 'G1']",6.1,180,279.34467190209966,5.968637393869785,[6200|0|0]
11600,0.6337717771530151,0.33134618401527405,1.7668845653533936,-0.20853808522224426,-0.9163285493850708,1.3428913354873657,3.568359375,2,"['E1B', 'F2', 'G1']",6.1,180,279.34467190209966,5.97629004338978,[6200|0|0]
11700,0.6366696953773499,0.3372974395751953,1.7615090608596802,0.1952034831047058,-0.7040379047393799,1.7304755449295044,3.5625,2,"['E1B', 'F2', 'G1']",6.1,180,279.34467190209966,5.984817142623187,[6200|0|0]
11800,0.6403070688247681,0.34189391136169434,1.756098747253418,0.40265288949012756,-0.8416807055473328,-1.9954136610031128,3.568359375,2,"['E1B', 'F2', 'G1']",6.1,180,279.34467190209966,5.992793954755747,[6200|0|0]
11900,0.6446581482887268,0.3439704179763794,1.749204397201538,0.4774476885795593,-0.3956466317176819,-3.825500011444092,3.5625,2,"['E1B', 'F2', 'G1']",6.1,180,279.34467190209966,6.001206792259252,[6200|0|0]
12000,0.6505614519119263,0.34716475009918213,1.744386076927185,0.3119965195655823,-0.030741551890969276,-4.387692451477051,3.5625,2,"['E1B', 'F2', 'G1']",6.1,180,279.34467190209966,6.009469295611426,[6200|0|0]
12100,0.6548680663108826,0.3485811650753021,1.7397387027740479,0.07710344344377518,0.1251181960105896,-4.421574592590332,3.5625,2,"['E1B', 'F2', 'G1']",6.1,180,279.34467190209966,6.0159616946661,[6200|0|0]
12200,0.6590123176574707,0.35087311267852783,1.7341697216033936,0.06260893493890762,-0.02499014511704445,-3.9156713485717773,3.5625,2,"['E1B', 'F2', 'G1']",6.1,180,279.34467190209966,6.023272056785634,[6200|0|0]
12300,0.6639230251312256,0.3512653708457947,1.7257544994354248,0.11426844447851181,0.1896280199289322,-3.557861089706421,3.826171875,2,"['E1B', 'F2', 'G1']",6.1,180,0,6.033023204333428,[6200|0|0]
12400,0.6678014993667603,0.35205069184303284,1.6908379793167114,-1.0237313508987427,-0.1830137073993683,0.21947957575321198,3.763671875,2,"['E1B', 'F2', 'G1']",6.1,180,0,6.068163247996818,[6200|0|0]
12500,0.6692278385162354,0.3553521931171417,1.616204857826233,-0.6921967267990112,-0.6235491037368774,4.393800258636475,3.658203125,2,"['E1B', 'F2', 'G1']",6.1,180,0,6.142882972149446,[6200|0|0]
12600,0.6722987294197083,0.3611758053302765,1.5129505395889282,0.12868240475654602,-0.632413387298584,-0.4473406970500946,3.578125,2,"['E1B', 'F2', 'G1']",6.1,180,0,6.2463469710321515,[6200|0|0]
12700,0.674983561038971,0.36520788073539734,1.393345594406128,0.031666018068790436,0.33759137988090515,-0.5541905760765076,3.546875,2,"['E1B', 'F2', 'G1']",6.1,180,0,6.366049973772588,[6200|0|0]
12800,0.6826252341270447,0.36750635504722595,1.259888768196106,0.7962523102760315,0.07628682255744934,-0.4567567706108093,3.541015625,2,"['E1B', 'F2', 'G1']",6.1,180,0,6.49974515922741,[6200|0|0]
12900,0.6881415247917175,0.37041282653808594,1.138374924659729,0.7141112685203552,0.23703207075595856,-4.44474983215332,3.5625,2,"['E1B', 'F2', 'G1']",6.1,180,0,6.621418867193459,[6200|0|0]
13000,0.694643497467041,0.37404096126556396,1.01741361618042,0.29215773940086365,0.7229187488555908,-6.716952800750732,3.55859375,2,"['E1B', 'F2', 'G1']",6.1,180,0,6.742609119108775,[6200|0|0]
13100,0.700538694858551,0.3767392933368683,0.8965386748313904,0.9723193049430847,0.23565371334552765,-8.693591117858887,3.5625,2,"['E1B', 'F2', 'G1']",6.1,180,0,6.863657810941373,[6200|0|0]
13200,0.7061282992362976,0.37901201844215393,0.7772068381309509,1.5125764608383179,2.3630175590515137,-9.81347942352295,3.55859375,2,"['E1B', 'F2', 'G1']",6.1,180,0,6.983142103661396,[6200|0|0]
13300,0.7099248766899109,0.3795124292373657,0.6589264869689941,2.030564069747925,1.9197101593017578,-10.010930061340332,3.55859375,2,"['E1B', 'F2', 'G1']",6.1,180,0,7.101484428644138,[6200|0|0]
13400,0.7107775211334229,0.3781455457210541,0.5393378734588623,2.937499523162842,1.0528453588485718,-7.947274684906006,3.552734375,2,"['E1B', 'F2', 'G1']",6.1,180,0,7.2210838929170595,[6200|0|0]
13500,0.7101165652275085,0.3738877475261688,0.4193911850452423,-0.7301954030990601,1.3295074701309204,-3.9843249320983887,3.484375,2,"['E1B', 'F2', 'G1']",6.1,180,0,7.341107947879271,[6200|0|0]
13600,0.7059248685836792,0.37132230401039124,0.3051651418209076,0.4850737750530243,0.06834252923727036,-0.05849184840917587,3.431640625,2,"['E1B', 'F2', 'G1']",6.1,180,0,7.455439661641788,[6200|0|0]
13700,0.7015751004219055,0.3717357814311981,0.20416869223117828,-1.758941888809204,-0.6156938672065735,1.7531824111938477,3.41015625,2,"['E1B', 'F2', 'G1']",6.1,180,0,7.556530582482234,[6200|0|0]
13800,0.698232114315033,0.375605046749115,0.12164832651615143,1.6463851928710938,-0.4621836245059967,0.5936997532844543,3.416015625,2,"['E1B', 'F2', 'G1']",6.1,180,0,7.6392092225772,[6200|0|0]
13900,0.6966040730476379,0.37687936425209045,0.06136634573340416,1.7625317573547363,-1.0794694423675537,-1.7655400037765503,3.447265625,2,"['E1B', 'F2', 'G1']",6.1,180,0,7.699526646349757,[6200|0|0]
14000,0.6967511773109436,0.37389063835144043,0.021390506997704506,1.9925940036773682,-0.25866997241973877,-3.191586971282959,3.45703125,2,"['E1B', 'F2', 'G1']",6.1,180,0,7.739614322820166,[6200|0|0]
14100,0.6957533359527588,0.36785170435905457,0.0017409315332770348,2.3182477951049805,2.3194680213928223,-2.4569194316864014,3.48828125,2,"['E1B', 'F2', 'G1']",6.1,180,0,7.760195144647117,[6200|0|0]
14200,0.693817675113678,0.35649940371513367,0.004255136474967003,1.38443124294281,0.8143842816352844,-0.7556557655334473,3.546875,2,"['E1B', 'F2', 'G1']",6.1,180,0,7.771982542124199,[6200|0|0]
14300,0.6911050081253052,0.3423990309238434,0.018983513116836548,0.7394988536834717,1.1946018934249878,0.3902312219142914,3.583984375,2,"['E1B', 'F2', 'G1']",6.1,180,0,7.792552037828954,[6200|0|0]
14400,0.6874882578849792,0.32685786485671997,0.034410510212183,0.08503387868404388,1.7360786199569702,0.3834085762500763,3.58984375,2,"['E1B', 'F2', 'G1']",6.1,180,0,7.814746653491466,[6200|0|0]
14500,0.679779589176178,0.3111017942428589,0.044357169419527054,-1.172239065170288,-0.5726713538169861,0.7448504567146301,3.57421875,2,"['E1B', 'F2', 'G1']",6.1,180,0,7.83491130979496,[6200|0|0]
14600,0.6730931997299194,0.2980899512767792,0.04831305146217346,-1.9499478340148926,-0.8571727275848389,2.0502514839172363,3.552734375,2,"['E1B', 'F2', 'G1']",6.1,180,0,7.85006600754636,[6200|0|0]
14700,0.6683511734008789,0.2881788909435272,0.048586614429950714,-2.3064310550689697,-2.226720094680786,1.5450316667556763,3.541015625,2,"['E1B', 'F2', 'G1']",6.1,180,0,7.861056492855572,[6200|0|0]
14800,0.6663130521774292,0.2826884388923645,0.04669787362217903,-3.3403749465942383,-2.564732789993286,1.0903657674789429,3.541015625,2,"['E1B', 'F2', 'G1']",6.1,180,0,7.867210056350534,[6200|0|0]
14900,0.6669121384620667,0.2827012240886688,0.04472125321626663,-1.6502766609191895,-0.4136611819267273,1.187231421470642,3.541015625,2,"['E1B', 'F2', 'G1']",6.1,180,0,7.8692755093436455,[6200|0|0]
15000,0.667922854423523,0.2859743535518646,0.04027624428272247,-1.181867003440857,-0.34970128536224365,1.6964823007583618,3.525390625,2,"['E1B', 'F2', 'G1']",6.1,180,0,7.874887374243737,[6200|0|0]
15100,0.6692212820053101,0.2902505099773407,0.03470871224999428,-0.2192133665084839,-1.3731874227523804,1.4398611783981323,3.525390625,2,"['E1B', 'F2', 'G1']",6.1,180,0,7.882026620765306,[6200|0|0]
15200,0.6727206110954285,0.2945803999900818,0.03468778729438782,-0.18545684218406677,-0.46415039896965027,-0.7494989037513733,3.541015625,2,"['E1B', 'F2', 'G1']",6.1,180,0,7.887593818395815,[6200|0|0]
15300,0.6776700019836426,0.30084070563316345,0.035981807857751846,-0.7273328900337219,-0.15968695282936096,-2.6202685832977295,3.541015625,2,"['A1', 'F2', 'J1']",6.1,180,0,7.895678519140279,[6200|100|0]
15400,0.6827068328857422,0.3083641827106476,0.03765115514397621,0.6071057319641113,0.8149227499961853,-2.6146016120910645,3.546875,2,"['A1', 'F2', 'J1']",6.1,180,0,7.9048849893234605,[6200|200|0]
15500,0.6872646808624268,0.31705600023269653,0.039508573710918427,0.8600495457649231,0.4200645685195923,-1.5877084732055664,3.537109375,2,"['A1', 'F2', 'J1']",6.1,180,0,7.9148735664868,[6200|300|0]
15600,0.692490816116333,0.32416728138923645,0.04300609976053238,1.1759834289550781,0.45308026671409607,-0.37921273708343506,3.541015625,2,"['A1', 'F2', 'J1']",6.1,180,0,7.924366484786628,[6200|400|0]
15700,0.6975988149642944,0.3295024037361145,0.046434707939624786,1.392756462097168,0.9192027449607849,0.18782782554626465,3.541015625,2,"['A1', 'F2', 'J1']",6.1,180,0,7.932509612977481,[6200|500|0]
15800,0.7010096311569214,0.33461955189704895,0.04872037097811699,0.7596683502197266,0.6856962442398071,1.14187490940094,3.537109375,2,"['A1', 'F2', 'J1']",6.1,180,0,7.939070339151188,[6200|600|0]
15900,0.7040985822677612,0.33932456374168396,0.05053301155567169,-0.8604492545127869,0.524336040019989,1.8235282897949219,3.53125,2,"['A1', 'F2', 'J1']",6.1,180,0,7.94498341121964,[6200|700|0]
16000,0.7075580954551697,0.3459770679473877,0.050567951053380966,-0.44688159227371216,-0.533912718296051,1.6945371627807617,3.521484375,2,"['A1', 'F2', 'J1']",6.1,180,0,7.95248176200293,[6200|800|0]
16100,0.7121568918228149,0.354240357875824,0.050126589834690094,0.221767857670784,-0.03352479264140129,1.7604857683181763,3.521484375,2,"['A1', 'F2', 'J1']",6.1,180,0,7.961948846464253,[6200|900|0]
16200,0.7181100845336914,0.3633578419685364,0.05203474685549736,-1.1466196775436401,-0.40441811084747314,2.020918607711792,3.525390625,2,"['A1', 'F2', 'J1']",6.1,180,0,7.973003713394694,[6200|1000|0]
16300,0.7249332070350647,0.3745136260986328,0.05459611862897873,-0.1620122641324997,0.615084707736969,1.842180848121643,3.53125,2,"['A1', 'F2', 'J1']",6.1,180,0,7.986329145679916,[6200|1100|0]
16400,0.7315541505813599,0.38820186257362366,0.05539211630821228,-0.442816823720932,-0.1430601328611374,1.9273825883865356,3.53125,2,"['A1', 'F2', 'J1']",6.1,180,0,8.001555383677,[6200|1200|0]
16500,0.7399714589118958,0.40429040789604187,0.05538580194115639,-0.01376122422516346,-0.6714650988578796,1.497298240661621,3.515625,2,"['A1', 'F2', 'J1']",6.1,180,0,8.019712817691586,[6200|1300|0]
16600,0.7491092681884766,0.42037269473075867,0.053757455199956894,0.3426862359046936,-0.7393867373466492,1.335326075553894,3.509765625,2,"['A1', 'F2', 'J1']",6.1,180,0,8.038281366943448,[6200|1400|0]
16700,0.7593608498573303,0.43580877780914307,0.05452345684170723,-0.2557390630245209,-1.3065638542175293,1.1571471691131592,3.521484375,2,"['A1', 'F2', 'J1']",6.1,180,0,8.056827373145083,[6200|1500|0]
16800,0.7724931836128235,0.45491987466812134,0.05755893513560295,-0.658991813659668,-0.10517857223749161,0.7557107210159302,3.509765625,2,"['A1', 'F2', 'J1']",6.1,180,0,8.080213401912097,[6200|1600|0]
16900,0.7798616886138916,0.46634843945503235,0.05628370866179466,0.9415249824523926,0.12089846283197403,0.5811228156089783,3.515625,2,"['A1', 'F2', 'J1']",6.1,180,0,8.093871116274277,[6200|1700|0]
17000,0.7887452840805054,0.47988927364349365,0.05917039141058922,0.741234302520752,0.8512036204338074,1.212162733078003,3.525390625,2,"['A1', 'F2', 'J1']",6.1,180,0,8.110321204305228,[6200|1800|0]
17100,0.7953739166259766,0.49170541763305664,0.0635606124997139,1.2337690591812134,0.9967820644378662,2.451672077178955,3.521484375,2,"['A1', 'F2', 'J1']",6.1,180,0,8.124563186941657,[6200|1900|0]
17200,0.8039528727531433,0.5067530870437622,0.06809763610363007,0.8405218720436096,0.22073383629322052,3.5219147205352783,3.9375,2,"['A1', 'F2', 'J1']",6.1,180,0,8.142468924181665,[6200|2000|0]
17300,0.8070215582847595,0.5144299864768982,0.03462003171443939,0.09475657343864441,-2.9932613372802734,4.4562296867370605,3.943359375,2,"['A1', 'F2', 'J1']",6.1,180,0,8.176952276852738,[6200|2100|0]
17400,0.8077437877655029,0.5159221887588501,-0.029941357672214508,-5.740897178649902,-2.726402997970581,-3.1475372314453125,3.94921875,2,"['A1', 'F2', 'J1']",6.1,180,0,8.241534946994257,[6200|2200|0]
17500,0.8138120770454407,0.5298448801040649,-0.027269909158349037,-4.621387481689453,0.560248076915741,-15.944808006286621,3.94921875,2,"['A1', 'F2', 'J1']",6.1,180,0,8.256955780507441,[6200|2300|0]
17600,0.8152318596839905,0.5290727615356445,-0.026656579226255417,-4.4340128898620605,0.3518669903278351,-15.877864837646484,3.953125,2,"['A1', 'F2', 'J1']",6.1,180,0,8.258684399444636,[6200|2400|0]
17700,0.8151232600212097,0.5301991105079651,-0.026611505076289177,-4.300558567047119,0.3411485552787781,-15.781925201416016,3.953125,2,"['A1', 'F2', 'J1']",6.1,180,0,8.259816869123346,[6200|2500|0]
17800,0.8149405717849731,0.5286285281181335,-0.026897918432950974,-4.055893898010254,0.347937673330307,-15.762836456298828,3.958984375,2,"['A1', 'F2', 'J1']",6.1,180,0,8.2614237719349,[6200|2600|0]
17900,0.813535213470459,0.5250698924064636,-0.02953842096030712,-3.582084894180298,0.402445524930954,-15.674022674560547,3.958984375,2,"['A1', 'F2', 'J1']",6.1,180,0,8.266072553895535,[6200|2700|0]
18000,0.8149492740631104,0.52879399061203,-0.02686377242207527,-3.520632743835449,0.3371375799179077,-15.655806541442871,3.958984375,2,"['A1', 'F2', 'J1']",6.1,180,0,8.270870701413845,[6200|2800|0]
18100,0.8096226453781128,0.5269943475723267,-0.024979012086987495,-3.36922025680542,2.7208120822906494,-21.189964294433594,3.958984375,2,"['A1', 'F2', 'J1']",6.1,180,0,8.276800626349196,[6200|2900|0]
18200,0.8053768277168274,0.530531644821167,-0.02268543839454651,-3.4102745056152344,7.753354549407959,-20.919301986694336,3.96484375,2,"['A1', 'F2', 'J1']",6.1,180,0,8.282783929761376,[6200|3000|0]
18300,0.8010230660438538,0.5346060991287231,-0.01991649530827999,-3.2887823581695557,10.95079231262207,-21.440664291381836,3.96484375,2,"['A1', 'F2', 'J1']",6.1,180,0,8.289358385208361,[6200|3100|0]
18400,0.7858437895774841,0.5203607082366943,-0.0008275071159005165,-6.711400508880615,17.514314651489258,-26.123302459716797,3.96484375,2,"['A1', 'F2', 'J1']",6.1,180,0,8.317602518509243,[6200|3200|0]
18501,0.7381348609924316,0.4725286662578583,0.05272486060857773,4.550605773925781,1.3266314268112183,-11.05954360961914,3.96875,2,"['A1', 'F2', 'J1']",6.1,180,0,8.403810999504424,[6200|3300|0]
18601,0.6853107213973999,0.409812867641449,0.053973086178302765,7.191625118255615,0.4954509139060974,7.075324058532715,3.96875,2,"['A1', 'F2', 'J1']",6.1,180,0,8.48581843323529,[6200|3400|0]
18701,0.6568153500556946,0.3912133574485779,0.02613438479602337,2.8550784587860107,3.4735260009765625,4.918184280395508,3.96875,2,"['A1', 'F2', 'J1']",6.1,180,0,8.529783433655716,[6200|3500|0]
18801,0.6532557606697083,0.38690105080604553,0.003724153619259596,0.9030883312225342,7.671658039093018,5.651395320892334,3.96875,2,"['A1', 'F2', 'J1']",6.1,180,0,8.552880730609516,[6200|3600|0]
18901,0.6552112102508545,0.3781795799732208,-0.005116897635161877,0.45402517914772034,5.553709030151367,10.835615158081055,3.96875,2,"['A1', 'F2', 'J1']",6.1,180,0,8.565452604926241,[6200|3700|0]
19001,0.658048152923584,0.3791980743408203,-0.007348447572439909,-0.1355484277009964,0.65187668800354,10.219778060913086,3.974609375,2,"['A1', 'F2', 'J1']",6.1,180,0,8.569202990190151,[6200|3800|0]
19101,0.6535397171974182,0.3826315701007843,-0.007815491408109665,-0.9468157291412354,0.9034115672111511,7.384044647216797,3.974609375,2,"['A1', 'F2', 'J1']",6.1,180,0,8.57488920296977,[6200|3900|0]
19201,0.6509589552879333,0.38629457354545593,-0.008642005734145641,-2.2762718200683594,-0.06306189298629761,5.398426532745361,3.974609375,2,"['A1', 'F2', 'J1']",6.1,180,0,8.579445632734428,[6200|4000|0]
19301,0.6509410738945007,0.38584092259407043,-0.0090023847296834,-2.369276523590088,0.07757840305566788,4.586055755615234,3.974609375,2,"['A1', 'F2', 'J1']",6.1,180,0,8.58002528086075,[6200|4100|0]
19401,0.6511066555976868,0.3857572674751282,-0.008699624799191952,-2.33549165725708,0.12100187689065933,4.5872483253479,3.974609375,2,"['A1', 'F2', 'J1']",6.1,180,0,8.580380356986204,[6200|4200|0]
19502,0.6510878205299377,0.3860456347465515,-0.008771789260208607,-2.3196825981140137,0.17957788705825806,4.59548282623291,3.974609375,2,"['A1', 'F2', 'J1']",6.1,180,0,8.580678212911845,[6200|4300|0]
19602,0.651286780834198,0.38613948225975037,-0.008746476843953133,-2.292226552963257,0.22919827699661255,4.603936195373535,4.0234375,2,"['A1', 'F2', 'J1']",6.1,180,0,8.580899647499978,[6200|4400|0]
19701,0.6514919400215149,0.38566648960113525,-0.008295917883515358,-2.195427894592285,0.3098599314689636,4.535701751708984,4.05859375,2,"['A1', 'F2', 'J1']",6.1,180,0,8.581584348693255,[6200|4500|0]
19802,0.6514019966125488,0.3856772482395172,-0.008621569722890854,-2.165139675140381,0.3798306882381439,4.538039207458496,4.06640625,2,"['A1', 'F2', 'J1']",6.1,180,0,8.581922364499993,[6200|4600|0]
19902,0.6509196162223816,0.38591763377189636,-0.008635765872895718,-2.162149429321289,0.4258565604686737,4.50679874420166,4.06640625,2,"['A1', 'F2', 'J1']",6.1,180,0,8.582461509726876,[6200|4700|0]
20000,0.6513385772705078,0.38592296838760376,-0.008148572407662868,-2.17299485206604,0.4315894842147827,4.494340419769287,4.06640625,2,"['A1', 'F2', 'J1']",6.1,180,0,8.583104093799614,[6200|4800|0]
20100,0.6513912081718445,0.3857725262641907,-0.008351556025445461,-2.138343572616577,0.46414729952812195,4.506492614746094,4.06640625,2,"['A1', 'F2', 'J1']",6.1,180,0,8.583362173619362,[6200|4900|0]
20202,0.6512670516967773,0.3860110342502594,-0.0081400815397501,-2.120412588119507,0.5047218799591064,4.483379364013672,4.0703125,2,"['A1', 'F2', 'J1']",6.1,180,0,8.583704258912556,[6200|5000|0]
20302,0.651103675365448,0.38550567626953125,-0.0084309671074152,-2.0897622108459473,0.5382091999053955,4.466196060180664,4.0703125,2,"['A1', 'F2', 'J1']",6.1,180,0,8.584309810667405,[6200|5100|0]
20400,0.6510707139968872,0.385784775018692,-0.00828399695456028,-2.088974714279175,0.5505110025405884,4.487020969390869,4.0703125,2,"['A1', 'F2', 'J1']",6.1,180,0,8.584626958565758,[6200|5200|0]
20500,0.6512959003448486,0.38573652505874634,-0.00831985380500555,-2.079045534133911,0.5611051321029663,4.492376327514648,4.0703125,2,"['A1', 'F2', 'J1']",6.1,180,0,8.584860030794191,[6200|5300|0]
20600,0.6512627005577087,0.3856870234012604,-0.008068138733506203,-2.1928551197052,0.48927128314971924,4.496068477630615,4.07421875,2,"['A1', 'F2', 'J1']",6.1,180,0,8.58511870649305,[6200|5400|0]
20700,0.6513194441795349,0.38549309968948364,-0.008389603346586227,-2.1777825355529785,0.5178014636039734,4.474851131439209,4.07421875,2,"['A1', 'F2', 'J1']",6.1,180,0,8.585498398133819,[6200|5500|0]
20800,0.6514093279838562,0.38565942645072937,-0.008242531679570675,-2.168971061706543,0.5262855887413025,4.502307415008545,4.07421875,2,"['A1', 'F2', 'J1']",6.1,180,0,8.585737926347239,[6200|5600|0]
20900,0.6514813899993896,0.3855404555797577,-0.008281855843961239,-2.1591992378234863,0.5396542549133301,4.482809543609619,4.07421875,2,"['A1', 'F2', 'J1']",6.1,180,0,8.585882471814575,[6200|5700|0]
21000,0.6510213017463684,0.385654091835022,-0.0080571873113513,-2.1583802700042725,0.560049831867218,4.4829230308532715,4.07421875,2,"['A1', 'F2', 'J1']",6.1,180,0,8.586406943309152,[6200|5800|0]
21100,0.6509896516799927,0.3856189548969269,-0.008211584761738777,-2.1529619693756104,0.5628485083580017,4.470295429229736,4.07421875,2,"['A1', 'F2', 'J1']",6.1,180,0,8.586568420563918,[6200|5900|0]
21200,0.6509124636650085,0.38526108860969543,-0.00843075755983591,-2.132866859436035,0.5707218050956726,4.452404022216797,4.08203125,2,"['A1', 'F2', 'J1']",6.1,180,0,8.586995108956799,[6200|6000|0]
21300,0.6509220004081726,0.3857131600379944,-0.008080847561359406,-2.1489951610565186,0.5738838315010071,4.447980880737305,4.08203125,2,"['A1', 'F2', 'J1']",6.1,180,0,8.587566857619052,[6200|6100|0]
21400,0.6506258845329285,0.3855002224445343,-0.00807281956076622,-2.1443605422973633,0.5808892846107483,4.445568561553955,4.08203125,2,"['A1', 'F2', 'J1']",6.1,180,0,8.587931674667823,[6200|6200|0]
21500,0.6509223580360413,0.3856356739997864,-0.008248848840594292,-2.15320086479187,0.5714755058288574,4.431300163269043,4.08203125,2,"['A1', 'F2', 'J1']",6.1,180,0,8.588302120303814,[6200|6300|0]
21600,0.6511820554733276,0.3855491280555725,-0.00832659937441349,-2.1508681774139404,0.5669251084327698,4.435764789581299,4.08203125,2,"['A1', 'F2', 'J1']",6.1,180,0,8.588586686824863,[6200|6400|0]
21700,0.6506611704826355,0.3858507573604584,-0.00817134790122509,-2.1592204570770264,0.5830122232437134,4.423717975616455,4.08203125,2,"['A1', 'F2', 'J1']",6.1,180,0,8.589208301199713,[6200|6500|0]
21800,0.6507994532585144,0.3856659531593323,-0.007883019745349884,-2.1595919132232666,0.5738453269004822,4.413802146911621,4.0859375,2,"['A1', 'F2', 'J1']",6.1,180,0,8.58957763552567,[6200|6600|0]
21900,0.6508835554122925,0.3853926360607147,-0.00814562477171421,-2.1518747806549072,0.5741884112358093,4.4201531410217285,4.0859375,2,"['A1', 'F2', 'J1']",6.1,180,0,8.589965883910777,[6200|6700|0]
22000,0.6507695913314819,0.3852192759513855,-0.008137783966958523,-2.153346300125122,0.5809022188186646,4.436069965362549,4.0859375,2,"['A1', 'F2', 'J1']",6.1,180,0,8.59017349657282,[6200|6800|0]
22100,0.6509872078895569,0.38555023074150085,-0.008217538706958294,-2.1464345455169678,0.5844533443450928,4.452994346618652,4.0859375,2,"['A1', 'F2', 'J1']",6.1,180,0,8.590577537236618,[6200|6900|0]
22200,0.6508679986000061,0.38553154468536377,-0.008410390466451645,-2.13865327835083,0.5985451340675354,4.435938835144043,4.08984375,2,"['A1', 'F2', 'J1']",6.1,180,0,8.590805027510143,[6200|7000|0]
22300,0.6508716344833374,0.3856213092803955,-0.008122369647026062,-2.1300806999206543,0.6056463718414307,4.425711154937744,4.0859375,2,"['A1', 'F2', 'J1']",6.1,180,0,8.59110673414678,[6200|7100|0]
22400,0.6508951783180237,0.38550814986228943,-0.008303970098495483,-2.1233932971954346,0.6112200021743774,4.430324554443359,4.08984375,2,"['A1', 'F2', 'J1']",6.1,180,0,8.591321996986192,[6200|7200|0]
22500,0.6506737470626831,0.38553908467292786,-0.00834206584841013,-2.122448205947876,0.6229398250579834,4.447239875793457,4.08984375,2,"['A1', 'F2', 'J1']",6.1,180,0,8.591548800975382,[6200|7300|0]
22600,0.6509736180305481,0.38526037335395813,-0.008289343677461147,-2.108531951904297,0.6180083155632019,4.457240104675293,4.08984375,2,"['A1', 'F2', 'J1']",6.1,180,0,8.59196157479238,[6200|7400|0]
22700,0.6511027812957764,0.3861733078956604,-0.00852606724947691,-2.150498151779175,0.6017402410507202,4.476743221282959,4.08984375,2,"['A1', 'F2', 'J1']",6.1,180,0,8.59291350476673,[6200|7500|0]
22800,0.651207685470581,0.3859350383281708,-0.008210075087845325,-2.125290632247925,0.6150146126747131,4.489100933074951,4.08984375,2,"['A1', 'F2', 'J1']",6.1,180,0,8.593322929141793,[6200|7600|0]
22900,0.6508995294570923,0.3857220709323883,-0.008297543041408062,-2.104811429977417,0.6380704045295715,4.465884685516357,4.09765625,2,"['A1', 'F2', 'J1']",6.1,180,0,8.593707592479293,[6200|7700|0]
23000,0.6510906219482422,0.385833740234375,-0.008120146580040455,-2.1007649898529053,0.6412524580955505,4.459521293640137,4.09765625,2,"['A1', 'F2', 'J1']",6.1,180,0,8.593991239932455,[6200|7800|0]
23100,0.6511887907981873,0.3854750394821167,-0.008108303882181644,-2.094937324523926,0.6476364731788635,4.470759868621826,4.09765625,2,"['A1', 'F2', 'J1']",6.1,180,0,8.594363320034399,[6200|7900|0]
23200,0.651371955871582,0.385478675365448,-0.008397682569921017,-2.0965912342071533,0.6421617865562439,4.460409164428711,4.09765625,2,"['A1', 'F2', 'J1']",6.1,180,0,8.594705814835347,[6200|8000|0]
23300,0.6511301398277283,0.38527911901474,-0.008383134379982948,-2.08599591255188,0.6444295048713684,4.466792583465576,4.09765625,2,"['A1', 'F2', 'J1']",6.1,180,0,8.595019676884668,[6200|8100|0]
23400,0.6510747671127319,0.38538292050361633,-0.00841839425265789,-2.091149091720581,0.6458296179771423,4.478719711303711,4.09765625,2,"['A1', 'F2', 'J1']",6.1,180,0,8.595142494413059,[6200|8200|0]
23500,0.6509307622909546,0.3854592442512512,-0.008322658948600292,-2.096344470977783,0.6581600904464722,4.473896503448486,4.09765625,2,"['A1', 'F2', 'J1']",6.1,180,0,8.595331512802618,[6200|8300|0]
23600,0.6512251496315002,0.3853634297847748,-0.008232408203184605,-2.095114231109619,0.6470951437950134,4.456536769866943,4.09765625,2,"['A1', 'F2', 'J1']",6.1,180,0,8.595653986856314,[6200|8400|0]
23700,0.651028037071228,0.38541877269744873,-0.008247440680861473,-2.091038227081299,0.6492881774902344,4.463353633880615,4.09765625,2,"['A1', 'F2', 'J1']",6.1,180,0,8.59585927244954,[6200|8500|0]
23800,0.6510433554649353,0.3855772316455841,-0.008089736104011536,-2.09027361869812,0.649477481842041,4.449871063232422,4.09765625,2,"['A1', 'F2', 'J1']",6.1,180,0,8.596083358649448,[6200|8600|0]
23900,0.6511810421943665,0.3855193853378296,-0.008431811816990376,-2.0888447761535645,0.6371595859527588,4.467848777770996,4.1015625,2,"['A1', 'F2', 'J1']",6.1,180,0,8.596456614090389,[6200|8700|0]
24000,0.6513090133666992,0.385048508644104,-0.008329612202942371,-2.073838472366333,0.6328085064888,4.440041542053223,4.1015625,2,"['A1', 'F2', 'J1']",6.1,180,0,8.596955158213566,[6200|8800|0]
24100,0.6512036919593811,0.38538065552711487,-0.008323391899466515,-2.085594415664673,0.6329554915428162,4.454740047454834,4.1015625,2,"['A1', 'F2', 'J1']",6.1,180,0,8.597303659064224,[6200|8900|0]
24200,0.6509438753128052,0.3856809437274933,-0.008397143334150314,-2.207965135574341,0.5373304486274719,4.467630386352539,4.1015625,2,"['A1', 'F2', 'J1']",6.1,180,0,8.597707536480332,[6200|9000|0]
24300,0.6512021422386169,0.3857722878456116,-0.008156928233802319,-2.1884024143218994,0.5424447059631348,4.482281684875488,4.1015625,2,"['A1', 'F2', 'J1']",6.1,180,0,8.598071883632535,[6200|9100|0]
24400,0.6509724259376526,0.38554641604423523,-0.008144409395754337,-2.156460762023926,0.5703269839286804,4.458836078643799,4.1015625,2,"['A1', 'F2', 'J1']",6.1,180,0,8.598394287681659,[6200|9200|0]
24500,0.6508711576461792,0.38564029335975647,-0.008127429522573948,-2.1395516395568848,0.5900737643241882,4.454650402069092,4.1015625,2,"['A1', 'F2', 'J1']",6.1,180,0,8.598533415440645,[6200|9300|0]
24600,0.6507845520973206,0.3855796754360199,-0.00819541048258543,-2.114858865737915,0.6019996404647827,4.458776950836182,4.1015625,2,"['A1', 'F2', 'J1']",6.1,180,0,8.59865909942807,[6200|9400|0]
24700,0.6511803865432739,0.3853888213634491,-0.008414573967456818,-2.12454891204834,0.5826178789138794,4.4599995613098145,4.1015625,2,"['A1', 'F2', 'J1']",6.1,180,0,8.59915016237589,[6200|9500|0]
24800,0.6510562300682068,0.3854942321777344,-0.00847945548593998,-2.103510856628418,0.6029526591300964,4.440364837646484,4.10546875,2,"['A1', 'F2', 'J1']",6.1,180,0,8.599325478893967,[6200|9600|0]
24900,0.6512478590011597,0.3855905830860138,-0.008362937718629837,-2.0910608768463135,0.6109784245491028,4.426499843597412,4.10546875,2,"['A1', 'F2', 'J1']",6.1,180,0,8.599569572186725,[6200|9700|0]
25000,0.6509497761726379,0.3858594298362732,-0.008391262963414192,-2.090073823928833,0.6298016309738159,4.439215183258057,4.10546875,2,"['A1', 'F2', 'J1']",6.1,180,0,8.599971982757259,[6200|9800|0]
25100,0.6512636542320251,0.3855736255645752,-0.008262919262051582,-2.080458402633667,0.6280660629272461,4.438398361206055,4.10546875,2,"['A1', 'F2', 'J1']",6.1,180,0,8.600415464012292,[6200|9900|0]
25200,0.651210367679596,0.38542839884757996,-0.008198266848921776,-2.075098752975464,0.6315228939056396,4.449623107910156,4.10546875,2,"['A1', 'F2', 'J1']",6.1,180,0,8.60058312495146,[6200|10000|0]
25300,0.6511037945747375,0.3853694200515747,-0.008410175330936909,-2.078233003616333,0.6341641545295715,4.460035800933838,4.10546875,2,"['A1', 'F2', 'J1']",6.1,180,0,8.600827545756236,[6200|10100|0]
25400,0.6510306596755981,0.38528019189834595,-0.008413851261138916,-2.0710465908050537,0.6319054365158081,4.484072685241699,4.10546875,2,"['A1', 'F2', 'J1']",6.1,180,0,8.600942974908808,[6200|10200|0]
25500,0.6511731147766113,0.3853623867034912,-0.008254415355622768,-2.0762529373168945,0.6259410977363586,4.461860656738281,4.10546875,2,"['A1', 'F2', 'J1']",6.1,180,0,8.601172036581213,[6200|10300|0]
25600,0.6511887311935425,0.3855438530445099,-0.008187143132090569,-2.0814132690429688,0.621856153011322,4.4493608474731445,4.10546875,2,"['A1', 'F2', 'J1']",6.1,180,0,8.601366200062484,[6200|10400|0]
25700,0.6510156393051147,0.38558459281921387,-0.008193682879209518,-2.092413902282715,0.6300748586654663,4.4406304359436035,4.11328125,2,"['A1', 'F2', 'J1']",6.1,180,0,8.60154414190516,[6200|10500|0]
25800,0.6509304046630859,0.3853575587272644,-0.008425413630902767,-2.086663007736206,0.6313501596450806,4.446054458618164,4.11328125,2,"['A1', 'F2', 'J1']",6.1,180,0,8.60187956486858,[6200|10600|0]
25900,0.6511383056640625,0.3855613172054291,-0.008677271194756031,-2.091071367263794,0.622098982334137,4.436825275421143,4.11328125,2,"['A1', 'F2', 'J1']",6.1,180,0,8.602264496779574,[6200|10700|0]
26000,0.651073157787323,0.385599285364151,-0.008423468098044395,-2.0922813415527344,0.6208800077438354,4.437215328216553,4.11328125,2,"['A1', 'F2', 'J1']",6.1,180,0,8.602529264298013,[6200|10800|0]
26100,0.6511778235435486,0.3859401047229767,-0.008043607696890831,-2.216702461242676,0.5173195004463196,4.448625564575195,4.11328125,2,"['A1', 'F2', 'J1']",6.1,180,0,8.603050231360543,[6200|10900|0]
26200,0.6511566042900085,0.3859065771102905,-0.007951282896101475,-2.1902973651885986,0.544644296169281,4.426172733306885,4.11328125,2,"['A1', 'F2', 'J1']",6.1,180,0,8.603150721292247,[6200|11000|0]
26300,0.6509708166122437,0.3856431245803833,-0.008211837150156498,-2.179046630859375,0.5631574392318726,4.395203590393066,4.11328125,2,"['A1', 'F2', 'J1']",6.1,180,0,8.603565224387566,[6200|11100|0]
26400,0.6508851647377014,0.3855150043964386,-0.008300412446260452,-2.161837339401245,0.5693567395210266,4.399372100830078,4.11328125,2,"['A1', 'F2', 'J1']",6.1,180,0,8.603742978735548,[6200|11200|0]
26500,0.6510657668113708,0.38549208641052246,-0.008442549034953117,-2.167581081390381,0.5687329173088074,4.4248270988464355,4.11328125,2,"['A1', 'F2', 'J1']",6.1,180,0,8.603973944432,[6200|11300|0]
26600,0.6510253548622131,0.3854909837245941,-0.00822664238512516,-2.165804147720337,0.5726389288902283,4.463439464569092,4.11328125,2,"['A1', 'F2', 'J1']",6.1,180,0,8.604193603310698,[6200|11400|0]
26700,0.6508126258850098,0.3858864903450012,-0.008458270691335201,-2.170488119125366,0.5738911628723145,4.495799541473389,4.11328125,2,"['A1', 'F2', 'J1']",6.1,180,0,8.604698905969276,[6200|11500|0]
26800,0.6508191227912903,0.3852304220199585,-0.00853012315928936,-2.154414415359497,0.5855295062065125,4.505561828613281,4.11328125,2,"['A1', 'F2', 'J1']",6.1,180,0,8.605358929176495,[6200|11600|0]
26900,0.6511083841323853,0.3853257894515991,-0.008400126360356808,-2.132981777191162,0.5959768295288086,4.517282009124756,4.1171875,2,"['A1', 'F2', 'J1']",6.1,180,0,8.605690088108433,[6200|11700|0]
27000,0.6510446667671204,0.38555237650871277,-0.00828411802649498,-2.1309871673583984,0.6066501140594482,4.50577974319458,4.11328125,2,"['A1', 'F2', 'J1']",6.1,180,0,8.605952499104037,[6200|11800|0]
27100,0.6510108113288879,0.3850453197956085,-0.008187360130250454,-2.110546827316284,0.6103517413139343,4.480126857757568,4.11328125,2,"['A1', 'F2', 'J1']",6.1,180,0,8.606469814086893,[6200|11900|0]
27200,0.651095986366272,0.3854418396949768,-0.008443959057331085,-2.1147007942199707,0.6138956546783447,4.466124057769775,4.1171875,2,"['A1', 'F2', 'J1']",6.1,180,0,8.606949736817098,[6200|12000|0]
27300,0.651043713092804,0.3850768506526947,-0.008553298190236092,-2.097736358642578,0.6160434484481812,4.457527160644531,4.1171875,2,"['A1', 'F2', 'J1']",6.1,180,0,8.607334320412809,[6200|12100|0]
27400,0.6511911153793335,0.38529694080352783,-0.008344625122845173,-2.1008870601654053,0.6080408692359924,4.485405445098877,4.1171875,2,"['A1', 'F2', 'J1']",6.1,180,0,8.607671531856301,[6200|12200|0]
27500,0.6511817574501038,0.38563862442970276,-0.00815257802605629,-2.121445655822754,0.601060152053833,4.50363302230835,4.1171875,2,"['A1', 'F2', 'J1']",6.1,180,0,8.608063599909858,[6200|12300|0]
27600,0.6509319543838501,0.38542765378952026,-0.0083474051207304,-2.101703643798828,0.6255505681037903,4.483630180358887,4.1171875,2,"['A1', 'F2', 'J1']",6.1,180,0,8.60844421491186,[6200|12400|0]
27700,0.6509366035461426,0.38560688495635986,-0.00819765031337738,-2.095909595489502,0.6325050592422485,4.487315654754639,4.1171875,2,"['A1', 'F2', 'J1']",6.1,180,0,8.608677821264946,[6200|12500|0]
27800,0.6509717106819153,0.38525059819221497,-0.008036383427679539,-2.0746684074401855,0.6413623094558716,4.4705047607421875,4.1171875,2,"['A1', 'F2', 'J1']",6.1,180,0,8.609070478593553,[6200|12600|0]
27900,0.6511443257331848,0.3853830099105835,-0.008534852415323257,-2.074199914932251,0.6404880285263062,4.432779312133789,4.1171875,2,"['A1', 'F2', 'J1']",6.1,180,0,8.609614353717758,[6200|12700|0]
28000,0.6511647701263428,0.3855370283126831,-0.00823525432497263,-2.0779569149017334,0.6376927495002747,4.425803184509277,4.1171875,2,"['A1', 'F2', 'J1']",6.1,180,0,8.609951842468886,[6200|12800|0]
28100,0.6512739658355713,0.38569968938827515,-0.00811764132231474,-2.1959691047668457,0.5344616770744324,4.4505295753479,4.1171875,2,"['A1', 'F2', 'J1']",6.1,180,0,8.610180348807575,[6200|12900|0]
28200,0.6511462926864624,0.3855142891407013,-0.00803630705922842,-2.163811206817627,0.5570418834686279,4.487456798553467,4.1171875,2,"['A1', 'F2', 'J1']",6.1,180,0,8.610419699903574,[6200|13000|0]
28300,0.6510623097419739,0.3857032358646393,-0.008195137605071068,-2.1522557735443115,0.5699368119239807,4.4984612464904785,4.1171875,2,"['A1', 'F2', 'J1']",6.1,180,0,8.61068043183822,[6200|13100|0]
28400,0.6509107947349548,0.3856109082698822,-0.008042959496378899,-2.127682685852051,0.5861003398895264,4.492408752441406,4.1171875,2,"['A1', 'F2', 'J1']",6.1,180,0,8.610914182472168,[6200|13200|0]
28500,0.6509357690811157,0.38507869839668274,-0.008317235857248306,-2.127434015274048,0.5895982980728149,4.511763095855713,4.12109375,2,"['A1', 'F2', 'J1']",6.1,180,0,8.611513430825715,[6200|13300|0]
28600,0.6512497663497925,0.38510164618492126,-0.008504612371325493,-2.110772132873535,0.5968276262283325,4.511953353881836,4.12109375,2,"['A1', 'F2', 'J1']",6.1,180,0,8.611879806102923,[6200|13400|0]
28700,0.6512831449508667,0.3852376639842987,-0.008456442505121231,-2.098278284072876,0.6105207204818726,4.527318954467773,4.12109375,2,"['A1', 'F2', 'J1']",6.1,180,0,8.612027911838016,[6200|13500|0]
28800,0.6511814594268799,0.3852224349975586,-0.008305318653583527,-2.0963242053985596,0.616217315196991,4.506732940673828,4.12109375,2,"['A1', 'F2', 'J1']",6.1,180,0,8.61221069664682,[6200|13600|0]
28900,0.650941014289856,0.3851330578327179,-0.008318896405398846,-2.091081142425537,0.6239970922470093,4.4847917556762695,4.12109375,2,"['A1', 'F2', 'J1']",6.1,180,0,8.612467575016593,[6200|13700|0]
29000,0.6508862972259521,0.38537922501564026,-0.008230159059166908,-2.1017634868621826,0.6175186038017273,4.4556193351745605,4.12109375,2,"['A1', 'F2', 'J1']",6.1,180,0,8.612734907311026,[6200|13800|0]
29100,0.6509785056114197,0.3852945566177368,-0.00846868846565485,-2.092242956161499,0.6128020286560059,4.45349645614624,4.12109375,2,"['A1', 'F2', 'J1']",6.1,180,0,8.613004290684145,[6200|13900|0]
29200,0.6513399481773376,0.385534405708313,-0.008097918704152107,-2.111398458480835,0.5893625020980835,4.466435432434082,4.12109375,2,"['A1', 'F2', 'J1']",6.1,180,0,8.613574938150409,[6200|14000|0]
29300,0.651535153388977,0.38558563590049744,-0.008153569884598255,-2.0844991207122803,0.6145092844963074,4.476934909820557,4.12109375,2,"['A1', 'F2', 'J1']",6.1,180,0,8.613784286331981,[6200|14100|0]
29400,0.6510295867919922,0.38549134135246277,-0.008557844907045364,-2.0745413303375244,0.642494797706604,4.456779956817627,4.12109375,2,"['A1', 'F2', 'J1']",6.1,180,0,8.614438447886608,[6200|14200|0]
29500,0.6509661078453064,0.38525331020355225,-0.008469508960843086,-2.0678529739379883,0.646986722946167,4.45311975479126,4.12109375,2,"['A1', 'F2', 'J1']",6.1,180,0,8.614700156969208,[6200|14300|0]
29600,0.6512064933776855,0.3854423463344574,-0.008186948485672474,-2.0706539154052734,0.6368085145950317,4.45285177230835,4.12109375,2,"['A1', 'F2', 'J1']",6.1,180,0,8.61511652253586,[6200|14400|0]
29700,0.6510526537895203,0.3855278789997101,-0.00839400477707386,-2.0756208896636963,0.6416161060333252,4.450357913970947,4.12109375,2,"['A1', 'F2', 'J1']",6.1,180,0,8.615388284864967,[6200|14500|0]
29800,0.6511279344558716,0.3855076730251312,-0.007942261174321175,-2.179178476333618,0.5416650176048279,4.426233291625977,4.12109375,2,"['A1', 'F2', 'J1']",6.1,180,0,8.615846703606689,[6200|14600|0]
29900,0.6512172818183899,0.3852700889110565,-0.008029730059206486,-2.1614270210266113,0.5546722412109375,4.426619052886963,4.12890625,2,"['A1', 'F2', 'J1']",6.1,180,0,8.616115180734715,[6200|14700|0]
