time.ms,stateEstimate.x,stateEstimate.y,stateEstimate.z,stabilizer.roll,stabilizer.pitch,stabilizer.yaw,pm.vbat,drone_id,node_name,wind_speed,global_wind_direction,relative_wind_direction,travel_dist,waiting_time
0,1.2756446599960327,-0.32574576139450073,0.000371008412912488,0.03452521190047264,10.936548233032227,4.043125629425049,4.04296875,0,"['C1', 'F2', 'F1']",6.1,180,0,0.03896932685289518,[100|0|0]
100,1.2760413885116577,-0.3251635432243347,0.0003428490599617362,0.4382278621196747,6.244647979736328,4.514549255371094,4.04296875,0,"['C1', 'F2', 'F1']",6.1,180,0,0.0396744257551352,[200|0|0]
201,1.2777074575424194,-0.3249325156211853,-0.0016239143442362547,0.9356594681739807,2.224383592605591,4.623560905456543,4.04296875,0,"['C1', 'F2', 'F1']",6.1,180,0,0.04226234346185864,[300|0|0]
301,1.2791030406951904,-0.32544997334480286,-0.002403336577117443,1.179462194442749,0.17148710787296295,4.586012363433838,4.04296875,0,"['C1', 'F2', 'F1']",6.1,180,0,0.043942496386189994,[400|0|0]
401,1.2801927328109741,-0.3257300853729248,-0.0023105896543711424,1.1392978429794312,-0.6440954804420471,4.477664947509766,4.04296875,0,"['C1', 'F2', 'F1']",6.1,180,0,0.045071431126189894,[500|0|0]
501,1.280950903892517,-0.326068639755249,-0.002296923892572522,1.0259628295898438,-0.880158007144928,4.345333099365234,4.04296875,0,"['C1', 'F2', 'F1']",6.1,180,0,0.045901870294175424,[600|0|0]
601,1.2815271615982056,-0.32620561122894287,-0.0022691134363412857,0.8949669003486633,-0.8652183413505554,4.25644063949585,4.04296875,0,"['C1', 'F2', 'F1']",6.1,180,0,0.04649483534326938,[700|0|0]
701,1.28134024143219,-0.3259722888469696,-0.002557274652644992,0.7592520713806152,-0.7167544364929199,4.184109687805176,4.04296875,0,"['C1', 'F2', 'F1']",6.1,180,0,0.04691006464013392,[800|0|0]
801,1.2815507650375366,-0.32618212699890137,-0.0025355347897857428,0.6575801372528076,-0.5459287762641907,4.116844177246094,4.04296875,0,"['C1', 'F2', 'F1']",6.1,180,0,0.047208099638165094,[900|0|0]
901,1.2817355394363403,-0.32609936594963074,-0.002261157613247633,0.5529506802558899,-0.38253697752952576,4.0909881591796875,4.04296875,0,"['C1', 'F2', 'F1']",6.1,180,0,0.04754908908775947,[1000|0|0]
1001,1.2818794250488281,-0.32614800333976746,-0.002795454813167453,0.45484238862991333,-0.22930936515331268,4.038294792175293,4.04296875,0,"['C1', 'F2', 'F1']",6.1,180,0,0.04810455480501163,[1100|0|0]
1101,1.2815512418746948,-0.326120525598526,-0.0024174917489290237,0.3818414807319641,-0.06694968044757843,4.020709037780762,4.04296875,0,"['C1', 'F2', 'F1']",6.1,180,0,0.04860586837951011,[1200|0|0]
1202,1.2815825939178467,-0.3258489668369293,-0.0025899496395140886,0.31020113825798035,0.06188749521970749,4.019755840301514,4.04296875,0,"['C1', 'F2', 'F1']",6.1,180,0,0.04892908477085617,[1300|0|0]
1302,1.2814245223999023,-0.3259938955307007,-0.0026558940298855305,0.2563455104827881,0.18290412425994873,3.9803617000579834,4.04296875,0,"['C1', 'F2', 'F1']",6.1,180,0,0.04915344963817046,[1400|0|0]
1402,1.2814483642578125,-0.3260933756828308,-0.0021907342597842216,0.214265376329422,0.295910507440567,3.993178606033325,4.04296875,0,"['C1', 'F2', 'F1']",6.1,180,0,0.0496297251325822,[1500|0|0]
1502,1.2813910245895386,-0.3257477879524231,-0.002678126096725464,0.15602903068065643,0.3895252048969269,3.9801089763641357,4.04296875,0,"['C1', 'F2', 'F1']",6.1,180,0,0.050229949690296295,[1600|0|0]
1602,1.2813788652420044,-0.3258714973926544,-0.0026663176249712706,0.12763497233390808,0.4696756899356842,3.9582605361938477,4.04296875,0,"['C1', 'F2', 'F1']",6.1,180,0,0.050354814878959805,[1700|0|0]
1702,1.2812813520431519,-0.32589247822761536,-0.002594917081296444,0.10171616822481155,0.5300472378730774,3.9655823707580566,4.04296875,0,"['C1', 'F2', 'F1']",6.1,180,0,0.05047748132515914,[1800|0|0]
1802,1.2812267541885376,-0.3259718418121338,-0.002415869850665331,0.08244795352220535,0.581049382686615,3.9655961990356445,4.04296875,0,"['C1', 'F2', 'F1']",6.1,180,0,0.050680797372417506,[1900|0|0]
1902,1.2813442945480347,-0.3258718252182007,-0.002423313446342945,0.06673689186573029,0.6318199634552002,3.9678478240966797,4.04296875,0,"['C1', 'F2', 'F1']",6.1,180,0,0.05083531100382034,[2000|0|0]
2002,1.2811613082885742,-0.3256048858165741,-0.0028392255771905184,0.046143922954797745,0.6799203753471375,3.9637300968170166,4.04296875,0,"['C1', 'F2', 'F1']",6.1,180,0,0.0513623058006431,[2100|0|0]
2100,1.2809598445892334,-0.3255099356174469,-0.0028711340855807066,0.03869671747088432,0.718137264251709,4.006584167480469,4.04296875,0,"['C1', 'F2', 'F1']",6.1,180,0,0.05158729761243648,[2200|0|0]
2200,1.2809672355651855,-0.3256082236766815,-0.002877222839742899,0.03195897862315178,0.7341701984405518,4.017375469207764,4.04296875,0,"['C1', 'F2', 'F1']",6.1,180,0,0.05168605105308986,[2300|0|0]
2300,1.2811057567596436,-0.32568755745887756,-0.0025681937113404274,0.030465107411146164,0.7463738322257996,4.01421594619751,4.04296875,0,"['C1', 'F2', 'F1']",6.1,180,0,0.05203387424454321,[2400|0|0]
2400,1.2807821035385132,-0.325477659702301,-0.002910129027441144,0.016738101840019226,0.7650341987609863,4.01788854598999,4.04296875,0,"['C1', 'F2', 'F1']",6.1,180,0,0.05254936259180319,[2500|0|0]
2500,1.28117835521698,-0.32572054862976074,-0.002640418242663145,0.020753342658281326,0.7679609060287476,4.011968612670898,4.04296875,0,"['C1', 'F2', 'F1']",6.1,180,0,0.053086721253402545,[2600|0|0]
2600,1.280809760093689,-0.325347363948822,-0.0029771672561764717,0.0059198904782533646,0.7854806184768677,4.021156311035156,4.04296875,0,"['C1', 'F2', 'F1']",6.1,180,0,0.05371004225345264,[2700|0|0]
2700,1.2811247110366821,-0.3256782293319702,-0.0027794409543275833,0.012316971085965633,0.7819775938987732,4.047944068908691,4.04296875,0,"['C1', 'F2', 'F1']",6.1,180,0,0.05420779890956175,[2800|0|0]
2800,1.2810626029968262,-0.32556775212287903,-0.00279707252047956,0.013198357075452805,0.7906425595283508,4.037504196166992,4.04296875,0,"['C1', 'F2', 'F1']",6.1,180,0,0.05433575786574809,[2900|0|0]
2900,1.2808424234390259,-0.3254247009754181,-0.002989009255543351,0.01054940652102232,0.797447681427002,4.0304765701293945,4.04296875,0,"['C1', 'F2', 'F1']",6.1,180,0,0.05466099989674957,[3000|0|0]
3000,1.2811356782913208,-0.32547545433044434,-0.0030085365287959576,0.015136942267417908,0.7929306626319885,4.0265583992004395,4.04296875,0,"['C1', 'F2', 'F1']",6.1,180,0,0.05495925419402225,[3100|0|0]
3100,1.280768632888794,-0.32549262046813965,-0.0029344349168241024,0.028106797486543655,0.8096383810043335,4.062989711761475,4.04296875,0,"['C1', 'F2', 'F1']",6.1,180,0,0.055334098231851724,[3200|0|0]
3200,1.2809793949127197,-0.3256562352180481,-0.002598090097308159,0.021589118987321854,0.7979891896247864,4.049607753753662,4.04296875,0,"['C1', 'F2', 'F1']",6.1,180,0,0.05576342125095518,[3300|0|0]
3300,1.281206488609314,-0.32587507367134094,-0.0025702123530209064,0.02079734206199646,0.7921833395957947,4.030920028686523,4.04296875,0,"['C1', 'F2', 'F1']",6.1,180,0,0.05608002665883538,[3400|0|0]
3400,1.2807788848876953,-0.325544148683548,-0.002654728479683399,0.003949338104575872,0.7910333871841431,4.007042407989502,4.04296875,0,"['C1', 'F2', 'F1']",6.1,180,0,0.05662729191988703,[3500|0|0]
3500,1.2808489799499512,-0.32546570897102356,-0.002856515347957611,-0.004832098260521889,0.7835379838943481,4.016819000244141,4.04296875,0,"['C1', 'F2', 'F1']",6.1,180,0,0.05685485300281089,[3600|0|0]
3600,1.2809869050979614,-0.3255530595779419,-0.002652200870215893,0.004569207783788443,0.77989661693573,4.020451068878174,4.04296875,0,"['C1', 'F2', 'F1']",6.1,180,0,0.057116382887905354,[3700|0|0]
3700,1.281200647354126,-0.32554787397384644,-0.0028113815933465958,0.0033911275677382946,0.7696672677993774,4.017226696014404,4.04296875,0,"['C1', 'F2', 'F1']",6.1,180,0,0.05738293709473121,[3800|0|0]
3800,1.2809617519378662,-0.3257216215133667,-0.0026021006051450968,0.00580756738781929,0.7753245830535889,4.021819591522217,4.04296875,0,"['C1', 'F2', 'F1']",6.1,180,0,0.05774495609895871,[3900|0|0]
3900,1.2808971405029297,-0.3256211578845978,-0.002632125047966838,0.00018889231432694942,0.7732123732566833,4.015488624572754,4.04296875,0,"['C1', 'F2', 'F1']",6.1,180,0,0.05786811877754574,[4000|0|0]
4000,1.2810261249542236,-0.3256520628929138,-0.002615018980577588,-0.004854889586567879,0.7675020694732666,4.0343523025512695,4.04296875,0,"['C1', 'F2', 'F1']",6.1,180,0,0.05800185256443649,[4100|0|0]
4100,1.2809984683990479,-0.32569772005081177,-0.0024134416598826647,-0.0026406149845570326,0.7713661789894104,4.01063871383667,4.04296875,0,"['C1', 'F2', 'F1']",6.1,180,0,0.0582103780480831,[4200|0|0]
4200,1.2812327146530151,-0.3253871500492096,-0.002565613714978099,-0.01475718803703785,0.7611339688301086,4.006353378295898,4.04296875,0,"['C1', 'F2', 'F1']",6.1,180,0,0.0586280877172851,[4300|0|0]
4300,1.281131625175476,-0.32546266913414,-0.0028598958160728216,-0.010168654844164848,0.7732850909233093,4.015711307525635,4.04296875,0,"['C1', 'F2', 'F1']",6.1,180,0,0.058948281673634334,[4400|0|0]
4400,1.2809900045394897,-0.3256894052028656,-0.002600103383883834,-0.0056155952624976635,0.7811020612716675,4.016429901123047,4.04296875,0,"['C1', 'F2', 'F1']",6.1,180,0,0.05932105205499661,[4500|0|0]
4500,1.2812224626541138,-0.32572534680366516,-0.0025125134270638227,-0.007356369402259588,0.7751848697662354,4.03021764755249,4.04296875,0,"['C1', 'F2', 'F1']",6.1,180,0,0.05957205120690419,[4600|0|0]
4600,1.2809507846832275,-0.32564592361450195,-0.002901940606534481,0.003587663872167468,0.7888385057449341,4.040892601013184,4.04296875,0,"['C1', 'F2', 'F1']",6.1,180,0,0.06005347668499211,[4700|0|0]
4700,1.2808459997177124,-0.3255842328071594,-0.0028979612980037928,-0.008103393018245697,0.7848038673400879,4.071779251098633,4.04296875,0,"['C1', 'F2', 'F1']",6.1,180,0,0.06017513801658504,[4800|0|0]
4800,1.2809432744979858,-0.32556942105293274,-0.0025986460968852043,-0.007886788807809353,0.7791458368301392,4.04703950881958,4.04296875,0,"['C1', 'F2', 'F1']",6.1,180,0,0.060490211596183806,[4900|0|0]
4900,1.281075358390808,-0.3257795572280884,-0.00266118161380291,-0.004134256858378649,0.7733029127120972,4.037081718444824,4.04296875,0,"['C1', 'F2', 'F1']",6.1,180,0,0.06074616873659659,[5000|0|0]
5000,1.2807624340057373,-0.3254133462905884,-0.0032748887315392494,-0.013378758914768696,0.7823277711868286,4.039225101470947,4.04296875,0,"['C1', 'F2', 'F1']",6.1,180,0,0.061526340863679335,[5100|0|0]
5100,1.2811299562454224,-0.3255521059036255,-0.0024240571074187756,-0.008795580826699734,0.7701297998428345,4.029707431793213,4.04296875,0,"['C1', 'F2', 'F1']",6.1,180,0,0.06246348614562702,[5200|0|0]
5200,1.28103768825531,-0.3255409300327301,-0.002610693918541074,-0.00636498536914587,0.7732422947883606,4.042397499084473,4.04296875,0,"['C1', 'F2', 'F1']",6.1,180,0,0.06267198454215692,[5300|0|0]
5300,1.2812316417694092,-0.3257295489311218,-0.00266459328122437,-0.0015571140684187412,0.7610400319099426,4.017127990722656,4.04296875,0,"['C1', 'F2', 'F1']",6.1,180,0,0.06294784718145331,[5400|0|0]
5400,1.2811487913131714,-0.3256774842739105,-0.002535299863666296,-0.0032156326342374086,0.7639167308807373,4.0066237449646,4.04296875,0,"['C1', 'F2', 'F1']",6.1,180,0,0.06310999438140813,[5500|0|0]
5500,1.2810643911361694,-0.325431227684021,-0.002676574978977442,-0.004178510047495365,0.7669318914413452,4.022742748260498,4.04296875,0,"['C1', 'F2', 'F1']",6.1,180,0,0.06340617735888684,[5600|0|0]
5600,1.2809354066848755,-0.3255690634250641,-0.0032220056746155024,-0.0013824393972754478,0.7643675804138184,4.02907657623291,4.04296875,0,"['C1', 'F2', 'F1']",6.1,180,0,0.0639833517899982,[5700|0|0]
5700,1.2810087203979492,-0.325546532869339,-0.002662030514329672,-0.0037228765431791544,0.7607405781745911,4.016872406005859,4.04296875,0,"['C1', 'F2', 'F1']",6.1,180,0,0.0645485550336222,[5800|0|0]
5800,1.2809053659439087,-0.3256232738494873,-0.002876343671232462,-0.004622442647814751,0.768670380115509,3.998211145401001,4.04296875,0,"['C1', 'F2', 'F1']",6.1,180,0,0.06479855793445692,[5900|0|0]
5900,1.2809563875198364,-0.3252050280570984,-0.0030689602717757225,-0.010059628635644913,0.7751357555389404,4.0123162269592285,4.04296875,0,"['C1', 'F2', 'F1']",6.1,180,0,0.0652618439140268,[6000|0|0]
6000,1.2812023162841797,-0.325710266828537,-0.002588164061307907,0.0026890644803643227,0.7706994414329529,4.005982398986816,4.04296875,0,"['C1', 'F2', 'F1']",6.1,180,0,0.06600137901751844,[6100|0|0]
6100,1.2810224294662476,-0.3254270851612091,-0.002920483471825719,0.00937364250421524,0.7864952683448792,4.003189563751221,4.04296875,0,"['C1', 'F2', 'F1']",6.1,180,0,0.0664735943440203,[6200|0|0]
6200,1.2808821201324463,-0.325307160615921,-0.0029393271543085575,0.0022126249969005585,0.7874845266342163,4.011030197143555,4.04296875,0,"['C1', 'F2', 'F1']",6.1,180,0,0.06665913056712464,[6300|0|0]
6300,1.28098464012146,-0.3253783881664276,-0.0030310519505292177,0.0009267100831493735,0.7758212685585022,4.016465663909912,4.04296875,0,"['C1', 'F2', 'F1']",6.1,180,0,0.06681404070346263,[6400|0|0]
6400,1.2808527946472168,-0.32558196783065796,-0.002766776829957962,-0.0009797402890399098,0.7723130583763123,4.025132179260254,4.04296875,0,"['C1', 'F2', 'F1']",6.1,180,0,0.06717274566317115,[6500|0|0]
6500,1.2808688879013062,-0.32570329308509827,-0.00270724855363369,0.0008207171922549605,0.7777894139289856,4.019256114959717,4.04296875,0,"['C1', 'F2', 'F1']",6.1,180,0,0.06730884278244385,[6600|0|0]
6600,1.2810146808624268,-0.32585737109184265,-0.002576461061835289,0.001907382276840508,0.7750726938247681,4.010430335998535,4.04296875,0,"['C1', 'F2', 'F1']",6.1,180,0,0.06755804348004632,[6700|0|0]
6700,1.2811514139175415,-0.3256702721118927,-0.0031197648495435715,-0.006979172583669424,0.7695382833480835,4.024540901184082,4.04296875,0,"['C1', 'F2', 'F1']",6.1,180,0,0.06814870494179703,[6800|0|0]
6800,1.2812137603759766,-0.3256273567676544,-0.0023647185880690813,-0.006811962928622961,0.7727839350700378,4.032268524169922,4.04296875,0,"['C1', 'F2', 'F1']",6.1,180,0,0.06890753540021122,[6900|0|0]
6900,1.2810003757476807,-0.32579919695854187,-0.0023929509334266186,-0.0051597245037555695,0.7826548218727112,4.058117389678955,4.04296875,0,"['C1', 'F2', 'F1']",6.1,180,0,0.06918296073695714,[7000|0|0]
7000,1.2810691595077515,-0.32576602697372437,-0.00264250417239964,-0.0016085136448964477,0.7784509062767029,4.043829917907715,4.04296875,0,"['C1', 'F2', 'F1']",6.1,180,0,0.0694439363538722,[7100|0|0]
7100,1.2809550762176514,-0.32568228244781494,-0.0026554958894848824,0.007941312156617641,0.787090539932251,4.0302205085754395,4.04296875,0,"['C1', 'F2', 'F1']",6.1,180,0,0.06958605224817216,[7200|0|0]
7200,1.280946135520935,-0.3257051706314087,-0.0027220146730542183,0.003672567894682288,0.7889055609703064,4.027640342712402,4.04296875,0,"['C1', 'F2', 'F1']",6.1,180,0,0.06965696454311132,[7300|0|0]
7300,1.2808715105056763,-0.3255479037761688,-0.002955311443656683,0.0011947675375267863,0.78680020570755,4.047759056091309,4.04296875,0,"['C1', 'F2', 'F1']",6.1,180,0,0.0699480472458488,[7400|0|0]
7400,1.2808867692947388,-0.3254666030406952,-0.002804006217047572,-0.005207851529121399,0.7870010733604431,4.0456318855285645,4.04296875,0,"['C1', 'F2', 'F1']",6.1,180,0,0.07012048828455897,[7500|0|0]
7500,1.2809584140777588,-0.3254047632217407,-0.002820641966536641,-0.009141664020717144,0.7851176857948303,4.057195663452148,4.04296875,0,"['C1', 'F2', 'F1']",6.1,180,0,0.07021658139723293,[7600|0|0]
7600,1.2808027267456055,-0.3255229890346527,-0.0028695694636553526,-0.0014904909767210484,0.7902753353118896,4.07265567779541,4.04296875,0,"['C1', 'F2', 'F1']",6.1,180,0,0.07041810010159066,[7700|0|0]
7700,1.281020164489746,-0.32583922147750854,-0.0025605610571801662,0.005063478369265795,0.7828649282455444,4.045102596282959,4.04296875,0,"['C1', 'F2', 'F1']",6.1,180,0,0.07091081535989292,[7800|0|0]
7800,1.2808362245559692,-0.32534918189048767,-0.002989730332046747,-0.008216680027544498,0.7837132811546326,4.04939079284668,4.04296875,0,"['C1', 'F2', 'F1']",6.1,180,0,0.07158768976668854,[7900|0|0]
7900,1.2808915376663208,-0.3256082534790039,-0.0027177161537110806,0.0027895949315279722,0.7863513231277466,4.035586833953857,4.04296875,0,"['C1', 'F2', 'F1']",6.1,180,0,0.0719673861471937,[8000|0|0]
8000,1.2811543941497803,-0.32574912905693054,-0.002573734847828746,0.005992291495203972,0.7775023579597473,4.006688594818115,4.04296875,0,"['C1', 'F2', 'F1']",6.1,180,0,0.07229855087326884,[8100|0|0]
8100,1.2812553644180298,-0.3260330557823181,-0.002592475153505802,0.022596431896090508,0.7912247776985168,4.005273342132568,4.04296875,0,"['C1', 'F2', 'F1']",6.1,180,0,0.07260047897649302,[8200|0|0]
8200,1.2809925079345703,-0.32559680938720703,-0.002915180753916502,0.004354489501565695,0.7991863489151001,4.002253532409668,4.04296875,0,"['C1', 'F2', 'F1']",6.1,180,0,0.07320342454010596,[8300|0|0]
8300,1.2810064554214478,-0.32579290866851807,-0.0026091700419783592,0.011850175447762012,0.8059439659118652,4.000372886657715,4.04296875,0,"['C1', 'F2', 'F1']",6.1,180,0,0.073567144234846,[8400|0|0]
8400,1.2807753086090088,-0.32578784227371216,-0.002538666594773531,0.004818175453692675,0.8048624396324158,3.9911093711853027,4.04296875,0,"['C1', 'F2', 'F1']",6.1,180,0,0.07380885739817143,[8500|0|0]
8500,1.2810331583023071,-0.3254658877849579,-0.0033510099165141582,-0.006803533993661404,0.7889597415924072,3.993006467819214,4.04296875,0,"['C1', 'F2', 'F1']",6.1,180,0,0.07471992426154628,[8600|0|0]
8600,1.2811683416366577,-0.325306236743927,-0.002953712362796068,-0.011474287137389183,0.7829922437667847,4.000146865844727,4.04296875,0,"['C1', 'F2', 'F1']",6.1,180,0,0.07516893242959978,[8700|0|0]
8700,1.2809596061706543,-0.32548752427101135,-0.00277602463029325,-0.009619653224945068,0.7771602869033813,4.003724575042725,4.04296875,0,"['C1', 'F2', 'F1']",6.1,180,0,0.07549757903695488,[8800|0|0]
8800,1.2811521291732788,-0.3256174623966217,-0.0023440502118319273,-0.006783234421163797,0.7773110270500183,4.01255989074707,4.04296875,0,"['C1', 'F2', 'F1']",6.1,180,0,0.07598803894482879,[8900|0|0]
8900,1.2808383703231812,-0.32564297318458557,-0.0029780981130898,-0.012309229001402855,0.792568564414978,4.038999080657959,4.04296875,0,"['C1', 'F2', 'F1']",6.1,180,0,0.07669593170323691,[9000|0|0]
9000,1.2813135385513306,-0.32552051544189453,-0.002466194098815322,-0.011790012940764427,0.7811556458473206,4.02448034286499,4.04296875,0,"['C1', 'F2', 'F1']",6.1,180,0,0.07740503427946828,[9100|0|0]
9100,1.2809609174728394,-0.32546159625053406,-0.002974468981847167,-0.0033161616884171963,0.7906451225280762,4.016068935394287,4.04296875,0,"['C1', 'F2', 'F1']",6.1,180,0,0.07802644915926109,[9200|0|0]
9200,1.2810598611831665,-0.32554906606674194,-0.002523787086829543,-0.008966898545622826,0.7760627269744873,4.003642559051514,4.04296875,0,"['C1', 'F2', 'F1']",6.1,180,0,0.07849608199143684,[9300|0|0]
9300,1.2810815572738647,-0.32574114203453064,-0.0026908586733043194,-0.010593907907605171,0.7713948488235474,3.9911649227142334,4.04296875,0,"['C1', 'F2', 'F1']",6.1,180,0,0.0787515752648527,[9400|0|0]
9400,1.2808343172073364,-0.325425922870636,-0.0029081772081553936,-0.023117586970329285,0.7613094449043274,3.9968953132629395,4.04296875,0,"['C1', 'F2', 'F1']",6.1,180,0,0.07920733629584722,[9500|0|0]
9500,1.280957818031311,-0.3256056010723114,-0.0029926642309874296,-0.018450118601322174,0.756747305393219,3.976412534713745,4.04296875,0,"['C1', 'F2', 'F1']",6.1,180,0,0.0794411626560095,[9600|0|0]
9600,1.280962586402893,-0.3256482779979706,-0.0025783241726458073,-0.006800471339374781,0.7682369351387024,3.958320140838623,4.04296875,0,"['C1', 'F2', 'F1']",6.1,180,0,0.07985772206509517,[9700|0|0]
9700,1.2811787128448486,-0.32581090927124023,-0.0025913650169968605,-0.00660621328279376,0.7595180869102478,3.9772863388061523,4.04296875,0,"['C1', 'F2', 'F1']",6.1,180,0,0.08012851651403952,[9800|0|0]
9800,1.2811462879180908,-0.32578742504119873,-0.0026427407283335924,-0.007951447740197182,0.7559450268745422,3.9855637550354004,4.04296875,0,"['C1', 'F2', 'F1']",6.1,180,0,0.08019364982848955,[9900|0|0]
9900,1.2809697389602661,-0.3258964717388153,-0.002559723798185587,-0.009841959923505783,0.7544337511062622,4.015632152557373,4.04296875,0,"['C1', 'F2', 'F1']",6.1,180,0,0.08041715044920741,[10000|0|0]
10000,1.2808010578155518,-0.325458824634552,-0.0028855502605438232,-0.02159447968006134,0.7506217360496521,4.037057399749756,4.04296875,0,"['C1', 'F2', 'F1']",6.1,180,0,0.08098824693844989,[10100|0|0]
10100,1.2810957431793213,-0.32589930295944214,-0.002565259812399745,-0.011485718190670013,0.7401312589645386,4.003840446472168,4.04296875,0,"['C1', 'F2', 'F1']",6.1,180,0,0.08160747758165994,[10200|0|0]
10200,1.2810124158859253,-0.32580021023750305,-0.0026461388915777206,-0.013262414373457432,0.7474750876426697,4.025925159454346,4.04296875,0,"['C1', 'F2', 'F1']",6.1,180,0,0.08176013481474988,[10300|0|0]
10300,1.280913233757019,-0.32552778720855713,-0.002795544918626547,-0.01811041496694088,0.7485312819480896,4.044203281402588,4.04296875,0,"['C1', 'F2', 'F1']",6.1,180,0,0.08208628441587329,[10400|0|0]
10400,1.2811201810836792,-0.3259330689907074,-0.002599352039396763,-0.007230456918478012,0.7441454529762268,4.031605243682861,4.04296875,0,"['C1', 'F2', 'F1']",6.1,180,0,0.08258183679939611,[10500|0|0]
10500,1.2810252904891968,-0.3258623480796814,-0.0026096347719430923,-0.007954803295433521,0.7531954646110535,4.021033763885498,4.04296875,0,"['C1', 'F2', 'F1']",6.1,180,0,0.08270062824170656,[10600|0|0]
10600,1.2810226678848267,-0.3254925310611725,-0.00279650604352355,-0.006668411660939455,0.7572592496871948,4.015303611755371,4.04296875,0,"['C1', 'F2', 'F1']",6.1,180,0,0.08311498603079058,[10700|0|0]
10700,1.281113624572754,-0.3257662355899811,-0.0025253649801015854,-0.0011588698253035545,0.7549001574516296,3.9946448802948,4.04296875,0,"['C1', 'F2', 'F1']",6.1,180,0,0.08351084555693922,[10800|0|0]
10800,1.2811781167984009,-0.3257025480270386,-0.0026941108517348766,-0.00795777328312397,0.7494720816612244,4.008376121520996,4.04296875,0,"['C1', 'F2', 'F1']",6.1,180,0,0.08370239325866319,[10900|0|0]
10900,1.2808935642242432,-0.3256995379924774,-0.0028797623235732317,-0.006751096807420254,0.7558275461196899,4.01275634765625,4.04296875,0,"['C1', 'F2', 'F1']",6.1,180,0,0.08404216626636625,[11000|0|0]
11000,1.2813223600387573,-0.32598382234573364,-0.0026695490814745426,0.006604397669434547,0.7530009150505066,4.001108646392822,4.04296875,0,"['C1', 'F2', 'F1']",6.1,180,0,0.08459792975131719,[11100|0|0]
11100,1.2810481786727905,-0.3257494568824768,-0.003034208668395877,0.00750791234895587,0.7725889086723328,4.013094425201416,4.04296875,0,"['C1', 'F2', 'F1']",6.1,180,0,0.08511084222547302,[11200|0|0]
11200,1.280634880065918,-0.3255332112312317,-0.0030315970070660114,0.0018282404635101557,0.7789900302886963,4.053325176239014,4.04296875,0,"['C1', 'F2', 'F1']",6.1,180,0,0.08557730202106116,[11300|0|0]
11300,1.2820112705230713,-0.3252975642681122,-0.00271555595099926,-0.18233969807624817,0.5986766815185547,4.0489821434021,4.04296875,0,"['C1', 'F2', 'F1']",6.1,180,0,0.08700903598059763,[11400|0|0]
11400,1.2813166379928589,-0.3251229226589203,-0.0028272815980017185,-0.2963259816169739,0.5236316323280334,4.029435157775879,4.0390625,0,"['C1', 'F2', 'F1']",6.1,180,0,0.08773394746753141,[11500|0|0]
11500,1.2812899351119995,-0.32526323199272156,-0.0027026303578168154,-0.2188638299703598,0.5882297158241272,4.016340255737305,4.04296875,0,"['C1', 'F2', 'F1']",6.1,180,0,0.08792351984072323,[11600|0|0]
11600,1.2812070846557617,-0.3249585032463074,-0.002768606413155794,-0.17383208870887756,0.6382145881652832,4.0389533042907715,4.04296875,0,"['C1', 'F2', 'F1']",6.1,180,0,0.08824612896469226,[11700|0|0]
11700,1.2812659740447998,-0.32514798641204834,-0.0032075904309749603,-0.13811075687408447,0.6587998867034912,4.057459831237793,4.04296875,0,"['C1', 'F2', 'F1']",6.1,180,0,0.08872787453876758,[11800|0|0]
11800,1.2811346054077148,-0.3253665864467621,-0.0025351715739816427,-0.10312426090240479,0.695088267326355,4.055877685546875,4.04296875,0,"['C1', 'F2', 'F1']",6.1,180,0,0.08944703433549332,[11900|0|0]
11900,1.2810219526290894,-0.3254873752593994,-0.0026955539360642433,-0.08085112273693085,0.7128530740737915,4.060405254364014,4.04296875,0,"['C1', 'F2', 'F1']",6.1,180,0,0.08967725833045817,[12000|0|0]
12000,1.2811919450759888,-0.32533836364746094,-0.0027382448315620422,-0.07546267658472061,0.7255212664604187,4.04274320602417,4.04296875,0,"['C1', 'F2', 'F1']",6.1,180,0,0.0899073113788052,[12100|0|0]
12100,1.2811661958694458,-0.32541128993034363,-0.0025822583120316267,-0.07188667356967926,0.723188579082489,4.045542240142822,4.04296875,0,"['C1', 'F2', 'F1']",6.1,180,0,0.09008141783660585,[12200|0|0]
12200,1.2810888290405273,-0.3255491554737091,-0.002494476968422532,-0.0664549320936203,0.7216190695762634,4.044912338256836,4.04296875,0,"['C1', 'F2', 'F1']",6.1,180,0,0.09026224399220889,[12300|0|0]
12300,1.2812023162841797,-0.3253720700740814,-0.002925413427874446,-0.07292389869689941,0.7164661288261414,4.053610324859619,4.04296875,0,"['C1', 'F2', 'F1']",6.1,180,0,0.09074176961750753,[12400|0|0]
12400,1.28120756149292,-0.32557412981987,-0.002630495233461261,-0.07217121869325638,0.7179566621780396,4.050271511077881,4.04296875,0,"['C1', 'F2', 'F1']",6.1,180,0,0.09109930618134235,[12500|0|0]
12500,1.2812036275863647,-0.3253669738769531,-0.002412890549749136,-0.08542714267969131,0.7132625579833984,4.048178672790527,4.04296875,0,"['C1', 'F2', 'F1']",6.1,180,0,0.0913997739145185,[12600|0|0]
12600,1.281194806098938,-0.32540684938430786,-0.0028543067164719105,-0.08384078741073608,0.7124515771865845,4.050051212310791,4.04296875,0,"['C1', 'F2', 'F1']",6.1,180,0,0.09184307528714378,[12700|0|0]
12700,1.281060814857483,-0.3253239691257477,-0.002654669340699911,-0.09624069929122925,0.7011551260948181,4.062192916870117,4.04296875,0,"['C1', 'F2', 'F1']",6.1,180,0,0.09209739373289792,[12800|0|0]
12800,1.2809804677963257,-0.32540929317474365,-0.0025878148153424263,-0.09509435296058655,0.7009338736534119,4.059814453125,4.04296875,0,"['C1', 'F2', 'F1']",6.1,180,0,0.09223232101381043,[12900|0|0]
12900,1.2811323404312134,-0.3256308138370514,-0.002772460924461484,-0.09006411582231522,0.7010436654090881,4.0508270263671875,4.0390625,0,"['C1', 'F2', 'F1']",6.1,180,0,0.09255825181424175,[13000|0|0]
13000,1.2811344861984253,-0.32529112696647644,-0.002867369679734111,-0.09513024985790253,0.701206624507904,4.014798641204834,4.04296875,0,"['C1', 'F2', 'F1']",6.1,180,0,0.09291095487091312,[13100|0|0]
13100,1.281022310256958,-0.32554641366004944,-0.0025872872211039066,-0.08539826422929764,0.7071444988250732,4.035887718200684,4.04296875,0,"['C1', 'F2', 'F1']",6.1,180,0,0.09330617749348405,[13200|0|0]
13200,1.2813911437988281,-0.3257601261138916,-0.002529407385736704,-0.0778796598315239,0.6983612179756165,4.004383087158203,4.04296875,0,"['C1', 'F2', 'F1']",6.1,180,0,0.09373636497572618,[13300|0|0]
13300,1.2811051607131958,-0.32571303844451904,-0.0024461448192596436,-0.07446744292974472,0.7090415954589844,4.020683288574219,4.04296875,0,"['C1', 'F2', 'F1']",6.1,180,0,0.09403792132013146,[13400|0|0]
13400,1.2809562683105469,-0.32521936297416687,-0.0027825660072267056,-0.09679567068815231,0.7063326239585876,4.012031078338623,4.04296875,0,"['C1', 'F2', 'F1']",6.1,180,0,0.09465360275830154,[13500|0|0]
13500,1.2812029123306274,-0.3256596624851227,-0.00261120218783617,-0.08932796120643616,0.6913570165634155,3.985367774963379,4.04296875,0,"['C1', 'F2', 'F1']",6.1,180,0,0.09518657788960275,[13600|0|0]
13600,1.281076192855835,-0.32554784417152405,-0.0025393322575837374,-0.09462334960699081,0.6900960206985474,3.9991250038146973,4.04296875,0,"['C1', 'F2', 'F1']",6.1,180,0,0.09537022550712668,[13700|0|0]
13700,1.2812228202819824,-0.3256300091743469,-0.0025242178235203028,-0.10809970647096634,0.6663442254066467,4.017680644989014,4.04296875,0,"['C1', 'F2', 'F1']",6.1,180,0,0.09553898313185685,[13800|0|0]
13800,1.2812331914901733,-0.3254622220993042,-0.0026504788547754288,-0.11125531792640686,0.6763442158699036,4.032491683959961,4.04296875,0,"['C1', 'F2', 'F1']",6.1,180,0,0.09574922564069924,[13900|0|0]
13900,1.2812411785125732,-0.3255690038204193,-0.0025520126800984144,-0.10753076523542404,0.6770168542861938,4.01005220413208,4.04296875,0,"['C1', 'F2', 'F1']",6.1,180,0,0.09589469631144303,[14000|0|0]
14000,1.2811627388000488,-0.32575368881225586,-0.0024692511651664972,-0.10011016577482224,0.6839845180511475,3.9889302253723145,4.04296875,0,"['C1', 'F2', 'F1']",6.1,180,0,0.09611174654310474,[14100|0|0]
14100,1.280957818031311,-0.3254123330116272,-0.0028268923051655293,-0.11198217421770096,0.6875409483909607,3.99881649017334,4.04296875,0,"['C1', 'F2', 'F1']",6.1,180,0,0.09664693201478977,[14200|0|0]
14200,1.2811312675476074,-0.32559001445770264,-0.002516632666811347,-0.10667552053928375,0.6776993274688721,3.992619276046753,4.04296875,0,"['C1', 'F2', 'F1']",6.1,180,0,0.09704431907317816,[14300|0|0]
14300,1.2811877727508545,-0.32537373900413513,-0.0026929695159196854,-0.11126163601875305,0.6737188696861267,3.9990179538726807,4.04296875,0,"['C1', 'F2', 'F1']",6.1,180,0,0.09732903400809251,[14400|0|0]
14400,1.2812914848327637,-0.32555797696113586,-0.0027456521056592464,-0.11425268650054932,0.6728417277336121,4.011821269989014,4.04296875,0,"['C1', 'F2', 'F1']",6.1,180,0,0.09754692222713017,[14500|0|0]
14500,1.2810955047607422,-0.3256315290927887,-0.002686895662918687,-0.11028368026018143,0.670444905757904,3.9776270389556885,4.04296875,0,"['C1', 'F2', 'F1']",6.1,180,0,0.09776433985351715,[14600|0|0]
14600,1.2810964584350586,-0.32526272535324097,-0.002846007701009512,-0.11639850586652756,0.6715388298034668,3.99263334274292,4.04296875,0,"['C1', 'F2', 'F1']",6.1,180,0,0.09816600357911918,[14700|0|0]
14700,1.2812118530273438,-0.32534998655319214,-0.0028074863366782665,-0.11447954177856445,0.670569658279419,4.029548168182373,4.04296875,0,"['C1', 'F2', 'F1']",6.1,180,0,0.09831571772158915,[14800|0|0]
14800,1.2812566757202148,-0.32565388083457947,-0.002627535257488489,-0.1058276817202568,0.6683272123336792,4.016786098480225,4.04296875,0,"['C1', 'F2', 'F1']",6.1,180,0,0.09867172783234122,[14900|0|0]
14900,1.2811890840530396,-0.32557663321495056,-0.0025818166323006153,-0.11260189116001129,0.6736695170402527,4.011678695678711,4.04296875,0,"['C1', 'F2', 'F1']",6.1,180,0,0.09878409340046125,[15000|0|0]
15000,1.2811051607131958,-0.3255174160003662,-0.0024615321308374405,-0.11777041107416153,0.6710545420646667,3.9918811321258545,4.04296875,0,"['C1', 'F2', 'F1']",6.1,180,0,0.09894226472139492,[15100|0|0]
15100,1.2812817096710205,-0.32555609941482544,-0.002551872283220291,-0.11693164706230164,0.6688941717147827,3.995150327682495,4.04296875,0,"['C1', 'F2', 'F1']",6.1,180,0,0.09914432234732319,[15200|0|0]
15200,1.2813657522201538,-0.3255831003189087,-0.0024433904327452183,-0.11511942744255066,0.6704973578453064,3.978809118270874,4.04296875,0,"['C1', 'F2', 'F1']",6.1,180,0,0.09928418124324559,[15300|0|0]
15300,1.2810648679733276,-0.32556766271591187,-0.002689418150112033,-0.11433989554643631,0.6884166598320007,3.995117425918579,4.04296875,0,"['C1', 'F2', 'F1']",6.1,180,0,0.09967315333387314,[15400|0|0]
15400,1.2811483144760132,-0.3256056308746338,-0.0023879059590399265,-0.11262993514537811,0.6849355101585388,3.9955484867095947,4.04296875,0,"['C1', 'F2', 'F1']",6.1,180,0,0.09998829536733152,[15500|0|0]
15500,1.2809288501739502,-0.32525232434272766,-0.002925260690972209,-0.11560311913490295,0.6887809634208679,4.000918388366699,4.04296875,0,"['C1', 'F2', 'F1']",6.1,180,0,0.10066781004215285,[15600|0|0]
15600,1.281165361404419,-0.3256239891052246,-0.00226419884711504,-0.11089183390140533,0.6743901968002319,3.9899115562438965,4.04296875,0,"['C1', 'F2', 'F1']",6.1,180,0,0.10146221234528621,[15700|0|0]
15700,1.281397819519043,-0.32569241523742676,-0.002531522186473012,-0.1034868061542511,0.6673809289932251,3.988935708999634,4.04296875,0,"['C1', 'F2', 'F1']",6.1,180,0,0.10182301794167878,[15800|0|0]
15800,1.2812086343765259,-0.3253668248653412,-0.00287839793600142,-0.11197071522474289,0.6751256585121155,3.988945960998535,4.04296875,0,"['C1', 'F2', 'F1']",6.1,180,0,0.10233499733008707,[15900|0|0]
15900,1.2812858819961548,-0.32559114694595337,-0.0026568681932985783,-0.09416697174310684,0.6834545731544495,3.989388942718506,4.04296875,0,"['C1', 'F2', 'F1']",6.1,180,0,0.10265959402984,[16000|0|0]
16000,1.2811658382415771,-0.32544001936912537,-0.0025467723608016968,-0.09737595915794373,0.6817429065704346,3.989755630493164,4.04296875,0,"['C1', 'F2', 'F1']",6.1,180,0,0.10288179020402889,[16100|0|0]
16100,1.2812203168869019,-0.32535308599472046,-0.0028686015866696835,-0.10807971656322479,0.6772781014442444,3.9914393424987793,4.04296875,0,"['C1', 'F2', 'F1']",6.1,180,0,0.10321957620877839,[16200|0|0]
16200,1.2894474267959595,-0.31321924924850464,0.001630390528589487,-0.3443470597267151,0.47804293036460876,4.085280418395996,4.04296875,0,"['C1', 'F2', 'F1']",6.1,180,0,0.11855438177300696,[16300|0|0]
16300,1.289719820022583,-0.3134530782699585,0.001981189474463463,-0.3392547070980072,0.46419718861579895,4.0825605392456055,4.04296875,0,"['C1', 'F2', 'F1']",6.1,180,0,0.11905631202873054,[16400|0|0]
16400,1.2895840406417847,-0.3134061396121979,0.0013909399276599288,-0.34451353549957275,0.46124398708343506,4.084313869476318,4.04296875,0,"['C1', 'F2', 'F1']",6.1,180,0,0.11966379355548187,[16500|0|0]
16500,1.2896461486816406,-0.31350991129875183,0.0015733351465314627,-0.34122130274772644,0.45873260498046875,4.12250280380249,4.04296875,0,"['C1', 'F2', 'F1']",6.1,180,0,0.11988264050522575,[16600|0|0]
16600,1.289406657218933,-0.3134720027446747,0.0015883756568655372,-0.34043028950691223,0.46748897433280945,4.104732036590576,4.04296875,0,"['C1', 'F2', 'F1']",6.1,180,0,0.12012557966660802,[16700|0|0]
16700,1.2896960973739624,-0.31357672810554504,0.0018388843163847923,-0.34184592962265015,0.46822935342788696,4.098812580108643,4.04296875,0,"['C1', 'F2', 'F1']",6.1,180,0,0.1205224393307803,[16800|0|0]
16800,1.2894915342330933,-0.3136005401611328,0.001552725676447153,-0.34365060925483704,0.48044252395629883,4.120098114013672,4.04296875,0,"['C1', 'F2', 'F1']",6.1,180,0,0.1208750011832325,[16900|0|0]
16900,1.2897214889526367,-0.3135697543621063,0.0019257143139839172,-0.35269737243652344,0.4715045690536499,4.090324878692627,4.04296875,0,"['C1', 'F2', 'F1']",6.1,180,0,0.12131425903711053,[17000|0|0]
17000,1.2896264791488647,-0.31380176544189453,0.0017427299171686172,-0.35236918926239014,0.462950199842453,4.081702709197998,4.04296875,0,"['C1', 'F2', 'F1']",6.1,180,0,0.12162464475429986,[17100|0|0]
17100,1.2894989252090454,-0.31326764822006226,0.0013635221403092146,-0.36207395792007446,0.4775100648403168,4.093005657196045,4.04296875,0,"['C1', 'F2', 'F1']",6.1,180,0,0.12229199005641259,[17200|0|0]
17200,1.2895807027816772,-0.3132147490978241,0.0015130190877243876,-0.36069032549858093,0.47182396054267883,4.081644058227539,4.04296875,0,"['C1', 'F2', 'F1']",6.1,180,0,0.12247041434233123,[17300|0|0]
17300,1.2895208597183228,-0.31334561109542847,0.0015302742831408978,-0.36164048314094543,0.4739679992198944,4.098174095153809,4.0390625,0,"['C1', 'F2', 'F1']",6.1,180,0,0.12261534120808606,[17400|0|0]
17401,1.2896358966827393,-0.3135394752025604,0.001730122952722013,-0.357537180185318,0.47038108110427856,4.0886430740356445,4.04296875,0,"['C1', 'F2', 'F1']",6.1,180,0,0.12291659904773439,[17500|0|0]
17501,1.289499044418335,-0.3133483827114105,0.0018792280461639166,-0.35966116189956665,0.48223966360092163,4.075793266296387,4.04296875,0,"['C1', 'F2', 'F1']",6.1,180,0,0.12319494633321923,[17600|0|0]
17601,1.2895721197128296,-0.31346115469932556,0.0019040012266486883,-0.3544315695762634,0.4801237881183624,4.066819667816162,4.04296875,0,"['C1', 'F2', 'F1']",6.1,180,0,0.12333158904394731,[17700|0|0]
17701,1.2898844480514526,-0.31348490715026855,0.0017680812161415815,-0.3545876145362854,0.470183789730072,4.080976963043213,4.04296875,0,"['C1', 'F2', 'F1']",6.1,180,0,0.12367303804349056,[17800|0|0]
17801,1.2896255254745483,-0.31358224153518677,0.001666505355387926,-0.3543561100959778,0.4821784198284149,4.0771660804748535,4.04296875,0,"['C1', 'F2', 'F1']",6.1,180,0,0.12396771165752143,[17900|0|0]
17901,1.2891982793807983,-0.3135826289653778,0.0016427142545580864,-0.3524917662143707,0.49106597900390625,4.081222057342529,4.04296875,0,"['C1', 'F2', 'F1']",6.1,180,0,0.12439561981496353,[18000|0|0]
18001,1.2893296480178833,-0.3131478428840637,0.0013993759639561176,-0.35941892862319946,0.48998120427131653,4.068149566650391,4.04296875,0,"['C1', 'F2', 'F1']",6.1,180,0,0.12491089661338076,[18100|0|0]
18101,1.289849042892456,-0.3135674297809601,0.0019137051422148943,-0.34276366233825684,0.48059481382369995,4.061899185180664,4.04296875,0,"['C1', 'F2', 'F1']",6.1,180,0,0.12575372441512198,[18200|0|0]
18201,1.2892435789108276,-0.31347739696502686,0.001433069002814591,-0.3487490117549896,0.48972177505493164,4.101027011871338,4.04296875,0,"['C1', 'F2', 'F1']",6.1,180,0,0.1265319940595845,[18300|0|0]
18301,1.2894794940948486,-0.313653826713562,0.001635432941839099,-0.3488765060901642,0.4895203709602356,4.117280006408691,4.04296875,0,"['C1', 'F2', 'F1']",6.1,180,0,0.1268893938274039,[18400|0|0]
18401,1.2896627187728882,-0.3138648569583893,0.0017676310380920768,-0.3478769063949585,0.48796170949935913,4.117689609527588,4.04296875,0,"['C1', 'F2', 'F1']",6.1,180,0,0.1271985562176254,[18500|0|0]
18501,1.2896026372909546,-0.3135099709033966,0.0019340065773576498,-0.3594302833080292,0.48915913701057434,4.116644859313965,4.04296875,0,"['C1', 'F2', 'F1']",6.1,180,0,0.12759508454771737,[18600|0|0]
18601,1.2894352674484253,-0.3135327398777008,0.001486996072344482,-0.3579012453556061,0.49528324604034424,4.094476222991943,4.04296875,0,"['C1', 'F2', 'F1']",6.1,180,0,0.12807294381776585,[18700|0|0]
18701,1.2893846035003662,-0.3133440613746643,0.0015361802652478218,-0.3583640158176422,0.49264439940452576,4.098451137542725,4.04296875,0,"['C1', 'F2', 'F1']",6.1,180,0,0.12827440224517106,[18800|0|0]
18802,1.2896990776062012,-0.3134053647518158,0.0018534902483224869,-0.3567439615726471,0.48279452323913574,4.089379787445068,4.04296875,0,"['C1', 'F2', 'F1']",6.1,180,0,0.12872533205417655,[18900|0|0]
18902,1.289570689201355,-0.3136535584926605,0.0014515579678118229,-0.3511422574520111,0.48561105132102966,4.113650321960449,4.04296875,0,"['C1', 'F2', 'F1']",6.1,180,0,0.1292148555710886,[19000|0|0]
19001,1.2890993356704712,-0.31329694390296936,0.001238582655787468,-0.34964391589164734,0.49233877658843994,4.103957653045654,4.04296875,0,"['C1', 'F2', 'F1']",6.1,180,0,0.12984311236587007,[19100|0|0]
19100,1.28961980342865,-0.31352555751800537,0.0015778198139742017,-0.34174245595932007,0.48486587405204773,4.093316078186035,4.04296875,0,"['C1', 'F2', 'F1']",6.1,180,0,0.1305051038475207,[19200|0|0]
19200,1.2894572019577026,-0.3136084973812103,0.001683667884208262,-0.343707799911499,0.4870879650115967,4.100089073181152,4.04296875,0,"['C1', 'F2', 'F1']",6.1,180,0,0.13071610639071615,[19300|0|0]
19300,1.2893261909484863,-0.31365713477134705,0.001396945328451693,-0.3469254672527313,0.4932057857513428,4.093047142028809,4.04296875,0,"['C1', 'F2', 'F1']",6.1,180,0,0.1310350723830018,[19400|0|0]
19400,1.2893790006637573,-0.3137713372707367,0.0018389543984085321,-0.3462616503238678,0.496134877204895,4.091292381286621,4.04296875,0,"['C1', 'F2', 'F1']",6.1,180,0,0.1314946407618291,[19500|0|0]
19502,1.289324402809143,-0.31349819898605347,0.0016921877395361662,-0.35839545726776123,0.4878948926925659,4.105686187744141,4.04296875,0,"['C1', 'F2', 'F1']",6.1,180,0,0.13180948342165258,[19600|0|0]
19602,1.2896738052368164,-0.31329208612442017,0.0016201839316636324,-0.36214572191238403,0.48039743304252625,4.09571647644043,4.04296875,0,"['C1', 'F2', 'F1']",6.1,180,0,0.13222148963100244,[19700|0|0]
19700,1.289660096168518,-0.31353577971458435,0.0019052987918257713,-0.3546101748943329,0.46886488795280457,4.080732345581055,4.04296875,0,"['C1', 'F2', 'F1']",6.1,180,0,0.13259680947850053,[19800|0|0]
19800,1.2896398305892944,-0.31325671076774597,0.0014763647923246026,-0.3583303391933441,0.4755510985851288,4.067394733428955,4.04296875,0,"['C1', 'F2', 'F1']",6.1,180,0,0.13310893694966255,[19900|0|0]
19900,1.289313554763794,-0.31310805678367615,0.0014478056691586971,-0.3615029752254486,0.48785296082496643,4.073225975036621,4.04296875,0,"['C1', 'F2', 'F1']",6.1,180,0,0.13346861673058144,[20000|0|0]
20000,1.2893441915512085,-0.31360718607902527,0.0017320921178907156,-0.3392893970012665,0.49758052825927734,4.061138153076172,4.04296875,0,"['C1', 'F2', 'F1']",6.1,180,0,0.13404384490370186,[20100|0|0]
20100,1.2895617485046387,-0.3137321174144745,0.0016245467122644186,-0.3386669456958771,0.478672057390213,4.068446636199951,4.04296875,0,"['C1', 'F2', 'F1']",6.1,180,0,0.13431680072583113,[20200|0|0]
20200,1.2896407842636108,-0.31336134672164917,0.0018836625386029482,-0.34956496953964233,0.47722098231315613,4.073755741119385,4.04296875,0,"['C1', 'F2', 'F1']",6.1,180,0,0.13477599411571559,[20300|0|0]
20300,1.2894160747528076,-0.31370052695274353,0.0016276800306513906,-0.3432064354419708,0.48085397481918335,4.073836803436279,4.04296875,0,"['C1', 'F2', 'F1']",6.1,180,0,0.13525668594816942,[20400|0|0]
20400,1.2894315719604492,-0.31338757276535034,0.0016391698736697435,-0.34919625520706177,0.473069429397583,4.077183246612549,4.04296875,0,"['C1', 'F2', 'F1']",6.1,180,0,0.1355702341954045,[20500|0|0]
20500,1.2896759510040283,-0.31355711817741394,0.001844452228397131,-0.34822016954421997,0.46133196353912354,4.05791711807251,4.04296875,0,"['C1', 'F2', 'F1']",6.1,180,0,0.13593163094256042,[20600|0|0]
20600,1.289609432220459,-0.3134644627571106,0.0017364459345117211,-0.34883296489715576,0.46485641598701477,4.064917087554932,4.04296875,0,"['C1', 'F2', 'F1']",6.1,180,0,0.13608871415298723,[20700|0|0]
20700,1.2896090745925903,-0.3137803077697754,0.0015949734952300787,-0.341991662979126,0.4564547538757324,4.047481060028076,4.04296875,0,"['C1', 'F2', 'F1']",6.1,180,0,0.1364347960089104,[20800|0|0]
20800,1.2897526025772095,-0.31347939372062683,0.0017295983852818608,-0.3483380377292633,0.448844850063324,4.066054344177246,4.04296875,0,"['C1', 'F2', 'F1']",6.1,180,0,0.13679434212328972,[20900|0|0]
20900,1.289833426475525,-0.3135968744754791,0.0017187278717756271,-0.3413209617137909,0.4498893916606903,4.073833465576172,4.04296875,0,"['C1', 'F2', 'F1']",6.1,180,0,0.1369373540051858,[21000|0|0]
21000,1.2895569801330566,-0.3134644627571106,0.0017977312672883272,-0.3346368968486786,0.4561617374420166,4.079771041870117,4.04296875,0,"['C1', 'F2', 'F1']",6.1,180,0,0.13725389307059152,[21100|0|0]
21100,1.289609432220459,-0.31358927488327026,0.0017079378012567759,-0.3348675072193146,0.45518508553504944,4.071134567260742,4.04296875,0,"['C1', 'F2', 'F1']",6.1,180,0,0.13741634969511424,[21200|0|0]
21200,1.2894484996795654,-0.31380951404571533,0.0015696645714342594,-0.32883819937705994,0.4597216546535492,4.055826663970947,4.04296875,0,"['C1', 'F2', 'F1']",6.1,180,0,0.13772216672779639,[21300|0|0]
21300,1.289451241493225,-0.3134559988975525,0.0017626247135922313,-0.3386692404747009,0.4582400321960449,4.077185153961182,4.04296875,0,"['C1', 'F2', 'F1']",6.1,180,0,0.13812492483632352,[21400|0|0]
21400,1.2892286777496338,-0.313777357339859,0.0017831914592534304,-0.33222389221191406,0.47127577662467957,4.06596565246582,4.04296875,0,"['C1', 'F2', 'F1']",6.1,180,0,0.13851636941660295,[21500|0|0]
21500,1.2894256114959717,-0.3136156499385834,0.0016164013650268316,-0.3407037854194641,0.4664113521575928,4.084446430206299,4.0390625,0,"['C1', 'F2', 'F1']",6.1,180,0,0.13882092010139305,[21600|0|0]
21600,1.2896971702575684,-0.31356731057167053,0.0016092737205326557,-0.3460017740726471,0.4630439579486847,4.0880889892578125,4.04296875,0,"['C1', 'F2', 'F1']",6.1,180,0,0.1390968397612752,[21700|0|0]
21700,1.2893563508987427,-0.3132990002632141,0.001529697678051889,-0.3524518609046936,0.475648432970047,4.1168904304504395,4.04296875,0,"['C1', 'F2', 'F1']",6.1,180,0,0.13953783931174124,[21800|0|0]
21800,1.2894437313079834,-0.3135553002357483,0.001977214589715004,-0.3526386618614197,0.47099313139915466,4.109748840332031,4.04296875,0,"['C1', 'F2', 'F1']",6.1,180,0,0.14006090374186872,[21900|0|0]
21900,1.2894529104232788,-0.3137095868587494,0.0018687804695218801,-0.34961286187171936,0.4827343821525574,4.111713409423828,4.04296875,0,"['C1', 'F2', 'F1']",6.1,180,0,0.14024970675195264,[22000|0|0]
22000,1.2892929315567017,-0.31391844153404236,0.001733858254738152,-0.34059232473373413,0.49115365743637085,4.09827184677124,4.04296875,0,"['C1', 'F2', 'F1']",6.1,180,0,0.1405453712868316,[22100|0|0]
22100,1.289591908454895,-0.31366202235221863,0.0018762715626507998,-0.3432438373565674,0.4877183139324188,4.091109752655029,4.04296875,0,"['C1', 'F2', 'F1']",6.1,180,0,0.14096420243745328,[22200|0|0]
22200,1.2893013954162598,-0.3135036528110504,0.0014484117273241282,-0.3536119759082794,0.4846073389053345,4.109192371368408,4.04296875,0,"['C1', 'F2', 'F1']",6.1,180,0,0.14150507467363543,[22300|0|0]
22300,1.289549469947815,-0.3134865462779999,0.0019157968927174807,-0.35347726941108704,0.4757859408855438,4.10791015625,4.04296875,0,"['C1', 'F2', 'F1']",6.1,180,0,0.14203449180549754,[22400|0|0]
22400,1.289310097694397,-0.31349751353263855,0.0015837581595405936,-0.351744145154953,0.47905221581459045,4.117229461669922,4.04296875,0,"['C1', 'F2', 'F1']",6.1,180,0,0.14244396595206898,[22500|0|0]
22500,1.2893975973129272,-0.31337952613830566,0.0016555461334064603,-0.356062650680542,0.4796261489391327,4.118407249450684,4.04296875,0,"['C1', 'F2', 'F1']",6.1,180,0,0.14260746127816784,[22600|0|0]
22600,1.2895631790161133,-0.3138711452484131,0.0017277849838137627,-0.3434131443500519,0.48000890016555786,4.097011089324951,4.04296875,0,"['C1', 'F2', 'F1']",6.1,180,0,0.14313122181635393,[22700|0|0]
22700,1.2894213199615479,-0.31334176659584045,0.0012994995340704918,-0.3578181564807892,0.4887241721153259,4.09311580657959,4.0390625,0,"['C1', 'F2', 'F1']",6.1,180,0,0.14382677495999113,[22800|0|0]
22800,1.289639949798584,-0.31341540813446045,0.0017489783931523561,-0.35473117232322693,0.4775383472442627,4.079512119293213,4.04296875,0,"['C1', 'F2', 'F1']",6.1,180,0,0.14433200097536872,[22900|0|0]
22900,1.2892957925796509,-0.31352850794792175,0.0015842191642150283,-0.34401434659957886,0.491571843624115,4.084872722625732,4.04296875,0,"['C1', 'F2', 'F1']",6.1,180,0,0.14472997253549427,[23000|0|0]
23000,1.2895944118499756,-0.3134289085865021,0.001966475509107113,-0.3420703709125519,0.48679864406585693,4.07860803604126,4.04296875,0,"['C1', 'F2', 'F1']",6.1,180,0,0.14522516281671424,[23100|0|0]
23100,1.2895681858062744,-0.31345340609550476,0.001957241678610444,-0.34061378240585327,0.48737335205078125,4.068100929260254,4.04296875,0,"['C1', 'F2', 'F1']",6.1,180,0,0.1452622194887342,[23200|0|0]
23200,1.2896977663040161,-0.3135659396648407,0.0017527161398902535,-0.3399789035320282,0.4857712984085083,4.063716411590576,4.04296875,0,"['C1', 'F2', 'F1']",6.1,180,0,0.1455292131321253,[23300|0|0]
23300,1.2895318269729614,-0.31365662813186646,0.0017565772868692875,-0.33977627754211426,0.48643869161605835,4.06291389465332,4.04296875,0,"['C1', 'F2', 'F1']",6.1,180,0,0.14571835637968744,[23400|0|0]
23400,1.289438247680664,-0.31347203254699707,0.0015372883062809706,-0.3424795866012573,0.49149569869041443,4.04813814163208,4.04296875,0,"['C1', 'F2', 'F1']",6.1,180,0,0.14601988626362536,[23500|0|0]
23500,1.2893518209457397,-0.3133913576602936,0.0016026863595470786,-0.3514879047870636,0.4879537522792816,4.067206382751465,4.04296875,0,"['C1', 'F2', 'F1']",6.1,180,0,0.146154997044932,[23600|0|0]
23600,1.2896595001220703,-0.31364983320236206,0.0018091588281095028,-0.3405756652355194,0.4822479784488678,4.067506313323975,4.04296875,0,"['C1', 'F2', 'F1']",6.1,180,0,0.14660677902959862,[23700|0|0]
23700,1.2894943952560425,-0.3136386275291443,0.0017402531811967492,-0.34545037150382996,0.48814597725868225,4.0583953857421875,4.04296875,0,"['C1', 'F2', 'F1']",6.1,180,0,0.1467860363085995,[23800|0|0]
23800,1.2895050048828125,-0.31338369846343994,0.0020888394210487604,-0.3461630642414093,0.49516382813453674,4.052595138549805,4.04296875,0,"['C1', 'F2', 'F1']",6.1,180,0,0.14721802445581564,[23900|0|0]
23900,1.2894996404647827,-0.31346866488456726,0.0016062071081250906,-0.3353581130504608,0.5065065026283264,4.078754425048828,4.0390625,0,"['C1', 'F2', 'F1']",6.1,180,0,0.1477081081417082,[24000|0|0]
24000,1.2894837856292725,-0.3140120208263397,0.0018850164487957954,-0.32763099670410156,0.4970448315143585,4.08457088470459,4.0390625,0,"['C1', 'F2', 'F1']",6.1,180,0,0.1483190268791142,[24100|0|0]
24100,1.2896041870117188,-0.3135893642902374,0.001776964869350195,-0.341617226600647,0.49114879965782166,4.091923713684082,4.04296875,0,"['C1', 'F2', 'F1']",6.1,180,0,0.14877158647101968,[24200|0|0]
24200,1.2894206047058105,-0.3134322464466095,0.0013415426947176456,-0.3477357029914856,0.4891757071018219,4.113250255584717,4.0390625,0,"['C1', 'F2', 'F1']",6.1,180,0,0.1492695633279022,[24300|0|0]
24300,1.2896760702133179,-0.3133944869041443,0.0017887817230075598,-0.3522820472717285,0.48350414633750916,4.094753742218018,4.04296875,0,"['C1', 'F2', 'F1']",6.1,180,0,0.14978600418317883,[24400|0|0]
24400,1.2894245386123657,-0.3136500418186188,0.0017297319136559963,-0.3467029631137848,0.48565033078193665,4.114535808563232,4.04296875,0,"['C1', 'F2', 'F1']",6.1,180,0,0.15014940938481203,[24500|0|0]
24500,1.2894108295440674,-0.3134878873825073,0.0018026350298896432,-0.34825393557548523,0.48185697197914124,4.124982833862305,4.04296875,0,"['C1', 'F2', 'F1']",6.1,180,0,0.15032772613685963,[24600|0|0]
24600,1.2894315719604492,-0.3135615885257721,0.0018263584934175014,-0.3456975221633911,0.48239782452583313,4.117832183837891,4.04296875,0,"['C1', 'F2', 'F1']",6.1,180,0,0.15040788166740898,[24700|0|0]
24700,1.289554476737976,-0.3136117458343506,0.0017066423315554857,-0.34690505266189575,0.47799965739250183,4.100208759307861,4.04296875,0,"['C1', 'F2', 'F1']",6.1,180,0,0.15058663652567508,[24800|0|0]
24800,1.289362907409668,-0.3135232627391815,0.0015133637934923172,-0.34312641620635986,0.4824420213699341,4.099773406982422,4.04296875,0,"['C1', 'F2', 'F1']",6.1,180,0,0.15087279148187008,[24900|0|0]
24900,1.2895493507385254,-0.3132980167865753,0.0017552187200635672,-0.3519889712333679,0.4805622100830078,4.104088306427002,4.04296875,0,"['C1', 'F2', 'F1']",6.1,180,0,0.15125225249376417,[25000|0|0]
25000,1.2894142866134644,-0.31301185488700867,0.0015333604533225298,-0.3600265085697174,0.4889865517616272,4.0993971824646,4.04296875,0,"['C1', 'F2', 'F1']",6.1,180,0,0.15163871341179266,[25100|0|0]
25100,1.2896578311920166,-0.3133208155632019,0.0017397839110344648,-0.3576895296573639,0.47923773527145386,4.1028547286987305,4.04296875,0,"['C1', 'F2', 'F1']",6.1,180,0,0.15208298957035818,[25200|0|0]
25200,1.2895816564559937,-0.3135175406932831,0.0018984222551807761,-0.3578292429447174,0.47163477540016174,4.093963146209717,4.04296875,0,"['C1', 'F2', 'F1']",6.1,180,0,0.1523469393599908,[25300|0|0]
25300,1.2893421649932861,-0.3135984539985657,0.0016690799966454506,-0.3591172397136688,0.47136327624320984,4.098560333251953,4.04296875,0,"['C1', 'F2', 'F1']",6.1,180,0,0.15268826178121686,[25400|0|0]
25400,1.289508581161499,-0.3136863112449646,0.0017092134803533554,-0.3452892303466797,0.47007766366004944,4.081181526184082,4.04296875,0,"['C1', 'F2', 'F1']",6.1,180,0,0.15288067782343268,[25500|0|0]
25500,1.2895923852920532,-0.3135147988796234,0.0018873828230425715,-0.35571423172950745,0.4620203375816345,4.070825576782227,4.04296875,0,"['C1', 'F2', 'F1']",6.1,180,0,0.1531417983673146,[25600|0|0]
25600,1.2903962135314941,-0.3137063682079315,0.0017718663439154625,-0.3607192635536194,0.465419739484787,4.089375019073486,4.04296875,0,"['C1', 'F2', 'F1']",6.1,180,0,0.15397617400395616,[25700|0|0]
25700,1.290265679359436,-0.31308838725090027,0.0017021138919517398,-0.39930757880210876,0.4510490596294403,4.091081142425537,4.04296875,0,"['C1', 'F2', 'F1']",6.1,180,0,0.15461163056256824,[25800|0|0]
25800,1.2901121377944946,-0.3135130703449249,0.001432329649105668,-0.3637876510620117,0.473630428314209,4.0833611488342285,4.04296875,0,"['C1', 'F2', 'F1']",6.1,180,0,0.1551376669493354,[25900|0|0]
25900,1.2903211116790771,-0.31338030099868774,0.0011948372703045607,-0.3463013768196106,0.4762777090072632,4.113603115081787,4.04296875,0,"['C1', 'F2', 'F1']",6.1,180,0,0.15548074188827202,[26000|0|0]
26000,1.2902358770370483,-0.3133941888809204,0.0014790641143918037,-0.3260151445865631,0.485711008310318,4.1254801750183105,4.04296875,0,"['C1', 'F2', 'F1']",6.1,180,0,0.15577779864442223,[26100|0|0]
26100,1.290296196937561,-0.3134462237358093,0.0015136976726353168,-0.31319931149482727,0.4953617453575134,4.114022731781006,4.04296875,0,"['C1', 'F2', 'F1']",6.1,180,0,0.1558646640568588,[26200|0|0]
26200,1.2903101444244385,-0.313444584608078,0.0016082737129181623,-0.29962942004203796,0.5087597966194153,4.133611679077148,4.04296875,0,"['C1', 'F2', 'F1']",6.1,180,0,0.15596027706081486,[26300|0|0]
26300,1.2901779413223267,-0.31354790925979614,0.0014822522643953562,-0.2962287664413452,0.5151543617248535,4.1347832679748535,4.04296875,0,"['C1', 'F2', 'F1']",6.1,180,0,0.1561701223594242,[26400|0|0]
26400,1.2899582386016846,-0.31364911794662476,0.0013511048164218664,-0.30208441615104675,0.5133255124092102,4.152649879455566,4.04296875,0,"['C1', 'F2', 'F1']",6.1,180,0,0.15644528074446284,[26500|0|0]
26500,1.2902330160140991,-0.31386542320251465,0.0012371414341032505,-0.3018636107444763,0.5058923959732056,4.140926837921143,4.04296875,0,"['C1', 'F2', 'F1']",6.1,180,0,0.15681308265121202,[26600|0|0]
26600,1.2903413772583008,-0.3138856291770935,0.0014985745074227452,-0.28595438599586487,0.5115511417388916,4.134506702423096,4.04296875,0,"['C1', 'F2', 'F1']",6.1,180,0,0.15709680380389346,[26700|0|0]
26700,1.2892237901687622,-0.3132256865501404,0.0013747215270996094,-0.39023950695991516,0.46296700835227966,4.148022174835205,4.04296875,0,"['C1', 'F2', 'F1']",6.1,180,0,0.15840059241187715,[26800|0|0]
26800,1.289209246635437,-0.3134465515613556,0.0016649009194225073,-0.4184078276157379,0.4400251805782318,4.1313042640686035,4.04296875,0,"['C1', 'F2', 'F1']",6.1,180,0,0.15876555398145614,[26900|0|0]
26900,1.289683222770691,-0.3131495416164398,0.0018603077623993158,-0.45951443910598755,0.39392581582069397,4.121300220489502,4.0390625,0,"['C1', 'F2', 'F1']",6.1,180,0,0.15935805049490687,[27000|0|0]
27000,1.2895809412002563,-0.3128473162651062,0.0016824716003611684,-0.48315340280532837,0.3863902986049652,4.127767562866211,4.0390625,0,"['C1', 'F2', 'F1']",6.1,180,0,0.15972332762691455,[27100|0|0]
27100,1.2895008325576782,-0.31329864263534546,0.002014865167438984,-0.4787868559360504,0.38226085901260376,4.133410453796387,4.04296875,0,"['C1', 'F2', 'F1']",6.1,180,0,0.16028954169466963,[27200|0|0]
27200,1.2898043394088745,-0.31286370754241943,0.0017469190061092377,-0.49930131435394287,0.37378647923469543,4.145443916320801,4.0390625,0,"['C1', 'F2', 'F1']",6.1,180,0,0.16088374712139764,[27300|0|0]
27300,1.2895326614379883,-0.31340688467025757,0.0018641576170921326,-0.4872504472732544,0.3847462832927704,4.151906967163086,4.0390625,0,"['C1', 'F2', 'F1']",6.1,180,0,0.16150228992830476,[27400|0|0]
27400,1.2898222208023071,-0.3130848705768585,0.0020051486790180206,-0.507091224193573,0.3656211197376251,4.123534202575684,4.0390625,0,"['C1', 'F2', 'F1']",6.1,180,0,0.161957719595054,[27500|0|0]
27500,1.2898012399673462,-0.3131459951400757,0.0020974897779524326,-0.5008473992347717,0.3735363781452179,4.101895809173584,4.04296875,0,"['C1', 'F2', 'F1']",6.1,180,0,0.1620704284510351,[27600|0|0]
27600,1.2894057035446167,-0.3130646049976349,0.0017099296674132347,-0.49650952219963074,0.385221928358078,4.129165172576904,4.0390625,0,"['C1', 'F2', 'F1']",6.1,180,0,0.16263013931949605,[27700|0|0]
27700,1.289497971534729,-0.3130488693714142,0.0021691792644560337,-0.4939342737197876,0.3744998872280121,4.111388206481934,4.04296875,0,"['C1', 'F2', 'F1']",6.1,180,0,0.16309883024571065,[27800|0|0]
27800,1.2895450592041016,-0.3133790194988251,0.002182526746764779,-0.47752314805984497,0.3699994683265686,4.119280815124512,4.0390625,0,"['C1', 'F2', 'F1']",6.1,180,0,0.1634325884074391,[27900|0|0]
27900,1.2897987365722656,-0.3130347728729248,0.0017258323496207595,-0.4912840723991394,0.3681049644947052,4.11610746383667,4.0390625,0,"['C1', 'F2', 'F1']",6.1,180,0,0.16405823025302257,[28000|0|0]
28000,1.2897974252700806,-0.3129478991031647,0.002093080896884203,-0.49153661727905273,0.37471309304237366,4.11224365234375,4.04296875,0,"['C1', 'F2', 'F1']",6.1,180,0,0.16443561635087578,[28100|0|0]
28100,1.2899143695831299,-0.3131900429725647,0.001997171901166439,-0.48303648829460144,0.3859589099884033,4.088318347930908,4.0390625,0,"['C1', 'F2', 'F1']",6.1,180,0,0.1647211126928877,[28200|0|0]
28200,1.2896443605422974,-0.313448041677475,0.0020899816881865263,-0.46984800696372986,0.4017634987831116,4.086994171142578,4.04296875,0,"['C1', 'F2', 'F1']",6.1,180,0,0.16510592676543884,[28300|0|0]
28300,1.2895621061325073,-0.31321319937705994,0.0017829958815127611,-0.4751346707344055,0.4037242531776428,4.08748197555542,4.04296875,0,"['C1', 'F2', 'F1']",6.1,180,0,0.16550109379277447,[28400|0|0]
28400,1.2901862859725952,-0.3136652410030365,0.0017546374583616853,-0.485057532787323,0.3933281898498535,4.119034767150879,4.0390625,0,"['C1', 'F2', 'F1']",6.1,180,0,0.1662722917599342,[28500|0|0]
28500,1.2900941371917725,-0.31400516629219055,0.0016658209497109056,-0.47265344858169556,0.3942607641220093,4.097609519958496,4.04296875,0,"['C1', 'F2', 'F1']",6.1,180,0,0.16663551204051127,[28600|0|0]
28600,1.290325403213501,-0.3138664662837982,0.0015808739699423313,-0.47478771209716797,0.3912387788295746,4.100190162658691,4.04296875,0,"['C1', 'F2', 'F1']",6.1,180,0,0.16691824451920087,[28700|0|0]
28700,1.2904936075210571,-0.3135950267314911,0.0015730992890894413,-0.4808153510093689,0.3915518820285797,4.108003616333008,4.04296875,0,"['C1', 'F2', 'F1']",6.1,180,0,0.16723766988653962,[28800|0|0]
28800,1.2903732061386108,-0.3136984407901764,0.0018891748040914536,-0.4765670895576477,0.4019974172115326,4.100147724151611,4.04296875,0,"['C1', 'F2', 'F1']",6.1,180,0,0.1675913571659441,[28900|0|0]
28900,1.2901057004928589,-0.31371423602104187,0.0016691676573827863,-0.47228536009788513,0.4113982915878296,4.106231212615967,4.04296875,0,"['C1', 'F2', 'F1']",6.1,180,0,0.1679380730502502,[29000|0|0]
29000,1.290286898612976,-0.3134787976741791,0.0017156421672552824,-0.4723890423774719,0.4059891104698181,4.112178325653076,4.0390625,0,"['C1', 'F2', 'F1']",6.1,180,0,0.16823877864377212,[29100|0|0]
29100,1.2902295589447021,-0.31367164850234985,0.001489331596530974,-0.47337621450424194,0.4025212824344635,4.115581035614014,4.0390625,0,"['C1', 'F2', 'F1']",6.1,180,0,0.1685415917113658,[29200|0|0]
29200,1.2904525995254517,-0.3137247860431671,0.0017992412904277444,-0.4736432433128357,0.3888096809387207,4.123671531677246,4.04296875,0,"['C1', 'F2', 'F1']",6.1,180,0,0.16892709750545504,[29300|0|0]
29300,1.2905036211013794,-0.3137018382549286,0.0019099356140941381,-0.48158204555511475,0.38679349422454834,4.1135711669921875,4.04296875,0,"['C1', 'F2', 'F1']",6.1,180,0,0.16905112587111043,[29400|0|0]
29400,1.2900947332382202,-0.3135921359062195,0.0013328741770237684,-0.49134984612464905,0.38689905405044556,4.123053550720215,4.04296875,0,"['C1', 'F2', 'F1']",6.1,180,0,0.16976682398631326,[29500|0|0]
29500,1.2899205684661865,-0.31428322196006775,0.0013521393993869424,-0.2683662176132202,0.5753920674324036,4.122746467590332,4.04296875,0,"['C1', 'F2', 'F1']",6.1,180,0,0.17047977871870082,[29600|0|0]
29600,1.2902086973190308,-0.31357380747795105,0.0018652044236660004,-0.34878697991371155,0.4978061020374298,4.106714248657227,4.0390625,0,"['C1', 'F2', 'F1']",6.1,180,0,0.1714014743639204,[29700|0|0]
