time.ms,stateEstimate.x,stateEstimate.y,stateEstimate.z,stabilizer.roll,stabilizer.pitch,stabilizer.yaw,pm.vbat,drone_id,node_name,wind_speed,global_wind_direction,relative_wind_direction,travel_dist,waiting_time,curr_node_role
0,1.3100112676620483,-0.3100370168685913,0.0,0.238203689455986,0.4532319605350494,-18.08991813659668,4.1484375,2,C1,6.1,180,270.0,0.0,[6200|0|0|0],start
100,1.3017840385437012,-0.319429337978363,0.0,0.5984253883361816,0.5727630853652954,-18.071367263793945,4.1484375,2,C1,6.1,180,270.0,0.0124861120768172,[6300|0|0|0],start
200,1.3099207878112793,-0.3101871311664581,0.0,0.2581211030483246,0.4582361280918121,-18.08387756347656,4.1484375,2,C1,6.1,180,270.0,0.0247997254943911,[6400|0|0|0],start
300,1.3095752000808716,-0.3104936778545379,0.0,0.4667805433273315,0.5233080387115479,-18.076976776123047,4.1484375,2,C1,6.1,180,270.0,0.0252616797685147,[6500|0|0|0],start
400,1.302546739578247,-0.3203284442424774,0.0,0.8005838394165039,0.6132413744926453,-18.07854080200196,4.1484375,2,C1,6.1,180,270.0,0.037349768407431,[6600|0|0|0],start
500,1.3021262884140017,-0.3199206292629242,0.0,0.7622696757316589,0.6109352111816406,-18.08474540710449,4.1484375,2,C1,6.1,180,270.0,0.0379355091684023,[6700|0|0|0],start
600,1.3098543882369995,-0.3101401329040527,0.0,0.3653128743171692,0.4883381724357605,-18.08820533752441,4.1484375,2,C1,6.1,180,270.0,0.0504007262102399,[6800|0|0|0],start
700,1.3020670413970947,-0.3196223378181457,0.0,0.7251734137535095,0.6044784188270569,-18.074981689453125,4.14453125,2,C1,6.1,180,270.0,0.0626708110036643,[6900|0|0|0],start
800,1.3022165298461914,-0.3198124766349792,0.0,0.7226723432540894,0.5956015586853027,-18.07736587524414,4.1484375,2,C1,6.1,180,270.0,0.0629126778390928,[7000|0|0|0],start
900,1.301303744316101,-0.319805383682251,0.0,0.7179760932922363,0.5957134962081909,-18.06037139892578,4.1484375,2,C1,6.1,180,270.0,0.0638254909272552,[7100|0|0|0],start
1000,1.3022855520248413,-0.3199525773525238,0.0,0.7227216362953186,0.5897873640060425,-18.092517852783203,4.1484375,2,C1,6.1,180,270.0,0.0648182710406289,[7200|0|0|0],start
1100,1.3016011714935305,-0.3200387954711914,0.0,0.7186995148658752,0.5877653360366821,-18.06931495666504,4.1484375,2,C1,6.1,180,270.0,0.0655080610634792,[7300|0|0|0],start
1200,1.3100632429122925,-0.3103954493999481,0.0,0.3550058305263519,0.46892911195755,-18.07646369934082,4.1484375,2,C1,6.1,180,270.0,0.0783377444635476,[7400|0|0|0],start
1300,1.3023762702941897,-0.3197328746318817,0.0,0.7113848924636841,0.5889661908149719,-18.068233489990234,4.1484375,2,C1,6.1,180,270.0,0.0904322497446004,[7500|0|0|0],start
1400,1.3024526834487915,-0.319811463356018,0.0,0.7198672890663147,0.5841336846351624,-18.085573196411133,4.1484375,2,C1,6.1,180,270.0,0.0905418634196486,[7600|0|0|0],start
1500,1.302229404449463,-0.3196226060390472,0.0,0.71371990442276,0.5896605253219604,-18.100765228271484,4.1484375,2,C1,6.1,180,270.0,0.0908343024692206,[7700|0|0|0],start
1601,1.3022955656051636,-0.3197031319141388,0.0,0.7201572060585022,0.5914598703384399,-18.095075607299805,4.1484375,2,C1,6.1,180,270.0,0.0909385220215269,[7800|0|0|0],start
1701,1.3022346496582031,-0.3195615112781524,0.0,0.7287235856056213,0.5949042439460754,-18.10696220397949,4.1484375,2,C1,6.1,180,270.0,0.0910926880266359,[7900|0|0|0],start
1800,1.3021926879882812,-0.3198670744895935,0.0,0.7367038726806641,0.592724084854126,-18.12149810791016,4.1484375,2,C1,6.1,180,270.0,0.0914011189880014,[8000|0|0|0],start
1901,1.3025400638580322,-0.3200104832649231,0.0,0.7155059576034546,0.5714808702468872,-18.12082290649414,4.1484375,2,C1,6.1,180,270.0,0.0917769328671048,[8100|0|0|0],start
2001,1.3023937940597534,-0.3196930587291717,0.0,0.6942015290260315,0.5705455541610718,-18.10361862182617,4.1484375,2,C1,6.1,180,270.0,0.0921264370727813,[8200|0|0|0],start
2101,1.302564263343811,-0.31976979970932,0.0,0.6656337380409241,0.5574133992195129,-18.09074211120605,4.1484375,2,C1,6.1,180,270.0,0.0923133834684171,[8300|0|0|0],start
2201,1.3025671243667605,-0.3196941912174225,0.0,0.6459125876426697,0.5534615516662598,-18.09765815734864,4.14453125,2,C1,6.1,180,270.0,0.0923890460714607,[8400|0|0|0],start
2301,1.302354097366333,-0.3198602199554443,0.0,0.6431041955947876,0.5524324178695679,-18.0777645111084,4.1484375,2,C1,6.1,180,270.0,0.0926591313260753,[8500|0|0|0],start
2401,1.310642123222351,-0.3104340434074402,0.0,0.4229796826839447,0.4912551343441009,-18.08573341369629,4.1484375,2,C1,6.1,180,270.0,0.1052107916506765,[8600|0|0|0],start
2501,1.302546739578247,-0.3197314739227295,0.0,0.4133933782577514,0.4882933497428894,-18.08710670471192,4.1484375,2,C1,6.1,180,270.0,0.1175387051210031,[8700|0|0|0],start
2602,1.310474157333374,-0.3103378713130951,0.0,0.410041481256485,0.4903031289577484,-18.09311485290528,4.1484375,2,C1,6.1,180,270.0,0.1298303169865003,[8800|0|0|0],start
2701,1.3022773265838623,-0.3193491697311401,0.0,0.6102864146232605,0.5494261980056763,-18.064743041992188,4.14453125,2,C1,6.1,180,270.0,0.1420119233467141,[8900|0|0|0],start
2801,1.3024190664291382,-0.3196208775043487,0.0,0.6150974631309509,0.5370110869407654,-18.068580627441406,4.1484375,2,C1,6.1,180,270.0,0.1423183793757962,[9000|0|0|0],start
2902,1.3024667501449585,-0.3195230066776275,0.0,0.6037663221359253,0.5306506156921387,-18.071632385253903,4.1484375,2,C1,6.1,180,270.0,0.1424272482670256,[9100|0|0|0],start
3000,1.302472472190857,-0.3196566700935364,0.0,0.6133862137794495,0.5343742370605469,-18.076589584350582,4.1484375,2,C1,6.1,180,270.0,0.1425610341054455,[9200|0|0|0],start
3102,1.3023595809936523,-0.3192577660083771,0.0,0.6134499311447144,0.5479274988174438,-18.077905654907227,4.1484375,2,C1,6.1,180,270.0,0.1429756048371223,[9300|0|0|0],start
3202,1.3019243478775024,-0.3194870948791504,0.0,0.5207833647727966,0.5295067429542542,-18.07473564147949,4.1484375,2,C1,6.1,180,270.0,0.143467559709406,[9400|0|0|0],start
3300,1.301825761795044,-0.3195375800132751,0.0,0.5569268465042114,0.5433765649795532,-18.101730346679688,4.1484375,2,C1,6.1,180,270.0,0.1435783205527673,[9500|0|0|0],start
3400,1.301607370376587,-0.3192499577999115,0.0,0.5775353312492371,0.5579474568367004,-18.097713470458984,4.1484375,2,C1,6.1,180,270.0,0.1439394595139385,[9600|0|0|0],start
3502,1.3017027378082275,-0.3194504082202911,0.0,0.6007482409477234,0.5649386048316956,-18.092926025390625,4.1484375,2,C1,6.1,180,270.0,0.1441614399591315,[9700|0|0|0],start
3602,1.301940679550171,-0.3194957077503204,0.0,0.5970172882080078,0.5518251061439514,-18.091726303100582,4.1484375,2,C1,6.1,180,270.0,0.1444036554003815,[9800|0|0|0],start
3700,1.3019300699234009,-0.3196626007556915,0.0,0.6106193661689758,0.5516999363899231,-18.08266830444336,4.14453125,2,C1,6.1,180,270.0,0.1445708853002858,[9900|0|0|0],start
3800,1.3016679286956787,-0.3196966648101806,0.0,0.6288959383964539,0.5560799837112427,-18.07537651062012,4.1484375,2,C1,6.1,180,270.0,0.1448352304971022,[10000|0|0|0],start
3900,1.3023074865341189,-0.3194785714149475,0.0,0.6656787395477295,0.5708231329917908,-18.079402923583984,4.1484375,2,C1,6.1,180,270.0,0.1455109515621539,[10100|0|0|0],start
4000,1.3022547960281372,-0.3195162713527679,0.0,0.6972518563270569,0.5834842324256897,-18.06060791015625,4.1484375,2,C1,6.1,180,270.0,0.1455757402550892,[10200|0|0|0],start
4100,1.3015750646591189,-0.3195789456367492,0.0,0.7198938131332397,0.5869085192680359,-18.04641532897949,4.1484375,2,C1,6.1,180,270.0,0.1462583549340261,[10300|0|0|0],start
4200,1.302609920501709,-0.319583535194397,0.0,0.7298681735992432,0.5855991244316101,-18.06007575988769,4.14453125,2,C1,6.1,180,270.0,0.1472932209538481,[10400|0|0|0],start
4300,1.3026989698410034,-0.3197071254253387,0.0,0.7526654005050659,0.5913102626800537,-18.06758117675781,4.1484375,2,C1,6.1,180,270.0,0.1474455506292663,[10500|0|0|0],start
4400,1.3023210763931274,-0.3200002312660217,0.0,0.7840971946716309,0.5986312627792358,-18.06028175354004,4.1484375,2,C1,6.1,180,270.0,0.1479237916686911,[10600|0|0|0],start
4500,1.302209734916687,-0.3196658194065094,0.0,0.7411069869995117,0.5858167409896851,-18.064821243286133,4.1484375,2,C1,6.1,180,270.0,0.1482762519021336,[10700|0|0|0],start
4600,1.3023477792739868,-0.3196942806243896,0.0,0.7048298716545105,0.5645448565483093,-18.07770538330078,4.1484375,2,C1,6.1,180,270.0,0.1484171997134169,[10800|0|0|0],start
4700,1.3023991584777832,-0.3197234570980072,0.0,0.6911844611167908,0.5583897233009338,-18.0743350982666,4.14453125,2,C1,6.1,180,270.0,0.1484762851532097,[10900|0|0|0],start
4800,1.3025537729263306,-0.3197632431983948,0.0,0.6730658411979675,0.5454819798469543,-18.08621597290039,4.1484375,2,C1,6.1,180,270.0,0.1486359365280352,[11000|0|0|0],start
4900,1.3021655082702637,-0.3196102082729339,0.0,0.6686410903930664,0.5502034425735474,-18.08170890808105,4.1484375,2,C1,6.1,180,270.0,0.1490532722820289,[11100|0|0|0],start
5000,1.302485466003418,-0.319796472787857,0.0,0.6519646644592285,0.5348356366157532,-18.065336227416992,4.1484375,2,C1,6.1,180,270.0,0.1494234984568529,[11200|0|0|0],start
5100,1.302437424659729,-0.3196556568145752,0.0,0.6366605162620544,0.5335208773612976,-18.07043838500977,4.1484375,2,C1,6.1,180,270.0,0.1495722839031665,[11300|0|0|0],start
5200,1.3023016452789309,-0.3195809125900268,0.0,0.6336091756820679,0.5447902083396912,-18.04629707336425,4.14453125,2,C1,6.1,180,270.0,0.1497272766105861,[11400|0|0|0],start
5300,1.3018139600753784,-0.3195052146911621,0.0,0.5173376202583313,0.5267894268035889,-18.03882026672364,4.1484375,2,C1,6.1,180,270.0,0.1502208017159825,[11500|0|0|0],start
5400,1.3018395900726318,-0.3194706439971924,0.0,0.5410127639770508,0.5402265787124634,-18.03794860839844,4.1484375,2,C1,6.1,180,270.0,0.1502638369299445,[11600|0|0|0],start
5500,1.3017936944961548,-0.3196857571601867,0.0,0.5672623515129089,0.5469407439231873,-18.07258415222168,4.1484375,2,C1,6.1,180,270.0,0.1504837916453602,[11700|0|0|0],start
5600,1.3017488718032837,-0.3192979097366333,0.0,0.5752930045127869,0.5631949305534363,-18.067014694213867,4.1484375,2,C1,6.1,180,270.0,0.1508742205092436,[11800|0|0|0],start
5700,1.3017957210540771,-0.3195660412311554,0.0,0.5976547598838806,0.5601236820220947,-18.072980880737305,4.1484375,2,C1,6.1,180,270.0,0.151146414099643,[11900|0|0|0],start
5800,1.3017722368240356,-0.3194501399993896,0.0,0.6041120290756226,0.5602477788925171,-18.09011650085449,4.1484375,2,C1,6.1,180,270.0,0.1512646706199092,[12000|0|0|0],start
5900,1.3025072813034058,-0.3197953999042511,0.0,0.629010796546936,0.5607337951660156,-18.09369659423828,4.1484375,2,C1,6.1,180,270.0,0.1520767634646982,[12100|0|0|0],start
6000,1.302212119102478,-0.3194458484649658,0.0,0.6219719052314758,0.573104977607727,-18.093324661254883,4.1484375,2,C1,6.1,180,270.0,0.1525342642117609,[12200|0|0|0],start
6100,1.302329659461975,-0.3198866248130798,0.0,0.6333135962486267,0.5644533634185791,-18.07796096801757,4.1484375,2,C1,6.1,180,270.0,0.1529904434804343,[12300|0|0|0],start
6200,1.3023099899291992,-0.3197345435619354,0.0,0.6267580986022949,0.5694054961204529,-18.08708000183105,4.1484375,2,C1,6.1,180,270.0,0.1531437914424985,[12400|0|0|0],start
6300,1.3022207021713257,-0.3193857669830322,0.0,0.6206283569335938,0.5733761191368103,-18.09430503845215,4.1484375,2,C1,6.1,180,270.0,0.1535038156162668,[12500|0|0|0],start
6400,1.302523851394653,-0.3198913335800171,0.0,0.6273730993270874,0.5615359544754028,-18.076229095458984,4.1484375,2,C1,6.1,180,270.0,0.15409330440801,[12600|0|0|0],start
6500,1.3024765253067017,-0.319714218378067,0.0,0.6141063570976257,0.5604714751243591,-18.092323303222656,4.1484375,2,C1,6.1,180,270.0,0.1542766334928891,[12700|0|0|0],start
6600,1.3024142980575562,-0.3193667829036712,0.0,0.6090781688690186,0.5597972869873047,-18.085834503173828,4.1484375,2,C1,6.1,180,270.0,0.1546295975695383,[12800|0|0|0],start
6700,1.302592396736145,-0.3198550343513489,0.0,0.6522776484489441,0.5571216940879822,-18.07901382446289,4.14453125,2,C1,6.1,180,270.0,0.155149317316589,[12900|0|0|0],start
6800,1.3022923469543457,-0.319705069065094,0.0,0.6818355321884155,0.5796641707420349,-18.104745864868164,4.1484375,2,C1,6.1,180,270.0,0.1554847565191866,[13000|0|0|0],start
6900,1.3022148609161377,-0.3196723759174347,0.0,0.7090244293212891,0.5879835486412048,-18.10900115966797,4.1484375,2,C1,6.1,180,270.0,0.1555688572208546,[13100|0|0|0],start
7000,1.302199363708496,-0.3195976018905639,0.0,0.7185978293418884,0.5919046401977539,-18.12652015686035,4.1484375,2,C1,6.1,180,270.0,0.1556452202913741,[13200|0|0|0],start
7100,1.3025031089782717,-0.3198163211345672,0.0,0.7361022233963013,0.5916025638580322,-18.10977554321289,4.1484375,2,C1,6.1,180,270.0,0.1560195186972061,[13300|0|0|0],start
7200,1.3023736476898191,-0.3198557198047638,0.0,0.744321346282959,0.5947654247283936,-18.103296279907227,4.14453125,2,C1,6.1,180,270.0,0.1561548423108922,[13400|0|0|0],start
7300,1.3023545742034912,-0.3198195397853851,0.0,0.7602137923240662,0.6008747816085815,-18.093486785888672,4.1484375,2,C1,6.1,180,270.0,0.1561957420869668,[13500|0|0|0],start
7400,1.3023393154144287,-0.3197261393070221,0.0,0.7652462720870972,0.6054257750511169,-18.103620529174805,4.1484375,2,C1,6.1,180,270.0,0.1562903807682873,[13600|0|0|0],start
7500,1.3023453950881958,-0.3197303414344787,0.0,0.7638698816299438,0.5958726406097412,-18.0948486328125,4.1484375,2,C1,6.1,180,270.0,0.1562977713236301,[13700|0|0|0],start
7600,1.3023314476013184,-0.3196590840816498,0.0,0.7631883025169373,0.5911432504653931,-18.09291648864746,4.1484375,2,C1,6.1,180,270.0,0.1563703808458871,[13800|0|0|0],start
7700,1.3023139238357544,-0.3196204006671905,0.0,0.7598797678947449,0.5968591570854187,-18.08502769470215,4.14453125,2,C1,6.1,180,270.0,0.1564128483500964,[13900|0|0|0],start
7800,1.302226424217224,-0.3199196457862854,0.0,0.7663769125938416,0.5902017951011658,-18.086986541748047,4.1484375,2,C1,6.1,180,270.0,0.1567246236290156,[14000|0|0|0],start
7900,1.3021819591522217,-0.3198118805885315,0.0,0.7651771306991577,0.5914379954338074,-18.085861206054688,4.1484375,2,C1,6.1,180,270.0,0.1568412018424715,[14100|0|0|0],start
8000,1.3023158311843872,-0.3196684122085571,0.0,0.7545251846313477,0.5854564905166626,-18.07966041564941,4.1484375,2,C1,6.1,180,270.0,0.1570374284896136,[14200|0|0|0],start
8100,1.3022702932357788,-0.3195897936820984,0.0,0.7185970544815063,0.5694625973701477,-18.06635284423828,4.1484375,2,C1,6.1,180,270.0,0.1571282831948632,[14300|0|0|0],start
8200,1.3023173809051514,-0.3195961415767669,0.0,0.6913458108901978,0.5531702637672424,-18.05991744995117,4.14453125,2,C1,6.1,180,270.0,0.1571757968178956,[14400|0|0|0],start
8300,1.3025052547454834,-0.3197868168354034,0.0,0.6731436848640442,0.5416480302810669,-18.075485229492188,4.1484375,2,C1,6.1,180,270.0,0.1574434787824304,[14500|0|0|0],start
8400,1.3022993803024292,-0.3198208212852478,0.0,0.6549159288406372,0.5387697219848633,-18.088912963867188,4.1484375,2,C1,6.1,180,270.0,0.1576521426003579,[14600|0|0|0],start
8500,1.3024165630340576,-0.319710224866867,0.0,0.647563636302948,0.536919355392456,-18.070470809936523,4.1484375,2,C1,6.1,180,270.0,0.1578132741005389,[14700|0|0|0],start
8600,1.302369236946106,-0.3196997046470642,0.0,0.6359779238700867,0.5254196524620056,-18.057409286499023,4.1484375,2,C1,6.1,180,270.0,0.1578617553714123,[14800|0|0|0],start
8700,1.3022856712341309,-0.3197017908096313,0.0,0.6253774762153625,0.526901125907898,-18.06310272216797,4.14453125,2,C1,6.1,180,270.0,0.1579453471191639,[14900|0|0|0],start
8800,1.3024420738220217,-0.319572776556015,0.0,0.6142849326133728,0.5247066617012024,-18.07925605773925,4.1484375,2,C1,6.1,180,270.0,0.1581480943685537,[15000|0|0|0],start
8900,1.302533745765686,-0.3196715712547302,0.0,0.614753246307373,0.5212770700454712,-18.05925941467285,4.1484375,2,C1,6.1,180,270.0,0.1582828687643024,[15100|0|0|0],start
9000,1.303224802017212,-0.3196065723896026,0.0,0.6248973608016968,0.5268791317939758,-18.08538246154785,4.1484375,2,C1,6.1,180,270.0,0.1589769750927859,[15200|0|0|0],start
9100,1.302965760231018,-0.3195934593677521,0.0,0.6287497878074646,0.5377022624015808,-18.077781677246094,4.1484375,2,C1,6.1,180,270.0,0.1592363485654783,[15300|0|0|0],start
9200,1.3031749725341797,-0.3196631669998169,0.0,0.6303160786628723,0.5307900309562683,-18.08106803894043,4.14453125,2,C1,6.1,180,270.0,0.1594568682738091,[15400|0|0|0],start
9300,1.303066372871399,-0.3192997276782989,0.0,0.6176649928092957,0.5388768315315247,-18.079111099243164,4.1484375,2,C1,6.1,180,270.0,0.1598361861183426,[15500|0|0|0],start
9400,1.3024274110794067,-0.3193083107471466,0.0,0.5118024945259094,0.5159831047058105,-18.070980072021484,4.1484375,2,C1,6.1,180,270.0,0.1604752055552118,[15600|0|0|0],start
9500,1.3025624752044678,-0.3196847140789032,0.0,0.5454012751579285,0.5174626708030701,-18.08067512512207,4.1484375,2,C1,6.1,180,270.0,0.1608751077758058,[15700|0|0|0],start
9600,1.3025062084197998,-0.3194998502731323,0.0,0.5504308342933655,0.517705500125885,-18.08523368835449,4.1484375,2,C1,6.1,180,270.0,0.1610683448781981,[15800|0|0|0],start
9700,1.302540898323059,-0.3197189569473266,0.0,0.6338183879852295,0.5370772480964661,-18.08039665222168,4.14453125,2,C1,6.1,180,270.0,0.1612901806824872,[15900|0|0|0],start
9800,1.302638053894043,-0.3194437325000763,0.0,0.672231912612915,0.5569859743118286,-18.07884979248047,4.1484375,2,C1,6.1,180,270.0,0.1615820500048516,[16000|0|0|0],start
9900,1.302525520324707,-0.3198023438453674,0.0,0.7348440289497375,0.5763606429100037,-18.062896728515625,4.1484375,2,C1,6.1,180,270.0,0.161957903568356,[16100|0|0|0],start
10000,1.3023860454559326,-0.3197582364082336,0.0,0.7482470870018005,0.5859495401382446,-18.055707931518555,4.1484375,2,C1,6.1,180,270.0,0.1621041865305565,[16200|0|0|0],start
10100,1.3022363185882568,-0.3194902837276459,0.0,0.7573126554489136,0.6015247702598572,-18.047895431518555,4.14453125,2,C1,6.1,180,270.0,0.1624111340406265,[16300|0|0|0],start
10200,1.3030742406845093,-0.3198859691619873,0.0,0.7531817555427551,0.5895041227340698,-18.07935905456543,4.14453125,2,C1,6.1,180,270.0,0.1633377841376631,[16400|0|0|0],start
10300,1.3030991554260254,-0.3195689916610718,0.0,0.7032634615898132,0.5739209651947021,-18.0849609375,4.1484375,2,C1,6.1,180,270.0,0.1636557392924121,[16500|0|0|0],start
10400,1.3030998706817627,-0.3196150064468384,0.0,0.6810234785079956,0.5662135481834412,-18.097137451171875,4.14453125,2,C1,6.1,180,270.0,0.1637017596368254,[16600|0|0|0],start
10500,1.3031915426254272,-0.3197450637817383,0.0,0.6759827136993408,0.5596156716346741,-18.069101333618164,4.1484375,2,C1,6.1,180,270.0,0.1638608780066527,[16700|0|0|0],start
10600,1.3032503128051758,-0.3196135759353637,0.0,0.6539834141731262,0.5572652220726013,-18.085693359375,4.1484375,2,C1,6.1,180,270.0,0.1640049022677059,[16800|0|0|0],start
10700,1.302337884902954,-0.3195004165172577,0.0,0.5175150036811829,0.5428526401519775,-18.06124496459961,4.14453125,2,C1,6.1,180,270.0,0.16492432041559,[16900|0|0|0],start
10800,1.3024626970291138,-0.3196028470993042,0.0,0.5480104088783264,0.544359028339386,-18.080121994018555,4.1484375,2,C1,6.1,180,270.0,0.1650857827671611,[17000|0|0|0],start
10900,1.302483081817627,-0.319728672504425,0.0,0.5683882236480713,0.5530967116355896,-18.082996368408203,4.1484375,2,C1,6.1,180,270.0,0.1652132487319382,[17100|0|0|0],start
11000,1.3024252653121948,-0.3195039331912994,0.0,0.5836241841316223,0.5570188164710999,-18.063520431518555,4.1484375,2,C1,6.1,180,270.0,0.1654453058524162,[17200|0|0|0],start
11100,1.3024933338165283,-0.3197977542877197,0.0,0.6073496341705322,0.555721640586853,-18.060476303100582,4.1484375,2,C1,6.1,180,270.0,0.165746908501582,[17300|0|0|0],start
11200,1.302554726600647,-0.3196769058704376,0.0,0.6185691952705383,0.5650384426116943,-18.05474090576172,4.14453125,2,C1,6.1,180,270.0,0.1658824570681603,[17400|0|0|0],start
11300,1.3023408651351929,-0.319707453250885,0.0,0.6279758214950562,0.5755063891410828,-18.05406188964844,4.14453125,2,C1,6.1,180,270.0,0.1660984891696137,[17500|0|0|0],start
11400,1.3026574850082395,-0.3194596171379089,0.0,0.6195648908615112,0.5633445978164673,-18.07954216003418,4.1484375,2,C1,6.1,180,270.0,0.1665005723486989,[17600|0|0|0],start
11500,1.3025128841400146,-0.319530189037323,0.0,0.619290292263031,0.5710579752922058,-18.06473731994629,4.1484375,2,C1,6.1,180,270.0,0.1666614754377876,[17700|0|0|0],start
11600,1.302545428276062,-0.3198269605636596,0.0,0.6263960003852844,0.5640636682510376,-18.05298614501953,4.1484375,2,C1,6.1,180,270.0,0.1669600260359033,[17800|0|0|0],start
11700,1.3022900819778442,-0.3197503089904785,0.0,0.631577730178833,0.5703907608985901,-18.06103134155273,4.14453125,2,C1,6.1,180,270.0,0.1672266291035613,[17900|0|0|0],start
11800,1.3024238348007202,-0.3196609914302826,0.0,0.6306602358818054,0.5636885166168213,-18.07696914672852,4.1484375,2,C1,6.1,180,270.0,0.1673874626951603,[18000|0|0|0],start
11900,1.3025203943252563,-0.3197718262672424,0.0,0.635379433631897,0.5601932406425476,-18.07878875732422,4.14453125,2,C1,6.1,180,270.0,0.1675344596436407,[18100|0|0|0],start
12000,1.3021230697631836,-0.3200584650039673,0.0,0.8778568506240845,0.642240047454834,-18.077316284179688,4.1484375,2,C1,6.1,180,270.0,0.1680243867535434,[18200|0|0|0],start
12100,1.302477240562439,-0.3202686011791229,0.0,0.8227812051773071,0.6090996265411377,-18.082061767578125,4.1484375,2,C1,6.1,180,270.0,0.1684362048774212,[18300|0|0|0],start
12200,1.3024154901504517,-0.3199917376041412,0.0,0.7824351191520691,0.6153727173805237,-18.07779884338379,4.14453125,2,C1,6.1,180,270.0,0.1687198711470626,[18400|0|0|0],start
12300,1.3031599521636963,-0.3194745182991028,0.0,0.5476587414741516,0.5393268465995789,-18.08157157897949,4.1484375,2,C1,6.1,180,270.0,0.169626369629504,[18500|0|0|0],start
12400,1.3033332824707031,-0.3198182582855224,0.0,0.583968460559845,0.5392250418663025,-18.07779312133789,4.1484375,2,C1,6.1,180,270.0,0.1700113379055877,[18600|0|0|0],start
12500,1.303053379058838,-0.3198153674602508,0.0,0.607235848903656,0.5503506660461426,-18.089954376220703,4.14453125,2,C1,6.1,180,270.0,0.1702912562451879,[18700|0|0|0],start
12600,1.3031988143920898,-0.3197354674339294,0.0,0.6253188848495483,0.5516499280929565,-18.078519821166992,4.1484375,2,C1,6.1,180,270.0,0.1704571943371508,[18800|0|0|0],start
12700,1.303080916404724,-0.3196682929992676,0.0,0.6282140612602234,0.5523260235786438,-18.086406707763672,4.14453125,2,C1,6.1,180,270.0,0.1705928864153907,[18900|0|0|0],start
12800,1.3033559322357178,-0.319598376750946,0.0,0.638316810131073,0.5447067618370056,-18.078800201416016,4.1484375,2,C1,6.1,180,270.0,0.1708766503825828,[19000|0|0|0],start
12900,1.3031232357025146,-0.3196267187595367,0.0,0.6403148770332336,0.5530347228050232,-18.064697265625,4.1484375,2,C1,6.1,180,270.0,0.1711110665637985,[19100|0|0|0],start
13000,1.3032337427139282,-0.3196855783462524,0.0,0.6425178647041321,0.5489466190338135,-18.052244186401367,4.1484375,2,C1,6.1,180,270.0,0.1712362713980498,[19200|0|0|0],start
13100,1.3031408786773682,-0.3195006847381592,0.0,0.6415248513221741,0.5466815829277039,-18.044063568115234,4.14453125,2,C1,6.1,180,270.0,0.1714431756648012,[19300|0|0|0],start
13200,1.3031643629074097,-0.3196251094341278,0.0,0.642649233341217,0.5395615696907043,-18.05120658874512,4.14453125,2,C1,6.1,180,270.0,0.1715697972033621,[19400|0|0|0],start
13300,1.3030451536178589,-0.3194579184055328,0.0,0.6402981281280518,0.5492955446243286,-18.06881523132324,4.1484375,2,C1,6.1,180,270.0,0.1717751352046134,[19500|0|0|0],start
13400,1.302919864654541,-0.3194949626922607,0.0,0.644163191318512,0.5487738251686096,-18.06671142578125,4.14453125,2,C1,6.1,180,270.0,0.1719057858973343,[19600|0|0|0],start
13500,1.302973747253418,-0.3195036947727203,0.0,0.6364745497703552,0.5485299229621887,-18.09870147705078,4.1484375,2,C1,6.1,180,270.0,0.1719603714603605,[19700|0|0|0],start
13600,1.302544355392456,-0.3196350634098053,0.0,0.5215128064155579,0.5213162899017334,-18.08444595336914,4.1484375,2,C1,6.1,180,270.0,0.1724094094198582,[19800|0|0|0],start
13700,1.3026034832000732,-0.3198317289352417,0.0,0.5465497374534607,0.5271291136741638,-18.08774757385254,4.14453125,2,C1,6.1,180,270.0,0.1726147711166977,[19900|0|0|0],start
13800,1.3025695085525513,-0.3197405636310577,0.0,0.569843053817749,0.5370667576789856,-18.089956283569336,4.1484375,2,C1,6.1,180,270.0,0.1727120613493072,[20000|0|0|0],start
13900,1.3026340007781982,-0.3198262155056,0.0,0.5989166498184204,0.540012538433075,-18.09937858581543,4.1484375,2,C1,6.1,180,270.0,0.1728192783758539,[20100|0|0|0],start
14000,1.3023698329925537,-0.3195669054985046,0.0,0.6081202030181885,0.5548276901245117,-18.11739158630371,4.14453125,2,C1,6.1,180,270.0,0.1731894490104971,[20200|0|0|0],start
14100,1.3024697303771973,-0.3196948766708374,0.0,0.619765043258667,0.5529223084449768,-18.104177474975582,4.1484375,2,C1,6.1,180,270.0,0.1733517946553628,[20300|0|0|0],start
14200,1.3025155067443848,-0.3197400867938995,0.0,0.6252099275588989,0.5514956712722778,-18.095218658447266,4.14453125,2,C1,6.1,180,270.0,0.1734161330655092,[20400|0|0|0],start
14300,1.3023477792739868,-0.3193729221820831,0.0,0.629349946975708,0.5555035471916199,-18.09634590148925,4.14453125,2,C1,6.1,180,270.0,0.1738197942557374,[20500|0|0|0],start
14400,1.3025460243225098,-0.31975919008255,0.0,0.6380366683006287,0.5559719204902649,-18.08605194091797,4.14453125,2,C1,6.1,180,270.0,0.1742539647178775,[20600|0|0|0],start
14500,1.3024423122406006,-0.3196873068809509,0.0,0.6313919425010681,0.5610831379890442,-18.084510803222656,4.1484375,2,C1,6.1,180,270.0,0.1743801526357067,[20700|0|0|0],start
14600,1.3024665117263794,-0.3194985091686249,0.0,0.627196192741394,0.558559775352478,-18.078758239746094,4.14453125,2,C1,6.1,180,270.0,0.1745704949360278,[20800|0|0|0],start
14700,1.3024049997329712,-0.3196523189544678,0.0,0.6219912767410278,0.5563260316848755,-18.0881404876709,4.14453125,2,C1,6.1,180,270.0,0.1747361487182185,[20900|0|0|0],start
14800,1.302476167678833,-0.3197427690029144,0.0,0.6201329827308655,0.5608346462249756,-18.09496688842773,4.14453125,2,C1,6.1,180,270.0,0.1748512403677078,[21000|0|0|0],start
14900,1.3023715019226074,-0.3197804689407348,0.0,0.6125735640525818,0.5557317137718201,-18.08294486999512,4.14453125,2,C1,6.1,180,270.0,0.1749624887647207,[21100|0|0|0],start
15000,1.302559733390808,-0.3196370601654053,0.0,0.6031374335289001,0.5531869530677795,-18.08253669738769,4.1484375,2,C1,6.1,180,270.0,0.1751991259605766,[21200|0|0|0],start
15100,1.3025424480438232,-0.319375067949295,0.0,0.5963940620422363,0.5536379814147949,-18.068662643432617,4.1484375,2,C1,6.1,180,270.0,0.1754616877714379,[21300|0|0|0],start
15200,1.302296161651611,-0.3196959197521209,0.0,0.5975183248519897,0.5485737919807434,-18.094467163085938,4.14453125,2,C1,6.1,180,270.0,0.1758661662830618,[21400|0|0|0],start
15300,1.3032619953155518,-0.3199380338191986,0.0,0.605911374092102,0.5464642643928528,-18.11552619934082,4.1484375,2,C1,6.1,180,270.0,0.1768618840582762,[21500|0|0|0],start
15400,1.3032231330871582,-0.31980761885643,0.0,0.6043219566345215,0.5527387857437134,-18.10540580749512,4.1484375,2,C1,6.1,180,270.0,0.1769979661486101,[21600|0|0|0],start
15500,1.3023977279663086,-0.3198364675045013,0.0,0.6002122163772583,0.5550785660743713,-18.075258255004883,4.14453125,2,C1,6.1,180,270.0,0.1778238752586339,[21700|0|0|0],start
15600,1.3033075332641602,-0.3197776079177856,0.0,0.6007512807846069,0.5521880984306335,-18.09674644470215,4.1484375,2,C1,6.1,180,270.0,0.1787355825202849,[21800|0|0|0],start
15700,1.3033928871154783,-0.3200021684169769,0.0,0.6085806488990784,0.5483013391494751,-18.097639083862305,4.14453125,2,C1,6.1,180,270.0,0.178975817192495,[21900|0|0|0],start
15800,1.3023796081542969,-0.3194686472415924,0.0,0.5958850979804993,0.5650495290756226,-18.085023880004883,4.14453125,2,C1,6.1,180,270.0,0.1801209718098967,[22000|0|0|0],start
15900,1.3030107021331787,-0.3197573125362396,0.0,0.605015218257904,0.5576210618019104,-18.117382049560547,4.14453125,2,C1,6.1,180,270.0,0.1808149511053477,[22100|0|0|0],start
16000,1.3025152683258057,-0.3197396099567413,0.0,0.6003972887992859,0.552563488483429,-18.087207794189453,4.1484375,2,C1,6.1,180,270.0,0.1813107010814536,[22200|0|0|0],start
16100,1.303085207939148,-0.3195171058177948,0.0,0.5944947004318237,0.5576024651527405,-18.139305114746094,4.14453125,2,C1,6.1,180,270.0,0.1819225337830192,[22300|0|0|0],start
16200,1.3031668663024902,-0.3198794722557068,0.0,0.6027809977531433,0.5445786118507385,-18.116214752197266,4.14453125,2,C1,6.1,180,270.0,0.1822939870420287,[22400|0|0|0],start
16300,1.3031911849975586,-0.3198063373565674,0.0,0.5907330513000488,0.5406544208526611,-18.088422775268555,4.1484375,2,C1,6.1,180,270.0,0.182371059166704,[22500|0|0|0],start
16400,1.309689164161682,-0.3094806671142578,0.0,0.3053916990756988,0.4433369636535644,-18.051647186279297,4.14453125,2,C1,6.1,180,270.0,0.1945711902795363,[22600|0|0|0],start
16500,1.3031363487243652,-0.3195844888687134,0.0,0.6671437621116638,0.5629366040229797,-18.093259811401367,4.1484375,2,C1,6.1,180,270.0,0.2066138894869957,[22700|0|0|0],start
16600,1.3031102418899536,-0.3196568191051483,0.0,0.7089574933052063,0.576465904712677,-18.10196876525879,4.1484375,2,C1,6.1,180,270.0,0.2066907870156019,[22800|0|0|0],start
16700,1.3092103004455566,-0.3097574710845947,0.0,0.4116648733615875,0.4901868402957916,-18.075239181518555,4.14453125,2,C1,6.1,180,270.0,0.2183186761453547,[22900|0|0|0],start
16800,1.3094089031219482,-0.3098646104335785,0.0,0.4262529015541076,0.4950667023658752,-18.06207275390625,4.1484375,2,C1,6.1,180,270.0,0.2185443348770062,[23000|0|0|0],start
16900,1.309485673904419,-0.3096258640289306,0.0,0.4299977421760559,0.4961917102336883,-18.05828857421875,4.1484375,2,C1,6.1,180,270.0,0.2187951208390803,[23100|0|0|0],start
17000,1.309261679649353,-0.3100972473621368,0.0,0.439744770526886,0.4939329326152801,-18.05829811096192,4.1484375,2,C1,6.1,180,270.0,0.2193170170673931,[23200|0|0|0],start
17100,1.3095248937606812,-0.3096323907375335,0.0,0.4362958371639251,0.495621919631958,-18.04603576660156,4.1484375,2,C1,6.1,180,270.0,0.2198512205397141,[23300|0|0|0],start
17200,1.3094490766525269,-0.3097063601016998,0.0,0.4470590054988861,0.5039626359939575,-18.047998428344727,4.14453125,2,C1,6.1,180,270.0,0.2199571436284344,[23400|0|0|0],start
17300,1.3096867799758911,-0.3099842071533203,0.0,0.4546444714069366,0.4944629371166229,-18.035852432250977,4.14453125,2,C1,6.1,180,270.0,0.2203227962696564,[23500|0|0|0],start
17400,1.3093297481536863,-0.3096997737884521,0.0,0.448346883058548,0.5032853484153748,-18.03600311279297,4.14453125,2,C1,6.1,180,270.0,0.2207792763471156,[23600|0|0|0],start
17500,1.3094000816345217,-0.3101078569889068,0.0,0.450157105922699,0.4990672171115875,-18.01120376586914,4.1484375,2,C1,6.1,180,270.0,0.221193376210699,[23700|0|0|0],start
17600,1.3095102310180664,-0.3097014427185058,0.0,0.4282809197902679,0.4983565509319305,-17.999540328979492,4.1484375,2,C1,6.1,180,270.0,0.2216144527427936,[23800|0|0|0],start
17700,1.309531807899475,-0.3086548745632171,0.0,0.1468172669410705,0.4116683602333069,-17.99854278564453,4.14453125,2,C1,6.1,180,270.0,0.2226612432975254,[23900|0|0|0],start
17800,1.309902906417847,-0.3094722330570221,0.0,0.2050930261611938,0.424872875213623,-18.028932571411133,4.1484375,2,C1,6.1,180,270.0,0.2235589008144732,[24000|0|0|0],start
17900,1.3095303773880005,-0.3097750544548034,0.0,0.2525908052921295,0.4449872672557831,-18.02828025817871,4.14453125,2,C1,6.1,180,270.0,0.2240389827627201,[24100|0|0|0],start
18000,1.309458613395691,-0.3092337846755981,0.0,0.2572996020317077,0.4484825134277344,-18.03337478637696,4.1484375,2,C1,6.1,180,270.0,0.2245849892136648,[24200|0|0|0],start
18101,1.3096309900283811,-0.30971759557724,0.0,0.2766892313957214,0.4507583677768707,-18.038122177124023,4.14453125,2,C1,6.1,180,270.0,0.2250985908998431,[24300|0|0|0],start
18200,1.3096973896026611,-0.3096628785133362,0.0,0.2794272005558014,0.4568907022476196,-18.04568290710449,4.14453125,2,C1,6.1,180,270.0,0.2251846307774977,[24400|0|0|0],start
18301,1.3097602128982544,-0.309702605009079,0.0,0.2841829061508178,0.4618006944656372,-18.04169273376465,4.1484375,2,C1,6.1,180,270.0,0.2252589608584421,[24500|0|0|0],start
18401,1.3091039657592771,-0.3092198073863983,0.0,0.2900959551334381,0.460665225982666,-18.024566650390625,4.1484375,2,C1,6.1,180,270.0,0.2260736717592418,[24600|0|0|0],start
18501,1.3090859651565552,-0.3089635074138641,0.0,0.280893474817276,0.4602316617965698,-18.04907989501953,4.1484375,2,C1,6.1,180,270.0,0.2263306030683877,[24700|0|0|0],start
18601,1.30964457988739,-0.3097942769527435,0.0,0.2915354073047638,0.4544564187526703,-18.063539505004883,4.1484375,2,C1,6.1,180,270.0,0.2273317166704506,[24800|0|0|0],start
18701,1.309655785560608,-0.3095450699329376,0.0,0.276643693447113,0.454480916261673,-18.06132698059082,4.14453125,2,C1,6.1,180,270.0,0.2275811754963775,[24900|0|0|0],start
18801,1.309370517730713,-0.3099868893623352,0.0,0.2919481098651886,0.4627613127231598,-18.077686309814453,4.1484375,2,C1,6.1,180,270.0,0.2281070862710971,[25000|0|0|0],start
18902,1.3090864419937134,-0.3094458281993866,0.0,0.2803680598735809,0.4746521115303039,-18.060104370117188,4.14453125,2,C1,6.1,180,270.0,0.2287181887227393,[25100|0|0|0],start
19002,1.3097267150878906,-0.3094701468944549,0.0,0.2757278978824615,0.456510990858078,-18.04062461853028,4.14453125,2,C1,6.1,180,270.0,0.22935892348382,[25200|0|0|0],start
19102,1.3093022108078003,-0.3100892007350921,0.0,0.4755603373050689,0.5207850933074951,-18.021148681640625,4.1484375,2,C1,6.1,180,270.0,0.2301095442545309,[25300|0|0|0],start
19202,1.3093657493591309,-0.3098883032798767,0.0,0.436081200838089,0.506549596786499,-18.0140323638916,4.14453125,2,C1,6.1,180,270.0,0.2303202500565802,[25400|0|0|0],start
19301,1.309360384941101,-0.3100295066833496,0.0,0.4161632061004638,0.4934262335300445,-18.049484252929688,4.1484375,2,C1,6.1,180,270.0,0.2304615553223459,[25500|0|0|0],start
19402,1.3032501935958862,-0.3198711574077606,0.0,0.6321675777435303,0.5651266574859619,-18.09511375427246,4.1484375,2,C1,6.1,180,270.0,0.2420457051511611,[25600|0|0|0],start
19502,1.3092710971832275,-0.3098753690719604,0.0,0.3720246851444244,0.4826994836330414,-18.046964645385746,4.1484375,2,C1,6.1,180,270.0,0.2537147695721924,[25700|0|0|0],start
19600,1.309364676475525,-0.3101770877838135,0.0,0.3699645400047302,0.4731599390506744,-18.038877487182617,4.1484375,2,C1,6.1,180,270.0,0.254030667126835,[25800|0|0|0],start
19700,1.3092418909072876,-0.3101641237735748,0.0,0.3640959560871124,0.468756765127182,-18.033390045166016,4.14453125,2,C1,6.1,180,270.0,0.2541541351847643,[25900|0|0|0],start
19800,1.3091429471969604,-0.3099299371242523,0.0,0.3541873693466186,0.4721142947673797,-18.111793518066406,3.09375,2,fly,6.1,180,270.0,0.2544083658763304,[25900|0|0|0],fly
19902,1.3092305660247805,-0.3098390400409698,0.0,0.4679346978664398,0.3827692568302154,-17.32305145263672,3.298828125,2,fly,6.1,180,270.0,0.2545346169703369,[25900|0|0|0],fly
20000,1.3094096183776855,-0.3097176253795624,0.0145397093147039,1.3048399686813354,0.8388137221336365,-13.632227897644045,3.611328125,2,fly,6.1,180,270.0,0.2690759356251623,[25900|0|0|0],fly
20100,1.3096654415130615,-0.3079358041286468,0.0613022409379482,0.354791909456253,-1.2525265216827393,-9.397124290466309,3.68359375,2,fly,6.1,180,270.0,0.3158731010976749,[25900|0|0|0],fly
20200,1.3124171495437622,-0.3053036630153656,0.1270433366298675,0.6341004967689514,-0.5407092571258545,-5.722476005554199,3.720703125,2,fly,6.1,180,270.0,0.3817243860259172,[25900|0|0|0],fly
20300,1.316885471343994,-0.3025098741054535,0.2012874037027359,1.421040415763855,-0.2774677872657776,-2.928536891937256,3.732421875,2,fly,6.1,180,270.0,0.45615524422132,[25900|0|0|0],fly
20400,1.3223501443862915,-0.2995056211948395,0.2800608575344085,1.8481194972991943,0.1075210645794868,-0.8728558421134949,3.732421875,2,fly,6.1,180,270.0,0.5351751481416666,[25900|0|0|0],fly
20500,1.3279263973236084,-0.2986694276332855,0.3619491755962372,2.103708505630493,0.7985178232192993,0.35324627161026,3.732421875,2,fly,6.1,180,270.0,0.617257365774285,[25900|0|0|0],fly
20600,1.334829568862915,-0.3021217882633209,0.4497611224651336,2.111968755722046,0.9786961674690248,0.8184067606925964,3.7265625,2,fly,6.1,180,270.0,0.7054078653992265,[25900|0|0|0],fly
20700,1.337063550949097,-0.3056089878082275,0.5352665781974792,1.434827446937561,1.2416034936904907,1.1173704862594604,3.716796875,2,fly,6.1,180,270.0,0.7910135556109379,[25900|0|0|0],fly
20800,1.3367582559585571,-0.3099848628044128,0.620425283908844,1.0019782781600952,1.005428910255432,1.3416352272033691,3.7109375,2,fly,6.1,180,270.0,0.8762851607644022,[25900|0|0|0],fly
20900,1.334434986114502,-0.315088540315628,0.7092465758323669,1.037912130355835,1.1100372076034546,1.34183669090271,3.705078125,2,fly,6.1,180,270.0,0.9652832899912036,[25900|0|0|0],fly
21000,1.3252533674240112,-0.3146323561668396,0.792948305606842,0.2693401873111725,0.5951438546180725,1.314450979232788,3.705078125,2,fly,6.1,180,270.0,1.049488336116685,[25900|0|0|0],fly
21100,1.3214420080184937,-0.3204733431339264,0.8845073580741882,0.3161089122295379,0.4233277142047882,1.3121719360351562,3.705078125,2,fly,6.1,180,270.0,1.141312644869792,[25900|0|0|0],fly
21200,1.3157103061676023,-0.3240827322006225,0.976535439491272,0.1857663840055465,0.066360242664814,1.51019287109375,3.701171875,2,fly,6.1,180,270.0,1.2335896618613036,[25900|0|0|0],fly
21300,1.3097022771835327,-0.3272926807403564,1.0708134174346924,0.4700000584125519,-0.0084690367802977,3.95013689994812,3.701171875,2,fly,6.1,180,270.0,1.3281134012445994,[25900|0|0|0],fly
21400,1.3041086196899414,-0.3307005167007446,1.166782259941101,0.1800192296504974,-0.0368757061660289,9.391715049743652,3.701171875,2,fly,6.1,180,270.0,1.424305506337005,[25900|0|0|0],fly
21500,1.2982639074325562,-0.3330309391021728,1.2645477056503296,0.4202183187007904,0.0761199072003364,11.726813316345217,3.689453125,2,fly,6.1,180,270.0,1.522273225023646,[25900|0|0|0],fly
21600,1.2925455570220947,-0.3366838097572326,1.3626532554626465,0.4277196824550628,0.2296967357397079,12.814215660095217,3.7109375,2,fly,6.1,180,270.0,1.6206131553643597,[25900|0|0|0],fly
21700,1.2874536514282229,-0.3384843170642853,1.457486271858215,-0.0441138595342636,-0.0408165417611599,11.608189582824709,3.76953125,2,fly,6.1,180,270.0,1.7155998403671633,[25900|0|0|0],fly
21800,1.2817442417144775,-0.347302109003067,1.5458173751831057,0.0355308204889297,0.627083420753479,10.147184371948242,3.779296875,2,fly,6.1,180,270.0,1.8045533935763949,[25900|0|0|0],fly
21900,1.2774481773376465,-0.3486374020576477,1.6226094961166382,-0.0680500343441963,0.1857107281684875,8.52962875366211,3.7890625,2,fly,6.1,180,270.0,1.8814771806265769,[25900|0|0|0],fly
22000,1.2697010040283203,-0.3598064482212066,1.6803205013275146,-0.1401733011007309,0.9923970699310304,0.8164620995521545,3.78515625,2,fly,6.1,180,270.0,1.9407673687603504,[25900|0|0|0],fly
22100,1.2667913436889648,-0.3680057227611542,1.7210793495178225,-0.78736412525177,1.1383013725280762,-4.751385688781738,3.76953125,2,fly,6.1,180,270.0,1.9824444359804945,[25900|0|0|0],fly
22200,1.2603975534439087,-0.3658325374126434,1.7463232278823853,-0.9758093357086182,1.4668548107147217,0.0399544350802898,3.75390625,2,fly,6.1,180,270.0,2.0085759625937945,[25900|0|0|0],fly
22300,1.2474807500839231,-0.3636317253112793,1.7582504749298096,-0.8908878564834595,1.0634220838546753,-3.820352554321289,3.7265625,2,fly,6.1,180,270.0,2.026294501051476,[25900|0|0|0],fly
22400,1.2349148988723757,-0.3564900159835815,1.7656471729278564,-0.4641789495944977,0.0193880479782819,-4.165652751922607,3.716796875,2,fly,6.1,180,270.0,2.0425307496966028,[25900|0|0|0],fly
22500,1.2229191064834597,-0.3495144546031952,1.7679213285446167,0.3904254734516144,-0.764257550239563,-3.838378667831421,3.716796875,2,fly,6.1,180,270.0,2.0565923739050205,[25900|0|0|0],fly
22600,1.211642503738403,-0.3487153351306915,1.7631380558013916,0.9394276738166808,-1.839542269706726,-4.152500152587891,3.705078125,2,fly,6.1,180,270.0,2.0688675545365727,[25900|0|0|0],fly
22700,1.2064058780670166,-0.3461982309818268,1.7639093399047852,0.8206419944763184,-2.5501811504364014,-4.6190385818481445,3.705078125,2,fly,6.1,180,270.0,2.074728692726942,[25900|0|0|0],fly
22800,1.2031770944595337,-0.348172128200531,1.7656532526016235,0.5616859197616577,-2.7299182415008545,-4.442035675048828,3.958984375,2,fly,6.1,180,93.0,2.0788955314936994,[25900|0|0|0],fly
22900,1.195054292678833,-0.3454135060310364,1.739048957824707,-12.894713401794434,-3.0604918003082275,-8.805765151977539,3.94921875,2,fly,6.1,180,93.0,2.106848678107625,[25900|0|0|0],fly
23000,1.204398512840271,-0.3369573056697845,1.685254454612732,-14.283759117126465,-5.303658962249756,-3.2380294799804688,3.822265625,2,fly,6.1,180,93.0,2.162099654124328,[25900|0|0|0],fly
23100,1.212865114212036,-0.3166880905628204,1.5821985006332395,-18.68461227416992,-4.76003360748291,-0.3727934658527374,3.58984375,2,fly,6.1,180,93.0,2.2674706846330217,[25900|0|0|0],fly
23200,1.2273180484771729,-0.268446534872055,1.4680777788162231,-16.727840423583984,-2.794164657592773,-1.4615869522094729,3.509765625,2,fly,6.1,180,93.0,2.3922091075522425,[25900|0|0|0],fly
23300,1.2513706684112549,-0.1942737102508545,1.3592594861984253,-13.3726224899292,-0.0712521448731422,0.6383100152015686,3.521484375,2,fly,6.1,180,93.0,2.526080528125244,[25900|0|0|0],fly
23400,1.2705808877944946,-0.0935701578855514,1.268183350563049,-8.531073570251465,2.910238742828369,2.077418565750122,3.58984375,2,fly,6.1,180,93.0,2.663212218372309,[25900|0|0|0],fly
23500,1.2875890731811523,0.0117832804098725,1.2011271715164185,-3.132496356964112,3.522228956222534,3.102766990661621,3.611328125,2,fly,6.1,180,93.0,2.7892485483694505,[25900|0|0|0],fly
23600,1.3012564182281494,0.1189731210470199,1.155724048614502,3.779714107513428,2.285715818405152,3.0314080715179443,3.63671875,2,fly,6.1,180,93.0,2.9064573442241013,[25900|0|0|0],fly
23700,1.3131862878799438,0.2171377688646316,1.1268316507339478,8.006943702697754,0.5661953687667847,-0.7320737242698669,3.6640625,2,fly,6.1,180,93.0,3.0094786552541635,[25900|0|0|0],fly
23800,1.323291897773743,0.2999368011951446,1.110770344734192,9.69161319732666,1.2618635892868042,3.596609115600586,3.673828125,2,fly,6.1,180,93.0,3.0944243358777994,[25900|0|0|0],fly
23900,1.3350640535354614,0.363917201757431,1.1019060611724854,9.685139656066896,0.1383522152900695,1.7329394817352295,3.673828125,2,fly,6.1,180,93.0,3.16007988271469,[25900|0|0|0],fly
24000,1.349097490310669,0.4125415086746216,1.0980098247528076,8.833773612976074,0.1069784760475158,-2.261582136154175,3.689453125,2,fly,6.1,180,93.0,3.2108385394063217,[25900|0|0|0],fly
24100,1.3636162281036377,0.4477319717407226,1.0962584018707275,7.374216556549072,0.5720232129096985,-6.855903625488281,3.68359375,2,fly,6.1,180,93.0,3.24894667397126,[25900|0|0|0],fly
24200,1.3768402338027954,0.4736708104610443,1.0955650806427002,5.842203617095947,1.7132384777069092,-5.415897369384766,3.673828125,2,fly,6.1,180,93.0,3.278070176082364,[25900|0|0|0],fly
24300,1.3870021104812622,0.4908645451068878,1.0952355861663818,4.306079387664795,2.4847662448883057,-1.1888813972473145,3.6796875,2,fly,6.1,180,93.0,3.298045080720684,[25900|0|0|0],fly
24400,1.3942933082580566,0.5012707114219666,1.0962649583816528,3.017082452774048,2.6299874782562256,1.3021928071975708,3.701171875,2,fly,6.1,180,93.0,3.31079300092576,[25900|0|0|0],fly
24500,1.396332621574402,0.5080866813659668,1.095535159111023,2.0778555870056152,2.5533392429351807,2.267061471939087,3.689453125,2,fly,6.1,180,93.0,3.3179448434894034,[25900|0|0|0],fly
24600,1.3944897651672363,0.5125301480293274,1.0940121412277222,1.6236841678619385,1.9252924919128416,2.398660182952881,3.689453125,2,fly,6.1,180,93.0,3.3229906436438568,[25900|0|0|0],fly
24700,1.3891656398773191,0.5152048468589783,1.0911458730697632,1.338068604469299,1.468802809715271,2.1044342517852783,3.68359375,2,fly,6.1,180,93.0,3.329602437431128,[25900|0|0|0],fly
24800,1.3813422918319702,0.5168089270591736,1.0878061056137085,1.179219126701355,0.6131314039230347,1.6745109558105469,3.6796875,2,fly,6.1,180,93.0,3.3382587585081125,[25900|0|0|0],fly
24900,1.3722604513168335,0.5174331068992615,1.0843809843063354,1.29437255859375,0.0228994227945804,1.1110825538635254,3.68359375,2,fly,6.1,180,93.0,3.3479850570633376,[25900|0|0|0],fly
25000,1.3632493019104004,0.5172373652458191,1.0808827877044678,1.0595184564590454,-0.6361749172210693,0.6034404039382935,3.6796875,2,fly,6.1,180,93.0,3.357653382041599,[25900|0|0|0],fly
25100,1.3549741506576538,0.5157254934310913,1.0779680013656616,1.1949987411499023,-0.7705379724502563,0.130958005785942,3.6796875,2,fly,6.1,180,93.0,3.366556182951475,[25900|0|0|0],fly
25200,1.3475648164749146,0.5136758685112,1.0745155811309814,1.0759323835372925,-0.8867373466491699,-0.173104390501976,3.6796875,2,fly,6.1,180,93.0,3.374983424541733,[25900|0|0|0],fly
25300,1.3417648077011108,0.5099042057991028,1.069974422454834,0.8847552537918091,-0.875891923904419,-0.2757432162761688,3.6796875,2,fly,6.1,180,93.0,3.3832591519123016,[25900|0|0|0],fly
25400,1.337562084197998,0.5050188899040222,1.0648657083511353,0.6785849928855896,-0.8125230669975281,-0.2567452192306518,3.65234375,2,fly,6.1,180,93.0,3.391482785904137,[25900|0|0|0],fly
25500,1.3349621295928955,0.5004964470863342,1.059931993484497,0.2724854350090027,-0.7885484099388123,-0.2394033968448639,3.63671875,2,fly,6.1,180,93.0,3.398662883074311,[25900|0|0|0],fly
25600,1.3323410749435425,0.4957740306854248,1.0555247068405151,0.0844061374664306,-0.5960224866867065,-0.0234924778342247,3.630859375,2,fly,6.1,180,93.0,3.4056339174093786,[25900|0|0|0],fly
25700,1.3311426639556885,0.4913817942142486,1.0521535873413086,0.1574883759021759,-0.2126528173685073,0.1428791731595993,3.62109375,2,fly,6.1,180,93.0,3.4112989308067565,[25900|0|0|0],fly
25800,1.3299331665039062,0.4868313670158386,1.0488446950912476,-0.1570812761783599,-0.3765414655208587,0.1460318267345428,3.62109375,2,fly,6.1,180,270.0,3.417053758319064,[25900|0|0|0],fly
25900,1.3287497758865356,0.4831502139568329,1.040706753730774,-0.0253408122807741,-0.431493192911148,-0.0157841723412275,3.9375,2,fly,6.1,180,270.0,3.4260636079728384,[25900|0|0|0],fly
26000,1.3275028467178345,0.4798381924629211,0.999384880065918,0.1227553114295005,-0.8340466022491455,-0.3404466807842254,3.84375,2,fly,6.1,180,270.0,3.4675367506304933,[25900|0|0|0],fly
26100,1.3266336917877195,0.4753767251968384,0.9194875359535216,0.2237117737531662,-0.4247534871101379,-0.4549730718135834,3.5625,2,fly,6.1,180,270.0,3.5475632819602563,[25900|0|0|0],fly
26200,1.3219152688980105,0.471912145614624,0.8029013872146606,0.0112333027645945,0.0654321238398552,-0.4955097138881683,3.48828125,2,fly,6.1,180,270.0,3.664296297444341,[25900|0|0|0],fly
26300,1.3208062648773191,0.4666622579097748,0.6824463605880737,-0.2646949291229248,0.0464082993566989,-0.5062215924263,3.509765625,2,fly,6.1,180,270.0,3.784870775052345,[25900|0|0|0],fly
26400,1.3191123008728027,0.4620484113693237,0.5626200437545776,-1.547213435173035,0.0024213821161538,-0.930481731891632,3.494140625,2,fly,6.1,180,270.0,3.904797849976354,[25900|0|0|0],fly
26500,1.3187390565872192,0.4605540633201599,0.4476448893547058,-2.3515915870666504,0.3782742023468017,-0.9187048077583312,3.494140625,2,fly,6.1,180,270.0,4.019783320870129,[25900|0|0|0],fly
26600,1.323184370994568,0.4597910940647125,0.3416298329830169,-1.8941227197647093,-0.4113690853118896,0.6014274954795837,3.525390625,2,fly,6.1,180,270.0,4.125894277513434,[25900|0|0|0],fly
26700,1.3217108249664309,0.4656292200088501,0.2587153315544128,-0.3873904645442962,-0.5383082032203674,2.927444696426392,3.537109375,2,fly,6.1,180,270.0,4.209027120599609,[25900|0|0|0],fly
26800,1.3223748207092283,0.4715684056282043,0.19812673330307,-0.2446877211332321,0.4576885104179382,5.024835109710693,3.55859375,2,fly,6.1,180,270.0,4.269909737611612,[25900|0|0|0],fly
26900,1.3232197761535645,0.4772872924804687,0.1474075615406036,1.454447627067566,-0.1673526912927627,6.164473533630371,3.541015625,2,fly,6.1,180,270.0,4.320957303673105,[25900|0|0|0],fly
27000,1.3245431184768677,0.4801349639892578,0.1129928976297378,1.8754093647003167,0.2319205552339553,5.956874847412109,3.578125,2,fly,6.1,180,270.0,4.355514930328078,[25900|0|0|0],fly
27100,1.326777458190918,0.4795507788658142,0.0914417803287506,1.1220369338989258,-0.3905040919780731,5.383973121643066,3.583984375,2,fly,6.1,180,270.0,4.377189436161825,[25900|0|0|0],fly
27200,1.3296499252319336,0.477012038230896,0.0784887000918388,1.0825849771499634,-0.6184902191162109,4.308724880218506,3.53125,2,fly,6.1,180,270.0,4.390697898640471,[25900|0|0|0],fly
27300,1.333916425704956,0.4727923274040222,0.0726435407996177,1.1315453052520752,-1.2776718139648438,2.875273942947388,3.541015625,2,fly,6.1,180,270.0,4.3990749430417,[25900|0|0|0],fly
27400,1.3411569595336914,0.4674600064754486,0.0722837224602699,0.2584096193313598,-0.9049208164215088,1.5065289735794067,3.5625,2,fly,6.1,180,270.0,4.408074301121458,[25900|0|0|0],fly
27500,1.3497854471206665,0.4609456360340118,0.0741412565112114,0.4557489454746246,0.3217994272708893,0.5884572863578796,3.55859375,2,fly,6.1,180,270.0,4.4190441804752725,[25900|0|0|0],fly
27600,1.3578126430511477,0.4541864097118377,0.0745601803064346,-1.254340648651123,1.4334712028503418,-0.5727231502532959,3.5625,2,fly,6.1,180,270.0,4.429546490322488,[25900|0|0|0],fly
27700,1.3650834560394287,0.4468545913696289,0.0753695145249366,1.1618046760559082,1.0955870151519775,-1.6406902074813845,3.552734375,2,fly,6.1,180,270.0,4.439903869507925,[25900|0|0|0],fly
27800,1.3701092004776,0.4383046925067901,0.0786227136850357,-1.0820304155349731,0.7990667819976807,-2.254212141036988,3.578125,2,fly,6.1,180,270.0,4.450341406693385,[25900|0|0|0],fly
27900,1.3742958307266235,0.4313712418079376,0.0826815888285636,-1.7901149988174438,1.3755673170089722,-2.158097743988037,3.57421875,2,fly,6.1,180,270.0,4.459400936419932,[25900|0|0|0],fly
28000,1.3765206336975098,0.4273141026496887,0.0858884453773498,-1.336237549781799,1.3608275651931765,-2.0728979110717773,3.568359375,2,fly,6.1,180,270.0,4.465030683779553,[25900|0|0|0],fly
28100,1.3769716024398804,0.425458163022995,0.0881929248571395,-1.6908754110336304,0.7735245227813721,-1.9643754959106443,3.55859375,2,fly,6.1,180,270.0,4.468023760854621,[25900|0|0|0],fly
28200,1.375375509262085,0.4253498911857605,0.0900250300765037,-1.0623977184295654,0.8617159128189087,-1.7455649375915527,3.57421875,2,fly,6.1,180,270.0,4.4704560120254015,[25900|0|0|0],fly
28300,1.372782588005066,0.4264246821403503,0.0895855501294136,-0.6329155564308167,0.5431491136550903,-1.664325475692749,3.5625,2,fly,6.1,180,270.0,4.473297060927667,[25900|0|0|0],fly
28400,1.3700238466262815,0.427148163318634,0.088528461754322,0.1958956271409988,0.8132348656654358,-2.1700518131256104,3.55859375,2,fly,6.1,180,270.0,4.476338691221293,[25900|0|0|0],fly
28500,1.3662638664245603,0.4268500804901123,0.0876849293708801,0.4385183453559875,0.5439813137054443,-2.33980679512024,3.5625,2,fly,6.1,180,270.0,4.480203642886179,[25900|0|0|0],fly
28600,1.3611714839935305,0.424566239118576,0.0864802747964859,-0.927405834197998,-0.8850466012954712,-0.9590859413146972,3.55859375,2,fly,6.1,180,270.0,4.485913238570447,[25900|0|0|0],fly
28700,1.3565707206726074,0.4222961962223053,0.0849546641111373,-0.1379660069942474,0.1544698178768158,-0.111748456954956,3.537109375,2,fly,6.1,180,270.0,4.491265584397214,[25900|0|0|0],fly
28800,1.3526244163513184,0.4213400781154632,0.0842211470007896,-2.2150566577911377,-0.732244074344635,0.5765162110328674,3.5625,2,B2,6.1,180,270.0,4.495391784462846,[25900|100|0|0],first_intermediate
28900,1.349331974983215,0.4232208728790283,0.0840439349412918,-1.1744657754898071,-0.8973038792610168,0.7185889482498169,3.568359375,2,B2,6.1,180,270.0,4.499187698479139,[25900|200|0|0],first_intermediate
29000,1.3476933240890503,0.4266112148761749,0.0836044922471046,-1.593724250793457,-0.6772403717041016,0.6332212686538696,3.55859375,2,B2,6.1,180,270.0,4.502978833598339,[25900|300|0|0],first_intermediate
29100,1.3474664688110352,0.4331613779067993,0.0835573896765708,-0.832629382610321,-1.0612975358963013,0.2469578832387924,3.57421875,2,B2,6.1,180,270.0,4.509533093106253,[25900|400|0|0],first_intermediate
29200,1.3495227098464966,0.4414103627204895,0.0832720026373863,0.3521300554275512,-0.8235084414482117,-0.2411355525255203,3.57421875,2,B2,6.1,180,270.0,4.518039286344979,[25900|500|0|0],first_intermediate
29300,1.352790117263794,0.4482251405715942,0.0812685489654541,0.7650603652000427,-0.5103275775909424,-1.500768780708313,3.546875,2,B2,6.1,180,270.0,4.525857916340451,[25900|600|0|0],first_intermediate
29400,1.3583742380142212,0.4538669288158417,0.0807127058506012,-0.0628421604633331,-0.8588266372680664,-2.750327587127685,3.568359375,2,B2,6.1,180,270.0,4.533815374522346,[25900|700|0|0],first_intermediate
29500,1.365235447883606,0.4571734666824341,0.0807965546846389,-0.150116354227066,-0.7969968318939209,-4.9667649269104,3.568359375,2,B2,6.1,180,270.0,4.541432225850941,[25900|800|0|0],first_intermediate
29600,1.37438702583313,0.4616896510124206,0.0824712291359901,-0.1011807173490524,-0.6676021814346313,-5.848758220672607,3.578125,2,B2,6.1,180,270.0,4.551773977848868,[25900|900|0|0],first_intermediate
29700,1.384770154953003,0.4663156270980835,0.084716759622097,-0.6133608818054199,-0.2724099457263946,-5.568176746368408,3.583984375,2,B2,6.1,180,270.0,4.5633606698802085,[25900|1000|0|0],first_intermediate
29800,1.3954224586486816,0.4722756743431091,0.085970364511013,0.0778102502226829,-0.1552184522151947,-4.009284019470215,3.57421875,2,B2,6.1,180,270.0,4.57563117363537,[25900|1100|0|0],first_intermediate
29900,1.4065572023391724,0.4782864153385162,0.0856098607182502,1.0029882192611694,0.4267017543315887,-1.6523607969284058,3.5625,2,B2,6.1,180,270.0,4.588289826302671,[25900|1200|0|0],first_intermediate
30000,1.415795087814331,0.4830530881881714,0.0861453786492347,-1.5845171213150024,0.740744948387146,1.204526662826538,3.57421875,2,B2,6.1,180,270.0,4.59869878770918,[25900|1300|0|0],first_intermediate
30100,1.4230037927627563,0.4893511831760406,0.0837391838431358,0.5919835567474365,0.4721982777118683,2.739516258239746,3.55859375,2,B2,6.1,180,270.0,4.608569005586946,[25900|1400|0|0],first_intermediate
30200,1.4294652938842771,0.4955517053604126,0.0823337286710739,0.5190613269805908,0.4281308054924011,2.83809494972229,3.541015625,2,B2,6.1,180,270.0,4.617633925682732,[25900|1500|0|0],first_intermediate
30300,1.4351502656936646,0.5005044937133789,0.0815844759345054,-0.0800289660692215,-0.0151043152436614,2.162317276000977,3.5625,2,B2,6.1,180,270.0,4.625210890550412,[25900|1600|0|0],first_intermediate
30400,1.4404001235961914,0.5057833790779114,0.0812149494886398,0.2171071320772171,0.016756048426032,1.6800135374069214,3.55859375,2,B2,6.1,180,270.0,4.63266502956728,[25900|1700|0|0],first_intermediate
30500,1.4455947875976562,0.5097230672836304,0.0821482092142105,0.2228510230779647,0.0596027635037899,1.6545649766921997,3.5625,2,B2,6.1,180,270.0,4.639251124841551,[25900|1800|0|0],first_intermediate
30600,1.4503873586654663,0.5136107206344604,0.0840436071157455,-0.1440268605947494,0.0162693355232477,1.9442459344863887,3.58984375,2,B2,6.1,180,270.0,4.6457067517841,[25900|1900|0|0],first_intermediate
30700,1.4559005498886108,0.5166851282119751,0.0862444043159484,0.164524421095848,-0.2358290553092956,2.3654022216796875,3.583984375,2,B2,6.1,180,270.0,4.652391867170693,[25900|2000|0|0],first_intermediate
30800,1.4615405797958374,0.5207135081291199,0.0783359855413436,-1.311818242073059,0.0168613251298666,2.6885826587677,4.06640625,2,B2,6.1,180,270.0,4.662907611063818,[25900|2100|0|0],first_intermediate
30900,1.4675496816635132,0.5251813530921936,0.0207275133579969,-2.3835270404815674,1.783200979232788,3.3424651622772217,4.06640625,2,B2,6.1,180,270.0,4.7210007002497925,[25900|2200|0|0],first_intermediate
31000,1.4714823961257937,0.5283535122871399,0.0,-2.8806447982788086,-1.3364509344100952,2.156959295272827,4.0703125,2,B2,6.1,180,270.0,4.7423351476765685,[25900|2300|0|0],first_intermediate
31100,1.47410786151886,0.5313012003898621,0.0,-0.5908033847808838,-0.4346503019332886,-0.5935174822807312,4.0703125,2,B2,6.1,180,270.0,4.7462825434866085,[25900|2400|0|0],first_intermediate
31200,1.4735348224639893,0.5314216613769531,0.0,-0.7796362638473511,-0.3501032292842865,-0.7691212296485901,4.0703125,2,B2,6.1,180,270.0,4.746868106982583,[25900|2500|0|0],first_intermediate
31300,1.4737327098846436,0.5319169759750366,0.0,-0.671410858631134,-0.3731863498687744,-0.7524691820144653,4.07421875,2,B2,6.1,180,270.0,4.747401488630493,[25900|2600|0|0],first_intermediate
31400,1.473236322402954,0.5313916206359863,0.0,-0.5289358496665955,-0.4277743101119995,-0.750780463218689,4.07421875,2,B2,6.1,180,270.0,4.748124260215606,[25900|2700|0|0],first_intermediate
31500,1.4732112884521484,0.5313779711723328,0.0,-0.4303713738918304,-0.4543902575969696,-0.7454085350036621,4.07421875,2,B2,6.1,180,270.0,4.748152773485341,[25900|2800|0|0],first_intermediate
31600,1.4736297130584717,0.5318645238876343,0.0,-0.3406296968460083,-0.4432756304740906,-0.7552393674850464,4.07421875,2,B2,6.1,180,270.0,4.748794499825726,[25900|2900|0|0],first_intermediate
31700,1.47319233417511,0.5322084426879883,0.0,-0.2940069735050201,-0.452126681804657,0.0321323946118354,4.08203125,2,B2,6.1,180,270.0,4.749350899348414,[25900|3000|0|0],first_intermediate
31800,1.4712519645690918,0.5193459987640381,0.0,-0.0494064502418041,-0.4226157069206238,8.916792869567871,4.08203125,2,B2,6.1,180,270.0,4.762358877588891,[25900|3100|0|0],first_intermediate
31900,1.4686424732208252,0.520382285118103,0.0,-3.529480695724488,-1.413048505783081,8.216129302978516,4.08203125,2,B2,6.1,180,270.0,4.765166605229582,[25900|3200|0|0],first_intermediate
32000,1.4394668340682983,0.5205551981925964,0.0083202002570033,-5.797214031219482,-10.385103225708008,-2.726413488388061,4.08203125,2,B2,6.1,180,270.0,4.7955059122619845,[25900|3300|0|0],first_intermediate
32100,1.4050177335739136,0.5159430503845215,0.0258283298462629,-3.874300479888916,-17.4415283203125,0.641357958316803,4.08203125,2,B2,6.1,180,270.0,4.834423093994351,[25900|3400|0|0],first_intermediate
32200,1.3725193738937378,0.5134772062301636,0.0247329175472259,-4.059134006500244,-17.038837432861328,-0.633758008480072,4.0859375,2,B2,6.1,180,270.0,4.867033271813562,[25900|3500|0|0],first_intermediate
32300,1.3508161306381226,0.507535457611084,0.0117147667333483,-5.462380409240723,-12.33976936340332,-5.665465831756592,4.0859375,2,B2,6.1,180,270.0,4.893029567608878,[25900|3600|0|0],first_intermediate
32400,1.3524631261825562,0.503318727016449,0.0,-1.5157301425933838,-4.66762113571167,0.9538341760635376,4.0859375,2,B2,6.1,180,270.0,4.905588595073132,[25900|3700|0|0],first_intermediate
32500,1.354364037513733,0.5034360885620117,0.0,3.359216928482056,-3.09839129447937,-2.3501439094543457,4.0859375,2,B2,6.1,180,270.0,4.907493125887105,[25900|3800|0|0],first_intermediate
32600,1.351384162902832,0.5035561919212341,0.0,-0.2660250067710876,-1.801998853683472,-3.646361589431762,4.0859375,2,B2,6.1,180,270.0,4.910475419888974,[25900|3900|0|0],first_intermediate
32700,1.34773051738739,0.4998230934143066,0.0,0.424722284078598,-1.490524411201477,-4.131240367889404,4.0859375,2,B2,6.1,180,270.0,4.915698938819249,[25900|4000|0|0],first_intermediate
32800,1.3475347757339478,0.4995253682136535,0.0,0.4179738163948059,-1.515811562538147,-3.990280866622925,4.08984375,2,B2,6.1,180,270.0,4.916055246397047,[25900|4100|0|0],first_intermediate
32900,1.3511232137680054,0.5031680464744568,0.0,0.2762044966220855,-1.6137561798095703,-3.853036642074585,4.08984375,2,B2,6.1,180,270.0,4.921168561606967,[25900|4200|0|0],first_intermediate
33000,1.3476845026016235,0.4994368851184845,0.0,0.4003884196281433,-1.517052412033081,-3.785747766494751,4.1171875,2,B2,6.1,180,270.0,4.92624264276025,[25900|4300|0|0],first_intermediate
33100,1.3476715087890625,0.4995646774768829,0.0,0.3800797760486603,-1.4696167707443235,-3.764577627182007,4.171875,2,B2,6.1,180,270.0,4.926371094019605,[25900|4400|0|0],first_intermediate
