time.ms,stateEstimate.x,stateEstimate.y,stateEstimate.z,stabilizer.roll,stabilizer.pitch,stabilizer.yaw,pm.vbat,drone_id,node_name,wind_speed,global_wind_direction,relative_wind_direction,travel_dist,waiting_time,curr_node_role
0,0.6477149724960327,0.3767556846141815,0.0,-0.4886975586414337,0.5872880816459656,0.2683263123035431,4.11328125,0,F2,6.1,180,270.0,0.0,[6100|0|0|0],start
100,0.6476207375526428,0.3767934739589691,0.0,-0.4965639114379883,0.5898347496986389,0.2608911395072937,4.11328125,0,F2,6.1,180,270.0,0.0001015295973358,[6200|0|0|0],start
200,0.647468626499176,0.3768233060836792,0.0,-0.500389575958252,0.5884342193603516,0.2637446224689483,4.11328125,0,F2,6.1,180,270.0,0.0002565383978972,[6300|0|0|0],start
300,0.6475279927253723,0.3764639496803283,0.0,-0.4885534346103668,0.587091863155365,0.2609353959560394,4.11328125,0,F2,6.1,180,270.0,0.0006207654883807,[6400|0|0|0],start
400,0.6472271084785461,0.3769364655017853,0.0,-0.5047503709793091,0.5835020542144775,0.283623456954956,4.11328125,0,F2,6.1,180,270.0,0.0011809462909037,[6500|0|0|0],start
500,0.6478797197341919,0.3763952851295471,0.0,-0.4935096800327301,0.5647788643836975,0.2856867909431457,4.11328125,0,F2,6.1,180,270.0,0.0020287538435307,[6600|0|0|0],start
600,0.6472896337509155,0.3766379654407501,0.0,-0.497496485710144,0.5853821635246277,0.2954024076461792,4.11328125,0,F2,6.1,180,270.0,0.0026667939685266,[6700|0|0|0],start
701,0.6473799347877502,0.3765166103839874,0.0,-0.4965089857578277,0.5790242552757263,0.3031615614891052,4.11328125,0,F2,6.1,180,270.0,0.0028180597183026,[6800|0|0|0],start
800,0.6472172141075134,0.3768531084060669,0.0,-0.504743218421936,0.5728168487548828,0.3220981359481811,3.39453125,0,fly,6.1,180,270.0,0.0031918363075108,[6800|0|0|0],fly
899,0.6473910808563232,0.3767744600772857,0.0,-0.4488153755664825,0.5844367742538452,0.6018478274345398,2.9921875,0,fly,6.1,180,270.0,0.0033826639940811,[6800|0|0|0],fly
999,0.645545244216919,0.3765494525432586,0.0,2.9522087574005127,1.9454364776611328,2.123871088027954,3.46875,0,fly,6.1,180,270.0,0.0052421642736553,[6800|0|0|0],fly
1099,0.6434521675109863,0.3719881772994995,0.0245826505124568,1.6411561965942385,-2.607150793075561,2.686426877975464,3.583984375,0,fly,6.1,180,270.0,0.0303318615249941,[6800|0|0|0],fly
1199,0.6445137858390808,0.3654774129390716,0.0922442972660064,1.4866451025009155,-1.9736647605896,1.7697793245315552,3.63671875,0,fly,6.1,180,270.0,0.0983143263775846,[6800|0|0|0],fly
1299,0.6482126712799072,0.3595083355903625,0.1721304357051849,-0.4651179909706116,-1.3964041471481323,0.6418507695198059,3.65234375,0,fly,6.1,180,270.0,0.1785085079160405,[6800|0|0|0],fly
1401,0.6531038284301758,0.3562470078468323,0.2568695843219757,-1.098386287689209,-0.6036422252655029,-0.4439130127429962,3.65234375,0,fly,6.1,180,270.0,0.2634513297741463,[6800|0|0|0],fly
1501,0.6583682298660278,0.3558216094970703,0.34330815076828,-0.8241321444511414,0.0523636788129806,-1.221088171005249,3.6484375,0,fly,6.1,180,270.0,0.350051102611758,[6800|0|0|0],fly
1601,0.6628519892692566,0.3584468066692352,0.4313152730464935,-0.707012414932251,0.1547342836856842,-1.6821484565734863,3.642578125,0,fly,6.1,180,270.0,0.438211464057655,[6800|0|0|0],fly
1699,0.6668391227722168,0.3628187775611877,0.5207288861274719,0.0014499771641567,0.5074082016944885,-1.8566988706588743,3.642578125,0,fly,6.1,180,270.0,0.5278206464400729,[6800|0|0|0],fly
1799,0.6695497632026672,0.3685747981071472,0.6110783219337463,0.6327179670333862,0.1931211203336715,-1.979143500328064,3.63671875,0,fly,6.1,180,270.0,0.6183938206948201,[6800|0|0|0],fly
1899,0.6719555258750916,0.373625636100769,0.7037889957427979,1.0969336032867432,0.2569473385810852,-2.1277570724487305,3.642578125,0,fly,6.1,180,270.0,0.7112731386111474,[6800|0|0|0],fly
1999,0.6739506721496582,0.3774556815624237,0.7975620031356812,1.290062665939331,0.319153368473053,-2.094883680343628,3.63671875,0,fly,6.1,180,270.0,0.8051455348328322,[6800|0|0|0],fly
2099,0.6756486296653748,0.3795062303543091,0.892167866230011,1.529936909675598,0.0823221579194068,-1.9500502347946167,3.630859375,0,fly,6.1,180,270.0,0.8997888501905276,[6800|0|0|0],fly
2199,0.6775872707366943,0.3789302706718445,0.9886828064918518,0.983387529850006,0.0277819577604532,-1.871090292930603,3.630859375,0,fly,6.1,180,270.0,0.9963249768608364,[6800|0|0|0],fly
2299,0.6784478425979614,0.3771164715290069,1.0867232084274292,0.4996378123760223,0.2829869091510772,-1.8114746809005733,3.630859375,0,fly,6.1,180,270.0,1.0943859316947997,[6800|0|0|0],fly
2399,0.6779478788375854,0.3748680651187897,1.1863223314285278,0.177750825881958,0.6185091137886047,-1.713079810142517,3.626953125,0,fly,6.1,180,270.0,1.1940116843782054,[6800|0|0|0],fly
2499,0.6772562861442566,0.3729598522186279,1.2870855331420898,-0.0725805759429931,0.2270473688840866,-1.592810034751892,3.626953125,0,fly,6.1,180,270.0,1.2947953258905749,[6800|0|0|0],fly
2599,0.675694465637207,0.3713478147983551,1.388575792312622,-0.3545344173908233,0.0341256037354469,-1.576557993888855,3.615234375,0,fly,6.1,180,270.0,1.396310401886421,[6800|0|0|0],fly
2699,0.6738120913505554,0.3706524670124054,1.491113543510437,-0.531899094581604,-0.0054420032538473,0.5696352124214172,3.658203125,0,fly,6.1,180,270.0,1.4988677871017406,[6800|0|0|0],fly
2799,0.6712038516998291,0.371253490447998,1.5904966592788696,-0.5478877425193787,-0.3019684255123138,5.160407066345215,3.7109375,0,fly,6.1,180,270.0,1.5982869393968966,[6800|0|0|0],fly
2899,0.6697598695755005,0.370707243680954,1.6801894903182983,0.0219194535166025,-0.6077885627746582,7.02429723739624,3.720703125,0,fly,6.1,180,270.0,1.6879930562996663,[6800|0|0|0],fly
2999,0.6679959297180176,0.3713392913341522,1.7541290521621704,-0.0403122976422309,-0.1877970993518829,7.243017196655273,3.732421875,0,fly,6.1,180,270.0,1.7619563564810434,[6800|0|0|0],fly
3099,0.6659982204437256,0.3718657195568084,1.809017419815064,0.3473674356937408,0.0130800018087029,7.406768798828125,3.7109375,0,fly,6.1,180,270.0,1.8168835890038768,[6800|0|0|0],fly
3199,0.6640108823776245,0.3704691529273987,1.8490846157073968,0.1296249777078628,0.1711452007293701,1.2090023756027222,3.701171875,0,fly,6.1,180,270.0,1.857024342579438,[6800|0|0|0],fly
3299,0.6605176329612732,0.3711683750152588,1.8716251850128167,0.701761782169342,-0.4569949507713318,-2.6592001914978027,3.68359375,0,fly,6.1,180,270.0,1.8798447055832428,[6800|0|0|0],fly
3399,0.6560636162757874,0.3738088309764862,1.8818769454956048,0.9504521489143372,-0.5822092890739441,-5.8491034507751465,3.658203125,0,fly,6.1,180,270.0,1.8913298640633955,[6800|0|0|0],fly
3499,0.6502043604850769,0.3738521039485931,1.8833551406860352,0.9709495306015016,-0.5326247811317444,-5.598933219909668,3.63671875,0,fly,6.1,180,270.0,1.897372861001348,[6800|0|0|0],fly
3599,0.645236074924469,0.3727178275585174,1.880634307861328,0.5738612413406372,-1.304762363433838,-5.10318660736084,3.642578125,0,fly,6.1,180,270.0,1.903149830414529,[6800|0|0|0],fly
3699,0.6436606049537659,0.3674378097057342,1.8753224611282349,0.3944528102874756,-1.088560938835144,-6.926276683807373,3.63671875,0,fly,6.1,180,270.0,1.910803353124377,[6800|0|0|0],fly
3799,0.6419494152069092,0.3627110123634338,1.8701270818710327,-0.1937114596366882,-1.344610571861267,-5.499438762664795,3.630859375,0,fly,6.1,180,92.0,1.918032651091061,[6800|0|0|0],fly
3899,0.6405632495880127,0.3577636778354645,1.858973503112793,-8.4685640335083,-0.7726004123687744,-5.780674457550049,3.76953125,0,fly,6.1,180,92.0,1.930312711887772,[6800|0|0|0],fly
3999,0.6430700421333313,0.3556960821151733,1.8169808387756348,-13.77003574371338,-2.2121245861053467,0.4468504786491394,3.701171875,0,fly,6.1,180,92.0,1.972430912455472,[6800|0|0|0],fly
4099,0.6549989581108093,0.375888854265213,1.7686340808868408,-15.611322402954102,-2.5855722427368164,4.62905216217041,3.626953125,0,fly,6.1,180,92.0,2.026165966953061,[6800|0|0|0],fly
4199,0.6676689982414246,0.4178441166877746,1.709939956665039,-11.445399284362791,-1.2019296884536743,7.31767988204956,3.568359375,0,fly,6.1,180,92.0,2.099417411853634,[6800|0|0|0],fly
4299,0.6311166882514954,0.5010685324668884,1.6744149923324585,-5.754176616668701,-1.2795697450637815,7.853006839752197,3.57421875,0,fly,6.1,180,92.0,2.1970104333162666,[6800|0|0|0],fly
4399,0.6229719519615173,0.5726991891860962,1.6237709522247314,1.4928637742996216,-2.544722318649292,0.934688687324524,3.568359375,0,fly,6.1,180,92.0,2.285113251146864,[6800|0|0|0],fly
4499,0.6156174540519714,0.6308520436286926,1.5866448879241943,6.582632064819336,-2.8870503902435303,-1.8365858793258667,3.57421875,0,fly,6.1,180,92.0,2.3544975993081807,[6800|0|0|0],fly
4599,0.6061985492706299,0.6777200698852539,1.558979868888855,7.713280200958252,-3.0594351291656494,-3.523520469665528,3.583984375,0,fly,6.1,180,92.0,2.409730568906885,[6800|0|0|0],fly
4699,0.5952410101890564,0.709247350692749,1.539557933807373,6.984780788421631,-3.5605061054229736,-4.721230983734131,3.599609375,0,fly,6.1,180,92.0,2.448347257788095,[6800|0|0|0],fly
4799,0.5842629075050354,0.7267616391181946,1.527830958366394,4.984253406524658,-3.7940986156463614,-4.196944713592529,3.615234375,0,fly,6.1,180,92.0,2.472112589483317,[6800|0|0|0],fly
4899,0.5744963884353638,0.7371242642402649,1.520925521850586,2.453698873519897,-4.120358943939209,-4.108258247375488,3.615234375,0,fly,6.1,180,92.0,2.4879383263581887,[6800|0|0|0],fly
4999,0.5673977732658386,0.7433300614356995,1.5168092250823977,0.2311975657939911,-4.383277416229248,-3.071037530899048,3.630859375,0,fly,6.1,180,92.0,2.498226482424252,[6800|0|0|0],fly
5099,0.5650491118431091,0.7503635287284851,1.5130723714828491,-0.8007307052612305,-4.656177043914795,-2.7463924884796143,3.626953125,0,fly,6.1,180,92.0,2.506530092931842,[6800|0|0|0],fly
5199,0.5668848752975464,0.759769082069397,1.508981466293335,-1.027013063430786,-3.834550380706787,-2.359297513961792,3.62109375,0,fly,6.1,180,92.0,2.5169497842122484,[6800|0|0|0],fly
5299,0.5727740526199341,0.7716066241264343,1.5048201084136963,-0.2452602386474609,-3.1206817626953125,-2.0218584537506104,3.626953125,0,fly,6.1,180,92.0,2.530810762204045,[6800|0|0|0],fly
5399,0.5824460387229919,0.7845105528831482,1.4995304346084597,0.8459398150444031,-2.775693893432617,-1.4810233116149902,3.62109375,0,fly,6.1,180,92.0,2.5477824840230565,[6800|0|0|0],fly
5499,0.5939921140670776,0.7971265316009521,1.4939883947372437,1.2654850482940674,-2.0918867588043213,-0.5480796098709106,3.615234375,0,fly,6.1,180,92.0,2.5657599415961823,[6800|0|0|0],fly
5599,0.6078200340270996,0.807537317276001,1.486907958984375,1.5429909229278564,-0.9311779141426086,0.5423605442047119,3.611328125,0,fly,6.1,180,92.0,2.584460968285727,[6800|0|0|0],fly
5699,0.6215208768844604,0.816848635673523,1.4791162014007568,1.7440693378448486,-0.1465971618890762,1.4386556148529053,3.615234375,0,fly,6.1,180,92.0,2.602767394248869,[6800|0|0|0],fly
5799,0.6340797543525696,0.8236997723579407,1.470605492591858,1.6031516790390017,0.8876215815544128,1.4969476461410522,3.60546875,0,fly,6.1,180,92.0,2.6194135842501103,[6800|0|0|0],fly
5899,0.6449677348136902,0.8287199139595032,1.4618343114852903,2.058567523956299,0.7541267275810242,1.2981617450714111,3.60546875,0,fly,6.1,180,92.0,2.634269006096214,[6800|0|0|0],fly
5999,0.6536659598350525,0.8313931226730347,1.452929139137268,1.661696195602417,0.5362709164619446,0.589917004108429,3.611328125,0,fly,6.1,180,92.0,2.6470011409484817,[6800|0|0|0],fly
6099,0.6607471108436584,0.8318281173706055,1.4456325769424438,1.3519306182861328,0.9456260800361632,0.4062546193599701,3.599609375,0,fly,6.1,180,92.0,2.6571781611340044,[6800|0|0|0],fly
6199,0.6664040088653564,0.8304533362388611,1.4390116930007937,1.2196849584579468,0.2109375447034835,0.1782150119543075,3.615234375,0,fly,6.1,180,92.0,2.6659944314654367,[6800|0|0|0],fly
6299,0.6707975268363953,0.8285211324691772,1.4329674243927002,0.7062059044837952,0.2560769319534302,-0.1354009062051773,3.611328125,0,fly,6.1,180,92.0,2.673712565603698,[6800|0|0|0],fly
6399,0.6750102639198303,0.8253517150878906,1.4266438484191897,0.6086839437484741,-0.278489738702774,-0.1976238787174224,3.611328125,0,fly,6.1,180,92.0,2.6819454249711185,[6800|0|0|0],fly
6499,0.6792674660682678,0.8212745785713196,1.4210634231567385,0.3717939257621765,0.0448205843567848,-0.3800814747810364,3.599609375,0,fly,6.1,180,92.0,2.6900625647640024,[6800|0|0|0],fly
6599,0.6829476952552795,0.8176274299621582,1.4164466857910156,0.1544926911592483,0.082207016646862,-0.6489487886428833,3.611328125,0,fly,6.1,180,92.0,2.6970023085453176,[6800|0|0|0],fly
6699,0.6865507364273071,0.8141734600067139,1.4119397401809692,0.1819277107715606,0.0350132249295711,-0.9733619093894958,3.611328125,0,fly,6.1,180,92.0,2.703727215449681,[6800|0|0|0],fly
6799,0.690106213092804,0.8101011514663696,1.4081342220306396,-0.2244398444890976,0.0220379121601581,-1.220623016357422,3.611328125,0,fly,6.1,180,270.0,2.7103383484508496,[6800|0|0|0],fly
6899,0.693305253982544,0.8071116209030151,1.4015806913375854,-0.3297668993473053,0.2858045697212219,-1.609898805618286,3.896484375,0,fly,6.1,180,270.0,2.718219967583253,[6800|0|0|0],fly
6999,0.6958131194114685,0.8051232099533081,1.3675713539123535,-0.1096590012311935,-0.7184472680091858,-1.7669225931167605,3.826171875,0,fly,6.1,180,270.0,2.752379566515585,[6800|0|0|0],fly
7099,0.6979300379753113,0.8032754063606262,1.2927305698394775,0.0697284042835235,0.2860719859600067,-0.9487231373786926,3.716796875,0,fly,6.1,180,270.0,2.827273082142546,[6800|0|0|0],fly
7199,0.6995081901550293,0.8011839985847473,1.1837650537490845,0.3820296227931976,0.0462939739227294,-0.2049073874950409,3.62109375,0,fly,6.1,180,270.0,2.936270092411787,[6800|0|0|0],fly
7299,0.7000011205673218,0.796822726726532,1.0585263967514038,0.8801378011703491,0.6776688694953918,0.6708981990814209,3.583984375,0,fly,6.1,180,270.0,3.0615856336634426,[6800|0|0|0],fly
7399,0.700160562992096,0.7909181118011475,0.929387390613556,-0.4956483840942383,0.9659629464149476,1.3228317499160769,3.58984375,0,fly,6.1,180,270.0,3.190859655824026,[6800|0|0|0],fly
7499,0.6986096501350403,0.7851612567901611,0.8015789985656738,-1.386922001838684,0.8552565574645996,1.9979585409164429,3.60546875,0,fly,6.1,180,270.0,3.318807034805281,[6800|0|0|0],fly
7599,0.6939478516578674,0.7803895473480225,0.6748749613761902,-0.8897255063056946,0.1605734229087829,2.157536745071411,3.60546875,0,fly,6.1,180,270.0,3.445686562768448,[6800|0|0|0],fly
7699,0.689707338809967,0.7754746675491333,0.5500317811965942,-0.6516599059104919,-1.0620317459106443,1.801475524902344,3.599609375,0,fly,6.1,180,270.0,3.570698392728679,[6800|0|0|0],fly
7799,0.6868783235549927,0.7691486477851868,0.4288933277130127,0.9761412143707277,-1.727048635482788,1.6222050189971924,3.537109375,0,fly,6.1,180,270.0,3.692034894927154,[6800|0|0|0],fly
7899,0.685982346534729,0.7608473300933838,0.3259423971176147,0.26973557472229,-1.0915054082870483,2.9825055599212646,3.48828125,0,fly,6.1,180,270.0,3.795323852520401,[6800|0|0|0],fly
7999,0.6853829026222229,0.7529692053794861,0.2273427695035934,-3.5682168006896973,1.217137098312378,6.034849166870117,3.525390625,0,fly,6.1,180,270.0,3.894239527454335,[6800|0|0|0],fly
8099,0.6829169392585754,0.749241292476654,0.1492288410663604,-3.805842638015747,1.026885747909546,10.554664611816406,3.541015625,0,fly,6.1,180,270.0,3.972481230693842,[6800|0|0|0],fly
8199,0.6750155091285706,0.7527986168861389,0.0851413756608963,-7.372185707092285,3.752815961837769,16.21087074279785,3.58984375,0,fly,6.1,180,270.0,4.037151860636268,[6800|0|0|0],fly
8299,0.6589929461479187,0.7639956474304199,0.0270344614982604,-2.4834892749786377,0.5778190493583679,19.43487548828125,3.53125,0,fly,6.1,180,270.0,4.098458544537637,[6800|0|0|0],fly
8399,0.6452621221542358,0.775601863861084,0.0,7.973756313323975,-9.363350868225098,22.03341484069824,3.57421875,0,fly,6.1,180,270.0,4.130925479962494,[6800|0|0|0],fly
8499,0.6439987421035767,0.7846074104309082,0.0,-0.8437840342521667,-2.58654522895813,23.190399169921875,3.68359375,0,fly,6.1,180,270.0,4.140019213968593,[6800|0|0|0],fly
8599,0.6494771242141724,0.793767511844635,0.0,0.5780457854270935,-0.0154307838529348,19.50145149230957,3.599609375,0,fly,6.1,180,270.0,4.150692551237669,[6800|0|0|0],fly
8699,0.6573175191879272,0.8013761639595032,0.0,6.131136417388916,-2.6783206462860107,12.49253273010254,3.59375,0,fly,6.1,180,270.0,4.161617906167811,[6800|0|0|0],fly
8799,0.6695390343666077,0.8019434809684753,0.0026317657902836,5.949304103851318,-2.364649772644043,6.7627153396606445,3.599609375,0,fly,6.1,180,270.0,4.1741324366434736,[6800|0|0|0],fly
8899,0.6847083568572998,0.7946612238883972,0.0161572378128767,2.827199459075928,0.1297567933797836,3.49930191040039,3.60546875,0,fly,6.1,180,270.0,4.195721276502089,[6800|0|0|0],fly
8999,0.6980061531066895,0.7825299501419067,0.0268421042710542,2.786001920700073,1.4647904634475708,0.8948134779930115,3.599609375,0,fly,6.1,180,270.0,4.21665368102311,[6800|0|0|0],fly
9099,0.7069801092147827,0.7690421342849731,0.0332977324724197,0.2741129994392395,1.3917430639266968,-0.4985213875770569,3.599609375,0,fly,6.1,180,270.0,4.234092952805349,[6800|0|0|0],fly
9199,0.7111608386039734,0.7566110491752625,0.0380388014018535,-1.3508182764053345,1.7813769578933716,-1.3674159049987793,3.58984375,0,fly,6.1,180,270.0,4.248038852196358,[6800|0|0|0],fly
9299,0.7120069265365601,0.746211588382721,0.0404373854398727,-1.211242914199829,1.6506824493408203,-2.156515121459961,3.58984375,0,fly,6.1,180,270.0,4.258744825059798,[6800|0|0|0],fly
9399,0.7092750072479248,0.7391860485076904,0.0429931916296482,-2.540008068084717,1.2590283155441284,-2.1055800914764404,3.58984375,0,fly,6.1,180,270.0,4.266704331251451,[6800|0|0|0],fly
9499,0.7048477530479431,0.7361612319946289,0.045406125485897,-2.326869249343872,0.1349798887968063,-1.55930757522583,3.59375,0,fly,6.1,180,270.0,4.2725841564600415,[6800|0|0|0],fly
9599,0.7008035778999329,0.7369881272315979,0.0468374043703079,-1.776386857032776,-0.5871440768241882,-1.4567729234695437,3.583984375,0,fly,6.1,180,270.0,4.276953099994315,[6800|0|0|0],fly
9699,0.6977493762969971,0.7427610754966736,0.044917345046997,-1.671056866645813,-0.9777612686157228,-1.9088881015777588,3.57421875,0,fly,6.1,180,270.0,4.283760574335629,[6800|0|0|0],fly
9799,0.6966953873634338,0.7511485815048218,0.0416939668357372,-0.4726249575614929,-0.8018872141838074,-1.957427144050598,3.57421875,0,fly,6.1,180,270.0,4.292807746092682,[6800|0|0|0],fly
9899,0.6974536180496216,0.7608137726783752,0.0393307842314243,0.2217723280191421,-0.4171961545944214,-1.9294856786727903,3.57421875,0,F1,6.1,180,270.0,4.302786496826924,[6800|0|100|0],second_intermediate
9999,0.6997637748718262,0.7692852020263672,0.0379284247756004,1.8352986574172967,-0.7658229470252991,-2.51143479347229,3.57421875,0,F1,6.1,180,270.0,4.311678546747192,[6800|0|200|0],second_intermediate
10099,0.702594518661499,0.7746419906616211,0.0377832800149917,2.302266359329224,-0.659334123134613,-2.529155969619751,3.57421875,0,F1,6.1,180,270.0,4.317739022131772,[6800|0|300|0],second_intermediate
10199,0.7062391042709351,0.7762894034385681,0.0402200743556022,1.466914176940918,-0.1923674941062927,-2.074645519256592,3.583984375,0,F1,6.1,180,270.0,4.322422497313791,[6800|0|400|0],second_intermediate
10299,0.7096190452575684,0.7747057676315308,0.0443970263004303,0.1830864548683166,0.6023747324943542,-1.922603130340576,3.58984375,0,F1,6.1,180,270.0,4.328024178400024,[6800|0|500|0],second_intermediate
10399,0.7107093334197998,0.7732118368148804,0.0489684380590915,0.7735950946807861,0.4564949870109558,-2.840834140777588,3.58984375,0,F1,6.1,180,270.0,4.332955543629741,[6800|0|600|0],second_intermediate
10499,0.7105520963668823,0.7698546051979065,0.0527988895773887,0.9158934354782104,-0.1912446022033691,-4.280293941497803,3.583984375,0,F1,6.1,180,270.0,4.338051432801892,[6800|0|700|0],second_intermediate
10599,0.7102819085121155,0.7645382881164551,0.0549174509942531,-0.0619230866432189,0.3678986728191376,-4.877547740936279,3.578125,0,F1,6.1,180,270.0,4.343780702499195,[6800|0|800|0],second_intermediate
10699,0.7089026570320129,0.7581981420516968,0.0561918839812278,-0.0840882286429405,0.0934847369790077,-4.498175621032715,3.583984375,0,F1,6.1,180,270.0,4.350393112514168,[6800|0|900|0],second_intermediate
10799,0.705874502658844,0.7518599033355713,0.0566494539380073,-0.3877927362918854,0.321027547121048,-4.408305168151856,3.578125,0,F1,6.1,180,270.0,4.357432456176448,[6800|0|1000|0],second_intermediate
10899,0.7024964094161987,0.7459739446640015,0.0565424524247646,0.246139720082283,0.039319559931755,-5.396966934204102,3.57421875,0,F1,6.1,180,270.0,4.364219758494989,[6800|0|1100|0],second_intermediate
10999,0.6978307962417603,0.7385404109954834,0.0561263337731361,0.2314042598009109,-0.0524165667593479,-5.739369869232178,3.57421875,0,F1,6.1,180,270.0,4.373006027545429,[6800|0|1200|0],second_intermediate
11099,0.6918978095054626,0.729863166809082,0.0551038719713687,0.8206189870834351,0.5728603005409241,-6.160274028778076,3.57421875,0,F1,6.1,180,270.0,4.383567292925089,[6800|0|1300|0],second_intermediate
11199,0.6842018961906433,0.7184550762176514,0.0529879592359066,0.7921133041381836,0.4218487739562988,-6.437485694885254,3.57421875,0,F1,6.1,180,270.0,4.397490248767711,[6800|0|1400|0],second_intermediate
11299,0.6754953861236572,0.7047044634819031,0.0521446876227855,-0.0249110218137502,-0.548843264579773,-6.602351188659668,3.568359375,0,F1,6.1,180,270.0,4.413787296818463,[6800|0|1500|0],second_intermediate
11399,0.6660612225532532,0.6891467571258545,0.0518995858728885,0.7694964408874512,0.9135813117027284,-5.910439968109131,3.568359375,0,F1,6.1,180,270.0,4.431983608098554,[6800|0|1600|0],second_intermediate
11499,0.6561980843544006,0.6730779409408569,0.0522323548793792,-0.6282859444618225,0.494160383939743,-5.56547212600708,3.568359375,0,F1,6.1,180,270.0,4.450840943115162,[6800|0|1700|0],second_intermediate
11599,0.64505535364151,0.6571518182754517,0.0531795620918273,-0.8895425796508789,-0.04587072879076,-5.0403828620910645,3.568359375,0,F1,6.1,180,270.0,4.470301134080229,[6800|0|1800|0],second_intermediate
11699,0.6333997249603271,0.6420031189918518,0.0550492033362388,0.1277816146612167,-0.5409461855888367,-5.344404220581055,3.57421875,0,F1,6.1,180,270.0,4.489506141977165,[6800|0|1900|0],second_intermediate
11799,0.62254399061203,0.6267575621604919,0.0549014061689376,0.9282019734382628,1.2511574029922483,-5.974750995635986,4.0,0,F1,6.1,180,270.0,4.5082223332387885,[6800|0|2000|0],second_intermediate
11899,0.6081606149673462,0.6112837791442871,0.0164066758006811,-0.4129476249217987,12.222538948059082,-8.750345230102539,4.0078125,0,F1,6.1,180,270.0,4.552133194331387,[6800|0|2100|0],second_intermediate
11999,0.5922809839248657,0.598877489566803,0.0,-3.972999572753906,-0.4583532214164734,-13.032342910766602,4.0078125,0,F1,6.1,180,270.0,4.5781189156789726,[6800|0|2200|0],second_intermediate
12099,0.579719603061676,0.598012387752533,0.0,-4.170781135559082,5.254861831665039,-15.943028450012209,4.01171875,0,F1,6.1,180,270.0,4.590710051066187,[6800|0|2300|0],second_intermediate
12199,0.579298734664917,0.5982351303100586,0.0,-4.068576812744141,4.664960861206055,-15.211395263671877,4.015625,0,F1,6.1,180,270.0,4.5911862279811295,[6800|0|2400|0],second_intermediate
12299,0.5788575410842896,0.5987277626991272,0.0,-4.019010543823242,4.491884708404541,-15.206757545471191,4.015625,0,F1,6.1,180,270.0,4.591847543674536,[6800|0|2500|0],second_intermediate
12399,0.5785687565803528,0.599134624004364,0.0,-3.86734676361084,4.2259674072265625,-15.303281784057615,4.015625,0,F1,6.1,180,270.0,4.592346475144192,[6800|0|2600|0],second_intermediate
12499,0.5756518244743347,0.6021245718002319,0.0,-3.06575345993042,3.4946863651275635,-16.145761489868164,4.0234375,0,F1,6.1,180,270.0,4.596523589068079,[6800|0|2700|0],second_intermediate
12599,0.5731056928634644,0.6060091257095337,0.0,-1.4605520963668823,1.8138442039489744,-16.24546241760254,4.0234375,0,F1,6.1,180,270.0,4.601168214483992,[6800|0|2800|0],second_intermediate
12699,0.5678594708442688,0.6249010562896729,0.0,2.949578762054444,2.973663806915283,-14.375188827514648,4.0234375,0,F1,6.1,180,270.0,4.620775047132828,[6800|0|2900|0],second_intermediate
12799,0.5877481698989868,0.6419026255607605,0.0,5.921008586883545,18.954418182373047,-19.749601364135746,4.0234375,0,F1,6.1,180,270.0,4.646940171014988,[6800|0|3000|0],second_intermediate
12899,0.6375936269760132,0.687789797782898,0.0097589651122689,2.0458388328552246,13.188694953918455,-6.642747402191162,4.02734375,0,F1,6.1,180,270.0,4.715390441765543,[6800|0|3100|0],second_intermediate
12999,0.6732133626937866,0.734825849533081,0.0,3.2808985710144043,11.263827323913574,-1.479818344116211,4.02734375,0,F1,6.1,180,270.0,4.775193394342422,[6800|0|3200|0],second_intermediate
13099,0.6773132085800171,0.7652674913406372,0.0,0.1888161450624466,5.9445881843566895,1.5880399942398071,4.02734375,0,F1,6.1,180,270.0,4.8059098767619695,[6800|0|3300|0],second_intermediate
13199,0.6691389679908752,0.7890347242355347,0.0,-2.8342840671539307,-2.92226243019104,-3.8506247997283936,4.02734375,0,F1,6.1,180,270.0,4.831043510973708,[6800|0|3400|0],second_intermediate
13299,0.6553640365600586,0.803192138671875,0.0,-1.314564228057861,-3.458290338516236,-7.641909122467041,4.02734375,0,F1,6.1,180,270.0,4.850796513769384,[6800|0|3500|0],second_intermediate
13399,0.6392146348953247,0.8217897415161133,0.0,-0.559158980846405,-3.482572078704834,-7.622185707092285,4.02734375,0,F1,6.1,180,270.0,4.87542726701976,[6800|0|3600|0],second_intermediate
13499,0.6600897312164307,0.8588552474975586,0.0,-0.8340292572975159,-3.75493049621582,-9.03092098236084,4.03125,0,F1,6.1,180,270.0,4.9179669118240605,[6800|0|3700|0],second_intermediate
13599,0.7492599487304688,0.713705837726593,0.0,-0.356178343296051,-4.122239112854004,-15.969805717468262,4.03125,0,F1,6.1,180,270.0,5.088318544772972,[6800|0|3800|0],second_intermediate
13699,0.7494745850563049,0.7133521437644958,0.0,-0.0213932394981384,-4.2326507568359375,-13.251822471618652,4.03125,0,F1,6.1,180,270.0,5.0887322695259085,[6800|0|3900|0],second_intermediate
13799,0.7495037913322449,0.7128293514251709,0.0,0.155435100197792,-4.240118980407715,-11.73717975616455,4.11328125,0,F1,6.1,180,270.0,5.089255877047447,[6800|0|4000|0],second_intermediate
13899,0.7495207190513611,0.7127513289451599,0.0,0.2477539926767349,-4.224498271942139,-10.771754264831545,4.11328125,0,F1,6.1,180,270.0,5.089335714726906,[6800|0|4100|0],second_intermediate
13999,0.7496116757392883,0.7125398516654968,0.0,0.3099947273731231,-4.206834316253662,-10.081181526184082,4.1171875,0,F1,6.1,180,270.0,5.089565922804289,[6800|0|4200|0],second_intermediate
14099,0.7493118047714233,0.7128657698631287,0.0,0.3249925673007965,-4.184872150421143,-9.597962379455566,4.1171875,0,F1,6.1,180,270.0,5.090008805710841,[6800|0|4300|0],second_intermediate
14199,0.749426007270813,0.7127837538719177,0.0,0.3216148316860199,-4.181662559509277,-9.249237060546877,4.1171875,0,F1,6.1,180,270.0,5.09014940739533,[6800|0|4400|0],second_intermediate
14299,0.7494187951087952,0.7127397060394287,0.0,0.3140517473220825,-4.168177604675293,-8.997920036315918,4.1171875,0,F1,6.1,180,270.0,5.090194041763567,[6800|0|4500|0],second_intermediate
14399,0.7492884993553162,0.7130795121192932,0.0,0.2994104921817779,-4.162470817565918,-8.802666664123535,4.12109375,0,F1,6.1,180,270.0,5.090557971915228,[6800|0|4600|0],second_intermediate
14499,0.7495217323303223,0.7127998471260071,0.0,0.2917425334453583,-4.164697170257568,-8.652957916259766,4.12109375,0,F1,6.1,180,270.0,5.090922128652224,[6800|0|4700|0],second_intermediate
14599,0.7492371201515198,0.7128836512565613,0.0,0.2859630286693573,-4.150974273681641,-8.52926254272461,4.12109375,0,F1,6.1,180,270.0,5.091218822475248,[6800|0|4800|0],second_intermediate
14699,0.7495043873786926,0.713027834892273,0.0,0.2744527459144592,-4.156594753265381,-8.430693626403809,4.12109375,0,F1,6.1,180,270.0,5.0915225010743095,[6800|0|4900|0],second_intermediate
14799,0.7493045926094055,0.7128036022186279,0.0,0.2704039216041565,-4.141323566436768,-8.359810829162598,4.12109375,0,F1,6.1,180,270.0,5.091822831295507,[6800|0|5000|0],second_intermediate
14899,0.7493945360183716,0.7127490043640137,0.0,0.2447157949209213,-4.136603832244873,-8.279635429382324,4.12890625,0,F1,6.1,180,270.0,5.091928048891682,[6800|0|5100|0],second_intermediate
14999,0.7492070198059082,0.7128229737281799,0.0,0.2324744164943695,-4.132215023040772,-8.24628734588623,4.12890625,0,F1,6.1,180,270.0,5.0921296271563135,[6800|0|5200|0],second_intermediate
15099,0.749562680721283,0.712975025177002,0.0,0.2201603055000305,-4.148463249206543,-8.224336624145508,4.12890625,0,F1,6.1,180,270.0,5.092516427272412,[6800|0|5300|0],second_intermediate
15199,0.748930811882019,0.7132005095481873,0.0,0.2110932320356369,-4.127741813659668,-8.121376037597656,4.12890625,0,F1,6.1,180,270.0,5.093187323264114,[6800|0|5400|0],second_intermediate
15299,0.7490306496620178,0.7131273150444031,0.0,0.2043443918228149,-4.128396987915039,-8.101011276245117,4.12890625,0,F1,6.1,180,270.0,5.093311117519632,[6800|0|5500|0],second_intermediate
15399,0.7490972876548767,0.7129741311073303,0.0,0.1983738094568252,-4.118137836456299,-8.087178230285645,4.12890625,0,F1,6.1,180,270.0,5.093478168232499,[6800|0|5600|0],second_intermediate
15499,0.7490858435630798,0.713104248046875,0.0,0.2241863310337066,-4.113871097564697,-8.091264724731445,4.1328125,0,F1,6.1,180,270.0,5.093608787469955,[6800|0|5700|0],second_intermediate
15599,0.7491457462310791,0.7130307555198669,0.0,0.2632773220539093,-4.13493013381958,-8.074934959411621,4.1328125,0,F1,6.1,180,270.0,5.093703600344394,[6800|0|5800|0],second_intermediate
15699,0.7490633130073547,0.7133559584617615,0.0,0.2528858780860901,-4.136267185211182,-8.079278945922852,4.1328125,0,F1,6.1,180,270.0,5.094039088331945,[6800|0|5900|0],second_intermediate
15799,0.7493715882301331,0.7130126357078552,0.0,0.2646946609020233,-4.143404960632324,-8.07378101348877,4.1328125,0,F1,6.1,180,270.0,5.094500503683151,[6800|0|6000|0],second_intermediate
15899,0.7490458488464355,0.7136020660400391,0.0,0.2540118992328644,-4.130988121032715,-8.060343742370605,4.1328125,0,F1,6.1,180,270.0,5.095173953208053,[6800|0|6100|0],second_intermediate
15999,0.7490959763526917,0.7131470441818237,0.0,0.2647998631000519,-4.1296467781066895,-8.038653373718262,4.1328125,0,F1,6.1,180,270.0,5.095631727888804,[6800|0|6200|0],second_intermediate
16099,0.7492506504058838,0.7133146524429321,0.0,0.2656881511211395,-4.128594875335693,-8.056159973144531,4.13671875,0,F1,6.1,180,270.0,5.095859799351119,[6800|0|6300|0],second_intermediate
16199,0.7491803765296936,0.7132639288902283,0.0,0.26805379986763,-4.125591278076172,-8.059667587280273,4.13671875,0,F1,6.1,180,270.0,5.095946467087179,[6800|0|6400|0],second_intermediate
16299,0.7492521405220032,0.7132787108421326,0.0,0.2620823383331299,-4.133020877838135,-8.061782836914062,4.13671875,0,F1,6.1,180,270.0,5.096019737658995,[6800|0|6500|0],second_intermediate
16399,0.7490808963775635,0.7134461998939514,0.0,0.2593517899513244,-4.129440307617188,-8.057093620300293,4.13671875,0,F1,6.1,180,270.0,5.096259272916283,[6800|0|6600|0],second_intermediate
16499,0.7492650151252747,0.7132605910301208,0.0,0.2680690288543701,-4.138868808746338,-8.066579818725586,4.13671875,0,F1,6.1,180,270.0,5.096520711940897,[6800|0|6700|0],second_intermediate
16599,0.7489625215530396,0.713202714920044,0.0,0.2741605341434479,-4.125302791595459,-8.046603202819824,4.13671875,0,F1,6.1,180,270.0,5.096828692468465,[6800|0|6800|0],second_intermediate
16699,0.7490668892860413,0.7132688164710999,0.0,0.2696981728076935,-4.129652500152588,-8.033821105957031,4.13671875,0,F1,6.1,180,270.0,5.096952232092651,[6800|0|6900|0],second_intermediate
16799,0.7488692998886108,0.7132357358932495,0.0,0.2764484584331512,-4.129826545715332,-8.03073787689209,4.13671875,0,F1,6.1,180,270.0,5.097152571541107,[6800|0|7000|0],second_intermediate
16899,0.7490066289901733,0.713102400302887,0.0,0.2767205834388733,-4.14007568359375,-8.028120040893555,4.13671875,0,F1,6.1,180,270.0,5.09734398121117,[6800|0|7100|0],second_intermediate
16999,0.7491036653518677,0.7135055065155029,0.0,0.2605171799659729,-4.143359661102295,-8.033001899719238,4.14453125,0,F1,6.1,180,270.0,5.097758602332364,[6800|0|7200|0],second_intermediate
17099,0.7489562630653381,0.7129893898963928,0.0,0.2729547321796417,-4.143216609954834,-8.049985885620117,4.14453125,0,F1,6.1,180,270.0,5.098295355346884,[6800|0|7300|0],second_intermediate
17200,0.749159038066864,0.7133514285087585,0.0,0.2656878232955932,-4.152365684509277,-8.065984725952148,4.14453125,0,F1,6.1,180,270.0,5.098710312764082,[6800|0|7400|0],second_intermediate
17300,0.7491678595542908,0.7133733630180359,0.0,0.265855610370636,-4.153243064880371,-8.029380798339844,4.14453125,0,F1,6.1,180,270.0,5.098733954704308,[6800|0|7500|0],second_intermediate
17400,0.7495852112770081,0.7131596803665161,0.0,0.2714630365371704,-4.156449317932129,-8.024418830871582,4.14453125,0,F1,6.1,180,270.0,5.099202828606349,[6800|0|7600|0],second_intermediate
17500,0.7490477561950684,0.7134567499160767,0.0,0.2642330527305603,-4.139894008636475,-8.010416030883789,4.14453125,0,F1,6.1,180,270.0,5.099816920034704,[6800|0|7700|0],second_intermediate
17600,0.749168872833252,0.7131321430206299,0.0,0.2819442749023437,-4.144142150878906,-8.000602722167969,4.14453125,0,F1,6.1,180,270.0,5.100163386305236,[6800|0|7800|0],second_intermediate
17700,0.7490800023078918,0.7134113907814026,0.0,0.2808665037155151,-4.142286777496338,-8.011434555053711,4.1484375,0,F1,6.1,180,270.0,5.100456434564358,[6800|0|7900|0],second_intermediate
17800,0.749341607093811,0.7133231163024902,0.0,0.2830021381378174,-4.147754669189453,-8.01534366607666,4.14453125,0,F1,6.1,180,270.0,5.10073253137282,[6800|0|8000|0],second_intermediate
17900,0.749232292175293,0.7132371068000793,0.0,0.2827986776828766,-4.146933555603027,-8.007387161254883,4.1484375,0,F1,6.1,180,270.0,5.100871626253803,[6800|0|8100|0],second_intermediate
18000,0.7490094304084778,0.7130106091499329,0.0,0.2863892614841461,-4.152701377868652,-8.02649211883545,4.1484375,0,F1,6.1,180,270.0,5.101189381745699,[6800|0|8200|0],second_intermediate
18100,0.7488774061203003,0.7135748267173767,0.0,0.2815368473529815,-4.153698921203613,-8.013920783996582,4.1484375,0,F1,6.1,180,270.0,5.101768840006561,[6800|0|8300|0],second_intermediate
18200,0.7491788268089294,0.7132089734077454,0.0,0.2904152274131775,-4.164020538330078,-8.027534484863281,4.1484375,0,F1,6.1,180,270.0,5.102242868566568,[6800|0|8400|0],second_intermediate
18299,0.7494066953659058,0.7132441997528076,0.0,0.2914799749851227,-4.166439533233643,-8.034431457519531,4.1484375,0,F1,6.1,180,270.0,5.102473443878873,[6800|0|8500|0],second_intermediate
18399,0.74944007396698,0.7131214141845703,0.0,0.2955010235309601,-4.165500164031982,-8.044795036315918,4.1484375,0,F1,6.1,180,270.0,5.102600685486758,[6800|0|8600|0],second_intermediate
18499,0.7491824626922607,0.7132112979888916,0.0,0.2961868941783905,-4.152806758880615,-8.05357551574707,4.1484375,0,F1,6.1,180,270.0,5.102873527322153,[6800|0|8700|0],second_intermediate
18599,0.7493771910667419,0.7134009003639221,0.0,0.2927674055099487,-4.159778118133545,-8.033349990844727,4.1484375,0,F1,6.1,180,270.0,5.1031453143719645,[6800|0|8800|0],second_intermediate
18701,0.7492795586585999,0.7131780982017517,0.0,0.3087088763713836,-4.1579461097717285,-8.040482521057129,4.1484375,0,F1,6.1,180,270.0,5.103388569157298,[6800|0|8900|0],second_intermediate
18801,0.7491863369941711,0.713278591632843,0.0,0.3087646961212158,-4.156511306762695,-8.048272132873535,4.15234375,0,F1,6.1,180,270.0,5.103525642890783,[6800|0|9000|0],second_intermediate
18901,0.7490395307540894,0.7128437161445618,0.0,0.3228532373905182,-4.147976875305176,-8.026885032653809,4.15234375,0,F1,6.1,180,270.0,5.103984629559908,[6800|0|9100|0],second_intermediate
18999,0.7487554550170898,0.713319718837738,0.0,0.3146987855434418,-4.142850399017334,-8.033228874206543,4.15234375,0,F1,6.1,180,270.0,5.104538955807043,[6800|0|9200|0],second_intermediate
19099,0.7494944334030151,0.7133243083953857,0.0,0.3052854835987091,-4.160422801971436,-8.041316986083984,4.15234375,0,F1,6.1,180,270.0,5.105277948444966,[6800|0|9300|0],second_intermediate
19199,0.7494133114814758,0.7133074402809143,0.0,0.3055780827999115,-4.162496566772461,-8.037498474121094,4.15234375,0,F1,6.1,180,270.0,5.105360805547498,[6800|0|9400|0],second_intermediate
19299,0.749367892742157,0.7132830619812012,0.0,0.3072932064533233,-4.159064292907715,-8.038232803344727,4.15234375,0,F1,6.1,180,270.0,5.105412353228127,[6800|0|9500|0],second_intermediate
19399,0.7494153380393982,0.7132015228271484,0.0,0.3089061081409454,-4.158350944519043,-8.025357246398926,4.15234375,0,F1,6.1,180,270.0,5.105506691395768,[6800|0|9600|0],second_intermediate
19499,0.7491608262062073,0.7132081985473633,0.0,0.3108177185058594,-4.146572589874268,-8.044833183288574,4.15234375,0,F1,6.1,180,270.0,5.105761290764335,[6800|0|9700|0],second_intermediate
19599,0.7491233944892883,0.7132502198219299,0.0,0.3064713478088379,-4.145853519439697,-8.053326606750488,4.15234375,0,F1,6.1,180,270.0,5.105817566167023,[6800|0|9800|0],second_intermediate
19699,0.7492771744728088,0.7129499316215515,0.0,0.3156038820743561,-4.149803638458252,-8.048626899719238,4.15234375,0,F1,6.1,180,270.0,5.106154940271865,[6800|0|9900|0],second_intermediate
19799,0.7491249442100525,0.7130184769630432,0.0,0.3107722103595733,-4.150332927703857,-8.073362350463867,4.15234375,0,F1,6.1,180,270.0,5.10632189091349,[6800|0|10000|0],second_intermediate
19899,0.7497410774230957,0.7130206823348999,0.0,0.306823194026947,-4.1708292961120605,-8.137657165527344,3.09375,0,fly,6.1,180,270.0,5.106938028073447,[6800|0|10000|0],fly
19999,0.7522571086883545,0.7127249240875244,0.0,-0.3385772705078125,-4.348848819732666,-7.818261623382568,3.220703125,0,fly,6.1,180,270.0,5.109471382819362,[6800|0|10000|0],fly
20099,0.7543915510177612,0.7158699631690979,0.0,-3.4955883026123047,7.663870334625244,-4.573267936706543,3.546875,0,fly,6.1,180,270.0,5.113272318872782,[6800|0|10000|0],fly
20199,0.7416685819625854,0.7254545092582703,0.0368081256747245,-1.1481711864471436,8.96125602722168,-3.2804741859436035,3.541015625,0,fly,6.1,180,270.0,5.153379370384963,[6800|0|10000|0],fly
20299,0.7158558964729309,0.7379395961761475,0.1011839061975479,1.0628055334091189,1.2865071296691897,-2.9577882289886475,3.58984375,0,fly,6.1,180,270.0,5.223852154106464,[6800|0|10000|0],fly
20399,0.6870580911636353,0.7502316236495972,0.179708182811737,0.5096237063407898,-2.3642895221710205,-2.390194892883301,3.615234375,0,fly,6.1,180,270.0,5.30838894815392,[6800|0|10000|0],fly
20499,0.664818525314331,0.7620262503623962,0.2664499580860138,1.2295727729797363,-5.2422380447387695,-1.066422939300537,3.630859375,0,fly,6.1,180,270.0,5.398709749114678,[6800|0|10000|0],fly
20599,0.6520638465881348,0.7730305194854736,0.3557834327220917,1.9676755666732788,-5.295289516448975,-0.3397769927978515,3.626953125,0,fly,6.1,180,270.0,5.4896176445852936,[6800|0|10000|0],fly
20699,0.647891640663147,0.7823712825775146,0.4438497722148895,2.3276407718658447,-4.270436763763428,0.1885936707258224,3.611328125,0,fly,6.1,180,270.0,5.578276187936078,[6800|0|10000|0],fly
20799,0.6504762768745422,0.7885205149650574,0.532265841960907,2.0655529499053955,-3.252274751663208,0.37637859582901,3.60546875,0,fly,6.1,180,270.0,5.6669435144585005,[6800|0|10000|0],fly
20899,0.6573675870895386,0.7924214005470276,0.6215352416038513,0.6890370845794678,-1.4657169580459597,0.1803147792816162,3.599609375,0,fly,6.1,180,270.0,5.756563449614774,[6800|0|10000|0],fly
20999,0.6653886437416077,0.7955330610275269,0.7138816118240356,1.6936038732528689,1.2746461629867554,-0.5095654726028442,3.599609375,0,fly,6.1,180,270.0,5.849309726486705,[6800|0|10000|0],fly
21099,0.6707824468612671,0.7975935339927673,0.8112173080444336,0.6955329179763794,1.3382853269577026,-1.611232876777649,3.611328125,0,fly,6.1,180,270.0,5.946816528401462,[6800|0|10000|0],fly
21199,0.670595109462738,0.7952331304550171,0.9135715365409852,2.915178298950196,2.0881948471069336,-4.400135040283203,3.615234375,0,fly,6.1,180,270.0,6.049198141454228,[6800|0|10000|0],fly
21299,0.6658493876457214,0.7884310483932495,1.016460657119751,0.970858097076416,-0.2826102972030639,-6.074769973754883,3.611328125,0,fly,6.1,180,270.0,6.152421013577664,[6800|0|10000|0],fly
21399,0.6598161458969116,0.778053343296051,1.1199477910995483,-0.1290738880634308,-1.4048850536346436,-6.552970409393311,3.6484375,0,fly,6.1,180,270.0,6.256602027531439,[6800|0|10000|0],fly
21499,0.6557167768478394,0.7674365043640137,1.2203679084777832,-2.0224432945251465,-0.8350328207015991,-5.503072738647461,3.701171875,0,fly,6.1,180,270.0,6.357664988450698,[6800|0|10000|0],fly
21599,0.6526728868484497,0.7597881555557251,1.3086243867874146,-3.072934150695801,-3.077907085418701,-3.4748146533966064,3.716796875,0,fly,6.1,180,270.0,6.446304530808723,[6800|0|10000|0],fly
21699,0.6538184285163879,0.7578898668289185,1.3783290386199951,-2.760460615158081,-2.1258544921875,-1.2721824645996094,3.7109375,0,fly,6.1,180,270.0,6.516044435116835,[6800|0|10000|0],fly
21799,0.6572844386100769,0.7608277797698975,1.4280781745910645,-2.6196746826171875,-1.7558177709579468,0.0771027952432632,3.68359375,0,fly,6.1,180,270.0,6.566000626808019,[6800|0|10000|0],fly
21899,0.6632636189460754,0.7684699892997742,1.461134672164917,-1.3304460048675537,-1.2320231199264526,1.7037245035171509,3.658203125,0,fly,6.1,180,270.0,6.60045183862762,[6800|0|10000|0],fly
21999,0.6712923645973206,0.778485894203186,1.4809601306915283,-0.0812763422727584,-0.2109236121177673,2.673375368118286,3.642578125,0,fly,6.1,180,270.0,6.624070219468757,[6800|0|10000|0],fly
22099,0.6791247725486755,0.7902000546455383,1.492296814918518,0.996615707874298,0.1803096383810043,1.5545997619628906,3.630859375,0,fly,6.1,180,270.0,6.642155809822629,[6800|0|10000|0],fly
22199,0.6885266304016113,0.8009228110313416,1.4975438117980957,1.844576120376587,0.4231821298599243,0.2656378746032715,3.62109375,0,fly,6.1,180,270.0,6.657351316127139,[6800|0|10000|0],fly
22299,0.697117805480957,0.809383749961853,1.4988890886306765,2.2407374382019043,1.1376245021820068,-0.269636869430542,3.615234375,0,fly,6.1,180,270.0,6.669484145417378,[6800|0|10000|0],fly
22399,0.7060654759407043,0.8144062161445618,1.4976059198379517,2.295398473739624,1.426208734512329,-0.4140729606151581,3.611328125,0,fly,6.1,180,270.0,6.679824962375593,[6800|0|10000|0],fly
22499,0.7128050327301025,0.8164326548576355,1.4957046508789062,2.0046916007995605,1.708813190460205,-0.4437810480594635,3.611328125,0,fly,6.1,180,270.0,6.687114880292141,[6800|0|10000|0],fly
22599,0.7187155485153198,0.8154036998748779,1.4933778047561646,1.6389052867889404,1.5457310676574707,-0.6494721174240112,3.611328125,0,fly,6.1,180,270.0,6.693549719690506,[6800|0|10000|0],fly
22699,0.7217444777488708,0.8120507001876831,1.4903606176376345,0.9579867124557496,1.809755802154541,-0.3938390612602234,3.611328125,0,fly,6.1,180,270.0,6.698982991017471,[6800|0|10000|0],fly
22799,0.723766028881073,0.8073553442955017,1.4871256351470947,0.5744349956512451,1.297971248626709,-0.1863785982131958,3.611328125,0,fly,6.1,180,270.0,6.705032631308302,[6800|0|10000|0],fly
22899,0.7237598299980164,0.8021368384361267,1.4828119277954102,-0.3555710911750793,1.2991679906845093,0.1389244347810745,3.80078125,0,fly,6.1,180,155.0,6.711803223080552,[6800|0|10000|0],fly
22999,0.7252013087272644,0.803606390953064,1.4645394086837769,-14.478473663330078,-12.736797332763672,-6.408937931060791,3.859375,0,fly,6.1,180,155.0,6.730191327937005,[6800|0|10000|0],fly
23099,0.741370439529419,0.8149092793464661,1.4095559120178225,-15.516008377075195,-12.52917194366455,-7.0113139152526855,3.7578125,0,fly,6.1,180,155.0,6.7886069164604965,[6800|0|10000|0],fly
23199,0.7635326385498047,0.8474794626235962,1.3053717613220217,-18.98189163208008,-17.966354370117188,-8.4647216796875,3.6484375,0,fly,6.1,180,155.0,6.899990564992632,[6800|0|10000|0],fly
23299,0.8073697090148926,0.8934330940246582,1.1761802434921265,-11.247482299804688,-17.25005531311035,-4.233541965484619,3.505859375,0,fly,6.1,180,155.0,7.043948452116256,[6800|0|10000|0],fly
23399,0.8767847418785095,0.95638245344162,1.0419975519180298,-6.292581081390381,-12.685468673706056,-1.866749286651612,3.42578125,0,fly,6.1,180,155.0,7.207612936218739,[6800|0|10000|0],fly
23499,0.977869987487793,1.0086089372634888,0.9338102340698242,1.4393471479415894,-2.6846189498901367,-6.694675922393799,3.515625,0,fly,6.1,180,155.0,7.364617166211035,[6800|0|10000|0],fly
23599,1.0813499689102173,1.0626150369644165,0.8461996912956238,7.884116172790527,4.88888692855835,-7.233916759490967,3.552734375,0,fly,6.1,180,155.0,7.510563637786342,[6800|0|10000|0],fly
23699,1.1761043071746826,1.0908654928207395,0.7784346342086792,3.2948596477508545,15.107011795043944,-4.857964515686035,3.521484375,0,fly,6.1,180,155.0,7.630432632267916,[6800|0|10000|0],fly
23799,1.2459253072738647,1.0963022708892822,0.7277763485908508,4.799492359161377,20.794248580932617,-3.461633920669556,3.5625,0,fly,6.1,180,155.0,7.716866378642547,[6800|0|10000|0],fly
23899,1.285921335220337,1.0791326761245728,0.6888963580131531,2.285468578338623,4.647916793823242,-0.4673747718334198,3.47265625,0,fly,6.1,180,155.0,7.775228445974001,[6800|0|10000|0],fly
23999,1.3197581768035889,1.0638006925582886,0.6543189883232117,-4.145816326141357,-10.442402839660645,3.134138822555542,3.515625,0,fly,6.1,180,155.0,7.82597877664368,[6800|0|10000|0],fly
24099,1.3714708089828491,1.0628966093063354,0.631568968296051,-7.911886692047119,-12.429153442382812,5.880916118621826,3.5,0,fly,6.1,180,155.0,7.882481671301123,[6800|0|10000|0],fly
24199,1.4585179090499878,1.0364444255828855,0.6524635553359985,-5.256033420562744,-7.648636817932129,7.566283226013184,3.509765625,0,fly,6.1,180,155.0,7.975827798277059,[6800|0|10000|0],fly
24299,1.550100326538086,1.0553436279296875,0.6672077775001526,-7.568737030029297,-1.4733446836471558,9.075033187866213,3.611328125,0,fly,6.1,180,155.0,8.07049516926377,[6800|0|10000|0],fly
24399,1.6354641914367676,1.0851337909698486,0.6876789927482605,-5.927301406860352,6.653563976287842,8.455209732055664,3.630859375,0,fly,6.1,180,155.0,8.163196376904956,[6800|0|10000|0],fly
24499,1.7076804637908936,1.1189064979553225,0.7057929039001465,-3.0930097103118896,10.62221908569336,6.968987941741943,3.63671875,0,fly,6.1,180,155.0,8.244951496053975,[6800|0|10000|0],fly
24599,1.7628803253173828,1.150863766670227,0.7176311612129211,0.4598429501056671,12.426993370056152,5.13189697265625,3.615234375,0,fly,6.1,180,155.0,8.309823956100313,[6800|0|10000|0],fly
24699,1.7997621297836304,1.1754430532455444,0.7211412191390991,4.345578670501709,12.202177047729492,3.4103152751922607,3.59375,0,fly,6.1,180,155.0,8.354284380478441,[6800|0|10000|0],fly
24799,1.821605920791626,1.1879854202270508,0.7188670635223389,4.97941255569458,9.731637954711914,3.0134592056274414,3.583984375,0,fly,6.1,180,155.0,8.379575366201996,[6800|0|10000|0],fly
24899,1.8313370943069456,1.1886024475097656,0.7164900898933411,4.093764305114746,7.96003246307373,2.712216854095459,3.58984375,0,fly,6.1,180,155.0,8.38961162368603,[6800|0|10000|0],fly
24999,1.831312656402588,1.1805862188339231,0.7139564752578735,0.9073622226715088,5.673853397369385,3.611970663070679,3.599609375,0,fly,6.1,180,155.0,8.398018747005906,[6800|0|10000|0],fly
25099,1.825079679489136,1.1690101623535156,0.7110199332237244,-2.465079069137573,2.938990354537964,5.04509973526001,3.59375,0,fly,6.1,180,155.0,8.411490137578506,[6800|0|10000|0],fly
25199,1.816514015197754,1.1615067720413208,0.7025410532951355,-4.713011264801025,1.340649962425232,5.633860111236572,3.568359375,0,fly,6.1,180,155.0,8.425687421676995,[6800|0|10000|0],fly
25299,1.8090717792510984,1.1632260084152222,0.6883609294891357,-4.436069965362549,0.5052459239959717,5.671502590179443,3.55859375,0,fly,6.1,180,155.0,8.44179389741654,[6800|0|10000|0],fly
25399,1.803258299827576,1.1734308004379272,0.6752179861068726,-2.146369457244873,0.7294072508811951,3.85167932510376,3.541015625,0,fly,6.1,180,155.0,8.459419767153484,[6800|0|10000|0],fly
25499,1.797605276107788,1.1872555017471311,0.6688989996910095,0.7145540118217468,0.1594633162021637,1.4028106927871704,3.552734375,0,fly,6.1,180,155.0,8.475637308051816,[6800|0|10000|0],fly
25599,1.7948185205459597,1.2023693323135376,0.6696770191192627,2.112514972686768,0.3248177170753479,-1.322954773902893,3.578125,0,fly,6.1,180,155.0,8.491025589150826,[6800|0|10000|0],fly
25699,1.7910650968551636,1.2128921747207642,0.6727758049964905,3.1456215381622314,2.382894992828369,-1.0128923654556274,3.58984375,0,fly,6.1,180,155.0,8.502619590860455,[6800|0|10000|0],fly
25799,1.7843095064163208,1.2196308374404907,0.6773924827575684,2.4851624965667725,1.6339740753173828,1.2218087911605835,3.583984375,0,fly,6.1,180,155.0,8.513219651755433,[6800|0|10000|0],fly
25899,1.7741601467132568,1.2213062047958374,0.6824218034744263,2.355147123336792,1.2754682302474976,3.6935884952545166,3.59375,0,fly,6.1,180,155.0,8.524669997821407,[6800|0|10000|0],fly
25999,1.7626796960830688,1.219874382019043,0.6723664999008179,-1.4211688041687012,1.153480887413025,4.984367370605469,3.837890625,0,fly,6.1,180,155.0,8.539998402601219,[6800|0|10000|0],fly
26099,1.7499983310699463,1.221007227897644,0.6228929162025452,0.198354110121727,0.7268185019493103,5.302520275115967,3.716796875,0,fly,6.1,180,155.0,8.591083976321505,[6800|0|10000|0],fly
26199,1.735631823539734,1.2229644060134888,0.539577841758728,-1.2756808996200562,-0.0501475185155868,5.189664363861084,3.578125,0,fly,6.1,180,155.0,8.675651279189525,[6800|0|10000|0],fly
26299,1.7179644107818604,1.227096438407898,0.438889741897583,1.331762671470642,-0.110494315624237,4.569122314453125,3.484375,0,fly,6.1,180,155.0,8.777961125337946,[6800|0|10000|0],fly
26399,1.6985852718353271,1.2306931018829346,0.345032125711441,2.5305075645446777,0.9754477739334106,4.059225559234619,3.47265625,0,fly,6.1,180,155.0,8.873865969483624,[6800|0|10000|0],fly
26499,1.6758862733840942,1.2299033403396606,0.2647503912448883,1.7125500440597534,-0.3557924032211303,4.959072589874268,3.484375,0,fly,6.1,180,155.0,8.957298727696106,[6800|0|10000|0],fly
26599,1.6515510082244873,1.229766607284546,0.19606713950634,0.0542590543627738,-0.0107418308034539,6.049571514129639,3.494140625,0,fly,6.1,180,155.0,9.030165818317988,[6800|0|10000|0],fly
26699,1.6284950971603394,1.2310806512832642,0.1420232206583023,-0.1685807406902313,-2.667574644088745,6.316695690155029,3.484375,0,fly,6.1,180,155.0,9.088936958438644,[6800|0|10000|0],fly
26799,1.610892415046692,1.231484293937683,0.0999028459191322,2.660472631454468,-3.556457281112671,6.3643479347229,3.484375,0,fly,6.1,180,155.0,9.13458937691954,[6800|0|10000|0],fly
26899,1.6026932001113892,1.2300972938537598,0.0712548270821571,2.956188440322876,-6.865074634552002,4.75956392288208,3.47265625,0,fly,6.1,180,155.0,9.164419896158597,[6800|0|10000|0],fly
26999,1.608350396156311,1.2233409881591797,0.0623214840888977,0.6978914737701416,-6.157627105712891,2.331399917602539,3.515625,0,fly,6.1,180,155.0,9.17696804943964,[6800|0|10000|0],fly
27099,1.625924825668335,1.2124627828598022,0.0711095854640007,2.275296926498413,-3.213587045669556,0.5651493072509766,3.5625,0,fly,6.1,180,155.0,9.199427493978352,[6800|0|10000|0],fly
27199,1.6483837366104126,1.1995437145233154,0.0858994424343109,-1.4283413887023926,-0.2935333549976349,-1.405938744544983,3.58984375,0,fly,6.1,180,155.0,9.229261113882568,[6800|0|10000|0],fly
27299,1.669920563697815,1.1867302656173706,0.103800818324089,-0.8240593671798706,0.6245453953742981,-2.301347255706787,3.599609375,0,fly,6.1,180,155.0,9.260058494495294,[6800|0|10000|0],fly
27399,1.6876871585845947,1.1765466928482056,0.1189388111233711,-2.7601890563964844,2.518271923065185,-2.6908769607543945,3.60546875,0,fly,6.1,180,155.0,9.285524469328529,[6800|0|10000|0],fly
27499,1.701434850692749,1.1691535711288452,0.1319666504859924,-2.235404253005981,1.7942863702774048,-2.557497501373291,3.599609375,0,fly,6.1,180,155.0,9.305856264269364,[6800|0|10000|0],fly
27599,1.709062576293945,1.166363000869751,0.138093501329422,-0.3228769898414612,3.302906990051269,-2.398597717285156,3.58984375,0,fly,6.1,180,155.0,9.316030141675531,[6800|0|10000|0],fly
27699,1.711154818534851,1.162952184677124,0.1400939971208572,-0.1787925660610199,2.2761785984039307,-2.238508701324463,3.58984375,0,fly,6.1,180,155.0,9.320503745156628,[6800|0|10000|0],fly
27799,1.7084661722183228,1.157622456550598,0.1416867077350616,-1.4270598888397217,2.0224759578704834,-1.4300355911254885,3.578125,0,fly,6.1,180,155.0,9.326682057872787,[6800|0|10000|0],fly
27899,1.700859785079956,1.152889847755432,0.1406017839908599,-1.3430215120315552,0.6188226342201233,-1.6590198278427124,3.583984375,0,fly,6.1,180,155.0,9.335706013260394,[6800|0|10000|0],fly
27999,1.6923470497131348,1.148761510848999,0.1389304995536804,-2.467158794403076,1.253368854522705,-2.49239444732666,3.57421875,0,fly,6.1,180,155.0,9.345313459367894,[6800|0|10000|0],fly
28099,1.6798412799835205,1.1471197605133057,0.1361061930656433,-0.892105221748352,-1.8640543222427368,-4.033087253570557,3.57421875,0,fly,6.1,180,155.0,9.358238873397363,[6800|0|10000|0],fly
28199,1.6696442365646362,1.1465963125228882,0.1308581531047821,-1.354104995727539,-0.9488635063171388,-4.833261013031006,3.5625,0,fly,6.1,180,155.0,9.369719100560452,[6800|0|10000|0],fly
28299,1.6613683700561523,1.1471970081329346,0.126457467675209,-2.225823163986206,-1.3161404132843018,-6.463740825653076,3.552734375,0,fly,6.1,180,155.0,9.379111482256924,[6800|0|10000|0],fly
28399,1.6557317972183228,1.150459885597229,0.1217789500951767,-4.065451622009277,-0.3894927501678467,-5.724018573760986,3.552734375,0,fly,6.1,180,155.0,9.387130575064084,[6800|0|10000|0],fly
28499,1.6516813039779663,1.1600550413131714,0.1169373020529747,-1.9130630493164065,-2.320115804672241,-3.470388650894165,3.55859375,0,fly,6.1,180,155.0,9.39861600341778,[6800|0|10000|0],fly
28599,1.6511610746383667,1.170973777770996,0.1124146655201911,0.1357913464307785,0.32845538854599,-0.7577089667320251,3.55859375,0,fly,6.1,180,155.0,9.41044578302726,[6800|0|10000|0],fly
28699,1.6499321460723877,1.1824108362197876,0.1094621047377586,-0.2598264217376709,-1.0323036909103394,0.4825843870639801,3.55859375,0,fly,6.1,180,155.0,9.422321564540717,[6800|0|10000|0],fly
28799,1.6512495279312134,1.191963791847229,0.1092395335435867,1.1213195323944092,-1.3749172687530518,0.7497740387916565,3.552734375,0,fly,6.1,180,155.0,9.431967496020787,[6800|0|10000|0],fly
28899,1.6534292697906494,1.202134609222412,0.1037225127220153,0.6109365820884705,-0.6709927320480347,0.5392299294471741,3.546875,0,fly,6.1,180,155.0,9.443741803618211,[6800|0|10000|0],fly
28999,1.6581459045410156,1.2112605571746826,0.1014237403869628,0.3414750397205353,0.831475019454956,-0.0073260287754237,3.552734375,0,fly,6.1,180,155.0,9.454268622874014,[6800|0|10000|0],fly
29099,1.662243127822876,1.2194539308547974,0.1024360284209251,2.4769067764282227,-0.5532839894294739,-0.6013060212135315,3.568359375,0,fly,6.1,180,155.0,9.463485093887757,[6800|0|10000|0],fly
29199,1.665871262550354,1.2245672941207886,0.1057523414492607,2.352138042449951,0.4933502376079559,-1.6616727113723757,3.568359375,0,fly,6.1,180,155.0,9.47057789147352,[6800|0|10000|0],fly
29299,1.6700475215911863,1.2254292964935305,0.1107314154505729,1.110593557357788,-0.1358713805675506,-2.881278276443481,3.57421875,0,fly,6.1,180,155.0,9.477133451371598,[6800|0|10000|0],fly
29399,1.6735553741455078,1.2224669456481934,0.1158492863178253,0.8013709187507629,-0.4138140678405761,-3.850959539413452,3.578125,0,fly,6.1,180,155.0,9.484008998934346,[6800|0|10000|0],fly
29499,1.676831603050232,1.218421220779419,0.1187205985188484,0.3955661356449127,0.255060613155365,-3.5727338790893555,3.57421875,0,fly,6.1,180,155.0,9.489954249080952,[6800|0|10000|0],fly
29599,1.6790382862091064,1.212770700454712,0.1171048060059547,1.9993181228637693,-0.3503930866718292,-3.529415845870972,3.568359375,0,fly,6.1,180,155.0,9.496231877291375,[6800|0|10000|0],fly
29699,1.6821343898773191,1.2035279273986816,0.1138959974050521,-0.0876129791140556,-0.3917811512947082,-4.543271541595459,3.552734375,0,fly,6.1,180,155.0,9.506494000089647,[6800|0|10000|0],fly
29799,1.6859887838363647,1.1934319734573364,0.1106660068035125,0.0951789990067482,0.0311997085809707,-4.878935813903809,3.5625,0,fly,6.1,180,155.0,9.517773072660711,[6800|0|10000|0],fly
29899,1.6905128955841064,1.1845769882202148,0.1080648005008697,1.0539723634719849,0.2406463027000427,-4.208855628967285,3.5625,0,fly,6.1,180,155.0,9.5280514297709,[6800|0|10000|0],fly
29999,1.6958956718444824,1.1743710041046145,0.1068462654948234,2.290098190307617,-0.6564370393753052,-3.7099123001098633,3.55859375,0,fly,6.1,180,155.0,9.539654068246614,[6800|0|10000|0],fly
30099,1.7015982866287231,1.1608847379684448,0.1050128191709518,0.8610875010490417,-0.0891914144158363,-1.80811870098114,3.55859375,0,fly,6.1,180,155.0,9.554410785872683,[6800|0|10000|0],fly
30199,1.708223819732666,1.1466844081878662,0.1043034046888351,-1.5135685205459597,-0.3983133733272552,1.652916669845581,3.55859375,0,fly,6.1,180,155.0,9.57009677719284,[6800|0|10000|0],fly
30299,1.714699149131775,1.1373474597930908,0.1034474074840545,-1.6222388744354248,-0.4176031947135925,4.0500168800354,3.568359375,0,fly,6.1,180,155.0,9.58149156667612,[6800|0|10000|0],fly
30399,1.7219018936157229,1.1313403844833374,0.100803256034851,0.0227222647517919,-0.9072834253311156,4.214612007141113,3.552734375,0,fly,6.1,180,155.0,9.591236104569958,[6800|0|10000|0],fly
30499,1.7309669256210327,1.1267483234405518,0.0971805155277252,0.1932427138090133,-0.7292259335517883,3.72659969329834,3.546875,0,fly,6.1,180,155.0,9.602024342547493,[6800|0|10000|0],fly
30599,1.7420291900634766,1.1238213777542114,0.0947075337171554,-1.5393105745315552,-1.0631611347198486,3.168792247772217,3.541015625,0,fly,6.1,180,155.0,9.61373144913626,[6800|0|10000|0],fly
30699,1.7558348178863523,1.1249384880065918,0.091507650911808,-0.6710444688796997,-0.8610950708389282,3.022552013397217,3.541015625,0,fly,6.1,180,155.0,9.62794702316152,[6800|0|10000|0],fly
30799,1.772660493850708,1.1283875703811646,0.0904695466160774,-1.2680867910385132,0.6310204267501831,3.803309202194214,3.552734375,0,fly,6.1,180,155.0,9.645153917169822,[6800|0|10000|0],fly
30899,1.7889348268508911,1.1359996795654297,0.0757955014705658,-0.7356060743331909,0.1940123289823532,5.793813228607178,3.96875,0,fly,6.1,180,155.0,9.668351454146116,[6800|0|10000|0],fly
30999,1.8054033517837524,1.1443166732788086,0.0078366994857788,0.7508314251899719,1.3479989767074585,9.184581756591797,3.974609375,0,fly,6.1,180,155.0,9.738770084245688,[6800|0|10000|0],fly
31099,1.814170837402344,1.1501224040985107,0.0,-3.1543214321136475,1.2120810747146606,8.573936462402344,3.974609375,0,fly,6.1,180,155.0,9.751884548521952,[6800|0|10000|0],fly
31199,1.819963812828064,1.155809998512268,0.0,-1.086150050163269,2.2823596000671387,4.219040870666504,3.98046875,0,fly,6.1,180,155.0,9.7600028792924,[6800|0|10000|0],fly
31299,1.819069981575012,1.1560025215148926,0.0,-0.9624740481376648,1.9382658004760744,4.276279449462891,3.98046875,0,fly,6.1,180,155.0,9.760917209328804,[6800|0|10000|0],fly
31399,1.8160680532455444,1.1549686193466189,0.0,-0.840082049369812,1.8646270036697388,4.339923858642578,3.984375,0,fly,6.1,180,155.0,9.764092193956929,[6800|0|10000|0],fly
31499,1.815260410308838,1.1585853099822998,0.0,-0.8013476133346558,1.651191473007202,4.70912504196167,3.984375,0,fly,6.1,180,155.0,9.767797964897966,[6800|0|10000|0],fly
31599,1.809115290641785,1.1603864431381226,0.0,-0.6721760630607605,1.5247538089752195,5.117851734161377,3.990234375,0,fly,6.1,180,155.0,9.774201602642826,[6800|0|10000|0],fly
31699,1.8012309074401855,1.161776065826416,0.0,-0.5843011736869812,1.491631269454956,5.522542953491211,3.990234375,0,fly,6.1,180,155.0,9.78220750981725,[6800|0|10000|0],fly
31799,1.7919046878814695,1.1644822359085083,0.0,-0.5462300777435303,1.4790765047073364,5.600050926208496,3.990234375,0,fly,6.1,180,155.0,9.79191841748701,[6800|0|10000|0],fly
