,time.ms,stateEstimate.x,stateEstimate.y,stateEstimate.z,stabilizer.roll,stabilizer.pitch,stabilizer.yaw,pm.vbat,drone_id,node_name,wind_speed,global_wind_direction,relative_wind_direction,travel_dist,waiting_time
0,0,-0.3186697363853454,-0.378667801618576,0.0148913478478789,0.4326405525207519,-0.0002038271486526,-7.851400375366211,4.07421875,2,K1,6.1,180,450.0,0.0,[6200|0|0|0]
1,100,-0.3185731470584869,-0.3783147931098938,0.0150981526821851,0.4288848042488098,0.0019943134393543,-7.843695640563965,4.07421875,2,K1,6.1,180,450.0,0.0004203721503113,[6300|0|0|0]
2,200,-0.318878710269928,-0.3785922825336456,0.0147732803598046,0.4429421126842499,0.0156193794682621,-7.848755836486816,4.07421875,2,K1,6.1,180,450.0,0.0009456447293874,[6400|0|0|0]
3,300,-0.3186057806015014,-0.3784850537776947,0.0148920062929391,0.4445904195308685,0.0121213281527161,-7.842396259307861,4.07421875,2,K1,6.1,180,450.0,0.0012620060057928,[6500|0|0|0]
4,400,-0.3187688291072845,-0.3786777853965759,0.0150474095717072,0.5970031023025513,0.0950431078672409,-7.83219051361084,4.07421875,2,K1,6.1,180,450.0,0.0015584524110781,[6600|0|0|0]
5,500,-0.3188386261463165,-0.3785221576690674,0.0147475646808743,0.5683037042617798,0.0857152268290519,-7.833319664001465,4.07421875,2,K1,6.1,180,450.0,0.0019034141115401,[6700|0|0|0]
6,600,-0.3184762299060821,-0.3785896301269531,0.0148903653025627,0.5463584065437317,0.0690651312470436,-7.841466426849365,4.07421875,2,J2,6.1,180,450.0,0.0022987311805667,[6700|0|0|0]
7,700,-0.3183201551437378,-0.3787884414196014,0.0147270653396844,0.5546295642852783,0.0818984061479568,-7.887860774993896,2.861328125,2,J2,6.1,180,450.0,0.0025996500058358,[6700|0|0|0]
8,800,-0.3182723522186279,-0.3782237768173218,0.017729640007019,-1.0723977088928225,-0.4154570996761322,-7.850593566894531,3.2578125,2,J2,6.1,180,450.0,0.0056552327433241,[6700|0|0|0]
9,900,-0.3159962892532348,-0.3722522258758545,0.0503625907003879,-2.345069169998169,-1.1532206535339355,-6.472437381744385,3.53125,2,J2,6.1,180,450.0,0.0389080424625767,[6700|0|0|0]
10,1000,-0.3108808994293213,-0.3598180711269378,0.1147883012890815,0.0558292716741561,3.284695863723755,-3.9436194896698,3.599609375,2,J2,6.1,180,450.0,0.1047217766084881,[6700|0|0|0]
11,1100,-0.3103732764720917,-0.3447495996952057,0.192812830209732,1.1517658233642578,3.821779727935791,-2.2573885917663574,3.615234375,2,J2,6.1,180,450.0,0.1841896545570345,[6700|0|0|0]
12,1200,-0.3173364996910095,-0.328478068113327,0.2779857814311981,2.5908308029174805,3.2294676303863525,-1.0327494144439695,3.60546875,2,J2,6.1,180,450.0,0.2711820728323693,[6700|0|0|0]
13,1300,-0.3284239172935486,-0.3157853782176971,0.3647219836711883,3.781291961669922,1.336842060089111,0.2685891687870025,3.578125,2,J2,6.1,180,450.0,0.359540456616231,[6700|0|0|0]
14,1400,-0.3413244783878326,-0.3074544668197632,0.453635036945343,4.382012844085693,-0.546757161617279,0.8308717012405396,3.552734375,2,J2,6.1,180,450.0,0.4497699396237283,[6700|0|0|0]
15,1500,-0.351140558719635,-0.305685430765152,0.543412446975708,3.7197694778442383,-1.487548589706421,0.7726132869720459,3.552734375,2,J2,6.1,180,450.0,0.5400997147446883,[6700|0|0|0]
16,1600,-0.3568744659423828,-0.3090899586677551,0.6348815560340881,2.823350667953491,-1.8060017824172967,0.1949100494384765,3.552734375,2,J2,6.1,180,450.0,0.631811581011887,[6700|0|0|0]
17,1700,-0.3579831719398498,-0.3162887394428253,0.7280745506286621,1.5580939054489136,-1.7497256994247437,-0.3158495128154754,3.552734375,2,J2,6.1,180,450.0,0.7252887756378524,[6700|0|0|0]
18,1800,-0.3548734188079834,-0.3244234621524811,0.823097825050354,0.8650646209716797,-0.8018196821212769,-0.7073659300804138,3.55859375,2,J2,6.1,180,450.0,0.8207102981572731,[6700|0|0|0]
19,1900,-0.3496973216533661,-0.3320970237255096,0.9196538329124452,0.2312709987163543,0.2178143411874771,-0.7209151387214661,3.55859375,2,J2,6.1,180,450.0,0.9177089485769224,[6700|0|0|0]
20,2000,-0.3428165912628174,-0.3411693871021271,1.024999737739563,0.1073373854160308,0.7874048948287964,-0.7168195843696594,3.5625,2,J2,6.1,180,450.0,1.0236684308887427,[6700|0|0|0]
21,2100,-0.3386234045028686,-0.3469196557998657,1.1229223012924194,-0.1526713967323303,1.3326873779296875,-0.7271832823753357,3.552734375,2,J2,6.1,180,450.0,1.1218492684185948,[6700|0|0|0]
22,2200,-0.3369118273258209,-0.35080286860466,1.2231682538986206,0.1866581290960312,1.365251898765564,-0.7892324924468994,3.552734375,2,J2,6.1,180,450.0,1.222185004086626,[6700|0|0|0]
23,2300,-0.3425202369689941,-0.3480757176876068,1.315321445465088,0.5824188590049744,1.5697081089019775,-0.865601658821106,3.541015625,2,J2,6.1,180,450.0,1.3145489706901454,[6700|0|0|0]
24,2400,-0.3425616025924682,-0.3528550267219543,1.4154783487319946,0.5813429951667786,1.0210046768188477,-1.2730536460876465,3.578125,2,J2,6.1,180,450.0,1.4148198477082363,[6700|0|0|0]
25,2500,-0.3456635177135467,-0.3582530319690704,1.515059471130371,0.6750218868255615,0.6242069005966187,-1.1066776514053345,3.658203125,2,J2,6.1,180,450.0,1.5145953971990145,[6700|0|0|0]
26,2600,-0.3496484458446502,-0.3643990159034729,1.6059582233428955,0.45392507314682,0.4342986047267914,-1.4961518049240112,3.673828125,2,J2,6.1,180,450.0,1.6057887956691117,[6700|0|0|0]
27,2700,-0.3535554707050323,-0.3734345436096191,1.6812293529510498,0.3606786131858825,-0.0850512683391571,-1.0220400094985962,3.673828125,2,J2,6.1,180,450.0,1.6817009064069623,[6700|0|0|0]
28,2800,-0.3581922948360443,-0.3818385899066925,1.7396427392959597,-0.1484660655260086,-0.3051541447639465,0.4964284300804138,3.65234375,2,J2,6.1,180,450.0,1.7408976279079458,[6700|0|0|0]
29,2900,-0.3600179851055145,-0.3896303474903106,1.7774993181228638,-0.4956850111484527,-0.7656650543212891,7.874408721923828,3.63671875,2,J2,6.1,180,450.0,1.7795908468445956,[6700|0|0|0]
30,3000,-0.3610721826553345,-0.4028022289276123,1.8096110820770264,-1.1098737716674805,-0.8638614416122437,14.092432022094728,3.62109375,2,J2,6.1,180,450.0,1.8143151204485204,[6700|0|0|0]
31,3100,-0.3613372445106506,-0.4131441712379455,1.827462911605835,-1.629910945892334,-0.7783344388008118,16.97620964050293,3.59375,2,J2,6.1,180,450.0,1.8349479546227931,[6700|0|0|0]
32,3200,-0.3625452220439911,-0.4189589321613312,1.837082266807556,-2.3536503314971924,-0.5761048197746277,10.220699310302734,3.578125,2,J2,6.1,180,450.0,1.846252937984748,[6700|0|0|0]
33,3300,-0.358268141746521,-0.42413529753685,1.842368483543396,-1.891529202461243,-0.5776101350784302,6.223548889160156,3.57421875,2,J2,6.1,180,450.0,1.8547988294976416,[6700|0|0|0]
34,3400,-0.3527074158191681,-0.4277111291885376,1.84283983707428,-1.5856164693832395,-0.0470275208353996,3.947955846786499,3.53125,2,J2,6.1,180,450.0,1.861426832137308,[6700|0|0|0]
35,3500,-0.3459480702877044,-0.4310813844203949,1.839457511901856,-1.20581316947937,0.6047771573066711,2.9190595149993896,3.521484375,2,J2,6.1,180,450.0,1.86970254938197,[6700|0|0|0]
36,3600,-0.3421099483966827,-0.4323306977748871,1.833513617515564,-0.9067651629447936,1.1372073888778689,2.4172112941741943,3.515625,2,J2,6.1,180,450.0,1.8768873836864923,[6700|0|0|0]
37,3700,-0.3385002911090851,-0.4321010112762451,1.827345609664917,-2.788341760635376,-0.9154689908027648,1.3056379556655884,3.673828125,2,J2,6.1,180,113.0,1.884037677559279,[6700|0|0|0]
38,3800,-0.322730004787445,-0.4250138401985168,1.808349251747132,-14.459444999694824,-13.870929718017578,-0.2329080700874328,3.568359375,2,J2,6.1,180,113.0,1.9097240852234911,[6700|0|0|0]
39,3900,-0.29148930311203,-0.4130997955799103,1.7812674045562744,-15.167431831359863,-11.16889762878418,0.5298102498054504,3.48828125,2,J2,6.1,180,113.0,1.952751429408502,[6700|0|0|0]
40,4000,-0.2341231107711792,-0.3909427225589752,1.7376658916473389,-15.900768280029297,-8.761564254760742,2.219301700592041,3.44140625,2,J2,6.1,180,113.0,2.0281364931578323,[6700|0|0|0]
41,4100,-0.1577791720628738,-0.3446975648403168,1.6877853870391846,-14.576831817626951,-2.347939729690552,0.5431222915649414,3.42578125,2,J2,6.1,180,113.0,2.1303865607856105,[6700|0|0|0]
42,4200,-0.0623057037591934,-0.2810706794261932,1.65159010887146,-10.499415397644045,5.6873626708984375,-4.831735134124756,3.447265625,2,J2,6.1,180,113.0,2.250693093688337,[6700|0|0|0]
43,4301,0.0344525761902332,-0.2056355476379394,1.6256356239318848,-4.453057765960693,12.792205810546877,-16.449932098388672,3.435546875,2,J2,6.1,180,113.0,2.376097476128352,[6700|0|0|0]
44,4400,0.1208839789032936,-0.110995166003704,1.5970163345336914,-0.0682462602853775,16.722707748413086,-19.5316162109375,3.431640625,2,J2,6.1,180,113.0,2.507422465892214,[6700|0|0|0]
45,4500,0.2066922336816787,-0.0090623823925852,1.5646874904632568,3.778629541397095,18.307357788085938,-22.68922996520996,3.419921875,2,J2,6.1,180,113.0,2.6445300992382608,[6700|0|0|0]
46,4601,0.2413065582513809,0.1264233738183975,1.540733814239502,4.736083030700684,20.13927459716797,-15.74061107635498,3.388671875,2,J2,6.1,180,113.0,2.786404410535659,[6700|0|0|0]
47,4701,0.1650795489549636,0.3098537921905517,1.5534974336624146,9.652052879333496,16.137041091918945,-9.581335067749023,3.44140625,2,J2,6.1,180,113.0,2.985452608998324,[6700|0|0|0]
48,4800,0.1359699368476867,0.441790908575058,1.559442400932312,14.441134452819824,2.6731960773468018,0.4370196759700775,3.45703125,2,J2,6.1,180,113.0,3.120693560018106,[6700|0|0|0]
49,4900,0.1259208470582962,0.5497115254402161,1.5656651258468628,16.558530807495117,-3.2736153602600098,1.1169191598892212,3.453125,2,J2,6.1,180,113.0,3.229259512579273,[6700|0|0|0]
50,5000,0.1386367976665496,0.6451287865638733,1.573017716407776,17.412187576293945,-3.628331661224365,-3.379733324050904,3.462890625,2,J2,6.1,180,113.0,3.3258007457813,[6700|0|0|0]
51,5100,0.16155606508255,0.7164080142974854,1.5807358026504517,17.72698211669922,-0.2773256003856659,-3.665904045104981,3.484375,2,J2,6.1,180,113.0,3.4010708592423256,[6700|0|0|0]
52,5200,0.1845853775739669,0.7891324758529663,1.5821343660354614,17.563854217529297,4.551244258880615,-3.620654582977295,3.47265625,2,J2,6.1,180,113.0,3.4773673370240936,[6700|0|0|0]
53,5300,0.2092510461807251,0.8225788474082947,1.584112524986267,18.10451889038086,7.521193981170654,-1.668866515159607,3.462890625,2,J2,6.1,180,113.0,3.518972241673307,[6700|0|0|0]
54,5401,0.2327879071235656,0.8307478427886963,1.5825111865997314,15.949934005737305,8.747542381286621,-0.9136359095573424,3.45703125,2,J2,6.1,180,113.0,3.543937829853757,[6700|0|0|0]
55,5502,0.2476222664117813,0.8192762732505798,1.5790327787399292,10.949685096740724,9.16934299468994,3.0154316425323486,3.447265625,2,J2,6.1,180,113.0,3.5630101774910785,[6700|0|0|0]
56,5601,0.2543883323669433,0.7881062030792236,1.5762765407562256,5.941249370574951,8.165461540222168,4.839622020721436,3.462890625,2,J2,6.1,180,113.0,3.5950250142206275,[6700|0|0|0]
57,5701,0.2502898871898651,0.7475690841674805,1.5734797716140747,1.980650544166565,7.1820902824401855,5.270599365234375,3.453125,2,J2,6.1,180,113.0,3.635864666278019,[6700|0|0|0]
58,5802,0.2348223477602005,0.7051575779914856,1.5691014528274536,-1.083100438117981,5.545043468475342,5.6368584632873535,3.44140625,2,J2,6.1,180,113.0,3.6812204851717616,[6700|0|0|0]
59,5900,0.2080868631601333,0.6656138300895691,1.5619215965270996,-3.3335416316986084,3.827636003494263,5.616487503051758,3.447265625,2,J2,6.1,180,113.0,3.729491019366283,[6700|0|0|0]
60,6002,0.1747347712516784,0.6325799822807312,1.5539549589157104,-4.167076110839844,1.1499361991882324,4.770421981811523,3.42578125,2,J2,6.1,180,113.0,3.7771047196064313,[6700|0|0|0]
61,6102,0.1377424597740173,0.6084505319595337,1.545390486717224,-4.138700008392334,-0.8090964555740356,2.9510984420776367,3.419921875,2,J2,6.1,180,113.0,3.8220937367695353,[6700|0|0|0]
62,6200,0.1010351926088333,0.5911800861358643,1.535326361656189,-3.1840293407440186,-2.870402574539185,1.5589169263839722,3.42578125,2,J2,6.1,180,113.0,3.8638906071658776,[6700|0|0|0]
63,6302,0.068342737853527,0.5796361565589905,1.5260624885559082,-2.4650356769561768,-4.011072158813477,0.2635089755058288,3.419921875,2,J2,6.1,180,113.0,3.899777627839398,[6700|0|0|0]
64,6401,0.0415267907083034,0.5721187591552734,1.5175583362579346,-1.601567268371582,-4.617750644683838,-0.6992533802986145,3.42578125,2,J2,6.1,180,113.0,3.928896812088411,[6700|0|0|0]
65,6500,0.0219675973057746,0.567264974117279,1.5108503103256226,-0.7836868762969971,-4.241512298583984,-1.507353663444519,3.453125,2,J2,6.1,180,113.0,3.950136371586225,[6700|0|0|0]
66,6601,0.0083790179342031,0.5625049471855164,1.5043399333953855,-0.1276689320802688,-3.712284803390503,-1.584605097770691,3.462890625,2,J2,6.1,180,113.0,3.965938028255776,[6700|0|0|0]
67,6700,2.555237733758986e-05,0.5569671392440796,1.4977697134017944,0.4084752798080444,-3.1836483478546143,-1.1422739028930664,3.81640625,2,J2,6.1,180,450.0,3.9779219964787873,[6700|0|0|0]
68,6802,-0.0042488072067499,0.5496699810028076,1.4744043350219729,0.5264797806739807,-1.8877649307250977,-0.2627516090869903,3.7734375,2,J2,6.1,180,450.0,4.002770730351653,[6700|0|0|0]
69,6900,-0.0082491049543023,0.5430704355239868,1.4119610786437988,-0.2468306422233581,-2.4668173789978027,0.9733118414878844,3.642578125,2,J2,6.1,180,450.0,4.065689063528132,[6700|0|0|0]
70,7000,-0.0114730158820748,0.535950779914856,1.3143256902694702,-0.6853824257850647,-2.6060550212860107,2.1291418075561523,3.48828125,2,J2,6.1,180,450.0,4.163636764678638,[6700|0|0|0]
71,7102,-0.0130827538669109,0.5311490893363953,1.195957064628601,-1.7129110097885132,-2.1929080486297607,3.3602283000946045,3.431640625,2,J2,6.1,180,450.0,4.282113678146619,[6700|0|0|0]
72,7200,-0.0132873049005866,0.528569757938385,1.073461413383484,-1.929379105567932,-1.7947057485580444,2.8466908931732178,3.3984375,2,J2,6.1,180,450.0,4.404636652994406,[6700|0|0|0]
73,7300,-0.0106438416987657,0.5289254784584045,0.9522634744644164,-1.330858588218689,-0.4951300323009491,1.4582055807113647,3.404296875,2,J2,6.1,180,450.0,4.525863938838056,[6700|0|0|0]
74,7400,-0.0076135313138365,0.5308755040168762,0.8334591388702393,-1.828282356262207,-0.9368650913238524,-0.2016495317220688,3.41015625,2,J2,6.1,180,450.0,4.64472291214963,[6700|0|0|0]
75,7500,-0.0044383001513779,0.5346776843070984,0.7158836126327515,-0.0312826223671436,-0.2211362272500991,-0.8519113063812256,3.447265625,2,J2,6.1,180,450.0,4.762402744907485,[6700|0|0|0]
76,7600,-0.0013038518372923,0.5387401580810547,0.5988463759422302,0.3519976437091827,0.2211102396249771,-0.8850259780883789,3.453125,2,J2,6.1,180,450.0,4.879552406586684,[6700|0|0|0]
77,7700,-0.0002798533532768,0.5426812767982483,0.4811956882476806,-0.0724357888102531,-0.6440628170967102,-1.774645209312439,3.3515625,2,J2,6.1,180,450.0,4.997273540223082,[6700|0|0|0]
78,7800,-0.0061699924990534,0.5503630638122559,0.3764026165008545,2.7812485694885254,1.5035934448242188,-4.852413177490234,3.3046875,2,J2,6.1,180,450.0,5.102512750962334,[6700|0|0|0]
79,7900,-0.0085716675966978,0.5446743369102478,0.2783089578151703,7.311506271362305,4.345627307891846,-10.438661575317385,3.37890625,2,J2,6.1,180,450.0,5.200800570814968,[6700|0|0|0]
80,8000,-0.02244583517313,0.5266361236572266,0.1887241303920745,6.552591323852539,4.645697116851807,-14.981184005737305,3.326171875,2,J2,6.1,180,450.0,5.293230603638322,[6700|0|0|0]
81,8100,-0.0456109717488288,0.4979982674121856,0.1096474379301071,2.867327213287353,1.9219914674758911,-17.126741409301758,3.27734375,2,J2,6.1,180,450.0,5.380465193415583,[6700|0|0|0]
82,8200,-0.0721991583704948,0.4663478434085846,0.0483995117247104,-5.998385906219482,-3.738374948501587,-17.56432342529297,3.26171875,2,J2,6.1,180,450.0,5.454356934983217,[6700|0|0|0]
83,8300,-0.0837805792689323,0.4446441829204559,0.0072219809517264,-17.82546043395996,-14.816494941711426,-17.810983657836914,3.357421875,2,J2,6.1,180,450.0,5.502323248466439,[6700|0|0|0]
84,8400,-0.0597741417586803,0.446085512638092,0.0,-5.263860702514648,-3.369439125061035,-11.745294570922852,3.357421875,2,J2,6.1,180,450.0,5.527433873352245,[6700|0|0|0]
85,8500,-0.0297054890543222,0.4577153623104095,0.0,3.225688934326172,11.079306602478027,-9.359636306762695,3.373046875,2,J2,6.1,180,450.0,5.559673248018265,[6700|0|0|0]
86,8600,-0.0092954142019152,0.4705325961112976,0.0083868745714426,-5.397459506988525,-1.7549924850463867,-5.421598434448242,3.416015625,2,J2,6.1,180,450.0,5.585191717856102,[6700|0|0|0]
87,8700,0.0121743734925985,0.4913262128829956,0.0403452143073082,-4.978804111480713,-2.8866236209869385,-0.0217242315411567,3.47265625,2,J2,6.1,180,450.0,5.628948566014633,[6700|0|0|0]
88,8800,0.0380489863455295,0.521186351776123,0.0722034350037574,-1.3180220127105713,-1.1233433485031128,4.115191459655762,3.509765625,2,J2,6.1,180,450.0,5.679703562920845,[6700|0|0|0]
89,8900,0.0655831322073936,0.5590184330940247,0.1041591688990593,0.0447315834462642,2.9888134002685547,6.408289909362793,3.515625,2,J2,6.1,180,450.0,5.7363654062898535,[6700|0|0|0]
90,9000,0.0845288187265396,0.5916914939880371,0.128134623169899,3.87825083732605,4.849315166473389,7.180068492889404,3.515625,2,J2,6.1,180,450.0,5.781101190102801,[6700|0|0|0]
91,9100,0.0930163562297821,0.6177730560302734,0.1475291401147842,5.705965995788574,5.808575630187988,7.208881855010986,3.515625,2,J2,6.1,180,450.0,5.814693353756805,[6700|0|0|0]
92,9200,0.0896298885345459,0.6339729428291321,0.1621488332748413,7.032970905303955,4.23844575881958,6.865257740020752,3.509765625,2,J2,6.1,180,450.0,5.836775924346321,[6700|0|0|0]
93,9300,0.079420655965805,0.6394734978675842,0.1683102250099182,5.591165542602539,2.938405990600586,6.952077865600586,3.484375,2,J2,6.1,180,450.0,5.849907842846172,[6700|0|0|0]
94,9400,0.063680812716484,0.6370408535003662,0.1708623319864273,4.4838056564331055,1.071987867355347,7.748270511627197,3.478515625,2,J2,6.1,180,450.0,5.866037742850515,[6700|0|0|0]
95,9500,0.0448713339865207,0.6263043284416199,0.1707596182823181,3.3260245323181152,-1.0728063583374023,7.896212100982666,3.46875,2,J2,6.1,180,450.0,5.887695997871061,[6700|0|0|0]
96,9600,0.0296257548034191,0.6164000034332275,0.1705472320318222,1.309817671775818,-2.9997894763946533,7.735961437225342,3.478515625,2,J2,6.1,180,450.0,5.905877539236399,[6700|0|0|0]
97,9700,0.0176113657653331,0.6039853096008301,0.1697498112916946,-0.1841190010309219,-3.05751633644104,7.916475772857666,3.484375,2,J1,6.1,180,450.0,5.923172221851221,[6700|100|0|0]
98,9800,0.0101502519100904,0.5928580164909363,0.1682924777269363,-0.544379711151123,-3.618678331375122,8.520918846130371,3.47265625,2,J1,6.1,180,450.0,5.936648448809586,[6700|200|0|0]
99,9900,0.0077931731939315,0.5884898900985718,0.1661947816610336,-0.4288435578346252,-2.6160900592803955,8.959510803222656,3.47265625,2,J1,6.1,180,450.0,5.94203701791824,[6700|300|0|0]
100,10000,0.0087875900790095,0.5841831564903259,0.1640791445970535,0.2004863917827606,-1.439050316810608,9.525291442871094,3.47265625,2,J1,6.1,180,450.0,5.946937297451105,[6700|400|0|0]
101,10100,0.0112231411039829,0.5814386010169983,0.1645398139953613,0.1089768260717392,-0.4864866435527801,9.599637031555176,3.478515625,2,J1,6.1,180,450.0,5.950635501046901,[6700|500|0|0]
102,10200,0.0131580745801329,0.5792436003684998,0.1664799749851226,-0.3085181713104248,-0.3511940836906433,9.149313926696776,3.478515625,2,J1,6.1,180,450.0,5.954146372743535,[6700|600|0|0]
103,10300,0.0153171522542834,0.5772272944450378,0.1683709025382995,-0.7670471668243408,-0.3634573221206665,8.046226501464844,3.478515625,2,J1,6.1,180,450.0,5.957653895087208,[6700|700|0|0]
104,10400,0.016616340726614,0.5781211853027344,0.1680312603712082,-0.4099651873111725,-0.0468785241246223,6.584147930145264,3.462890625,2,J1,6.1,180,450.0,5.959267056069186,[6700|800|0|0]
105,10500,0.018090397119522,0.5805309414863586,0.166870042681694,-0.5342796444892883,0.5629081130027771,4.726434230804443,3.45703125,2,J1,6.1,180,450.0,5.962321265236292,[6700|900|0|0]
106,10600,0.0195148047059774,0.5841608047485352,0.1658239662647247,-0.4274701178073883,0.0698621496558189,2.8851211071014404,3.462890625,2,J1,6.1,180,450.0,5.966358482117336,[6700|1000|0|0]
107,10700,0.0212865676730871,0.5896844863891602,0.1654394268989563,1.0082907676696775,-1.0024057626724243,1.607876896858215,3.453125,2,J1,6.1,180,450.0,5.972172093164046,[6700|1100|0|0]
108,10800,0.0254759602248668,0.5930153727531433,0.1622899323701858,0.8644232153892517,-0.4044539630413055,1.2331432104110718,3.447265625,2,J1,6.1,180,450.0,5.978382176070854,[6700|1200|0|0]
109,10900,0.0326974093914032,0.5938090682029724,0.1573510318994522,1.640147089958191,-0.5999392867088318,1.6022568941116333,3.431640625,2,J1,6.1,180,450.0,5.987166936647657,[6700|1300|0|0]
110,11000,0.0412659831345081,0.5915868282318115,0.1530349999666214,0.8042556047439575,0.0852978527545929,2.236039876937866,3.419921875,2,J1,6.1,180,450.0,5.997015131310928,[6700|1400|0|0]
111,11100,0.0503872521221637,0.587205708026886,0.1498185694217682,0.2281446009874344,-0.1171937435865402,1.9863224029541016,3.416015625,2,J1,6.1,180,450.0,6.007632908274353,[6700|1500|0|0]
112,11200,0.0596633180975914,0.581556499004364,0.1501221656799316,0.4663941562175751,0.3788626492023468,1.347057580947876,3.435546875,2,J1,6.1,180,450.0,6.018498042109175,[6700|1600|0|0]
113,11300,0.0682089626789093,0.5749276280403137,0.1508492231369018,0.6868069171905518,0.400467574596405,0.507739245891571,3.435546875,2,J1,6.1,180,450.0,6.029337718493365,[6700|1700|0|0]
114,11400,0.076894000172615,0.5667253136634827,0.1507312953472137,0.7784202098846436,0.0711677372455596,-0.6735944747924805,3.416015625,2,J1,6.1,180,450.0,6.041284339118756,[6700|1800|0|0]
115,11500,0.0847947299480438,0.5555548071861267,0.1487680971622467,1.266101956367493,0.3862163722515106,-1.6713634729385376,3.37890625,2,J1,6.1,180,450.0,6.055106636071812,[6700|1900|0|0]
116,11600,0.0926482826471328,0.541327714920044,0.1475709080696106,1.1185959577560425,0.1839964985847473,-2.4571011066436768,3.927734375,2,J1,6.1,180,450.0,6.071401472863524,[6700|2000|0|0]
117,11700,0.0990554466843605,0.524568498134613,0.1276504397392273,1.9676990509033203,5.924674987792969,-4.318904876708984,3.96484375,2,J1,6.1,180,450.0,6.0982109517238605,[6700|2100|0|0]
118,11800,0.0999383628368377,0.5066744089126587,0.046109814196825,-2.3606390953063965,14.568941116333008,-7.798619747161865,3.96484375,2,J1,6.1,180,450.0,6.181696588715273,[6700|2200|0|0]
119,11900,0.0980265066027641,0.4910162687301636,0.0,5.926989555358887,-0.7197347283363342,-15.127446174621582,3.96875,2,J1,6.1,180,450.0,6.2304300219362165,[6700|2300|0|0]
120,12000,0.0910941213369369,0.487295389175415,0.0,-0.6336253881454468,1.7754591703414917,-12.911619186401367,3.96875,2,J1,6.1,180,450.0,6.238297862182104,[6700|2400|0|0]
121,12100,0.0916311219334602,0.490121990442276,0.0,-0.0530077069997787,1.210984468460083,-14.007678031921388,3.974609375,2,J1,6.1,180,450.0,6.241175021260515,[6700|2500|0|0]
122,12200,0.0913969650864601,0.4903689324855804,0.0,-0.9656620025634766,2.04601788520813,-13.815947532653809,3.974609375,2,J1,6.1,180,450.0,6.2415153296526364,[6700|2600|0|0]
123,12300,0.0915923714637756,0.490074098110199,0.0,-0.5637750625610352,1.451285719871521,-13.650782585144045,3.974609375,2,J1,6.1,180,450.0,6.241869039931258,[6700|2700|0|0]
124,12400,0.0916053280234336,0.4899009466171264,0.0,-0.5160480737686157,1.2454283237457275,-13.522862434387209,3.98046875,2,J1,6.1,180,450.0,6.242042675503625,[6700|2800|0|0]
125,12500,0.0918285101652145,0.4895174205303192,0.0,-0.3534179925918579,0.9262745380401612,-13.400519371032717,3.98046875,2,J1,6.1,180,450.0,6.2424864125064445,[6700|2900|0|0]
126,12600,0.0917677134275436,0.4894410371780395,0.0,-0.4427988231182098,0.8889105916023254,-13.339305877685549,3.98046875,2,J1,6.1,180,450.0,6.242584037604739,[6700|3000|0|0]
127,12700,0.092052973806858,0.4891964197158813,0.0,-0.3748185038566589,0.6867788434028625,-13.26047706604004,3.98046875,2,J1,6.1,180,450.0,6.242959818374336,[6700|3100|0|0]
128,12800,0.0922529995441436,0.4891853332519531,0.0,-0.2457507997751236,0.4481442272663116,-13.206700325012209,3.98046875,2,J1,6.1,180,450.0,6.2431601511107,[6700|3200|0|0]
129,12900,0.0927697792649269,0.4893070459365845,0.0,-0.2246186286211013,0.3125283122062683,-13.106658935546877,3.984375,2,J1,6.1,180,450.0,6.243691070367662,[6700|3300|0|0]
130,13000,0.0927571654319763,0.4889658987522125,0.0,-0.1679373532533645,0.1811271756887436,-13.057300567626951,3.984375,2,J1,6.1,180,450.0,6.244032450669066,[6700|3400|0|0]
131,13100,0.0923069193959236,0.4892697632312774,0.0,-0.1093914732336998,0.0784736424684524,-13.164451599121094,3.984375,2,J1,6.1,180,450.0,6.244575640428375,[6700|3500|0|0]
132,13200,0.09127127379179,0.4908344745635986,0.0,0.1676779240369796,-0.2657337486743927,-13.15544605255127,3.990234375,2,J1,6.1,180,450.0,6.246452042136661,[6700|3600|0|0]
133,13300,0.0862412676215171,0.4914971888065338,0.0,-0.1251419633626938,-0.0463259555399417,-14.149227142333984,3.984375,2,J1,6.1,180,450.0,6.251525517497868,[6700|3700|0|0]
134,13400,0.0730293840169906,0.4950290322303772,0.0,-6.469205379486084,-0.2348022013902664,-15.457886695861816,3.990234375,2,J1,6.1,180,450.0,6.265201327760887,[6700|3800|0|0]
135,13500,0.0886356383562088,0.4761715233325958,0.0269976183772087,-14.103490829467772,6.665289878845215,-16.6436767578125,3.990234375,2,J1,6.1,180,450.0,6.301643504073117,[6700|3900|0|0]
136,13600,0.132611870765686,0.4478019773960113,0.0246749483048915,-14.927879333496094,7.236128330230713,-11.021440505981444,3.990234375,2,J1,6.1,180,450.0,6.354027995574373,[6700|4000|0|0]
137,13700,0.1487457454204559,0.4295566082000732,0.0,-11.878864288330078,3.373251914978028,-4.920994281768799,3.99609375,2,J1,6.1,180,450.0,6.388698566413645,[6700|4100|0|0]
138,13800,0.1471476107835769,0.432711660861969,0.0,-6.138709545135498,-0.8736702799797058,-5.477074146270752,3.990234375,2,J1,6.1,180,450.0,6.392235286874316,[6700|4200|0|0]
139,13900,0.1360747814178466,0.4431737959384918,0.0,-2.391390085220337,-2.142989158630371,-4.605437755584717,3.99609375,2,J1,6.1,180,450.0,6.407468927953256,[6700|4300|0|0]
140,14000,0.1276531815528869,0.4497043490409851,0.0,-1.1330604553222656,-4.05431079864502,-6.446323871612549,3.99609375,2,J1,6.1,180,450.0,6.418125919466341,[6700|4400|0|0]
141,14100,0.1208588555455207,0.4537576735019684,0.0,-0.8764806389808655,-4.079806327819824,-6.532356262207031,3.99609375,2,J1,6.1,180,450.0,6.426037449348758,[6700|4500|0|0]
142,14200,0.124002493917942,0.4576533138751983,0.0,-4.312841415405273,-5.748781204223633,-7.753359794616699,3.99609375,2,J1,6.1,180,450.0,6.431043293546703,[6700|4600|0|0]
143,14300,0.1223856657743454,0.459293007850647,0.0,-4.375231742858887,-5.845428943634033,-7.891712188720703,3.990234375,2,J1,6.1,180,450.0,6.433346059183725,[6700|4700|0|0]
144,14400,0.1090614199638366,0.4753955602645874,0.0,-4.384420394897461,-5.86903715133667,-7.433016777038574,3.99609375,2,J1,6.1,180,450.0,6.454246483118721,[6700|4800|0|0]
145,14500,0.1096377074718475,0.4748805463314056,0.0,-4.296483516693115,-5.900976657867432,-7.199768543243408,3.99609375,2,J1,6.1,180,450.0,6.455019365155814,[6700|4900|0|0]
146,14600,0.1071401983499527,0.4774571359157562,0.0,-4.244496822357178,-5.9076972007751465,-7.185884475708008,3.99609375,2,J1,6.1,180,450.0,6.458607730480043,[6700|5000|0|0]
147,14700,0.1061922013759613,0.478403091430664,0.0,-4.177268981933594,-5.945728778839111,-7.03520393371582,4.04296875,2,J1,6.1,180,450.0,6.459946957906166,[6700|5100|0|0]
148,14800,0.1051077172160148,0.4794028103351593,0.0,-4.131091117858887,-5.972914695739746,-6.924744606018066,4.1015625,2,J1,6.1,180,450.0,6.461421930374106,[6700|5200|0|0]
149,14900,0.1061674803495407,0.4782862663269043,0.0,-4.08197832107544,-6.023747444152832,-6.8710808753967285,4.1015625,2,J1,6.1,180,450.0,6.46296133559092,[6700|5300|0|0]
150,15000,0.1072173118591308,0.4774467349052429,0.0,-4.0436296463012695,-6.0681915283203125,-6.784612655639648,4.1015625,2,J1,6.1,180,450.0,6.464305567418576,[6700|5400|0|0]
151,15100,0.1086579486727714,0.4756915271282196,0.0,-3.985916376113892,-6.087503433227539,-6.755839824676514,4.1015625,2,J1,6.1,180,450.0,6.4665762917015615,[6700|5500|0|0]
152,15200,0.1086816042661666,0.4755069017410278,0.0,-3.962501049041748,-6.082037448883057,-6.718116283416748,4.10546875,2,J1,6.1,180,450.0,6.4667624263858485,[6700|5600|0|0]
153,15300,0.1090423837304115,0.475157767534256,0.0,-3.9525957107543945,-6.097196102142334,-6.692931652069092,4.10546875,2,J1,6.1,180,450.0,6.467264478690055,[6700|5700|0|0]
154,15400,0.1097631826996803,0.4746337234973907,0.0,-3.947521209716797,-6.10335111618042,-6.690701484680176,4.10546875,2,J1,6.1,180,450.0,6.468155642707884,[6700|5800|0|0]
155,15500,0.1118289157748222,0.4722875654697418,0.0,-3.922042608261109,-6.097169876098633,-6.6734700202941895,4.10546875,2,J1,6.1,180,450.0,6.471281616256786,[6700|5900|0|0]
156,15600,0.1118567958474159,0.472407728433609,0.0,-3.933173179626465,-6.100061416625977,-6.649315357208252,4.10546875,2,J1,6.1,180,450.0,6.471404971176969,[6700|6000|0|0]
157,15700,0.1125320717692375,0.47147998213768,0.0,-3.9338698387146,-6.075543403625488,-6.6449127197265625,4.10546875,2,J1,6.1,180,450.0,6.472552451355535,[6700|6100|0|0]
158,15800,0.1121016964316368,0.4718589186668396,0.0,-3.951882839202881,-6.052962779998779,-6.639909267425537,4.11328125,2,J1,6.1,180,450.0,6.473125876001278,[6700|6200|0|0]
159,15900,0.1129692271351814,0.4708508253097534,0.0,-3.952281951904297,-6.060175895690918,-6.651879787445068,4.11328125,2,J1,6.1,180,450.0,6.474455861617063,[6700|6300|0|0]
160,16000,0.1139846071600914,0.4697489440441131,0.0,-3.957463026046753,-6.072430610656738,-6.6444411277771,4.11328125,2,J1,6.1,180,450.0,6.475954240380445,[6700|6400|0|0]
161,16100,0.1135164424777031,0.4706610739231109,0.0,-3.98940658569336,-6.063424587249756,-6.640709400177002,4.11328125,2,J1,6.1,180,450.0,6.476979500877098,[6700|6500|0|0]
162,16200,0.113973282277584,0.4698482751846313,0.0,-3.971785545349121,-6.040210723876953,-6.645637512207031,4.11328125,2,J1,6.1,180,450.0,6.477911887273411,[6700|6600|0|0]
163,16300,0.1141856089234352,0.4695411026477813,0.0,-3.979447603225708,-6.020432472229004,-6.650134086608887,4.11328125,2,J1,6.1,180,450.0,6.478285300679615,[6700|6700|0|0]
164,16400,0.1147806048393249,0.4687260389328003,0.0,-3.9820947647094727,-6.01246452331543,-6.662814140319824,4.1171875,2,J1,6.1,180,450.0,6.479294433475339,[6700|6800|0|0]
165,16500,0.1143488809466362,0.4694181680679321,0.0,-4.005046844482422,-6.016822814941406,-6.645581245422363,4.1171875,2,J1,6.1,180,450.0,6.480110171337165,[6700|6900|0|0]
166,16600,0.1134022697806358,0.4703375101089477,0.0,-4.030771732330322,-5.97528076171875,-6.654214382171631,4.1171875,2,J1,6.1,180,450.0,6.481429740391051,[6700|7000|0|0]
167,16700,0.1141301169991493,0.4694935381412506,0.0,-3.998795986175537,-6.016568660736084,-6.63759183883667,4.12109375,2,J1,6.1,180,450.0,6.482544213475408,[6700|7100|0|0]
168,16800,0.1137170270085334,0.470163345336914,0.0,-4.040539264678955,-6.004100322723389,-6.621554374694824,4.12109375,2,J1,6.1,180,450.0,6.483331160118904,[6700|7200|0|0]
169,16900,0.1136419400572776,0.4701619148254394,0.0,-4.045047760009766,-5.991851806640625,-6.605735778808594,4.12109375,2,J1,6.1,180,450.0,6.483406260695546,[6700|7300|0|0]
170,17000,0.1130485013127327,0.4710143804550171,0.0,-4.053876876831055,-5.989395618438721,-6.631165504455566,4.12109375,2,J1,6.1,180,450.0,6.484444946015139,[6700|7400|0|0]
171,17100,0.1127940490841865,0.4712616801261902,0.0,-4.045846939086914,-5.966009616851807,-6.609885692596436,4.12109375,2,J1,6.1,180,450.0,6.484799774232696,[6700|7500|0|0]
172,17200,0.1123147383332252,0.4714332222938537,0.0,-4.024837493896484,-5.949697017669678,-6.60239315032959,4.12109375,2,J1,6.1,180,450.0,6.485308857242895,[6700|7600|0|0]
173,17300,0.1135863214731216,0.4700872302055359,0.0,-4.025249481201172,-5.973994731903076,-6.614043712615967,4.12109375,2,J1,6.1,180,450.0,6.487160510121672,[6700|7700|0|0]
174,17400,0.1135573834180831,0.470488578081131,0.0,-4.038331508636475,-5.986613750457764,-6.631416320800781,4.12109375,2,J1,6.1,180,450.0,6.487562899893255,[6700|7800|0|0]
175,17500,0.1122199818491935,0.4717903733253479,0.0,-4.044917583465576,-5.948038101196289,-6.604139804840088,4.12890625,2,J1,6.1,180,450.0,6.489429263688,[6700|7900|0|0]
176,17600,0.1133818998932838,0.4704751968383789,0.0,-4.02726936340332,-5.967176914215088,-6.610654354095459,4.12890625,2,J1,6.1,180,450.0,6.491184183268225,[6700|8000|0|0]
177,17700,0.1132811829447746,0.4704749286174774,0.0,-4.0327677726745605,-5.963120460510254,-6.591315746307373,4.12890625,2,J1,6.1,180,450.0,6.491284900573885,[6700|8100|0|0]
178,17800,0.1127107813954353,0.471166044473648,0.0,-4.050384521484375,-5.971726417541504,-6.601352691650391,4.12890625,2,J1,6.1,180,450.0,6.49218100271881,[6700|8200|0|0]
179,17900,0.112988106906414,0.4708912372589111,0.0,-4.045533657073975,-5.97065544128418,-6.6052327156066895,4.12890625,2,J1,6.1,180,450.0,6.492571423574184,[6700|8300|0|0]
180,18000,0.1125749126076698,0.4713731706142425,0.0,-4.049305438995361,-5.97064733505249,-6.586875915527344,4.12890625,2,J1,6.1,180,450.0,6.493206237946654,[6700|8400|0|0]
181,18100,0.112454243004322,0.47120201587677,0.0,-4.030403137207031,-5.97007942199707,-6.572804927825928,4.12890625,2,J1,6.1,180,450.0,6.493415654033265,[6700|8500|0|0]
182,18200,0.112733855843544,0.4713756740093231,0.0,-4.054048538208008,-5.981652736663818,-6.587510585784912,4.12890625,2,J1,6.1,180,450.0,6.493744805194374,[6700|8600|0|0]
183,18300,0.1131085753440857,0.4710270762443542,0.0,-4.055303573608398,-5.985188484191895,-6.58282995223999,4.12890625,2,J1,6.1,180,450.0,6.494256601155502,[6700|8700|0|0]
184,18400,0.1124629229307174,0.4713018536567688,0.0,-4.039516448974609,-5.96519947052002,-6.581762790679932,4.1328125,2,J1,6.1,180,450.0,6.4949582917320825,[6700|8800|0|0]
185,18500,0.1128210425376892,0.4710698425769806,0.0,-4.0564703941345215,-5.987289905548096,-6.581360816955566,4.1328125,2,J1,6.1,180,450.0,6.495384998650286,[6700|8900|0|0]
186,18600,0.1133277639746666,0.470472127199173,0.0,-4.047831535339356,-5.987766265869141,-6.575110912322998,4.1328125,2,J1,6.1,180,450.0,6.496168599497375,[6700|9000|0|0]
187,18700,0.1127464175224304,0.4713227748870849,0.0,-4.058164119720459,-5.993083477020264,-6.586063861846924,4.1328125,2,J1,6.1,180,450.0,6.497198922352832,[6700|9100|0|0]
188,18800,0.1123930662870407,0.4715675115585327,0.0,-4.052647113800049,-5.978988170623779,-6.586659908294678,4.1328125,2,J1,6.1,180,450.0,6.497628751544376,[6700|9200|0|0]
189,18900,0.1127364858984947,0.4710991084575653,0.0,-4.036823749542236,-5.984704494476318,-6.596287250518799,4.1328125,2,J1,6.1,180,450.0,6.498209560027894,[6700|9300|0|0]
190,19000,0.1131928190588951,0.4704742729663849,0.0,-4.0295257568359375,-5.978982448577881,-6.599015712738037,4.1328125,2,J1,6.1,180,450.0,6.498983290823662,[6700|9400|0|0]
191,19100,0.1125807911157608,0.471155434846878,0.0,-4.033253192901611,-5.972621440887451,-6.590902805328369,4.1328125,2,J1,6.1,180,450.0,6.499899019883272,[6700|9500|0|0]
192,19200,0.1125902235507965,0.4713811576366424,0.0,-4.041823863983154,-5.985235214233398,-6.580936431884766,4.1328125,2,J1,6.1,180,450.0,6.500124939666934,[6700|9600|0|0]
193,19300,0.1118715181946754,0.4719730913639068,0.0,-4.040109157562256,-5.964578151702881,-6.571295738220215,4.1328125,2,J1,6.1,180,450.0,6.5010560266265625,[6700|9700|0|0]
194,19400,0.1116183251142501,0.4723541140556335,0.0,-4.040220737457275,-5.973088264465332,-6.555586814880371,4.1328125,2,J1,6.1,180,450.0,6.501513503432079,[6700|9800|0|0]
195,19500,0.1108324602246284,0.4732656180858612,0.0,-4.042159080505371,-5.971869468688965,-6.585351943969727,4.13671875,2,J1,6.1,180,450.0,6.502717007990385,[6700|9900|0|0]
196,19600,0.1101693287491798,0.4739262163639068,0.0,-4.037657260894775,-5.957663059234619,-6.570041179656982,4.13671875,2,J1,6.1,180,450.0,6.50365302798947,[6700|10000|0|0]
197,19700,0.1110438257455825,0.4728270471096039,0.0,-4.022471904754639,-5.968020915985107,-6.5781989097595215,4.13671875,2,J1,6.1,180,450.0,6.505057634000536,[6700|10100|0|0]
198,19800,0.1119592785835266,0.4721023440361023,0.0,-4.023792266845703,-5.992043495178223,-6.5707106590271,4.13671875,2,J1,6.1,180,450.0,6.506225216307375,[6700|10200|0|0]
199,19900,0.1113336235284805,0.4727104604244232,0.0,-4.035708904266357,-5.973418712615967,-6.587425708770752,4.13671875,2,J1,6.1,180,450.0,6.507097712605161,[6700|10300|0|0]
200,20000,0.1118073984980583,0.4719164073467254,0.0,-4.018968105316162,-5.9694504737854,-6.566606044769287,4.13671875,2,J1,6.1,180,450.0,6.508022365519502,[6700|10400|0|0]
201,20100,0.1114650294184684,0.4724459052085876,0.0,-4.035111904144287,-5.989070892333984,-6.55751371383667,4.13671875,2,J1,6.1,180,450.0,6.508652908596837,[6700|10500|0|0]
202,20200,0.1099448427557945,0.4740207493305206,0.0,-4.044353008270264,-5.966154098510742,-6.479970932006836,4.13671875,2,J1,6.1,180,450.0,6.510841767088782,[6700|10600|0|0]
203,20300,0.1117014586925506,0.4723924696445465,0.0,-4.047245025634766,-5.985122203826904,-6.564803600311279,4.13671875,2,J1,6.1,180,450.0,6.513236969436188,[6700|10700|0|0]
204,20400,0.1127480790019035,0.4712373912334442,0.0,-4.039974212646484,-5.9906415939331055,-6.585402965545654,4.13671875,2,J1,6.1,180,450.0,6.514795693339817,[6700|10800|0|0]
205,20500,0.1121157854795456,0.471645325422287,0.0,-4.025604724884033,-5.9665398597717285,-6.500819206237793,4.14453125,2,J1,6.1,180,450.0,6.515548159552243,[6700|10900|0|0]
206,20600,0.1125362813472747,0.470984548330307,0.0,-4.015614032745361,-5.962270736694336,-6.508725166320801,4.13671875,2,J1,6.1,180,450.0,6.516331385662675,[6700|11000|0|0]
207,20700,0.112316146492958,0.4715704619884491,0.0,-4.045888423919678,-5.974374294281006,-6.601081371307373,4.13671875,2,J1,6.1,180,450.0,6.516957288345911,[6700|11100|0|0]
208,20800,0.1127128675580024,0.4712929725646972,0.0,-4.041680812835693,-5.977325439453125,-6.553301811218262,4.13671875,2,J1,6.1,180,450.0,6.517441424673555,[6700|11200|0|0]
209,20900,0.1119767650961875,0.4719538688659668,0.0,-4.049561500549316,-5.956272125244141,-6.53937578201294,4.13671875,2,J1,6.1,180,450.0,6.518430682352485,[6700|11300|0|0]
210,21000,0.1113174706697464,0.4727266728878021,0.0,-4.051900386810303,-5.956756114959717,-6.533514022827148,4.14453125,2,J1,6.1,180,450.0,6.519446504776386,[6700|11400|0|0]
211,21100,0.1113121137022972,0.47259521484375,0.0,-4.032612323760986,-5.9441657066345215,-6.522747993469238,4.14453125,2,J1,6.1,180,450.0,6.519578071924437,[6700|11500|0|0]
212,21200,0.1107085868716239,0.4732780754566192,0.0,-4.035036087036133,-5.944733142852783,-6.499256610870361,4.14453125,2,J1,6.1,180,450.0,6.520489413381823,[6700|11600|0|0]
213,21300,0.1108211353421211,0.4728303849697113,0.0,-4.034237384796143,-5.941269874572754,-6.518478393554688,4.14453125,2,J1,6.1,180,450.0,6.520951034363018,[6700|11700|0|0]
214,21400,0.1123651415109634,0.4711746871471405,0.0,-4.0247344970703125,-5.963291645050049,-6.520547389984131,4.14453125,2,J1,6.1,180,450.0,6.523214944769613,[6700|11800|0|0]
215,21500,0.1126138418912887,0.4712302684783935,0.0,-4.026140213012695,-5.980953693389893,-6.504031658172607,4.14453125,2,J1,6.1,180,450.0,6.523469780331413,[6700|11900|0|0]
216,21600,0.11204294860363,0.4718618988990783,0.0,-4.034398078918457,-5.964254856109619,-6.503112316131592,4.14453125,2,J1,6.1,180,450.0,6.524321176910117,[6700|12000|0|0]
217,21700,0.1125132068991661,0.4714636504650116,0.0,-4.033458232879639,-5.97105598449707,-6.521676540374756,4.14453125,2,J1,6.1,180,450.0,6.524937411183553,[6700|12100|0|0]
218,21801,0.1115135326981544,0.472222238779068,0.0,-4.03149938583374,-5.944647312164307,-6.516771793365479,4.14453125,2,J1,6.1,180,450.0,6.526192323426856,[6700|12200|0|0]
219,21901,0.1123032197356224,0.4715588092803955,0.0,-4.045567512512207,-5.975052356719971,-6.599384784698486,4.14453125,2,J1,6.1,180,450.0,6.527223703238978,[6700|12300|0|0]
220,22001,0.1120643094182014,0.4720428586006164,0.0,-4.0431976318359375,-5.975368022918701,-6.517020225524902,4.1484375,2,J1,6.1,180,450.0,6.527763501242102,[6700|12400|0|0]
221,22101,0.112451434135437,0.4717004001140594,0.0,-4.0330586433410645,-5.960283279418945,-6.523067951202393,4.14453125,2,J1,6.1,180,450.0,6.5282803603735005,[6700|12500|0|0]
222,22201,0.1117149144411087,0.4720931649208069,0.0,-4.021724700927734,-5.942504405975342,-6.505449771881104,4.1484375,2,J1,6.1,180,450.0,6.529115061190292,[6700|12600|0|0]
223,22301,0.1124589592218399,0.4714114367961883,0.0,-4.016119480133057,-5.969287872314453,-6.5069661140441895,4.1484375,2,J1,6.1,180,450.0,6.530124197391025,[6700|12700|0|0]
224,22401,0.1126857921481132,0.4708437025547027,0.0,-4.016599655151367,-5.96405553817749,-6.514406681060791,4.1484375,2,J1,6.1,180,450.0,6.5307355690827125,[6700|12800|0|0]
225,22501,0.1125940382480621,0.471077561378479,0.0,-4.03998613357544,-5.967048645019531,-6.502909183502197,4.1484375,2,J1,6.1,180,450.0,6.530986783587932,[6700|12900|0|0]
226,22601,0.1123442128300666,0.4716280400753021,0.0,-4.0490803718566895,-5.979848861694336,-6.521375179290772,4.1484375,2,J1,6.1,180,450.0,6.531591299539031,[6700|13000|0|0]
227,22701,0.1127368137240409,0.4708937704563141,0.0,-4.023275852203369,-5.971009254455566,-6.518552303314209,4.1484375,2,J1,6.1,180,450.0,6.532423938317445,[6700|13100|0|0]
228,22802,0.112259067595005,0.4714149534702301,0.0,-4.03737211227417,-5.952903270721436,-6.519085884094238,4.1484375,2,J1,6.1,180,450.0,6.533130955359533,[6700|13200|0|0]
229,22901,0.1128593981266021,0.4710315763950348,0.0,-4.038741588592529,-5.973865509033203,-6.512969017028809,4.1484375,2,J1,6.1,180,450.0,6.533843257773507,[6700|13300|0|0]
230,23002,0.1124106049537658,0.4711676239967346,0.0,-4.0324883460998535,-5.966808319091797,-6.528182029724121,4.1484375,2,J1,6.1,180,450.0,6.534312218605467,[6700|13400|0|0]
231,23102,0.1119987666606903,0.4719281792640686,0.0,-4.050561428070068,-5.967583656311035,-6.519590854644775,4.1484375,2,J1,6.1,180,450.0,6.535177120388511,[6700|13500|0|0]
232,23200,0.1123929396271705,0.4717139601707458,0.0,-4.045903205871582,-5.973620891571045,-6.508074760437012,4.1484375,2,J1,6.1,180,450.0,6.535625742888445,[6700|13600|0|0]
233,23301,0.1132866144180297,0.470418632030487,0.0,-4.015322208404541,-5.969995498657227,-6.512701511383057,4.1484375,2,J1,6.1,180,450.0,6.537199442231637,[6700|13700|0|0]
234,23402,0.1120581924915313,0.4714784920215606,0.0,-4.030892372131348,-5.9637603759765625,-6.485697746276856,4.1484375,2,J1,6.1,180,450.0,6.538821885953367,[6700|13800|0|0]
235,23502,0.1132748946547508,0.4704145193099975,0.0,-4.03553581237793,-5.988089561462402,-6.491791725158691,4.1484375,2,J1,6.1,180,450.0,6.540438178651159,[6700|13900|0|0]
236,23600,0.1122546195983886,0.4714641571044922,0.0,-4.033439159393311,-5.974874496459961,-6.499843120574951,4.1484375,2,J1,6.1,180,450.0,6.541901975320873,[6700|14000|0|0]
237,23702,0.1123726069927215,0.4712536036968231,0.0,-4.0272369384765625,-5.970421314239502,-6.5108418464660645,4.1484375,2,J1,6.1,180,450.0,6.542143333483574,[6700|14100|0|0]
238,23800,0.1127501130104065,0.4710982739925384,0.0,-4.032941818237305,-5.986161231994629,-6.528470516204834,4.1484375,2,J1,6.1,180,450.0,6.542551546798426,[6700|14200|0|0]
239,23900,0.1132209077477455,0.4705109298229217,0.0,-4.021304607391357,-5.984025955200195,-6.5299973487854,4.1484375,2,J1,6.1,180,450.0,6.543304289024084,[6700|14300|0|0]
240,24000,0.112600028514862,0.4710040986537933,0.0,-4.027019023895264,-5.97573184967041,-6.501774787902832,4.15234375,2,J1,6.1,180,450.0,6.5440971991813965,[6700|14400|0|0]
241,24100,0.1130507215857505,0.4709773957729339,0.0,-4.034108638763428,-5.990437984466553,-6.530503273010254,4.15234375,2,J2,6.1,180,450.0,6.544548682611871,[6700|14400|0|0]
242,24200,0.1163148283958435,0.4707827866077423,0.0,-3.902738332748413,-5.973490238189697,-6.506766319274902,3.00390625,2,J2,6.1,180,450.0,6.547818585667754,[6700|14400|0|0]
243,24300,0.1215902417898178,0.4727612137794494,0.0,-2.948019504547119,-3.296653509140014,-6.570348262786865,3.267578125,2,J2,6.1,180,450.0,6.5534527813114165,[6700|14400|0|0]
244,24400,0.1249612644314765,0.4697089195251465,0.0,-0.1359160542488098,7.686432361602783,-7.975797653198242,3.5,2,J2,6.1,180,450.0,6.558000340422129,[6700|14400|0|0]
245,24500,0.115009069442749,0.472604900598526,0.0286396890878677,0.9108346104621888,8.693286895751953,-8.024996757507324,3.541015625,2,J2,6.1,180,450.0,6.588457928680571,[6700|14400|0|0]
246,24600,0.1302825063467025,0.4580557644367218,0.1417984515428543,-1.7488640546798706,3.187740087509156,-6.514416217803955,3.583984375,2,J2,6.1,180,450.0,6.7035659681837165,[6700|14400|0|0]
247,24700,0.1056553721427917,0.4876927137374878,0.2149992883205413,-2.3315320014953613,1.9678480625152588,-4.811557292938232,3.568359375,2,J2,6.1,180,450.0,6.786289646824764,[6700|14400|0|0]
248,24800,0.0825286656618118,0.5252931118011475,0.2899801731109619,0.4912746250629425,-0.3902364075183868,-3.4558534622192383,3.53125,2,J2,6.1,180,450.0,6.87329980468669,[6700|14400|0|0]
249,24900,0.064238891005516,0.5643884539604187,0.3676211535930633,3.411487102508545,-2.00730848312378,-1.989706754684448,3.525390625,2,J2,6.1,180,450.0,6.96213157538699,[6700|14400|0|0]
250,25000,0.0523939691483974,0.5983349680900574,0.4494366943836212,6.141684055328369,-2.600250482559204,-0.4696808755397796,3.525390625,2,J2,6.1,180,450.0,7.0514985195565565,[6700|14400|0|0]
251,25100,0.0454304814338684,0.6230703592300415,0.5362129807472229,7.339357376098633,-0.6752614378929138,-0.5490542650222778,3.537109375,2,J2,6.1,180,450.0,7.141999644472528,[6700|14400|0|0]
252,25200,0.0410517118871212,0.6368621587753296,0.6281906962394714,6.65404748916626,-1.4558258056640625,0.013762978836894,3.552734375,2,J2,6.1,180,450.0,7.235108653191416,[6700|14400|0|0]
253,25300,0.0391922406852245,0.639970064163208,0.7243576049804688,6.417380809783936,-0.7637221217155457,1.1553488969802856,3.546875,2,J2,6.1,180,450.0,7.331343735390424,[6700|14400|0|0]
254,25400,0.0379145145416259,0.6347944140434265,0.8219780921936035,3.475823402404785,0.067650020122528,1.7535041570663452,3.552734375,2,J2,6.1,180,450.0,7.429109677629991,[6700|14400|0|0]
255,25500,0.0375405624508857,0.6260424256324768,0.9206936359405518,1.493338704109192,-0.25735804438591,1.6142271757125854,3.537109375,2,J2,6.1,180,450.0,7.52821313730001,[6700|14400|0|0]
256,25600,0.037807859480381,0.6170002222061157,1.022403597831726,0.2543533444404602,0.0122742382809519,0.8513895869255066,3.541015625,2,J2,6.1,180,450.0,7.630324592281368,[6700|14400|0|0]
257,25700,0.043503250926733,0.6078000068664551,1.1248959302902222,0.3744349181652069,0.1498517394065857,0.730855405330658,3.568359375,2,J2,6.1,180,450.0,7.733386513759702,[6700|14400|0|0]
258,25800,0.0459936559200286,0.601019561290741,1.2287296056747437,0.0093603990972042,0.384030669927597,0.2477633357048034,3.59375,2,J2,6.1,180,450.0,7.837471136558144,[6700|14400|0|0]
259,25900,0.0509736090898513,0.5954030752182007,1.3287038803100586,0.1253867447376251,0.637323796749115,0.2800335884094238,3.630859375,2,J2,6.1,180,450.0,7.937726811899912,[6700|14400|0|0]
260,26000,0.0556511171162128,0.5904871225357056,1.4186029434204102,0.2995833158493042,1.1402902603149414,0.1212310120463371,3.65234375,2,J2,6.1,180,450.0,8.027881607780287,[6700|14400|0|0]
261,26100,0.0595401860773563,0.5854936242103577,1.4920343160629272,0.6296491026878357,1.4316372871398926,0.5269927382469177,3.6484375,2,J2,6.1,180,450.0,8.101585246571558,[6700|14400|0|0]
262,26200,0.0613945759832859,0.5811473727226257,1.5474756956100464,0.5303730964660645,1.3851590156555176,1.204298496246338,3.630859375,2,J2,6.1,180,450.0,8.157227633562103,[6700|14400|0|0]
263,26300,0.0608980096876621,0.576049268245697,1.5858460664749146,0.6894616484642029,1.474483609199524,1.6865644454956057,3.611328125,2,J2,6.1,180,450.0,8.195938389272255,[6700|14400|0|0]
264,26400,0.057924561202526,0.570852518081665,1.611506462097168,0.4100056290626526,0.9520982503890992,1.9669923782348635,3.59375,2,J2,6.1,180,450.0,8.222288028959577,[6700|14400|0|0]
265,26500,0.0543879531323909,0.5647666454315186,1.6275092363357544,-0.1968750804662704,0.6580544114112854,5.371217250823975,3.583984375,2,J2,6.1,180,450.0,8.239770426560785,[6700|14400|0|0]
266,26600,0.0502402335405349,0.5574525594711304,1.6363025903701782,-0.8640249371528625,0.3261994123458862,8.954751014709473,3.578125,2,J2,6.1,180,450.0,8.251936876594518,[6700|14400|0|0]
267,26700,0.0457672663033008,0.5542251467704773,1.6405205726623535,-0.8557600975036621,0.2275643348693847,11.278218269348145,3.568359375,2,J2,6.1,180,450.0,8.25888057901202,[6700|14400|0|0]
268,26800,0.0419530905783176,0.5493032336235046,1.639917492866516,-0.5530715584754944,0.0287891589105129,5.845179557800293,3.552734375,2,J2,6.1,180,450.0,8.265136525841042,[6700|14400|0|0]
269,26900,0.0393794253468513,0.5463964343070984,1.636857986450195,-0.0591422915458679,-0.2878544330596924,3.076463460922241,3.55859375,2,J2,6.1,180,450.0,8.270079583042918,[6700|14400|0|0]
270,27000,0.0374668166041374,0.5436389446258545,1.6322486400604248,0.400581806898117,-0.4923783838748932,2.0719869136810303,3.552734375,2,J2,6.1,180,450.0,8.27578115262381,[6700|14400|0|0]
271,27100,0.0372244752943515,0.5388522148132324,1.6259357929229736,0.3014952838420868,-0.2512219548225403,1.8772902488708496,3.541015625,2,J2,6.1,180,450.0,8.283707283495195,[6700|14400|0|0]
272,27200,0.0370606482028961,0.5331242084503174,1.6184964179992676,-0.1803222000598907,-0.1185450628399849,2.1859822273254395,3.537109375,2,J2,6.1,180,27.0,8.293097767799264,[6700|14400|0|0]
273,27300,0.0371133461594581,0.5298967361450195,1.612358808517456,-1.7178502082824707,0.7393344640731812,3.1029367446899414,3.701171875,2,J2,6.1,180,27.0,8.300032434677155,[6700|14400|0|0]
274,27400,0.0310592874884605,0.5272597074508667,1.5913351774215698,-13.970767974853516,14.830162048339844,7.126940727233887,3.6640625,2,J2,6.1,180,27.0,8.322068736798464,[6700|14400|0|0]
275,27500,0.0094767119735479,0.5383551120758057,1.5464452505111694,-14.064351081848145,13.5275239944458,7.141924381256104,3.57421875,2,J2,6.1,180,27.0,8.373098346905431,[6700|14400|0|0]
276,27600,-0.0345182493329048,0.564644992351532,1.4797037839889526,-16.14409828186035,14.519429206848145,7.367834568023682,3.419921875,2,J2,6.1,180,27.0,8.457247843510013,[6700|14400|0|0]
277,27700,-0.1043756157159805,0.6097357869148254,1.4049373865127563,-16.929458618164062,12.219840049743652,4.582827091217041,3.330078125,2,J2,6.1,180,27.0,8.569065756135393,[6700|14400|0|0]
278,27800,-0.1957306116819381,0.6773081421852112,1.338878870010376,-12.317925453186035,7.934026718139648,1.3354564905166626,3.357421875,2,J2,6.1,180,27.0,8.700501999566276,[6700|14400|0|0]
279,27900,-0.3035348057746887,0.7658089995384216,1.2910418510437012,-8.394889831542969,3.0218617916107178,2.987003326416016,3.416015625,2,J2,6.1,180,27.0,8.847955471549335,[6700|14400|0|0]
280,28000,-0.3820807933807373,0.8509408831596375,1.2452545166015625,-0.9397374987602234,1.2207272052764893,-5.6368489265441895,3.404296875,2,J2,6.1,180,27.0,8.972508230544157,[6700|14400|0|0]
281,28100,-0.4857355058193207,0.9483587741851808,1.227592706680298,4.392125129699707,-0.1687198877334594,-6.465269088745117,3.42578125,2,J2,6.1,180,27.0,9.115848679937498,[6700|14400|0|0]
282,28200,-0.5873490571975708,1.0375701189041138,1.2237297296524048,7.280604839324951,-0.4621523022651672,-3.5735538005828857,3.47265625,2,J2,6.1,180,27.0,9.251122108377006,[6700|14400|0|0]
283,28300,-0.6779411435127258,1.1114734411239624,1.222760796546936,9.226168632507324,0.8327709436416626,-1.7923293113708496,3.515625,2,J2,6.1,180,27.0,9.3680390274667,[6700|14400|0|0]
284,28400,-0.7730082273483276,1.168808937072754,1.2307710647583008,8.960103034973145,1.174275279045105,-1.1692968606948853,3.552734375,2,J2,6.1,180,27.0,9.479346142789652,[6700|14400|0|0]
285,28500,-0.8687042593955994,1.2109243869781494,1.2364153861999512,8.083441734313965,1.5147579908370972,-1.1659698486328125,3.537109375,2,J2,6.1,180,27.0,9.584051921211206,[6700|14400|0|0]
286,28600,-0.9623064398765564,1.2393871545791626,1.236164689064026,6.568225860595703,-1.4614129066467283,-1.009480595588684,3.505859375,2,J2,6.1,180,27.0,9.68188627192379,[6700|14400|0|0]
287,28700,-1.0521174669265747,1.2572296857833862,1.2330328226089478,4.738062381744385,-4.385593414306641,-1.0352901220321655,3.48828125,2,J2,6.1,180,27.0,9.773506057380018,[6700|14400|0|0]
288,28800,-1.133126139640808,1.2680872678756714,1.2289034128189087,3.474602222442627,-7.1023359298706055,-1.1000250577926636,3.484375,2,J2,6.1,180,27.0,9.855343360421031,[6700|14400|0|0]
289,28900,-1.2011195421218872,1.274386644363403,1.224717617034912,1.957932472229004,-8.421157836914062,-1.2445441484451294,3.478515625,2,J2,6.1,180,27.0,9.92375612101022,[6700|14400|0|0]
290,29000,-1.2558889389038086,1.2806432247161863,1.2232987880706787,0.9137094616889954,-8.842859268188477,-1.4773380756378174,3.478515625,2,J2,6.1,180,27.0,9.978899975583474,[6700|14400|0|0]
291,29100,-1.2982388734817505,1.2890092134475708,1.2257527112960815,0.9985901713371276,-7.570304870605469,-1.5536484718322754,3.48828125,2,J2,6.1,180,27.0,10.022138019773813,[6700|14400|0|0]
292,29200,-1.331113338470459,1.2990238666534424,1.2313162088394165,1.907547116279602,-6.948853492736816,-1.5416163206100464,3.5,2,J2,6.1,180,27.0,10.056951468784826,[6700|14400|0|0]
293,29300,-1.3565255403518677,1.3082250356674194,1.238719463348389,2.5263686180114746,-5.481101036071777,-1.008675456047058,3.505859375,2,J2,6.1,180,27.0,10.084973775845627,[6700|14400|0|0]
294,29400,-1.3759464025497437,1.3148272037506104,1.2464057207107544,3.284466505050659,-4.740994930267334,-0.9503249526023864,3.521484375,2,J2,6.1,180,27.0,10.106878959345158,[6700|14400|0|0]
295,29500,-1.3918086290359497,1.3175803422927856,1.2541416883468628,3.758437395095825,-4.0396013259887695,-1.1879359483718872,3.537109375,2,J2,6.1,180,27.0,10.124740515721886,[6700|14400|0|0]
296,29600,-1.3995221853256226,1.3133549690246582,1.25416898727417,3.387690782546997,-3.686737775802612,-1.19314706325531,3.521484375,2,J2,6.1,180,27.0,10.133535598161544,[6700|14400|0|0]
297,29700,-1.4022637605667114,1.3033208847045898,1.2487967014312744,2.5354487895965576,-3.213149309158325,-1.6655545234680176,3.48828125,2,J2,6.1,180,27.0,10.145242883847072,[6700|14400|0|0]
298,29800,-1.399170994758606,1.2892338037490845,1.2383873462677002,1.1442091464996338,-2.4403367042541504,-3.402733087539673,3.462890625,2,J2,6.1,180,27.0,10.163029556529509,[6700|14400|0|0]
299,29900,-1.3944042921066284,1.2749643325805664,1.2289674282073977,-0.2668977975845337,-1.6391093730926514,-4.847767353057861,3.462890625,2,J2,6.1,180,27.0,10.180779883790276,[6700|14400|0|0]
300,30000,-1.390613317489624,1.2637730836868286,1.222681999206543,-1.598995566368103,-0.8472001552581787,-4.944794654846191,3.45703125,2,J2,6.1,180,27.0,10.19416353643345,[6700|14400|0|0]
301,30100,-1.387032389640808,1.257306456565857,1.2173643112182615,-2.252675294876098,-0.3247045874595642,-5.066469192504883,3.462890625,2,J2,6.1,180,27.0,10.203269474941964,[6700|14400|0|0]
302,30200,-1.3836199045181274,1.2576518058776855,1.2106873989105225,-2.1669108867645264,-0.2914593815803528,-5.83065128326416,3.626953125,2,J2,6.1,180,450.0,10.21077583749815,[6700|14400|0|0]
303,30300,-1.3780888319015503,1.2576595544815063,1.1900924444198608,-0.6738994121551514,-0.0522846840322017,-4.122217655181885,3.748046875,2,J2,6.1,180,450.0,10.232100587785157,[6700|14400|0|0]
304,30400,-1.379894495010376,1.268868327140808,1.126683235168457,-1.1870737075805664,-0.0641883835196495,-0.7022042274475098,3.6484375,2,J2,6.1,180,450.0,10.296518169404454,[6700|14400|0|0]
305,30500,-1.3856521844863892,1.2736181020736694,1.0296155214309692,0.6410433053970337,-1.169843673706055,4.934973239898682,3.447265625,2,J2,6.1,180,450.0,10.393872431767424,[6700|14400|0|0]
306,30600,-1.3886539936065674,1.2806026935577393,0.9047269821166992,0.4599203765392303,-1.5006829500198364,11.292377471923828,3.373046875,2,J2,6.1,180,450.0,10.518992144955416,[6700|14400|0|0]
307,30700,-1.3875479698181152,1.2869291305541992,0.776809811592102,1.6935707330703735,-1.7637839317321775,7.132743835449219,3.373046875,2,J2,6.1,180,450.0,10.647070439793806,[6700|14400|0|0]
308,30800,-1.3828165531158447,1.2915372848510742,0.6582896113395691,1.4431734085083008,-1.4593275785446167,4.4879655838012695,3.373046875,2,J2,6.1,180,450.0,10.76577452252871,[6700|14400|0|0]
309,30900,-1.376522660255432,1.2934412956237793,0.551104724407196,2.0026445388793945,-1.3285126686096191,3.260322093963623,3.314453125,2,J2,6.1,180,450.0,10.873160919856614,[6700|14400|0|0]
310,31000,-1.365567684173584,1.2920483350753784,0.4581053256988525,1.3773338794708252,-0.3924224376678467,3.6465706825256334,3.2890625,2,J2,6.1,180,450.0,10.96681368276384,[6700|14400|0|0]
311,31100,-1.354316473007202,1.288317322731018,0.3821987509727478,0.6346659064292908,1.4850585460662842,5.92401933670044,3.3359375,2,J2,6.1,180,450.0,11.043640229559031,[6700|14400|0|0]
312,31200,-1.3453638553619385,1.2845898866653442,0.3226225674152374,-1.8382915258407595,4.087618827819824,9.317849159240724,3.3828125,2,J2,6.1,180,450.0,11.104000521056042,[6700|14400|0|0]
313,31300,-1.346387505531311,1.28708815574646,0.2683300077915191,-5.3092803955078125,4.979183673858643,11.467767715454102,3.373046875,2,J2,6.1,180,450.0,11.15836016820874,[6700|14400|0|0]
314,31400,-1.3580408096313477,1.2975001335144043,0.2129498422145843,-3.506519556045532,3.343922615051269,14.766145706176758,3.341796875,2,J2,6.1,180,450.0,11.215902948093074,[6700|14400|0|0]
315,31500,-1.3767857551574707,1.3158361911773682,0.1643694937229156,-0.1686516553163528,0.2700147032737732,13.037798881530762,3.2734375,2,J2,6.1,180,450.0,11.271108330556824,[6700|14400|0|0]
316,31600,-1.3930926322937012,1.3314540386199951,0.1282956600189209,5.248738765716553,-5.037795543670654,10.42712688446045,3.240234375,2,J2,6.1,180,450.0,11.313665972394462,[6700|14400|0|0]
317,31700,-1.3958438634872437,1.336986422538757,0.1110294163227081,6.385485649108887,-6.336732387542725,5.448154926300049,3.298828125,2,J2,6.1,180,450.0,11.332004448783788,[6700|14400|0|0]
318,31800,-1.3845033645629885,1.330935001373291,0.1184792965650558,7.144039630889893,-5.996829986572266,0.6427426338195801,3.37890625,2,J2,6.1,180,450.0,11.34686134380254,[6700|14400|0|0]
319,31900,-1.3618075847625732,1.3113924264907837,0.1418807059526443,4.643283367156982,-3.317394971847534,-3.488797903060913,3.435546875,2,J2,6.1,180,450.0,11.38486971939415,[6700|14400|0|0]
320,32000,-1.3357548713684082,1.2834118604660034,0.1698977053165435,2.377155065536499,0.978776216506958,-5.849732398986816,3.462890625,2,J2,6.1,180,450.0,11.43226811813949,[6700|14400|0|0]
321,32100,-1.3135132789611816,1.253284215927124,0.191076248884201,-0.1339569240808487,3.6481761932373047,-6.976939678192139,3.435546875,2,J2,6.1,180,450.0,11.475290136989347,[6700|14400|0|0]
322,32200,-1.298112154006958,1.2234809398651123,0.2010013610124588,-1.9735875129699707,5.139082908630371,-8.176551818847656,3.41015625,2,J2,6.1,180,450.0,11.510274958907468,[6700|14400|0|0]
323,32300,-1.2904021739959717,1.1967829465866089,0.1981945633888244,-3.0523345470428467,5.09320068359375,-9.232065200805664,3.37890625,2,J2,6.1,180,450.0,11.538205314253736,[6700|14400|0|0]
324,32400,-1.2903985977172852,1.1752829551696775,0.1877883076667785,-3.8574280738830566,4.113778114318848,-9.338875770568848,3.345703125,2,J2,6.1,180,450.0,11.562091289257294,[6700|14400|0|0]
325,32500,-1.2962464094161987,1.1607136726379397,0.1765567660331726,-4.409459114074707,2.9950554370880127,-9.601475715637209,3.345703125,2,J2,6.1,180,450.0,11.581394356957093,[6700|14400|0|0]
326,32600,-1.3061299324035645,1.1531096696853638,0.1667773574590683,-4.645406723022461,1.4809828996658323,-8.62396240234375,3.3515625,2,J2,6.1,180,450.0,11.59724180847473,[6700|14400|0|0]
327,32700,-1.3164926767349243,1.1531596183776855,0.158981442451477,-4.020011425018311,-0.495444506406784,-8.479934692382812,3.36328125,2,J2,6.1,180,450.0,11.61020966318376,[6700|14400|0|0]
328,32800,-1.3257020711898804,1.1592891216278076,0.1552824825048446,-2.547145366668701,-1.1479967832565308,-8.243882179260254,3.3515625,2,J2,6.1,180,450.0,11.621874398971896,[6700|14400|0|0]
