,time.ms,stateEstimate.x,stateEstimate.y,stateEstimate.z,stabilizer.roll,stabilizer.pitch,stabilizer.yaw,pm.vbat,drone_id,node_name,wind_speed,global_wind_direction,relative_wind_direction,travel_dist,waiting_time
0,0,0.914496898651123,-0.218029037117958,-0.0112369274720549,-0.1992463618516922,0.0400091633200645,-0.7013620138168335,4.12890625,1,"['A1', 'F1', 'E2']",6.1,270,0.0,0.5644367760537653,[100|0|0]
1,100,0.914488673210144,-0.2182459086179733,-0.0111090531572699,-0.1856363713741302,0.0505884625017643,-0.7287188172340393,4.12890625,1,"['A1', 'F1', 'E2']",6.1,270,0.0,0.5646886743383563,[200|0|0]
2,200,0.9141815304756165,-0.2182005196809768,-0.011152135208249,-0.1784594655036926,0.0560448728501796,-0.6953814625740051,4.12890625,1,"['A1', 'F1', 'E2']",6.1,270,0.0,0.5650021274897065,[300|0|0]
3,300,0.9143335819244384,-0.2182434052228927,-0.0109528731554746,-0.174706369638443,0.0450262613594532,-0.6856234073638916,4.12890625,1,"['A1', 'F1', 'E2']",6.1,270,0.0,0.5652564190123143,[400|0|0]
4,400,0.91444730758667,-0.2181458622217178,-0.0109737114980816,-0.1777083277702331,0.0412825420498847,-0.6853062510490417,4.12890625,1,"['A1', 'F1', 'E2']",6.1,270,0.0,0.5654076883081108,[500|0|0]
5,500,0.9146348237991332,-0.2182280868291854,-0.01116409804672,-0.1770839542150497,0.0293898563832044,-0.7063702940940857,4.12890625,1,"['A1', 'F1', 'E2']",6.1,270,0.0,0.565687277746238,[600|0|0]
6,600,0.9144530296325684,-0.2180603146553039,-0.0108725884929299,-0.1706179231405258,0.0350096449255943,-0.6805046796798706,4.12890625,1,"['A1', 'F1', 'E2']",6.1,270,0.0,0.5660696054084295,[700|0|0]
7,700,0.9144240021705629,-0.2185107469558715,-0.0114133451133966,-0.1612188816070556,0.0376159623265266,-0.6600008606910706,4.12890625,1,"['A1', 'F1', 'E2']",6.1,270,0.0,0.5667739842649575,[800|0|0]
8,800,0.9145710468292236,-0.2183734029531479,-0.0110297352075576,-0.171810895204544,0.0290414318442344,-0.6593302488327026,4.12890625,1,"['A1', 'F1', 'E2']",6.1,270,0.0,0.5672071609801473,[900|0|0]
9,900,0.9145338535308838,-0.2183809876441955,-0.011057635769248,-0.1777554452419281,0.032601960003376,-0.6683365106582642,4.12890625,1,"['A1', 'F1', 'E2']",6.1,270,0.0,0.5672542705367396,[1000|0|0]
10,1000,0.9141544699668884,-0.2181580960750579,-0.011187745258212,-0.1890231519937515,0.0448042936623096,-0.6654327511787415,4.12890625,1,"['A1', 'F1', 'E2']",6.1,270,0.0,0.5677131180270247,[1100|0|0]
11,1100,0.914606511592865,-0.2181748002767563,-0.01086235512048,-0.1908485740423202,0.0299652125686407,-0.6933124661445618,4.12890625,1,"['A1', 'F1', 'E2']",6.1,270,0.0,0.5682703427605956,[1200|0|0]
12,1200,0.9140181541442872,-0.2182874977588653,-0.0110596632584929,-0.18844935297966,0.0469973720610141,-0.6876736283302307,4.12890625,1,"['A1', 'F1', 'E2']",6.1,270,0.0,0.5689010532417967,[1300|0|0]
13,1300,0.9066150784492492,-0.2277666628360748,-0.0142839355394244,0.1250059455633163,0.2701615691184997,-0.6943331956863403,4.12890625,1,"['A1', 'F1', 'E2']",6.1,270,0.0,0.5813532029376939,[1400|0|0]
14,1400,0.906747817993164,-0.2277787178754806,-0.0138661889359354,0.1240094527602195,0.2668051421642303,-0.699434220790863,4.12890625,1,"['A1', 'F1', 'E2']",6.1,270,0.0,0.5817916973335764,[1500|0|0]
15,1500,0.9066020250320436,-0.228120669722557,-0.0138004934415221,0.1275744140148162,0.2749287486076355,-0.7010087966918945,4.12890625,1,"['A1', 'F1', 'E2']",6.1,270,0.0,0.5821691924344949,[1600|0|0]
16,1600,0.9067221879959106,-0.2280362248420715,-0.0136482054367661,0.118413358926773,0.2722508907318115,-0.7039058208465576,4.12890625,1,"['A1', 'F1', 'E2']",6.1,270,0.0,0.5823807620734277,[1700|0|0]
17,1700,0.9067606329917908,-0.227816104888916,-0.013869815506041,0.1049355491995811,0.2691822946071625,-0.718676745891571,4.12890625,1,"['A1', 'F1', 'E2']",6.1,270,0.0,0.5826954711999072,[1800|0|0]
18,1800,0.9068745970726012,-0.2279857695102691,-0.0137465251609683,0.1041231527924537,0.2621377408504486,-0.7174740433692932,4.12890625,1,"['A1', 'F1', 'E2']",6.1,270,0.0,0.582934164318036,[1900|0|0]
19,1900,0.9065367579460144,-0.2276652604341507,-0.0141018303111195,0.0971653833985328,0.2791306972503662,-0.7337216734886169,4.12890625,1,"['A1', 'F1', 'E2']",6.1,270,0.0,0.5835199143441149,[2000|0|0]
20,2000,0.9065322875976562,-0.2276573926210403,-0.013996547088027,0.101529374718666,0.2762491106986999,-0.7220135927200317,4.12890625,1,"['A1', 'F1', 'E2']",6.1,270,0.0,0.583625585738363,[2100|0|0]
21,2100,0.9066163301467896,-0.2279946208000183,-0.013940542936325,0.1118525490164756,0.2699162364006042,-0.731174647808075,4.12890625,1,"['A1', 'F1', 'E2']",6.1,270,0.0,0.5839776119586498,[2200|0|0]
22,2200,0.9065333604812622,-0.2279530614614486,-0.0138741787523031,0.1094646826386451,0.2716403007507324,-0.7165406942367554,4.12890625,1,"['A1', 'F1', 'E2']",6.1,270,0.0,0.5840916967908624,[2300|0|0]
23,2300,0.9067038893699646,-0.2281618416309356,-0.014028588309884,0.113800898194313,0.2643722891807556,-0.7097232341766357,4.12890625,1,"['A1', 'F1', 'E2']",6.1,270,0.0,0.5844023599082829,[2400|0|0]
24,2400,0.906759798526764,-0.2281161397695541,-0.0141109488904476,0.1148410886526107,0.2646033763885498,-0.7183826565742493,4.12890625,1,"['A1', 'F1', 'E2']",6.1,270,0.0,0.5845118941914025,[2500|0|0]
25,2500,0.906631588935852,-0.2280429601669311,-0.0140823563560843,0.1222074851393699,0.2728868126869201,-0.6984646916389465,4.12890625,1,"['A1', 'F1', 'E2']",6.1,270,0.0,0.5846622620285991,[2600|0|0]
26,2601,0.907666802406311,-0.227798044681549,-0.0139319831505417,0.1223947033286094,0.2681325078010559,-0.7119165658950806,4.12890625,1,"['A1', 'F1', 'E2']",6.1,270,0.0,0.5857366281791012,[2700|0|0]
27,2701,0.907313883304596,-0.2280435711145401,-0.01395795494318,0.1217465549707412,0.2807655036449432,-0.7140260934829712,4.12890625,1,"['A1', 'F1', 'E2']",6.1,270,0.0,0.5861673364976482,[2800|0|0]
28,2801,0.9073305726051332,-0.2279379367828369,-0.0139925209805369,0.114203929901123,0.2752768099308014,-0.7198826670646667,4.12890625,1,"['A1', 'F1', 'E2']",6.1,270,0.0,0.5862797284712288,[2900|0|0]
29,2901,0.906990885734558,-0.2276062369346618,-0.014026534743607,0.1036751121282577,0.2779579758644104,-0.7102401256561279,4.12890625,1,"['A1', 'F1', 'E2']",6.1,270,0.0,0.5867557210083536,[3000|0|0]
30,3001,0.9071637988090516,-0.2278718054294586,-0.0138832824304699,0.1103596687316894,0.267281025648117,-0.6884286403656006,4.12890625,1,"['A1', 'F1', 'E2']",6.1,270,0.0,0.5871034950470317,[3100|0|0]
31,3101,0.9069460034370422,-0.2276826798915863,-0.0142639074474573,0.1088674664497375,0.2745345830917358,-0.6932512521743774,4.12890625,1,"['A1', 'F1', 'E2']",6.1,270,0.0,0.5875810709014264,[3200|0|0]
32,3201,0.907151699066162,-0.2278517335653305,-0.014032351784408,0.1147150620818138,0.2629675567150116,-0.6870013475418091,4.12890625,1,"['A1', 'F1', 'E2']",6.1,270,0.0,0.5879339276167311,[3300|0|0]
33,3301,0.9070935249328612,-0.2277471274137497,-0.0142830377444624,0.1153422519564628,0.2703264057636261,-0.6907320618629456,4.12890625,1,"['A1', 'F1', 'E2']",6.1,270,0.0,0.5882117227342228,[3400|0|0]
34,3401,0.9072980284690856,-0.2278778403997421,-0.0141310133039951,0.1089851707220077,0.2484912276268005,-0.6900575757026672,4.12890625,1,"['A1', 'F1', 'E2']",6.1,270,0.0,0.5884981123491441,[3500|0|0]
35,3501,0.6888183951377869,0.3127728998661041,-1.105794072151184,-112.58866119384766,20.21041679382324,30.604734420776367,4.12890625,1,"['A1', 'F1', 'E2']",6.1,270,0.0,1.826142975458989,[3600|0|0]
36,3601,0.8000722527503967,-0.1192537546157836,0.0115117719396948,-99.95783233642578,5.766751289367676,8.328691482543945,4.12890625,1,"['A1', 'F1', 'E2']",6.1,270,0.0,3.029221027896208,[3700|0|0]
37,3702,0.8492734432220459,-0.1614169329404831,-0.0551692843437194,-90.89063262939452,8.428447723388672,-3.623976469039917,4.12890625,1,"['A1', 'F1', 'E2']",6.1,270,0.0,3.122198734994952,[3800|0|0]
38,3802,0.8034744262695312,-0.0827656984329223,-0.1508303135633468,-89.06546020507812,8.873190879821777,-7.124050617218018,4.12890625,1,"['A1', 'F1', 'E2']",6.1,270,0.0,3.2542388772045783,[3900|0|0]
39,3900,0.7922369241714478,-0.0544233471155166,-0.2353674322366714,-82.58615112304688,8.44206714630127,-12.936665534973145,4.12890625,1,"['A1', 'F1', 'E2']",6.1,270,0.0,3.344105972212659,[4000|0|0]
40,4000,0.6580836176872253,0.1297219097614288,-0.5299876928329468,-84.08213806152344,7.617352485656738,-12.54145050048828,4.12890625,1,"['A1', 'F1', 'E2']",6.1,270,0.0,3.716540776204906,[4100|0|0]
41,4100,0.4868625998497009,0.3573315739631653,-0.894836962223053,-85.4262924194336,6.680562973022461,-9.291826248168944,4.12890625,1,"['A1', 'F1', 'E2']",6.1,270,0.0,4.179399054257529,[4200|0|0]
42,4200,0.2682904601097107,0.6340134739875793,-1.341874599456787,-87.3208999633789,5.678092002868652,-3.5243477821350098,4.12890625,1,"['A1', 'F1', 'E2']",6.1,270,0.0,4.748757731345318,[4300|0|0]
43,4300,0.005825225263834,0.9571251273155212,-1.8883590698242188,-90.39075469970705,4.8373212814331055,2.8413658142089844,4.12890625,1,"['A1', 'F1', 'E2']",6.1,270,0.0,5.435732560849129,[4400|0|0]
44,4402,0.8626680374145508,-0.1969335973262787,-0.1674096286296844,-54.5177116394043,-0.006022457499057,-10.283364295959473,4.12890625,1,"['A1', 'F1', 'E2']",6.1,270,0.0,7.677985473391331,[4500|0|0]
45,4502,0.7742140293121338,-0.0324163287878036,-0.3546224534511566,-71.66960906982422,1.2003886699676514,-4.272239208221436,4.12890625,1,"['A1', 'F1', 'E2']",6.1,270,0.0,7.94244470460548,[4600|0|0]
46,4600,0.7843429446220398,-0.0257863905280828,-0.2971718907356262,-80.34132385253906,4.167625904083252,0.2954761087894439,4.12890625,1,"['A1', 'F1', 'E2']",6.1,270,0.0,8.001156868277192,[4700|0|0]
47,4700,0.6091150045394897,0.2064400911331176,-0.6518218517303467,-79.15884399414062,4.652469635009766,4.174706935882568,4.12890625,1,"['A1', 'F1', 'E2']",6.1,270,0.0,8.459862181745295,[4800|0|0]
48,4800,0.3883078396320343,0.4742721319198608,-1.0751497745513916,-79.29171752929688,3.92712926864624,8.629437446594238,4.1328125,1,"['A1', 'F1', 'E2']",6.1,270,0.0,9.007307463382135,[4900|0|0]
49,4900,0.1237391084432601,0.7947213053703308,-1.577912449836731,-79.88233947753906,2.845564842224121,12.07580280303955,4.12890625,1,"['A1', 'F1', 'E2']",6.1,270,0.0,9.659576268360574,[5000|0|0]
50,5000,-0.1616866588592529,1.1369177103042605,-2.121089458465576,-79.9180679321289,1.8712852001190183,14.733810424804688,4.12890625,1,"['A1', 'F1', 'E2']",6.1,270,0.0,10.362148336473814,[5100|0|0]
51,5100,-0.4866998493671417,1.5128986835479736,-2.725452423095703,-79.85238647460938,1.0639187097549438,17.024024963378906,4.12890625,1,"['A1', 'F1', 'E2']",6.1,270,0.0,11.144612303223672,[5200|0|0]
52,5200,0.8650977611541748,-0.1841767728328704,-0.155245155096054,-55.28498840332031,-1.322903037071228,11.091864585876465,4.12890625,1,"['A1', 'F1', 'E2']",6.1,270,0.0,14.508150215146118,[5300|0|0]
53,5300,0.7796022295951843,-0.049096830189228,-0.308096706867218,-61.9502067565918,-0.6413310170173645,12.248174667358398,4.12890625,1,"['A1', 'F1', 'E2']",6.1,270,0.0,14.729328138321142,[5400|0|0]
54,5400,0.5967379212379456,0.202674388885498,-0.6596300005912781,-62.03609848022461,-0.2836784124374389,13.940596580505373,4.12890625,1,"['A1', 'F1', 'E2']",6.1,270,0.0,15.198799925143131,[5500|0|0]
55,5500,0.37831911444664,0.4750032424926758,-1.068404197692871,-62.32246017456055,-0.1448359191417694,16.91562271118164,4.12890625,1,"['A1', 'F1', 'E2']",6.1,270,0.0,15.736355618893269,[5600|0|0]
56,5600,0.1318486183881759,0.7734566926956177,-1.534037470817566,-63.28835678100586,-0.6763089895248413,19.295297622680664,4.12890625,1,"['A1', 'F1', 'E2']",6.1,270,0.0,16.34186079013969,[5700|0|0]
57,5700,-0.1323068141937255,1.0916168689727783,-2.039710760116577,-64.11253356933594,-1.4834985733032229,21.050615310668945,4.12890625,1,"['A1', 'F1', 'E2']",6.1,270,0.0,16.995090815354185,[5800|0|0]
58,5800,-0.431455910205841,1.4387098550796509,-2.5969841480255127,-64.76182556152344,-2.302060127258301,22.64486694335937,4.12890625,1,"['A1', 'F1', 'E2']",6.1,270,0.0,17.716559700006155,[5900|0|0]
59,5900,0.8819498419761658,-0.2029289007186889,-0.0995584353804588,-49.756980895996094,0.3385144770145416,19.487443923950195,4.12890625,1,"['A1', 'F1', 'E2']",6.1,270,0.0,20.981088404824742,[6000|0|0]
60,6000,0.8232091665267944,-0.1067827567458152,-0.197274848818779,-53.45737075805664,-1.0658003091812134,21.182477951049805,4.12890625,1,"['A1', 'F1', 'E2']",6.1,270,0.0,21.130229430060425,[6100|0|0]
61,6100,0.6970929503440857,0.0635759085416793,-0.4366726577281952,-53.65006256103516,0.2762513756752014,22.310789108276367,4.12890625,1,"['A1', 'F1', 'E2']",6.1,270,0.0,21.44997727717344,[6200|0|0]
62,6200,0.5381597876548767,0.2629706859588623,-0.7380974292755127,-54.30646133422852,0.2074575275182724,24.395374298095703,4.12890625,1,"['A1', 'F1', 'E2']",6.1,270,0.0,21.844787257247397,[6300|0|0]
63,6300,0.3532843887805938,0.4913085401058197,-1.0911871194839478,-55.273345947265625,-1.4457932710647583,26.494873046875,4.12890625,1,"['A1', 'F1', 'E2']",6.1,270,0.0,22.304123101784757,[6400|0|0]
64,6400,0.1561061143875122,0.7316479682922363,-1.4707499742507937,-55.92013931274414,-3.411463975906372,28.175521850585938,4.12890625,1,"['A1', 'F1', 'E2']",6.1,270,0.0,22.79474543449329,[6500|0|0]
65,6500,-0.0417726933956146,0.9725242853164672,-1.853081226348877,-55.88313293457031,-5.140686988830566,29.399076461791992,4.12890625,1,"['A1', 'F1', 'E2']",6.1,270,0.0,23.288055285402145,[6600|0|0]
66,6600,-0.2775066494941711,1.2384237051010132,-2.281381368637085,-55.8580207824707,-6.508382320404053,31.05584144592285,4.12890625,1,"['A1', 'F1', 'E2']",6.1,270,0.0,23.84457483706564,[6700|0|0]
67,6700,0.9301766157150269,-0.2544587552547455,-0.1567780524492263,-24.804277420043945,-1.606154441833496,29.10581398010254,4.12890625,1,"['A1', 'F1', 'E2']",6.1,270,0.0,26.708337425106176,[6800|0|0]
68,6800,0.7960003018379211,-0.0856717973947525,-0.2477089911699295,-35.31465148925781,1.874348521232605,23.294727325439453,4.12890625,1,"['A1', 'F1', 'E2']",6.1,270,0.0,26.94234758720583,[6900|0|0]
69,6900,0.670672595500946,0.085839532315731,-0.47969451546669,-35.8084602355957,5.572041034698486,18.816659927368164,4.12890625,1,"['A1', 'F1', 'E2']",6.1,270,0.0,27.25689560210656,[7000|0|0]
70,7000,0.5201559066772461,0.2832938432693481,-0.7683774828910828,-35.382930755615234,9.461478233337402,15.605730056762695,4.12890625,1,"['A1', 'F1', 'E2']",6.1,270,0.0,27.637659747227357,[7100|0|0]
71,7100,0.3566136360168457,0.4898819327354431,-1.0860742330551147,-34.540157318115234,13.049535751342772,13.192699432373049,4.12890625,1,"['A1', 'F1', 'E2']",6.1,270,0.0,28.050401722396828,[7200|0|0]
72,7200,0.1917533874511718,0.6910752654075623,-1.4039708375930786,-32.9450798034668,15.788440704345703,10.93028163909912,4.12890625,1,"['A1', 'F1', 'E2']",6.1,270,0.0,28.461152145215376,[7300|0|0]
73,7300,0.0377361476421356,0.8759536743164062,-1.698251247406006,-30.666025161743164,17.430068969726562,8.479897499084473,4.12890625,1,"['A1', 'F1', 'E2']",6.1,270,0.0,28.84128672117332,[7400|0|0]
74,7400,-0.1013809964060783,1.0367075204849243,-1.957291960716248,-27.957332611083984,18.057592391967773,6.043579578399658,4.12890625,1,"['A1', 'F1', 'E2']",6.1,270,0.0,29.17639486786388,[7500|0|0]
75,7500,-0.2405694872140884,1.1968997716903689,-2.2142040729522705,-25.57699012756348,18.000507354736328,3.742352724075317,4.12890625,1,"['A1', 'F1', 'E2']",6.1,270,0.0,29.509619756990205,[7600|0|0]
76,7600,0.966251790523529,-0.2910570502281189,-0.1322792172431945,-12.708836555480955,0.2837141454219818,-2.520099878311157,4.12890625,1,"['A1', 'F1', 'E2']",6.1,270,0.0,32.33890309471255,[7700|0|0]
77,7700,0.8977606892585754,-0.2121650278568267,-0.0419851876795291,-19.36758041381836,7.091573715209961,-1.458370804786682,4.12890625,1,"['A1', 'F1', 'E2']",6.1,270,0.0,32.47699000184412,[7800|0|0]
78,7800,0.8979593515396118,-0.2108791023492813,-0.0351956523954868,-18.14788627624512,6.943704605102539,-1.396649956703186,4.12890625,1,"['A1', 'F1', 'E2']",6.1,270,0.0,32.48390309525345,[7900|0|0]
79,7900,0.8980572819709778,-0.2100595086812973,-0.0317017957568168,-16.60405921936035,6.528782844543457,-1.4341264963150024,4.12890625,1,"['A1', 'F1', 'E2']",6.1,270,0.0,32.487493131236775,[8000|0|0]
80,8000,0.898388683795929,-0.2099684774875641,-0.0290624666959047,-15.001931190490724,6.014625549316406,-1.485107660293579,4.12890625,1,"['A1', 'F1', 'E2']",6.1,270,0.0,32.49015474197834,[8100|0|0]
81,8100,0.8983510732650757,-0.2103058397769928,-0.027289418503642,-13.43110466003418,5.482815742492676,-1.5483872890472412,4.12890625,1,"['A1', 'F1', 'E2']",6.1,270,0.0,32.491959992032605,[8200|0|0]
82,8200,0.8992275595664978,-0.211669236421585,-0.0256615877151489,-11.919288635253906,4.924723148345947,-1.5864514112472534,4.12890625,1,"['A1', 'F1', 'E2']",6.1,270,0.0,32.49425714499291,[8300|0|0]
83,8300,0.8995736241340637,-0.212725281715393,-0.0242168381810188,-10.467436790466309,4.372204303741455,-1.5828341245651243,4.12890625,1,"['A1', 'F1', 'E2']",6.1,270,0.0,32.496079860978426,[8400|0|0]
84,8400,0.9003779292106628,-0.2140942066907882,-0.0228994619101285,-9.146815299987791,3.844107866287232,-1.567833662033081,4.12890625,1,"['A1', 'F1', 'E2']",6.1,270,0.0,32.49814295149598,[8500|0|0]
85,8500,0.900989294052124,-0.2152141332626342,-0.0219548474997282,-7.925060272216797,3.359320163726806,-1.561567783355713,4.12890625,1,"['A1', 'F1', 'E2']",6.1,270,0.0,32.49973049641819,[8600|0|0]
86,8600,0.9018545746803284,-0.2169054001569748,-0.0211429186165332,-6.791818141937256,2.900630474090576,-1.5055656433105469,4.12890625,1,"['A1', 'F1', 'E2']",6.1,270,0.0,32.50179648837965,[8700|0|0]
87,8700,0.9026132225990297,-0.2180737853050232,-0.0195093527436256,-5.776843070983887,2.490084648132324,-1.4325770139694214,4.12890625,1,"['A1', 'F1', 'E2']",6.1,270,0.0,32.503943394986806,[8800|0|0]
88,8800,0.9032536149024964,-0.219010442495346,-0.018747616559267,-4.8717546463012695,2.122578859329224,-1.370064616203308,4.12890625,1,"['A1', 'F1', 'E2']",6.1,270,0.0,32.5053100225912,[8900|0|0]
89,8900,0.9040396213531494,-0.2206499278545379,-0.0179292280226945,-4.048390865325928,1.801114201545715,-1.3139662742614746,4.12890625,1,"['A1', 'F1', 'E2']",6.1,270,0.0,32.50730388271173,[9000|0|0]
90,9000,0.9043375253677368,-0.2217132747173309,-0.0173340886831283,-3.334949254989624,1.5234400033950806,-1.2633469104766846,4.12890625,1,"['A1', 'F1', 'E2']",6.1,270,0.0,32.508558332466016,[9100|0|0]
91,9100,0.9057475924491882,-0.2233376801013946,-0.0153712984174489,-2.881507158279419,1.2255536317825315,-1.1928328275680542,4.12890625,1,"['A1', 'F1', 'E2']",6.1,270,0.0,32.51147029531829,[9200|0|0]
92,9200,0.9056849479675292,-0.223985806107521,-0.0156221156939864,-2.345776319503784,1.0439453125,-1.1428321599960327,4.12890625,1,"['A1', 'F1', 'E2']",6.1,270,0.0,32.512168078205086,[9300|0|0]
93,9300,0.906053066253662,-0.2247018814086914,-0.014914808794856,-1.872459292411804,0.8919368386268616,-1.090387940406799,4.12890625,1,"['A1', 'F1', 'E2']",6.1,270,0.0,32.51323978616861,[9400|0|0]
94,9400,0.9061881303787231,-0.225365549325943,-0.0151616213843226,-1.4956152439117432,0.7643918395042419,-1.036182522773743,4.12890625,1,"['A1', 'F1', 'E2']",6.1,270,0.0,32.51396062864557,[9500|0|0]
95,9500,0.9064596891403198,-0.2257057726383209,-0.0147733390331268,-1.1920167207717896,0.6605085730552673,-0.996482789516449,4.12890625,1,"['A1', 'F1', 'E2']",6.1,270,0.0,32.51454394609562,[9600|0|0]
96,9600,0.9067549705505372,-0.2258230149745941,-0.0145893944427371,-0.9469406008720398,0.5670419931411743,-0.9618220925331116,4.12890625,1,"['A1', 'F1', 'E2']",6.1,270,0.0,32.51491105982319,[9700|0|0]
97,9700,0.9068523645401,-0.2262021601200103,-0.0146520342677831,-0.7343922853469849,0.4988184571266174,-0.9223920106887816,4.12890625,1,"['A1', 'F1', 'E2']",6.1,270,0.0,32.51530749440566,[9800|0|0]
98,9800,0.9070490598678588,-0.2269521355628967,-0.0140992812812328,-0.5513498187065125,0.4411298334598541,-0.9142791628837584,4.12890625,1,"['A1', 'F1', 'E2']",6.1,270,0.0,32.516259696107525,[9900|0|0]
99,9900,0.9070379734039308,-0.2267083525657653,-0.0140519896522164,-0.423552542924881,0.3946393728256225,-0.8781647086143494,4.12890625,1,"['A1', 'F1', 'E2']",6.1,270,0.0,32.51650827116168,[10000|0|0]
100,10000,0.9073320031166076,-0.2271853983402252,-0.0140032786875963,-0.31094890832901,0.3495883047580719,-0.8649693727493286,4.12890625,1,"['A1', 'F1', 'E2']",6.1,270,0.0,32.51707076462914,[10100|0|0]
101,10100,0.906889796257019,-0.2270944267511367,-0.0140086142346262,-0.235379159450531,0.327289342880249,-0.8503902554512024,4.12890625,1,"['A1', 'F1', 'E2']",6.1,270,0.0,32.517522263471605,[10200|0|0]
102,10200,0.9073151350021362,-0.2272031307220459,-0.0144259445369243,-0.1691263020038604,0.2860910296440124,-0.8331880569458008,4.12890625,1,"['A1', 'F1', 'E2']",6.1,270,0.0,32.51812798137839,[10300|0|0]
103,10300,0.9072056412696838,-0.2270496785640716,-0.0142136747017502,-0.1231906339526176,0.2661494016647339,-0.8103336691856384,4.12890625,1,"['A1', 'F1', 'E2']",6.1,270,0.0,32.5184118738319,[10400|0|0]
104,10400,0.9074655175209044,-0.2273966819047927,-0.013852990232408,-0.0768013894557952,0.2456423044204712,-0.8117533326148987,4.12890625,1,"['A1', 'F1', 'E2']",6.1,270,0.0,32.51897582442446,[10500|0|0]
105,10500,0.9073583483695984,-0.2276013493537902,-0.0138358557596802,-0.0400902070105075,0.2408894151449203,-0.8138200044631958,4.12890625,1,"['A1', 'F1', 'E2']",6.1,270,0.0,32.51920748707105,[10600|0|0]
106,10600,0.907268226146698,-0.2272947877645492,-0.0139168873429298,-0.020171383395791,0.2381087094545364,-0.7956238985061646,4.12890625,1,"['A1', 'F1', 'E2']",6.1,270,0.0,32.51953713558165,[10700|0|0]
107,10700,0.9075483083724976,-0.2275802493095398,-0.0135552939027547,-0.0032887135166674,0.213048055768013,-0.7963641881942749,4.12890625,1,"['A1', 'F1', 'E2']",6.1,270,0.0,32.520076286917416,[10800|0|0]
108,10800,0.9070863127708436,-0.2274812161922454,-0.0137929348275065,0.0018042245646938,0.2122476398944854,-0.7783104777336121,4.12890625,1,"['A1', 'F1', 'E2']",6.1,270,0.0,32.520605173203286,[10900|0|0]
109,10900,0.907235860824585,-0.2273653596639633,-0.0142436334863305,0.0097483489662408,0.2075756788253784,-0.7708244919776917,4.12890625,1,"['A1', 'F1', 'E2']",6.1,270,0.0,32.52109396419808,[11000|0|0]
110,11000,0.9075442552566528,-0.2276400476694107,-0.0137706054374575,0.0200760290026664,0.1931596994400024,-0.765414834022522,4.12890625,1,"['A1', 'F1', 'E2']",6.1,270,0.0,32.521721910183885,[11100|0|0]
111,11100,0.9075433611869812,-0.2280178368091583,-0.0139328716322779,0.0288563463836908,0.1955524682998657,-0.7875048518180847,4.12890625,1,"['A1', 'F1', 'E2']",6.1,270,0.0,32.52213307408241,[11200|0|0]
112,11200,0.9076022505760192,-0.2277518063783645,-0.0139027843251824,0.0208174791187047,0.2018529176712036,-0.7833245396614075,4.12890625,1,"['A1', 'F1', 'E2']",6.1,270,0.0,32.52240720068874,[11300|0|0]
113,11300,0.9076113104820251,-0.2277852445840835,-0.0137528739869594,0.0191335789859294,0.2004875391721725,-0.7972946166992188,4.12890625,1,"['A1', 'F1', 'E2']",6.1,270,0.0,32.52256106200618,[11400|0|0]
114,11400,0.9075599908828736,-0.2277164161205291,-0.0138666210696101,0.0157944820821285,0.1960295736789703,-0.7721790671348572,4.12890625,1,"['A1', 'F1', 'E2']",6.1,270,0.0,32.52270357326,[11500|0|0]
115,11500,0.90755033493042,-0.2275806218385696,-0.013586189597845,0.0114649794995784,0.1962744295597076,-0.7900657057762146,4.12890625,1,"['A1', 'F1', 'E2']",6.1,270,0.0,32.5230153025252,[11600|0|0]
116,11600,0.9077226519584656,-0.2277072221040725,-0.0136523572728037,0.0075026638805866,0.1924294084310531,-0.7786765098571777,4.12890625,1,"['A1', 'F1', 'E2']",6.1,270,0.0,32.5232391304649,[11700|0|0]
117,11700,0.9072243571281432,-0.2276097983121872,-0.0141638368368148,0.0021662239450961,0.2101866155862808,-0.776170015335083,4.12890625,1,"['A1', 'F1', 'E2']",6.1,270,0.0,32.523959824906086,[11800|0|0]
118,11800,0.9074507355690002,-0.2278600931167602,-0.0138468574732542,0.0034512563142925,0.2090105563402176,-0.7734368443489075,4.12890625,1,"['A1', 'F1', 'E2']",6.1,270,0.0,32.52442282663892,[11900|0|0]
119,11900,0.9075141549110411,-0.2274102866649627,-0.0140910139307379,-0.0125889293849468,0.208962395787239,-0.7888748049736023,4.12890625,1,"['A1', 'F1', 'E2']",6.1,270,0.0,32.52493853996312,[12000|0|0]
120,12000,0.9075399041175842,-0.2275242358446121,-0.0140845533460378,-0.009136701002717,0.210935890674591,-0.7840620279312134,4.12890625,1,"['A1', 'F1', 'E2']",6.1,270,0.0,32.525055540716686,[12100|0|0]
121,12100,0.9075668454170228,-0.2278587818145752,-0.0138310678303241,6.784404104109854e-05,0.2158824503421783,-0.7891468405723572,4.12890625,1,"['A1', 'F1', 'E2']",6.1,270,0.0,32.52547613760958,[12200|0|0]
122,12200,0.9073235988616944,-0.2277239561080932,-0.0139363408088684,-0.0071878042072057,0.2174527496099472,-0.7722949981689453,4.12890625,1,"['A1', 'F1', 'E2']",6.1,270,0.0,32.5257735081828,[12300|0|0]
123,12300,0.9075918197631836,-0.2275540083646774,-0.0139407385140657,0.0329396054148674,0.2369835376739502,-0.7808250188827515,4.12890625,1,"['A1', 'F1', 'E2']",6.1,270,0.0,32.52609106766904,[12400|0|0]
124,12400,0.9075355529785156,-0.2277929782867431,-0.0138199431821703,0.0730546489357948,0.2695981860160827,-0.7710503935813904,4.12890625,1,"['A1', 'F1', 'E2']",6.1,270,0.0,32.526364680693064,[12500|0|0]
125,12500,0.9072224497795104,-0.2276320457458496,-0.0138884605839848,0.093748889863491,0.3022390305995941,-0.7337496280670166,4.12890625,1,"['A1', 'F1', 'E2']",6.1,270,0.0,32.52672332749745,[12600|0|0]
126,12600,0.9073836207389832,-0.2275691330432891,-0.0143380304798483,0.1105250045657157,0.3100786805152893,-0.7523461580276489,4.12890625,1,"['A1', 'F1', 'E2']",6.1,270,0.0,32.52720504025168,[12700|0|0]
127,12700,0.9074284434318542,-0.2277215868234634,-0.0140623552724719,0.1248703151941299,0.3098731935024261,-0.753423273563385,4.12890625,1,"['A1', 'F1', 'E2']",6.1,270,0.0,32.52752323523726,[12800|0|0]
128,12800,0.907288372516632,-0.2278738021850586,-0.0137452576309442,0.1464730054140091,0.3255304992198944,-0.7726070284843445,4.12890625,1,"['A1', 'F1', 'E2']",6.1,270,0.0,32.52790183831683,[12900|0|0]
129,12900,0.9072783589363098,-0.227889135479927,-0.0141051737591624,0.1522734761238098,0.3320173025131225,-0.758560061454773,4.12890625,1,"['A1', 'F1', 'E2']",6.1,270,0.0,32.52826222006036,[13000|0|0]
130,13000,0.907985508441925,-0.2278273999691009,-0.0138716036453843,0.1540872901678085,0.3313062489032745,-0.7667698264122009,4.12890625,1,"['A1', 'F1', 'E2']",6.1,270,0.0,32.52900949958948,[13100|0|0]
131,13100,0.9081124663352966,-0.2279031127691269,-0.0140194734558463,0.1555438041687011,0.3235236704349518,-0.7491845488548279,4.12890625,1,"['A1', 'F1', 'E2']",6.1,270,0.0,32.52921858382041,[13200|0|0]
132,13200,0.90792316198349,-0.2278188019990921,-0.0137647707015275,0.1469319760799408,0.3200116753578186,-0.7507725954055786,4.12890625,1,"['A1', 'F1', 'E2']",6.1,270,0.0,32.52954694023745,[13300|0|0]
133,13300,0.9077371954917908,-0.2274279296398162,-0.0140714654698967,0.1343222111463546,0.3182993233203888,-0.7137477993965149,4.12890625,1,"['A1', 'F1', 'E2']",6.1,270,0.0,32.530077436625966,[13400|0|0]
134,13400,0.9081437587738036,-0.2277422249317169,-0.0141067104414105,0.1372444778680801,0.2991643249988556,-0.7219823002815247,4.12890625,1,"['A1', 'F1', 'E2']",6.1,270,0.0,32.530592526366505,[13500|0|0]
135,13500,0.9080233573913574,-0.2275570333003997,-0.0139309475198388,0.1263904124498367,0.290203183889389,-0.7433168292045593,4.12890625,1,"['A1', 'F1', 'E2']",6.1,270,0.0,32.530874811750124,[13600|0|0]
136,13600,0.9078027009963988,-0.2276022881269455,-0.0139252403751015,0.1294049322605133,0.2997690141201019,-0.7471978664398193,4.12890625,1,"['A1', 'F1', 'E2']",6.1,270,0.0,32.53110013333245,[13700|0|0]
137,13700,0.907790184020996,-0.2272128313779831,-0.0141076296567916,0.1243368759751319,0.3050454556941986,-0.7660577893257141,4.12890625,1,"['A1', 'F1', 'E2']",6.1,270,0.0,32.53153036476326,[13800|0|0]
138,13800,0.907934069633484,-0.2274995595216751,-0.0143228909000754,0.1233553811907768,0.2980135381221771,-0.7665075063705444,4.12890625,1,"['A1', 'F1', 'E2']",6.1,270,0.0,32.53191669816944,[13900|0|0]
139,13900,0.9078104496002196,-0.2274339348077774,-0.0137589536607265,0.1189933866262435,0.2961663007736206,-0.7568766474723816,4.12890625,1,"['A1', 'F1', 'E2']",6.1,270,0.0,32.53249774354256,[14000|0|0]
140,14000,0.9081106185913086,-0.2275822460651397,-0.0139328371733427,0.1226275265216827,0.2901909649372101,-0.7808664441108704,4.12890625,1,"['A1', 'F1', 'E2']",6.1,270,0.0,32.53287501417252,[14100|0|0]
141,14100,0.9078259468078612,-0.2277745455503463,-0.0140225812792778,0.1243552863597869,0.2971474826335907,-0.7947515845298767,4.12890625,1,"['A1', 'F1', 'E2']",6.1,270,0.0,32.533230079125524,[14200|0|0]
142,14200,0.908004641532898,-0.2276874333620071,-0.0140133406966924,0.1203502491116523,0.2937230169773102,-0.7884400486946106,4.12890625,1,"['A1', 'F1', 'E2']",6.1,270,0.0,32.53342909100075,[14300|0|0]
143,14300,0.9079988598823548,-0.2278318405151367,-0.0139987459406256,0.1222137957811355,0.2881324291229248,-0.8052188158035278,4.12890625,1,"['A1', 'F1', 'E2']",6.1,270,0.0,32.533574348910214,[14400|0|0]
144,14400,0.9080911874771118,-0.2277320176362991,-0.0140299499034881,0.1155741438269615,0.2905996143817901,-0.7915450930595398,4.12890625,1,"['A1', 'F1', 'E2']",6.1,270,0.0,32.533713857616725,[14500|0|0]
145,14500,0.9080889225006104,-0.2276425808668136,-0.0139985820278525,0.1113098412752151,0.2881422936916351,-0.7828227281570435,4.12890625,1,"['A1', 'F1', 'E2']",6.1,270,0.0,32.53380866272986,[14600|0|0]
146,14600,0.9079689979553224,-0.2276695370674133,-0.014113831333816,0.1023866534233093,0.2906355857849121,-0.7788109183311462,4.12890625,1,"['A1', 'F1', 'E2']",6.1,270,0.0,32.533977158830226,[14700|0|0]
147,14700,0.9078664183616638,-0.227630615234375,-0.0142455166205763,0.0910951942205429,0.2892027199268341,-0.7900508046150208,4.12890625,1,"['A1', 'F1', 'E2']",6.1,270,0.0,32.53414856039635,[14800|0|0]
148,14800,0.9077515602111816,-0.2274878025054931,-0.0142637295648455,0.092710368335247,0.2898008227348327,-0.7844740748405457,4.12890625,1,"['A1', 'F1', 'E2']",6.1,270,0.0,32.534332733091404,[14900|0|0]
149,14900,0.9078142642974854,-0.2275744676589965,-0.0140245165675878,0.09958066791296,0.2956357300281524,-0.7904296517372131,4.12890625,1,"['A1', 'F1', 'E2']",6.1,270,0.0,32.53459477413652,[15000|0|0]
150,15000,0.9077707529067992,-0.2273435592651367,-0.0141352219507098,0.1048067957162857,0.2972284257411957,-0.7770117521286011,4.12890625,1,"['A1', 'F1', 'E2']",6.1,270,0.0,32.534854519414296,[15100|0|0]
151,15100,0.9078308343887328,-0.2274866849184036,-0.0143231144174933,0.112234741449356,0.2998323440551758,-0.7694562077522278,4.12890625,1,"['A1', 'F1', 'E2']",6.1,270,0.0,32.53509823711199,[15200|0|0]
152,15200,0.9079154133796692,-0.2274757325649261,-0.0139856860041618,0.111868716776371,0.2989229559898376,-0.7636949419975281,4.12890625,1,"['A1', 'F1', 'E2']",6.1,270,0.0,32.53544627661245,[15300|0|0]
153,15300,0.907806932926178,-0.2276526242494583,-0.0139475474134087,0.1136375963687896,0.3017007112503052,-0.751291036605835,4.12890625,1,"['A1', 'F1', 'E2']",6.1,270,0.0,32.535657258196835,[15400|0|0]
154,15400,0.907995581626892,-0.2276940941810608,-0.0139982691034674,0.133790448307991,0.3102423846721649,-0.7389982342720032,4.12890625,1,"['A1', 'F1', 'E2']",6.1,270,0.0,32.53585695991779,[15500|0|0]
155,15500,0.907842457294464,-0.2274870425462722,-0.0139447366818785,0.0903465971350669,0.2879513502120971,-0.7584114074707031,4.12890625,1,"['A1', 'F1', 'E2']",6.1,270,0.0,32.5361199868381,[15600|0|0]
156,15600,0.9079843163490297,-0.2276721447706222,-0.0139400493353605,0.0663694441318512,0.2548627555370331,-0.7783610820770264,4.12890625,1,"['A1', 'F1', 'E2']",6.1,270,0.0,32.53635324376949,[15700|0|0]
157,15700,0.9078096747398376,-0.2276269048452377,-0.0141106145456433,0.0536597892642021,0.2462284713983535,-0.7680305242538452,4.12890625,1,"['A1', 'F1', 'E2']",6.1,270,0.0,32.53660151546234,[15800|0|0]
158,15800,0.907761812210083,-0.2273391634225845,-0.0140556106343865,0.0308732874691486,0.2383520305156707,-0.7871168255805969,4.12890625,1,"['A1', 'F1', 'E2']",6.1,270,0.0,32.536898351070576,[15900|0|0]
159,15900,0.9077639579772948,-0.2273971736431121,-0.0140469316393136,0.016095520928502,0.2319315671920776,-0.7633823752403259,4.12890625,1,"['A1', 'F1', 'E2']",6.1,270,0.0,32.536957046172226,[16000|0|0]
160,16000,0.913950264453888,-0.2173909395933151,-0.0104678180068731,-0.3069046437740326,-0.012001640163362,-0.7578568458557129,4.12890625,1,"['A1', 'F1', 'E2']",6.1,270,0.0,32.5492535969925,[16100|0|0]
161,16100,0.9138943552970886,-0.2173050642013549,-0.010231808759272,-0.3154506385326385,-0.0102410931140184,-0.7578752636909485,4.12890625,1,"['A1', 'F1', 'E2']",6.1,270,0.0,32.54951089211821,[16200|0|0]
162,16200,0.9140626788139344,-0.2176108956336975,-0.0107085835188627,-0.3057367503643036,-0.0120551781728863,-0.7509271502494812,4.12890625,1,"['A1', 'F1', 'E2']",6.1,270,0.0,32.55010180653055,[16300|0|0]
163,16300,0.9139768481254578,-0.21695576608181,-0.0107843745499849,-0.3179194331169128,-0.0027995076961815,-0.7619506120681763,4.12890625,1,"['A1', 'F1', 'E2']",6.1,270,0.0,32.5507668673678,[16400|0|0]
164,16400,0.9138612151145936,-0.2175853103399276,-0.0102542079985141,-0.2959811985492706,0.0026357974857091,-0.7666269540786743,4.12890625,1,"['A1', 'F1', 'E2']",6.1,270,0.0,32.551597995239085,[16500|0|0]
165,16500,0.9137733578681946,-0.2175703197717666,-0.0107942074537277,-0.2954291999340057,0.0088348779827356,-0.7727574706077576,4.12890625,1,"['A1', 'F1', 'E2']",6.1,270,0.0,32.55214530047797,[16600|0|0]
166,16600,0.9137039184570312,-0.2174458652734756,-0.0105570098385214,-0.295734167098999,0.0084681678563356,-0.7832574248313904,4.12890625,1,"['A1', 'F1', 'E2']",6.1,270,0.0,32.55242201958216,[16700|0|0]
167,16700,0.9135457277297974,-0.2170815765857696,-0.010884840041399,-0.2981340885162353,0.0130846826359629,-0.7747271060943604,4.12890625,1,"['A1', 'F1', 'E2']",6.1,270,0.0,32.55293699841288,[16800|0|0]
168,16800,0.9141130447387696,-0.217533066868782,-0.0106412265449762,-0.2845361530780792,-0.0036740833893418,-0.7762312293052673,4.12890625,1,"['A1', 'F1', 'E2']",6.1,270,0.0,32.553701877226786,[16900|0|0]
169,16900,0.9138971567153932,-0.2172614187002182,-0.0107645457610487,-0.2900140583515167,-0.0003708485164679,-0.7776089906692505,4.12890625,1,"['A1', 'F1', 'E2']",6.1,270,0.0,32.554070127135375,[17000|0|0]
170,17000,0.9142370223999025,-0.217228427529335,-0.0106881977990269,-0.2922819554805755,-0.0029987879097461,-0.7899929285049438,4.12890625,1,"['A1', 'F1', 'E2']",6.1,270,0.0,32.554420021565406,[17100|0|0]
171,17100,0.913933515548706,-0.2171940952539444,-0.0102623412385582,-0.2894522547721863,0.0042080325074493,-0.7960413694381714,4.12890625,1,"['A1', 'F1', 'E2']",6.1,270,0.0,32.55494409114471,[17200|0|0]
172,17200,0.9143518209457396,-0.2173174321651458,-0.01021309196949,-0.294690877199173,-0.0089872255921363,-0.8017836213111877,4.12890625,1,"['A1', 'F1', 'E2']",6.1,270,0.0,32.55538297255165,[17300|0|0]
173,17300,0.9142301082611084,-0.2173030376434326,-0.0104149049147963,-0.2902672588825226,0.002421868732199,-0.8213112354278564,4.12890625,1,"['A1', 'F1', 'E2']",6.1,270,0.0,32.555619086178424,[17400|0|0]
174,17400,0.913856327533722,-0.2175300866365432,-0.0103319371119141,-0.2822959125041961,0.0139214573428034,-0.8147739171981812,4.12890625,1,"['A1', 'F1', 'E2']",6.1,270,0.0,32.55606422316156,[17500|0|0]
175,17500,0.9140506982803344,-0.2172349691390991,-0.0107116559520363,-0.2917287349700928,0.0090841148048639,-0.79056316614151,4.12890625,1,"['A1', 'F1', 'E2']",6.1,270,0.0,32.5565829337957,[17600|0|0]
176,17601,0.913845717906952,-0.2169812321662902,-0.0107170613482594,-0.2948994636535644,0.0174858924001455,-0.7788655161857605,4.12890625,1,"['A1', 'F1', 'E2']",6.1,270,0.0,32.556909167796306,[17700|0|0]
177,17701,0.9139783382415771,-0.217738002538681,-0.010951017960906,-0.2897811532020569,0.0080656372010707,-0.7827721238136292,4.12890625,1,"['A1', 'F1', 'E2']",6.1,270,0.0,32.55771230243401,[17800|0|0]
178,17801,0.913906991481781,-0.217784583568573,-0.0108702555298805,-0.2822273075580597,0.0078187342733144,-0.7782722115516663,4.12890625,1,"['A1', 'F1', 'E2']",6.1,270,0.0,32.55782970227534,[17900|0|0]
179,17902,0.9141889214515686,-0.2177879065275192,-0.0104294996708631,-0.282986968755722,-0.0055868299677968,-0.7957804203033447,4.12890625,1,"['A1', 'F1', 'E2']",6.1,270,0.0,32.55835292429053,[18000|0|0]
180,18002,0.914240062236786,-0.2176756113767624,-0.0104175172746181,-0.2830223441123962,-0.0166670475155115,-0.7685645818710327,4.12890625,1,"['A1', 'F1', 'E2']",6.1,270,0.0,32.55847689670124,[18100|0|0]
181,18102,0.9140884280204772,-0.2175524532794952,-0.0106098875403404,-0.2860688269138336,-0.0081097176298499,-0.7877529263496399,4.12890625,1,"['A1', 'F1', 'E2']",6.1,270,0.0,32.558751063022314,[18200|0|0]
182,18202,0.9140387773513794,-0.2176329344511032,-0.0105285812169313,-0.2852388024330139,-0.0069519910030066,-0.7882082462310791,4.12890625,1,"['A1', 'F1', 'E2']",6.1,270,0.0,32.558875775195546,[18300|0|0]
183,18302,0.9141722917556764,-0.2175555676221847,-0.0107531417161226,-0.2841582298278808,-0.0155671145766973,-0.798811137676239,4.12890625,1,"['A1', 'F1', 'E2']",6.1,270,0.0,32.55914824379955,[18400|0|0]
184,18402,0.914046049118042,-0.2176552414894104,-0.0107962964102625,-0.2850899696350097,-0.0118748098611831,-0.7818586230278015,4.12890625,1,"['A1', 'F1', 'E2']",6.1,270,0.0,32.559314780315034,[18500|0|0]
185,18502,0.9143550992012024,-0.2178369313478469,-0.0107996547594666,-0.2862192988395691,-0.0215131845325231,-0.789941668510437,4.12890625,1,"['A1', 'F1', 'E2']",6.1,270,0.0,32.55967329731194,[18600|0|0]
186,18602,0.914560317993164,-0.2177178114652633,-0.010476104915142,-0.2946600615978241,-0.0251719579100608,-0.7834201455116272,4.12890625,1,"['A1', 'F1', 'E2']",6.1,270,0.0,32.56007453140915,[18700|0|0]
187,18702,0.9146126508712769,-0.2180538028478622,-0.0106182154268026,-0.2907461524009704,-0.0202459134161472,-0.8000322580337524,4.12890625,1,"['A1', 'F1', 'E2']",6.1,270,0.0,32.56044307494367,[18800|0|0]
188,18802,0.9144386053085328,-0.2175300419330597,-0.0109054148197174,-0.3061555624008178,-0.0099833002313971,-0.7879539728164673,4.12890625,1,"['A1', 'F1', 'E2']",6.1,270,0.0,32.561065249232016,[18900|0|0]
189,18902,0.9142716526985168,-0.2176204621791839,-0.0105570992454886,-0.296796441078186,-0.0047145155258476,-0.7635420560836792,4.12890625,1,"['A1', 'F1', 'E2']",6.1,270,0.0,32.561461951556375,[19000|0|0]
190,19000,0.9143139123916626,-0.2174825221300125,-0.0110039142891764,-0.3002208471298218,-0.0051715006120502,-0.7571153044700623,4.12890625,1,"['A1', 'F1', 'E2']",6.1,270,0.0,32.5619314800668,[19100|0|0]
191,19100,0.9142299890518188,-0.2172778099775314,-0.0108666494488716,-0.3039753437042236,0.0046437927521765,-0.7748746871948242,4.12890625,1,"['A1', 'F1', 'E2']",6.1,270,0.0,32.56219184870686,[19200|0|0]
192,19200,0.9141378998756408,-0.2179055362939834,-0.0108957039192318,-0.2796842753887176,0.0127119030803442,-0.7734436988830566,4.12890625,1,"['A1', 'F1', 'E2']",6.1,270,0.0,32.562826958860285,[19300|0|0]
193,19300,0.9141682982444764,-0.217682883143425,-0.0106433378532528,-0.2810437083244324,0.0067595480941236,-0.7671698331832886,4.12890625,1,"['A1', 'F1', 'E2']",6.1,270,0.0,32.56316487470416,[19400|0|0]
194,19400,0.9144237041473388,-0.2175558507442474,-0.0106507204473018,-0.2844119369983673,0.0075197909027338,-0.7645177841186523,4.12890625,1,"['A1', 'F1', 'E2']",6.1,270,0.0,32.563450223452804,[19500|0|0]
195,19500,0.9143881797790528,-0.2175575196743011,-0.0104035967960953,-0.2782769799232483,0.0075752665288746,-0.7579690217971802,4.12890625,1,"['A1', 'F1', 'E2']",6.1,270,0.0,32.56369989296447,[19600|0|0]
196,19600,0.913921594619751,-0.2176257967948913,-0.010795515961945,-0.2700958549976349,0.0173295997083187,-0.7714419364929199,4.12890625,1,"['A1', 'F1', 'E2']",6.1,270,0.0,32.56431305208626,[19700|0|0]
197,19700,0.9142687320709229,-0.2173276841640472,-0.0109315840527415,-0.2790322601795196,0.0126946410164237,-0.7840200066566467,4.12890625,1,"['A1', 'F1', 'E2']",6.1,270,0.0,32.564790430422605,[19800|0|0]
198,19800,0.9143903255462646,-0.2174813896417617,-0.0105821788311004,-0.2674565315246582,0.0185972340404987,-0.7646142244338989,4.12890625,1,"['A1', 'F1', 'E2']",6.1,270,0.0,32.56519104789106,[19900|0|0]
199,19900,0.9139785170555116,-0.2173861265182495,-0.0107862865552306,-0.2662463188171386,0.0280419830232858,-0.7487896680831909,4.12890625,1,"['A1', 'F1', 'E2']",6.1,270,0.0,32.56566043180516,[20000|0|0]
200,20000,0.9139026999473572,-0.217742845416069,-0.0107193458825349,-0.2597831785678863,0.0244693011045455,-0.7612399458885193,4.12890625,1,"['A1', 'F1', 'E2']",6.1,270,0.0,32.56603121160451,[20100|0|0]
201,20100,0.9141340851783752,-0.217923030257225,-0.0108676562085747,-0.2518178522586822,0.0198017302900552,-0.7799737453460693,4.12890625,1,"['A1', 'F1', 'E2']",6.1,270,0.0,32.56635984765689,[20200|0|0]
202,20200,0.9143018126487732,-0.2176628708839416,-0.0108113642781972,-0.2629920244216919,0.0135824661701917,-0.7842209935188293,4.12890625,1,"['A1', 'F1', 'E2']",6.1,270,0.0,32.56667446517906,[20300|0|0]
203,20300,0.9142599701881408,-0.2175375521183014,-0.0109540000557899,-0.2682585418224334,0.0192358288913965,-0.7912611365318298,4.12890625,1,"['A1', 'F1', 'E2']",6.1,270,0.0,32.56686888881338,[20400|0|0]
204,20400,0.914372742176056,-0.2176444083452224,-0.0106517169624567,-0.2797285914421081,0.00389493862167,-0.7729623317718506,4.12890625,1,"['A1', 'F1', 'E2']",6.1,270,0.0,32.56720875767486,[20500|0|0]
205,20500,0.914601981639862,-0.2175899893045425,-0.0105126900598406,-0.2794449031352997,0.0018215422751381,-0.7643952369689941,4.12890625,1,"['A1', 'F1', 'E2']",6.1,270,0.0,32.5674823278549,[20600|0|0]
206,20600,0.9145097732543944,-0.217693880200386,-0.0106053035706281,-0.2736911177635193,0.0087143164128065,-0.7604545950889587,4.12890625,1,"['A1', 'F1', 'E2']",6.1,270,0.0,32.567649279844915,[20700|0|0]
207,20700,0.9144137501716614,-0.217462882399559,-0.0109446514397859,-0.2819193601608276,0.0123797003179788,-0.7693509459495544,4.12890625,1,"['A1', 'F1', 'E2']",6.1,270,0.0,32.56807086897275,[20800|0|0]
208,20800,0.9140022993087769,-0.2176449298858642,-0.011052225716412,-0.2741433680057525,0.0288491360843181,-0.783368706703186,4.12890625,1,"['A1', 'F1', 'E2']",6.1,270,0.0,32.568533476068275,[20900|0|0]
209,20900,0.9142762422561646,-0.2175622433423996,-0.0110942246392369,-0.2725258767604828,0.0257821921259164,-0.7474557161331177,4.12890625,1,"['A1', 'F1', 'E2']",6.1,270,0.0,32.56882269175321,[21000|0|0]
210,21000,0.914252758026123,-0.2176130264997482,-0.0106285912916064,-0.2785528004169464,0.0182228423655033,-0.7599829435348511,4.12890625,1,"['A1', 'F1', 'E2']",6.1,270,0.0,32.569291674538135,[21100|0|0]
211,21100,0.9145199060440063,-0.2177788317203521,-0.0106601240113377,-0.2800437808036804,0.0049643274396657,-0.7578055262565613,4.12890625,1,"['A1', 'F1', 'E2']",6.1,270,0.0,32.569607670973326,[21200|0|0]
212,21200,0.9139532446861268,-0.2180653065443039,-0.0104627525433897,-0.2762750685214996,0.0152771966531872,-0.7665247321128845,4.12890625,1,"['A1', 'F1', 'E2']",6.1,270,0.0,32.57027259834953,[21300|0|0]
213,21300,0.91375732421875,-0.2180889099836349,-0.0109696742147207,-0.1158036217093467,0.1243821904063224,-0.756274938583374,4.12890625,1,"['A1', 'F1', 'E2']",6.1,270,0.0,32.57081657586079,[21400|0|0]
214,21400,0.9141887426376344,-0.2179953008890152,-0.0109505392611026,-0.144778162240982,0.0982293263077735,-0.7574918270111084,4.12890625,1,"['A1', 'F1', 'E2']",6.1,270,0.0,32.571258447630875,[21500|0|0]
215,21500,0.9139015674591064,-0.2181385457515716,-0.0106789059937,-0.1704071760177612,0.0873212367296218,-0.7615503072738647,4.12890625,1,"['A1', 'F1', 'E2']",6.1,270,0.0,32.57167889180764,[21600|0|0]
216,21600,0.9139297604560852,-0.2177841663360595,-0.0110044907778501,-0.1961035728454589,0.0736698806285858,-0.7707687616348267,4.12890625,1,"['A1', 'F1', 'E2']",6.1,270,0.0,32.57216095515087,[21700|0|0]
217,21700,0.9141075015068054,-0.2179484367370605,-0.0106654129922389,-0.2026779949665069,0.0590755827724933,-0.7810264229774475,4.12890625,1,"['A1', 'F1', 'E2']",6.1,270,0.0,32.57257754894637,[21800|0|0]
218,21800,0.9139889478683472,-0.2177257239818573,-0.010910827666521,-0.2177531123161316,0.0545291192829608,-0.7462565302848816,4.12890625,1,"['A1', 'F1', 'E2']",6.1,270,0.0,32.572929520960706,[21900|0|0]
219,21900,0.9139580726623536,-0.2182933241128921,-0.0107358368113636,-0.2048933506011963,0.0591887608170509,-0.7541053295135498,4.12109375,1,"['A1', 'F1', 'E2']",6.1,270,0.0,32.573524285608684,[22000|0|0]
220,22000,0.913771390914917,-0.21784308552742,-0.0110644213855266,-0.2232711762189865,0.0540631152689456,-0.7656736969947815,4.12890625,1,"['A1', 'F1', 'E2']",6.1,270,0.0,32.57411210588823,[22100|0|0]
221,22100,0.9139993786811828,-0.21800297498703,-0.011097103357315,-0.220294639468193,0.0540679357945919,-0.751875638961792,4.12890625,1,"['A1', 'F1', 'E2']",6.1,270,0.0,32.57439248272776,[22200|0|0]
222,22200,0.9142091870307922,-0.2177634090185165,-0.0111090373247861,-0.2298056483268737,0.0484476275742054,-0.7609738111495972,4.12890625,1,"['A1', 'F1', 'E2']",6.1,270,0.0,32.57471115782314,[22300|0|0]
223,22300,0.914172887802124,-0.2177033871412277,-0.0108449338003993,-0.2285794764757156,0.0492293164134025,-0.7766335010528564,4.12890625,1,"['A1', 'F1', 'E2']",6.1,270,0.0,32.57498441764702,[22400|0|0]
224,22400,0.9141431450843812,-0.2176145911216735,-0.0106638120487332,-0.2291412502527237,0.0517281033098697,-0.7692577242851257,4.12890625,1,"['A1', 'F1', 'E2']",6.1,270,0.0,32.57518831578648,[22500|0|0]
225,22500,0.9141421914100648,-0.2180111408233642,-0.0109189916402101,-0.2186405807733535,0.0564849004149436,-0.7530356049537659,4.12890625,1,"['A1', 'F1', 'E2']",6.1,270,0.0,32.57565987617424,[22600|0|0]
226,22600,0.91419517993927,-0.2177172750234604,-0.0110491570085287,-0.2249412536621093,0.0579338818788528,-0.7686871886253357,4.12890625,1,"['A1', 'F1', 'E2']",6.1,270,0.0,32.57598561827421,[22700|0|0]
227,22700,0.9143477082252502,-0.217826634645462,-0.0104395980015397,-0.215727612376213,0.0564145259559154,-0.7736380100250244,4.12890625,1,"['A1', 'F1', 'E2']",6.1,270,0.0,32.576623416508724,[22800|0|0]
228,22800,0.9142100214958192,-0.2182886153459549,-0.0110106449574232,-0.1925761252641677,0.061714831739664,-0.7613810896873474,4.12890625,1,"['A1', 'F1', 'E2']",6.1,270,0.0,32.57737073065211,[22900|0|0]
229,22900,0.9139031767845154,-0.2177188843488693,-0.0108934855088591,-0.2072702646255493,0.0730997249484062,-0.7498103976249695,4.12890625,1,"['A1', 'F1', 'E2']",6.1,270,0.0,32.57802835776704,[23000|0|0]
230,23000,0.9138541221618652,-0.2177137285470962,-0.0110645657405257,-0.2060779929161071,0.0687964931130409,-0.7724542021751404,4.12890625,1,"['A1', 'F1', 'E2']",6.1,270,0.0,32.5782064065917,[23100|0|0]
231,23100,0.9141685366630554,-0.2180016487836837,-0.0110870404168963,-0.1952919661998748,0.0571486577391624,-0.7702987790107727,4.12890625,1,"['A1', 'F1', 'E2']",6.1,270,0.0,32.578633325380544,[23200|0|0]
232,23200,0.9142600893974304,-0.2180374711751938,-0.0106881828978657,-0.1958656758069992,0.0629259943962097,-0.7626904249191284,4.12890625,1,"['A1', 'F1', 'E2']",6.1,270,0.0,32.57904412030187,[23300|0|0]
233,23300,0.913906753063202,-0.2178095430135727,-0.0112583367154002,-0.1955337971448898,0.0768878608942031,-0.7505757808685303,4.12890625,1,"['A1', 'F1', 'E2']",6.1,270,0.0,32.57975255038847,[23400|0|0]
234,23400,0.9139938950538636,-0.2179647088050842,-0.0110981902107596,-0.1937378793954849,0.0681563392281532,-0.7510461807250977,4.12890625,1,"['A1', 'F1', 'E2']",6.1,270,0.0,32.57999196018848,[23500|0|0]
235,23500,0.9136865139007568,-0.2178984731435775,-0.0110361585393548,-0.1951258182525634,0.0707289949059486,-0.743061363697052,4.12890625,1,"['A1', 'F1', 'E2']",6.1,270,0.0,32.5803124570908,[23600|0|0]
236,23600,0.9139102697372437,-0.2180174142122268,-0.0111700240522623,-0.193673625588417,0.0651680901646614,-0.750527024269104,4.12890625,1,"['A1', 'F1', 'E2']",6.1,270,0.0,32.580599046741206,[23700|0|0]
237,23700,0.9141364693641664,-0.2180916517972946,-0.0107336826622486,-0.1978626698255539,0.053445428609848,-0.7556352615356445,4.12890625,1,"['A1', 'F1', 'E2']",6.1,270,0.0,32.5810961094122,[23800|0|0]
238,23800,0.9142382740974426,-0.2178071737289428,-0.0111169181764125,-0.2022482454776764,0.0587463788688182,-0.7695791721343994,4.12890625,1,"['A1', 'F1', 'E2']",6.1,270,0.0,32.58158412727499,[23900|0|0]
239,23900,0.914076566696167,-0.2180251479148864,-0.0109800472855567,-0.1992334127426147,0.0683009400963783,-0.773685872554779,4.12890625,1,"['A1', 'F1', 'E2']",6.1,270,0.0,32.581888093835865,[24000|0|0]
240,24000,0.913848876953125,-0.2179433703422546,-0.0108433365821838,-0.19739530980587,0.0751186981797218,-0.7717746496200562,4.12109375,1,"['A1', 'F1', 'E2']",6.1,270,0.0,32.5821659787165,[24100|0|0]
241,24100,0.9142170548439026,-0.2183527052402496,-0.0109352711588144,-0.2016851156949997,0.0673097968101501,-0.7839325070381165,4.12890625,1,"['A1', 'F1', 'E2']",6.1,270,0.0,32.58272415609365,[24200|0|0]
242,24200,0.9147175550460817,-0.2181528806686401,-0.0109232189133763,-0.200209692120552,0.0560288988053798,-0.7935294508934021,4.12890625,1,"['A1', 'F1', 'E2']",6.1,270,0.0,32.58326320671133,[24300|0|0]
243,24300,0.9146912097930908,-0.218145877122879,-0.0110277058556675,-0.1883342415094375,0.0622334666550159,-0.7955516576766968,4.12890625,1,"['A1', 'F1', 'E2']",6.1,270,0.0,32.58337119116909,[24400|0|0]
244,24400,0.9147000908851624,-0.2182943373918533,-0.0107935769483447,-0.1855706870555877,0.0699359029531478,-0.7928996086120605,4.12890625,1,"['A1', 'F1', 'E2']",6.1,270,0.0,32.583648563969675,[24500|0|0]
245,24500,0.914325714111328,-0.2183296084403991,-0.0110644083470106,-0.1809851825237274,0.0809513479471206,-0.7794646620750427,4.12890625,1,"['A1', 'F1', 'E2']",6.1,270,0.0,32.58411197702749,[24600|0|0]
246,24600,0.9144423604011536,-0.2182383686304092,-0.0111275194212794,-0.1821550279855728,0.0864637270569801,-0.7946155667304993,4.12890625,1,"['A1', 'F1', 'E2']",6.1,270,0.0,32.58427295549671,[24700|0|0]
247,24700,0.9147149920463562,-0.218380331993103,-0.0111371707171201,-0.1743251085281372,0.0720845907926559,-0.7697545289993286,4.12890625,1,"['A1', 'F1', 'E2']",6.1,270,0.0,32.58458048558926,[24800|0|0]
248,24800,0.9143863320350648,-0.2181341350078582,-0.0108983777463436,-0.1880566179752349,0.0766969919204711,-0.7674052715301514,4.12890625,1,"['A1', 'F1', 'E2']",6.1,270,0.0,32.58505551447412,[24900|0|0]
249,24900,0.9143220782279968,-0.2179552763700485,-0.0111228255555033,-0.1929698586463928,0.0822595134377479,-0.7672761678695679,4.12109375,1,"['A1', 'F1', 'E2']",6.1,270,0.0,32.58534961612845,[25000|0|0]
250,25000,0.9142409563064576,-0.2179804444313049,-0.0111567340791225,-0.1953640133142471,0.08047716319561,-0.762294352054596,4.12890625,1,"['A1', 'F1', 'E2']",6.1,270,0.0,32.585441070955746,[25100|0|0]
251,25100,0.9145829677581788,-0.2183688580989837,-0.0108772460371255,-0.1876962482929229,0.0754460468888282,-0.7678570747375488,4.12890625,1,"['A1', 'F1', 'E2']",6.1,270,0.0,32.58602924658935,[25200|0|0]
252,25200,0.9144240617752076,-0.2182542234659195,-0.0110038584098219,-0.189772292971611,0.0765575990080833,-0.7831838130950928,4.12890625,1,"['A1', 'F1', 'E2']",6.1,270,0.0,32.58626253375882,[25300|0|0]
253,25300,0.9145013093948364,-0.2181388884782791,-0.0110591137781739,-0.1916947066783905,0.0703349560499191,-0.7617477178573608,4.12890625,1,"['A1', 'F1', 'E2']",6.1,270,0.0,32.586411940953575,[25400|0|0]
254,25400,0.9147467017173768,-0.2181271165609359,-0.0111015746369957,-0.1922736912965774,0.0688552632927894,-0.7568472027778625,4.12890625,1,"['A1', 'F1', 'E2']",6.1,270,0.0,32.58666125780927,[25500|0|0]
255,25500,0.91439950466156,-0.2181976437568664,-0.0107740070670843,-0.1944723576307296,0.0730189904570579,-0.7599950432777405,4.12890625,1,"['A1', 'F1', 'E2']",6.1,270,0.0,32.58714377246582,[25600|0|0]
256,25600,0.9144673943519592,-0.2182405591011047,-0.0112197771668434,-0.1912174224853515,0.0691281855106353,-0.7573027610778809,4.12109375,1,"['A1', 'F1', 'E2']",6.1,270,0.0,32.58759672027592,[25700|0|0]
257,25700,0.9146689176559448,-0.218067780137062,-0.010798679664731,-0.1946645081043243,0.057820688933134,-0.7436986565589905,4.12890625,1,"['A1', 'F1', 'E2']",6.1,270,0.0,32.588094502676924,[25800|0|0]
258,25800,0.9143632650375366,-0.2179770022630691,-0.0114987716078758,-0.1940381377935409,0.0666313022375106,-0.7675215005874634,4.12890625,1,"['A1', 'F1', 'E2']",6.1,270,0.0,32.58886378342828,[25900|0|0]
259,25900,0.9141810536384584,-0.2181369960308075,-0.0112883513793349,-0.1873367726802826,0.0669535174965858,-0.7728111147880554,4.12890625,1,"['A1', 'F1', 'E2']",6.1,270,0.0,32.58918483743035,[26000|0|0]
260,26000,0.9143636226654052,-0.2183145582675933,-0.0110349915921688,-0.1805211156606674,0.0602370947599411,-0.775503933429718,4.12890625,1,"['A1', 'F1', 'E2']",6.1,270,0.0,32.589544074092295,[26100|0|0]
261,26100,0.9145450592041016,-0.2182453721761703,-0.0112321069464087,-0.1831284314393997,0.0591121353209018,-0.7947238683700562,4.12890625,1,"['A1', 'F1', 'E2']",6.1,270,0.0,32.589820769585025,[26200|0|0]
262,26200,0.9141244888305664,-0.2180904000997543,-0.0111288875341415,-0.1855872869491577,0.0724158659577369,-0.776841938495636,4.12109375,1,"['A1', 'F1', 'E2']",6.1,270,0.0,32.59028071526729,[26300|0|0]
263,26300,0.9146345257759094,-0.2185055017471313,-0.011067071929574,-0.1786961257457733,0.0619096904993057,-0.7736622095108032,4.12890625,1,"['A1', 'F1', 'E2']",6.1,270,0.0,32.59094122130983,[26400|0|0]
264,26400,0.9143077731132508,-0.217987522482872,-0.0107572246342897,-0.1926678270101547,0.0680208504199981,-0.7915416955947876,4.12890625,1,"['A1', 'F1', 'E2']",6.1,270,0.0,32.59162757046817,[26500|0|0]
265,26500,0.9144789576530457,-0.2181896865367889,-0.0108026480302214,-0.1951335817575454,0.0534420199692249,-0.786197304725647,4.12890625,1,"['A1', 'F1', 'E2']",6.1,270,0.0,32.591896341255755,[26600|0|0]
266,26600,0.9147174954414368,-0.2182413041591644,-0.0108412159606814,-0.1887717694044113,0.0460420176386833,-0.7951971888542175,4.12890625,1,"['A1', 'F1', 'E2']",6.1,270,0.0,32.592143428569656,[26700|0|0]
267,26700,0.9146277904510498,-0.2183781564235687,-0.0110451942309737,-0.1837929785251617,0.0484272576868534,-0.797457218170166,4.12890625,1,"['A1', 'F1', 'E2']",6.1,270,0.0,32.59240492935804,[26800|0|0]
268,26800,0.914484977722168,-0.2179461568593979,-0.0109701817855238,-0.1913007348775863,0.0566909275949001,-0.7691664099693298,4.12109375,1,"['A1', 'F1', 'E2']",6.1,270,0.0,32.59286606487603,[26900|0|0]
269,26900,0.9146942496299744,-0.2182236909866333,-0.0110155642032623,-0.1869242787361145,0.0495137795805931,-0.7564387917518616,4.12890625,1,"['A1', 'F1', 'E2']",6.1,270,0.0,32.59321660658113,[27000|0|0]
270,27000,0.9145587682724,-0.2182179093360901,-0.0108117731288075,-0.1952681541442871,0.0419312678277492,-0.7705628275871277,4.12890625,1,"['A1', 'F1', 'E2']",6.1,270,0.0,32.59346139103276,[27100|0|0]
271,27100,0.9142999649047852,-0.2179247289896011,-0.0107426159083843,-0.203095331788063,0.0583036243915557,-0.7677176594734192,4.12109375,1,"['A1', 'F1', 'E2']",6.1,270,0.0,32.59385852655093,[27200|0|0]
272,27200,0.9147769808769226,-0.2181727141141891,-0.0107912821695208,-0.1948710680007934,0.0401152335107326,-0.7807899713516235,4.12890625,1,"['A1', 'F1', 'E2']",6.1,270,0.0,32.59439834991525,[27300|0|0]
273,27300,0.9143199324607848,-0.2181849032640457,-0.0112070869654417,-0.1939214468002319,0.0526156350970268,-0.7797172665596008,4.12890625,1,"['A1', 'F1', 'E2']",6.1,270,0.0,32.59501635918571,[27400|0|0]
274,27400,0.914056956768036,-0.2182600647211074,-0.011205400340259,-0.189024731516838,0.062680497765541,-0.7772930860519409,4.12109375,1,"['A1', 'F1', 'E2']",6.1,270,0.0,32.595289870253694,[27500|0|0]
275,27500,0.9143978953361512,-0.2185113430023193,-0.0109160626307129,-0.178982987999916,0.0590445213019847,-0.7799442410469055,4.12890625,1,"['A1', 'F1', 'E2']",6.1,270,0.0,32.59580279928583,[27600|0|0]
276,27600,0.9143404364585876,-0.2180714607238769,-0.0114098377525806,-0.1953227519989013,0.0550910271704196,-0.7817109823226929,4.12890625,1,"['A1', 'F1', 'E2']",6.1,270,0.0,32.5964665852547,[27700|0|0]
277,27700,0.9144831895828248,-0.217791348695755,-0.011126167140901,-0.2090457677841186,0.0494518764317035,-0.7736111283302307,4.12890625,1,"['A1', 'F1', 'E2']",6.1,270,0.0,32.59689003562807,[27800|0|0]
278,27800,0.9146539568901062,-0.2182677537202835,-0.0109668597579002,-0.1981875449419021,0.0455720014870166,-0.7561576962471008,4.12890625,1,"['A1', 'F1', 'E2']",6.1,270,0.0,32.59742060330793,[27900|0|0]
279,27900,0.9145005345344543,-0.2183096259832382,-0.0110602546483278,-0.2018554955720901,0.0563415735960006,-0.7642416954040527,4.12890625,1,"['A1', 'F1', 'E2']",6.1,270,0.0,32.597605032999624,[28000|0|0]
280,28000,0.9148172736167908,-0.218264639377594,-0.0110016381368041,-0.2093303054571151,0.0463179871439933,-0.7577763199806213,4.12890625,1,"['A1', 'F1', 'E2']",6.1,270,0.0,32.59793027650285,[28100|0|0]
281,28100,0.914324164390564,-0.2178171575069427,-0.0113833025097846,-0.2199959903955459,0.0582853704690933,-0.7590441107749939,4.12890625,1,"['A1', 'F1', 'E2']",6.1,270,0.0,32.59869778182997,[28200|0|0]
282,28200,0.9146526455879213,-0.2187054753303527,-0.0111681194975972,-0.1894421428442001,0.0449277982115745,-0.7822463512420654,4.12109375,1,"['A1', 'F1', 'E2']",6.1,270,0.0,32.59966902442641,[28300|0|0]
283,28300,0.9144580364227296,-0.2179900407791137,-0.0110876504331827,-0.2032435536384582,0.0592818446457386,-0.7837485671043396,4.12890625,1,"['A1', 'F1', 'E2']",6.1,270,0.0,32.60041480897614,[28400|0|0]
284,28400,0.914251983165741,-0.2183528393507003,-0.0113338958472013,-0.1886771470308303,0.0690227895975112,-0.7887330055236816,4.12890625,1,"['A1', 'F1', 'E2']",6.1,270,0.0,32.60089928555162,[28500|0|0]
285,28500,0.9143199920654296,-0.2184632569551468,-0.0109461676329374,-0.1897142678499221,0.0684398487210273,-0.793742299079895,4.12890625,1,"['A1', 'F1', 'E2']",6.1,270,0.0,32.60130812589448,[28600|0|0]
286,28600,0.9144579768180848,-0.2182807028293609,-0.0109927598387002,-0.1993598639965057,0.0576798692345619,-0.7618002891540527,4.12109375,1,"['A1', 'F1', 'E2']",6.1,270,0.0,32.60154165669425,[28700|0|0]
287,28700,0.9144334197044371,-0.218150720000267,-0.0109082125127315,-0.2133890986442566,0.0482721291482448,-0.7579419016838074,4.12109375,1,"['A1', 'F1', 'E2']",6.1,270,0.0,32.60169864980881,[28800|0|0]
288,28800,0.9142047762870787,-0.2182539701461792,-0.0111900819465518,-0.2080169916152954,0.0556564107537269,-0.7724480032920837,4.12109375,1,"['A1', 'F1', 'E2']",6.1,270,0.0,32.60207599419085,[28900|0|0]
289,28900,0.914641797542572,-0.218439981341362,-0.0112449117004871,-0.2025114893913269,0.0528260469436645,-0.7571091055870056,4.12109375,1,"['A1', 'F1', 'E2']",6.1,270,0.0,32.6025541092862,[29000|0|0]
290,29000,0.9145992398262024,-0.2186835557222366,-0.0112123936414718,-0.1952600330114364,0.0555030778050422,-0.749139666557312,4.12890625,1,"['A1', 'F1', 'E2']",6.1,270,0.0,32.60280350267505,[29100|0|0]
291,29100,0.914256751537323,-0.217894360423088,-0.0110411308705806,-0.2112495750188827,0.0739418119192123,-0.7685891389846802,4.12890625,1,"['A1', 'F1', 'E2']",6.1,270,0.0,32.603680690445664,[29200|0|0]
292,29200,0.9142115712165833,-0.2182008177042007,-0.0111332163214683,-0.1986296623945236,0.0767966583371162,-0.7916968464851379,4.12109375,1,"['A1', 'F1', 'E2']",6.1,270,0.0,32.60400385767296,[29300|0|0]
293,29300,0.9142123460769652,-0.2183753997087478,-0.0111412247642874,-0.1899468600749969,0.0731315687298774,-0.7732113599777222,4.12890625,1,"['A1', 'F1', 'E2']",6.1,270,0.0,32.60417862498076,[29400|0|0]
294,29400,0.9141995906829834,-0.2181501239538192,-0.0112748844549059,-0.195122018456459,0.0747631192207336,-0.7778946757316589,4.12890625,1,"['A1', 'F1', 'E2']",6.1,270,0.0,32.604440878252866,[29500|0|0]
295,29500,0.91428542137146,-0.2181417196989059,-0.0110812438651919,-0.1936148405075073,0.0818857997655868,-0.7674881815910339,4.12109375,1,"['A1', 'F1', 'E2']",6.1,270,0.0,32.604652855177484,[29600|0|0]
