,time.ms,stateEstimate.x,stateEstimate.y,stateEstimate.z,stabilizer.roll,stabilizer.pitch,stabilizer.yaw,pm.vbat,drone_id,node_name,wind_speed,global_wind_direction,relative_wind_direction,travel_dist,waiting_time
0,0,1.7018303871154783,1.1835083961486816,-0.044247779995203,-0.3648480474948883,0.8565096259117126,-3.360358476638794,4.12109375,0,"['A1', 'F1', 'E2']",6.1,270,0.0,0.070115818904389,[100|0|0]
1,100,1.7016267776489258,1.183207631111145,-0.0440031848847866,-0.359327495098114,0.8591575622558594,-3.3674216270446777,4.12109375,0,"['A1', 'F1', 'E2']",6.1,270,0.0,0.0705537038101735,[200|0|0]
2,200,1.7014539241790771,1.183332920074463,-0.0441570021212101,-0.3537536859512329,0.8583051562309265,-3.351372480392456,4.1171875,0,"['A1', 'F1', 'E2']",6.1,270,0.0,0.0708168299939503,[300|0|0]
3,300,1.701600432395935,1.183223009109497,-0.0439117960631847,-0.3507837653160095,0.8521813750267029,-3.353828191757202,4.1171875,0,"['A1', 'F1', 'E2']",6.1,270,0.0,0.0711228873230881,[400|0|0]
4,400,1.7016433477401731,1.1833895444869995,-0.0438934713602066,-0.3567907512187958,0.8453010320663452,-3.351109027862549,4.1171875,0,"['A1', 'F1', 'E2']",6.1,270,0.0,0.071295836892241,[500|0|0]
5,500,1.702251434326172,1.1829488277435305,-0.0444279052317142,-0.3444198668003082,0.8372460007667542,-3.364886522293091,4.12109375,0,"['A1', 'F1', 'E2']",6.1,270,0.0,0.0722175852890718,[600|0|0]
6,600,1.7018200159072876,1.1831414699554443,-0.0439945347607135,-0.3423018753528595,0.8491509556770325,-3.3635189533233643,4.12109375,0,"['A1', 'F1', 'E2']",6.1,270,0.0,0.0728587115161902,[700|0|0]
7,700,1.7019835710525513,1.182736873626709,-0.0446594171226024,-0.320579320192337,0.845162034034729,-3.365044355392456,4.1171875,0,"['A1', 'F1', 'E2']",6.1,270,0.0,0.073654020908766,[800|0|0]
8,800,1.702016830444336,1.1828075647354126,-0.0443895459175109,-0.3138576447963714,0.8431922793388367,-3.331958293914795,4.12109375,0,"['A1', 'F1', 'E2']",6.1,270,0.0,0.0739349726614375,[900|0|0]
9,900,1.70192289352417,1.1828656196594238,-0.0444541610777378,-0.315477043390274,0.8516249656677246,-3.3282480239868164,4.12109375,0,"['A1', 'F1', 'E2']",6.1,270,0.0,0.0740629165479791,[1000|0|0]
10,1000,1.701673150062561,1.1828429698944092,-0.0444108732044696,-0.3138500452041626,0.8549368381500244,-3.3204376697540283,4.12109375,0,"['A1', 'F1', 'E2']",6.1,270,0.0,0.0743173937541168,[1100|0|0]
11,1100,1.7022078037261963,1.182953119277954,-0.0440116859972476,-0.3155096173286438,0.8415204286575317,-3.3046252727508545,4.1171875,0,"['A1', 'F1', 'E2']",6.1,270,0.0,0.0749936613440128,[1200|0|0]
12,1200,1.7014405727386477,1.1826444864273071,-0.044187918305397,-0.3023050427436828,0.858144223690033,-3.3126180171966557,4.1171875,0,"['A1', 'F1', 'E2']",6.1,270,0.0,0.0758392117276028,[1300|0|0]
13,1300,1.701887845993042,1.18303120136261,-0.0444059856235981,-0.3175358176231384,0.83857661485672,-3.3442790508270264,4.12109375,0,"['A1', 'F1', 'E2']",6.1,270,0.0,0.0764694142034392,[1400|0|0]
14,1400,1.711128830909729,1.1818956136703491,-0.0473343729972839,-3.2915470600128174,-6.150007247924805,-2.0411508083343506,4.12109375,0,"['A1', 'F1', 'E2']",6.1,270,0.0,0.0862295788663746,[1500|0|0]
15,1500,1.7800356149673462,1.2230838537216189,-0.0378631241619586,-1.1166654825210571,1.273533582687378,-1.224925518035889,4.12109375,0,"['A1', 'F1', 'E2']",6.1,270,0.0,0.1670647232169894,[1600|0|0]
16,1600,1.7086827754974363,1.1839991807937622,-0.0483955033123493,6.945417881011963,14.57214641571045,-3.322218656539917,4.12109375,0,"['A1', 'F1', 'E2']",6.1,270,0.0,0.2490999008474657,[1700|0|0]
17,1700,1.701835036277771,1.1828786134719849,-0.0474183857440948,8.160897254943848,14.238027572631836,-4.617289543151856,4.1171875,0,"['A1', 'F1', 'E2']",6.1,270,0.0,0.2561071800830444,[1800|0|0]
18,1800,1.6978647708892822,1.18159019947052,-0.0457108691334724,7.690700531005859,12.601391792297363,-5.0855584144592285,4.1171875,0,"['A1', 'F1', 'E2']",6.1,270,0.0,0.2606170172053532,[1900|0|0]
19,1900,1.6958986520767212,1.181179404258728,-0.0449216179549694,6.592292308807373,10.712450981140137,-5.2813873291015625,4.12109375,0,"['A1', 'F1', 'E2']",6.1,270,0.0,0.262775093504724,[2000|0|0]
20,2000,1.693082332611084,1.1808559894561768,-0.0442617647349834,5.510297775268555,9.256247520446776,-5.377773284912109,4.1171875,0,"['A1', 'F1', 'E2']",6.1,270,0.0,0.2656857049076705,[2100|0|0]
21,2100,1.693284273147583,1.1809759140014648,-0.0442013144493103,4.5506591796875,7.844853401184082,-5.337487697601318,4.12109375,0,"['A1', 'F1', 'E2']",6.1,270,0.0,0.2659282252447188,[2200|0|0]
22,2200,1.693452000617981,1.1807631254196167,-0.0439013913273811,3.744963169097901,6.676867485046387,-5.272749900817871,4.1171875,0,"['A1', 'F1', 'E2']",6.1,270,0.0,0.2663324100588308,[2300|0|0]
23,2300,1.6945102214813232,1.1808308362960815,-0.04390799254179,3.041776418685913,5.674976348876953,-5.138720989227295,4.1171875,0,"['A1', 'F1', 'E2']",6.1,270,0.0,0.267392815516397,[2400|0|0]
24,2400,1.695266604423523,1.1810717582702637,-0.0437734127044677,2.440518856048584,4.835981369018555,-5.000946521759033,4.1171875,0,"['A1', 'F1', 'E2']",6.1,270,0.0,0.2681979678532303,[2500|0|0]
25,2500,1.6958988904953003,1.1813232898712158,-0.0437141582369804,1.9493025541305544,4.144059181213379,-4.856348514556885,4.1171875,0,"['A1', 'F1', 'E2']",6.1,270,0.0,0.2688810234254632,[2600|0|0]
26,2600,1.696895718574524,1.1817408800125122,-0.0438591986894607,1.5300688743591309,3.5528807640075684,-4.7152838706970215,4.12109375,0,"['A1', 'F1', 'E2']",6.1,270,0.0,0.2699714749275908,[2700|0|0]
27,2700,1.6971302032470703,1.1821153163909912,-0.0439060814678669,1.1688580513000488,3.0667121410369877,-4.5660505294799805,4.1171875,0,"['A1', 'F1', 'E2']",6.1,270,0.0,0.2704157537343088,[2800|0|0]
28,2800,1.6979122161865234,1.18214750289917,-0.0437838397920131,0.8677302598953247,2.6361708641052246,-4.401491165161133,4.1171875,0,"['A1', 'F1', 'E2']",6.1,270,0.0,0.2712079173765547,[2900|0|0]
29,2900,1.6982537508010864,1.1822742223739624,-0.0436841137707233,0.6190361380577087,2.284941434860229,-4.268128871917725,4.1171875,0,"['A1', 'F1', 'E2']",6.1,270,0.0,0.2715856063988451,[3000|0|0]
30,3000,1.6989037990570068,1.1826505661010742,-0.0436984226107597,0.4018412828445434,1.9853578805923464,-4.17431116104126,4.1171875,0,"['A1', 'F1', 'E2']",6.1,270,0.0,0.2723368733812587,[3100|0|0]
31,3100,1.6992371082305908,1.1823395490646362,-0.0438106581568717,0.2410231977701187,1.741214156150818,-4.050628185272217,4.1171875,0,"['A1', 'F1', 'E2']",6.1,270,0.0,0.2728063661074654,[3200|0|0]
32,3200,1.6999452114105225,1.1827598810195925,-0.043606586754322,0.0907058343291282,1.5279512405395508,-3.917409896850586,4.1171875,0,"['A1', 'F1', 'E2']",6.1,270,0.0,0.2736547376081212,[3300|0|0]
33,3300,1.7002567052841189,1.182867169380188,-0.0441499501466751,-0.0227243937551975,1.3693119287490845,-3.8158152103424072,4.1171875,0,"['A1', 'F1', 'E2']",6.1,270,0.0,0.2742901768276826,[3400|0|0]
34,3400,1.700494647026062,1.1824482679367063,-0.0441149733960628,-0.0975611060857772,1.2392945289611816,-3.75860595703125,4.1171875,0,"['A1', 'F1', 'E2']",6.1,270,0.0,0.2747732069147302,[3500|0|0]
35,3500,1.701348900794983,1.1825592517852783,-0.0439318008720874,-0.1794325113296508,1.1364575624465942,-3.690147876739502,4.1171875,0,"['A1', 'F1', 'E2']",6.1,270,0.0,0.2756538993070551,[3600|0|0]
36,3600,1.7011113166809082,1.182675004005432,-0.0441150851547718,-0.2317403554916381,1.0660239458084106,-3.6284894943237305,4.1171875,0,"['A1', 'F1', 'E2']",6.1,270,0.0,0.2759755169620591,[3700|0|0]
37,3700,1.701456069946289,1.1824944019317627,-0.0441494695842266,-0.2721821963787079,0.9957910180091858,-3.5625252723693848,4.1171875,0,"['A1', 'F1', 'E2']",6.1,270,0.0,0.2763662268441883,[3800|0|0]
38,3800,1.7018193006515503,1.1829863786697388,-0.0438321158289909,-0.3217067420482635,0.9464311003684998,-3.500359535217285,4.12109375,0,"['A1', 'F1', 'E2']",6.1,270,0.0,0.2770552051180956,[3900|0|0]
39,3900,1.7016541957855225,1.1827905178070068,-0.0444341376423835,-0.333991140127182,0.9139840602874756,-3.4625251293182373,4.12109375,0,"['A1', 'F1', 'E2']",6.1,270,0.0,0.2777094614578714,[4000|0|0]
40,4000,1.7017284631729126,1.1832516193389893,-0.044144295156002,-0.3565943837165832,0.8894997239112854,-3.403536319732666,4.1171875,0,"['A1', 'F1', 'E2']",6.1,270,0.0,0.2782591331185363,[4100|0|0]
41,4100,1.7017090320587158,1.1829047203063965,-0.0442960523068904,-0.344915360212326,0.8805246949195862,-3.391193151473999,4.1171875,0,"['A1', 'F1', 'E2']",6.1,270,0.0,0.2786382725913672,[4200|0|0]
42,4200,1.701865315437317,1.1831234693527222,-0.0442350842058658,-0.3485298156738281,0.8687159419059753,-3.4031825065612797,4.1171875,0,"['A1', 'F1', 'E2']",6.1,270,0.0,0.2789139404150934,[4300|0|0]
43,4300,1.7022124528884888,1.183505654335022,-0.0440260209143161,-0.3552657067775726,0.8523364663124084,-3.3818647861480717,4.12109375,0,"['A1', 'F1', 'E2']",6.1,270,0.0,0.2794709657561464,[4400|0|0]
44,4400,1.7021883726119995,1.1831449270248413,-0.0442142710089683,-0.3442700505256653,0.8598679304122925,-3.373983383178711,4.1171875,0,"['A1', 'F1', 'E2']",6.1,270,0.0,0.2798785711414917,[4500|0|0]
45,4500,1.701634407043457,1.1830884218215942,-0.0445476770401001,-0.3469685316085815,0.8763077259063721,-3.3702597618103027,4.1171875,0,"['A1', 'F1', 'E2']",6.1,270,0.0,0.2805275936917314,[4600|0|0]
46,4600,1.7020294666290283,1.183459758758545,-0.0441121645271778,-0.3543901443481445,0.8618365526199341,-3.355789422988892,4.1171875,0,"['A1', 'F1', 'E2']",6.1,270,0.0,0.2812230319318416,[4700|0|0]
47,4700,1.7018005847930908,1.1830028295516968,-0.0446686744689941,-0.3336989879608154,0.8612759113311768,-3.376176118850708,4.1171875,0,"['A1', 'F1', 'E2']",6.1,270,0.0,0.2819785943119489,[4800|0|0]
48,4800,1.7019174098968506,1.1834205389022827,-0.0440913140773773,-0.3464709520339966,0.8585940003395081,-3.3912999629974365,4.12109375,0,"['A1', 'F1', 'E2']",6.1,270,0.0,0.2827007260369433,[4900|0|0]
49,4900,1.701561450958252,1.1834182739257812,-0.0438137091696262,-0.4042260348796844,0.8266295194625854,-3.387228012084961,4.1171875,0,"['A1', 'F1', 'E2']",6.1,270,0.0,0.2831521420101812,[5000|0|0]
50,5000,1.7020773887634275,1.1833016872406006,-0.044172465801239,-0.3977090716361999,0.8208827972412109,-3.3618760108947754,4.1171875,0,"['A1', 'F1', 'E2']",6.1,270,0.0,0.2837912746996105,[5100|0|0]
51,5100,1.701857328414917,1.1829067468643188,-0.0444913655519485,-0.3718343675136566,0.8339452147483826,-3.3428900241851807,4.1171875,0,"['A1', 'F1', 'E2']",6.1,270,0.0,0.2843445391109066,[5200|0|0]
52,5200,1.7021048069000244,1.1828008890151978,-0.044222854077816,-0.367742121219635,0.8273429274559021,-3.3317346572875977,4.1171875,0,"['A1', 'F1', 'E2']",6.1,270,0.0,0.284724736292054,[5300|0|0]
53,5300,1.7016524076461792,1.1827608346939087,-0.0445245653390884,-0.359663188457489,0.8380993008613586,-3.318389654159546,4.1171875,0,"['A1', 'F1', 'E2']",6.1,270,0.0,0.2852699877191152,[5400|0|0]
54,5400,1.702009201049805,1.1829183101654053,-0.0446517020463943,-0.3574497997760772,0.8339695334434509,-3.3353607654571533,4.1171875,0,"['A1', 'F1', 'E2']",6.1,270,0.0,0.2856801874257683,[5500|0|0]
55,5500,1.701716661453247,1.182952880859375,-0.0442133508622646,-0.3465776145458221,0.8518595695495605,-3.342371702194214,4.1171875,0,"['A1', 'F1', 'E2']",6.1,270,0.0,0.2862083221709457,[5600|0|0]
56,5600,1.7018717527389526,1.1831483840942385,-0.0442979969084262,-0.3446300625801086,0.8505257964134216,-3.3540680408477783,4.12109375,0,"['A1', 'F1', 'E2']",6.1,270,0.0,0.2864718364492583,[5700|0|0]
57,5700,1.702136754989624,1.1830171346664429,-0.0445157848298549,-0.3353358507156372,0.8403319716453552,-3.3640055656433105,4.1171875,0,"['A1', 'F1', 'E2']",6.1,270,0.0,0.2868391022710791,[5800|0|0]
58,5800,1.702127456665039,1.1829692125320437,-0.0440749526023864,-0.3301081359386444,0.8440660834312439,-3.376430034637451,4.1171875,0,"['A1', 'F1', 'E2']",6.1,270,0.0,0.2872826290939211,[5900|0|0]
59,5900,1.7021069526672363,1.1831694841384888,-0.0444421395659446,-0.3299697637557983,0.8343398571014404,-3.3685824871063232,4.1171875,0,"['A1', 'F1', 'E2']",6.1,270,0.0,0.2877013836717841,[6000|0|0]
60,6000,1.7021377086639404,1.1835150718688965,-0.0441557876765728,-0.3310818374156952,0.8448768854141235,-3.3469114303588867,4.1171875,0,"['A1', 'F1', 'E2']",6.1,270,0.0,0.2881512438892833,[6100|0|0]
61,6100,1.7022676467895508,1.183601975440979,-0.0442627593874931,-0.3254804313182831,0.8472508788108826,-3.3398916721343994,4.1171875,0,"['A1', 'F1', 'E2']",6.1,270,0.0,0.2883406616663398,[6200|0|0]
62,6200,1.702087163925171,1.1833170652389526,-0.0442835688591003,-0.3155010044574737,0.8538776636123657,-3.3241872787475586,4.1171875,0,"['A1', 'F1', 'E2']",6.1,270,0.0,0.2886785683423054,[6300|0|0]
63,6300,1.701812982559204,1.183014988899231,-0.0440734736621379,-0.3105800151824951,0.865240216255188,-3.3483567237854004,4.1171875,0,"['A1', 'F1', 'E2']",6.1,270,0.0,0.2891374425388448,[6400|0|0]
64,6400,1.7017455101013184,1.1833455562591553,-0.044430948793888,-0.3263687491416931,0.8644168376922607,-3.375089406967163,4.1171875,0,"['A1', 'F1', 'E2']",6.1,270,0.0,0.2896289868215297,[6500|0|0]
65,6500,1.7021431922912598,1.1833268404006958,-0.0442706830799579,-0.3231031894683838,0.8533554673194885,-3.3820760250091557,4.1171875,0,"['A1', 'F1', 'E2']",6.1,270,0.0,0.2900581563761535,[6600|0|0]
66,6600,1.7021379470825195,1.1832339763641355,-0.0442917495965957,-0.32004114985466,0.8559179306030273,-3.3911263942718506,4.1171875,0,"['A1', 'F1', 'E2']",6.1,270,0.0,0.2901535242933176,[6700|0|0]
67,6700,1.7021484375,1.1832690238952637,-0.0444424860179424,-0.3234818875789642,0.8562667965888977,-3.3797402381896973,4.1171875,0,"['A1', 'F1', 'E2']",6.1,270,0.0,0.2903086366623198,[6800|0|0]
68,6800,1.7020139694213867,1.1833105087280271,-0.0442852787673473,-0.3186684548854828,0.8571217060089111,-3.378607988357544,4.1171875,0,"['A1', 'F1', 'E2']",6.1,270,0.0,0.2905196266506014,[6900|0|0]
69,6900,1.701758623123169,1.182860016822815,-0.0440223477780818,-0.3781635761260986,0.8309422731399536,-3.370742082595825,4.1171875,0,"['A1', 'F1', 'E2']",6.1,270,0.0,0.2911003825320107,[7000|0|0]
70,7000,1.6995049715042114,1.1798219680786133,-0.0475202314555645,-0.26523557305336,0.8839512467384338,-3.3642375469207764,4.1171875,0,"['A1', 'F1', 'E2']",6.1,270,0.0,0.2962524574550853,[7100|0|0]
71,7100,1.699272394180298,1.1804745197296145,-0.0477328859269619,-0.2798247635364532,0.8975812792778015,-3.3334403038024902,4.1171875,0,"['A1', 'F1', 'E2']",6.1,270,0.0,0.2969771213723795,[7200|0|0]
72,7200,1.6991970539093018,1.180163860321045,-0.0474805496633052,-0.2743869423866272,0.902881681919098,-3.3348679542541504,4.1171875,0,"['A1', 'F1', 'E2']",6.1,270,0.0,0.2973843792937544,[7300|0|0]
73,7300,1.7018557786941528,1.1827219724655151,-0.0439464710652828,-0.3656186163425445,0.8391359448432922,-3.344425916671753,4.1171875,0,"['A1', 'F1', 'E2']",6.1,270,0.0,0.3024934366199417,[7400|0|0]
74,7400,1.7019795179367063,1.1830921173095703,-0.044040460139513,-0.3769185245037079,0.8356869220733643,-3.348358631134033,4.1171875,0,"['A1', 'F1', 'E2']",6.1,270,0.0,0.3028948747245145,[7500|0|0]
75,7500,1.699165940284729,1.1803945302963257,-0.0476613417267799,-0.2722491919994354,0.9031726121902466,-3.3700201511383057,4.1171875,0,"['A1', 'F1', 'E2']",6.1,270,0.0,0.3082150230651853,[7600|0|0]
76,7600,1.69917094707489,1.179983139038086,-0.0477592051029205,-0.2597466111183166,0.8989113569259644,-3.38572096824646,4.1171875,0,"['A1', 'F1', 'E2']",6.1,270,0.0,0.3086379238522423,[7700|0|0]
77,7700,1.699433445930481,1.1803277730941772,-0.0472560077905654,-0.2668163776397705,0.8922269344329834,-3.3842902183532715,4.1171875,0,"['A1', 'F1', 'E2']",6.1,270,0.0,0.3093019161842505,[7800|0|0]
78,7800,1.6991666555404663,1.1801714897155762,-0.0475195385515689,-0.2615397870540619,0.8984088897705078,-3.346057176589966,4.1171875,0,"['A1', 'F1', 'E2']",6.1,270,0.0,0.3097081797300262,[7900|0|0]
79,7900,1.6993991136550903,1.1799010038375854,-0.0474455021321773,-0.2523523867130279,0.8956112861633301,-3.366422653198242,4.1171875,0,"['A1', 'F1', 'E2']",6.1,270,0.0,0.3100724334556671,[8000|0|0]
80,8000,1.6994686126708984,1.1800670623779297,-0.0473154969513416,-0.2571849822998047,0.8944501876831055,-3.349230527877808,4.1171875,0,"['A1', 'F1', 'E2']",6.1,270,0.0,0.3102944850241454,[8100|0|0]
81,8100,1.6990150213241575,1.18036949634552,-0.047705203294754,-0.2684269845485687,0.8977836966514587,-3.3652729988098145,4.1171875,0,"['A1', 'F1', 'E2']",6.1,270,0.0,0.3109646211660497,[8200|0|0]
82,8200,1.699196219444275,1.1802575588226318,-0.0477798916399478,-0.2465760558843612,0.9070283770561218,-3.3817617893218994,4.1171875,0,"['A1', 'F1', 'E2']",6.1,270,0.0,0.3111903225543311,[8300|0|0]
83,8300,1.6992822885513306,1.1800827980041504,-0.0476416051387786,-0.2440710365772247,0.910728394985199,-3.3946449756622314,4.1171875,0,"['A1', 'F1', 'E2']",6.1,270,0.0,0.3114292208407864,[8400|0|0]
84,8400,1.699257731437683,1.179966688156128,-0.0476603135466575,-0.242255300283432,0.9084124565124512,-3.374912738800049,4.1171875,0,"['A1', 'F1', 'E2']",6.1,270,0.0,0.3115493647260401,[8500|0|0]
85,8500,1.6993811130523682,1.180452823638916,-0.0478053838014602,-0.2633026838302612,0.909838855266571,-3.381629228591919,4.1171875,0,"['A1', 'F1', 'E2']",6.1,270,0.0,0.3120714720993805,[8600|0|0]
86,8600,1.6994359493255615,1.180152416229248,-0.0481825321912765,-0.2578186690807342,0.9070374369621276,-3.3763551712036133,4.1171875,0,"['A1', 'F1', 'E2']",6.1,270,0.0,0.3125567478319102,[8700|0|0]
87,8701,1.699391484260559,1.1801819801330566,-0.0475138053297996,-0.2621589303016662,0.9083707928657532,-3.377920866012573,4.1171875,0,"['A1', 'F1', 'E2']",6.1,270,0.0,0.3132276030932556,[8800|0|0]
88,8801,1.6995515823364258,1.180419683456421,-0.0475646927952766,-0.2670531570911407,0.8996025919914246,-3.435612916946411,4.1171875,0,"['A1', 'F1', 'E2']",6.1,270,0.0,0.3135186766200101,[8900|0|0]
89,8901,1.699567437171936,1.180269718170166,-0.0474144294857978,-0.2992864549160003,0.8782773613929749,-3.4125325679779053,4.1171875,0,"['A1', 'F1', 'E2']",6.1,270,0.0,0.3137315616243342,[9000|0|0]
90,9001,1.6992051601409912,1.1801323890686035,-0.0475874841213226,-0.28083336353302,0.9011789560317992,-3.4333655834198,4.1171875,0,"['A1', 'F1', 'E2']",6.1,270,0.0,0.3141558867781523,[9100|0|0]
91,9101,1.6996134519577026,1.1801326274871826,-0.0474238917231559,-0.2718751430511474,0.8916177153587341,-3.4129457473754883,4.1171875,0,"['A1', 'F1', 'E2']",6.1,270,0.0,0.3145957330435392,[9200|0|0]
92,9202,1.6990690231323242,1.180429220199585,-0.0478640869259834,-0.2718043327331543,0.9043367505073548,-3.392524480819702,4.1171875,0,"['A1', 'F1', 'E2']",6.1,270,0.0,0.3153560894070593,[9300|0|0]
93,9301,1.699108362197876,1.1802550554275513,-0.0473237037658691,-0.2700886130332947,0.8977318406105042,-3.3783843517303467,4.1171875,0,"['A1', 'F1', 'E2']",6.1,270,0.0,0.3159252070483525,[9400|0|0]
94,9401,1.6991792917251587,1.180229663848877,-0.0478457249701023,-0.2580984234809875,0.8960667848587036,-3.3716886043548584,4.1171875,0,"['A1', 'F1', 'E2']",6.1,270,0.0,0.3164526365391635,[9500|0|0]
95,9501,1.699085712432861,1.1804816722869873,-0.0477837696671485,-0.2542192935943603,0.9103283286094666,-3.3668365478515625,4.1171875,0,"['A1', 'F1', 'E2']",6.1,270,0.0,0.3167285057045114,[9600|0|0]
96,9601,1.6994370222091677,1.1808549165725708,-0.0477894879877567,-0.2603391408920288,0.9075117111206056,-3.3482489585876465,4.1171875,0,"['A1', 'F1', 'E2']",6.1,270,0.0,0.3172411094060584,[9700|0|0]
97,9702,1.699290752410889,1.180667519569397,-0.0480346232652664,-0.2492026090621948,0.9147751927375792,-3.332747459411621,4.1171875,0,"['A1', 'F1', 'E2']",6.1,270,0.0,0.3175825823844429,[9800|0|0]
98,9802,1.6992043256759644,1.180132269859314,-0.0478718355298042,-0.2337234318256378,0.9213405847549438,-3.336496353149414,4.1171875,0,"['A1', 'F1', 'E2']",6.1,270,0.0,0.3181486757331678,[9900|0|0]
99,9902,1.699377179145813,1.180319905281067,-0.0474929884076118,-0.2398357093334198,0.9258790612220764,-3.351832628250122,4.1171875,0,"['A1', 'F1', 'E2']",6.1,270,0.0,0.3186054147347086,[10000|0|0]
100,10000,1.6997218132019043,1.1800800561904907,-0.0474937707185745,-0.2789336740970611,0.8976847529411316,-3.356190919876098,4.1171875,0,"['A1', 'F1', 'E2']",6.1,270,0.0,0.3190252966596335,[10100|0|0]
101,10100,1.6994762420654297,1.1801953315734863,-0.0473306290805339,-0.2667493224143982,0.9094321727752686,-3.3372929096221924,4.1171875,0,"['A1', 'F1', 'E2']",6.1,270,0.0,0.319341854381158,[10200|0|0]
102,10200,1.699676513671875,1.180186748504639,-0.0478993989527225,-0.2612533867359161,0.906359314918518,-3.33843994140625,4.1171875,0,"['A1', 'F1', 'E2']",6.1,270,0.0,0.319944914538131,[10300|0|0]
103,10302,1.699399709701538,1.180552959442139,-0.0478024743497371,-0.2671558260917663,0.9218196868896484,-3.33882212638855,4.1171875,0,"['A1', 'F1', 'E2']",6.1,270,0.0,0.3204140896306102,[10400|0|0]
104,10402,1.6996139287948608,1.1802862882614136,-0.0474916249513626,-0.2650060057640075,0.9188525080680848,-3.35687518119812,4.1171875,0,"['A1', 'F1', 'E2']",6.1,270,0.0,0.3208762916287053,[10500|0|0]
105,10502,1.6994096040725708,1.1800386905670166,-0.0476011373102664,-0.2597473859786987,0.92409485578537,-3.375060796737671,4.1171875,0,"['A1', 'F1', 'E2']",6.1,270,0.0,0.3212154761907984,[10600|0|0]
106,10600,1.699542999267578,1.1804581880569458,-0.0475798621773719,-0.2677899003028869,0.919209897518158,-3.396201610565185,4.1171875,0,"['A1', 'F1', 'E2']",6.1,270,0.0,0.3216561859063569,[10700|0|0]
107,10700,1.6993449926376345,1.1803803443908691,-0.047082033008337,-0.2980248630046844,0.9041175246238708,-3.387805700302124,4.1171875,0,"['A1', 'F1', 'E2']",6.1,270,0.0,0.3221975731461327,[10800|0|0]
108,10800,1.6990737915039062,1.180522322654724,-0.0472870990633964,-0.291501373052597,0.9103564023971558,-3.413628339767456,4.1171875,0,"['A1', 'F1', 'E2']",6.1,270,0.0,0.3225660293433668,[10900|0|0]
109,10900,1.699225902557373,1.1805869340896606,-0.0477799624204635,-0.2796327173709869,0.9020266532897948,-3.382654905319214,4.1171875,0,"['A1', 'F1', 'E2']",6.1,270,0.0,0.3230858626809384,[11000|0|0]
110,11000,1.6994740962982178,1.1802990436553955,-0.0473509728908538,-0.2668272256851196,0.9018933176994324,-3.406665086746216,4.1171875,0,"['A1', 'F1', 'E2']",6.1,270,0.0,0.3236590232619719,[11100|0|0]
111,11100,1.6992539167404177,1.179814338684082,-0.0477855950593948,-0.2510312497615814,0.9166160225868224,-3.424964189529419,4.1171875,0,"['A1', 'F1', 'E2']",6.1,270,0.0,0.3243462745815605,[11200|0|0]
112,11200,1.6995477676391602,1.1801234483718872,-0.0475525818765163,-0.2606168985366821,0.9128602743148804,-3.420346736907959,4.1171875,0,"['A1', 'F1', 'E2']",6.1,270,0.0,0.3248322707679469,[11300|0|0]
113,11300,1.6995831727981567,1.1799818277359009,-0.0473199672996997,-0.2541089951992035,0.911198079586029,-3.3949692249298096,4.1171875,0,"['A1', 'F1', 'E2']",6.1,270,0.0,0.3251068968249194,[11400|0|0]
114,11400,1.6993764638900757,1.180140256881714,-0.0474751703441143,-0.2577221691608429,0.9214664101600648,-3.3909778594970703,4.1171875,0,"['A1', 'F1', 'E2']",6.1,270,0.0,0.3254100739215455,[11500|0|0]
115,11500,1.6993831396102903,1.1803503036499023,-0.0474027507007122,-0.2551924884319305,0.921023428440094,-3.380047082901001,4.1171875,0,"['A1', 'F1', 'E2']",6.1,270,0.0,0.3256323548582389,[11600|0|0]
116,11600,1.6995275020599363,1.18022620677948,-0.0473329313099384,-0.2475720196962356,0.9123307466506958,-3.38335919380188,4.1171875,0,"['A1', 'F1', 'E2']",6.1,270,0.0,0.3258351239324205,[11700|0|0]
117,11700,1.6990150213241575,1.180341362953186,-0.0478643886744976,-0.2499463558197021,0.9224961996078492,-3.3630001544952397,4.1171875,0,"['A1', 'F1', 'E2']",6.1,270,0.0,0.3265823483827907,[11800|0|0]
118,11800,1.6991952657699585,1.179994821548462,-0.0474993139505386,-0.2465202212333679,0.9110904932022096,-3.359909772872925,4.1171875,0,"['A1', 'F1', 'E2']",6.1,270,0.0,0.3271170058053558,[11900|0|0]
119,11900,1.6995859146118164,1.1807721853256226,-0.0478793643414974,-0.2702365517616272,0.9053027033805848,-3.368507146835327,4.1171875,0,"['A1', 'F1', 'E2']",6.1,270,0.0,0.3280663946926693,[12000|0|0]
120,12000,1.6993868350982666,1.18040931224823,-0.0476598553359508,-0.2549667954444885,0.9151087999343872,-3.3765010833740234,4.1171875,0,"['A1', 'F1', 'E2']",6.1,270,0.0,0.3285348962684699,[12100|0|0]
121,12100,1.6993370056152344,1.1800780296325684,-0.0476390197873115,-0.2503825426101684,0.916599690914154,-3.4002246856689453,4.1171875,0,"['A1', 'F1', 'E2']",6.1,270,0.0,0.3288705527430179,[12200|0|0]
122,12200,1.699235439300537,1.1802798509597778,-0.0474980846047401,-0.2522556483745575,0.9151764512062072,-3.376453161239624,4.1171875,0,"['A1', 'F1', 'E2']",6.1,270,0.0,0.3291368426040419,[12300|0|0]
123,12300,1.6996246576309204,1.1802550554275513,-0.0478164367377758,-0.2352501899003982,0.9189096689224244,-3.374830961227417,4.1171875,0,"['A1', 'F1', 'E2']",6.1,270,0.0,0.329640284564682,[12400|0|0]
124,12400,1.6997075080871582,1.1799273490905762,-0.0475623197853565,-0.2660909295082092,0.8941951990127563,-3.3850083351135254,4.1171875,0,"['A1', 'F1', 'E2']",6.1,270,0.0,0.3300631687886716,[12500|0|0]
125,12500,1.6993697881698608,1.1803410053253174,-0.0474790446460247,-0.2610751986503601,0.9163631796836852,-3.3810200691223145,4.1171875,0,"['A1', 'F1', 'E2']",6.1,270,0.0,0.3306036324524922,[12600|0|0]
126,12600,1.699651837348938,1.1805450916290283,-0.047998446971178,-0.2593795955181122,0.9090293049812316,-3.3659627437591557,4.1171875,0,"['A1', 'F1', 'E2']",6.1,270,0.0,0.3312289177746893,[12700|0|0]
127,12700,1.6995656490325928,1.1801921129226685,-0.0477168597280979,-0.2484447062015533,0.9123241901397704,-3.356069803237915,4.1171875,0,"['A1', 'F1', 'E2']",6.1,270,0.0,0.3316886065481909,[12800|0|0]
128,12800,1.6993082761764526,1.1802581548690796,-0.0474659465253353,-0.2457158863544464,0.9229965209960938,-3.3233118057250977,4.1171875,0,"['A1', 'F1', 'E2']",6.1,270,0.0,0.3320540648373075,[12900|0|0]
129,12900,1.6992037296295166,1.18015718460083,-0.0475719794631004,-0.2799493074417114,0.9002531170845032,-3.331115484237671,4.1171875,0,"['A1', 'F1', 'E2']",6.1,270,0.0,0.3322339758137312,[13000|0|0]
130,13000,1.6992721557617188,1.1802268028259275,-0.0475306771695613,-0.2646770775318146,0.9100660681724548,-3.3404533863067627,4.1171875,0,"['A1', 'F1', 'E2']",6.1,270,0.0,0.3323399697394321,[13100|0|0]
131,13100,1.699372410774231,1.1801072359085083,-0.0477611869573593,-0.2550286948680877,0.9107950925827026,-3.347658634185791,4.1171875,0,"['A1', 'F1', 'E2']",6.1,270,0.0,0.3326183257660341,[13200|0|0]
132,13200,1.699026584625244,1.1801434755325315,-0.0474019609391689,-0.254968523979187,0.9273839592933656,-3.3476486206054688,4.1171875,0,"['A1', 'F1', 'E2']",6.1,270,0.0,0.3331182781315824,[13300|0|0]
133,13300,1.6992579698562622,1.180228590965271,-0.0475256145000457,-0.2563853859901428,0.9252312183380128,-3.3527302742004395,4.1171875,0,"['A1', 'F1', 'E2']",6.1,270,0.0,0.3333940932238837,[13400|0|0]
134,13400,1.6995000839233398,1.180076241493225,-0.0476681217551231,-0.2442432790994644,0.9103813767433168,-3.3876473903656006,4.1171875,0,"['A1', 'F1', 'E2']",6.1,270,0.0,0.3337136834315861,[13500|0|0]
135,13500,1.699615478515625,1.1799815893173218,-0.047317910939455,-0.2421858161687851,0.9078944325447084,-3.3886260986328125,4.1171875,0,"['A1', 'F1', 'E2']",6.1,270,0.0,0.3340943703918865,[13600|0|0]
136,13600,1.699283480644226,1.1799073219299316,-0.0474501252174377,-0.2400794774293899,0.9186699986457824,-3.3907833099365234,4.1171875,0,"['A1', 'F1', 'E2']",6.1,270,0.0,0.3344593619626737,[13700|0|0]
137,13700,1.6994651556015017,1.1805318593978882,-0.0476271882653236,-0.2534022331237793,0.9164692759513856,-3.376340627670288,4.1171875,0,"['A1', 'F1', 'E2']",6.1,270,0.0,0.3351334570315691,[13800|0|0]
138,13800,1.6995234489440918,1.1803734302520752,-0.047979399561882,-0.2556966841220855,0.9098839163780212,-3.386763095855713,4.1171875,0,"['A1', 'F1', 'E2']",6.1,270,0.0,0.3355240344316536,[13900|0|0]
139,13900,1.6993337869644165,1.180426001548767,-0.0474664643406868,-0.234881043434143,0.9177250862121582,-3.366896629333496,4.1171875,0,"['A1', 'F1', 'E2']",6.1,270,0.0,0.336073432237358,[14000|0|0]
140,14000,1.6996958255767822,1.180278778076172,-0.0476825945079326,-0.2281765937805175,0.9028063416481018,-3.346229791641236,4.1171875,0,"['A1', 'F1', 'E2']",6.1,270,0.0,0.3365200405186521,[14100|0|0]
141,14100,1.6993787288665771,1.1799919605255127,-0.0478001236915588,-0.2224785983562469,0.916934609413147,-3.3640053272247314,4.1171875,0,"['A1', 'F1', 'E2']",6.1,270,0.0,0.3369634677843822,[14200|0|0]
142,14200,1.6994783878326416,1.1802926063537598,-0.0480184033513069,-0.2265909016132354,0.91985684633255,-3.3829779624938965,4.1171875,0,"['A1', 'F1', 'E2']",6.1,270,0.0,0.3373481310571535,[14300|0|0]
143,14300,1.699370265007019,1.1798343658447266,-0.0477708205580711,-0.2152242213487625,0.9213031530380248,-3.367950201034546,4.1171875,0,"['A1', 'F1', 'E2']",6.1,270,0.0,0.3378800823228217,[14400|0|0]
144,14400,1.699623465538025,1.180132269859314,-0.0477187559008598,-0.2727241814136505,0.8854008913040161,-3.4113943576812744,4.1171875,0,"['A1', 'F1', 'E2']",6.1,270,0.0,0.3382745034674622,[14500|0|0]
145,14500,1.6996077299118042,1.1803098917007446,-0.0477356649935245,-0.26469886302948,0.8872443437576294,-3.385872602462769,4.1171875,0,"['A1', 'F1', 'E2']",6.1,270,0.0,0.338453620875607,[14600|0|0]
146,14600,1.699515700340271,1.1802698373794556,-0.0478661470115184,-0.2616889178752899,0.9032152891159058,-3.402327060699463,4.1171875,0,"['A1', 'F1', 'E2']",6.1,270,0.0,0.3386182396707377,[14700|0|0]
147,14700,1.699510097503662,1.180074691772461,-0.0477865748107433,-0.2482417970895767,0.9029452204704284,-3.419214963912964,4.1171875,0,"['A1', 'F1', 'E2']",6.1,270,0.0,0.3388290593444961,[14800|0|0]
148,14800,1.699385404586792,1.1802668571472168,-0.0477729253470897,-0.2443925887346267,0.908052921295166,-3.399773120880127,4.1171875,0,"['A1', 'F1', 'E2']",6.1,270,0.0,0.3390585417242786,[14900|0|0]
149,14900,1.6991914510726929,1.1804486513137815,-0.04735604301095,-0.2833724319934845,0.8922296166419983,-3.3964147567749023,4.1171875,0,"['A1', 'F1', 'E2']",6.1,270,0.0,0.3395529686317318,[15000|0|0]
150,15000,1.6993939876556396,1.1803265810012815,-0.0475659891963005,-0.2728779017925262,0.9003881216049194,-3.3715686798095703,4.1171875,0,"['A1', 'F1', 'E2']",6.1,270,0.0,0.3398691958117287,[15100|0|0]
151,15100,1.6997582912445068,1.1802184581756592,-0.0478546172380447,-0.2675139904022217,0.8869954347610474,-3.364849090576172,4.1171875,0,"['A1', 'F1', 'E2']",6.1,270,0.0,0.3403463894797118,[15200|0|0]
152,15200,1.6996228694915771,1.1801064014434814,-0.0473500452935695,-0.2531675994396209,0.898027777671814,-3.355675220489502,4.1171875,0,"['A1', 'F1', 'E2']",6.1,270,0.0,0.3408807008211078,[15300|0|0]
153,15300,1.6991349458694458,1.180137276649475,-0.0478046648204326,-0.1916743367910385,0.9420794248580932,-3.3480184078216557,4.1171875,0,"['A1', 'F1', 'E2']",6.1,270,0.0,0.3415483097287657,[15400|0|0]
154,15400,1.6995550394058228,1.180047869682312,-0.0475833564996719,-0.2473918199539184,0.8879951238632202,-3.323835611343384,4.1171875,0,"['A1', 'F1', 'E2']",6.1,270,0.0,0.3420314759092057,[15500|0|0]
155,15500,1.6996103525161743,1.1801837682724,-0.0474731102585792,-0.2530765533447265,0.8924222588539124,-3.330617427825928,4.1171875,0,"['A1', 'F1', 'E2']",6.1,270,0.0,0.3422150030206625,[15600|0|0]
156,15600,1.699636936187744,1.1802324056625366,-0.047564685344696,-0.2519778311252594,0.8919262886047363,-3.332551956176758,4.1171875,0,"['A1', 'F1', 'E2']",6.1,270,0.0,0.3423220463936977,[15700|0|0]
157,15700,1.6995292901992798,1.180086374282837,-0.0477315746247768,-0.2441047877073288,0.8969408273696899,-3.356453418731689,4.1171875,0,"['A1', 'F1', 'E2']",6.1,270,0.0,0.3425685516765931,[15800|0|0]
158,15800,1.6993722915649414,1.1804105043411257,-0.0476926639676094,-0.2454171925783157,0.9070135354995728,-3.3608992099761963,4.1171875,0,"['A1', 'F1', 'E2']",6.1,270,0.0,0.3429307986988189,[15900|0|0]
159,15900,1.6994011402130127,1.1801689863204956,-0.0474318042397499,-0.2837978601455688,0.8879241943359375,-3.360222816467285,4.1171875,0,"['A1', 'F1', 'E2']",6.1,270,0.0,0.3432874652046804,[16000|0|0]
160,16000,1.6994290351867676,1.179955005645752,-0.0474442690610885,-0.2643430531024933,0.8888684511184692,-3.360911130905152,4.1171875,0,"['A1', 'F1', 'E2']",6.1,270,0.0,0.343503616148457,[16100|0|0]
161,16100,1.6994061470031738,1.1798261404037476,-0.0473538227379322,-0.2574743330478668,0.892829179763794,-3.338007926940918,4.1171875,0,"['A1', 'F1', 'E2']",6.1,270,0.0,0.3436627093818693,[16200|0|0]
162,16200,1.699382185935974,1.1798460483551023,-0.0475216656923294,-0.2508014440536499,0.8927361965179443,-3.348394632339477,4.1171875,0,"['A1', 'F1', 'E2']",6.1,270,0.0,0.3438334188327187,[16300|0|0]
163,16300,1.69942045211792,1.180419683456421,-0.0475741624832153,-0.2649347484111786,0.8949585556983948,-3.357476234436035,4.1171875,0,"['A1', 'F1', 'E2']",6.1,270,0.0,0.3444107206976027,[16400|0|0]
164,16400,1.6985362768173218,1.1805649995803833,-0.0478917472064495,-0.2209464460611343,0.9133909940719604,-3.359325408935547,4.1171875,0,"['A1', 'F1', 'E2']",6.1,270,0.0,0.3453613745749434,[16500|0|0]
165,16500,1.6956422328948977,1.182302951812744,-0.0485214591026306,-0.221937209367752,0.907432734966278,-3.3241803646087646,4.1171875,0,"['A1', 'F1', 'E2']",6.1,270,0.0,0.3487953963074141,[16600|0|0]
166,16600,1.6927211284637451,1.183889865875244,-0.0490895994007587,-0.2217201143503189,0.9088925719261168,-3.2889204025268555,4.1171875,0,"['A1', 'F1', 'E2']",6.1,270,0.0,0.352167922176524,[16700|0|0]
167,16700,1.689694881439209,1.185311198234558,-0.0496338792145252,-0.2240327596664428,0.8984764218330383,-3.2568674087524414,4.1171875,0,"['A1', 'F1', 'E2']",6.1,270,0.0,0.3555553396655295,[16800|0|0]
168,16800,1.6866620779037476,1.1865730285644531,-0.0501185953617095,-0.2217138707637787,0.896662175655365,-3.226863384246826,4.1171875,0,"['A1', 'F1', 'E2']",6.1,270,0.0,0.3588757406668381,[16900|0|0]
169,16900,1.683698058128357,1.1876693964004517,-0.0504958443343639,-0.2164012789726257,0.8954014778137207,-3.195739984512329,4.1171875,0,"['A1', 'F1', 'E2']",6.1,270,0.0,0.3620584678697394,[17000|0|0]
170,17000,1.6807724237442017,1.1886190176010132,-0.0507413744926452,-0.2160368859767913,0.8933307528495789,-3.161460399627685,4.1171875,0,"['A1', 'F1', 'E2']",6.1,270,0.0,0.3651441447862251,[17100|0|0]
171,17100,1.6778497695922852,1.1893941164016724,-0.0508620701730251,-0.2140085101127624,0.8924911022186279,-3.1290132999420166,4.1171875,0,"['A1', 'F1', 'E2']",6.1,270,0.0,0.3681702401068917,[17200|0|0]
172,17200,1.6868280172348022,1.1874113082885742,-0.0308241285383701,-0.1992624104022979,0.7939338088035583,-3.0280919075012207,4.1171875,0,"['A1', 'F1', 'E2']",6.1,270,0.0,0.3902169986826455,[17300|0|0]
173,17300,1.6862634420394895,1.1873893737792969,-0.0278105940669775,-0.1971465349197387,0.7951491475105286,-2.99548077583313,4.1171875,0,"['A1', 'F1', 'E2']",6.1,270,0.0,0.3932830411292093,[17400|0|0]
174,17400,1.7000041007995603,1.178740382194519,-0.0478317439556121,-0.0532262660562992,0.8862627148628235,-3.2061800956726074,4.1171875,0,"['A1', 'F1', 'E2']",6.1,270,0.0,0.4190601084848541,[17500|0|0]
175,17500,1.6995230913162231,1.179473638534546,-0.0479435473680496,-0.137707233428955,1.0031983852386477,-3.293647766113281,4.1171875,0,"['A1', 'F1', 'E2']",6.1,270,0.0,0.4199441531592245,[17600|0|0]
176,17600,1.6998212337493896,1.1796343326568604,-0.0479565002024173,-0.2147494107484817,1.037495493888855,-3.3362390995025635,4.1171875,0,"['A1', 'F1', 'E2']",6.1,270,0.0,0.4202830916305125,[17700|0|0]
177,17700,1.699482798576355,1.1796084642410278,-0.0479315370321273,-0.2765452861785888,1.0654900074005127,-3.3591768741607666,4.1171875,0,"['A1', 'F1', 'E2']",6.1,270,0.0,0.4206234307278192,[17800|0|0]
178,17800,1.6998071670532229,1.1798031330108645,-0.0475559420883655,-0.327693909406662,1.0519317388534546,-3.367781400680542,4.1171875,0,"['A1', 'F1', 'E2']",6.1,270,0.0,0.4211565183383624,[17900|0|0]
179,17900,1.699365735054016,1.1799057722091677,-0.0476813279092311,-0.3369053602218628,1.0640275478363037,-3.3948357105255127,4.1171875,0,"['A1', 'F1', 'E2']",6.1,270,0.0,0.4216267508542797,[18000|0|0]
180,18000,1.6991662979125977,1.1800304651260376,-0.0476833246648311,-0.3534860014915466,1.0620909929275513,-3.423250436782837,4.1171875,0,"['A1', 'F1', 'E2']",6.1,270,0.0,0.4218619688041212,[18100|0|0]
181,18100,1.6992183923721311,1.180245876312256,-0.0478321015834808,-0.3616401553153991,1.0538007020950315,-3.421426296234131,4.1171875,0,"['A1', 'F1', 'E2']",6.1,270,0.0,0.4221288964785669,[18200|0|0]
182,18200,1.6996198892593384,1.180108666419983,-0.0479176864027977,-0.350191056728363,1.033381104469299,-3.4466006755828857,4.1171875,0,"['A1', 'F1', 'E2']",6.1,270,0.0,0.4225617371724393,[18300|0|0]
183,18300,1.6992530822753906,1.1804594993591309,-0.0477067343890666,-0.3463751971721649,1.0312213897705078,-3.444624185562134,4.1171875,0,"['A1', 'F1', 'E2']",6.1,270,0.0,0.4231114024039769,[18400|0|0]
184,18400,1.6995478868484497,1.180173397064209,-0.0475766621530056,-0.3666637241840362,0.9914356470108032,-3.476053476333618,4.1171875,0,"['A1', 'F1', 'E2']",6.1,270,0.0,0.4235423119606706,[18500|0|0]
185,18500,1.6997841596603394,1.1800459623336792,-0.0476693660020828,-0.3459718525409698,0.9774198532104492,-3.4949100017547607,4.1171875,0,"['A1', 'F1', 'E2']",6.1,270,0.0,0.4238263162842595,[18600|0|0]
186,18600,1.7000558376312256,1.1799111366271973,-0.0476227514445781,-0.3282413780689239,0.9604169726371764,-3.476875066757202,4.1171875,0,"['A1', 'F1', 'E2']",6.1,270,0.0,0.4241331709859745,[18700|0|0]
187,18700,1.6999207735061646,1.1800158023834229,-0.047305591404438,-0.318694531917572,0.9608047008514404,-3.4659230709075928,4.11328125,0,"['A1', 'F1', 'E2']",6.1,270,0.0,0.4244934316269921,[18800|0|0]
188,18800,1.69957172870636,1.1804871559143066,-0.0475011244416236,-0.3566949069499969,0.9442726373672484,-3.439119577407837,4.1171875,0,"['A1', 'F1', 'E2']",6.1,270,0.0,0.4251116869075829,[18900|0|0]
189,18900,1.699792981147766,1.1802940368652344,-0.0474372468888759,-0.3360331058502197,0.9274002313613892,-3.4155139923095703,4.1171875,0,"['A1', 'F1', 'E2']",6.1,270,0.0,0.4254122329967071,[19000|0|0]
190,19000,1.6993578672409058,1.1807371377944946,-0.0478366911411285,-0.3104296028614044,0.9406078457832336,-3.4226222038269043,4.1171875,0,"['A1', 'F1', 'E2']",6.1,270,0.0,0.4261506219566138,[19100|0|0]
191,19100,1.6997677087783811,1.180735468864441,-0.0480726175010204,-0.2906523048877716,0.9332644939422609,-3.415857076644897,4.1171875,0,"['A1', 'F1', 'E2']",6.1,270,0.0,0.4266235216483665,[19200|0|0]
192,19200,1.699511170387268,1.1801859140396118,-0.0476249977946281,-0.2570336759090423,0.941024661064148,-3.403273105621338,4.1171875,0,"['A1', 'F1', 'E2']",6.1,270,0.0,0.4273773026863069,[19300|0|0]
193,19300,1.699613332748413,1.180347561836243,-0.0475368797779083,-0.2476244866847992,0.9369412660598756,-3.401623249053955,4.1171875,0,"['A1', 'F1', 'E2']",6.1,270,0.0,0.4275878542074626,[19400|0|0]
194,19400,1.6997742652893066,1.180254340171814,-0.0474378988146781,-0.294747531414032,0.9131881594657898,-3.4069042205810547,4.1171875,0,"['A1', 'F1', 'E2']",6.1,270,0.0,0.4277985359402239,[19500|0|0]
195,19500,1.6998828649520874,1.180046558380127,-0.047407291829586,-0.2682018578052521,0.910813808441162,-3.395897388458252,4.1171875,0,"['A1', 'F1', 'E2']",6.1,270,0.0,0.4280349760959698,[19600|0|0]
196,19600,1.6995724439620972,1.1800673007965088,-0.0476285740733146,-0.261738121509552,0.9163153767585754,-3.4039394855499268,4.1171875,0,"['A1', 'F1', 'E2']",6.1,270,0.0,0.4284167578009446,[19700|0|0]
197,19700,1.6999739408493042,1.1804198026657104,-0.0477109290659427,-0.2665343880653381,0.9057841897010804,-3.3912665843963623,4.1171875,0,"['A1', 'F1', 'E2']",6.1,270,0.0,0.4289573497570801,[19800|0|0]
198,19800,1.6998902559280396,1.180194616317749,-0.0475348979234695,-0.2494417428970337,0.909070074558258,-3.391871213912964,4.1171875,0,"['A1', 'F1', 'E2']",6.1,270,0.0,0.4292551735648519,[19900|0|0]
199,19900,1.6999382972717283,1.180245876312256,-0.0476472973823547,-0.2455393671989441,0.9018089175224304,-3.380420923233032,4.1171875,0,"['A1', 'F1', 'E2']",6.1,270,0.0,0.4293877224090489,[20000|0|0]
200,20000,1.6996476650238037,1.1798502206802368,-0.0476561114192009,-0.2350140213966369,0.9115357398986816,-3.395271062850952,4.1171875,0,"['A1', 'F1', 'E2']",6.1,270,0.0,0.4298787297103467,[20100|0|0]
201,20100,1.7000778913497925,1.179897427558899,-0.0477086007595062,-0.239173412322998,0.8979620337486267,-3.3620355129241943,4.1171875,0,"['A1', 'F1', 'E2']",6.1,270,0.0,0.4303147094252562,[20200|0|0]
202,20200,1.7000287771224976,1.17994487285614,-0.0478338003158569,-0.2444462180137634,0.9010788202285768,-3.3808398246765137,4.1171875,0,"['A1', 'F1', 'E2']",6.1,270,0.0,0.4304573214600341,[20300|0|0]
203,20300,1.699778437614441,1.1803722381591797,-0.047670766711235,-0.2903495132923126,0.8863537311553955,-3.3666012287139893,4.1171875,0,"['A1', 'F1', 'E2']",6.1,270,0.0,0.4309787530737402,[20400|0|0]
204,20400,1.699429273605347,1.1800026893615725,-0.047685757279396,-0.2722023129463196,0.901239812374115,-3.356858253479004,4.1171875,0,"['A1', 'F1', 'E2']",6.1,270,0.0,0.4314873850980895,[20500|0|0]
205,20500,1.6996819972991943,1.179881930351257,-0.0476465299725532,-0.2734047770500183,0.9027092456817628,-3.37017822265625,4.1171875,0,"['A1', 'F1', 'E2']",6.1,270,0.0,0.4317702115211945,[20600|0|0]
206,20600,1.6995360851287842,1.1799501180648804,-0.0475532859563827,-0.2713214457035064,0.9117497205734252,-3.372298240661621,4.1171875,0,"['A1', 'F1', 'E2']",6.1,270,0.0,0.4319563146439908,[20700|0|0]
207,20700,1.6995420455932615,1.1802752017974854,-0.0478455871343612,-0.2714591324329376,0.9136300683021544,-3.3696484565734863,4.1171875,0,"['A1', 'F1', 'E2']",6.1,270,0.0,0.4323935273370691,[20800|0|0]
208,20800,1.6992119550704956,1.1802467107772827,-0.0477365553379058,-0.2664895951747894,0.9156683683395386,-3.3494203090667725,4.1171875,0,"['A1', 'F1', 'E2']",6.1,270,0.0,0.4327423244472786,[20900|0|0]
209,20900,1.699988842010498,1.180578589439392,-0.0477241240441799,-0.2638636529445648,0.9029020667076112,-3.3721156120300293,4.1171875,0,"['A1', 'F1', 'E2']",6.1,270,0.0,0.433587221660538,[21000|0|0]
210,21000,1.7011138200759888,1.180965781211853,-0.0465900674462318,-0.257254421710968,0.8814895749092102,-3.460013628005981,4.1171875,0,"['A1', 'F1', 'E2']",6.1,270,0.0,0.4352308692760098,[21100|0|0]
211,21100,1.698694348335266,1.1831539869308472,-0.0468087121844291,-0.2587787210941314,0.8754476308822632,-3.424631357192993,4.1171875,0,"['A1', 'F1', 'E2']",6.1,270,0.0,0.4385004095027597,[21200|0|0]
212,21200,1.6962380409240725,1.1852620840072632,-0.0468917414546012,-0.2577131688594818,0.8689761161804199,-3.38941502571106,4.1171875,0,"['A1', 'F1', 'E2']",6.1,270,0.0,0.4417383738697015,[21300|0|0]
213,21300,1.693896770477295,1.187246799468994,-0.0468712523579597,-0.2559747397899627,0.8606313467025757,-3.3553130626678467,4.1171875,0,"['A1', 'F1', 'E2']",6.1,270,0.0,0.4448077488178087,[21400|0|0]
214,21400,1.691719651222229,1.1891220808029177,-0.0467891879379749,-0.2561233639717102,0.853060245513916,-3.320190906524658,4.1171875,0,"['A1', 'F1', 'E2']",6.1,270,0.0,0.4476823379886586,[21500|0|0]
215,21500,1.6896470785140991,1.1909228563308716,-0.0466842390596866,-0.254845917224884,0.8479443788528442,-3.287727117538452,4.1171875,0,"['A1', 'F1', 'E2']",6.1,270,0.0,0.4504299486596994,[21600|0|0]
216,21600,1.6930476427078247,1.186502456665039,-0.0350102595984935,-0.1972915381193161,0.7836499214172363,-3.177715539932251,4.1171875,0,"['A1', 'F1', 'E2']",6.1,270,0.0,0.4633677060581707,[21700|0|0]
217,21700,1.6997699737548828,1.179495930671692,-0.0477977655827999,0.0842301622033119,0.8844417333602905,-3.2475171089172363,4.1171875,0,"['A1', 'F1', 'E2']",6.1,270,0.0,0.4794239026968632,[21800|0|0]
218,21800,1.6998023986816406,1.1794188022613523,-0.0478768572211265,-0.0005868132575415,0.963716685771942,-3.322342872619629,4.1171875,0,"['A1', 'F1', 'E2']",6.1,270,0.0,0.4795390359014999,[21900|0|0]
219,21900,1.6997365951538086,1.1790993213653564,-0.0475209988653659,-0.086817018687725,1.0064997673034668,-3.3455557823181152,4.1171875,0,"['A1', 'F1', 'E2']",6.1,270,0.0,0.4800217711462731,[22000|0|0]
220,22000,1.6998385190963743,1.179566502571106,-0.0479110218584537,-0.1844910830259323,1.0139203071594238,-3.344895124435425,4.1171875,0,"['A1', 'F1', 'E2']",6.1,270,0.0,0.4806388324918546,[22100|0|0]
221,22100,1.6995567083358765,1.17956280708313,-0.0476330816745758,-0.2496800273656845,1.027340531349182,-3.3908677101135254,4.1171875,0,"['A1', 'F1', 'E2']",6.1,270,0.0,0.4810346628938931,[22200|0|0]
222,22200,1.699849009513855,1.1800003051757812,-0.0477238111197948,-0.3086178004741668,1.0164637565612793,-3.4136078357696533,4.1171875,0,"['A1', 'F1', 'E2']",6.1,270,0.0,0.4815685883493183,[22300|0|0]
223,22300,1.6997767686843872,1.1801499128341677,-0.0476482361555099,-0.3326386511325836,1.0108628273010254,-3.399678945541382,4.1171875,0,"['A1', 'F1', 'E2']",6.1,270,0.0,0.4817511061953407,[22400|0|0]
224,22400,1.6997616291046145,1.179779291152954,-0.0477944612503051,-0.3777752816677093,0.9804382920265198,-3.415271520614624,4.1171875,0,"['A1', 'F1', 'E2']",6.1,270,0.0,0.4821498183920553,[22500|0|0]
225,22500,1.7000142335891724,1.1799445152282717,-0.0478254407644271,-0.3771449029445648,0.9682276248931884,-3.442604780197144,4.1171875,0,"['A1', 'F1', 'E2']",6.1,270,0.0,0.482453245073444,[22600|0|0]
226,22600,1.6998951435089111,1.1802303791046145,-0.0479825623333454,-0.3727138340473175,0.9684203267097472,-3.432659864425659,4.1171875,0,"['A1', 'F1', 'E2']",6.1,270,0.0,0.4828005026009847,[22700|0|0]
227,22700,1.6997166872024536,1.1800438165664673,-0.0473792366683483,-0.3562930822372436,0.968241810798645,-3.4314124584198,4.1171875,0,"['A1', 'F1', 'E2']",6.1,270,0.0,0.4834567450043682,[22800|0|0]
228,22800,1.6994502544403076,1.1798423528671265,-0.0476893708109855,-0.3744369447231293,0.9510891437530518,-3.468095064163208,4.1171875,0,"['A1', 'F1', 'E2']",6.1,270,0.0,0.4839125489373549,[22900|0|0]
229,22900,1.6997003555297852,1.1803932189941406,-0.047606311738491,-0.3725407123565674,0.9401055574417114,-3.4673988819122314,4.1171875,0,"['A1', 'F1', 'E2']",6.1,270,0.0,0.4845232066601204,[23000|0|0]
230,23000,1.6993530988693235,1.1803873777389526,-0.0477118119597435,-0.3464912474155426,0.9476116299629213,-3.437763214111328,4.1171875,0,"['A1', 'F1', 'E2']",6.1,270,0.0,0.4848861826995242,[23100|0|0]
231,23100,1.6994786262512207,1.1801632642745972,-0.0477053336799144,-0.3317198157310486,0.9417539834976196,-3.401888370513916,4.1171875,0,"['A1', 'F1', 'E2']",6.1,270,0.0,0.485143137825219,[23200|0|0]
232,23200,1.699748158454895,1.1800618171691897,-0.0474238209426403,-0.320249855518341,0.9284023642539978,-3.4249863624572754,4.1171875,0,"['A1', 'F1', 'E2']",6.1,270,0.0,0.4855458642152914,[23300|0|0]
233,23300,1.6995970010757446,1.1801486015319824,-0.0477652288973331,-0.3109633028507232,0.9400777220726012,-3.409993886947632,4.1171875,0,"['A1', 'F1', 'E2']",6.1,270,0.0,0.4859291910607178,[23400|0|0]
234,23400,1.6996057033538818,1.1799606084823608,-0.0477541051805019,-0.3024958670139313,0.9320530295372008,-3.3931210041046143,4.1171875,0,"['A1', 'F1', 'E2']",6.1,270,0.0,0.4861177138800977,[23500|0|0]
235,23500,1.6997733116149902,1.1799256801605225,-0.0478142648935318,-0.2954195141792297,0.9215314984321594,-3.366838216781616,4.1171875,0,"['A1', 'F1', 'E2']",6.1,270,0.0,0.4862991848362589,[23600|0|0]
236,23600,1.7000014781951904,1.1799280643463137,-0.0478389672935009,-0.2908532917499542,0.9132798314094543,-3.3769986629486084,4.1171875,0,"['A1', 'F1', 'E2']",6.1,270,0.0,0.4865286971043981,[23700|0|0]
237,23700,1.700059175491333,1.18004310131073,-0.0475911311805248,-0.2750861048698425,0.9216410517692566,-3.377369880676269,4.1171875,0,"['A1', 'F1', 'E2']",6.1,270,0.0,0.4868079554436816,[23800|0|0]
238,23800,1.699865221977234,1.1802358627319336,-0.0479208156466484,-0.273706704378128,0.9320062398910522,-3.3920388221740723,4.1171875,0,"['A1', 'F1', 'E2']",6.1,270,0.0,0.4872362856648183,[23900|0|0]
239,23900,1.6996538639068604,1.1799418926239014,-0.0478396564722061,-0.2604236602783203,0.9404910802841188,-3.430758476257324,4.1171875,0,"['A1', 'F1', 'E2']",6.1,270,0.0,0.4876073348124048,[24000|0|0]
240,24000,1.6997982263565063,1.179806351661682,-0.0479753240942955,-0.2539412975311279,0.9358668923377992,-3.4515883922576904,4.1171875,0,"['A1', 'F1', 'E2']",6.1,270,0.0,0.4878473714200098,[24100|0|0]
241,24100,1.6996517181396484,1.1799229383468628,-0.0478008016943931,-0.2528431713581085,0.9374383687973022,-3.4378585815429688,4.1171875,0,"['A1', 'F1', 'E2']",6.1,270,0.0,0.4881033307543502,[24200|0|0]
242,24200,1.6998032331466677,1.180081486701965,-0.0477003529667854,-0.2515873908996582,0.928605020046234,-3.4186229705810547,4.1171875,0,"['A1', 'F1', 'E2']",6.1,270,0.0,0.4883445450265973,[24300|0|0]
243,24300,1.6997538805007937,1.180206060409546,-0.0475684441626071,-0.2497095167636871,0.9300841093063354,-3.416285753250122,4.1171875,0,"['A1', 'F1', 'E2']",6.1,270,0.0,0.4885325722185001,[24400|0|0]
244,24400,1.6999329328536987,1.1800248622894287,-0.04747099801898,-0.2445775866508484,0.924500286579132,-3.387913227081299,4.1171875,0,"['A1', 'F1', 'E2']",6.1,270,0.0,0.4888053143214522,[24500|0|0]
245,24500,1.699549436569214,1.1798681020736694,-0.0477895699441432,-0.2379305809736251,0.940581440925598,-3.3826334476470947,4.1171875,0,"['A1', 'F1', 'E2']",6.1,270,0.0,0.4893279339125133,[24600|0|0]
246,24600,1.6998229026794434,1.1801183223724363,-0.0475621484220027,-0.2478862255811691,0.9328782558441162,-3.4122140407562256,4.1171875,0,"['A1', 'F1', 'E2']",6.1,270,0.0,0.4897628068365863,[24700|0|0]
247,24700,1.6999294757843018,1.1798053979873655,-0.0477510690689086,-0.2418753653764724,0.9285556077957152,-3.45120906829834,4.1171875,0,"['C1', 'F1', 'J1']",6.1,270,0.0,0.4901435567653827,[24700|0|0]
248,24800,1.6999881267547607,1.1802337169647217,-0.0476631447672843,-0.2489988505840301,0.9088662266731262,-3.4151952266693115,3.345703125,0,"['C1', 'F1', 'J1']",6.1,270,0.0,0.4905847231348117,[24700|0|0]
249,24900,1.6995089054107666,1.1848411560058594,-0.0376140624284744,0.0336210317909717,4.906051158905029,-0.7348843216896057,3.68359375,0,"['C1', 'F1', 'J1']",6.1,270,0.0,0.5016500836561197,[24700|0|0]
250,25000,1.685585856437683,1.1914557218551636,-0.0040272502228617,-7.234227657318115,12.777666091918944,5.963702201843262,3.779296875,0,"['C1', 'F1', 'J1']",6.1,270,0.0,0.5386051608203843,[24700|0|0]
251,25100,1.6473307609558103,1.210987210273743,0.0440676771104335,-4.893892765045166,6.865096569061279,12.058757781982422,3.7421875,0,"['C1', 'F1', 'J1']",6.1,270,0.0,0.60308813070676,[24700|0|0]
252,25200,1.5966339111328125,1.2366632223129272,0.09822628647089,3.6431922912597656,-6.773517608642578,14.22749137878418,3.7265625,0,"['C1', 'F1', 'J1']",6.1,270,0.0,0.6815902526148364,[24700|0|0]
253,25300,1.5516465902328491,1.253798246383667,0.1603563874959945,11.9699068069458,-9.10933780670166,18.737911224365234,3.75390625,0,"['C1', 'F1', 'J1']",6.1,270,0.0,0.7601880741180487,[24700|0|0]
254,25400,1.5298707485198977,1.2593083381652832,0.2222602367401123,11.47370433807373,-11.951797485351562,16.753841400146484,3.7578125,0,"['C1', 'F1', 'J1']",6.1,270,0.0,0.826041205744326,[24700|0|0]
255,25500,1.5298247337341309,1.2558979988098145,0.2918273508548736,7.997498989105225,-11.172019958496094,12.697129249572754,3.7734375,0,"['C1', 'F1', 'J1']",6.1,270,0.0,0.8956918762230529,[24700|0|0]
256,25600,1.551692247390747,1.2423502206802368,0.3641655743122101,5.805883884429932,-7.749973773956299,5.753262042999268,3.794921875,0,"['C1', 'F1', 'J1']",6.1,270,0.0,0.9724678426366,[24700|0|0]
257,25700,1.5823529958724976,1.2198731899261477,0.4339022040367126,4.052112579345703,-3.96250319480896,5.672152996063232,3.80078125,0,"['C1', 'F1', 'J1']",6.1,270,0.0,1.051893883292759,[24700|0|0]
258,25800,1.6156284809112549,1.1895806789398191,0.4911752343177795,-2.1106231212615967,-0.99420166015625,5.625313758850098,3.806640625,0,"['C1', 'F1', 'J1']",6.1,270,0.0,1.1247299603699696,[24700|0|0]
259,25900,1.648041605949402,1.1586015224456787,0.5396838188171387,-5.598933219909668,3.443685531616211,6.005226135253906,3.80078125,0,"['C1', 'F1', 'J1']",6.1,270,0.0,1.1907860091615714,[24700|0|0]
260,26000,1.671493649482727,1.136335372924805,0.5774644613265991,-7.142759799957275,4.768048286437988,5.4901862144470215,3.80078125,0,"['C1', 'F1', 'J1']",6.1,270,0.0,1.2405168517927048,[24700|0|0]
261,26100,1.6860026121139526,1.1192113161087036,0.6054785847663879,-4.471989154815674,6.255309104919434,4.390750885009766,3.78515625,0,"['C1', 'F1', 'J1']",6.1,270,0.0,1.27641301357325,[24700|0|0]
262,26201,1.6896487474441528,1.1092466115951538,0.6251354217529297,-6.230254173278809,3.352327823638916,-1.4709455966949463,3.76953125,0,"['C1', 'F1', 'J1']",6.1,270,0.0,1.298750893490645,[24700|0|0]
263,26300,1.6877692937850952,1.1048318147659302,0.6370299458503723,-4.566977024078369,3.153273820877075,1.5433306694030762,3.76953125,0,"['C1', 'F1', 'J1']",6.1,270,0.0,1.3115767455326934,[24700|0|0]
264,26400,1.680324673652649,1.109599471092224,0.6477254033088684,-3.188007354736328,0.5239695310592651,2.5897233486175537,3.76953125,0,"['C1', 'F1', 'J1']",6.1,270,0.0,1.3254528302113258,[24700|0|0]
265,26500,1.6729437112808228,1.1172785758972168,0.6556655764579773,-2.9721779823303223,-0.518955647945404,4.1069769859313965,3.76953125,0,"['C1', 'F1', 'J1']",6.1,270,0.0,1.3387379198150209,[24700|0|0]
266,26600,1.6668424606323242,1.129833698272705,0.6625126600265503,-1.6889058351516724,-1.479344129562378,4.5089521408081055,3.76953125,0,"['C1', 'F1', 'J1']",6.1,270,0.0,1.3542858750096536,[24700|0|0]
267,26701,1.6639169454574585,1.1454434394836426,0.6687933802604675,-0.517604649066925,-2.064995288848877,4.231044292449951,3.76953125,0,"['C1', 'F1', 'J1']",6.1,270,0.0,1.3713642269900863,[24700|0|0]
268,26801,1.665998101234436,1.1622122526168823,0.6728580594062805,2.3893284797668457,-1.666866660118103,4.232357025146484,3.763671875,0,"['C1', 'F1', 'J1']",6.1,270,0.0,1.3887436953313206,[24700|0|0]
269,26901,1.6730561256408691,1.1763486862182615,0.6757102012634277,0.8810582756996155,-1.422528862953186,3.711573362350464,3.7578125,0,"['C1', 'F1', 'J1']",6.1,270,0.0,1.404799509750443,[24700|0|0]
270,27001,1.6839401721954346,1.1885212659835815,0.6783122420310974,2.02905535697937,0.8436146378517151,3.090920925140381,3.763671875,0,"['C1', 'F1', 'J1']",6.1,270,0.0,1.421334466167127,[24700|0|0]
271,27101,1.6947674751281738,1.1979777812957764,0.6795083284378052,2.9532058238983154,1.3269749879837036,2.586032629013061,3.7578125,0,"['C1', 'F1', 'J1']",6.1,270,0.0,1.4357596799728003,[24700|0|0]
272,27201,1.7053334712982178,1.2032678127288818,0.6792694330215454,2.767838954925537,2.8130669593811035,1.8423702716827397,3.7578125,0,"['C1', 'F1', 'J1']",6.1,270,0.0,1.4475783845823815,[24700|0|0]
273,27301,1.7121696472167969,1.2014694213867188,0.6765627264976501,2.6483943462371826,2.6754324436187744,1.777652144432068,3.748046875,0,"['C1', 'F1', 'J1']",6.1,270,0.0,1.455147649593981,[24700|0|0]
274,27401,1.717079997062683,1.1942988634109497,0.6751226186752319,0.9350236058235168,2.2026100158691406,1.8804181814193728,3.748046875,0,"['C1', 'F1', 'J1']",6.1,270,0.0,1.4639568690732,[24700|0|0]
275,27501,1.720406174659729,1.1846915483474731,0.67328280210495,0.3034704923629761,1.3510684967041016,2.4328808784484863,3.748046875,0,"['C1', 'F1', 'J1']",6.1,270,0.0,1.4742888042814888,[24700|0|0]
276,27601,1.7210391759872437,1.1734577417373655,0.6725605726242065,-2.5003602504730225,2.3415000438690186,2.237776517868042,3.748046875,0,"['C1', 'F1', 'J1']",6.1,270,0.0,1.4855635866322388,[24700|0|0]
277,27702,1.7192221879959106,1.167017698287964,0.6689824461936951,-2.595860958099365,1.6715285778045654,1.8865236043930051,3.7421875,0,"['C1', 'F1', 'J1']",6.1,270,425.1484141402879,1.493151642624623,[24700|0|0]
278,27802,1.7141598463058472,1.1622291803359983,0.6680647134780884,1.583656907081604,7.356482028961182,1.7970465421676636,3.615234375,0,"['C1', 'F1', 'J1']",6.1,270,425.1484141402879,1.5001801162071688,[24700|0|0]
279,27900,1.6918193101882937,1.1509052515029907,0.6764689683914185,17.450397491455078,24.116823196411133,-0.4800395965576172,3.6796875,0,"['C1', 'F1', 'J1']",6.1,270,425.1484141402879,1.5265990945917125,[24700|0|0]
280,28000,1.6324232816696167,1.1088168621063232,0.6907190084457397,18.525449752807617,24.37859535217285,-2.1139585971832275,3.630859375,0,"['C1', 'F1', 'J1']",6.1,270,425.1484141402879,1.6007771531221615,[24700|0|0]
281,28100,1.5336312055587769,1.0346972942352295,0.7135355472564697,8.226997375488281,9.395398139953612,0.5136193633079529,3.62109375,0,"['C1', 'F1', 'J1']",6.1,270,425.1484141402879,1.7263724519473531,[24700|0|0]
282,28202,1.4181196689605713,0.9478096961975098,0.7610259652137756,-5.0951032638549805,0.8523978590965271,3.086258172988892,3.658203125,0,"['C1', 'F1', 'J1']",6.1,270,425.1484141402879,1.8785161655138445,[24700|0|0]
283,28302,1.300074815750122,0.8768381476402283,0.8346986770629883,-17.30813217163086,0.9304212331771852,9.02249526977539,3.716796875,0,"['C1', 'F1', 'J1']",6.1,270,425.1484141402879,2.0347186512345017,[24700|0|0]
284,28400,1.1786011457443235,0.8390225768089294,0.9146929383277892,-16.416839599609375,-2.9074547290802,9.497279167175291,3.6796875,0,"['C1', 'F1', 'J1']",6.1,270,425.1484141402879,2.18500155690669,[24700|0|0]
285,28500,1.0722750425338743,0.8298683166503906,1.005308747291565,-3.7037389278411865,-14.200475692749023,9.727123260498049,3.705078125,0,"['C1', 'F1', 'J1']",6.1,270,425.1484141402879,2.3250025052503664,[24700|0|0]
286,28600,0.9901588559150696,0.8308722376823425,1.0927283763885498,0.559663712978363,-11.752411842346191,7.766332626342773,3.716796875,0,"['C1', 'F1', 'J1']",6.1,270,425.1484141402879,2.444945272909393,[24700|0|0]
287,28700,0.928672730922699,0.8391312956809998,1.193671703338623,2.627382516860962,-9.969481468200684,4.75499963760376,3.76953125,0,"['C1', 'F1', 'J1']",6.1,270,425.1484141402879,2.563428650905431,[24700|0|0]
288,28800,0.8830079436302185,0.8433583378791809,1.281439185142517,4.0430006980896,-6.622486591339111,2.222059965133667,3.794921875,0,"['C1', 'F1', 'J1']",6.1,270,425.1484141402879,2.6624552712981795,[24700|0|0]
289,28900,0.8470986485481262,0.8342345356941223,1.3550397157669067,3.725198745727539,-4.920053482055664,1.917479872703552,3.7890625,0,"['C1', 'F1', 'J1']",6.1,270,425.1484141402879,2.7448552673406343,[24700|0|0]
290,29000,0.8180334568023682,0.8248229622840881,1.4134637117385864,2.851033926010132,-2.494666576385498,8.146745681762695,3.779296875,0,"['C1', 'F1', 'J1']",6.1,270,425.1484141402879,2.810784975292126,[24700|0|0]
291,29100,0.7933582067489624,0.8122783899307251,1.4580802917480469,1.1857774257659912,-2.093168020248413,2.9079294204711914,3.779296875,0,"['C1', 'F1', 'J1']",6.1,270,425.1484141402879,2.8632909127893984,[24700|0|0]
292,29200,0.7699763178825378,0.7996970415115356,1.4868407249450684,0.2299642115831375,-1.4020568132400513,-0.3786515891551971,3.76953125,0,"['C1', 'F1', 'J1']",6.1,270,425.1484141402879,2.9024337994060905,[24700|0|0]
293,29300,0.7486589550971985,0.7877195477485657,1.5042169094085691,-0.7567790746688843,-1.3449279069900513,-2.7556612491607666,3.7578125,0,"['C1', 'F1', 'J1']",6.1,270,425.1484141402879,2.932430834250777,[24700|0|0]
294,29400,0.7270827293395996,0.7784839272499084,1.5106786489486694,-1.376863956451416,-1.4350824356079102,-2.934212207794189,3.748046875,0,"['C1', 'F1', 'J1']",6.1,270,425.1484141402879,2.9567738883283203,[24700|0|0]
295,29500,0.7081212997436523,0.7725166082382202,1.5123987197875977,-1.804155945777893,-1.943832516670227,-2.1654975414276123,3.7421875,0,"['C1', 'F1', 'J1']",6.1,270,425.1484141402879,2.976726415792285,[24700|0|0]
296,29600,0.6920626759529114,0.7701837420463562,1.509197235107422,-1.5312715768814087,-2.173467874526977,-1.5022937059402466,3.7421875,0,"['C1', 'F1', 'J1']",6.1,270,425.1484141402879,2.9932664026991445,[24700|0|0]
