,Unnamed: 0,time.ms,stateEstimate.x,stateEstimate.y,stateEstimate.z,stabilizer.roll,stabilizer.pitch,stabilizer.yaw,pm.vbat,drone_id,node_name,wind_speed,global_wind_direction,relative_wind_direction,travel_dist,waiting_time
0,21,0,1.699196219444275,1.1802575588226318,0.0,-0.2465760558843612,0.9070283770561218,-3.3817617893218994,4.1171875,0,"['A1', 'F1', 'E2']",6.1,180,450.0,0.0,[8300|0|0]
1,22,100,1.6992822885513306,1.1800827980041504,0.0,-0.2440710365772247,0.910728394985199,-3.3946449756622314,4.1171875,0,"['A1', 'F1', 'E2']",6.1,180,450.0,0.00019480563355730768,[8400|0|0]
2,23,200,1.699257731437683,1.179966688156128,0.0,-0.242255300283432,0.9084124565124512,-3.374912738800049,4.1171875,0,"['A1', 'F1', 'E2']",6.1,180,450.0,0.0003134839746246368,[8500|0|0]
3,24,300,1.6993811130523682,1.180452823638916,0.0,-0.2633026838302612,0.909838855266571,-3.381629228591919,4.1171875,0,"['A1', 'F1', 'E2']",6.1,180,450.0,0.0008150323077570456,[8600|0|0]
4,25,400,1.6994359493255615,1.180152416229248,0.0,-0.2578186690807342,0.9070374369621276,-3.3763551712036133,4.1171875,0,"['A1', 'F1', 'E2']",6.1,180,450.0,0.0011204036041179766,[8700|0|0]
5,26,501,1.699391484260559,1.1801819801330566,0.0,-0.2621589303016662,0.9083707928657532,-3.377920866012573,4.1171875,0,"['A1', 'F1', 'E2']",6.1,180,450.0,0.0011737999187293347,[8800|0|0]
6,27,601,1.6995515823364258,1.180419683456421,0.0,-0.2670531570911407,0.8996025919914246,-3.435612916946411,4.1171875,0,"['A1', 'F1', 'E2']",6.1,180,450.0,0.0014603906789339028,[8900|0|0]
7,28,701,1.699567437171936,1.180269718170166,0.0,-0.2992864549160003,0.8782773613929749,-3.4125325679779053,4.1171875,0,"['A1', 'F1', 'E2']",6.1,180,450.0,0.0016111917495221654,[9000|0|0]
8,29,801,1.6992051601409912,1.1801323890686035,0.0,-0.28083336353302,0.9011789560317992,-3.4333655834198,4.1171875,0,"['A1', 'F1', 'E2']",6.1,180,450.0,0.0019986242330417596,[9100|0|0]
9,30,901,1.6996134519577026,1.1801326274871826,0.0,-0.2718751430511474,0.8916177153587341,-3.4129457473754883,4.1171875,0,"['A1', 'F1', 'E2']",6.1,180,450.0,0.0024069161193644435,[9200|0|0]
10,31,1002,1.6990690231323242,1.180429220199585,0.0,-0.2718043327331543,0.9043367505073548,-3.392524480819702,4.1171875,0,"['A1', 'F1', 'E2']",6.1,180,450.0,0.0030268919115959657,[9300|0|0]
11,32,1101,1.699108362197876,1.1802550554275513,0.0,-0.2700886130332947,0.8977318406105042,-3.3783843517303467,4.1171875,0,"['A1', 'F1', 'E2']",6.1,180,450.0,0.003205444228567864,[9400|0|0]
12,33,1201,1.6991792917251587,1.180229663848877,0.0,-0.2580984234809875,0.8960667848587036,-3.3716886043548584,4.1171875,0,"['A1', 'F1', 'E2']",6.1,180,450.0,0.003280781670176425,[9500|0|0]
13,34,1301,1.699085712432861,1.1804816722869873,0.0,-0.2542192935943603,0.9103283286094666,-3.3668365478515625,4.1171875,0,"['A1', 'F1', 'E2']",6.1,180,450.0,0.003549603798777729,[9600|0|0]
14,35,1401,1.6994370222091677,1.1808549165725708,0.0,-0.2603391408920288,0.9075117111206056,-3.3482489585876465,4.1171875,0,"['A1', 'F1', 'E2']",6.1,180,450.0,0.004062175604137061,[9700|0|0]
15,36,1502,1.699290752410889,1.180667519569397,0.0,-0.2492026090621948,0.9147751927375792,-3.332747459411621,4.1171875,0,"['A1', 'F1', 'E2']",6.1,180,450.0,0.004299899163522863,[9800|0|0]
16,37,1602,1.6992043256759644,1.180132269859314,0.0,-0.2337234318256378,0.9213405847549438,-3.336496353149414,4.1171875,0,"['A1', 'F1', 'E2']",6.1,180,450.0,0.004842081635255084,[9900|0|0]
17,38,1702,1.699377179145813,1.180319905281067,0.0,-0.2398357093334198,0.9258790612220764,-3.351832628250122,4.1171875,0,"['A1', 'F1', 'E2']",6.1,180,450.0,0.005097199987270598,[10000|0|0]
18,39,1800,1.6997218132019043,1.1800800561904907,0.0,-0.2789336740970611,0.8976847529411316,-3.356190919876098,4.1171875,0,"['A1', 'F1', 'E2']",6.1,180,450.0,0.005517081183406081,[10100|0|0]
19,40,1900,1.6994762420654297,1.1801953315734863,0.0,-0.2667493224143982,0.9094321727752686,-3.3372929096221924,4.1171875,0,"['A1', 'F1', 'E2']",6.1,180,450.0,0.005788362581578191,[10200|0|0]
20,41,2000,1.699676513671875,1.180186748504639,0.0,-0.2612533867359161,0.906359314918518,-3.33843994140625,4.1171875,0,"['A1', 'F1', 'E2']",6.1,180,450.0,0.005988818026550449,[10300|0|0]
21,42,2102,1.699399709701538,1.180552959442139,0.0,-0.2671558260917663,0.9218196868896484,-3.33882212638855,4.1171875,0,"['A1', 'F1', 'E2']",6.1,180,450.0,0.006447872368365129,[10400|0|0]
22,43,2202,1.6996139287948608,1.1802862882614136,0.0,-0.2650060057640075,0.9188525080680848,-3.35687518119812,4.1171875,0,"['A1', 'F1', 'E2']",6.1,180,450.0,0.006789929876064432,[10500|0|0]
23,44,2302,1.6994096040725708,1.1800386905670166,0.0,-0.2597473859786987,0.92409485578537,-3.375060796737671,4.1171875,0,"['A1', 'F1', 'E2']",6.1,180,450.0,0.007110948894830608,[10600|0|0]
24,45,2400,1.699542999267578,1.1804581880569458,0.0,-0.2677899003028869,0.919209897518158,-3.396201610565185,4.1171875,0,"['A1', 'F1', 'E2']",6.1,180,450.0,0.00755114478543828,[10700|0|0]
25,46,2500,1.6993449926376345,1.1803803443908691,0.0,-0.2980248630046844,0.9041175246238708,-3.387805700302124,4.1171875,0,"['A1', 'F1', 'E2']",6.1,180,450.0,0.007763903479384728,[10800|0|0]
26,47,2600,1.6990737915039062,1.180522322654724,0.0,-0.291501373052597,0.9103564023971558,-3.413628339767456,4.1171875,0,"['A1', 'F1', 'E2']",6.1,180,450.0,0.008070020911659826,[10900|0|0]
27,48,2700,1.699225902557373,1.1805869340896606,0.0,-0.2796327173709869,0.9020266532897948,-3.382654905319214,4.1171875,0,"['A1', 'F1', 'E2']",6.1,180,450.0,0.008235285578516853,[11000|0|0]
28,49,2800,1.6994740962982178,1.1802990436553955,0.0,-0.2668272256851196,0.9018933176994324,-3.406665086746216,4.1171875,0,"['A1', 'F1', 'E2']",6.1,180,450.0,0.008615392188740707,[11100|0|0]
29,50,2900,1.6992539167404177,1.179814338684082,0.0,-0.2510312497615814,0.9166160225868224,-3.424964189529419,4.1171875,0,"['A1', 'F1', 'E2']",6.1,180,450.0,0.009147762310825928,[11200|0|0]
30,51,3000,1.6995477676391602,1.1801234483718872,0.0,-0.2606168985366821,0.9128602743148804,-3.420346736907959,4.1171875,0,"['A1', 'F1', 'E2']",6.1,180,450.0,0.009574256331636022,[11300|0|0]
31,52,3100,1.6995831727981567,1.1799818277359009,0.0,-0.2541089951992035,0.911198079586029,-3.3949692249298096,4.1171875,0,"['A1', 'F1', 'E2']",6.1,180,450.0,0.009720235541870717,[11400|0|0]
32,53,3200,1.6993764638900757,1.180140256881714,0.0,-0.2577221691608429,0.9214664101600648,-3.3909778594970703,4.1171875,0,"['A1', 'F1', 'E2']",6.1,180,450.0,0.009980674338756214,[11500|0|0]
33,54,3300,1.6993831396102903,1.1803503036499023,0.0,-0.2551924884319305,0.921023428440094,-3.380047082901001,4.1171875,0,"['A1', 'F1', 'E2']",6.1,180,450.0,0.010190827164258785,[11600|0|0]
34,55,3400,1.6995275020599363,1.18022620677948,0.0,-0.2475720196962356,0.9123307466506958,-3.38335919380188,4.1171875,0,"['A1', 'F1', 'E2']",6.1,180,450.0,0.010381196673677751,[11700|0|0]
35,56,3500,1.6990150213241575,1.180341362953186,0.0,-0.2499463558197021,0.9224961996078492,-3.36300015449524,4.1171875,0,"['A1', 'F1', 'E2']",6.1,180,450.0,0.010906456084718628,[11800|0|0]
36,57,3600,1.6991952657699585,1.179994821548462,0.0,-0.2465202212333679,0.9110904932022096,-3.359909772872925,4.1171875,0,"['A1', 'F1', 'E2']",6.1,180,450.0,0.011297069711503816,[11900|0|0]
37,58,3700,1.6995859146118164,1.1807721853256226,0.0,-0.2702365517616272,0.9053027033805848,-3.368507146835327,4.1171875,0,"['A1', 'F1', 'E2']",6.1,180,450.0,0.012167070263047544,[12000|0|0]
38,59,3800,1.6993868350982666,1.18040931224823,0.0,-0.2549667954444885,0.9151087999343872,-3.3765010833740234,4.1171875,0,"['A1', 'F1', 'E2']",6.1,180,450.0,0.012580965809063187,[12100|0|0]
39,60,3900,1.6993370056152344,1.1800780296325684,0.0,-0.2503825426101684,0.916599690914154,-3.4002246856689453,4.1171875,0,"['A1', 'F1', 'E2']",6.1,180,450.0,0.012915974986279073,[12200|0|0]
40,61,4000,1.699235439300537,1.1802798509597778,0.0,-0.2522556483745575,0.9151764512062072,-3.376453161239624,4.1171875,0,"['A1', 'F1', 'E2']",6.1,180,450.0,0.013141912066896171,[12300|0|0]
41,62,4100,1.6996246576309204,1.1802550554275513,0.0,-0.2352501899003982,0.9189096689224244,-3.374830961227417,4.1171875,0,"['A1', 'F1', 'E2']",6.1,180,450.0,0.013531919409294699,[12400|0|0]
42,63,4200,1.6997075080871582,1.1799273490905762,0.0,-0.2660909295082092,0.8941951990127563,-3.3850083351135254,4.1171875,0,"['A1', 'F1', 'E2']",6.1,180,450.0,0.013869936629850763,[12500|0|0]
43,64,4300,1.6993697881698608,1.1803410053253174,0.0,-0.2610751986503601,0.9163631796836852,-3.3810200691223145,4.1171875,0,"['A1', 'F1', 'E2']",6.1,180,450.0,0.014403946201936895,[12600|0|0]
44,65,4400,1.699651837348938,1.1805450916290283,0.0,-0.2593795955181122,0.9090293049812316,-3.365962743759156,4.1171875,0,"['A1', 'F1', 'E2']",6.1,180,450.0,0.014752088355058987,[12700|0|0]
45,66,4500,1.6995656490325928,1.1801921129226685,0.0,-0.2484447062015533,0.9123241901397704,-3.356069803237915,4.1171875,0,"['A1', 'F1', 'E2']",6.1,180,450.0,0.015115437213620433,[12800|0|0]
46,67,4600,1.6993082761764526,1.1802581548690796,0.0,-0.2457158863544464,0.9229965209960938,-3.3233118057250977,4.1171875,0,"['A1', 'F1', 'E2']",6.1,180,450.0,0.015381148195259323,[12900|0|0]
47,68,4700,1.6992037296295166,1.18015718460083,0.0,-0.2799493074417114,0.9002531170845032,-3.331115484237671,4.1171875,0,"['A1', 'F1', 'E2']",6.1,180,450.0,0.015526492529674625,[13000|0|0]
48,69,4800,1.6992721557617188,1.1802268028259275,0.0,-0.2646770775318146,0.9100660681724548,-3.3404533863067627,4.1171875,0,"['A1', 'F1', 'E2']",6.1,180,450.0,0.015624108270382069,[13100|0|0]
49,70,4900,1.699372410774231,1.1801072359085083,0.0,-0.2550286948680877,0.9107950925827026,-3.347658634185791,4.1171875,0,"['A1', 'F1', 'E2']",6.1,180,450.0,0.01578014453307429,[13200|0|0]
50,71,5000,1.699026584625244,1.1801434755325315,0.0,-0.254968523979187,0.9273839592933656,-3.3476486206054688,4.1171875,0,"['A1', 'F1', 'E2']",6.1,180,450.0,0.016127864299082133,[13300|0|0]
51,72,5100,1.6992579698562622,1.180228590965271,0.0,-0.2563853859901428,0.9252312183380128,-3.3527302742004395,4.1171875,0,"['A1', 'F1', 'E2']",6.1,180,450.0,0.016374407930157476,[13400|0|0]
52,73,5200,1.6995000839233398,1.180076241493225,0.0,-0.2442432790994644,0.9103813767433168,-3.3876473903656006,4.1171875,0,"['A1', 'F1', 'E2']",6.1,180,450.0,0.016660466635862334,[13500|0|0]
53,74,5300,1.699615478515625,1.1799815893173218,0.0,-0.2421858161687851,0.9078944325447084,-3.3886260986328125,4.1171875,0,"['A1', 'F1', 'E2']",6.1,180,450.0,0.016809714571633286,[13600|0|0]
54,75,5400,1.699283480644226,1.1799073219299316,0.0,-0.2400794774293899,0.9186699986457824,-3.3907833099365234,4.1171875,0,"['A1', 'F1', 'E2']",6.1,180,450.0,0.017149917792433994,[13700|0|0]
55,76,5500,1.6994651556015017,1.1805318593978882,0.0,-0.2534022331237793,0.9164692759513856,-3.376340627670288,4.1171875,0,"['A1', 'F1', 'E2']",6.1,180,450.0,0.017800342914167978,[13800|0|0]
56,77,5600,1.6995234489440918,1.1803734302520752,0.0,-0.2556966841220855,0.9098839163780212,-3.386763095855713,4.1171875,0,"['A1', 'F1', 'E2']",6.1,180,450.0,0.017969156148345163,[13900|0|0]
57,78,5700,1.6993337869644165,1.180426001548767,0.0,-0.234881043434143,0.9177250862121582,-3.366896629333496,4.1171875,0,"['A1', 'F1', 'E2']",6.1,180,450.0,0.01816596927740473,[14000|0|0]
58,79,5800,1.6996958255767822,1.180278778076172,0.0,-0.2281765937805175,0.9028063416481018,-3.346229791641236,4.1171875,0,"['A1', 'F1', 'E2']",6.1,180,450.0,0.01855679751042613,[14100|0|0]
59,80,5900,1.6993787288665771,1.1799919605255127,0.0,-0.2224785983562469,0.916934609413147,-3.3640053272247314,4.1171875,0,"['A1', 'F1', 'E2']",6.1,180,450.0,0.01898436578683253,[14200|0|0]
60,81,6000,1.6994783878326416,1.1802926063537598,0.0,-0.2265909016132354,0.91985684633255,-3.3829779624938965,4.1171875,0,"['A1', 'F1', 'E2']",6.1,180,450.0,0.019301098834617888,[14300|0|0]
61,82,6100,1.699370265007019,1.1798343658447266,0.0,-0.2152242213487625,0.9213031530380248,-3.367950201034546,4.1171875,0,"['A1', 'F1', 'E2']",6.1,180,450.0,0.019771922484766873,[14400|0|0]
62,83,6200,1.699623465538025,1.180132269859314,0.0,-0.2727241814136505,0.8854008913040161,-3.4113943576812744,4.1171875,0,"['A1', 'F1', 'E2']",6.1,180,450.0,0.020162892190510092,[14500|0|0]
63,84,6300,1.6996077299118042,1.1803098917007446,0.0,-0.26469886302948,0.8872443437576294,-3.385872602462769,4.1171875,0,"['A1', 'F1', 'E2']",6.1,180,450.0,0.020341209684003516,[14600|0|0]
64,85,6400,1.699515700340271,1.1802698373794556,0.0,-0.2616889178752899,0.9032152891159058,-3.402327060699463,4.1171875,0,"['A1', 'F1', 'E2']",6.1,180,450.0,0.020441577959322527,[14700|0|0]
65,86,6500,1.699510097503662,1.180074691772461,0.0,-0.2482417970895767,0.9029452204704284,-3.419214963912964,4.1171875,0,"['A1', 'F1', 'E2']",6.1,180,450.0,0.020636803981428618,[14800|0|0]
66,87,6600,1.699385404586792,1.1802668571472168,0.0,-0.2443925887346267,0.908052921295166,-3.399773120880127,4.1171875,0,"['A1', 'F1', 'E2']",6.1,180,450.0,0.020865880070911214,[14900|0|0]
67,88,6700,1.6991914510726929,1.1804486513137815,0.0,-0.2833724319934845,0.8922296166419983,-3.3964147567749023,4.1171875,0,"['A1', 'F1', 'E2']",6.1,180,450.0,0.021131712884213782,[15000|0|0]
68,89,6800,1.6993939876556396,1.1803265810012815,0.0,-0.2728779017925262,0.9003881216049194,-3.3715686798095703,4.1171875,0,"['A1', 'F1', 'E2']",6.1,180,450.0,0.02136819169642664,[15100|0|0]
69,90,6900,1.6997582912445068,1.1802184581756592,0.0,-0.2675139904022217,0.8869954347610474,-3.364849090576172,4.1171875,0,"['A1', 'F1', 'E2']",6.1,180,450.0,0.02174820176245394,[15200|0|0]
70,91,7000,1.6996228694915771,1.1801064014434814,0.0,-0.2531675994396209,0.898027777671814,-3.355675220489502,4.1171875,0,"['A1', 'F1', 'E2']",6.1,180,450.0,0.02192397366690087,[15300|0|0]
71,92,7100,1.6991349458694458,1.180137276649475,0.0,-0.1916743367910385,0.9420794248580932,-3.348018407821656,4.1171875,0,"['A1', 'F1', 'E2']",6.1,180,450.0,0.022412873185594564,[15400|0|0]
72,93,7200,1.6995550394058228,1.180047869682312,0.0,-0.2473918199539184,0.8879951238632202,-3.323835611343384,4.1171875,0,"['A1', 'F1', 'E2']",6.1,180,450.0,0.0228423754383046,[15500|0|0]
73,94,7300,1.6996103525161743,1.1801837682724,0.0,-0.2530765533447265,0.8924222588539124,-3.330617427825928,4.1171875,0,"['A1', 'F1', 'E2']",6.1,180,450.0,0.02298909955685585,[15600|0|0]
74,95,7400,1.699636936187744,1.1802324056625366,0.0,-0.2519778311252594,0.8919262886047363,-3.332551956176758,4.1171875,0,"['A1', 'F1', 'E2']",6.1,180,450.0,0.023044527774520065,[15700|0|0]
75,96,7500,1.6995292901992798,1.180086374282837,0.0,-0.2441047877073288,0.8969408273696899,-3.356453418731689,4.1171875,0,"['A1', 'F1', 'E2']",6.1,180,450.0,0.0232259466894364,[15800|0|0]
76,97,7600,1.6993722915649414,1.1804105043411257,0.0,-0.2454171925783157,0.9070135354995728,-3.3608992099761963,4.1171875,0,"['A1', 'F1', 'E2']",6.1,180,450.0,0.023586097860294437,[15900|0|0]
77,98,7700,1.6994011402130127,1.1801689863204956,0.0,-0.2837978601455688,0.8879241943359375,-3.360222816467285,4.1171875,0,"['A1', 'F1', 'E2']",6.1,180,450.0,0.02382933272371789,[16000|0|0]
78,99,7800,1.6994290351867676,1.179955005645752,0.0,-0.2643430531024933,0.8888684511184692,-3.360911130905152,4.1171875,0,"['A1', 'F1', 'E2']",6.1,180,450.0,0.024045123962475476,[16100|0|0]
79,100,7900,1.6994061470031738,1.1798261404037476,0.0,-0.2574743330478668,0.892829179763794,-3.338007926940918,4.1171875,0,"['A1', 'F1', 'E2']",6.1,180,450.0,0.02417600604507303,[16200|0|0]
80,101,8000,1.699382185935974,1.1798460483551023,0.0,-0.2508014440536499,0.8927361965179443,-3.348394632339477,4.1171875,0,"['A1', 'F1', 'E2']",6.1,180,450.0,0.02420715824031675,[16300|0|0]
81,102,8100,1.69942045211792,1.180419683456421,0.0,-0.2649347484111786,0.8949585556983948,-3.357476234436035,4.1171875,0,"['A1', 'F1', 'E2']",6.1,180,450.0,0.024782068259489753,[16400|0|0]
82,103,8200,1.6985362768173218,1.1805649995803833,0.0,-0.2209464460611343,0.9133909940719604,-3.359325408935547,4.1171875,0,"['A1', 'F1', 'E2']",6.1,180,450.0,0.025678105500943075,[16500|0|0]
83,104,8300,1.6956422328948977,1.182302951812744,0.0,-0.221937209367752,0.907432734966278,-3.3241803646087646,4.1171875,0,"['A1', 'F1', 'E2']",6.1,180,450.0,0.029053896991377146,[16600|0|0]
84,105,8400,1.6927211284637451,1.183889865875244,0.0,-0.2217201143503189,0.9088925719261168,-3.2889204025268555,4.1171875,0,"['A1', 'F1', 'E2']",6.1,180,450.0,0.032378223590774295,[16700|0|0]
85,106,8500,1.689694881439209,1.185311198234558,0.0,-0.2240327596664428,0.8984764218330383,-3.2568674087524414,4.1171875,0,"['A1', 'F1', 'E2']",6.1,180,450.0,0.03572162855116234,[16800|0|0]
86,107,8600,1.6866620779037476,1.1865730285644531,0.0,-0.2217138707637787,0.896662175655365,-3.226863384246826,4.1171875,0,"['A1', 'F1', 'E2']",6.1,180,450.0,0.03900645930268521,[16900|0|0]
87,108,8700,1.683698058128357,1.1876693964004517,0.0,-0.2164012789726257,0.8954014778137207,-3.195739984512329,4.1171875,0,"['A1', 'F1', 'E2']",6.1,180,450.0,0.042166749741983284,[17000|0|0]
88,109,8800,1.6807724237442017,1.1886190176010132,0.0,-0.2160368859767913,0.8933307528495789,-3.161460399627685,4.1171875,0,"['A1', 'F1', 'E2']",6.1,180,450.0,0.045242642616305714,[17100|0|0]
89,110,8900,1.6778497695922852,1.1893941164016724,0.0,-0.2140085101127624,0.8924911022186279,-3.1290132999420166,4.1171875,0,"['A1', 'F1', 'E2']",6.1,180,450.0,0.0482663300079681,[17200|0|0]
90,111,9000,1.6868280172348022,1.1874113082885742,0.0,-0.1992624104022979,0.7939338088035583,-3.0280919075012207,4.1171875,0,"['A1', 'F1', 'E2']",6.1,180,450.0,0.057460918565578036,[17300|0|0]
91,112,9100,1.6862634420394895,1.1873893737792969,0.0,-0.1971465349197387,0.7951491475105286,-2.99548077583313,4.1171875,0,"['A1', 'F1', 'E2']",6.1,180,450.0,0.05802591969288633,[17400|0|0]
92,113,9200,1.7000041007995603,1.178740382194519,0.0,-0.0532262660562992,0.8862627148628235,-3.2061800956726074,4.1171875,0,"['A1', 'F1', 'E2']",6.1,180,450.0,0.07426201400753812,[17500|0|0]
93,114,9300,1.6995230913162231,1.179473638534546,0.0,-0.137707233428955,1.0031983852386477,-3.293647766113281,4.1171875,0,"['A1', 'F1', 'E2']",6.1,180,450.0,0.07513896040456013,[17600|0|0]
94,115,9400,1.6998212337493896,1.1796343326568604,0.0,-0.2147494107484817,1.037495493888855,-3.3362390995025635,4.1171875,0,"['A1', 'F1', 'E2']",6.1,180,450.0,0.0754776512833875,[17700|0|0]
95,116,9500,1.699482798576355,1.1796084642410278,0.0,-0.2765452861785888,1.0654900074005127,-3.3591768741607666,4.1171875,0,"['A1', 'F1', 'E2']",6.1,180,450.0,0.07581707364753679,[17800|0|0]
96,117,9600,1.6998071670532229,1.1798031330108645,0.0,-0.327693909406662,1.0519317388534546,-3.367781400680542,4.1171875,0,"['A1', 'F1', 'E2']",6.1,180,450.0,0.07619537357978012,[17900|0|0]
97,118,9700,1.699365735054016,1.1799057722091677,0.0,-0.3369053602218628,1.0640275478363037,-3.3948357105255127,4.1171875,0,"['A1', 'F1', 'E2']",6.1,180,450.0,0.07664858105429065,[18000|0|0]
98,119,9800,1.6991662979125977,1.1800304651260376,0.0,-0.3534860014915466,1.0620909929275513,-3.423250436782837,4.1171875,0,"['A1', 'F1', 'E2']",6.1,180,450.0,0.07688379052879071,[18100|0|0]
99,120,9900,1.6992183923721311,1.180245876312256,0.0,-0.3616401553153991,1.0538007020950315,-3.421426296234131,4.1171875,0,"['A1', 'F1', 'E2']",6.1,180,450.0,0.07710541140294777,[18200|0|0]
100,121,10000,1.6996198892593384,1.180108666419983,0.0,-0.350191056728363,1.033381104469299,-3.4466006755828857,4.1171875,0,"['A1', 'F1', 'E2']",6.1,180,450.0,0.07752970647123719,[18300|0|0]
101,122,10100,1.6992530822753906,1.1804594993591309,0.0,-0.3463751971721649,1.0312213897705078,-3.444624185562134,4.1171875,0,"['A1', 'F1', 'E2']",6.1,180,450.0,0.07803728022416777,[18400|0|0]
102,123,10200,1.6995478868484497,1.180173397064209,0.0,-0.3666637241840362,0.9914356470108032,-3.476053476333618,4.1171875,0,"['A1', 'F1', 'E2']",6.1,180,450.0,0.07844808949798728,[18500|0|0]
103,124,10300,1.6997841596603394,1.1800459623336792,0.0,-0.3459718525409698,0.9774198532104492,-3.4949100017547607,4.1171875,0,"['A1', 'F1', 'E2']",6.1,180,450.0,0.07871653772797481,[18600|0|0]
104,125,10400,1.7000558376312256,1.1799111366271973,0.0,-0.3282413780689239,0.9604169726371764,-3.476875066757202,4.1171875,0,"['A1', 'F1', 'E2']",6.1,180,450.0,0.07901983113540928,[18700|0|0]
105,126,10500,1.6999207735061646,1.1800158023834229,0.0,-0.318694531917572,0.9608047008514404,-3.4659230709075928,4.11328125,0,"['A1', 'F1', 'E2']",6.1,180,450.0,0.07919070312961775,[18800|0|0]
106,127,10600,1.69957172870636,1.1804871559143066,0.0,-0.3566949069499969,0.9442726373672484,-3.439119577407837,4.1171875,0,"['A1', 'F1', 'E2']",6.1,180,450.0,0.07977722373739479,[18900|0|0]
107,128,10700,1.699792981147766,1.1802940368652344,0.0,-0.3360331058502197,0.9274002313613892,-3.4155139923095703,4.1171875,0,"['A1', 'F1', 'E2']",6.1,180,450.0,0.08007090317137444,[19000|0|0]
108,129,10800,1.6993578672409058,1.1807371377944946,0.0,-0.3104296028614044,0.9406078457832336,-3.4226222038269043,4.1171875,0,"['A1', 'F1', 'E2']",6.1,180,450.0,0.08069192051851894,[19100|0|0]
109,130,10900,1.6997677087783811,1.180735468864441,0.0,-0.2906523048877716,0.9332644939422609,-3.415857076644897,4.1171875,0,"['A1', 'F1', 'E2']",6.1,180,450.0,0.08110176545403443,[19200|0|0]
110,131,11000,1.699511170387268,1.1801859140396118,0.0,-0.2570336759090423,0.941024661064148,-3.403273105621338,4.1171875,0,"['A1', 'F1', 'E2']",6.1,180,450.0,0.08170824913197458,[19300|0|0]
111,132,11100,1.699613332748413,1.180347561836243,0.0,-0.2476244866847992,0.9369412660598756,-3.401623249053955,4.1171875,0,"['A1', 'F1', 'E2']",6.1,180,450.0,0.08189947454396371,[19400|0|0]
112,133,11200,1.6997742652893066,1.180254340171814,0.0,-0.294747531414032,0.9131881594657898,-3.4069042205810547,4.1171875,0,"['A1', 'F1', 'E2']",6.1,180,450.0,0.08208545723519425,[19500|0|0]
113,134,11300,1.6998828649520874,1.180046558380127,0.0,-0.2682018578052521,0.910813808441162,-3.395897388458252,4.1171875,0,"['A1', 'F1', 'E2']",6.1,180,450.0,0.08231990799700313,[19600|0|0]
114,135,11400,1.6995724439620972,1.1800673007965088,0.0,-0.261738121509552,0.9163153767585754,-3.4039394855499268,4.1171875,0,"['A1', 'F1', 'E2']",6.1,180,450.0,0.08263102122215416,[19700|0|0]
115,136,11500,1.6999739408493042,1.1804198026657104,0.0,-0.2665343880653381,0.9057841897010804,-3.3912665843963623,4.1171875,0,"['A1', 'F1', 'E2']",6.1,180,450.0,0.0831653032808344,[19800|0|0]
116,137,11600,1.6998902559280396,1.180194616317749,0.0,-0.2494417428970337,0.909070074558258,-3.391871213912964,4.1171875,0,"['A1', 'F1', 'E2']",6.1,180,450.0,0.08340553662022607,[19900|0|0]
117,138,11700,1.6999382972717283,1.180245876312256,0.0,-0.2455393671989441,0.9018089175224304,-3.380420923233032,4.1171875,0,"['A1', 'F1', 'E2']",6.1,180,450.0,0.08347579014497952,[20000|0|0]
118,139,11800,1.6996476650238037,1.1798502206802368,0.0,-0.2350140213966369,0.9115357398986816,-3.395271062850952,4.1171875,0,"['A1', 'F1', 'E2']",6.1,180,450.0,0.08396671832983171,[20100|0|0]
119,140,11900,1.7000778913497925,1.179897427558899,0.0,-0.239173412322998,0.8979620337486267,-3.3620355129241943,4.1171875,0,"['A1', 'F1', 'E2']",6.1,180,450.0,0.08439952681053284,[20200|0|0]
120,141,12000,1.7000287771224976,1.17994487285614,0.0,-0.2444462180137634,0.9010788202285768,-3.3808398246765137,4.1171875,0,"['A1', 'F1', 'E2']",6.1,180,450.0,0.08446781490285546,[20300|0|0]
121,142,12100,1.699778437614441,1.1803722381591797,0.0,-0.2903495132923126,0.8863537311553955,-3.3666012287139893,4.1171875,0,"['A1', 'F1', 'E2']",6.1,180,450.0,0.0849631036787593,[20400|0|0]
122,143,12200,1.699429273605347,1.1800026893615725,0.0,-0.2722023129463196,0.901239812374115,-3.356858253479004,4.1171875,0,"['A1', 'F1', 'E2']",6.1,180,450.0,0.0854715147516713,[20500|0|0]
123,144,12300,1.6996819972991943,1.179881930351257,0.0,-0.2734047770500183,0.9027092456817628,-3.37017822265625,4.1171875,0,"['A1', 'F1', 'E2']",6.1,180,450.0,0.08575160760057009,[20600|0|0]
124,145,12400,1.6995360851287842,1.1799501180648804,0.0,-0.2713214457035064,0.9117497205734252,-3.372298240661621,4.1171875,0,"['A1', 'F1', 'E2']",6.1,180,450.0,0.0859126663655069,[20700|0|0]
125,146,12500,1.6995420455932615,1.1802752017974854,0.0,-0.2714591324329376,0.9136300683021544,-3.3696484565734863,4.1171875,0,"['A1', 'F1', 'E2']",6.1,180,450.0,0.08623780473657555,[20800|0|0]
126,147,12600,1.6992119550704956,1.1802467107772827,0.0,-0.2664895951747894,0.9156683683395386,-3.3494203090667725,4.1171875,0,"['A1', 'F1', 'E2']",6.1,180,450.0,0.08656912254692091,[20900|0|0]
127,148,12700,1.699988842010498,1.180578589439392,0.0,-0.2638636529445648,0.9029020667076112,-3.3721156120300293,4.1171875,0,"['A1', 'F1', 'E2']",6.1,180,450.0,0.0874139283020563,[21000|0|0]
128,149,12800,1.7011138200759888,1.180965781211853,0.0,-0.257254421710968,0.8814895749092102,-3.460013628005981,4.1171875,0,"['A1', 'F1', 'E2']",6.1,180,450.0,0.08860367328166188,[21100|0|0]
129,150,12900,1.698694348335266,1.1831539869308472,0.0,-0.2587787210941314,0.8754476308822632,-3.424631357192993,4.1171875,0,"['A1', 'F1', 'E2']",6.1,180,450.0,0.0918658945759329,[21200|0|0]
130,151,13000,1.6962380409240725,1.1852620840072632,0.0,-0.2577131688594818,0.8689761161804199,-3.38941502571106,4.1171875,0,"['A1', 'F1', 'E2']",6.1,180,450.0,0.09510279423175749,[21300|0|0]
131,152,13100,1.693896770477295,1.187246799468994,0.0,-0.2559747397899627,0.8606313467025757,-3.3553130626678467,4.1171875,0,"['A1', 'F1', 'E2']",6.1,180,450.0,0.09817210079334222,[21400|0|0]
132,153,13200,1.691719651222229,1.1891220808029177,0.0,-0.2561233639717102,0.853060245513916,-3.320190906524658,4.1171875,0,"['A1', 'F1', 'E2']",6.1,180,450.0,0.1010455183286374,[21500|0|0]
133,154,13300,1.6896470785140991,1.1909228563308716,0.0,-0.254845917224884,0.8479443788528442,-3.287727117538452,4.1171875,0,"['A1', 'F1', 'E2']",6.1,180,450.0,0.10379112393260939,[21600|0|0]
134,155,13400,1.6930476427078247,1.186502456665039,0.0,-0.1972915381193161,0.7836499214172363,-3.177715539932251,4.1171875,0,"['A1', 'F1', 'E2']",6.1,180,450.0,0.10936819933476605,[21700|0|0]
135,156,13500,1.6997699737548828,1.179495930671692,0.0,0.0842301622033119,0.8844417333602905,-3.2475171089172363,4.1171875,0,"['A1', 'F1', 'E2']",6.1,180,450.0,0.11907804697526438,[21800|0|0]
136,157,13600,1.6998023986816406,1.1794188022613523,0.0,-0.0005868132575415,0.963716685771942,-3.322342872619629,4.1171875,0,"['A1', 'F1', 'E2']",6.1,180,450.0,0.11916171397925496,[21900|0|0]
137,158,13700,1.6997365951538086,1.1790993213653564,0.0,-0.086817018687725,1.0064997673034668,-3.3455557823181152,4.1171875,0,"['A1', 'F1', 'E2']",6.1,180,450.0,0.11948790126775877,[22000|0|0]
138,159,13800,1.6998385190963743,1.179566502571106,0.0,-0.1844910830259323,1.0139203071594238,-3.344895124435425,4.1171875,0,"['A1', 'F1', 'E2']",6.1,180,450.0,0.11996607149798405,[22100|0|0]
139,160,13900,1.6995567083358765,1.17956280708313,0.0,-0.2496800273656845,1.027340531349182,-3.3908677101135254,4.1171875,0,"['A1', 'F1', 'E2']",6.1,180,450.0,0.12024790648758567,[22200|0|0]
140,161,14000,1.699849009513855,1.1800003051757812,0.0,-0.3086178004741668,1.0164637565612793,-3.4136078357696533,4.1171875,0,"['A1', 'F1', 'E2']",6.1,180,450.0,0.12077406669106082,[22300|0|0]
141,162,14100,1.6997767686843872,1.1801499128341677,0.0,-0.3326386511325836,1.0108628273010254,-3.399678945541382,4.1171875,0,"['A1', 'F1', 'E2']",6.1,180,450.0,0.12094020274641928,[22400|0|0]
142,163,14200,1.6997616291046145,1.179779291152954,0.0,-0.3777752816677093,0.9804382920265198,-3.415271520614624,4.1171875,0,"['A1', 'F1', 'E2']",6.1,180,450.0,0.12131113351821005,[22500|0|0]
143,164,14300,1.7000142335891724,1.1799445152282717,0.0,-0.3771449029445648,0.9682276248931884,-3.442604780197144,4.1171875,0,"['A1', 'F1', 'E2']",6.1,180,450.0,0.12161297457022802,[22600|0|0]
144,165,14400,1.6998951435089111,1.1802303791046145,0.0,-0.3727138340473175,0.9684203267097472,-3.432659864425659,4.1171875,0,"['A1', 'F1', 'E2']",6.1,180,450.0,0.12192265279518796,[22700|0|0]
145,166,14500,1.6997166872024536,1.1800438165664673,0.0,-0.3562930822372436,0.968241810798645,-3.4314124584198,4.1171875,0,"['A1', 'F1', 'E2']",6.1,180,450.0,0.12218082373459514,[22800|0|0]
146,167,14600,1.6994502544403076,1.1798423528671265,0.0,-0.3744369447231293,0.9510891437530518,-3.468095064163208,4.1171875,0,"['A1', 'F1', 'E2']",6.1,180,450.0,0.12251485073784014,[22900|0|0]
147,168,14700,1.6997003555297852,1.1803932189941406,0.0,-0.3725407123565674,0.9401055574417114,-3.4673988819122314,4.1171875,0,"['A1', 'F1', 'E2']",6.1,180,450.0,0.123119833419286,[23000|0|0]
148,169,14800,1.6993530988693235,1.1803873777389526,0.0,-0.3464912474155426,0.9476116299629213,-3.437763214111328,4.1171875,0,"['A1', 'F1', 'E2']",6.1,180,450.0,0.1234671392045778,[23100|0|0]
149,170,14900,1.6994786262512207,1.1801632642745972,0.0,-0.3317198157310486,0.9417539834976196,-3.401888370513916,4.1171875,0,"['A1', 'F1', 'E2']",6.1,180,450.0,0.12372401265301375,[23200|0|0]
150,171,15000,1.699748158454895,1.1800618171691897,0.0,-0.320249855518341,0.9284023642539978,-3.4249863624572754,4.1171875,0,"['A1', 'F1', 'E2']",6.1,180,450.0,0.12401200418763429,[23300|0|0]
151,172,15100,1.6995970010757446,1.1801486015319824,0.0,-0.3109633028507232,0.9400777220726012,-3.409993886947632,4.1171875,0,"['A1', 'F1', 'E2']",6.1,180,450.0,0.124186303008333,[23400|0|0]
152,173,15200,1.6996057033538818,1.1799606084823608,0.0,-0.3024958670139313,0.9320530295372008,-3.3931210041046143,4.1171875,0,"['A1', 'F1', 'E2']",6.1,180,450.0,0.12437449736624737,[23500|0|0]
153,174,15300,1.6997733116149902,1.1799256801605225,0.0,-0.2954195141792297,0.9215314984321594,-3.366838216781616,4.1171875,0,"['A1', 'F1', 'E2']",6.1,180,450.0,0.1245457063521629,[23600|0|0]
154,175,15400,1.7000014781951904,1.1799280643463137,0.0,-0.2908532917499542,0.9132798314094543,-3.3769986629486084,4.1171875,0,"['A1', 'F1', 'E2']",6.1,180,450.0,0.12477388538858417,[23700|0|0]
155,176,15500,1.700059175491333,1.18004310131073,0.0,-0.2750861048698425,0.9216410517692566,-3.377369880676269,4.1171875,0,"['A1', 'F1', 'E2']",6.1,180,450.0,0.124902580692167,[23800|0|0]
156,177,15600,1.699865221977234,1.1802358627319336,0.0,-0.273706704378128,0.9320062398910522,-3.3920388221740723,4.1171875,0,"['A1', 'F1', 'E2']",6.1,180,450.0,0.12517603074452713,[23900|0|0]
157,178,15700,1.6996538639068604,1.1799418926239014,0.0,-0.2604236602783203,0.9404910802841188,-3.430758476257324,4.1171875,0,"['A1', 'F1', 'E2']",6.1,180,450.0,0.12553809518399695,[24000|0|0]
158,179,15800,1.6997982263565063,1.179806351661682,0.0,-0.2539412975311279,0.9358668923377992,-3.4515883922576904,4.1171875,0,"['A1', 'F1', 'E2']",6.1,180,450.0,0.12573611505498763,[24100|0|0]
159,180,15900,1.6996517181396484,1.1799229383468628,0.0,-0.2528431713581085,0.9374383687973022,-3.4378585815429688,4.1171875,0,"['A1', 'F1', 'E2']",6.1,180,450.0,0.12592335050240172,[24200|0|0]
160,181,16000,1.6998032331466677,1.180081486701965,0.0,-0.2515873908996582,0.928605020046234,-3.4186229705810547,4.1171875,0,"['A1', 'F1', 'E2']",6.1,180,450.0,0.12614265480755257,[24300|0|0]
161,182,16100,1.6997538805007937,1.180206060409546,0.0,-0.2497095167636871,0.9300841093063354,-3.416285753250122,4.1171875,0,"['A1', 'F1', 'E2']",6.1,180,450.0,0.12627664843529357,[24400|0|0]
162,183,16200,1.6999329328536987,1.1800248622894287,0.0,-0.2445775866508484,0.924500286579132,-3.387913227081299,4.1171875,0,"['A1', 'F1', 'E2']",6.1,180,450.0,0.12653138850637552,[24500|0|0]
163,184,16300,1.699549436569214,1.1798681020736694,0.0,-0.2379305809736251,0.940581440925598,-3.3826334476470947,4.1171875,0,"['A1', 'F1', 'E2']",6.1,180,450.0,0.1269456869078429,[24600|0|0]
164,185,16400,1.6998229026794434,1.1801183223724363,0.0,-0.2478862255811691,0.9328782558441162,-3.4122140407562256,4.1171875,0,"['A1', 'F1', 'E2']",6.1,180,450.0,0.12731635375469988,[24700|0|0]
165,186,16500,1.6999294757843018,1.1798053979873655,0.0,-0.2418753653764724,0.9285556077957152,-3.45120906829834,4.1171875,0,"['C1', 'F1', 'J1']",6.1,180,450.0,0.12764692825076862,[24700|0|0]
166,187,16600,1.6999881267547607,1.1802337169647217,0.0,-0.2489988505840301,0.9088662266731262,-3.4151952266693115,3.345703125,0,"['C1', 'F1', 'J1']",6.1,180,450.0,0.12807924420316827,[24700|0|0]
167,188,16700,1.6995089054107666,1.1848411560058594,0.0,0.0336210317909717,4.906051158905029,-0.7348843216896057,3.68359375,0,"['C1', 'F1', 'J1']",6.1,180,450.0,0.1327115381936593,[24700|0|0]
168,189,16800,1.685585856437683,1.1914557218551636,0.0,-7.234227657318115,12.777666091918944,5.963702201843262,3.779296875,0,"['C1', 'F1', 'J1']",6.1,180,450.0,0.14812593970917923,[24700|0|0]
169,190,16900,1.6473307609558103,1.210987210273743,0.0440676771104335,-4.893892765045166,6.865096569061279,12.058757781982422,3.7421875,0,"['C1', 'F1', 'J1']",6.1,180,450.0,0.20966366420466026,[24700|0|0]
170,191,17000,1.5966339111328125,1.2366632223129272,0.09822628647089,3.6431922912597656,-6.773517608642578,14.22749137878418,3.7265625,0,"['C1', 'F1', 'J1']",6.1,180,450.0,0.28816578611273647,[24700|0|0]
171,192,17100,1.5516465902328491,1.253798246383667,0.1603563874959945,11.9699068069458,-9.10933780670166,18.737911224365234,3.75390625,0,"['C1', 'F1', 'J1']",6.1,180,450.0,0.3667636076159487,[24700|0|0]
172,193,17200,1.5298707485198977,1.2593083381652832,0.2222602367401123,11.47370433807373,-11.951797485351562,16.753841400146484,3.7578125,0,"['C1', 'F1', 'J1']",6.1,180,450.0,0.43261673924222604,[24700|0|0]
173,194,17300,1.5298247337341309,1.2558979988098145,0.2918273508548736,7.997498989105225,-11.172019958496094,12.697129249572754,3.7734375,0,"['C1', 'F1', 'J1']",6.1,180,450.0,0.5022674097209529,[24700|0|0]
174,195,17400,1.551692247390747,1.2423502206802368,0.3641655743122101,5.805883884429932,-7.749973773956299,5.753262042999268,3.794921875,0,"['C1', 'F1', 'J1']",6.1,180,450.0,0.5790433761344999,[24700|0|0]
175,196,17500,1.5823529958724976,1.2198731899261477,0.4339022040367126,4.052112579345703,-3.96250319480896,5.672152996063232,3.80078125,0,"['C1', 'F1', 'J1']",6.1,180,450.0,0.6584694167906587,[24700|0|0]
176,197,17600,1.6156284809112549,1.1895806789398191,0.4911752343177795,-2.1106231212615967,-0.99420166015625,5.625313758850098,3.806640625,0,"['C1', 'F1', 'J1']",6.1,180,450.0,0.7313054938678696,[24700|0|0]
177,198,17700,1.648041605949402,1.1586015224456787,0.5396838188171387,-5.598933219909668,3.443685531616211,6.005226135253906,3.80078125,0,"['C1', 'F1', 'J1']",6.1,180,450.0,0.7973615426594713,[24700|0|0]
178,199,17800,1.671493649482727,1.136335372924805,0.5774644613265991,-7.142759799957275,4.768048286437988,5.4901862144470215,3.80078125,0,"['C1', 'F1', 'J1']",6.1,180,450.0,0.8470923852906045,[24700|0|0]
179,200,17900,1.6860026121139526,1.1192113161087036,0.6054785847663879,-4.471989154815674,6.255309104919434,4.390750885009766,3.78515625,0,"['C1', 'F1', 'J1']",6.1,180,450.0,0.8829885470711499,[24700|0|0]
180,201,18001,1.6896487474441528,1.1092466115951538,0.6251354217529297,-6.230254173278809,3.352327823638916,-1.4709455966949463,3.76953125,0,"['C1', 'F1', 'J1']",6.1,180,450.0,0.9053264269885452,[24700|0|0]
181,202,18100,1.6877692937850952,1.1048318147659302,0.6370299458503723,-4.566977024078369,3.153273820877075,1.5433306694030762,3.76953125,0,"['C1', 'F1', 'J1']",6.1,180,450.0,0.9181522790305934,[24700|0|0]
182,203,18200,1.680324673652649,1.109599471092224,0.6477254033088684,-3.188007354736328,0.5239695310592651,2.5897233486175537,3.76953125,0,"['C1', 'F1', 'J1']",6.1,180,450.0,0.9320283637092256,[24700|0|0]
183,204,18300,1.6729437112808228,1.1172785758972168,0.6556655764579773,-2.9721779823303223,-0.518955647945404,4.1069769859313965,3.76953125,0,"['C1', 'F1', 'J1']",6.1,180,450.0,0.9453134533129207,[24700|0|0]
184,205,18400,1.6668424606323242,1.129833698272705,0.6625126600265503,-1.6889058351516724,-1.479344129562378,4.5089521408081055,3.76953125,0,"['C1', 'F1', 'J1']",6.1,180,450.0,0.9608614085075536,[24700|0|0]
185,206,18501,1.6639169454574585,1.1454434394836426,0.6687933802604675,-0.517604649066925,-2.064995288848877,4.231044292449951,3.76953125,0,"['C1', 'F1', 'J1']",6.1,180,450.0,0.9779397604879863,[24700|0|0]
186,207,18601,1.665998101234436,1.1622122526168823,0.6728580594062805,2.3893284797668457,-1.666866660118103,4.232357025146484,3.763671875,0,"['C1', 'F1', 'J1']",6.1,180,450.0,0.9953192288292206,[24700|0|0]
187,208,18701,1.6730561256408691,1.1763486862182615,0.6757102012634277,0.8810582756996155,-1.422528862953186,3.711573362350464,3.7578125,0,"['C1', 'F1', 'J1']",6.1,180,450.0,1.011375043248343,[24700|0|0]
188,209,18801,1.6839401721954346,1.1885212659835815,0.6783122420310974,2.02905535697937,0.8436146378517151,3.090920925140381,3.763671875,0,"['C1', 'F1', 'J1']",6.1,180,450.0,1.0279099996650272,[24700|0|0]
189,210,18901,1.6947674751281738,1.1979777812957764,0.6795083284378052,2.9532058238983154,1.3269749879837036,2.586032629013061,3.7578125,0,"['C1', 'F1', 'J1']",6.1,180,450.0,1.0423352134707005,[24700|0|0]
190,211,19001,1.7053334712982178,1.2032678127288818,0.6792694330215454,2.767838954925537,2.8130669593811035,1.84237027168274,3.7578125,0,"['C1', 'F1', 'J1']",6.1,180,450.0,1.0541539180802817,[24700|0|0]
191,212,19101,1.7121696472167969,1.2014694213867188,0.6765627264976501,2.6483943462371826,2.6754324436187744,1.777652144432068,3.748046875,0,"['C1', 'F1', 'J1']",6.1,180,450.0,1.0617231830918812,[24700|0|0]
192,213,19201,1.717079997062683,1.1942988634109497,0.6751226186752319,0.9350236058235168,2.2026100158691406,1.8804181814193728,3.748046875,0,"['C1', 'F1', 'J1']",6.1,180,450.0,1.0705324025711,[24700|0|0]
193,214,19301,1.720406174659729,1.1846915483474731,0.67328280210495,0.3034704923629761,1.3510684967041016,2.4328808784484863,3.748046875,0,"['C1', 'F1', 'J1']",6.1,180,450.0,1.080864337779389,[24700|0|0]
194,215,19401,1.7210391759872437,1.1734577417373655,0.6725605726242065,-2.5003602504730225,2.3415000438690186,2.237776517868042,3.748046875,0,"['C1', 'F1', 'J1']",6.1,180,450.0,1.0921391201301391,[24700|0|0]
195,216,19502,1.7192221879959106,1.167017698287964,0.6689824461936951,-2.595860958099365,1.6715285778045654,1.8865236043930047,3.7421875,0,"['C1', 'F1', 'J1']",6.1,180,335.0,1.099727176122523,[24700|0|0]
196,217,19602,1.7141598463058472,1.1622291803359983,0.6680647134780884,1.583656907081604,7.356482028961182,1.7970465421676636,3.615234375,0,"['C1', 'F1', 'J1']",6.1,180,335.0,1.106755649705069,[24700|0|0]
197,218,19700,1.6918193101882937,1.1509052515029907,0.6764689683914185,17.450397491455078,24.116823196411133,-0.4800395965576172,3.6796875,0,"['C1', 'F1', 'J1']",6.1,180,335.0,1.1331746280896122,[24700|0|0]
198,219,19800,1.6324232816696167,1.1088168621063232,0.6907190084457397,18.525449752807617,24.37859535217285,-2.1139585971832275,3.630859375,0,"['C1', 'F1', 'J1']",6.1,180,335.0,1.2073526866200615,[24700|0|0]
199,220,19900,1.5336312055587769,1.0346972942352295,0.7135355472564697,8.226997375488281,9.395398139953612,0.5136193633079529,3.62109375,0,"['C1', 'F1', 'J1']",6.1,180,335.0,1.332947985445253,[24700|0|0]
200,221,20002,1.4181196689605713,0.9478096961975098,0.7610259652137756,-5.0951032638549805,0.8523978590965271,3.086258172988892,3.658203125,0,"['C1', 'F1', 'J1']",6.1,180,335.0,1.4850916990117444,[24700|0|0]
201,222,20102,1.300074815750122,0.8768381476402283,0.8346986770629883,-17.30813217163086,0.9304212331771852,9.02249526977539,3.716796875,0,"['C1', 'F1', 'J1']",6.1,180,335.0,1.6412941847324019,[24700|0|0]
202,223,20200,1.1786011457443235,0.8390225768089294,0.9146929383277892,-16.416839599609375,-2.9074547290802,9.497279167175291,3.6796875,0,"['C1', 'F1', 'J1']",6.1,180,335.0,1.7915770904045902,[24700|0|0]
203,224,20300,1.0722750425338743,0.8298683166503906,1.005308747291565,-3.7037389278411865,-14.200475692749023,9.727123260498049,3.705078125,0,"['C1', 'F1', 'J1']",6.1,180,335.0,1.9315780387482668,[24700|0|0]
204,225,20400,0.9901588559150696,0.8308722376823425,1.0927283763885498,0.559663712978363,-11.752411842346191,7.766332626342773,3.716796875,0,"['C1', 'F1', 'J1']",6.1,180,335.0,2.051520806407293,[24700|0|0]
205,226,20500,0.928672730922699,0.8391312956809998,1.193671703338623,2.627382516860962,-9.969481468200684,4.75499963760376,3.76953125,0,"['C1', 'F1', 'J1']",6.1,180,335.0,2.170004184403331,[24700|0|0]
206,227,20600,0.8830079436302185,0.8433583378791809,1.281439185142517,4.0430006980896,-6.622486591339111,2.222059965133667,3.794921875,0,"['C1', 'F1', 'J1']",6.1,180,335.0,2.2690308047960794,[24700|0|0]
207,228,20700,0.8470986485481262,0.8342345356941223,1.3550397157669067,3.725198745727539,-4.920053482055664,1.917479872703552,3.7890625,0,"['C1', 'F1', 'J1']",6.1,180,335.0,2.3514308008385343,[24700|0|0]
208,229,20800,0.8180334568023682,0.8248229622840881,1.4134637117385864,2.851033926010132,-2.494666576385498,8.146745681762695,3.779296875,0,"['C1', 'F1', 'J1']",6.1,180,335.0,2.417360508790026,[24700|0|0]
209,230,20900,0.7933582067489624,0.8122783899307251,1.4580802917480469,1.1857774257659912,-2.093168020248413,2.9079294204711914,3.779296875,0,"['C1', 'F1', 'J1']",6.1,180,335.0,2.4698664462872983,[24700|0|0]
210,231,21000,0.7699763178825378,0.7996970415115356,1.4868407249450684,0.2299642115831375,-1.4020568132400513,-0.3786515891551971,3.76953125,0,"['C1', 'F1', 'J1']",6.1,180,335.0,2.5090093329039904,[24700|0|0]
211,232,21100,0.7486589550971985,0.7877195477485657,1.5042169094085691,-0.7567790746688843,-1.3449279069900513,-2.7556612491607666,3.7578125,0,"['C1', 'F1', 'J1']",6.1,180,335.0,2.5390063677486774,[24700|0|0]
212,233,21200,0.7270827293395996,0.7784839272499084,1.5106786489486694,-1.376863956451416,-1.4350824356079102,-2.934212207794189,3.748046875,0,"['C1', 'F1', 'J1']",6.1,180,335.0,2.5633494218262203,[24700|0|0]
213,234,21300,0.7081212997436523,0.7725166082382202,1.5123987197875977,-1.804155945777893,-1.943832516670227,-2.1654975414276123,3.7421875,0,"['C1', 'F1', 'J1']",6.1,180,335.0,2.5833019492901848,[24700|0|0]
214,235,21400,0.6920626759529114,0.7701837420463562,1.509197235107422,-1.5312715768814087,-2.173467874526977,-1.5022937059402466,3.7421875,0,"['C1', 'F1', 'J1']",6.1,180,335.0,2.5998419361970444,[24700|0|0]
215,236,21500,0.6797745823860168,0.772424578666687,1.5038015842437744,-1.0261653661727903,-2.132622480392456,-3.985030651092529,3.7421875,0,"['C1', 'F1', 'J1']",6.1,180,335.0,2.6134482450466243,[24700|0|0]
216,237,21600,0.6699255108833313,0.7747877836227417,1.493645429611206,-0.1219458281993866,-1.927045941352844,-3.8660950660705566,3.732421875,0,"['C1', 'F1', 'J1']",6.1,180,335.0,2.6277917600987295,[24700|0|0]
217,238,21700,0.6628641486167908,0.778313159942627,1.4838731288909912,0.2018694579601287,-2.0380306243896484,-0.863799512386322,3.732421875,0,"['C1', 'F1', 'J1']",6.1,180,335.0,2.640353168324818,[24700|0|0]
218,239,21800,0.6599098443984985,0.7825036644935608,1.4735002517700195,0.6216500997543335,-1.6230220794677734,0.6865370869636536,3.732421875,0,"['C1', 'F1', 'J1']",6.1,180,335.0,2.6519240292077595,[24700|0|0]
219,240,21900,0.6591812968254089,0.7872188687324524,1.4640636444091797,0.4782533347606659,-1.285356521606445,1.4891350269317627,3.7265625,0,"['C1', 'F1', 'J1']",6.1,180,335.0,2.66249821906152,[24700|0|0]
220,241,22000,0.6599310040473938,0.7914401888847351,1.4545360803604126,0.8274139165878296,-0.7905547618865967,1.2983239889144895,3.7265625,0,"['C1', 'F1', 'J1']",6.1,180,335.0,2.6729459978422043,[24700|0|0]
221,242,22100,0.6608643531799316,0.7943158745765686,1.444969654083252,1.0196819305419922,-0.4557445645332336,2.352767944335937,3.7265625,0,"['C1', 'F1', 'J1']",6.1,180,335.0,2.682978805052441,[24700|0|0]
222,243,22200,0.6627094149589539,0.7963728904724121,1.4362293481826782,1.0356743335723877,-0.2160004824399948,1.4120692014694214,3.7265625,0,"['C1', 'F1', 'J1']",6.1,180,335.0,2.6921455119093096,[24700|0|0]
223,244,22300,0.6657552719116211,0.796690046787262,1.4290623664855957,0.8921807408332825,-0.2574182152748108,0.7673327326774597,3.720703125,0,"['C1', 'F1', 'J1']",6.1,180,335.0,2.6999393209492126,[24700|0|0]
224,245,22400,0.6692721247673035,0.7948043346405029,1.4221574068069458,0.4935208261013031,-0.2895200252532959,0.4000472128391266,3.7265625,0,"['C1', 'F1', 'J1']",6.1,180,335.0,2.707914446808579,[24700|0|0]
225,246,22500,0.6738408207893372,0.7885143756866455,1.4158228635787964,0.2435907870531082,-0.1246834695339202,0.034592404961586,3.7265625,0,"['C1', 'F1', 'J1']",6.1,180,450.0,2.7179425575425236,[24700|0|0]
226,247,22600,0.6749786138534546,0.7924373149871826,1.4117302894592283,0.1667011678218841,0.0394352227449417,-0.3981039524078369,3.732421875,0,"['C1', 'F1', 'J1']",6.1,180,450.0,2.7237247014992763,[24700|0|0]
227,248,22700,0.678119421005249,0.7919533848762512,1.3992395401000977,0.2288766950368881,-0.7105841636657715,-0.7783178687095642,3.912109375,0,"['C1', 'F1', 'J1']",6.1,180,450.0,2.7366133661884384,[24700|0|0]
228,249,22800,0.6808181405067444,0.7904228568077087,1.353472352027893,0.2043959945440292,-1.1381129026412964,-0.8071776628494263,3.84765625,0,"['C1', 'F1', 'J1']",6.1,180,450.0,2.78248559206808,[24700|0|0]
229,250,22900,0.6880176663398743,0.7856345176696777,1.268734574317932,0.9894490242004396,0.2103521525859832,1.100329041481018,3.763671875,0,"['C1', 'F1', 'J1']",6.1,180,450.0,2.8676633610876165,[24700|0|0]
230,251,23000,0.6914993524551392,0.7826892733573914,1.1589317321777344,1.203606128692627,0.8612180352210999,-0.8600391745567322,3.720703125,0,"['C1', 'F1', 'J1']",6.1,180,450.0,2.977560862170805,[24700|0|0]
231,252,23100,0.6901798248291016,0.7790358662605286,1.0411381721496582,0.6318261623382568,1.4530627727508545,-1.598162055015564,3.7109375,0,"['C1', 'F1', 'J1']",6.1,180,450.0,3.0954184513225402,[24700|0|0]
232,253,23200,0.6897992491722107,0.7715123891830444,0.9206923246383668,1.060212016105652,1.983543872833252,-1.4035813808441162,3.716796875,0,"['C1', 'F1', 'J1']",6.1,180,450.0,3.216099641770262,[24700|0|0]
233,254,23300,0.6856815218925476,0.7632569670677185,0.8012624979019165,-2.11380934715271,1.320960521697998,4.910552501678467,3.7265625,0,"['C1', 'F1', 'J1']",6.1,180,450.0,3.3358852468593145,[24700|0|0]
234,255,23400,0.6770151853561401,0.7579627633094788,0.6830695867538452,-2.844153881072998,2.898288011550904,5.791340351104736,3.7265625,0,"['C1', 'F1', 'J1']",6.1,180,450.0,3.4545136508275545,[24700|0|0]
235,256,23500,0.6638532280921936,0.7560814023017883,0.5641195774078369,-1.632176637649536,1.8479650020599363,6.958794116973877,3.720703125,0,"['C1', 'F1', 'J1']",6.1,180,450.0,3.5742044247479976,[24700|0|0]
236,257,23600,0.6460956335067749,0.7551571726799011,0.4445909559726715,-0.1133439168334007,-2.9339287281036377,3.75517463684082,3.68359375,0,"['C1', 'F1', 'J1']",6.1,180,450.0,3.6950484469751856,[24700|0|0]
237,258,23700,0.6298965811729431,0.7512280941009521,0.3279852867126465,3.678219795227051,-3.580042839050293,2.289633274078369,3.65234375,0,"['C1', 'F1', 'J1']",6.1,180,450.0,3.812839486781158,[24700|0|0]
238,259,23800,0.6176322102546692,0.7412484884262085,0.2247054874897003,0.3018166422843933,-4.3308305740356445,2.3970718383789062,3.65234375,0,"['C1', 'F1', 'J1']",6.1,180,450.0,3.9173226158067402,[24700|0|0]
239,260,23900,0.6115919947624207,0.7300862073898315,0.1375546753406524,-3.2785372734069824,-1.6295820474624634,5.527371883392334,3.689453125,0,"['C1', 'F1', 'J1']",6.1,180,450.0,4.005392728667838,[24700|0|0]
240,261,24000,0.6045737266540527,0.7270317077636719,0.0634344890713691,-10.509514808654783,0.2694343626499176,12.15794563293457,3.705078125,0,"['C1', 'F1', 'J1']",6.1,180,450.0,4.0799070767345045,[24700|0|0]
241,262,24100,0.5946866869926453,0.7389138340950012,0.0,-5.987583160400391,-1.6625148057937622,16.080541610717773,3.6640625,0,"['C1', 'F1', 'J1']",6.1,180,450.0,4.145197756644929,[24700|0|0]
242,263,24200,0.5856310725212097,0.7589449286460876,0.0,-1.687004804611206,2.6232852935791016,14.470977783203123,3.689453125,0,"['C1', 'F1', 'J1']",6.1,180,450.0,4.167180679616405,[24700|0|0]
243,264,24300,0.5753687024116516,0.7753117680549622,0.0,9.045896530151367,-0.2865501940250397,8.889325141906738,3.763671875,0,"['C1', 'F1', 'J1']",6.1,180,450.0,4.186498797343074,[24700|0|0]
244,265,24400,0.5736488103866577,0.7801194787025452,0.0111581701785326,8.820289611816406,-12.811837196350098,6.343789100646973,3.7578125,0,"['C1', 'F1', 'J1']",6.1,180,450.0,4.198769774157558,[24700|0|0]
245,266,24500,0.5866490602493286,0.7736907601356506,0.0178238395601511,8.85135269165039,-10.579821586608888,3.838641166687012,3.716796875,0,"['C1', 'F1', 'J1']",6.1,180,450.0,4.214731167179762,[24700|0|0]
246,267,24600,0.6141398549079895,0.7582407593727112,0.0152551466599106,3.5295565128326416,-7.332841873168945,2.824323892593384,3.705078125,0,"['C1', 'F1', 'J1']",6.1,180,450.0,4.246370454430824,[24700|0|0]
247,268,24700,0.6531885266304016,0.7389459609985352,0.0088342279195785,1.797353982925415,-2.7082407474517822,2.0788652896881104,3.701171875,0,"['C1', 'F1', 'J1']",6.1,180,450.0,4.290396767075137,[24700|0|0]
248,269,24800,0.6901780962944031,0.7196237444877625,0.006397305522114,-2.2106587886810303,4.046926498413086,3.1984610557556152,3.716796875,0,"['C1', 'F1', 'J1']",6.1,180,450.0,4.332200055290162,[24700|0|0]
249,270,24900,0.7188828587532043,0.7053403258323669,0.0062308441847562,-5.739956855773926,4.889921188354492,4.142958164215088,3.705078125,0,"['C1', 'F1', 'J1']",6.1,180,450.0,4.364262605807523,[24700|0|0]
250,271,25000,0.7391166090965271,0.7017441391944885,0.0090117901563644,-4.30603551864624,2.621375322341919,4.417670726776123,3.720703125,0,"['C1', 'F1', 'J1']",6.1,180,450.0,4.385000755960982,[24700|0|0]
251,272,25100,0.7527057528495789,0.7046597003936768,0.0100023569539189,-2.725248098373413,4.068878650665283,4.572253227233887,3.716796875,0,"['C1', 'F1', 'J1']",6.1,180,450.0,4.398934403998295,[24700|0|0]
252,273,25200,0.7604173421859741,0.7111002802848816,0.011276664212346,-0.5954274535179138,3.286252021789551,3.976652145385742,3.716796875,0,"['C1', 'F1', 'J1']",6.1,180,450.0,4.409062263516331,[24700|0|0]
253,274,25300,0.7626701593399048,0.7171152830123901,0.0114844404160976,-0.3477714359760284,2.0877938270568848,3.36960506439209,3.7109375,0,"['C1', 'F1', 'J1']",6.1,180,450.0,4.415488663277615,[24700|0|0]
254,275,25400,0.7616982460021973,0.7217066884040833,0.0107940714806318,0.3254672586917877,2.399980306625366,3.166724920272827,3.7109375,0,"['C1', 'F1', 'J1']",6.1,180,450.0,4.420232314642749,[24700|0|0]
255,276,25500,0.7593544125556946,0.7257444262504578,0.0115668373182415,-0.0572035834193229,0.949537754058838,3.1143198013305664,3.7109375,0,"['C1', 'F1', 'J1']",6.1,180,450.0,4.424964549757445,[24700|0|0]
256,277,25600,0.7561699748039246,0.7280840873718262,0.0118694957345724,0.3221388459205627,0.9375220537185668,3.644995450973511,3.716796875,0,"['G1', 'F1', 'A/B1']",6.1,180,450.0,4.428927662180114,[24700|100|0]
257,278,25700,0.7536813020706177,0.7312102913856506,0.0134841324761509,-0.7665517926216125,-0.02016381919384,4.38087272644043,3.716796875,0,"['G1', 'F1', 'A/B1']",6.1,180,450.0,4.433237383205518,[24700|200|0]
258,279,25800,0.7516888380050659,0.7359301447868347,0.0152900395914912,-1.0609303712844849,0.7766773104667664,4.001722812652588,3.716796875,0,"['G1', 'F1', 'A/B1']",6.1,180,450.0,4.4386695310027,[24700|300|0]
259,280,25900,0.7489750385284424,0.7414398789405823,0.0164244305342435,0.217708945274353,0.4311648309230804,2.8811252117156982,3.716796875,0,"['G1', 'F1', 'A/B1']",6.1,180,450.0,4.444915227189298,[24700|400|0]
260,281,26000,0.7471414804458618,0.7475339770317078,0.0151439607143402,-0.0644067153334617,-0.2363007813692093,2.0431911945343018,3.705078125,0,"['G1', 'F1', 'A/B1']",6.1,180,450.0,4.451406726996441,[24700|500|0]
261,282,26100,0.7456653118133545,0.7540176510810852,0.0131425140425562,-0.3877908885478973,-0.0850729569792747,0.7474436163902283,3.705078125,0,"['G1', 'F1', 'A/B1']",6.1,180,450.0,4.458350997425375,[24700|600|0]
262,283,26200,0.7461397051811218,0.7609349489212036,0.0107823861762881,0.7895810604095459,0.2069246172904968,0.0532250255346298,3.705078125,0,"['G1', 'F1', 'A/B1']",6.1,180,450.0,4.46567522175437,[24700|700|0]
263,284,26300,0.7456358671188354,0.7678081393241882,0.0102228876203298,-0.3798026144504547,0.4017424881458282,0.152925357222557,3.705078125,0,"['G1', 'F1', 'A/B1']",6.1,180,450.0,4.47258952849784,[24700|800|0]
264,285,26400,0.7440164089202881,0.7761328220367432,0.0110918479040265,0.6354116201400757,0.3416239321231842,0.665678858757019,3.705078125,0,"['G1', 'F1', 'A/B1']",6.1,180,450.0,4.481114672431886,[24700|900|0]
265,286,26500,0.742733895778656,0.7831690907478333,0.0123383607715368,0.2823042273521423,0.297194093465805,0.9062252044677734,3.705078125,0,"['G1', 'F1', 'A/B1']",6.1,180,450.0,4.488374680122102,[24700|1000|0]
266,287,26600,0.7398186922073364,0.7903673052787781,0.0124734798446297,-0.2360150068998336,0.8396356701850891,1.6105693578720093,3.705078125,0,"['G1', 'F1', 'A/B1']",6.1,180,450.0,4.4961419809054926,[24700|1100|0]
267,288,26700,0.7354370951652527,0.7981722950935364,0.0120877949520945,-0.6150460839271545,0.9430875182151794,2.110780954360962,3.701171875,0,"['G1', 'F1', 'A/B1']",6.1,180,450.0,4.505101055159232,[24700|1200|0]
268,289,26800,0.7303805947303772,0.8081239461898804,0.011413031257689,-1.3470276594161987,-0.4110531806945801,2.3889100551605225,3.701171875,0,"['G1', 'F1', 'A/B1']",6.1,180,450.0,4.516284027136061,[24700|1300|0]
269,290,26900,0.7241541743278503,0.8216575384140015,0.0111609380692243,-0.5384714603424072,0.6433863043785095,2.4123754501342773,3.701171875,0,"['G1', 'F1', 'A/B1']",6.1,180,450.0,4.531183355325394,[24700|1400|0]
270,291,27000,0.7164411544799805,0.8377839922904968,0.0121244071051478,-0.572871744632721,0.5840619206428528,1.8922574520111084,3.701171875,0,"['G1', 'F1', 'A/B1']",6.1,180,450.0,4.549085351370181,[24700|1500|0]
271,292,27100,0.7087323069572449,0.8529168367385864,0.0136881964281201,-0.0879413187503814,-0.1863179504871368,1.0981848239898682,3.705078125,0,"['G1', 'F1', 'A/B1']",6.1,180,450.0,4.5661404018909355,[24700|1600|0]
272,293,27200,0.7002996802330017,0.868326723575592,0.0165565963834524,1.9349756240844729,-0.3228356838226318,-0.2059644162654876,3.701171875,0,"['G1', 'F1', 'A/B1']",6.1,180,450.0,4.583939321074512,[24700|1700|0]
273,294,27300,0.6917200684547424,0.8808110356330872,0.0173456147313117,1.573835015296936,-0.0990918576717376,-1.1392714977264404,3.701171875,0,"['G1', 'F1', 'A/B1']",6.1,180,450.0,4.599108049952299,[24700|1800|0]
274,295,27400,0.6827383637428284,0.8878709077835083,0.0175769329071044,1.6856998205184937,-0.642611026763916,-1.4710564613342283,3.6953125,0,"['G1', 'F1', 'A/B1']",6.1,180,450.0,4.610534612095427,[24700|1900|0]
275,296,27500,0.6747531890869141,0.8921388387680054,0.0168744623661041,1.5180203914642334,-0.0475965365767478,-0.3184452354907989,4.0,0,"['G1', 'F1', 'A/B1']",6.1,180,450.0,4.619616005933096,[24700|2000|0]
276,297,27600,0.6671700477600098,0.8923008441925049,0.0,2.2407379150390625,2.653520345687866,6.126605987548828,4.01171875,0,"['G1', 'F1', 'A/B1']",6.1,180,450.0,4.638116756141843,[24700|2100|0]
277,298,27700,0.6565835475921631,0.8915640711784363,0.0,-4.088274002075195,1.193225622177124,14.572465896606444,4.01171875,0,"['G1', 'F1', 'A/B1']",6.1,180,450.0,4.648728863391493,[24700|2200|0]
278,299,27800,0.6524496078491211,0.8884360790252686,0.0,-3.510814905166626,1.4876410961151123,18.397123336791992,4.01171875,0,"['G1', 'F1', 'A/B1']",6.1,180,450.0,4.65391285728707,[24700|2300|0]
279,300,27900,0.6529423594474792,0.8884406089782715,0.0,-3.334150075912476,1.27104389667511,18.20032119750977,4.015625,0,"['G1', 'F1', 'A/B1']",6.1,180,450.0,4.65440562970732,[24700|2400|0]
280,301,28000,0.6526011824607849,0.8884175419807434,0.0,-3.3629496097564697,1.1809715032577517,18.09682846069336,4.015625,0,"['G1', 'F1', 'A/B1']",6.1,180,450.0,4.654747585585504,[24700|2500|0]
281,302,28100,0.6524746417999268,0.8882334232330322,0.0,-3.446588516235352,1.1003262996673584,18.08443260192871,4.0234375,0,"['G1', 'F1', 'A/B1']",6.1,180,450.0,4.654970996086845,[24700|2600|0]
282,303,28200,0.6533293128013611,0.8878716826438904,0.0,-3.5199990272521973,1.0318210124969482,17.276269912719727,4.0234375,0,"['G1', 'F1', 'A/B1']",6.1,180,450.0,4.655899068699589,[24700|2700|0]
283,304,28300,0.6585795283317566,0.8842645883560181,0.0,-3.3572051525115967,1.243998408317566,10.12147045135498,4.0234375,0,"['G1', 'F1', 'A/B1']",6.1,180,450.0,4.662268989603117,[24700|2800|0]
284,305,28400,0.6625273823738098,0.877669095993042,0.0,4.390017986297607,8.39430046081543,4.882063388824463,4.0234375,0,"['G1', 'F1', 'A/B1']",6.1,180,450.0,4.669955736057075,[24700|2900|0]
285,306,28500,0.696214497089386,0.8414281606674194,0.0008451153989881,-10.701363563537598,7.236785888671875,8.706645965576172,4.02734375,0,"['G1', 'F1', 'A/B1']",6.1,180,450.0,4.719442515212461,[24700|3000|0]
286,307,28600,0.7488692998886108,0.7862143516540527,0.0139517169445753,-14.875211715698242,7.373720645904541,14.441140174865724,4.02734375,0,"['G1', 'F1', 'A/B1']",6.1,180,450.0,4.796856183047441,[24700|3100|0]
287,308,28700,0.7794390916824341,0.7518585920333862,0.0,-8.313664436340332,11.607706069946287,19.488067626953125,4.02734375,0,"['G1', 'F1', 'A/B1']",6.1,180,450.0,4.844913240751095,[24700|3200|0]
288,309,28800,0.7781354188919067,0.7529703378677368,0.0,-6.706972599029541,7.343340873718262,10.88786792755127,4.02734375,0,"['G1', 'F1', 'A/B1']",6.1,180,450.0,4.846626582965878,[24700|3300|0]
289,310,28900,0.7835242748260498,0.7470497488975525,0.0,-1.381294012069702,0.6146665215492249,3.0291872024536133,4.02734375,0,"['G1', 'F1', 'A/B1']",6.1,180,450.0,4.854632402226442,[24700|3400|0]
290,311,29000,0.783845841884613,0.7419263124465942,0.0,1.5417882204055786,0.5525601506233215,2.9969849586486816,4.03125,0,"['G1', 'F1', 'A/B1']",6.1,180,450.0,4.859765920166428,[24700|3500|0]
291,312,29100,0.7830033898353577,0.7417628169059753,0.0,0.2864643335342407,0.018383752554655,3.473987340927124,4.03125,0,"['G1', 'F1', 'A/B1']",6.1,180,450.0,4.860624090456695,[24700|3600|0]
292,313,29200,0.7842919230461121,0.7434543967247009,0.0,-5.018096923828125,-2.300078868865967,3.6173081398010254,4.03125,0,"['G1', 'F1', 'A/B1']",6.1,180,450.0,4.862750533523964,[24700|3700|0]
293,314,29300,0.7840552926063538,0.7433776259422302,0.0,-4.972563743591309,-2.222370386123657,3.606232166290283,4.03125,0,"['G1', 'F1', 'A/B1']",6.1,180,450.0,4.862999305946192,[24700|3800|0]
294,315,29400,0.7838687896728516,0.7433768510818481,0.0,-4.929102420806885,-2.1542913913726807,3.588674306869507,4.0390625,0,"['G1', 'F1', 'A/B1']",6.1,180,450.0,4.863185810489337,[24700|3900|0]
295,316,29500,0.7836003303527832,0.7432368993759155,0.0,-4.8948187828063965,-2.095424175262451,3.575314521789551,4.03125,0,"['G1', 'F1', 'A/B1']",6.1,180,450.0,4.863488559372943,[24700|4000|0]
296,317,29600,0.7837434411048889,0.7434316277503967,0.0,-4.846065521240234,-2.05260968208313,3.5848870277404785,4.0390625,0,"['G1', 'F1', 'A/B1']",6.1,180,450.0,4.863730219934881,[24700|4100|0]
297,318,29700,0.783691942691803,0.743104100227356,0.0,-4.805278778076172,-2.011345148086548,3.569239616394043,4.0390625,0,"['G1', 'F1', 'A/B1']",6.1,180,450.0,4.864061771386242,[24700|4200|0]
298,319,29800,0.7834031581878662,0.7433149814605713,0.0,-4.776149749755859,-1.9693607091903689,3.5751073360443115,4.05859375,0,"['G1', 'F1', 'A/B1']",6.1,180,450.0,4.864419356878448,[24700|4300|0]
299,320,29900,0.7835648655891418,0.7430991530418396,0.0,-4.723852634429932,-1.948732852935791,3.550333976745605,4.1015625,0,"['G1', 'F1', 'A/B1']",6.1,180,450.0,4.864689044086079,[24700|4400|0]
300,321,30000,0.7836326360702515,0.7429725527763367,0.0,-4.682621002197266,-1.9197481870651243,3.539666652679444,4.1015625,0,"['G1', 'F1', 'A/B1']",6.1,180,450.0,4.864832642363698,[24700|4500|0]
301,322,30100,0.7836161851882935,0.7432735562324524,0.0,-4.654288768768311,-1.895214796066284,3.5207014083862305,4.10546875,0,"['G1', 'F1', 'A/B1']",6.1,180,450.0,4.865134095033467,[24700|4600|0]
302,323,30200,0.7833161354064941,0.7430570721626282,0.0,-4.635601043701172,-1.8689953088760376,3.5199837684631348,4.10546875,0,"['G1', 'F1', 'A/B1']",6.1,180,450.0,4.865504088579418,[24700|4700|0]
