,Unnamed: 0,time.ms,stateEstimate.x,stateEstimate.y,stateEstimate.z,stabilizer.roll,stabilizer.pitch,stabilizer.yaw,pm.vbat,drone_id,node_name,wind_speed,global_wind_direction,relative_wind_direction,travel_dist,waiting_time
0,21,0,0.8992275595664978,-0.211669236421585,0.0,-11.919288635253906,4.924723148345947,-1.5864514112472534,4.12890625,1,"['A1', 'F1', 'E2']",6.1,180,450.0,0.0,[8300|0|0]
1,22,100,0.8995736241340637,-0.212725281715393,0.0,-10.467436790466309,4.372204303741455,-1.5828341245651243,4.12890625,1,"['A1', 'F1', 'E2']",6.1,180,450.0,0.0011113020955161718,[8400|0|0]
2,23,200,0.9003779292106628,-0.2140942066907882,0.0,-9.146815299987791,3.844107866287232,-1.567833662033081,4.12890625,1,"['A1', 'F1', 'E2']",6.1,180,450.0,0.0026990244404190436,[8500|0|0]
3,24,300,0.900989294052124,-0.2152141332626342,0.0,-7.925060272216797,3.359320163726806,-1.561567783355713,4.12890625,1,"['A1', 'F1', 'E2']",6.1,180,450.0,0.003974956451029933,[8600|0|0]
4,25,400,0.9018545746803284,-0.2169054001569748,0.0,-6.791818141937256,2.900630474090576,-1.5055656433105469,4.12890625,1,"['A1', 'F1', 'E2']",6.1,180,450.0,0.00587471808698277,[8700|0|0]
5,26,500,0.9026132225990297,-0.2180737853050232,0.0,-5.776843070983887,2.490084648132324,-1.4325770139694214,4.12890625,1,"['A1', 'F1', 'E2']",6.1,180,450.0,0.007267797596102717,[8800|0|0]
6,27,600,0.9032536149024964,-0.219010442495346,0.0,-4.8717546463012695,2.122578859329224,-1.370064616203308,4.12890625,1,"['A1', 'F1', 'E2']",6.1,180,450.0,0.008402446878710761,[8900|0|0]
7,28,700,0.9040396213531494,-0.2206499278545379,0.0,-4.048390865325928,1.801114201545715,-1.3139662742614746,4.12890625,1,"['A1', 'F1', 'E2']",6.1,180,450.0,0.010220610343164013,[9000|0|0]
8,29,800,0.9043375253677368,-0.2217132747173309,0.0,-3.334949254989624,1.5234400033950806,-1.2633469104766846,4.12890625,1,"['A1', 'F1', 'E2']",6.1,180,450.0,0.01132489896146948,[9100|0|0]
9,30,900,0.9057475924491882,-0.2233376801013946,0.0,-2.881507158279419,1.2255536317825315,-1.1928328275680542,4.12890625,1,"['A1', 'F1', 'E2']",6.1,180,450.0,0.013475941040548368,[9200|0|0]
10,31,1000,0.9056849479675292,-0.223985806107521,0.0,-2.345776319503784,1.0439453125,-1.1428321599960327,4.12890625,1,"['A1', 'F1', 'E2']",6.1,180,450.0,0.01412708745334636,[9300|0|0]
11,32,1100,0.906053066253662,-0.2247018814086914,0.0,-1.872459292411804,0.8919368386268616,-1.090387940406799,4.12890625,1,"['A1', 'F1', 'E2']",6.1,180,450.0,0.014932242661695436,[9400|0|0]
12,33,1200,0.9061881303787231,-0.225365549325943,0.0,-1.4956152439117432,0.7643918395042419,-1.036182522773743,4.12890625,1,"['A1', 'F1', 'E2']",6.1,180,450.0,0.015609514706200148,[9500|0|0]
13,34,1300,0.9064596891403198,-0.2257057726383209,0.0,-1.1920167207717896,0.6605085730552673,-0.996482789516449,4.12890625,1,"['A1', 'F1', 'E2']",6.1,180,450.0,0.016044826161695308,[9600|0|0]
14,35,1400,0.9067549705505372,-0.2258230149745941,0.0,-0.9469406008720398,0.5670419931411743,-0.9618220925331116,4.12890625,1,"['A1', 'F1', 'E2']",6.1,180,450.0,0.016362531806333187,[9700|0|0]
15,36,1500,0.9068523645401,-0.2262021601200103,0.0,-0.7343922853469849,0.4988184571266174,-0.9223920106887816,4.12890625,1,"['A1', 'F1', 'E2']",6.1,180,450.0,0.01675398631262431,[9800|0|0]
16,37,1600,0.9070490598678588,-0.2269521355628967,0.0,-0.5513498187065125,0.4411298334598541,-0.9142791628837584,4.12890625,1,"['A1', 'F1', 'E2']",6.1,180,450.0,0.017529326377947133,[9900|0|0]
17,38,1700,0.9070379734039308,-0.2267083525657653,0.0,-0.423552542924881,0.3946393728256225,-0.8781647086143494,4.12890625,1,"['A1', 'F1', 'E2']",6.1,180,450.0,0.017773361333174448,[10000|0|0]
18,39,1800,0.9073320031166076,-0.2271853983402252,0.0,-0.31094890832901,0.3495883047580719,-0.8649693727493286,4.12890625,1,"['A1', 'F1', 'E2']",6.1,180,450.0,0.018333741688707036,[10100|0|0]
19,40,1900,0.906889796257019,-0.2270944267511367,0.0,-0.235379159450531,0.327289342880249,-0.8503902554512024,4.12890625,1,"['A1', 'F1', 'E2']",6.1,180,450.0,0.01878520900390097,[10200|0|0]
20,41,2000,0.9073151350021362,-0.2272031307220459,0.0,-0.1691263020038604,0.2860910296440124,-0.8331880569458008,4.12890625,1,"['A1', 'F1', 'E2']",6.1,180,450.0,0.019224218800362614,[10300|0|0]
21,42,2100,0.9072056412696838,-0.2270496785640716,0.0,-0.1231906339526176,0.2661494016647339,-0.8103336691856384,4.12890625,1,"['A1', 'F1', 'E2']",6.1,180,450.0,0.019412729920016934,[10400|0|0]
22,43,2200,0.9074655175209044,-0.2273966819047927,0.0,-0.0768013894557952,0.2456423044204712,-0.8117533326148987,4.12890625,1,"['A1', 'F1', 'E2']",6.1,180,450.0,0.01984625844782113,[10500|0|0]
23,44,2300,0.9073583483695984,-0.2276013493537902,0.0,-0.0400902070105075,0.2408894151449203,-0.8138200044631958,4.12890625,1,"['A1', 'F1', 'E2']",6.1,180,450.0,0.020077286566609297,[10600|0|0]
24,45,2400,0.907268226146698,-0.2272947877645492,0.0,-0.020171383395791,0.2381087094545364,-0.7956238985061646,4.12890625,1,"['A1', 'F1', 'E2']",6.1,180,450.0,0.020396820638436505,[10700|0|0]
25,46,2500,0.9075483083724976,-0.2275802493095398,0.0,-0.0032887135166674,0.213048055768013,-0.7963641881942749,4.12890625,1,"['A1', 'F1', 'E2']",6.1,180,450.0,0.020796738563612725,[10800|0|0]
26,47,2600,0.9070863127708436,-0.2274812161922454,0.0,0.0018042245646938,0.2122476398944854,-0.7783104777336121,4.12890625,1,"['A1', 'F1', 'E2']",6.1,180,450.0,0.021269229298197682,[10900|0|0]
27,48,2700,0.907235860824585,-0.2273653596639633,0.0,0.0097483489662408,0.2075756788253784,-0.7708244919776917,4.12890625,1,"['A1', 'F1', 'E2']",6.1,180,450.0,0.021458404760463293,[11000|0|0]
28,49,2800,0.9075442552566528,-0.2276400476694107,0.0,0.0200760290026664,0.1931596994400024,-0.765414834022522,4.12890625,1,"['A1', 'F1', 'E2']",6.1,180,450.0,0.021871394622405622,[11100|0|0]
29,50,2900,0.9075433611869812,-0.2280178368091583,0.0,0.0288563463836908,0.1955524682998657,-0.7875048518180847,4.12890625,1,"['A1', 'F1', 'E2']",6.1,180,450.0,0.022249184820097148,[11200|0|0]
30,51,3000,0.9076022505760192,-0.2277518063783645,0.0,0.0208174791187047,0.2018529176712036,-0.7833245396614075,4.12890625,1,"['A1', 'F1', 'E2']",6.1,180,450.0,0.022521655277669334,[11300|0|0]
31,52,3100,0.9076113104820251,-0.2277852445840835,0.0,0.0191335789859294,0.2004875391721725,-0.7972946166992188,4.12890625,1,"['A1', 'F1', 'E2']",6.1,180,450.0,0.0225562991154842,[11400|0|0]
32,53,3200,0.9075599908828736,-0.2277164161205291,0.0,0.0157944820821285,0.1960295736789703,-0.7721790671348572,4.12890625,1,"['A1', 'F1', 'E2']",6.1,180,450.0,0.022642153985190767,[11500|0|0]
33,54,3300,0.90755033493042,-0.2275806218385696,0.0,0.0114649794995784,0.1962744295597076,-0.7900657057762146,4.12890625,1,"['A1', 'F1', 'E2']",6.1,180,450.0,0.02277829113820447,[11600|0|0]
34,55,3400,0.9077226519584656,-0.2277072221040725,0.0,0.0075026638805866,0.1924294084310531,-0.7786765098571777,4.12890625,1,"['A1', 'F1', 'E2']",6.1,180,450.0,0.02299211533089521,[11700|0|0]
35,56,3500,0.9072243571281432,-0.2276097983121872,0.0,0.0021662239450961,0.2101866155862808,-0.776170015335083,4.12890625,1,"['A1', 'F1', 'E2']",6.1,180,450.0,0.0234998447205816,[11800|0|0]
36,57,3600,0.9074507355690002,-0.2278600931167602,0.0,0.0034512563142925,0.2090105563402176,-0.7734368443489075,4.12890625,1,"['A1', 'F1', 'E2']",6.1,180,450.0,0.02383732759078556,[11900|0|0]
37,58,3700,0.9075141549110411,-0.2274102866649627,0.0,-0.0125889293849468,0.208962395787239,-0.7888748049736023,4.12890625,1,"['A1', 'F1', 'E2']",6.1,180,450.0,0.02429158286816112,[12000|0|0]
38,59,3800,0.9075399041175842,-0.2275242358446121,0.0,-0.009136701002717,0.210935890674591,-0.7840620279312134,4.12890625,1,"['A1', 'F1', 'E2']",6.1,180,450.0,0.024408405114246207,[12100|0|0]
39,60,3900,0.9075668454170228,-0.2278587818145752,0.0,6.784404104109854e-05,0.2158824503421783,-0.7891468405723572,4.12890625,1,"['A1', 'F1', 'E2']",6.1,180,450.0,0.02474403413509213,[12200|0|0]
40,61,4000,0.9073235988616944,-0.2277239561080932,0.0,-0.0071878042072057,0.2174527496099472,-0.7722949981689453,4.12890625,1,"['A1', 'F1', 'E2']",6.1,180,450.0,0.025022147165724436,[12300|0|0]
41,62,4100,0.9075918197631836,-0.2275540083646774,0.0,0.0329396054148674,0.2369835376739502,-0.7808250188827515,4.12890625,1,"['A1', 'F1', 'E2']",6.1,180,450.0,0.02533967619981073,[12400|0|0]
42,63,4200,0.9075355529785156,-0.2277929782867431,0.0,0.0730546489357948,0.2695981860160827,-0.7710503935813904,4.12890625,1,"['A1', 'F1', 'E2']",6.1,180,450.0,0.025585180934406544,[12500|0|0]
43,64,4300,0.9072224497795104,-0.2276320457458496,0.0,0.093748889863491,0.3022390305995941,-0.7337496280670166,4.12890625,1,"['A1', 'F1', 'E2']",6.1,180,450.0,0.025937221977391237,[12600|0|0]
44,65,4400,0.9073836207389832,-0.2275691330432891,0.0,0.1105250045657157,0.3100786805152893,-0.7523461580276489,4.12890625,1,"['A1', 'F1', 'E2']",6.1,180,450.0,0.02611023667711597,[12700|0|0]
45,66,4500,0.9074284434318542,-0.2277215868234634,0.0,0.1248703151941299,0.3098731935024261,-0.753423273563385,4.12890625,1,"['A1', 'F1', 'E2']",6.1,180,450.0,0.026269143029681415,[12800|0|0]
46,67,4600,0.907288372516632,-0.2278738021850586,0.0,0.1464730054140091,0.3255304992198944,-0.7726070284843445,4.12890625,1,"['A1', 'F1', 'E2']",6.1,180,450.0,0.026475998964082047,[12900|0|0]
47,68,4700,0.9072783589363098,-0.227889135479927,0.0,0.1522734761238098,0.3320173025131225,-0.758560061454773,4.12890625,1,"['A1', 'F1', 'E2']",6.1,180,450.0,0.026494312394191942,[13000|0|0]
48,69,4800,0.907985508441925,-0.2278273999691009,0.0,0.1540872901678085,0.3313062489032745,-0.7667698264122009,4.12890625,1,"['A1', 'F1', 'E2']",6.1,180,450.0,0.027204151598933995,[13100|0|0]
49,70,4900,0.9081124663352966,-0.2279031127691269,0.0,0.1555438041687011,0.3235236704349518,-0.7491845488548279,4.12890625,1,"['A1', 'F1', 'E2']",6.1,180,450.0,0.02735197153932475,[13200|0|0]
50,71,5000,0.90792316198349,-0.2278188019990921,0.0,0.1469319760799408,0.3200116753578186,-0.7507725954055786,4.12890625,1,"['A1', 'F1', 'E2']",6.1,180,450.0,0.027559201951081306,[13300|0|0]
51,72,5100,0.9077371954917908,-0.2274279296398162,0.0,0.1343222111463546,0.3182993233203888,-0.7137477993965149,4.12890625,1,"['A1', 'F1', 'E2']",6.1,180,450.0,0.027992058436860166,[13400|0|0]
52,73,5200,0.9081437587738036,-0.2277422249317169,0.0,0.1372444778680801,0.2991643249988556,-0.7219823002815247,4.12890625,1,"['A1', 'F1', 'E2']",6.1,180,450.0,0.028505940945603152,[13500|0|0]
53,74,5300,0.9080233573913574,-0.2275570333003997,0.0,0.1263904124498367,0.290203183889389,-0.7433168292045593,4.12890625,1,"['A1', 'F1', 'E2']",6.1,180,450.0,0.028726831038646896,[13600|0|0]
54,75,5400,0.9078027009963988,-0.2276022881269455,0.0,0.1294049322605133,0.2997690141201019,-0.7471978664398193,4.12890625,1,"['A1', 'F1', 'E2']",6.1,180,450.0,0.028952080331568802,[13700|0|0]
55,76,5500,0.907790184020996,-0.2272128313779831,0.0,0.1243368759751319,0.3050454556941986,-0.7660577893257141,4.12890625,1,"['A1', 'F1', 'E2']",6.1,180,450.0,0.029341738173765772,[13800|0|0]
56,77,5600,0.907934069633484,-0.2274995595216751,0.0,0.1233553811907768,0.2980135381221771,-0.7665075063705444,4.12890625,1,"['A1', 'F1', 'E2']",6.1,180,450.0,0.02966254356316271,[13900|0|0]
57,78,5700,0.9078104496002196,-0.2274339348077774,0.0,0.1189933866262435,0.2961663007736206,-0.7568766474723816,4.12890625,1,"['A1', 'F1', 'E2']",6.1,180,450.0,0.029802502541790173,[14000|0|0]
58,79,5800,0.9081106185913086,-0.2275822460651397,0.0,0.1226275265216827,0.2901909649372101,-0.7808664441108704,4.12890625,1,"['A1', 'F1', 'E2']",6.1,180,450.0,0.030137312416602367,[14100|0|0]
59,80,5900,0.9078259468078612,-0.2277745455503463,0.0,0.1243552863597869,0.2971474826335907,-0.7947515845298767,4.12890625,1,"['A1', 'F1', 'E2']",6.1,180,450.0,0.030480848610185858,[14200|0|0]
60,81,6000,0.908004641532898,-0.2276874333620071,0.0,0.1203502491116523,0.2937230169773102,-0.7884400486946106,4.12890625,1,"['A1', 'F1', 'E2']",6.1,180,450.0,0.030679645838821455,[14300|0|0]
61,82,6100,0.9079988598823548,-0.2278318405151367,0.0,0.1222137957811355,0.2881324291229248,-0.8052188158035278,4.12890625,1,"['A1', 'F1', 'E2']",6.1,180,450.0,0.03082416868600484,[14400|0|0]
62,83,6200,0.9080911874771118,-0.2277320176362991,0.0,0.1155741438269615,0.2905996143817901,-0.7915450930595398,4.12890625,1,"['A1', 'F1', 'E2']",6.1,180,450.0,0.030960142918464634,[14500|0|0]
63,84,6300,0.9080889225006104,-0.2276425808668136,0.0,0.1113098412752151,0.2881422936916351,-0.7828227281570435,4.12890625,1,"['A1', 'F1', 'E2']",6.1,180,450.0,0.03104960836349541,[14600|0|0]
64,85,6400,0.9079689979553224,-0.2276695370674133,0.0,0.1023866534233093,0.2906355857849121,-0.7788109183311462,4.12890625,1,"['A1', 'F1', 'E2']",6.1,180,450.0,0.031172525137425165,[14700|0|0]
65,86,6500,0.9078664183616638,-0.227630615234375,0.0,0.0910951942205429,0.2892027199268341,-0.7900508046150208,4.12890625,1,"['A1', 'F1', 'E2']",6.1,180,450.0,0.031282240597239254,[14800|0|0]
66,87,6600,0.9077515602111816,-0.2274878025054931,0.0,0.092710368335247,0.2898008227348327,-0.7844740748405457,4.12890625,1,"['A1', 'F1', 'E2']",6.1,180,450.0,0.03146551053548031,[14900|0|0]
67,88,6700,0.9078142642974854,-0.2275744676589965,0.0,0.09958066791296,0.2956357300281524,-0.7904296517372131,4.12890625,1,"['A1', 'F1', 'E2']",6.1,180,450.0,0.03157248086440824,[15000|0|0]
68,89,6800,0.9077707529067992,-0.2273435592651367,0.0,0.1048067957162857,0.2972284257411957,-0.7770117521286011,4.12890625,1,"['A1', 'F1', 'E2']",6.1,180,450.0,0.03180745304887772,[15100|0|0]
69,90,6900,0.9078308343887328,-0.2274866849184036,0.0,0.112234741449356,0.2998323440551758,-0.7694562077522278,4.12890625,1,"['A1', 'F1', 'E2']",6.1,180,450.0,0.03196267784423727,[15200|0|0]
70,91,7000,0.9079154133796692,-0.2274757325649261,0.0,0.111868716776371,0.2989229559898376,-0.7636949419975281,4.12890625,1,"['A1', 'F1', 'E2']",6.1,180,450.0,0.03204796301149697,[15300|0|0]
71,92,7100,0.907806932926178,-0.2276526242494583,0.0,0.1136375963687896,0.3017007112503052,-0.751291036605835,4.12890625,1,"['A1', 'F1', 'E2']",6.1,180,450.0,0.03225546885923699,[15400|0|0]
72,93,7200,0.907995581626892,-0.2276940941810608,0.0,0.133790448307991,0.3102423846721649,-0.7389982342720032,4.12890625,1,"['A1', 'F1', 'E2']",6.1,180,450.0,0.03244862187502549,[15500|0|0]
73,94,7300,0.907842457294464,-0.2274870425462722,0.0,0.0903465971350669,0.2879513502120971,-0.7584114074707031,4.12890625,1,"['A1', 'F1', 'E2']",6.1,180,450.0,0.0327061436035265,[15600|0|0]
74,95,7400,0.9079843163490297,-0.2276721447706222,0.0,0.0663694441318512,0.2548627555370331,-0.7783610820770264,4.12890625,1,"['A1', 'F1', 'E2']",6.1,180,450.0,0.032939353433554266,[15700|0|0]
75,96,7500,0.9078096747398376,-0.2276269048452377,0.0,0.0536597892642021,0.2462284713983535,-0.7680305242538452,4.12890625,1,"['A1', 'F1', 'E2']",6.1,180,450.0,0.033119759482538126,[15800|0|0]
76,97,7600,0.907761812210083,-0.2273391634225845,0.0,0.0308732874691486,0.2383520305156707,-0.7871168255805969,4.12890625,1,"['A1', 'F1', 'E2']",6.1,180,450.0,0.033411454439753706,[15900|0|0]
77,98,7700,0.9077639579772948,-0.2273971736431121,0.0,0.016095520928502,0.2319315671920776,-0.7633823752403259,4.12890625,1,"['A1', 'F1', 'E2']",6.1,180,450.0,0.03346950433211009,[16000|0|0]
78,99,7800,0.913950264453888,-0.2173909395933151,0.0,-0.3069046437740326,-0.012001640163362,-0.7578568458557129,4.12890625,1,"['A1', 'F1', 'E2']",6.1,180,450.0,0.04523364933638713,[16100|0|0]
79,100,7900,0.9138943552970886,-0.2173050642013549,0.0,-0.3154506385326385,-0.0102410931140184,-0.7578752636909485,4.12890625,1,"['A1', 'F1', 'E2']",6.1,180,450.0,0.04533612087759902,[16200|0|0]
80,101,8000,0.9140626788139344,-0.2176108956336975,0.0,-0.3057367503643036,-0.0120551781728863,-0.7509271502494812,4.12890625,1,"['A1', 'F1', 'E2']",6.1,180,450.0,0.045685213517641855,[16300|0|0]
81,102,8100,0.9139768481254578,-0.21695576608181,0.0,-0.3179194331169128,-0.0027995076961815,-0.7619506120681763,4.12890625,1,"['A1', 'F1', 'E2']",6.1,180,450.0,0.04634594162877435,[16400|0|0]
82,103,8200,0.9138612151145936,-0.2175853103399276,0.0,-0.2959811985492706,0.0026357974857091,-0.7666269540786743,4.12890625,1,"['A1', 'F1', 'E2']",6.1,180,450.0,0.04698601737908078,[16500|0|0]
83,104,8300,0.9137733578681946,-0.2175703197717666,0.0,-0.2954291999340057,0.0088348779827356,-0.7727574706077576,4.12890625,1,"['A1', 'F1', 'E2']",6.1,180,450.0,0.04707514432718633,[16600|0|0]
84,105,8400,0.9137039184570312,-0.2174458652734756,0.0,-0.295734167098999,0.0084681678563356,-0.7832574248313904,4.12890625,1,"['A1', 'F1', 'E2']",6.1,180,450.0,0.04721766012970514,[16700|0|0]
85,106,8500,0.9135457277297974,-0.2170815765857696,0.0,-0.2981340885162353,0.0130846826359629,-0.7747271060943604,4.12890625,1,"['A1', 'F1', 'E2']",6.1,180,450.0,0.04761481319109752,[16800|0|0]
86,107,8600,0.9141130447387696,-0.217533066868782,0.0,-0.2845361530780792,-0.0036740833893418,-0.7762312293052673,4.12890625,1,"['A1', 'F1', 'E2']",6.1,180,450.0,0.04833985944088015,[16900|0|0]
87,108,8700,0.9138971567153932,-0.2172614187002182,0.0,-0.2900140583515167,-0.0003708485164679,-0.7776089906692505,4.12890625,1,"['A1', 'F1', 'E2']",6.1,180,450.0,0.048686846999909945,[17000|0|0]
88,109,8800,0.9142370223999025,-0.217228427529335,0.0,-0.2922819554805755,-0.0029987879097461,-0.7899929285049438,4.12890625,1,"['A1', 'F1', 'E2']",6.1,180,450.0,0.04902831017634806,[17100|0|0]
89,110,8900,0.913933515548706,-0.2171940952539444,0.0,-0.2894522547721863,0.0042080325074493,-0.7960413694381714,4.12890625,1,"['A1', 'F1', 'E2']",6.1,180,450.0,0.049333752664971774,[17200|0|0]
90,111,9000,0.9143518209457396,-0.2173174321651458,0.0,-0.294690877199173,-0.0089872255921363,-0.8017836213111877,4.12890625,1,"['A1', 'F1', 'E2']",6.1,180,450.0,0.049769862053602794,[17300|0|0]
91,112,9100,0.9142301082611084,-0.2173030376434326,0.0,-0.2902672588825226,0.002421868732199,-0.8213112354278564,4.12890625,1,"['A1', 'F1', 'E2']",6.1,180,450.0,0.04989242297663903,[17400|0|0]
92,113,9200,0.913856327533722,-0.2175300866365432,0.0,-0.2822959125041961,0.0139214573428034,-0.8147739171981812,4.12890625,1,"['A1', 'F1', 'E2']",6.1,180,450.0,0.0503297595489012,[17500|0|0]
93,114,9300,0.9140506982803344,-0.2172349691390991,0.0,-0.2917287349700928,0.0090841148048639,-0.79056316614151,4.12890625,1,"['A1', 'F1', 'E2']",6.1,180,450.0,0.050683135162712195,[17600|0|0]
94,115,9401,0.913845717906952,-0.2169812321662902,0.0,-0.2948994636535644,0.0174858924001455,-0.7788655161857605,4.12890625,1,"['A1', 'F1', 'E2']",6.1,180,450.0,0.05100932437903025,[17700|0|0]
95,116,9501,0.9139783382415771,-0.217738002538681,0.0,-0.2897811532020569,0.0080656372010707,-0.7827721238136292,4.12890625,1,"['A1', 'F1', 'E2']",6.1,180,450.0,0.05177762741148854,[17800|0|0]
96,117,9601,0.913906991481781,-0.217784583568573,0.0,-0.2822273075580597,0.0078187342733144,-0.7782722115516663,4.12890625,1,"['A1', 'F1', 'E2']",6.1,180,450.0,0.05186283393987227,[17900|0|0]
97,118,9702,0.9141889214515686,-0.2177879065275192,0.0,-0.282986968755722,-0.0055868299677968,-0.7957804203033447,4.12890625,1,"['A1', 'F1', 'E2']",6.1,180,450.0,0.05214478349195667,[18000|0|0]
98,119,9802,0.914240062236786,-0.2176756113767624,0.0,-0.2830223441123962,-0.0166670475155115,-0.7685645818710327,4.12890625,1,"['A1', 'F1', 'E2']",6.1,180,450.0,0.05226817547223151,[18100|0|0]
99,120,9902,0.9140884280204772,-0.2175524532794952,0.0,-0.2860688269138336,-0.0081097176298499,-0.7877529263496399,4.12890625,1,"['A1', 'F1', 'E2']",6.1,180,450.0,0.05246352350134381,[18200|0|0]
100,121,10002,0.9140387773513794,-0.2176329344511032,0.0,-0.2852388024330139,-0.0069519910030066,-0.7882082462310791,4.12890625,1,"['A1', 'F1', 'E2']",6.1,180,450.0,0.052558087807111124,[18300|0|0]
101,122,10102,0.9141722917556764,-0.2175555676221847,0.0,-0.2841582298278808,-0.0155671145766973,-0.798811137676239,4.12890625,1,"['A1', 'F1', 'E2']",6.1,180,450.0,0.0527123982810644,[18400|0|0]
102,123,10202,0.914046049118042,-0.2176552414894104,0.0,-0.2850899696350097,-0.0118748098611831,-0.7818586230278015,4.12890625,1,"['A1', 'F1', 'E2']",6.1,180,450.0,0.052873246294308625,[18500|0|0]
103,124,10302,0.9143550992012024,-0.2178369313478469,0.0,-0.2862192988395691,-0.0215131845325231,-0.789941668510437,4.12890625,1,"['A1', 'F1', 'E2']",6.1,180,450.0,0.05323174756147532,[18600|0|0]
104,125,10402,0.914560317993164,-0.2177178114652633,0.0,-0.2946600615978241,-0.0251719579100608,-0.7834201455116272,4.12890625,1,"['A1', 'F1', 'E2']",6.1,180,450.0,0.05346903283072078,[18700|0|0]
105,126,10502,0.9146126508712769,-0.2180538028478622,0.0,-0.2907461524009704,-0.0202459134161472,-0.8000322580337524,4.12890625,1,"['A1', 'F1', 'E2']",6.1,180,450.0,0.05380907538586981,[18800|0|0]
106,127,10602,0.9144386053085328,-0.2175300419330597,0.0,-0.3061555624008178,-0.0099833002313971,-0.7879539728164673,4.12890625,1,"['A1', 'F1', 'E2']",6.1,180,450.0,0.054360996896399734,[18900|0|0]
107,128,10702,0.9142716526985168,-0.2176204621791839,0.0,-0.296796441078186,-0.0047145155258476,-0.7635420560836792,4.12890625,1,"['A1', 'F1', 'E2']",6.1,180,450.0,0.05455086262500896,[19000|0|0]
108,129,10800,0.9143139123916626,-0.2174825221300125,0.0,-0.3002208471298218,-0.0051715006120502,-0.7571153044700623,4.12890625,1,"['A1', 'F1', 'E2']",6.1,180,450.0,0.05469513091268917,[19100|0|0]
109,130,10900,0.9142299890518188,-0.2172778099775314,0.0,-0.3039753437042236,0.0046437927521765,-0.7748746871948242,4.12890625,1,"['A1', 'F1', 'E2']",6.1,180,450.0,0.054916377816269714,[19200|0|0]
110,131,11000,0.9141378998756408,-0.2179055362939834,0.0,-0.2796842753887176,0.0127119030803442,-0.7734436988830566,4.12890625,1,"['A1', 'F1', 'E2']",6.1,180,450.0,0.0555508230422235,[19300|0|0]
111,132,11100,0.9141682982444764,-0.217682883143425,0.0,-0.2810437083244324,0.0067595480941236,-0.7671698331832886,4.12890625,1,"['A1', 'F1', 'E2']",6.1,180,450.0,0.05577554172476115,[19400|0|0]
112,133,11200,0.9144237041473388,-0.2175558507442474,0.0,-0.2844119369983673,0.0075197909027338,-0.7645177841186523,4.12890625,1,"['A1', 'F1', 'E2']",6.1,180,450.0,0.0560607949555189,[19500|0|0]
113,134,11300,0.9143881797790528,-0.2175575196743011,0.0,-0.2782769799232483,0.0075752665288746,-0.7579690217971802,4.12890625,1,"['A1', 'F1', 'E2']",6.1,180,450.0,0.056096358505252256,[19600|0|0]
114,135,11400,0.913921594619751,-0.2176257967948913,0.0,-0.2700958549976349,0.0173295997083187,-0.7714419364929199,4.12890625,1,"['A1', 'F1', 'E2']",6.1,180,450.0,0.0565679128245802,[19700|0|0]
115,136,11500,0.9142687320709229,-0.2173276841640472,0.0,-0.2790322601795196,0.0126946410164237,-0.7840200066566467,4.12890625,1,"['A1', 'F1', 'E2']",6.1,180,450.0,0.057025488556754544,[19800|0|0]
116,137,11600,0.9143903255462646,-0.2174813896417617,0.0,-0.2674565315246582,0.0185972340404987,-0.7646142244338989,4.12890625,1,"['A1', 'F1', 'E2']",6.1,180,450.0,0.05722147413562486,[19900|0|0]
117,138,11700,0.9139785170555116,-0.2173861265182495,0.0,-0.2662463188171386,0.0280419830232858,-0.7487896680831909,4.12890625,1,"['A1', 'F1', 'E2']",6.1,180,450.0,0.057644157581903055,[20000|0|0]
118,139,11800,0.9139026999473572,-0.217742845416069,0.0,-0.2597831785678863,0.0244693011045455,-0.7612399458885193,4.12890625,1,"['A1', 'F1', 'E2']",6.1,180,450.0,0.05800884457913554,[20100|0|0]
119,140,11900,0.9141340851783752,-0.217923030257225,0.0,-0.2518178522586822,0.0198017302900552,-0.7799737453460693,4.12890625,1,"['A1', 'F1', 'E2']",6.1,180,450.0,0.058302111866973275,[20200|0|0]
120,141,12000,0.9143018126487732,-0.2176628708839416,0.0,-0.2629920244216919,0.0135824661701917,-0.7842209935188293,4.12890625,1,"['A1', 'F1', 'E2']",6.1,180,450.0,0.058611652500547146,[20300|0|0]
121,142,12100,0.9142599701881408,-0.2175375521183014,0.0,-0.2682585418224334,0.0192358288913965,-0.7912611365318298,4.12890625,1,"['A1', 'F1', 'E2']",6.1,180,450.0,0.05874377208476297,[20400|0|0]
122,143,12200,0.914372742176056,-0.2176444083452224,0.0,-0.2797285914421081,0.00389493862167,-0.7729623317718506,4.12890625,1,"['A1', 'F1', 'E2']",6.1,180,450.0,0.05889912901087233,[20500|0|0]
123,144,12300,0.914601981639862,-0.2175899893045425,0.0,-0.2794449031352997,0.0018215422751381,-0.7643952369689941,4.12890625,1,"['A1', 'F1', 'E2']",6.1,180,450.0,0.05913473920537705,[20600|0|0]
124,145,12400,0.9145097732543944,-0.217693880200386,0.0,-0.2736911177635193,0.0087143164128065,-0.7604545950889587,4.12890625,1,"['A1', 'F1', 'E2']",6.1,180,450.0,0.059273648184891295,[20700|0|0]
125,146,12500,0.9144137501716614,-0.217462882399559,0.0,-0.2819193601608276,0.0123797003179788,-0.7693509459495544,4.12890625,1,"['A1', 'F1', 'E2']",6.1,180,450.0,0.0595238089659991,[20800|0|0]
126,147,12600,0.9140022993087769,-0.2176449298858642,0.0,-0.2741433680057525,0.0288491360843181,-0.783368706703186,4.12890625,1,"['A1', 'F1', 'E2']",6.1,180,450.0,0.05997373462634585,[20900|0|0]
127,148,12700,0.9142762422561646,-0.2175622433423996,0.0,-0.2725258767604828,0.0257821921259164,-0.7474557161331177,4.12890625,1,"['A1', 'F1', 'E2']",6.1,180,450.0,0.06025988459208686,[21000|0|0]
128,149,12800,0.914252758026123,-0.2176130264997482,0.0,-0.2785528004169464,0.0182228423655033,-0.7599829435348511,4.12890625,1,"['A1', 'F1', 'E2']",6.1,180,450.0,0.06031583491050361,[21100|0|0]
129,150,12900,0.9145199060440063,-0.2177788317203521,0.0,-0.2800437808036804,0.0049643274396657,-0.7578055262565613,4.12890625,1,"['A1', 'F1', 'E2']",6.1,180,450.0,0.06063025411258656,[21200|0|0]
130,151,13000,0.9139532446861268,-0.2180653065443039,0.0,-0.2762750685214996,0.0152771966531872,-0.7665247321128845,4.12890625,1,"['A1', 'F1', 'E2']",6.1,180,450.0,0.06126521310281513,[21300|0|0]
131,152,13100,0.91375732421875,-0.2180889099836349,0.0,-0.1158036217093467,0.1243821904063224,-0.756274938583374,4.12890625,1,"['A1', 'F1', 'E2']",6.1,180,450.0,0.06146255025564096,[21400|0|0]
132,153,13200,0.9141887426376344,-0.2179953008890152,0.0,-0.144778162240982,0.0982293263077735,-0.7574918270111084,4.12890625,1,"['A1', 'F1', 'E2']",6.1,180,450.0,0.06190400751829299,[21500|0|0]
133,154,13300,0.9139015674591064,-0.2181385457515716,0.0,-0.1704071760177612,0.0873212367296218,-0.7615503072738647,4.12890625,1,"['A1', 'F1', 'E2']",6.1,180,450.0,0.06222492600297618,[21600|0|0]
134,155,13400,0.9139297604560852,-0.2177841663360595,0.0,-0.1961035728454589,0.0736698806285858,-0.7707687616348267,4.12890625,1,"['A1', 'F1', 'E2']",6.1,180,450.0,0.06258042511017246,[21700|0|0]
135,156,13500,0.9141075015068054,-0.2179484367370605,0.0,-0.2026779949665069,0.0590755827724933,-0.7810264229774475,4.12890625,1,"['A1', 'F1', 'E2']",6.1,180,450.0,0.06282245123635755,[21800|0|0]
136,157,13600,0.9139889478683472,-0.2177257239818573,0.0,-0.2177531123161316,0.0545291192829608,-0.7462565302848816,4.12890625,1,"['A1', 'F1', 'E2']",6.1,180,450.0,0.06307475251761051,[21900|0|0]
137,158,13700,0.9139580726623536,-0.2182933241128921,0.0,-0.2048933506011963,0.0591887608170509,-0.7541053295135498,4.12109375,1,"['A1', 'F1', 'E2']",6.1,180,450.0,0.06364319177302472,[22000|0|0]
138,159,13800,0.913771390914917,-0.21784308552742,0.0,-0.2232711762189865,0.0540631152689456,-0.7656736969947815,4.12890625,1,"['A1', 'F1', 'E2']",6.1,180,450.0,0.06413059802931809,[22100|0|0]
139,160,13900,0.9139993786811828,-0.21800297498703,0.0,-0.220294639468193,0.0540679357945919,-0.751875638961792,4.12890625,1,"['A1', 'F1', 'E2']",6.1,180,450.0,0.0644090635763095,[22200|0|0]
140,161,14000,0.9142091870307922,-0.2177634090185165,0.0,-0.2298056483268737,0.0484476275742054,-0.7609738111495972,4.12890625,1,"['A1', 'F1', 'E2']",6.1,180,450.0,0.06472751513751726,[22300|0|0]
141,162,14100,0.914172887802124,-0.2177033871412277,0.0,-0.2285794764757156,0.0492293164134025,-0.7766335010528564,4.12890625,1,"['A1', 'F1', 'E2']",6.1,180,450.0,0.06479765970077901,[22400|0|0]
142,163,14200,0.9141431450843812,-0.2176145911216735,0.0,-0.2291412502527237,0.0517281033098697,-0.7692577242851257,4.12890625,1,"['A1', 'F1', 'E2']",6.1,180,450.0,0.06489130457435678,[22500|0|0]
143,164,14300,0.9141421914100648,-0.2180111408233642,0.0,-0.2186405807733535,0.0564849004149436,-0.7530356049537659,4.12890625,1,"['A1', 'F1', 'E2']",6.1,180,450.0,0.06528785542280587,[22600|0|0]
144,165,14400,0.91419517993927,-0.2177172750234604,0.0,-0.2249412536621093,0.0579338818788528,-0.7686871886253357,4.12890625,1,"['A1', 'F1', 'E2']",6.1,180,450.0,0.06558646033331546,[22700|0|0]
145,166,14500,0.9143477082252502,-0.217826634645462,0.0,-0.215727612376213,0.0564145259559154,-0.7736380100250244,4.12890625,1,"['A1', 'F1', 'E2']",6.1,180,450.0,0.065774141991845,[22800|0|0]
146,167,14600,0.9142100214958192,-0.2182886153459549,0.0,-0.1925761252641677,0.061714831739664,-0.7613810896873474,4.12890625,1,"['A1', 'F1', 'E2']",6.1,180,450.0,0.06625620402425299,[22900|0|0]
147,168,14700,0.9139031767845154,-0.2177188843488693,0.0,-0.2072702646255493,0.0730997249484062,-0.7498103976249695,4.12890625,1,"['A1', 'F1', 'E2']",6.1,180,450.0,0.06690331072789256,[23000|0|0]
148,169,14800,0.9138541221618652,-0.2177137285470962,0.0,-0.2060779929161071,0.0687964931130409,-0.7724542021751404,4.12890625,1,"['A1', 'F1', 'E2']",6.1,180,450.0,0.06695263555222343,[23100|0|0]
149,170,14900,0.9141685366630554,-0.2180016487836837,0.0,-0.1952919661998748,0.0571486577391624,-0.7702987790107727,4.12890625,1,"['A1', 'F1', 'E2']",6.1,180,450.0,0.0673789623531582,[23200|0|0]
150,171,15000,0.9142600893974304,-0.2180374711751938,0.0,-0.1958656758069992,0.0629259943962097,-0.7626904249191284,4.12890625,1,"['A1', 'F1', 'E2']",6.1,180,450.0,0.06747727383216773,[23300|0|0]
151,172,15100,0.913906753063202,-0.2178095430135727,0.0,-0.1955337971448898,0.0768878608942031,-0.7505757808685303,4.12890625,1,"['A1', 'F1', 'E2']",6.1,180,450.0,0.0678977471511143,[23400|0|0]
152,173,15200,0.9139938950538636,-0.2179647088050842,0.0,-0.1937378793954849,0.0681563392281532,-0.7510461807250977,4.12890625,1,"['A1', 'F1', 'E2']",6.1,180,450.0,0.06807570824065878,[23500|0|0]
153,174,15300,0.9136865139007568,-0.2178984731435775,0.0,-0.1951258182525634,0.0707289949059486,-0.743061363697052,4.12890625,1,"['A1', 'F1', 'E2']",6.1,180,450.0,0.06839014477819935,[23600|0|0]
154,175,15400,0.9139102697372437,-0.2180174142122268,0.0,-0.193673625588417,0.0651680901646614,-0.750527024269104,4.12890625,1,"['A1', 'F1', 'E2']",6.1,180,450.0,0.06864354890636888,[23700|0|0]
155,176,15500,0.9141364693641664,-0.2180916517972946,0.0,-0.1978626698255539,0.053445428609848,-0.7556352615356445,4.12890625,1,"['A1', 'F1', 'E2']",6.1,180,450.0,0.06888161925365445,[23800|0|0]
156,177,15600,0.9142382740974426,-0.2178071737289428,0.0,-0.2022482454776764,0.0587463788688182,-0.7695791721343994,4.12890625,1,"['A1', 'F1', 'E2']",6.1,180,450.0,0.06918376487267056,[23900|0|0]
157,178,15700,0.914076566696167,-0.2180251479148864,0.0,-0.1992334127426147,0.0683009400963783,-0.773685872554779,4.12890625,1,"['A1', 'F1', 'E2']",6.1,180,450.0,0.06945517236955503,[24000|0|0]
158,179,15800,0.913848876953125,-0.2179433703422546,0.0,-0.19739530980587,0.0751186981797218,-0.7717746496200562,4.12109375,1,"['A1', 'F1', 'E2']",6.1,180,450.0,0.06969710250507369,[24100|0|0]
159,180,15900,0.9142170548439026,-0.2183527052402496,0.0,-0.2016851156949997,0.0673097968101501,-0.7839325070381165,4.12890625,1,"['A1', 'F1', 'E2']",6.1,180,450.0,0.07024765678756907,[24200|0|0]
160,181,16000,0.9147175550460817,-0.2181528806686401,0.0,-0.200209692120552,0.0560288988053798,-0.7935294508934021,4.12890625,1,"['A1', 'F1', 'E2']",6.1,180,450.0,0.07078657265465799,[24300|0|0]
161,182,16100,0.9146912097930908,-0.218145877122879,0.0,-0.1883342415094375,0.0622334666550159,-0.7955516576766968,4.12890625,1,"['A1', 'F1', 'E2']",6.1,180,450.0,0.07081383291893364,[24400|0|0]
162,183,16200,0.9147000908851624,-0.2182943373918533,0.0,-0.1855706870555877,0.0699359029531478,-0.7928996086120605,4.12890625,1,"['A1', 'F1', 'E2']",6.1,180,450.0,0.07096255859008797,[24500|0|0]
163,184,16300,0.914325714111328,-0.2183296084403991,0.0,-0.1809851825237274,0.0809513479471206,-0.7794646620750427,4.12890625,1,"['A1', 'F1', 'E2']",6.1,180,450.0,0.07133859318377866,[24600|0|0]
164,185,16400,0.9144423604011536,-0.2182383686304092,0.0,-0.1821550279855728,0.0864637270569801,-0.7946155667304993,4.12890625,1,"['A1', 'F1', 'E2']",6.1,180,450.0,0.07148668457399786,[24700|0|0]
165,186,16500,0.9147149920463562,-0.218380331993103,0.0,-0.1743251085281372,0.0720845907926559,-0.7697545289993286,4.12890625,1,"['A1', 'F1', 'E2']",6.1,180,450.0,0.07179406318469357,[24800|0|0]
166,187,16600,0.9143863320350648,-0.2181341350078582,0.0,-0.1880566179752349,0.0766969919204711,-0.7674052715301514,4.12890625,1,"['A1', 'F1', 'E2']",6.1,180,450.0,0.07220470945408572,[24900|0|0]
167,188,16700,0.9143220782279968,-0.2179552763700485,0.0,-0.1929698586463928,0.0822595134377479,-0.7672761678695679,4.12109375,1,"['A1', 'F1', 'E2']",6.1,180,450.0,0.0723947593529067,[25000|0|0]
168,189,16800,0.9142409563064576,-0.2179804444313049,0.0,-0.1953640133142471,0.08047716319561,-0.762294352054596,4.12890625,1,"['A1', 'F1', 'E2']",6.1,180,450.0,0.07247969578479325,[25100|0|0]
169,190,16900,0.9145829677581788,-0.2183688580989837,0.0,-0.1876962482929229,0.0754460468888282,-0.7678570747375488,4.12890625,1,"['A1', 'F1', 'E2']",6.1,180,450.0,0.07299722550408301,[25200|0|0]
170,191,17000,0.9144240617752076,-0.2182542234659195,0.0,-0.189772292971611,0.0765575990080833,-0.7831838130950928,4.12890625,1,"['A1', 'F1', 'E2']",6.1,180,450.0,0.0731931648072404,[25300|0|0]
171,192,17100,0.9145013093948364,-0.2181388884782791,0.0,-0.1916947066783905,0.0703349560499191,-0.7617477178573608,4.12890625,1,"['A1', 'F1', 'E2']",6.1,180,450.0,0.07333197890635257,[25400|0|0]
172,193,17200,0.9147467017173768,-0.2181271165609359,0.0,-0.1922736912965774,0.0688552632927894,-0.7568472027778625,4.12890625,1,"['A1', 'F1', 'E2']",6.1,180,450.0,0.07357765342680535,[25500|0|0]
173,194,17300,0.91439950466156,-0.2181976437568664,0.0,-0.1944723576307296,0.0730189904570579,-0.7599950432777405,4.12890625,1,"['A1', 'F1', 'E2']",6.1,180,450.0,0.073931941277195,[25600|0|0]
174,195,17400,0.9144673943519592,-0.2182405591011047,0.0,-0.1912174224853515,0.0691281855106353,-0.7573027610778809,4.12109375,1,"['A1', 'F1', 'E2']",6.1,180,450.0,0.07401225775641068,[25700|0|0]
175,196,17500,0.9146689176559448,-0.218067780137062,0.0,-0.1946645081043243,0.057820688933134,-0.7436986565589905,4.12890625,1,"['A1', 'F1', 'E2']",6.1,180,450.0,0.07427770871697581,[25800|0|0]
176,197,17600,0.9143632650375366,-0.2179770022630691,0.0,-0.1940381377935409,0.0666313022375106,-0.7675215005874634,4.12890625,1,"['A1', 'F1', 'E2']",6.1,180,450.0,0.07459655687134785,[25900|0|0]
177,198,17700,0.9141810536384584,-0.2181369960308075,0.0,-0.1873367726802826,0.0669535174965858,-0.7728111147880554,4.12890625,1,"['A1', 'F1', 'E2']",6.1,180,450.0,0.07483904192175134,[26000|0|0]
178,199,17800,0.9143636226654052,-0.2183145582675933,0.0,-0.1805211156606674,0.0602370947599411,-0.775503933429718,4.12890625,1,"['A1', 'F1', 'E2']",6.1,180,450.0,0.07509371778934126,[26100|0|0]
179,200,17900,0.9145450592041016,-0.2182453721761703,0.0,-0.1831284314393997,0.0591121353209018,-0.7947238683700562,4.12890625,1,"['A1', 'F1', 'E2']",6.1,180,450.0,0.07528789794491984,[26200|0|0]
180,201,18000,0.9141244888305664,-0.2180904000997543,0.0,-0.1855872869491577,0.0724158659577369,-0.776841938495636,4.12109375,1,"['A1', 'F1', 'E2']",6.1,180,450.0,0.07573611193796802,[26300|0|0]
181,202,18100,0.9146345257759094,-0.2185055017471313,0.0,-0.1786961257457733,0.0619096904993057,-0.7736622095108032,4.12890625,1,"['A1', 'F1', 'E2']",6.1,180,450.0,0.07639371901158411,[26400|0|0]
182,203,18200,0.9143077731132508,-0.217987522482872,0.0,-0.1926678270101547,0.0680208504199981,-0.7915416955947876,4.12890625,1,"['A1', 'F1', 'E2']",6.1,180,450.0,0.07700614845303598,[26500|0|0]
183,204,18300,0.9144789576530457,-0.2181896865367889,0.0,-0.1951335817575454,0.0534420199692249,-0.786197304725647,4.12890625,1,"['A1', 'F1', 'E2']",6.1,180,450.0,0.07727105306107608,[26600|0|0]
184,205,18400,0.9147174954414368,-0.2182413041591644,0.0,-0.1887717694044113,0.0460420176386833,-0.7951971888542175,4.12890625,1,"['A1', 'F1', 'E2']",6.1,180,450.0,0.07751511177415599,[26700|0|0]
185,206,18500,0.9146277904510498,-0.2183781564235687,0.0,-0.1837929785251617,0.0484272576868534,-0.797457218170166,4.12890625,1,"['A1', 'F1', 'E2']",6.1,180,450.0,0.07767874406795189,[26800|0|0]
186,207,18600,0.914484977722168,-0.2179461568593979,0.0,-0.1913007348775863,0.0566909275949001,-0.7691664099693298,4.12109375,1,"['A1', 'F1', 'E2']",6.1,180,450.0,0.07813373758326221,[26900|0|0]
187,208,18700,0.9146942496299744,-0.2182236909866333,0.0,-0.1869242787361145,0.0495137795805931,-0.7564387917518616,4.12890625,1,"['A1', 'F1', 'E2']",6.1,180,450.0,0.07848132918727078,[27000|0|0]
188,209,18800,0.9145587682724,-0.2182179093360901,0.0,-0.1952681541442871,0.0419312678277492,-0.7705628275871277,4.12890625,1,"['A1', 'F1', 'E2']",6.1,180,450.0,0.07861693385434826,[27100|0|0]
189,210,18900,0.9142999649047852,-0.2179247289896011,0.0,-0.203095331788063,0.0583036243915557,-0.7677176594734192,4.12109375,1,"['A1', 'F1', 'E2']",6.1,180,450.0,0.07900800149383815,[27200|0|0]
190,211,19000,0.9147769808769226,-0.2181727141141891,0.0,-0.1948710680007934,0.0401152335107326,-0.7807899713516235,4.12890625,1,"['A1', 'F1', 'E2']",6.1,180,450.0,0.0795456266975732,[27300|0|0]
191,212,19100,0.9143199324607848,-0.2181849032640457,0.0,-0.1939214468002319,0.0526156350970268,-0.7797172665596008,4.12890625,1,"['A1', 'F1', 'E2']",6.1,180,450.0,0.08000283762271422,[27400|0|0]
192,213,19200,0.914056956768036,-0.2182600647211074,0.0,-0.189024731516838,0.062680497765541,-0.7772930860519409,4.12109375,1,"['A1', 'F1', 'E2']",6.1,180,450.0,0.08027634349030091,[27500|0|0]
193,214,19300,0.9143978953361512,-0.2185113430023193,0.0,-0.178982987999916,0.0590445213019847,-0.7799442410469055,4.12890625,1,"['A1', 'F1', 'E2']",6.1,180,450.0,0.080699876112229,[27600|0|0]
194,215,19400,0.9143404364585876,-0.2180714607238769,0.0,-0.1953227519989013,0.0550910271704196,-0.7817109823226929,4.12890625,1,"['A1', 'F1', 'E2']",6.1,180,450.0,0.081143495252369,[27700|0|0]
195,216,19500,0.9144831895828248,-0.217791348695755,0.0,-0.2090457677841186,0.0494518764317035,-0.7736111283302307,4.12890625,1,"['A1', 'F1', 'E2']",6.1,180,450.0,0.08145788546019683,[27800|0|0]
196,217,19600,0.9146539568901062,-0.2182677537202835,0.0,-0.1981875449419021,0.0455720014870166,-0.7561576962471008,4.12890625,1,"['A1', 'F1', 'E2']",6.1,180,450.0,0.08196397163925347,[27900|0|0]
197,218,19700,0.9145005345344543,-0.2183096259832382,0.0,-0.2018554955720901,0.0563415735960006,-0.7642416954040527,4.12890625,1,"['A1', 'F1', 'E2']",6.1,180,450.0,0.08212300530115783,[28000|0|0]
198,219,19800,0.9148172736167908,-0.218264639377594,0.0,-0.2093303054571151,0.0463179871439933,-0.7577763199806213,4.12890625,1,"['A1', 'F1', 'E2']",6.1,180,450.0,0.08244292316712769,[28100|0|0]
199,220,19900,0.914324164390564,-0.2178171575069427,0.0,-0.2199959903955459,0.0582853704690933,-0.7590441107749939,4.12890625,1,"['A1', 'F1', 'E2']",6.1,180,450.0,0.08310880358698668,[28200|0|0]
200,221,20000,0.9146526455879213,-0.2187054753303527,0.0,-0.1894421428442001,0.0449277982115745,-0.7822463512420654,4.12109375,1,"['A1', 'F1', 'E2']",6.1,180,450.0,0.08405590888863226,[28300|0|0]
201,222,20100,0.9144580364227296,-0.2179900407791137,0.0,-0.2032435536384582,0.0592818446457386,-0.7837485671043396,4.12890625,1,"['A1', 'F1', 'E2']",6.1,180,450.0,0.08479733948166385,[28400|0|0]
202,223,20200,0.914251983165741,-0.2183528393507003,0.0,-0.1886771470308303,0.0690227895975112,-0.7887330055236816,4.12890625,1,"['A1', 'F1', 'E2']",6.1,180,450.0,0.08521456933229886,[28500|0|0]
203,224,20300,0.9143199920654296,-0.2184632569551468,0.0,-0.1897142678499221,0.0684398487210273,-0.793742299079895,4.12890625,1,"['A1', 'F1', 'E2']",6.1,180,450.0,0.08534425070262072,[28600|0|0]
204,225,20400,0.9144579768180848,-0.2182807028293609,0.0,-0.1993598639965057,0.0576798692345619,-0.7618002891540527,4.12109375,1,"['A1', 'F1', 'E2']",6.1,180,450.0,0.08557308645333896,[28700|0|0]
205,226,20500,0.9144334197044371,-0.218150720000267,0.0,-0.2133890986442566,0.0482721291482448,-0.7579419016838074,4.12109375,1,"['A1', 'F1', 'E2']",6.1,180,450.0,0.08570536868075429,[28800|0|0]
206,227,20600,0.9142047762870787,-0.2182539701461792,0.0,-0.2080169916152954,0.0556564107537269,-0.7724480032920837,4.12109375,1,"['A1', 'F1', 'E2']",6.1,180,450.0,0.08595624395839682,[28900|0|0]
207,228,20700,0.914641797542572,-0.218439981341362,0.0,-0.2025114893913269,0.0528260469436645,-0.7571091055870056,4.12109375,1,"['A1', 'F1', 'E2']",6.1,180,450.0,0.08643120473834212,[29000|0|0]
208,229,20800,0.9145992398262024,-0.2186835557222366,0.0,-0.1952600330114364,0.0555030778050422,-0.749139666557312,4.12890625,1,"['A1', 'F1', 'E2']",6.1,180,450.0,0.08667846904680787,[29100|0|0]
209,230,20900,0.914256751537323,-0.217894360423088,0.0,-0.2112495750188827,0.0739418119192123,-0.7685891389846802,4.12890625,1,"['A1', 'F1', 'E2']",6.1,180,450.0,0.08753877564809477,[29200|0|0]
210,231,21000,0.9142115712165833,-0.2182008177042007,0.0,-0.1986296623945236,0.0767966583371162,-0.7916968464851379,4.12109375,1,"['A1', 'F1', 'E2']",6.1,180,450.0,0.0878485454441194,[29300|0|0]
211,232,21100,0.9142123460769652,-0.2183753997087478,0.0,-0.1899468600749969,0.0731315687298774,-0.7732113599777222,4.12890625,1,"['A1', 'F1', 'E2']",6.1,180,450.0,0.08802312916821847,[29400|0|0]
212,233,21200,0.9141995906829834,-0.2181501239538192,0.0,-0.195122018456459,0.0747631192207336,-0.7778946757316589,4.12890625,1,"['A1', 'F1', 'E2']",6.1,180,450.0,0.08824876574733252,[29500|0|0]
213,234,21300,0.91428542137146,-0.2181417196989059,0.0,-0.1936148405075073,0.0818857997655868,-0.7674881815910339,4.12109375,1,"['A1', 'F1', 'E2']",6.1,180,450.0,0.08833500691259023,[29600|0|0]
214,235,21400,0.914428174495697,-0.2181152105331421,0.0,-0.19772669672966,0.0751441568136215,-0.7449169158935547,4.12890625,1,"['A1', 'F1', 'E2']",6.1,180,450.0,0.08848020054312868,[29700|0|0]
215,236,21500,0.9145768284797668,-0.2181027084589004,0.0,-0.2069964259862899,0.0648958384990692,-0.7550950050354004,4.12890625,1,"['A1', 'F1', 'E2']",6.1,180,450.0,0.08862937932459634,[29800|0|0]
216,237,21600,0.914238452911377,-0.2181183099746704,0.0,-0.2077349424362182,0.0795174539089202,-0.7775192260742188,4.12890625,1,"['A1', 'F1', 'E2']",6.1,180,450.0,0.08896811437235123,[29900|0|0]
217,238,21700,0.914288341999054,-0.2182410210371017,0.0,-0.2054171562194824,0.0756760463118553,-0.7642567753791809,4.12890625,1,"['A1', 'F1', 'E2']",6.1,180,450.0,0.08910057918244152,[30000|0|0]
218,239,21800,0.9143591523170472,-0.2180247455835342,0.0,-0.2091860473155975,0.0706647932529449,-0.7755350470542908,4.12890625,1,"['A1', 'F1', 'E2']",6.1,180,450.0,0.0893281515290703,[30100|0|0]
219,240,21900,0.9149426817893982,-0.2178195118904113,0.0,-0.2481154352426529,0.0414669327437877,-0.7850157022476196,4.12109375,1,"['A1', 'F1', 'E2']",6.1,180,450.0,0.08994672045319684,[30200|0|0]
220,241,22000,0.9152592420578004,-0.2183337658643722,0.0,-0.215556725859642,0.0625338777899742,-0.779689371585846,4.12890625,1,"['A1', 'F1', 'E2']",6.1,180,450.0,0.09055059755432376,[30300|0|0]
221,242,22100,0.9150148034095764,-0.2180157452821731,0.0,-0.2023245394229889,0.0908985957503318,-0.7809270620346069,4.12890625,1,"['A1', 'F1', 'E2']",6.1,180,450.0,0.09095170520003476,[30400|0|0]
222,243,22200,0.9146466255187988,-0.21790611743927,0.0,-0.1880058646202087,0.1147962510585784,-0.7831581234931946,4.12890625,1,"['A1', 'F1', 'E2']",6.1,180,450.0,0.09133585780408297,[30500|0|0]
223,244,22300,0.914986252784729,-0.2180930376052856,0.0,-0.1692418158054351,0.1119759455323219,-0.7847071886062622,4.12890625,1,"['A1', 'F1', 'E2']",6.1,180,450.0,0.09172352496573909,[30600|0|0]
224,245,22400,0.914685308933258,-0.217730239033699,0.0,-0.4148027598857879,-0.054958552122116,-0.8012510538101196,4.12890625,1,"['A1', 'F1', 'E2']",6.1,180,450.0,0.09219489531406776,[30700|0|0]
225,246,22500,0.9147528409957886,-0.2179260104894638,0.0,-0.3614844977855682,-0.0163924768567085,-0.8099749684333801,4.12109375,1,"['A1', 'F1', 'E2']",6.1,180,450.0,0.09240198718344439,[30800|0|0]
226,247,22600,0.9144378900527954,-0.2183503806591034,0.0,-0.3252617418766022,0.0088125374168157,-0.8084097504615784,4.12890625,1,"['A1', 'F1', 'E2']",6.1,180,450.0,0.0929304605861547,[30900|0|0]
227,248,22700,0.9145612716674804,-0.2179717868566513,0.0,-0.3233721554279327,0.011446364223957,-0.8122511506080627,4.12890625,1,"['A1', 'F1', 'E2']",6.1,180,450.0,0.0933286518594109,[31000|0|0]
228,249,22800,0.914338767528534,-0.2180473208427429,0.0,-0.3058770895004272,0.0196056086570024,-0.809689998626709,4.12109375,1,"['A1', 'F1', 'E2']",6.1,180,450.0,0.09356362733664868,[31100|0|0]
229,250,22900,0.9068057537078856,-0.2274109423160553,0.0,0.0057360469363629,0.2440653443336486,-0.7985228300094604,4.12109375,1,"['A1', 'F1', 'E2']",6.1,180,450.0,0.10558126871578614,[31200|0|0]
230,251,23000,0.906800091266632,-0.2274499237537384,0.0,0.0133861731737852,0.2446346879005432,-0.7983673810958862,4.12890625,1,"['A1', 'F1', 'E2']",6.1,180,450.0,0.10562065926953693,[31300|0|0]
231,252,23100,0.9071114659309388,-0.2277151495218277,0.0,0.0212309584021568,0.2432586401700973,-0.8072267770767212,4.12890625,1,"['A1', 'F1', 'E2']",6.1,180,450.0,0.1060296811389165,[31400|0|0]
232,253,23200,0.907020092010498,-0.2279788553714752,0.0,0.0315043292939662,0.2448843568563461,-0.7914973497390747,4.12890625,1,"['A1', 'F1', 'E2']",6.1,180,450.0,0.10630876888224292,[31500|0|0]
233,254,23300,0.9069355130195618,-0.2275535613298416,0.0,0.0171999875456094,0.2446704357862472,-0.7816512584686279,4.12890625,1,"['A1', 'F1', 'E2']",6.1,180,450.0,0.10674239156102808,[31600|0|0]
234,255,23400,0.9070533514022828,-0.2277020961046219,0.0,0.0189969185739755,0.2406980693340301,-0.7781462073326111,4.12109375,1,"['A1', 'F1', 'E2']",6.1,180,450.0,0.10693199236208477,[31700|0|0]
235,256,23500,0.9070693850517272,-0.2278981655836105,0.0,0.0197429526597261,0.2316861450672149,-0.7879964113235474,4.12890625,1,"['A1', 'F1', 'E2']",6.1,180,450.0,0.10712871632733906,[31800|0|0]
236,257,23600,0.9069336652755736,-0.2278356701135635,0.0,0.0084723159670829,0.2354878932237625,-0.7963425517082214,4.12109375,1,"['A1', 'F1', 'E2']",6.1,180,450.0,0.10727813366708103,[31900|0|0]
237,258,23701,0.9069405794143676,-0.2277145832777023,0.0,0.0073683038353919,0.2382193207740783,-0.795320451259613,4.12109375,1,"['A1', 'F1', 'E2']",6.1,180,450.0,0.10739941774325816,[32000|0|0]
238,259,23801,0.9066033363342284,-0.2277744114398956,0.0,0.0075911860913038,0.2399119883775711,-0.7634510397911072,4.12109375,1,"['A1', 'F1', 'E2']",6.1,180,450.0,0.10774192658123635,[32100|0|0]
239,260,23901,0.906829595565796,-0.2277348339557647,0.0,0.0010923520894721,0.2201995253562927,-0.7757776379585266,4.12890625,1,"['A1', 'F1', 'E2']",6.1,180,450.0,0.10797162119832543,[32200|0|0]
240,261,24001,0.9068729281425476,-0.2275845110416412,0.0,-0.0060652536340057,0.2139493077993393,-0.7942852973937988,4.12109375,1,"['A1', 'F1', 'E2']",6.1,180,450.0,0.108128065088326,[32300|0|0]
241,262,24101,0.9069690108299256,-0.2271786630153656,0.0,-0.0202710088342428,0.2129278481006622,-0.7852094173431396,4.12890625,1,"['A1', 'F1', 'E2']",6.1,180,450.0,0.1085451316336705,[32400|0|0]
242,263,24201,0.9070612788200378,-0.228083997964859,0.0,0.0008521135896444,0.2144525200128555,-0.7871573567390442,4.12109375,1,"['A1', 'F1', 'E2']",6.1,180,450.0,0.10945515622277431,[32500|0|0]
243,264,24301,0.9066382646560668,-0.2274866104125976,0.0,-0.0082127079367637,0.2263185232877731,-0.802003800868988,4.12109375,1,"['A1', 'F1', 'E2']",6.1,180,450.0,0.11018714862062896,[32600|0|0]
244,265,24401,0.9066860675811768,-0.2276367098093032,0.0,-0.012137547135353,0.218226745724678,-0.8102105855941772,4.12890625,1,"['A1', 'F1', 'E2']",6.1,180,450.0,0.11034467623262272,[32700|0|0]
245,266,24502,0.9070982336997986,-0.2278079092502594,0.0,-0.0121115213260054,0.2071645110845565,-0.799181342124939,4.12109375,1,"['A1', 'F1', 'E2']",6.1,180,450.0,0.1107909834787251,[32800|0|0]
246,267,24602,0.9069305658340454,-0.2277491986751556,0.0,-0.0187245123088359,0.209259495139122,-0.7870975732803345,4.12109375,1,"['A1', 'F1', 'E2']",6.1,180,450.0,0.11096863326013572,[32900|0|0]
247,268,24702,0.9069209694862366,-0.2275700718164444,0.0,-0.0255335066467523,0.2076076865196228,-0.7897769808769226,4.12109375,1,"['A1', 'F1', 'E2']",6.1,180,450.0,0.1111480169868308,[33000|0|0]
248,269,24802,0.9068031311035156,-0.227477565407753,0.0,-0.0311749521642923,0.2080374360084533,-0.7859103083610535,4.12109375,1,"['A1', 'F1', 'E2']",6.1,180,450.0,0.11129782793466596,[33100|0|0]
249,270,24902,0.9065927863121032,-0.2276664525270462,0.0,-0.0246714297682046,0.2128101587295532,-0.7900490760803223,4.12109375,1,"['A1', 'F1', 'E2']",6.1,180,450.0,0.11158053498287884,[33200|0|0]
250,271,25002,0.9066500067710876,-0.2275400161743164,0.0,-0.0331332869827747,0.2081426978111267,-0.7672497630119324,4.12890625,1,"['A1', 'F1', 'E2']",6.1,180,450.0,0.11171931658186808,[33300|0|0]
251,272,25102,0.9070028066635132,-0.2276583164930343,0.0,0.1742901504039764,0.3511725068092346,-0.7681840658187866,4.12890625,1,"['A1', 'F1', 'E2']",6.1,180,450.0,0.11209142238604779,[33400|0|0]
252,273,25200,0.9074599146842957,-0.2279912233352661,0.0,0.1584785878658294,0.3124467730522156,-0.7890859246253967,4.12109375,1,"['A1', 'F1', 'E2']",6.1,180,450.0,0.11265690864429675,[33500|0|0]
253,274,25300,0.907257616519928,-0.22812420129776,0.0,0.1394969522953033,0.3004664480686188,-0.794295072555542,4.12890625,1,"['A1', 'F1', 'E2']",6.1,180,450.0,0.11289899888742018,[33600|0|0]
254,275,25400,0.9070714712142944,-0.2281635254621505,0.0,0.132667139172554,0.3011337220668793,-0.802659273147583,4.12890625,1,"['A1', 'F1', 'E2']",6.1,180,450.0,0.11308925257257349,[33700|0|0]
255,276,25500,0.9071624875068665,-0.2276395410299301,0.0,0.1109454855322837,0.2928207516670227,-0.7912375926971436,4.12890625,1,"['A1', 'F1', 'E2']",6.1,180,450.0,0.1136210830443621,[33800|0|0]
256,277,25600,0.907370626926422,-0.228180393576622,0.0,0.1173964962363243,0.2829130887985229,-0.7855293154716492,4.12890625,1,"['A1', 'F1', 'E2']",6.1,180,450.0,0.11420060310030154,[33900|0|0]
257,278,25700,0.9074150323867798,-0.2280155271291732,0.0,0.1085876896977424,0.2846281826496124,-0.77733314037323,4.12109375,1,"['A1', 'F1', 'E2']",6.1,180,450.0,0.1143713449826971,[34000|0|0]
258,279,25800,0.9072121381759644,-0.2274842858314514,0.0,0.0949846431612968,0.2866121828556061,-0.781756579875946,4.12109375,1,"['A1', 'F1', 'E2']",6.1,180,450.0,0.11494001305564262,[34100|0|0]
259,280,25900,0.9071980714797974,-0.2278141230344772,0.0,0.1066218987107276,0.2878599464893341,-0.8078060746192932,4.12109375,1,"['A1', 'F1', 'E2']",6.1,180,450.0,0.1152701500763491,[34200|0|0]
260,281,26000,0.9075413942337036,-0.2276826947927475,0.0,0.1060388088226318,0.277971088886261,-0.8042867183685303,4.12109375,1,"['A1', 'F1', 'E2']",6.1,180,450.0,0.11563776930336794,[34300|0|0]
261,282,26100,0.9069375991821288,-0.2275573909282684,0.0,0.1089271679520607,0.2930820882320404,-0.7998046278953552,4.12109375,1,"['A1', 'F1', 'E2']",6.1,180,450.0,0.11625442927674033,[34400|0|0]
262,283,26200,0.9073508977890016,-0.2276433408260345,0.0,0.1116739064455032,0.2755676805973053,-0.8053118586540222,4.12109375,1,"['A1', 'F1', 'E2']",6.1,180,450.0,0.1166765703945777,[34500|0|0]
263,284,26300,0.9070566296577454,-0.2277399003505706,0.0,0.1181829273700714,0.2795595824718475,-0.8081810474395752,4.12890625,1,"['A1', 'F1', 'E2']",6.1,180,450.0,0.1169862758592561,[34600|0|0]
264,285,26400,0.9073090553283693,-0.2276838570833206,0.0,0.1146542802453041,0.2685007750988006,-0.8099976181983948,4.12109375,1,"['A1', 'F1', 'E2']",6.1,180,450.0,0.11724484802905397,[34700|0|0]
265,286,26500,0.9072152376174928,-0.227735623717308,0.0,0.1236288696527481,0.2766900956630707,-0.8138454556465149,4.12109375,1,"['A1', 'F1', 'E2']",6.1,180,450.0,0.11735200001115642,[34800|0|0]
266,287,26600,0.9071064591407776,-0.2274924367666244,0.0,0.1123143285512924,0.2706076502799988,-0.7870278358459473,4.12109375,1,"['A1', 'F1', 'E2']",6.1,180,450.0,0.11761840693670315,[34900|0|0]
267,288,26700,0.9069910049438475,-0.2276282310485839,0.0,0.1183470413088798,0.2729760706424713,-0.776206374168396,4.12109375,1,"['A1', 'F1', 'E2']",6.1,180,450.0,0.11779664766886519,[35000|0|0]
268,289,26800,0.907335638999939,-0.2277477979660034,0.0,0.1225160062313079,0.2666079401969909,-0.7726487517356873,4.12109375,1,"['A1', 'F1', 'E2']",6.1,180,450.0,0.11816143374365318,[35100|0|0]
269,290,26900,0.9075151085853576,-0.2277964204549789,0.0,0.1273497641086578,0.267231673002243,-0.7772459983825684,4.12109375,1,"['A1', 'F1', 'E2']",6.1,180,450.0,0.11834737319219622,[35200|0|0]
270,291,27000,0.907107710838318,-0.2278369814157486,0.0,0.1290444433689117,0.2796113491058349,-0.7770510911941528,4.12109375,1,"['A1', 'F1', 'E2']",6.1,180,450.0,0.1187567851068146,[35300|0|0]
271,292,27100,0.907375693321228,-0.2280513495206833,0.0,0.1263089627027511,0.280135303735733,-0.8016979098320007,4.12109375,1,"['A1', 'F1', 'E2']",6.1,180,450.0,0.11909995896298654,[35400|0|0]
272,293,27200,0.9073784351348876,-0.2276696115732193,0.0,0.1132690459489822,0.2849695980548858,-0.8072174787521362,4.12109375,1,"['A1', 'F1', 'E2']",6.1,180,450.0,0.1194817067567931,[35500|0|0]
273,294,27300,0.9075374007225036,-0.2279333919286728,0.0,0.1221581101417541,0.2831984758377075,-0.8088241219520569,4.12109375,1,"['A1', 'F1', 'E2']",6.1,180,450.0,0.11978968424618032,[35600|0|0]
274,295,27400,0.9071454405784608,-0.2277682423591613,0.0,0.1168292686343193,0.2992538511753082,-0.7897793650627136,4.12109375,1,"['A1', 'F1', 'E2']",6.1,180,450.0,0.12021501603999292,[35700|0|0]
275,296,27500,0.9072584509849548,-0.2277495115995407,0.0,0.1305875480175018,0.307638019323349,-0.7806610465049744,4.12109375,1,"['A1', 'F1', 'E2']",6.1,180,450.0,0.12032956818240811,[35800|0|0]
276,297,27600,0.9070128798484802,-0.2276083827018737,0.0,0.1192655116319656,0.3095354735851288,-0.7874669432640076,4.12109375,1,"['A1', 'F1', 'E2']",6.1,180,450.0,0.12061280403611689,[35900|0|0]
277,298,27700,0.9073211550712584,-0.2279938608407974,0.0,0.1225982308387756,0.3020882904529571,-0.7847261428833008,4.12109375,1,"['A1', 'F1', 'E2']",6.1,180,450.0,0.12110638990358782,[36000|0|0]
278,299,27800,0.9069815278053284,-0.2277930527925491,0.0,0.1147431060671806,0.3148006200790405,-0.773208737373352,4.12109375,1,"['A1', 'F1', 'E2']",6.1,180,450.0,0.12150094098013485,[36100|0|0]
279,300,27900,0.907503068447113,-0.2276683747768402,0.0,0.1194440051913261,0.3060837686061859,-0.7937832474708557,4.12109375,1,"['A1', 'F1', 'E2']",6.1,180,450.0,0.12203717716749474,[36200|0|0]
280,301,28000,0.90739905834198,-0.227792277932167,0.0,0.1139044016599655,0.2992798089981079,-0.7824987173080444,4.12109375,1,"['A1', 'F1', 'E2']",6.1,180,450.0,0.12219894890133512,[36300|0|0]
281,302,28100,0.9071862697601318,-0.2277335971593856,0.0,0.1089079529047012,0.3023653924465179,-0.7742258310317993,4.12109375,1,"['A1', 'F1', 'E2']",6.1,180,450.0,0.12241968044339281,[36400|0|0]
282,303,28200,0.9075264930725098,-0.2278231978416443,0.0,0.1082521080970764,0.2932618260383606,-0.7702039480209351,4.12109375,1,"['A1', 'F1', 'E2']",6.1,180,450.0,0.12277150452521018,[36500|0|0]
283,304,28300,0.9072823524475098,-0.2279622554779052,0.0,0.1226033419370651,0.3034765422344208,-0.7812784910202026,4.12109375,1,"['A1', 'F1', 'E2']",6.1,180,450.0,0.1230524701298273,[36600|0|0]
284,305,28400,0.9072176218032836,-0.2276995331048965,0.0,0.1100039109587669,0.3012748658657074,-0.7649036645889282,4.12109375,1,"['A1', 'F1', 'E2']",6.1,180,450.0,0.12332304932633224,[36700|0|0]
285,306,28500,0.9074515104293824,-0.2278959304094314,0.0,0.11688032746315,0.2901903390884399,-0.7663344740867615,4.12109375,1,"['A1', 'F1', 'E2']",6.1,180,450.0,0.12362846018181546,[36800|0|0]
286,307,28600,0.9073469638824464,-0.2277325391769409,0.0,0.1108598932623863,0.287034660577774,-0.793887734413147,4.12109375,1,"['A1', 'F1', 'E2']",6.1,180,450.0,0.12382243614767469,[36900|0|0]
287,308,28700,0.9071027636528016,-0.227824255824089,0.0,0.1283206790685653,0.3003014326095581,-0.7723440527915955,4.12109375,1,"['A1', 'F1', 'E2']",6.1,180,450.0,0.12408329184633325,[37000|0|0]
288,309,28800,0.9074959754943848,-0.2276762872934341,0.0,0.0793551951646804,0.2618028521537781,-0.7856465578079224,4.12109375,1,"['A1', 'F1', 'E2']",6.1,180,450.0,0.12450342306205683,[37100|0|0]
289,310,28900,0.9073085784912108,-0.2279872298240661,0.0,0.0678998306393623,0.2542047798633575,-0.8018597960472107,4.12109375,1,"['A1', 'F1', 'E2']",6.1,180,450.0,0.12486646974521813,[37200|0|0]
290,311,29000,0.907385230064392,-0.2276021093130111,0.0,0.0394561700522899,0.2387753129005432,-0.7877668738365173,4.12109375,1,"['A1', 'F1', 'E2']",6.1,180,450.0,0.12525914425636753,[37300|0|0]
291,312,29100,0.9072535037994384,-0.2277542203664779,0.0,0.0320551879703998,0.2250088304281234,-0.7723382711410522,4.12109375,1,"['A1', 'F1', 'E2']",6.1,180,450.0,0.1254603644876203,[37400|0|0]
292,313,29200,0.9072783589363098,-0.2274258136749267,0.0,0.0162533186376094,0.2144325971603393,-0.7779940366744995,4.12109375,1,"['A1', 'F1', 'E2']",6.1,180,450.0,0.1257897104043773,[37500|0|0]
293,314,29300,0.9074845910072328,-0.2277256697416305,0.0,0.0137280160561203,0.1974173039197921,-0.780119001865387,4.12109375,1,"['A1', 'F1', 'E2']",6.1,180,450.0,0.12615364079307306,[37600|0|0]
294,315,29400,0.9075779318809508,-0.2276587188243866,0.0,0.0030590528622269,0.1951372325420379,-0.7781649827957153,4.12109375,1,"['A1', 'F1', 'E2']",6.1,180,450.0,0.12626851004059497,[37700|0|0]
295,316,29500,0.9072327613830566,-0.2275661528110504,0.0,-0.0045628994703292,0.2059632241725921,-0.7788643836975098,4.12109375,1,"['A1', 'F1', 'E2']",6.1,180,450.0,0.12662587699407762,[37800|0|0]
296,317,29600,0.9073294997215272,-0.2276131063699722,0.0,-0.0093432841822505,0.1995655000209808,-0.7826296091079712,4.12109375,1,"['A1', 'F1', 'E2']",6.1,180,450.0,0.12673340811899256,[37900|0|0]
297,318,29700,0.90720397233963,-0.2273350208997726,0.0,-0.0176711454987525,0.2022068798542022,-0.7766111493110657,4.12109375,1,"['A1', 'F1', 'E2']",6.1,180,450.0,0.12703851244925043,[38000|0|0]
298,319,29800,0.9071028232574464,-0.2274504750967025,0.0,-0.0154827609658241,0.2103333175182342,-0.7848384380340576,4.12109375,1,"['A1', 'F1', 'E2']",6.1,180,450.0,0.12719200775346304,[38100|0|0]
299,320,29900,0.9074689149856568,-0.2275473624467849,0.0,-0.0129820741713047,0.1983948200941085,-0.7923126816749573,4.12109375,1,"['A1', 'F1', 'E2']",6.1,180,450.0,0.12757070329353462,[38200|0|0]
300,321,30000,0.907517671585083,-0.2275094538927078,0.0,-0.0154224783182144,0.1993972957134246,-0.799332857131958,4.12109375,1,"['A1', 'F1', 'E2']",6.1,180,450.0,0.12763246302523593,[38300|0|0]
301,322,30100,0.9075257778167723,-0.2275363504886627,0.0,-0.0135326841846108,0.1975414603948593,-0.7943488359451294,4.12109375,1,"['A1', 'F1', 'E2']",6.1,180,450.0,0.12766055462302178,[38400|0|0]
302,323,30200,0.907029926776886,-0.2274406105279922,0.0,-0.0093322871252894,0.2127315104007721,-0.7888861894607544,4.12109375,1,"['A1', 'F1', 'E2']",6.1,180,450.0,0.12816556392375353,[38500|0|0]
303,324,30300,0.9074793457984924,-0.2273888438940048,0.0,-0.0037420818116515,0.1968519240617752,-0.798520028591156,4.12109375,1,"['A1', 'F1', 'E2']",6.1,180,450.0,0.12861795450873081,[38600|0|0]
304,325,30400,0.9073663949966432,-0.2275295108556747,0.0,0.0100178159773349,0.2097031772136688,-0.7976589202880859,4.12109375,1,"['A1', 'F1', 'E2']",6.1,180,450.0,0.12879835705234877,[38700|0|0]
305,326,30500,0.9072998762130736,-0.2278150022029876,0.0,0.0231692586094141,0.2132773697376251,-0.7850021719932556,4.12109375,1,"['A1', 'F1', 'E2']",6.1,180,450.0,0.12909149534387362,[38800|0|0]
306,327,30600,0.9074660539627076,-0.2275493294000625,0.0,0.0239904839545488,0.214525818824768,-0.785197377204895,4.12109375,1,"['A1', 'F1', 'E2']",6.1,180,450.0,0.12940485948139976,[38900|0|0]
307,328,30700,0.9078994989395142,-0.2273801565170288,0.0,0.0204390790313482,0.2149451971054077,-0.7817432284355164,4.12109375,1,"['A1', 'F1', 'E2']",6.1,180,450.0,0.1298701486519945,[39000|0|0]
