time.ms,stateEstimate.x,stateEstimate.y,stateEstimate.z,stabilizer.roll,stabilizer.pitch,stabilizer.yaw,pm.vbat,drone_id,node_name,wind_speed,global_wind_direction,relative_wind_direction,travel_dist,waiting_time
0,1.167288899421692,-0.17497290670871735,-0.25442883372306824,-0.4576360881328583,0.8759636282920837,-6.228123664855957,4.1171875,2,"['A1', 'F1', 'E2']",7.6,90,0,0.2970744881333338,[100|0|0]
100,1.1671719551086426,-0.1744685024023056,-0.2553100883960724,-0.47677892446517944,0.8531320691108704,-6.233845233917236,4.1171875,2,"['A1', 'F1', 'E2']",7.6,90,0,0.298096598438229,[200|0|0]
200,1.1667882204055786,-0.1742311269044876,-0.2556840479373932,-0.4656742811203003,0.8755312561988831,-6.225216865539551,4.1171875,2,"['A1', 'F1', 'E2']",7.6,90,0,0.29868264040587705,[300|0|0]
300,1.1666845083236694,-0.17415820062160492,-0.2557390332221985,-0.4590412974357605,0.8764320015907288,-6.226894378662109,4.1171875,2,"['A1', 'F1', 'E2']",7.6,90,0,0.29882083526907444,[400|0|0]
400,1.1673059463500977,-0.17459851503372192,-0.2553594410419464,-0.44864267110824585,0.8562535643577576,-6.2331719398498535,4.1171875,2,"['A1', 'F1', 'E2']",7.6,90,0,0.2996718066114341,[500|0|0]
500,1.1667336225509644,-0.17386703193187714,-0.25671401619911194,-0.4597112536430359,0.8788313269615173,-6.232852935791016,4.1171875,2,"['A1', 'F1', 'E2']",7.6,90,0,0.3013142121386255,[600|0|0]
600,1.1668795347213745,-0.17424480617046356,-0.25613152980804443,-0.4575178623199463,0.8759258985519409,-6.22243070602417,4.1171875,2,"['A1', 'F1', 'E2']",7.6,90,0,0.30202364439937507,[700|0|0]
700,1.1668365001678467,-0.17407192289829254,-0.25593602657318115,-0.46862223744392395,0.8782699704170227,-6.228626251220703,4.1171875,2,"['A1', 'F1', 'E2']",7.6,90,0,0.3022881479219148,[800|0|0]
800,1.167054295539856,-0.17440374195575714,-0.25493472814559937,-0.46947357058525085,0.8708662390708923,-6.225897789001465,4.1171875,2,"['A1', 'F1', 'E2']",7.6,90,0,0.3033652445991184,[900|0|0]
900,1.166804313659668,-0.1740667223930359,-0.25624942779541016,-0.4582059979438782,0.8606996536254883,-6.226191997528076,4.1171875,2,"['A1', 'F1', 'E2']",7.6,90,0,0.30474528383598515,[1000|0|0]
1000,1.1672149896621704,-0.17457784712314606,-0.2550608813762665,-0.46200597286224365,0.8557613492012024,-6.228015899658203,4.1171875,2,"['A1', 'F1', 'E2']",7.6,90,0,0.306102687924391,[1100|0|0]
1100,1.1669914722442627,-0.17418545484542847,-0.2556813061237335,-0.45534440875053406,0.859528660774231,-6.215804100036621,4.1171875,2,"['A1', 'F1', 'E2']",7.6,90,0,0.30687005915332133,[1200|0|0]
1200,1.1673355102539062,-0.17447762191295624,-0.2553539574146271,-0.45045965909957886,0.8479633927345276,-6.244497776031494,4.1171875,2,"['A1', 'F1', 'E2']",7.6,90,0,0.30742762612219676,[1300|0|0]
1300,1.1671862602233887,-0.17446303367614746,-0.25496920943260193,-0.4562603533267975,0.8678750395774841,-6.241827964782715,4.1171875,2,"['A1', 'F1', 'E2']",7.6,90,0,0.30784056606690435,[1400|0|0]
1400,1.1671626567840576,-0.17456761002540588,-0.25502681732177734,-0.45134976506233215,0.8630976676940918,-6.233458995819092,4.1171875,2,"['A1', 'F1', 'E2']",7.6,90,0,0.3079622706439248,[1500|0|0]
1500,1.1668518781661987,-0.17401531338691711,-0.2558038830757141,-0.4602389931678772,0.8641105890274048,-6.223870277404785,4.1171875,2,"['A1', 'F1', 'E2']",7.6,90,0,0.30896499000254196,[1600|0|0]
1600,1.166703701019287,-0.17392487823963165,-0.2561725974082947,-0.448792964220047,0.8675506711006165,-6.240384578704834,4.1171875,2,"['A1', 'F1', 'E2']",7.6,90,0,0.3093725255737278,[1700|0|0]
1700,1.166541576385498,-0.17382007837295532,-0.25630685687065125,-0.4508779048919678,0.8626188635826111,-6.249692440032959,4.1171875,2,"['A1', 'F1', 'E2']",7.6,90,0,0.30960767023594427,[1800|0|0]
1800,1.1663844585418701,-0.17343944311141968,-0.25725865364074707,-0.4491584897041321,0.855050802230835,-6.241181373596191,4.1171875,2,"['A1', 'F1', 'E2']",7.6,90,0,0.31064472679692606,[1900|0|0]
1900,1.1660652160644531,-0.17301081120967865,-0.25806453824043274,-0.4522134065628052,0.8649275898933411,-6.225746154785156,4.1171875,2,"['A1', 'F1', 'E2']",7.6,90,0,0.3116117278592771,[2000|0|0]
2000,1.1659201383590698,-0.17277464270591736,-0.2580612897872925,-0.456054151058197,0.8635410070419312,-6.234269618988037,4.1171875,2,"['A1', 'F1', 'E2']",7.6,90,0,0.3118889167032372,[2100|0|0]
2100,1.1664457321166992,-0.17328102886676788,-0.25748154520988464,-0.4400481879711151,0.8440489768981934,-6.228001594543457,4.1171875,2,"['A1', 'F1', 'E2']",7.6,90,0,0.31282100013136677,[2200|0|0]
2200,1.167054295539856,-0.17407725751399994,-0.2553938925266266,-0.4395620822906494,0.8419561982154846,-6.221400737762451,4.1171875,2,"['A1', 'F1', 'E2']",7.6,90,0,0.31513673397285025,[2300|0|0]
2300,1.1673080921173096,-0.17466245591640472,-0.25457465648651123,-0.42221787571907043,0.8383947014808655,-6.217620372772217,4.1171875,2,"['A1', 'F1', 'E2']",7.6,90,0,0.31617501021852296,[2400|0|0]
2400,1.1676483154296875,-0.1748560220003128,-0.2550036907196045,-0.4167521595954895,0.810746967792511,-6.215156078338623,4.1171875,2,"['A1', 'F1', 'E2']",7.6,90,0,0.3167557770428947,[2500|0|0]
2500,1.1670202016830444,-0.17446568608283997,-0.2557434141635895,-0.4301793575286865,0.8475977182388306,-6.24843168258667,4.1171875,2,"['A1', 'F1', 'E2']",7.6,90,0,0.3178017597295451,[2600|0|0]
2600,1.1675267219543457,-0.17531360685825348,-0.2540425956249237,-0.43024924397468567,0.84257972240448,-6.247720718383789,4.1171875,2,"['A1', 'F1', 'E2']",7.6,90,0,0.31976856326017195,[2700|0|0]
2700,1.1676316261291504,-0.1750573366880417,-0.25407636165618896,-0.44055426120758057,0.839612603187561,-6.248992443084717,4.1171875,2,"['A1', 'F1', 'E2']",7.6,90,0,0.3200475246031914,[2800|0|0]
2800,1.1673287153244019,-0.17490296065807343,-0.25468459725379944,-0.4273257851600647,0.866187572479248,-6.2341718673706055,4.1171875,2,"['A1', 'F1', 'E2']",7.6,90,0,0.3207443297814606,[2900|0|0]
2900,1.1670292615890503,-0.1741628646850586,-0.2557266056537628,-0.4507323205471039,0.8612721562385559,-6.2492451667785645,4.1171875,2,"['A1', 'F1', 'E2']",7.6,90,0,0.32205703542039227,[3000|0|0]
3000,1.1666697263717651,-0.17371085286140442,-0.25657960772514343,-0.45432430505752563,0.8698129057884216,-6.246695518493652,4.1171875,2,"['A1', 'F1', 'E2']",7.6,90,0,0.32308717754406796,[3100|0|0]
3100,1.1675945520401,-0.17546917498111725,-0.2535223960876465,-0.4303818941116333,0.8576489090919495,-6.235767841339111,4.1171875,2,"['A1', 'F1', 'E2']",7.6,90,0,0.32673320856285115,[3200|0|0]
3200,1.1677864789962769,-0.1753973513841629,-0.25352299213409424,-0.4587514400482178,0.8381545543670654,-6.239480972290039,4.1171875,2,"['A1', 'F1', 'E2']",7.6,90,0,0.32693813523475623,[3300|0|0]
3300,1.1675903797149658,-0.175336554646492,-0.25401315093040466,-0.44793593883514404,0.8535268306732178,-6.2314276695251465,4.1171875,2,"['A1', 'F1', 'E2']",7.6,90,0,0.3274695548590106,[3400|0|0]
3400,1.167413353919983,-0.1747509092092514,-0.25452929735183716,-0.4715341031551361,0.8632197976112366,-6.238780498504639,4.1171875,2,"['A1', 'F1', 'E2']",7.6,90,0,0.3282700083795898,[3500|0|0]
3500,1.1678073406219482,-0.17543508112430573,-0.25322777032852173,-0.4544735550880432,0.8636254072189331,-6.231844425201416,4.1171875,2,"['A1', 'F1', 'E2']",7.6,90,0,0.3297922729174067,[3600|0|0]
3600,1.167637825012207,-0.17561893165111542,-0.2532925009727478,-0.44192051887512207,0.8732783794403076,-6.246021747589111,4.1171875,2,"['A1', 'F1', 'E2']",7.6,90,0,0.3300505878694634,[3700|0|0]
3700,1.1682559251785278,-0.17617496848106384,-0.25236400961875916,-0.44484764337539673,0.8514826893806458,-6.252775192260742,4.1171875,2,"['A1', 'F1', 'E2']",7.6,90,0,0.3312969108477867,[3800|0|0]
3800,1.1687546968460083,-0.17707504332065582,-0.251120001077652,-0.42475277185440063,0.8516115546226501,-6.237907409667969,4.1171875,2,"['A1', 'F1', 'E2']",7.6,90,0,0.33291136590863396,[3900|0|0]
3900,1.168364405632019,-0.17645925283432007,-0.25186601281166077,-0.44351765513420105,0.8622277975082397,-6.237839698791504,4.1171875,2,"['A1', 'F1', 'E2']",7.6,90,0,0.3339544664129276,[4000|0|0]
4000,1.1682014465332031,-0.1765422224998474,-0.2518758177757263,-0.44118985533714294,0.8740960955619812,-6.239544868469238,4.1171875,2,"['A1', 'F1', 'E2']",7.6,90,0,0.33413759415687955,[4100|0|0]
4100,1.1676859855651855,-0.1753569394350052,-0.253702849149704,-0.47687962651252747,0.8727658987045288,-6.228435516357422,4.1171875,2,"['A1', 'F1', 'E2']",7.6,90,0,0.3363755931727082,[4200|0|0]
4200,1.1669244766235352,-0.17413301765918732,-0.25574231147766113,-0.4819575846195221,0.8865176439285278,-6.249688625335693,4.1171875,2,"['A1', 'F1', 'E2']",7.6,90,0,0.33887304927216044,[4300|0|0]
4300,1.1668530702590942,-0.17402596771717072,-0.2560670077800751,-0.4732302129268646,0.8783990144729614,-6.259654521942139,4.1171875,2,"['A1', 'F1', 'E2']",7.6,90,0,0.3392223145692767,[4400|0|0]
4400,1.1669344902038574,-0.17421667277812958,-0.2558903396129608,-0.4637638330459595,0.8785687685012817,-6.2648701667785645,4.1171875,2,"['A1', 'F1', 'E2']",7.6,90,0,0.3394947283518797,[4500|0|0]
4500,1.1670522689819336,-0.17448535561561584,-0.2549941837787628,-0.4655851423740387,0.8834298849105835,-6.235457897186279,4.1171875,2,"['A1', 'F1', 'E2']",7.6,90,0,0.3404376798813296,[4600|0|0]
4600,1.1667442321777344,-0.17390453815460205,-0.25634610652923584,-0.4672500789165497,0.8790667653083801,-6.2429728507995605,4.1171875,2,"['A1', 'F1', 'E2']",7.6,90,0,0.3419409864764746,[4700|0|0]
4700,1.1669420003890991,-0.17446577548980713,-0.2554190456867218,-0.46115076541900635,0.872911274433136,-6.2584967613220215,4.1171875,2,"['A1', 'F1', 'E2']",7.6,90,0,0.3430425950356177,[4800|0|0]
4800,1.167649269104004,-0.1754545122385025,-0.2538773715496063,-0.4451875686645508,0.8450676798820496,-6.248201370239258,4.1171875,2,"['A1', 'F1', 'E2']",7.6,90,0,0.345005905642311,[4900|0|0]
4900,1.1681798696517944,-0.1758180409669876,-0.25288480520248413,-0.45893195271492004,0.8360956907272339,-6.232285499572754,4.1171875,2,"['A1', 'F1', 'E2']",7.6,90,0,0.3461886473855454,[5000|0|0]
5000,1.1675026416778564,-0.17501330375671387,-0.254425585269928,-0.45914849638938904,0.8595360517501831,-6.240417957305908,4.1171875,2,"['A1', 'F1', 'E2']",7.6,90,0,0.34805418830509544,[5100|0|0]
5100,1.1679680347442627,-0.17587098479270935,-0.25293514132499695,-0.4460770785808563,0.8603450059890747,-6.244070053100586,4.1171875,2,"['A1', 'F1', 'E2']",7.6,90,0,0.3498356569741286,[5200|0|0]
5200,1.1682177782058716,-0.17631970345973969,-0.25211066007614136,-0.44356927275657654,0.8668994307518005,-6.241621494293213,4.1171875,2,"['A1', 'F1', 'E2']",7.6,90,0,0.35080699088606226,[5300|0|0]
5300,1.1677711009979248,-0.17550964653491974,-0.2535540461540222,-0.4626370072364807,0.8629533648490906,-6.263588905334473,4.1171875,2,"['A1', 'F1', 'E2']",7.6,90,0,0.3525213642757788,[5400|0|0]
5400,1.1676688194274902,-0.17538344860076904,-0.25429555773735046,-0.45431599020957947,0.8547172546386719,-6.242198467254639,4.1171875,2,"['A1', 'F1', 'E2']",7.6,90,0,0.3532804603608987,[5500|0|0]
5500,1.1677168607711792,-0.17514854669570923,-0.2538550794124603,-0.47061648964881897,0.8624053597450256,-6.239732265472412,4.1171875,2,"['A1', 'F1', 'E2']",7.6,90,0,0.35378196612397844,[5600|0|0]
5600,1.1678019762039185,-0.17540641129016876,-0.2532642185688019,-0.4561125934123993,0.8646197319030762,-6.225779056549072,4.1171875,2,"['A1', 'F1', 'E2']",7.6,90,0,0.3544322393915629,[5700|0|0]
5700,1.168264627456665,-0.1762111932039261,-0.2520715892314911,-0.439757764339447,0.854369580745697,-6.215383529663086,4.1171875,2,"['A1', 'F1', 'E2']",7.6,90,0,0.3559435583011889,[5800|0|0]
5800,1.1674025058746338,-0.17512176930904388,-0.2541840672492981,-0.4563967287540436,0.878198504447937,-6.223080635070801,4.1171875,2,"['A1', 'F1', 'E2']",7.6,90,0,0.35847192959921104,[5900|0|0]
5900,1.16757333278656,-0.17537429928779602,-0.25408875942230225,-0.4518790543079376,0.862088680267334,-6.244470596313477,4.1171875,2,"['A1', 'F1', 'E2']",7.6,90,0,0.3587913616043287,[6000|0|0]
6000,1.1673622131347656,-0.17497138679027557,-0.2545274496078491,-0.46880868077278137,0.8570849895477295,-6.227536678314209,4.1171875,2,"['A1', 'F1', 'E2']",7.6,90,0,0.3594233102311387,[6100|0|0]
6100,1.1673948764801025,-0.1747121661901474,-0.2545144557952881,-0.4759472906589508,0.8517440557479858,-6.220142364501953,4.1171875,2,"['A1', 'F1', 'E2']",7.6,90,0,0.3596849035277353,[6200|0|0]
6200,1.1674317121505737,-0.17479683458805084,-0.25489306449890137,-0.4583214521408081,0.8468790054321289,-6.220439434051514,4.1171875,2,"['A1', 'F1', 'E2']",7.6,90,0,0.360074608742833,[6300|0|0]
6300,1.1665886640548706,-0.17357312142848969,-0.25688982009887695,-0.47285786271095276,0.864031195640564,-6.228108882904053,4.1171875,2,"['A1', 'F1', 'E2']",7.6,90,0,0.3625636320280968,[6400|0|0]
6400,1.1662845611572266,-0.1733817756175995,-0.25705745816230774,-0.46257779002189636,0.8829615116119385,-6.223410606384277,4.1171875,2,"['A1', 'F1', 'E2']",7.6,90,0,0.3629601094070374,[6500|0|0]
6500,1.166567325592041,-0.17351597547531128,-0.2568705677986145,-0.4576443135738373,0.8638216853141785,-6.235061168670654,4.1171875,2,"['A1', 'F1', 'E2']",7.6,90,0,0.36332465478891346,[6600|0|0]
6600,1.1666792631149292,-0.1737971156835556,-0.25706589221954346,-0.44570714235305786,0.8623835444450378,-6.230457782745361,4.1171875,2,"['A1', 'F1', 'E2']",7.6,90,0,0.36368482343709546,[6700|0|0]
6700,1.1666475534439087,-0.17345783114433289,-0.25668931007385254,-0.4717439115047455,0.8724173307418823,-6.230876922607422,4.1171875,2,"['A1', 'F1', 'E2']",7.6,90,0,0.3641926950884455,[6800|0|0]
6800,1.166061520576477,-0.17311549186706543,-0.2573380768299103,-0.4572758674621582,0.8948700428009033,-6.243997097015381,4.1171875,2,"['A1', 'F1', 'E2']",7.6,90,0,0.3651315928497783,[6900|0|0]
6900,1.1665892601013184,-0.17407311499118805,-0.2560126483440399,-0.4365783929824829,0.8698960542678833,-6.237496376037598,4.1171875,2,"['A1', 'F1', 'E2']",7.6,90,0,0.3668498220909131,[7000|0|0]
7000,1.2587311267852783,-0.32248666882514954,-0.014897603541612625,-1.6091692447662354,-1.210280418395996,-5.158629894256592,4.1171875,2,"['A1', 'F1', 'E2']",7.6,90,0,0.6645966464026215,[7100|0|0]
7100,1.2701399326324463,-0.31296291947364807,-0.00491343904286623,0.45438945293426514,1.749427080154419,-5.677968978881836,4.1171875,2,"['A1', 'F1', 'E2']",7.6,90,0,0.6825004502807538,[7200|0|0]
7200,1.2671318054199219,-0.3144933581352234,-0.005619557574391365,2.051811456680298,4.149327754974365,-5.633078098297119,4.1171875,2,"['A1', 'F1', 'E2']",7.6,90,0,0.6859485911137445,[7300|0|0]
7300,1.257376790046692,-0.3261900544166565,-0.009349058382213116,3.265854835510254,5.152558326721191,-5.81716251373291,4.1171875,2,"['A1', 'F1', 'E2']",7.6,90,0,0.7016292226414473,[7400|0|0]
7400,1.2564940452575684,-0.3266616463661194,-0.009803266264498234,2.8752567768096924,4.846909523010254,-5.731546401977539,4.1171875,2,"['A1', 'F1', 'E2']",7.6,90,0,0.7027282868478761,[7500|0|0]
7500,1.2558659315109253,-0.32649609446525574,-0.010368510149419308,2.375018358230591,4.320237636566162,-5.6880645751953125,4.1171875,2,"['A1', 'F1', 'E2']",7.6,90,0,0.7035893530242193,[7600|0|0]
7600,1.256018042564392,-0.3264574706554413,-0.010401995852589607,1.926794171333313,3.768453359603882,-5.66589879989624,4.1171875,2,"['A1', 'F1', 'E2']",7.6,90,0,0.7037498237803967,[7700|0|0]
7700,1.255812644958496,-0.32684239745140076,-0.010050378739833832,1.5732942819595337,3.3089592456817627,-5.711992263793945,4.1171875,2,"['A1', 'F1', 'E2']",7.6,90,0,0.7043101731435071,[7800|0|0]
7800,1.2563817501068115,-0.3269610106945038,-0.010036046616733074,1.2718719244003296,2.89243221282959,-5.778599739074707,4.1171875,2,"['A1', 'F1', 'E2']",7.6,90,0,0.7048916842620861,[7900|0|0]
7900,1.2560534477233887,-0.3265186846256256,-0.01048198901116848,0.990912675857544,2.57675838470459,-5.81262731552124,4.1171875,2,"['A1', 'F1', 'E2']",7.6,90,0,0.7056004151174361,[8000|0|0]
8000,1.2561012506484985,-0.3267934024333954,-0.010286960750818253,0.7823470234870911,2.297606945037842,-5.85978364944458,4.1171875,2,"['A1', 'F1', 'E2']",7.6,90,0,0.7059406959072114,[8100|0|0]
8100,1.2564141750335693,-0.3264419734477997,-0.010285280644893646,0.5859071016311646,2.0522208213806152,-5.905423164367676,4.1171875,2,"['A1', 'F1', 'E2']",7.6,90,0,0.7064112560260535,[8200|0|0]
8200,1.2561535835266113,-0.32628166675567627,-0.010249484330415726,0.42610394954681396,1.8633673191070557,-5.940606117248535,4.1171875,2,"['A1', 'F1', 'E2']",7.6,90,0,0.706719294246358,[8300|0|0]
8301,1.256690263748169,-0.3268093764781952,-0.009720571339130402,0.3060504198074341,1.6778976917266846,-5.996161460876465,4.1171875,2,"['A1', 'F1', 'E2']",7.6,90,0,0.7076392138970898,[8400|0|0]
8400,1.2565299272537231,-0.32622674107551575,-0.01000621635466814,0.17259196937084198,1.5307793617248535,-6.0176544189453125,4.1171875,2,"['A1', 'F1', 'E2']",7.6,90,0,0.7083076186238895,[8500|0|0]
8500,1.2557703256607056,-0.32634618878364563,-0.010146512649953365,-0.02937239222228527,1.3761416673660278,-6.036229133605957,4.1171875,2,"['A1', 'F1', 'E2']",7.6,90,0,0.7090892485782561,[8600|0|0]
8600,1.2558581829071045,-0.3260422945022583,-0.009961694478988647,-0.08248046785593033,1.2903131246566772,-6.059892177581787,4.1171875,2,"['A1', 'F1', 'E2']",7.6,90,0,0.7094556205017484,[8700|0|0]
8700,1.256137490272522,-0.32635805010795593,-0.009486731141805649,-0.10470573604106903,1.2245913743972778,-6.081913471221924,4.1171875,2,"['A1', 'F1', 'E2']",7.6,90,0,0.7100906830014867,[8800|0|0]
8801,1.2559146881103516,-0.32648715376853943,-0.009610592387616634,-0.1377147138118744,1.1733784675598145,-6.102448463439941,4.1171875,2,"['A1', 'F1', 'E2']",7.6,90,0,0.7103764279347011,[8900|0|0]
8901,1.2553235292434692,-0.3268491327762604,-0.010771079920232296,0.06490039080381393,1.2614027261734009,-6.13508939743042,4.1171875,2,"['A1', 'F1', 'E2']",7.6,90,0,0.7117281782523562,[9000|0|0]
9001,1.255873680114746,-0.3268575966358185,-0.0100428257137537,-0.00890255719423294,1.1793761253356934,-6.1306071281433105,4.1171875,2,"['A1', 'F1', 'E2']",7.6,90,0,0.7126409168827095,[9100|0|0]
9101,1.2555601596832275,-0.3266828656196594,-0.010426814667880535,-0.07080455124378204,1.1351730823516846,-6.18638277053833,3.24609375,2,"['C1', 'F1', 'J1']",7.6,90,0,0.7131665341444875,[9100|0|0]
9201,1.2551325559616089,-0.32604214549064636,-0.007308501284569502,1.920386791229248,1.0770636796951294,-4.774823188781738,3.5625,2,"['C1', 'F1', 'J1']",7.6,90,0,0.7163785810904397,[9100|0|0]
9302,1.2563849687576294,-0.3317864239215851,0.021726340055465698,2.0709986686706543,-0.19712451100349426,1.1696802377700806,3.6953125,2,"['C1', 'F1', 'J1']",7.6,90,0,0.746002680809162,[9100|0|0]
9401,1.2610868215560913,-0.33921828866004944,0.06907285749912262,-3.2414472103118896,1.5399060249328613,8.703819274902344,3.748046875,2,"['C1', 'F1', 'J1']",7.6,90,0,0.794159017331698,[9100|0|0]
9501,1.2649149894714355,-0.34166768193244934,0.12870751321315765,-6.9131245613098145,1.7380871772766113,14.334358215332031,3.75390625,2,"['C1', 'F1', 'J1']",7.6,90,0,0.8539665967771366,[9100|0|0]
9602,1.265182614326477,-0.33272483944892883,0.1904173344373703,-5.472914695739746,1.0719475746154785,16.68514060974121,3.716796875,2,"['C1', 'F1', 'J1']",7.6,90,0,0.916321613337734,[9100|0|0]
9702,1.2659417390823364,-0.3164665997028351,0.2563289999961853,1.7460179328918457,-2.3162999153137207,16.584930419921875,3.720703125,2,"['C1', 'F1', 'J1']",7.6,90,0,0.9842131023976559,[9100|0|0]
9802,1.2733303308486938,-0.301361083984375,0.3292261064052582,4.7301411628723145,-2.8298518657684326,16.213260650634766,3.716796875,2,"['C1', 'F1', 'J1']",7.6,90,0,1.0590245722149656,[9100|0|0]
9902,1.2873955965042114,-0.29215872287750244,0.40915799140930176,4.496959686279297,1.0558546781539917,13.925936698913574,3.720703125,2,"['C1', 'F1', 'J1']",7.6,90,0,1.1407045660212902,[9100|0|0]
10000,1.3024030923843384,-0.2936183512210846,0.49408388137817383,4.8943657875061035,0.5868869423866272,9.904001235961914,3.716796875,2,"['C1', 'F1', 'J1']",7.6,90,0,1.2269586223577802,[9100|0|0]
10100,1.3148130178451538,-0.3031252920627594,0.5849128365516663,2.2566757202148438,3.9201314449310303,6.79658317565918,3.7265625,2,"['C1', 'F1', 'J1']",7.6,90,0,1.3191230801059728,[9100|0|0]
10200,1.3190281391143799,-0.31780022382736206,0.6795636415481567,-0.18048648536205292,4.584661483764648,5.0408034324646,3.732421875,2,"['C1', 'F1', 'J1']",7.6,90,0,1.4149974549727415,[9100|0|0]
10300,1.3127467632293701,-0.3335453271865845,0.776512861251831,-2.017498731613159,3.6651322841644287,4.907158851623535,3.732421875,2,"['C1', 'F1', 'J1']",7.6,90,0,1.5134175502986082,[9100|0|0]
10400,1.2980021238327026,-0.3455656170845032,0.8742325305938721,-3.934117555618286,1.6630051136016846,4.972932815551758,3.7265625,2,"['C1', 'F1', 'J1']",7.6,90,0,1.6129716839972428,[9100|0|0]
10500,1.2731523513793945,-0.3474893271923065,0.9771903157234192,-4.205554008483887,0.05023447796702385,4.506024360656738,3.716796875,2,"['C1', 'F1', 'J1']",7.6,90,0,1.7189033476787976,[9100|0|0]
10600,1.2531564235687256,-0.34580197930336,1.0749045610427856,-3.487508535385132,-1.973751425743103,4.462322235107422,3.716796875,2,"['C1', 'F1', 'J1']",7.6,90,0,1.81865683388475,[9100|0|0]
10700,1.2343322038650513,-0.3372763395309448,1.1744252443313599,-2.119856119155884,-3.137138605117798,8.56101131439209,3.720703125,2,"['C1', 'F1', 'J1']",7.6,90,0,1.920300349089636,[9100|0|0]
10800,1.2170915603637695,-0.32291239500045776,1.2718045711517334,0.1374519020318985,-2.7758238315582275,11.059507369995117,3.7109375,2,"['C1', 'F1', 'J1']",7.6,90,0,2.020231805512538,[9100|0|0]
10900,1.2059825658798218,-0.309532105922699,1.3700032234191895,1.9093711376190186,-2.7089340686798096,8.410623550415039,3.720703125,2,"['C1', 'F1', 'J1']",7.6,90,0,2.1199585180894274,[9100|0|0]
11000,1.1970256567001343,-0.3019340932369232,1.4657362699508667,2.857414722442627,-2.896801233291626,6.446257591247559,3.7578125,2,"['C1', 'F1', 'J1']",7.6,90,0,2.216409397904298,[9100|0|0]
11100,1.191033959388733,-0.2992629110813141,1.5555788278579712,2.9541120529174805,-3.595397710800171,5.000208377838135,3.78515625,2,"['C1', 'F1', 'J1']",7.6,90,0,2.306491143347375,[9100|0|0]
11200,1.1880238056182861,-0.30193060636520386,1.6349560022354126,1.8373972177505493,-3.2800204753875732,3.704068660736084,3.794921875,2,"['C1', 'F1', 'J1']",7.6,90,0,2.385970155897835,[9100|0|0]
11300,1.1877719163894653,-0.30522310733795166,1.6963913440704346,0.843858540058136,-3.0795376300811768,2.7479875087738037,3.7890625,2,"['C1', 'F1', 'J1']",7.6,90,0,2.447494177525368,[9100|0|0]
11400,1.190195918083191,-0.310165137052536,1.7410497665405273,0.09393572807312012,-2.124850273132324,1.9199132919311523,3.779296875,2,"['C1', 'F1', 'J1']",7.6,90,0,2.492490556706679,[9100|0|0]
11500,1.194659948348999,-0.3154093325138092,1.7702645063400269,-0.4469241201877594,-1.450659990310669,1.9902307987213135,3.76953125,2,"['C1', 'F1', 'J1']",7.6,90,0,2.5225060555997936,[9100|0|0]
11600,1.2003237009048462,-0.320951372385025,1.7874118089675903,-0.9788055419921875,-0.6398664712905884,2.708832025527954,3.75390625,2,"['C1', 'F1', 'J1']",7.6,90,0,2.5413957958401796,[9100|0|0]
11700,1.2070093154907227,-0.3262726068496704,1.7965670824050903,-1.7353767156600952,-0.35549601912498474,3.4774205684661865,3.748046875,2,"['C1', 'F1', 'J1']",7.6,90,0,2.5539190546147164,[9100|0|0]
11800,1.2143193483352661,-0.331043004989624,1.8001153469085693,-1.7635010480880737,0.22416599094867706,4.131418228149414,3.7421875,2,"['C1', 'F1', 'J1']",7.6,90,0,2.5633415521386547,[9100|0|0]
11900,1.2202430963516235,-0.3318697512149811,1.799364686012268,-2.040910005569458,0.20590248703956604,4.854621887207031,3.736328125,2,"['C1', 'F1', 'J1']",7.6,90,0,2.5693696357199993,[9100|0|0]
12000,1.2260751724243164,-0.3307019770145416,1.7965021133422852,-1.5731650590896606,0.2198593020439148,5.813955307006836,3.732421875,2,"['C1', 'F1', 'J1']",7.6,90,0,2.5759704788624944,[9100|0|0]
12100,1.230669379234314,-0.32704800367355347,1.792019248008728,-3.159243583679199,2.1011013984680176,6.676048755645752,3.822265625,2,"['C1', 'F1', 'J1']",7.6,90,-26.778840406955112,2.5833565697764005,[9100|0|0]
12200,1.2566784620285034,-0.3660399913787842,1.8032276630401611,-14.61639404296875,13.49618148803711,10.04562759399414,3.810546875,2,"['C1', 'F1', 'J1']",7.6,90,-26.778840406955112,2.6315486444413985,[9100|0|0]
12300,1.2092798948287964,-0.30874571204185486,1.725638508796692,-17.539274215698242,13.979689598083496,7.81069803237915,3.716796875,2,"['C1', 'F1', 'J1']",7.6,90,-26.778840406955112,2.7390164790410596,[9100|0|0]
12400,1.1390252113342285,-0.23391100764274597,1.667487621307373,-16.38726043701172,10.863447189331055,12.804286003112793,3.611328125,2,"['C1', 'F1', 'J1']",7.6,90,-26.778840406955112,2.856988845513973,[9100|0|0]
12500,1.074840784072876,-0.14477412402629852,1.622144341468811,-10.103581428527832,2.5754971504211426,7.122032642364502,3.63671875,2,"['C1', 'F1', 'J1']",7.6,90,-26.778840406955112,2.9758208182748342,[9100|0|0]
12600,0.9983602166175842,-0.048492319881916046,1.5781562328338623,-3.4373698234558105,-4.205175399780273,5.720320701599121,3.6640625,2,"['C1', 'F1', 'J1']",7.6,90,-26.778840406955112,3.1064133782040306,[9100|0|0]
12700,0.9184452891349792,0.06035413593053818,1.542520523071289,-1.023862600326538,-5.928287029266357,3.170652151107788,3.6640625,2,"['C1', 'F1', 'J1']",7.6,90,-26.778840406955112,3.2460695645609725,[9100|0|0]
12800,0.8469780087471008,0.1694839596748352,1.517465591430664,0.3769843578338623,-8.066023826599121,1.0087426900863647,3.66796875,2,"['C1', 'F1', 'J1']",7.6,90,-26.778840406955112,3.378902693696807,[9100|0|0]
12900,0.7881357073783875,0.2760273516178131,1.50344979763031,-0.21502359211444855,-8.025809288024902,-0.9567967653274536,3.6796875,2,"['C1', 'F1', 'J1']",7.6,90,-26.778840406955112,3.501419440604875,[9100|0|0]
13000,0.7431181073188782,0.380379855632782,1.4986400604248047,2.113081455230713,-7.733150005340576,-2.2145283222198486,3.6953125,2,"['C1', 'F1', 'J1']",7.6,90,-26.778840406955112,3.615169882280053,[9100|0|0]
13100,0.7124711275100708,0.47738680243492126,1.4998440742492676,4.6726155281066895,-7.6882100105285645,-2.48000431060791,3.705078125,2,"['C1', 'F1', 'J1']",7.6,90,-26.778840406955112,3.716909917411578,[9100|0|0]
13200,0.6974815726280212,0.5570048689842224,1.5039103031158447,7.792174816131592,-6.582040309906006,-2.8757832050323486,3.7109375,2,"['C1', 'F1', 'J1']",7.6,90,-26.778840406955112,3.7980287037302003,[9100|0|0]
13300,0.6961398720741272,0.6141246557235718,1.5099525451660156,8.80353832244873,-4.87519645690918,-2.6684036254882812,3.7109375,2,"['C1', 'F1', 'J1']",7.6,90,-26.778840406955112,3.8554828496773634,[9100|0|0]
13400,0.7083865404129028,0.6392056941986084,1.5182973146438599,7.996292591094971,-2.4420156478881836,-2.107339859008789,3.7109375,2,"['C1', 'F1', 'J1']",7.6,90,-26.778840406955112,3.8846148690722595,[9100|0|0]
13500,0.730380654335022,0.6340462565422058,1.53046452999115,4.991947650909424,0.002274964237585664,-1.261364459991455,3.716796875,2,"['C1', 'F1', 'J1']",7.6,90,-26.778840406955112,3.910274213831173,[9100|0|0]
13600,0.7608745694160461,0.6000136137008667,1.546284556388855,1.036886215209961,2.1886818408966064,-0.24018657207489014,3.7265625,2,"['C1', 'F1', 'J1']",7.6,90,-26.778840406955112,3.9586309390197023,[9100|0|0]
13700,1.0162101984024048,0.15431368350982666,1.7171434164047241,-3.3865537643432617,4.014627933502197,9.327363014221191,3.826171875,2,"['C1', 'F1', 'J1']",7.6,90,-26.778840406955112,4.499960285395899,[9100|0|0]
13800,1.0573903322219849,0.08050219714641571,1.699802279472351,-13.637207984924316,14.412999153137207,9.639596939086914,3.80078125,2,"['C1', 'F1', 'J1']",7.6,90,-26.778840406955112,4.586242693630033,[9100|0|0]
13900,1.0726102590560913,0.059335559606552124,1.6591140031814575,-17.349811553955078,16.533180236816406,4.668622016906738,3.716796875,2,"['C1', 'F1', 'J1']",7.6,90,-26.778840406955112,4.634566689171623,[9100|0|0]
14000,1.0639592409133911,0.0738144963979721,1.5997529029846191,-17.985450744628906,16.442296981811523,2.4115946292877197,3.642578125,2,"['C1', 'F1', 'J1']",7.6,90,-26.778840406955112,4.696277465719114,[9100|0|0]
14100,1.0278189182281494,0.12182030081748962,1.5338026285171509,-18.946914672851562,14.604435920715332,-1.2254664897918701,3.611328125,2,"['C1', 'F1', 'J1']",7.6,90,-26.778840406955112,4.785496964059403,[9100|0|0]
14200,0.9703478813171387,0.20752522349357605,1.4754685163497925,-14.931069374084473,7.3097920417785645,-4.357732772827148,3.615234375,2,"['C1', 'F1', 'J1']",7.6,90,-26.778840406955112,4.9040343948435,[9100|0|0]
14300,0.7840380072593689,0.3905530869960785,1.4816632270812988,-5.6519455909729,-2.2100284099578857,-5.4384589195251465,3.6796875,2,"['C1', 'F1', 'J1']",7.6,90,-26.778840406955112,5.165279380308791,[9100|0|0]
14400,0.7091577649116516,0.5311902761459351,1.4565880298614502,6.882645130157471,-12.962915420532227,-4.388040065765381,3.7109375,2,"['C1', 'F1', 'J1']",7.6,90,-26.778840406955112,5.326569910662062,[9100|0|0]
14500,0.6484325528144836,0.6564061641693115,1.4298861026763916,13.577871322631836,-14.921670913696289,-3.1842737197875977,3.6640625,2,"['C1', 'F1', 'J1']",7.6,90,-26.778840406955112,5.46827228507098,[9100|0|0]
14600,0.6092880368232727,0.7535857558250427,1.4027926921844482,17.116853713989258,-13.494467735290527,-2.1574902534484863,3.63671875,2,"['C1', 'F1', 'J1']",7.6,90,-26.778840406955112,5.576486050640088,[9100|0|0]
14700,0.5884670615196228,0.8195516467094421,1.3786883354187012,17.914688110351562,-10.542871475219727,-0.9724740386009216,3.63671875,2,"['C1', 'F1', 'J1']",7.6,90,-26.778840406955112,5.649739253900137,[9100|0|0]
14800,0.5839834809303284,0.8488704562187195,1.362802505493164,14.79182243347168,-7.018696308135986,0.10728582739830017,3.6484375,2,"['C1', 'F1', 'J1']",7.6,90,-26.778840406955112,5.683385274145704,[9100|0|0]
14900,0.5888211131095886,0.8548712134361267,1.3555738925933838,8.82227611541748,-3.5337886810302734,1.4461272954940796,3.6640625,2,"['C1', 'F1', 'J1']",7.6,90,-26.778840406955112,5.693952422140264,[9100|0|0]
15000,0.6024141311645508,0.8408417701721191,1.3598648309707642,4.80706262588501,-2.0274384021759033,-0.30821630358695984,3.6796875,2,"['C1', 'F1', 'J1']",7.6,90,-26.778840406955112,5.713952611396844,[9100|0|0]
15100,0.7301942110061646,0.6245103478431702,1.4538910388946533,0.06187768280506134,-2.6159987449645996,-0.5854102969169617,3.900390625,2,"['C1', 'F1', 'J1']",7.6,90,0,5.982221060655682,[9100|0|0]
15200,0.7620189785957336,0.582176685333252,1.4493606090545654,-14.915315628051758,6.74398136138916,1.3210551738739014,3.912109375,2,"['C1', 'F1', 'J1']",7.6,90,0,6.0353763013020165,[9100|0|0]
15300,0.802409827709198,0.5567197203636169,1.407577633857727,-15.190115928649902,6.732044696807861,1.820717453956604,3.837890625,2,"['C1', 'F1', 'J1']",7.6,90,0,6.098821512105287,[9100|0|0]
15400,0.8232070207595825,0.5521172881126404,1.3212186098098755,-16.92245101928711,12.933441162109375,-4.180138111114502,3.720703125,2,"['C1', 'F1', 'J1']",7.6,90,0,6.187768612428441,[9100|0|0]
15500,0.770456850528717,0.5928977727890015,1.2271281480789185,-13.272337913513184,10.278971672058105,2.250873327255249,3.673828125,2,"['C1', 'F1', 'J1']",7.6,90,0,6.303088356525317,[9100|0|0]
15600,0.7472125887870789,0.6284141540527344,1.1008678674697876,-4.65549898147583,0.7799078226089478,6.544701099395752,3.6953125,2,"['C1', 'F1', 'J1']",7.6,90,0,6.436292588820995,[9100|0|0]
15700,0.7234624028205872,0.6613637804985046,0.9687676429748535,4.483577251434326,-3.859644889831543,6.254739284515381,3.6640625,2,"['C1', 'F1', 'J1']",7.6,90,0,6.574496129036038,[9100|0|0]
15800,0.7014245390892029,0.6816597580909729,0.8378366827964783,3.058804988861084,-2.853989362716675,4.488785266876221,3.6640625,2,"['C1', 'F1', 'J1']",7.6,90,0,6.7088110964726875,[9100|0|0]
15900,0.6817272305488586,0.690864622592926,0.71528559923172,2.0627236366271973,-4.496885299682617,2.658726930618286,3.66796875,2,"['C1', 'F1', 'J1']",7.6,90,0,6.833275876941418,[9100|0|0]
16000,0.6655551195144653,0.6924915909767151,0.5974085330963135,0.15573856234550476,-3.2793848514556885,2.65991473197937,3.68359375,2,"['C1', 'F1', 'J1']",7.6,90,0,6.952268258723285,[9100|0|0]
16100,0.6517329216003418,0.6912557482719421,0.48306795954704285,-0.5244652032852173,-1.6653567552566528,3.374579906463623,3.68359375,2,"['C1', 'F1', 'J1']",7.6,90,0,7.067447888962074,[9100|0|0]
16200,0.6387102007865906,0.689835786819458,0.37280359864234924,-1.1298260688781738,-2.114544630050659,3.659363269805908,3.63671875,2,"['C1', 'F1', 'J1']",7.6,90,0,7.178487687384261,[9100|0|0]
16300,0.6264811754226685,0.6896979808807373,0.2682834267616272,-1.1271486282348633,-3.0658462047576904,4.548537731170654,3.615234375,2,"['C1', 'F1', 'J1']",7.6,90,0,7.283720925393,[9100|0|0]
16400,0.6188111305236816,0.6909196972846985,0.174672469496727,0.935954749584198,-5.522856712341309,5.591829776763916,3.615234375,2,"['C1', 'F1', 'J1']",7.6,90,0,7.377653526228786,[9100|0|0]
16500,0.6180860996246338,0.6911313533782959,0.09501668065786362,-1.2471764087677002,-2.867777109146118,6.039208889007568,3.60546875,2,"['C1', 'F1', 'J1']",7.6,90,0,7.457312895819865,[9100|0|0]
16600,0.6190767884254456,0.6950368881225586,0.03163142502307892,-4.0471367835998535,1.563950777053833,6.035399436950684,3.611328125,2,"['C1', 'F1', 'J1']",7.6,90,0,7.520826085771447,[9100|0|0]
16700,0.6162228584289551,0.7053547501564026,-0.015636425465345383,-3.5737109184265137,1.8440015316009521,5.886350631713867,3.611328125,2,"['C1', 'F1', 'J1']",7.6,90,0,7.5692910512947025,[9100|0|0]
16800,0.6093671321868896,0.7228894829750061,-0.03701874613761902,-1.6486947536468506,-1.0688552856445312,5.469366550445557,3.63671875,2,"['C1', 'F1', 'J1']",7.6,90,0,7.597780899919395,[9100|0|0]
16900,0.6040775179862976,0.743679940700531,-0.028378313407301903,1.3561747074127197,-2.126893997192383,4.113133430480957,3.689453125,2,"['C1', 'F1', 'J1']",7.6,90,0,7.620908377702221,[9100|0|0]
17000,0.6057606935501099,0.7608389854431152,-0.006885295268148184,2.209221124649048,-7.41873836517334,3.223992109298706,3.720703125,2,"['C1', 'F1', 'J1']",7.6,90,0,7.648462247216076,[9100|0|0]
17100,0.6184476017951965,0.7740366458892822,0.01334453746676445,5.755404949188232,-5.7952399253845215,2.297772169113159,3.720703125,2,"['C1', 'F1', 'J1']",7.6,90,0,7.675745612377913,[9100|0|0]
17200,0.6382590532302856,0.7813189029693604,0.023687375709414482,2.9021825790405273,-2.226423740386963,1.8493242263793945,3.701171875,2,"['C1', 'F1', 'J1']",7.6,90,0,7.699250913462112,[9100|0|0]
17300,0.6605743169784546,0.7834455370903015,0.02567538432776928,4.411920547485352,-0.41752856969833374,2.082125663757324,3.68359375,2,"['C1', 'F1', 'J1']",7.6,90,0,7.721755262977291,[9100|0|0]
17400,0.6821491122245789,0.7802742719650269,0.02361154928803444,1.7608386278152466,2.2266900539398193,2.0268123149871826,3.6796875,2,"['C1', 'F1', 'J1']",7.6,90,0,7.743659329437157,[9100|0|0]
17500,0.6990618109703064,0.7741851210594177,0.018775688484311104,0.23180094361305237,3.027101993560791,1.2992504835128784,3.66796875,2,"['C1', 'F1', 'J1']",7.6,90,0,7.76227391208969,[9100|0|0]
17600,0.710608184337616,0.7667627930641174,0.014644906856119633,-0.04542779549956322,2.8174960613250732,0.9021236300468445,3.66796875,2,"['C1', 'F1', 'J1']",7.6,90,0,7.7766082431751276,[9100|0|0]
17700,0.7164618968963623,0.7610921263694763,0.011935374699532986,-0.9241161346435547,2.2284553050994873,0.8950204253196716,3.673828125,2,"['C1', 'F1', 'J1']",7.6,90,0,7.78519683886882,[9100|0|0]
17800,0.7179998755455017,0.7561593651771545,0.012413010001182556,-1.138972282409668,1.4631587266921997,1.202934741973877,3.6796875,2,"['C1', 'F1', 'J1']",7.6,90,0,7.7903858317178285,[9100|0|0]
17900,0.7170491814613342,0.754573404788971,0.014715205878019333,-1.1257026195526123,0.7248687148094177,1.4135925769805908,3.68359375,2,"['C1', 'F1', 'J1']",7.6,90,0,7.7933386600992085,[9100|0|0]
18000,0.7147802710533142,0.7534781694412231,0.016873005777597427,-1.0386146306991577,0.028883393853902817,1.8349711894989014,3.68359375,2,"['C1', 'F1', 'J1']",7.6,90,0,7.796655826859141,[9100|0|0]
18100,0.7126742005348206,0.7542935609817505,0.017729410901665688,-0.2966032922267914,-0.2725820243358612,1.821673035621643,3.6796875,2,"['G1', 'F1', 'A/B1']",7.6,90,0,7.799071158333238,[9100|100|0]
18200,0.7104114294052124,0.7557899355888367,0.017169419676065445,-0.26295554637908936,-0.006525455974042416,1.7277847528457642,3.673828125,2,"['G1', 'F1', 'A/B1']",7.6,90,0,7.801841151171219,[9100|200|0]
18300,0.7087714672088623,0.757645845413208,0.01604428142309189,-0.03921854868531227,-0.8962361216545105,1.9066277742385864,3.673828125,2,"['G1', 'F1', 'A/B1']",7.6,90,0,7.804561410969466,[9100|300|0]
18400,0.7075135707855225,0.7591961622238159,0.014684662222862244,0.5358216166496277,-0.07052905857563019,2.553450345993042,3.673828125,2,"['G1', 'F1', 'A/B1']",7.6,90,0,7.806976850886901,[9100|400|0]
18500,0.7064042091369629,0.7610174417495728,0.014377410523593426,-0.4884350299835205,0.09756100177764893,2.6858017444610596,3.673828125,2,"['G1', 'F1', 'A/B1']",7.6,90,0,7.809131414876422,[9100|500|0]
18600,0.7055943012237549,0.7632091045379639,0.01469610258936882,0.1978369802236557,-0.5374765992164612,2.8122968673706055,3.673828125,2,"['G1', 'F1', 'A/B1']",7.6,90,0,7.811489571198357,[9100|600|0]
18700,0.7047526240348816,0.7660328149795532,0.015539772808551788,-0.7153322100639343,0.09157444536685944,3.3270843029022217,3.673828125,2,"['G1', 'F1', 'A/B1']",7.6,90,0,7.814554459546559,[9100|700|0]
18800,0.7049473524093628,0.7701334357261658,0.01690221205353737,-0.10816625505685806,-0.26796042919158936,3.9403140544891357,3.673828125,2,"['G1', 'F1', 'A/B1']",7.6,90,0,7.818879878641128,[9100|800|0]
18900,0.7055959701538086,0.7749958634376526,0.018266914412379265,-0.26459217071533203,-0.09992572665214539,4.880431175231934,3.673828125,2,"['G1', 'F1', 'A/B1']",7.6,90,0,7.823971668184704,[9100|900|0]
19000,0.7065208554267883,0.7806979417800903,0.019200483337044716,0.09311651438474655,0.9094786047935486,5.418503284454346,3.673828125,2,"['G1', 'F1', 'A/B1']",7.6,90,0,7.829823220212036,[9100|1000|0]
19100,0.7064237594604492,0.78653883934021,0.0193853247910738,-0.1886206716299057,0.2743680477142334,5.582432270050049,3.6640625,2,"['G1', 'F1', 'A/B1']",7.6,90,0,7.83566784836938,[9100|1100|0]
19200,0.7063297629356384,0.7921412587165833,0.019293438643217087,0.6634485125541687,-0.015056956559419632,5.373913288116455,3.66796875,2,"['G1', 'F1', 'A/B1']",7.6,90,0,7.84127180958263,[9100|1200|0]
19300,0.7067114114761353,0.7968263030052185,0.0185097549110651,0.3265189826488495,-0.16562624275684357,4.760970592498779,3.6640625,2,"['G1', 'F1', 'A/B1']",7.6,90,0,7.8460372535060205,[9100|1300|0]
19400,0.7084967494010925,0.8007665872573853,0.016850383952260017,0.6129761338233948,-0.8574466109275818,4.179669380187988,3.6640625,2,"['G1', 'F1', 'A/B1']",7.6,90,0,7.850670479539044,[9100|1400|0]
19500,0.7114383578300476,0.8038144707679749,0.01620970480144024,0.5114689469337463,-0.32331010699272156,3.6703996658325195,3.6640625,2,"['G1', 'F1', 'A/B1']",7.6,90,0,7.85495453413927,[9100|1500|0]
19600,0.7155224084854126,0.8067319989204407,0.017256110906600952,0.1701648086309433,-0.07104385644197464,3.0368659496307373,3.6640625,2,"['G1', 'F1', 'A/B1']",7.6,90,0,7.860081561154309,[9100|1600|0]
19700,0.7197645902633667,0.8104146718978882,0.020670797675848007,-0.7923598289489746,-0.0741131603717804,2.3326282501220703,3.66796875,2,"['G1', 'F1', 'A/B1']",7.6,90,0,7.866655621712906,[9100|1700|0]
19800,0.7244102954864502,0.8153579235076904,0.02340206876397133,-0.6221478581428528,-0.08788377046585083,2.098055601119995,3.6640625,2,"['G1', 'F1', 'A/B1']",7.6,90,0,7.873968497703541,[9100|1800|0]
19900,0.7301005125045776,0.8221874833106995,0.02563333325088024,-0.42589256167411804,-0.09440934658050537,2.163700819015503,3.6640625,2,"['G1', 'F1', 'A/B1']",7.6,90,0,7.883133648985806,[9100|1900|0]
20000,0.7366049289703369,0.8306577205657959,0.026718009263277054,-0.330778032541275,-0.36897802352905273,2.8732588291168213,3.884765625,2,"['G1', 'F1', 'A/B1']",7.6,90,0,7.893868120317434,[9100|2000|0]
20100,0.7464376091957092,0.8377977609634399,0.008490932174026966,3.3935770988464355,-0.8348914980888367,8.531747817993164,4.0,2,"['G1', 'F1', 'A/B1']",7.6,90,0,7.915774469089237,[9100|2100|0]
20200,0.7509511709213257,0.8464639186859131,-0.047929808497428894,-0.4738539457321167,0.9670704007148743,16.503238677978516,4.0078125,2,"['G1', 'F1', 'A/B1']",7.6,90,0,7.973035053325144,[9100|2200|0]
20300,0.7554923295974731,0.8465999960899353,-0.047292739152908325,-0.9748983383178711,0.6343333721160889,17.279407501220703,4.0078125,2,"['G1', 'F1', 'A/B1']",7.6,90,0,7.977622699402552,[9100|2300|0]
20400,0.7553961277008057,0.8466460704803467,-0.045967232435941696,-1.454228401184082,1.2180548906326294,17.10894775390625,4.01171875,2,"['G1', 'F1', 'A/B1']",7.6,90,0,7.978952491006939,[9100|2400|0]
20500,0.7577053904533386,0.8481479287147522,-0.04454778507351875,-1.4526795148849487,1.176760196685791,17.00266456604004,4.01171875,2,"['G1', 'F1', 'A/B1']",7.6,90,0,7.982051378457489,[9100|2500|0]
20600,0.7568949460983276,0.8498120307922363,-0.04805195704102516,-1.4347057342529297,1.1782721281051636,16.82891082763672,4.015625,2,"['G1', 'F1', 'A/B1']",7.6,90,0,7.9860143668443895,[9100|2600|0]
20700,0.7559627294540405,0.8516013622283936,-0.051471710205078125,-1.4187172651290894,1.1629921197891235,16.661577224731445,4.015625,2,"['G1', 'F1', 'A/B1']",7.6,90,0,7.989984939418132,[9100|2700|0]
20800,0.7557849287986755,0.8457640409469604,-0.04432335123419762,-1.264198660850525,1.1427773237228394,16.58869743347168,4.0234375,2,"['G1', 'F1', 'A/B1']",7.6,90,0,7.999215593175711,[9100|2800|0]
20900,0.757116436958313,0.8477295637130737,-0.04279647022485733,-1.2710325717926025,1.1234339475631714,16.69709587097168,4.0234375,2,"['G1', 'F1', 'A/B1']",7.6,90,0,8.002038279722242,[9100|2900|0]
21000,0.7529866695404053,0.8559622168540955,-0.03971843048930168,-2.7928857803344727,2.8807532787323,24.91237449645996,4.0234375,2,"['G1', 'F1', 'A/B1']",7.6,90,0,8.011749401453539,[9100|3000|0]
21100,0.7473917007446289,0.8646198511123657,-0.03951244056224823,-5.36295223236084,-1.188515543937683,32.54023361206055,4.0234375,2,"['G1', 'F1', 'A/B1']",7.6,90,0,8.022059626408685,[9100|3100|0]
21200,0.7425088286399841,0.8682754039764404,-0.04013492912054062,-2.0751824378967285,-0.9210933446884155,36.163753509521484,4.0234375,2,"['G1', 'F1', 'A/B1']",7.6,90,0,8.028190939378806,[9100|3200|0]
21300,0.7420564889907837,0.8720495104789734,-0.03901895880699158,-1.5884443521499634,-0.40920591354370117,39.67805862426758,4.02734375,2,"['G1', 'F1', 'A/B1']",7.6,90,0,8.03215248968032,[9100|3300|0]
21400,0.740229606628418,0.8737459778785706,-0.037486590445041656,-1.403839349746704,-0.3126411437988281,39.62263488769531,4.02734375,2,"['G1', 'F1', 'A/B1']",7.6,90,0,8.035078861768849,[9100|3400|0]
21500,0.7378032803535461,0.8755094408988953,-0.03558410331606865,-1.4054359197616577,-0.22452573478221893,38.8165283203125,4.02734375,2,"['G1', 'F1', 'A/B1']",7.6,90,0,8.038630807473965,[9100|3500|0]
21600,0.737084150314331,0.8777482509613037,-0.03369602560997009,-1.417092204093933,-0.2434159815311432,38.48628234863281,4.02734375,2,"['G1', 'F1', 'A/B1']",7.6,90,0,8.04164647587966,[9100|3600|0]
21700,0.7309408187866211,0.8818163871765137,-0.031997546553611755,-2.1347744464874268,-1.1433016061782837,38.327796936035156,4.03125,2,"['G1', 'F1', 'A/B1']",7.6,90,0,8.049207896753394,[9100|3700|0]
21800,0.7290107607841492,0.8813865780830383,-0.028237825259566307,-1.434870958328247,2.356767416000366,34.34464645385742,4.03125,2,"['G1', 'F1', 'A/B1']",7.6,90,0,8.053455880270151,[9100|3800|0]
21900,0.731354832649231,0.8747580051422119,-0.016367245465517044,-6.2795939445495605,13.845388412475586,17.2311954498291,4.03125,2,"['G1', 'F1', 'A/B1']",7.6,90,0,8.067252376810485,[9100|3900|0]
22000,0.7345949411392212,0.8451164364814758,0.003249692264944315,-14.667850494384766,23.491008758544922,6.884889602661133,4.03125,2,"['G1', 'F1', 'A/B1']",7.6,90,0,8.102944744924926,[9100|4000|0]
22100,0.7357320785522461,0.8074622750282288,0.043279312551021576,-7.039716720581055,12.58874225616455,6.542949199676514,4.03125,2,"['G1', 'F1', 'A/B1']",7.6,90,0,8.15791291259032,[9100|4100|0]
22200,0.7183462977409363,0.7813181281089783,0.03196778520941734,-14.192113876342773,15.326973915100098,8.088560104370117,4.0390625,2,"['G1', 'F1', 'A/B1']",7.6,90,0,8.191285542743698,[9100|4200|0]
22300,0.7061325907707214,0.7719220519065857,0.016402190551161766,-14.155740737915039,9.54677677154541,7.047873020172119,4.0390625,2,"['G1', 'F1', 'A/B1']",7.6,90,0,8.213188707424186,[9100|4300|0]
22400,0.7029678821563721,0.7779434323310852,0.009627578780055046,-8.993306159973145,5.355576515197754,4.013755798339844,4.0390625,2,"['G1', 'F1', 'A/B1']",7.6,90,0,8.222789111971887,[9100|4400|0]
22500,0.7036085724830627,0.784369707107544,0.007711141370236874,-3.885525703430176,0.5061646699905396,8.356759071350098,4.0390625,2,"['G1', 'F1', 'A/B1']",7.6,90,0,8.2295255965108,[9100|4500|0]
22600,0.704829752445221,0.7884257435798645,0.008697615005075932,-3.3076534271240234,-0.15021193027496338,8.454436302185059,4.0390625,2,"['G1', 'F1', 'A/B1']",7.6,90,0,8.233874831224748,[9100|4600|0]
22700,0.7494775056838989,0.759152889251709,-0.027145816013216972,-2.4473135471343994,0.033203937113285065,16.030176162719727,4.0390625,2,"['G1', 'F1', 'A/B1']",7.6,90,0,8.298179367743895,[9100|4700|0]
22800,0.7488073110580444,0.7573511004447937,-0.027883069589734077,-2.7562718391418457,0.2975830137729645,13.647320747375488,4.0390625,2,"['G1', 'F1', 'A/B1']",7.6,90,0,8.300238286532322,[9100|4800|0]
22900,0.7485171556472778,0.7577338814735413,-0.027860868722200394,-2.921644449234009,0.406504362821579,12.440077781677246,4.04296875,2,"['G1', 'F1', 'A/B1']",7.6,90,0,8.300719123674071,[9100|4900|0]
23000,0.7485284805297852,0.7578270435333252,-0.02786632813513279,-2.983705997467041,0.48763278126716614,11.703534126281738,4.04296875,2,"['G1', 'F1', 'A/B1']",7.6,90,0,8.300813130203293,[9100|5000|0]
23100,0.7483653426170349,0.7580327987670898,-0.02763185277581215,-3.0335419178009033,0.5550940632820129,11.203550338745117,4.04296875,2,"['G1', 'F1', 'A/B1']",7.6,90,0,8.301165164134792,[9100|5100|0]
23200,0.7482386827468872,0.7582430243492126,-0.027489248663187027,-3.0976266860961914,0.5658361911773682,10.822310447692871,4.04296875,2,"['G1', 'F1', 'A/B1']",7.6,90,0,8.30144901876488,[9100|5200|0]
23300,0.7483419179916382,0.7584970593452454,-0.027706854045391083,-3.099494695663452,0.5991047024726868,10.52855110168457,4.04296875,2,"['G1', 'F1', 'A/B1']",7.6,90,0,8.301799080755579,[9100|5300|0]
23400,0.748194694519043,0.7582354545593262,-0.027531763538718224,-3.110042095184326,0.6241724491119385,10.303694725036621,4.0703125,2,"['G1', 'F1', 'A/B1']",7.6,90,0,8.302146598381643,[9100|5400|0]
23500,0.7479381561279297,0.7583805322647095,-0.02778996154665947,-3.213024854660034,0.643429696559906,10.15509033203125,4.11328125,2,"['G1', 'F1', 'A/B1']",7.6,90,0,8.302538421936346,[9100|5500|0]
23600,0.7480526566505432,0.758800208568573,-0.027428999543190002,-3.2716665267944336,0.6889055371284485,10.032111167907715,4.11328125,2,"['G1', 'F1', 'A/B1']",7.6,90,0,8.303103693674231,[9100|5600|0]
23700,0.7481030225753784,0.7586332559585571,-0.027643263339996338,-3.264915704727173,0.7077812552452087,9.94885540008545,4.11328125,2,"['G1', 'F1', 'A/B1']",7.6,90,0,8.303379952384496,[9100|5700|0]
23800,0.7480748295783997,0.7584587335586548,-0.027631036937236786,-3.2570879459381104,0.7182028889656067,9.878691673278809,4.1171875,2,"['G1', 'F1', 'A/B1']",7.6,90,0,8.303557159602382,[9100|5800|0]
23900,0.7478572130203247,0.7585452795028687,-0.02723284251987934,-3.256547451019287,0.7233336567878723,9.836146354675293,4.1171875,2,"['G1', 'F1', 'A/B1']",7.6,90,0,8.304019118432608,[9100|5900|0]
24000,0.7480592131614685,0.7588447332382202,-0.027676602825522423,-3.253095865249634,0.7129170298576355,9.77638053894043,4.1171875,2,"['G1', 'F1', 'A/B1']",7.6,90,0,8.304591307042685,[9100|6000|0]
24100,0.7479865550994873,0.7585213780403137,-0.027234641835093498,-3.2461888790130615,0.715449333190918,9.736390113830566,4.1171875,2,"['G1', 'F1', 'A/B1']",7.6,90,0,8.305143726534597,[9100|6100|0]
24200,0.7477026581764221,0.7584140300750732,-0.027920741587877274,-3.2714638710021973,0.69696444272995,9.735658645629883,4.1171875,2,"['G1', 'F1', 'A/B1']",7.6,90,0,8.30589396244372,[9100|6200|0]
24300,0.7479783892631531,0.7586753964424133,-0.02761128544807434,-3.270988941192627,0.6878691911697388,9.721030235290527,4.12109375,2,"['G1', 'F1', 'A/B1']",7.6,90,0,8.306383965619862,[9100|6300|0]
24400,0.7492035031318665,0.7612944841384888,-0.02594868838787079,-3.305424928665161,0.6539202332496643,9.76063060760498,4.12109375,2,"['G1', 'F1', 'A/B1']",7.6,90,0,8.309719344659138,[9100|6400|0]
24500,0.7496773600578308,0.7614144086837769,-0.02571760304272175,-3.3004159927368164,0.6453747749328613,9.741061210632324,4.12109375,2,"['G1', 'F1', 'A/B1']",7.6,90,0,8.310260013429819,[9100|6500|0]
24600,0.7495518922805786,0.7609820365905762,-0.025861326605081558,-3.278630256652832,0.6512469053268433,9.732361793518066,4.12109375,2,"['G1', 'F1', 'A/B1']",7.6,90,0,8.310732606544965,[9100|6600|0]
24700,0.7479983568191528,0.758804440498352,-0.027569377794861794,-3.247898817062378,0.6987765431404114,9.685461044311523,4.12109375,2,"['G1', 'F1', 'A/B1']",7.6,90,0,8.313906379699695,[9100|6700|0]
24800,0.7481198906898499,0.7587496042251587,-0.02752036228775978,-3.244891405105591,0.7032834887504578,9.711179733276367,4.12109375,2,"['G1', 'F1', 'A/B1']",7.6,90,0,8.31404843609174,[9100|6800|0]
24900,0.7478489875793457,0.7585864663124084,-0.027852624654769897,-3.243626832962036,0.7116829752922058,9.698086738586426,4.12890625,2,"['G1', 'F1', 'A/B1']",7.6,90,0,8.314507130711709,[9100|6900|0]
25000,0.7494361400604248,0.7611522078514099,-0.02596331015229225,-3.2735490798950195,0.6580457091331482,9.73563289642334,4.12109375,2,"['G1', 'F1', 'A/B1']",7.6,90,0,8.318066848668574,[9100|7000|0]
25100,0.749477207660675,0.7613282203674316,-0.025832341983914375,-3.2752153873443604,0.6498105525970459,9.770026206970215,4.12890625,2,"['G1', 'F1', 'A/B1']",7.6,90,0,8.31829005174811,[9100|7100|0]
25200,0.7494658827781677,0.761174738407135,-0.025680869817733765,-3.271766185760498,0.6466462016105652,9.788240432739258,4.12890625,2,"['G1', 'F1', 'A/B1']",7.6,90,0,8.318505988734817,[9100|7200|0]
25300,0.749569833278656,0.7613308429718018,-0.025922250002622604,-3.2811832427978516,0.6397359371185303,9.762177467346191,4.12890625,2,"['G1', 'F1', 'A/B1']",7.6,90,0,8.318811666236963,[9100|7300|0]
25400,0.7495666146278381,0.761066734790802,-0.025943951681256294,-3.2798080444335938,0.6407862305641174,9.752511978149414,4.12890625,2,"['G1', 'F1', 'A/B1']",7.6,90,0,8.319076684073796,[9100|7400|0]
25500,0.7495522499084473,0.7612833380699158,-0.02598579227924347,-3.2822632789611816,0.6412158608436584,9.737959861755371,4.12890625,2,"['G1', 'F1', 'A/B1']",7.6,90,0,8.319297758634354,[9100|7500|0]
25600,0.7498387694358826,0.7613029479980469,-0.02603692188858986,-3.2815918922424316,0.6373435258865356,9.759507179260254,4.1328125,2,"['G1', 'F1', 'A/B1']",7.6,90,0,8.31958946435222,[9100|7600|0]
25700,0.7495806217193604,0.7608760595321655,-0.026258083060383797,-3.2712836265563965,0.64585942029953,9.762816429138184,4.1328125,2,"['G1', 'F1', 'A/B1']",7.6,90,0,8.320135162317909,[9100|7700|0]
25800,0.7492165565490723,0.7611767649650574,-0.02621881105005741,-3.2787959575653076,0.6556247472763062,9.742438316345215,4.1328125,2,"['G1', 'F1', 'A/B1']",7.6,90,0,8.32060898664863,[9100|7800|0]
25900,0.7496642470359802,0.7613296508789062,-0.02593107894062996,-3.280660390853882,0.6440186500549316,9.737958908081055,4.1328125,2,"['G1', 'F1', 'A/B1']",7.6,90,0,8.321162692925926,[9100|7900|0]
26000,0.7492753267288208,0.7613093256950378,-0.025988152250647545,-3.2826101779937744,0.6522738933563232,9.75024127960205,4.1328125,2,"['G1', 'F1', 'A/B1']",7.6,90,0,8.321556303750391,[9100|8000|0]
26100,0.7495219707489014,0.7613506317138672,-0.02591346576809883,-3.2840473651885986,0.6399180889129639,9.736473083496094,4.1328125,2,"['G1', 'F1', 'A/B1']",7.6,90,0,8.321817297103772,[9100|8100|0]
26200,0.7496142983436584,0.7615566849708557,-0.025873327627778053,-3.294546365737915,0.6329907774925232,9.742764472961426,4.1328125,2,"['G1', 'F1', 'A/B1']",7.6,90,0,8.322046629612975,[9100|8200|0]
26300,0.7495473623275757,0.7611349821090698,-0.02603490836918354,-3.271286725997925,0.6392262578010559,9.736100196838379,4.1328125,2,"['G1', 'F1', 'A/B1']",7.6,90,0,8.322503162273232,[9100|8300|0]
26401,0.7494340538978577,0.7611997127532959,-0.02579193376004696,-3.3218801021575928,0.5990241169929504,9.745265007019043,4.1328125,2,"['G1', 'F1', 'A/B1']",7.6,90,0,8.322778962050666,[9100|8400|0]
26501,0.7497814297676086,0.7611930966377258,-0.02615050971508026,-3.3091602325439453,0.6055905222892761,9.73367691040039,4.1328125,2,"['G1', 'F1', 'A/B1']",7.6,90,0,8.323278252029935,[9100|8500|0]
26601,0.749666690826416,0.7612820267677307,-0.02592432126402855,-3.297945976257324,0.6220569610595703,9.718958854675293,4.1328125,2,"['G1', 'F1', 'A/B1']",7.6,90,0,8.323547017370032,[9100|8600|0]
26701,0.7495303750038147,0.7613406181335449,-0.02589520625770092,-3.2964463233947754,0.6313461065292358,9.721641540527344,4.13671875,2,"['G1', 'F1', 'A/B1']",7.6,90,0,8.32369822132247,[9100|8700|0]
26801,0.7494662404060364,0.7610499858856201,-0.026206348091363907,-3.280590057373047,0.642408549785614,9.717463493347168,4.13671875,2,"['G1', 'F1', 'A/B1']",7.6,90,0,8.324128790237769,[9100|8800|0]
26901,0.7497909069061279,0.760823667049408,-0.026146752759814262,-3.267721176147461,0.6365717053413391,9.743897438049316,4.13671875,2,"['G1', 'F1', 'A/B1']",7.6,90,0,8.324529015368725,[9100|8900|0]
27001,0.7496931552886963,0.7609162926673889,-0.026128064841032028,-3.2704646587371826,0.6362020373344421,9.77015495300293,4.13671875,2,"['G1', 'F1', 'A/B1']",7.6,90,0,8.324664971693055,[9100|9000|0]
27101,0.7495529651641846,0.7612875699996948,-0.026027312502264977,-3.2824692726135254,0.6391726136207581,9.768854141235352,4.13671875,2,"['G1', 'F1', 'A/B1']",7.6,90,0,8.325074423964098,[9100|9100|0]
27201,0.7494043707847595,0.7614079713821411,-0.026000140234827995,-3.2878921031951904,0.6436174511909485,9.774765968322754,4.13671875,2,"['G1', 'F1', 'A/B1']",7.6,90,0,8.325267595169533,[9100|9200|0]
27301,0.7496068477630615,0.7611961364746094,-0.02562873065471649,-3.2830653190612793,0.6358055472373962,9.763993263244629,4.13671875,2,"['G1', 'F1', 'A/B1']",7.6,90,0,8.32574068715952,[9100|9300|0]
27402,0.7494649291038513,0.7614211440086365,-0.02587427943944931,-3.29421329498291,0.6364597082138062,9.746825218200684,4.13671875,2,"['G1', 'F1', 'A/B1']",7.6,90,0,8.326102714094823,[9100|9400|0]
27502,0.7496182918548584,0.7610304951667786,-0.026050562039017677,-3.2861430644989014,0.6328462362289429,9.725007057189941,4.13671875,2,"['G1', 'F1', 'A/B1']",7.6,90,0,8.326557908784986,[9100|9500|0]
27600,0.7494036555290222,0.7612977027893066,-0.025931108742952347,-3.296954393386841,0.6347603797912598,9.735077857971191,4.14453125,2,"['G1', 'F1', 'A/B1']",7.6,90,0,8.32692086574641,[9100|9600|0]
27700,0.749422550201416,0.7615063786506653,-0.02580510452389717,-3.3023734092712402,0.6327981948852539,9.725738525390625,4.14453125,2,"['G1', 'F1', 'A/B1']",7.6,90,0,8.327165364595034,[9100|9700|0]
27800,0.749514639377594,0.7613905668258667,-0.02612806111574173,-3.300525426864624,0.6362448930740356,9.736945152282715,4.14453125,2,"['G1', 'F1', 'A/B1']",7.6,90,0,8.327520602199108,[9100|9800|0]
27902,0.7498362064361572,0.7613115906715393,-0.025694599375128746,-3.296773910522461,0.6281249523162842,9.72038745880127,4.14453125,2,"['G1', 'F1', 'A/B1']",7.6,90,0,8.3280660668512,[9100|9900|0]
28002,0.7492683529853821,0.761110782623291,-0.026215050369501114,-3.2943835258483887,0.6331811547279358,9.720464706420898,4.14453125,2,"['G1', 'F1', 'A/B1']",7.6,90,0,8.32886208861682,[9100|10000|0]
28102,0.7496395111083984,0.7610324025154114,-0.026001354679465294,-3.2795300483703613,0.6222862601280212,9.740072250366211,4.14453125,2,"['G1', 'F1', 'A/B1']",7.6,90,0,8.329297482279534,[9100|10100|0]
28202,0.7493569850921631,0.7610015273094177,-0.025935813784599304,-3.2693843841552734,0.6276307702064514,9.772525787353516,4.14453125,2,"['G1', 'F1', 'A/B1']",7.6,90,0,8.329589149619315,[9100|10200|0]
28300,0.7492119669914246,0.7613616585731506,-0.025817157700657845,-3.28627872467041,0.6245046854019165,9.760004043579102,4.14453125,2,"['G1', 'F1', 'A/B1']",7.6,90,0,8.329995110261391,[9100|10300|0]
28400,0.749360203742981,0.7610635757446289,-0.026089107617735863,-3.273528575897217,0.6279445290565491,9.755419731140137,4.14453125,2,"['G1', 'F1', 'A/B1']",7.6,90,0,8.330424975664245,[9100|10400|0]
28500,0.7493974566459656,0.7611331939697266,-0.02612508088350296,-3.2774453163146973,0.6267740726470947,9.76158618927002,4.14453125,2,"['G1', 'F1', 'A/B1']",7.6,90,0,8.330511742892485,[9100|10500|0]
28600,0.7493905425071716,0.7609984278678894,-0.025706907734274864,-3.2718470096588135,0.6353170871734619,9.749993324279785,4.14453125,2,"['G1', 'F1', 'A/B1']",7.6,90,0,8.33095114986814,[9100|10600|0]
28700,0.7494975924491882,0.7610677480697632,-0.02583724446594715,-3.2742788791656494,0.6343268752098083,9.76434326171875,4.14453125,2,"['G1', 'F1', 'A/B1']",7.6,90,0,8.331133502943509,[9100|10700|0]
28800,0.7493603825569153,0.7610780596733093,-0.025905320420861244,-3.275421142578125,0.6400946378707886,9.75162410736084,4.1484375,2,"['G1', 'F1', 'A/B1']",7.6,90,0,8.331287019129439,[9100|10800|0]
28900,0.7494298815727234,0.7611626386642456,-0.025835730135440826,-3.2774412631988525,0.6473779678344727,9.736363410949707,4.1484375,2,"['G1', 'F1', 'A/B1']",7.6,90,0,8.331416736232132,[9100|10900|0]
29000,0.7493945360183716,0.7613604068756104,-0.02606256492435932,-3.275585651397705,0.6495564579963684,9.724374771118164,4.14453125,2,"['G1', 'F1', 'A/B1']",7.6,90,0,8.331719747114944,[9100|11000|0]
29100,0.7493858337402344,0.7614913582801819,-0.02588043548166752,-3.2820732593536377,0.6489262580871582,9.684525489807129,4.1484375,2,"['G1', 'F1', 'A/B1']",7.6,90,0,8.33194423572022,[9100|11100|0]
29200,0.7497878670692444,0.7611261606216431,-0.025777563452720642,-3.2736918926239014,0.645569920539856,9.668421745300293,4.1484375,2,"['G1', 'F1', 'A/B1']",7.6,90,0,8.332497031145108,[9100|11200|0]
29300,0.7492997646331787,0.7611950635910034,-0.026018550619482994,-3.276232957839966,0.6611765027046204,9.69402027130127,4.1484375,2,"['G1', 'F1', 'A/B1']",7.6,90,0,8.333045726344489,[9100|11300|0]
29400,0.7495693564414978,0.7611527442932129,-0.026206837967038155,-3.277503490447998,0.6476305723190308,9.696831703186035,4.1484375,2,"['G1', 'F1', 'A/B1']",7.6,90,0,8.33337727240664,[9100|11400|0]
29500,0.7495747208595276,0.7609372138977051,-0.025967171415686607,-3.2777538299560547,0.6468429565429688,9.692244529724121,4.1484375,2,"['G1', 'F1', 'A/B1']",7.6,90,0,8.333699642045728,[9100|11500|0]
29600,0.7494956254959106,0.7610394954681396,-0.026010699570178986,-3.285151481628418,0.645124077796936,9.725914001464844,4.1484375,2,"['G1', 'F1', 'A/B1']",7.6,90,0,8.333836068936149,[9100|11600|0]
29700,0.7498108744621277,0.7616426348686218,-0.025852402672171593,-3.3505022525787354,0.5905538201332092,9.737414360046387,4.1484375,2,"['G1', 'F1', 'A/B1']",7.6,90,0,8.334534794171871,[9100|11700|0]
29800,0.7494045495986938,0.761350691318512,-0.026022188365459442,-3.332838535308838,0.6067413687705994,9.75633716583252,4.1484375,2,"['G1', 'F1', 'A/B1']",7.6,90,0,8.335063148326526,[9100|11800|0]
29900,0.7492222189903259,0.7613030076026917,-0.025911448523402214,-3.3265111446380615,0.6125123500823975,9.754815101623535,4.1484375,2,"['G1', 'F1', 'A/B1']",7.6,90,0,8.335281738125284,[9100|11900|0]
30000,0.7495512962341309,0.7613531947135925,-0.025767631828784943,-3.3222432136535645,0.6056342720985413,9.749480247497559,4.1484375,2,"['G1', 'F1', 'A/B1']",7.6,90,0,8.33564435889157,[9100|12000|0]
