time.ms,stateEstimate.x,stateEstimate.y,stateEstimate.z,stabilizer.roll,stabilizer.pitch,stabilizer.yaw,pm.vbat,drone_id,node_name,wind_speed,global_wind_direction,relative_wind_direction,travel_dist,waiting_time
0,1.694684624671936,1.1758297681808472,-0.04301532357931137,0.4553792476654053,0.7806811332702637,-0.6555594801902771,4.12890625,0,"['A1', 'F1', 'E2']",7.6,90,0,0.06656751347989685,[100|0|0]
100,1.6950953006744385,1.1758419275283813,-0.0432007797062397,0.45166271924972534,0.7722908854484558,-0.6616145372390747,4.12890625,0,"['A1', 'F1', 'E2']",7.6,90,0,0.0670182868195911,[200|0|0]
200,1.694720983505249,1.1755931377410889,-0.04307042434811592,0.47003331780433655,0.7890491485595703,-0.6781142950057983,4.12890625,0,"['A1', 'F1', 'E2']",7.6,90,0,0.06748626355063937,[300|0|0]
300,1.6946882009506226,1.17544424533844,-0.04312707856297493,0.4852339029312134,0.7887125611305237,-0.6562749743461609,4.12890625,0,"['A1', 'F1', 'E2']",7.6,90,0,0.06764890838921625,[400|0|0]
400,1.6948133707046509,1.1756914854049683,-0.043564099818468094,0.4728783071041107,0.7826770544052124,-0.6445543766021729,4.12890625,0,"['A1', 'F1', 'E2']",7.6,90,0,0.06816638563081559,[500|0|0]
500,1.6949729919433594,1.1759337186813354,-0.04308461397886276,0.45909392833709717,0.7795974016189575,-0.623755693435669,4.12890625,0,"['A1', 'F1', 'E2']",7.6,90,0,0.06872679848792046,[600|0|0]
600,1.6951184272766113,1.1760013103485107,-0.043491020798683167,0.45293381810188293,0.7674025893211365,-0.6400178670883179,4.12890625,0,"['A1', 'F1', 'E2']",7.6,90,0,0.06916370416747404,[700|0|0]
700,1.6947754621505737,1.1761475801467896,-0.04322786256670952,0.4524209201335907,0.7792097330093384,-0.6280238628387451,4.12890625,0,"['A1', 'F1', 'E2']",7.6,90,0,0.0696200726442798,[800|0|0]
800,1.694827914237976,1.1762478351593018,-0.04320622608065605,0.4558826982975006,0.7793894410133362,-0.6337233781814575,4.12890625,0,"['A1', 'F1', 'E2']",7.6,90,0,0.06973526998164238,[900|0|0]
900,1.695198655128479,1.1759207248687744,-0.04311542212963104,0.4714713394641876,0.7687317728996277,-0.6154647469520569,4.12890625,0,"['A1', 'F1', 'E2']",7.6,90,0,0.07023795806344017,[1000|0|0]
1000,1.6949214935302734,1.1762968301773071,-0.04328833147883415,0.4612066447734833,0.776297926902771,-0.6192482709884644,4.12890625,0,"['A1', 'F1', 'E2']",7.6,90,0,0.07073612610503678,[1100|0|0]
1100,1.695164680480957,1.176304817199707,-0.043198950588703156,0.46519774198532104,0.7728492021560669,-0.593470573425293,4.12890625,0,"['A1', 'F1', 'E2']",7.6,90,0,0.07099534151551658,[1200|0|0]
1200,1.695099949836731,1.1758348941802979,-0.0430661104619503,0.4208160936832428,0.7396608591079712,-0.5898200869560242,4.12890625,0,"['A1', 'F1', 'E2']",7.6,90,0,0.07148795109697868,[1300|0|0]
1300,1.6948708295822144,1.1761143207550049,-0.04305330663919449,0.42104899883270264,0.755582869052887,-0.5859239101409912,4.12890625,0,"['A1', 'F1', 'E2']",7.6,90,0,0.07184952991212058,[1400|0|0]
1400,1.6949584484100342,1.175706148147583,-0.043001048266887665,0.43126481771469116,0.75919508934021,-0.583163857460022,4.12890625,0,"['A1', 'F1', 'E2']",7.6,90,0,0.07227025889129156,[1500|0|0]
1500,1.6949148178100586,1.1758285760879517,-0.04295993968844414,0.4308162331581116,0.7651820778846741,-0.5949402451515198,4.12890625,0,"['A1', 'F1', 'E2']",7.6,90,0,0.07240657523315411,[1600|0|0]
1600,1.6948542594909668,1.1755406856536865,-0.04299897328019142,0.4458604156970978,0.7752601504325867,-0.601433277130127,4.12890625,0,"['A1', 'F1', 'E2']",7.6,90,0,0.07270334422317376,[1700|0|0]
1700,1.6949831247329712,1.1758593320846558,-0.04294181615114212,0.43803051114082336,0.7755275368690491,-0.5854320526123047,4.12890625,0,"['A1', 'F1', 'E2']",7.6,90,0,0.07305178178711806,[1800|0|0]
1800,1.6950583457946777,1.1758968830108643,-0.04302885755896568,0.4403434097766876,0.7752895951271057,-0.5748950242996216,4.12890625,0,"['A1', 'F1', 'E2']",7.6,90,0,0.07317279619476973,[1900|0|0]
1900,1.694765567779541,1.1757752895355225,-0.0432741716504097,0.4515121281147003,0.7885439991950989,-0.5673039555549622,4.12890625,0,"['A1', 'F1', 'E2']",7.6,90,0,0.07357364896431746,[2000|0|0]
2000,1.6947710514068604,1.1757230758666992,-0.04297858104109764,0.4630575180053711,0.7963594198226929,-0.5811669230461121,4.12109375,0,"['A1', 'F1', 'E2']",7.6,90,0,0.07387386579544795,[2100|0|0]
2100,1.695024013519287,1.1758906841278076,-0.04341693967580795,0.45881184935569763,0.7926684617996216,-0.6018633246421814,4.12890625,0,"['A1', 'F1', 'E2']",7.6,90,0,0.07440700803926313,[2200|0|0]
2200,1.6928819417953491,1.1738258600234985,-0.045791320502758026,0.5017701983451843,0.8303167819976807,-0.636843204498291,4.12890625,0,"['A1', 'F1', 'E2']",7.6,90,0,0.07821353587491843,[2300|0|0]
2300,1.6951218843460083,1.1759772300720215,-0.04305972903966904,0.45890095829963684,0.7935171127319336,-0.6090670824050903,4.12109375,0,"['A1', 'F1', 'E2']",7.6,90,0,0.0823496364101032,[2400|0|0]
2400,1.6953848600387573,1.1761445999145508,-0.04356052353978157,0.4638502895832062,0.7884745597839355,-0.6223711371421814,4.12890625,0,"['A1', 'F1', 'E2']",7.6,90,0,0.08293952115351337,[2500|0|0]
2500,1.692535161972046,1.1735037565231323,-0.04600425809621811,0.5022697448730469,0.8318285346031189,-0.6478587985038757,4.12890625,0,"['A1', 'F1', 'E2']",7.6,90,0,0.08752936553777516,[2600|0|0]
2600,1.6925760507583618,1.173868179321289,-0.0459548681974411,0.5071874856948853,0.8302189111709595,-0.6247486472129822,4.12890625,0,"['A1', 'F1', 'E2']",7.6,90,0,0.0878993861193162,[2700|0|0]
2700,1.6928261518478394,1.1738663911819458,-0.04598521441221237,0.5118856430053711,0.8234275579452515,-0.6366825103759766,4.12890625,0,"['A1', 'F1', 'E2']",7.6,90,0,0.08815132786883602,[2800|0|0]
2800,1.697155237197876,1.172428011894226,-0.04418900981545448,14.293580055236816,-14.459447860717773,11.303122520446777,4.12890625,0,"['A1', 'F1', 'E2']",7.6,90,0,0.09305400732976929,[2900|0|0]
2900,1.7390943765640259,1.1761394739151,-0.07908488065004349,19.53444480895996,-6.072628021240234,6.869703769683838,4.12890625,0,"['A1', 'F1', 'E2']",7.6,90,0,0.14773844901485972,[3000|0|0]
3000,1.7195641994476318,1.1889971494674683,-0.07234710454940796,17.6323184967041,1.6519452333450317,5.04210901260376,4.12890625,0,"['A1', 'F1', 'E2']",7.6,90,0,0.17207248414243326,[3100|0|0]
3100,1.7079447507858276,1.178038239479065,-0.0636594220995903,15.808077812194824,7.187758445739746,2.924941301345825,4.12890625,0,"['A1', 'F1', 'E2']",7.6,90,0,0.1902544840788291,[3200|0|0]
3200,1.6984513998031616,1.171501636505127,-0.05756231024861336,14.052127838134766,9.544866561889648,1.620666265487671,4.12890625,0,"['A1', 'F1', 'E2']",7.6,90,0,0.20329387303085844,[3300|0|0]
3300,1.6927518844604492,1.1676223278045654,-0.05308526009321213,12.352134704589844,9.892531394958496,0.8422117233276367,4.12890625,0,"['A1', 'F1', 'E2']",7.6,90,0,0.21151442588514047,[3400|0|0]
3400,1.6893112659454346,1.1660269498825073,-0.05037710443139076,10.739249229431152,9.374842643737793,0.33016160130500793,4.12890625,0,"['A1', 'F1', 'E2']",7.6,90,0,0.2161745968657706,[3500|0|0]
3500,1.6879678964614868,1.1654177904129028,-0.04854031652212143,9.317350387573242,8.514860153198242,-0.11253812909126282,4.12890625,0,"['A1', 'F1', 'E2']",7.6,90,0,0.21853033595434745,[3600|0|0]
3601,1.6868535280227661,1.1648896932601929,-0.04754294082522392,8.077728271484375,7.622152805328369,-0.4403713047504425,4.12890625,0,"['A1', 'F1', 'E2']",7.6,90,0,0.22011635672996138,[3700|0|0]
3700,1.6869176626205444,1.165548324584961,-0.04711482673883438,6.952953815460205,6.712156772613525,-0.6896198987960815,4.12109375,0,"['A1', 'F1', 'E2']",7.6,90,0,0.22090451289441299,[3800|0|0]
3800,1.6869370937347412,1.1661880016326904,-0.047005824744701385,5.993685722351074,5.899043560028076,-0.8883766531944275,4.12890625,0,"['A1', 'F1', 'E2']",7.6,90,0,0.22155370140965014,[3900|0|0]
3901,1.6872642040252686,1.1668349504470825,-0.04666022211313248,5.144629001617432,5.15887975692749,-0.9977360367774963,4.12890625,0,"['A1', 'F1', 'E2']",7.6,90,0,0.2223568110469722,[4000|0|0]
4001,1.6873809099197388,1.1672260761260986,-0.04650413617491722,4.390617370605469,4.480801582336426,-1.0760523080825806,4.12109375,0,"['A1', 'F1', 'E2']",7.6,90,0,0.22279380347562336,[4100|0|0]
4100,1.6878639459609985,1.1672532558441162,-0.04599989205598831,3.778024673461914,3.8630480766296387,-1.1614174842834473,4.12109375,0,"['A1', 'F1', 'E2']",7.6,90,0,0.2234926057979591,[4200|0|0]
4201,1.6885062456130981,1.1677274703979492,-0.04577081277966499,3.2156052589416504,3.3372058868408203,-1.1724847555160522,4.12890625,0,"['A1', 'F1', 'E2']",7.6,90,0,0.22432321136078368,[4300|0|0]
4301,1.6907014846801758,1.169711947441101,-0.04590628296136856,2.729879856109619,2.87561297416687,-1.1619492769241333,4.12890625,0,"['A1', 'F1', 'E2']",7.6,90,0,0.2272855712083632,[4400|0|0]
4401,1.6909303665161133,1.170695424079895,-0.04564784839749336,2.251002073287964,2.460078716278076,-1.1450804471969604,4.12109375,0,"['A1', 'F1', 'E2']",7.6,90,0,0.22832787712203775,[4500|0|0]
4501,1.6910756826400757,1.1709213256835938,-0.045537032186985016,1.9162718057632446,2.1421005725860596,-1.0995707511901855,4.12890625,0,"['A1', 'F1', 'E2']",7.6,90,0,0.22861844302325215,[4600|0|0]
4601,1.6914288997650146,1.171380877494812,-0.04613030329346657,1.6348470449447632,1.8740001916885376,-1.090254783630371,4.12890625,0,"['A1', 'F1', 'E2']",7.6,90,0,0.22944785294019912,[4700|0|0]
4701,1.6916823387145996,1.1719107627868652,-0.04569898173213005,1.3913263082504272,1.647600769996643,-1.0229822397232056,4.12109375,0,"['A1', 'F1', 'E2']",7.6,90,0,0.23017658335206267,[4800|0|0]
4801,1.6913700103759766,1.172016978263855,-0.0458463653922081,1.1715015172958374,1.4765039682388306,-0.9396169185638428,4.12890625,0,"['A1', 'F1', 'E2']",7.6,90,0,0.2305379040709776,[4900|0|0]
4902,1.691734790802002,1.1723626852035522,-0.04583834856748581,1.0189931392669678,1.310753583908081,-0.8855805993080139,4.12890625,0,"['A1', 'F1', 'E2']",7.6,90,0,0.23104053944263855,[5000|0|0]
5001,1.691803216934204,1.1724435091018677,-0.045962437987327576,0.9151946902275085,1.197970986366272,-0.8256528973579407,4.12890625,0,"['A1', 'F1', 'E2']",7.6,90,0,0.23120367381125448,[5100|0|0]
5101,1.692030668258667,1.1726642847061157,-0.045898281037807465,0.8227002620697021,1.1094481945037842,-0.7815002202987671,4.12890625,0,"['A1', 'F1', 'E2']",7.6,90,0,0.2315270808096369,[5200|0|0]
5202,1.6919676065444946,1.1729847192764282,-0.046089280396699905,0.7505934834480286,1.0516459941864014,-0.776741087436676,4.12890625,0,"['A1', 'F1', 'E2']",7.6,90,0,0.23190541379622814,[5300|0|0]
5300,1.6925424337387085,1.1730672121047974,-0.04597882926464081,0.6946070194244385,0.9894582033157349,-0.7540443539619446,4.12890625,0,"['A1', 'F1', 'E2']",7.6,90,0,0.2324965405360338,[5400|0|0]
5400,1.6926581859588623,1.173394799232483,-0.046689484268426895,0.6419733166694641,0.9479784369468689,-0.7407336831092834,4.12890625,0,"['A1', 'F1', 'E2']",7.6,90,0,0.23328757937016398,[5500|0|0]
5502,1.692728042602539,1.173401117324829,-0.04592757299542427,0.6078345775604248,0.912233829498291,-0.6970651745796204,4.12890625,0,"['A1', 'F1', 'E2']",7.6,90,0,0.23405271246766085,[5600|0|0]
5602,1.6926920413970947,1.173707365989685,-0.04594968259334564,0.5341879725456238,0.8596595525741577,-0.691112220287323,4.12109375,0,"['A1', 'F1', 'E2']",7.6,90,0,0.23436186156735184,[5700|0|0]
5700,1.6929610967636108,1.173340082168579,-0.04560675099492073,0.532308042049408,0.8299760818481445,-0.6750480532646179,4.12109375,0,"['A1', 'F1', 'E2']",7.6,90,0,0.23493185303807362,[5800|0|0]
5800,1.6925034523010254,1.1734070777893066,-0.04587233439087868,0.5164615511894226,0.8398954272270203,-0.6630321741104126,4.12890625,0,"['A1', 'F1', 'E2']",7.6,90,0,0.23546520227407228,[5900|0|0]
5902,1.6929491758346558,1.1731514930725098,-0.0458441786468029,0.5161726474761963,0.8197588324546814,-0.6365929841995239,4.12890625,0,"['A1', 'F1', 'E2']",7.6,90,0,0.23597977565252917,[6000|0|0]
6000,1.6928596496582031,1.1736356019973755,-0.04614999517798424,0.4975427985191345,0.814627468585968,-0.6161036491394043,4.12109375,0,"['A1', 'F1', 'E2']",7.6,90,0,0.2365593445769451,[6100|0|0]
6100,1.6928893327713013,1.1739859580993652,-0.04602446034550667,0.48693034052848816,0.8123533129692078,-0.6321834325790405,4.12890625,0,"['A1', 'F1', 'E2']",7.6,90,0,0.23693269358199243,[6200|0|0]
6200,1.6928554773330688,1.1735039949417114,-0.046100109815597534,0.5031529664993286,0.8110167384147644,-0.6230522394180298,4.12890625,0,"['A1', 'F1', 'E2']",7.6,90,0,0.23742173092040184,[6300|0|0]
6300,1.6929218769073486,1.1736124753952026,-0.046205777674913406,0.5030171871185303,0.8105920553207397,-0.5981168150901794,4.12890625,0,"['A1', 'F1', 'E2']",7.6,90,0,0.23758708692648142,[6400|0|0]
6400,1.6926753520965576,1.1734899282455444,-0.04591749235987663,0.5113606452941895,0.8186144232749939,-0.5835990905761719,4.12890625,0,"['A1', 'F1', 'E2']",7.6,90,0,0.23798571044446643,[6500|0|0]
6500,1.6929489374160767,1.1735135316848755,-0.04608588293194771,0.5127170085906982,0.8035495281219482,-0.589026153087616,4.12109375,0,"['A1', 'F1', 'E2']",7.6,90,0,0.23830783066141503,[6600|0|0]
6600,1.6929219961166382,1.173793911933899,-0.04657075181603432,0.503494918346405,0.8051797151565552,-0.6217743754386902,4.12890625,0,"['A1', 'F1', 'E2']",7.6,90,0,0.23886857726409155,[6700|0|0]
6700,1.69303297996521,1.1735620498657227,-0.04567273333668709,0.5060165524482727,0.8010622262954712,-0.5964062213897705,4.12890625,0,"['A1', 'F1', 'E2']",7.6,90,0,0.23980266217594481,[6800|0|0]
6800,1.6925668716430664,1.1737264394760132,-0.04598512500524521,0.5073528289794922,0.818720281124115,-0.6291276216506958,4.12109375,0,"['A1', 'F1', 'E2']",7.6,90,0,0.240387358222218,[6900|0|0]
6900,1.6925855875015259,1.1736799478530884,-0.0460444912314415,0.50815749168396,0.8191298246383667,-0.6227703094482422,4.12890625,0,"['A1', 'F1', 'E2']",7.6,90,0,0.24046505058460224,[7000|0|0]
7000,1.6929577589035034,1.1734395027160645,-0.046049442142248154,0.5158799290657043,0.8114874362945557,-0.6056581735610962,4.12890625,0,"['A1', 'F1', 'E2']",7.6,90,0,0.2409081644840527,[7100|0|0]
7100,1.6928011178970337,1.1735289096832275,-0.04556668549776077,0.48434218764305115,0.7992388010025024,-0.5954720377922058,4.12109375,0,"['A1', 'F1', 'E2']",7.6,90,0,0.2414235128987023,[7200|0|0]
7200,1.692778468132019,1.1735788583755493,-0.045786645263433456,0.4934035539627075,0.7999945878982544,-0.5977920293807983,4.12890625,0,"['A1', 'F1', 'E2']",7.6,90,0,0.2416502069264901,[7300|0|0]
7300,1.6927355527877808,1.1737321615219116,-0.0457957424223423,0.49811264872550964,0.803787112236023,-0.6290337443351746,4.12890625,0,"['A1', 'F1', 'E2']",7.6,90,0,0.24180966331474685,[7400|0|0]
7400,1.692675232887268,1.1737416982650757,-0.04594951495528221,0.5033850073814392,0.81095290184021,-0.6105968952178955,4.12890625,0,"['A1', 'F1', 'E2']",7.6,90,0,0.24197511854057788,[7500|0|0]
7500,1.6923613548278809,1.173702597618103,-0.046189311891794205,0.5139240622520447,0.8201630115509033,-0.5951994061470032,4.12890625,0,"['A1', 'F1', 'E2']",7.6,90,0,0.2423720453191138,[7600|0|0]
7600,1.692656397819519,1.1737937927246094,-0.046059951186180115,0.5159835815429688,0.8079572916030884,-0.6171131730079651,4.12890625,0,"['A1', 'F1', 'E2']",7.6,90,0,0.242706860352412,[7700|0|0]
7700,1.6925867795944214,1.1736613512039185,-0.04588965326547623,0.5202259421348572,0.8088460564613342,-0.6037637591362,4.12890625,0,"['A1', 'F1', 'E2']",7.6,90,0,0.24293355140972292,[7800|0|0]
7800,1.692959189414978,1.1734695434570312,-0.04619339108467102,0.5181831121444702,0.7948145866394043,-0.6369961500167847,4.12890625,0,"['A1', 'F1', 'E2']",7.6,90,0,0.24345098348161467,[7900|0|0]
7900,1.6926952600479126,1.1737663745880127,-0.046366412192583084,0.511570930480957,0.8101110458374023,-0.6348181366920471,4.12890625,0,"['A1', 'F1', 'E2']",7.6,90,0,0.24388423137243748,[8000|0|0]
8000,1.692520022392273,1.1733567714691162,-0.04622221365571022,0.5257510542869568,0.81052565574646,-0.6243066787719727,4.12109375,0,"['A1', 'F1', 'E2']",7.6,90,0,0.2443525007062616,[8100|0|0]
8100,1.6927390098571777,1.1737195253372192,-0.04623441770672798,0.5164821743965149,0.8062201738357544,-0.6274757385253906,4.12890625,0,"['A1', 'F1', 'E2']",7.6,90,0,0.24477640496133624,[8200|0|0]
8200,1.6926329135894775,1.173880934715271,-0.04636271670460701,0.523302435874939,0.8208122253417969,-0.5994603633880615,4.12890625,0,"['A1', 'F1', 'E2']",7.6,90,0,0.24500828863518959,[8300|0|0]
8300,1.6929014921188354,1.1733765602111816,-0.04614868015050888,0.5427988767623901,0.816979169845581,-0.5851492881774902,4.12890625,0,"['A1', 'F1', 'E2']",7.6,90,0,0.24561848508986434,[8400|0|0]
8400,1.692697525024414,1.1736582517623901,-0.046119581907987595,0.539009690284729,0.8210710287094116,-0.6111361980438232,4.12890625,0,"['A1', 'F1', 'E2']",7.6,90,0,0.2459674828167148,[8500|0|0]
8500,1.6929465532302856,1.1734899282455444,-0.04655717685818672,0.5424674153327942,0.8088498711585999,-0.5862886309623718,4.12890625,0,"['A1', 'F1', 'E2']",7.6,90,0,0.2464983662258384,[8600|0|0]
8600,1.6927802562713623,1.1738238334655762,-0.046245403587818146,0.5358943343162537,0.8097593188285828,-0.5828019976615906,4.12890625,0,"['A1', 'F1', 'E2']",7.6,90,0,0.246984524581344,[8700|0|0]
8700,1.6930962800979614,1.173572063446045,-0.045839086174964905,0.5423690676689148,0.8061531186103821,-0.5609216094017029,4.12890625,0,"['A1', 'F1', 'E2']",7.6,90,0,0.24755754555975656,[8800|0|0]
8800,1.6927543878555298,1.1735014915466309,-0.04586029797792435,0.5073722004890442,0.7982150912284851,-0.5821147561073303,4.12890625,0,"['A1', 'F1', 'E2']",7.6,90,0,0.24790728923590616,[8900|0|0]
8900,1.6926759481430054,1.17374849319458,-0.04640574008226395,0.5133202075958252,0.8003993630409241,-0.5594386458396912,4.12890625,0,"['A1', 'F1', 'E2']",7.6,90,0,0.24851116810768176,[9000|0|0]
9000,1.693054437637329,1.1736555099487305,-0.046085476875305176,0.5287221670150757,0.7923677563667297,-0.5656610131263733,4.12109375,0,"['A1', 'F1', 'E2']",7.6,90,0,0.249015617017933,[9100|0|0]
9100,1.692798137664795,1.173610806465149,-0.046406667679548264,0.5306609272956848,0.8041374683380127,-0.5919901728630066,4.12890625,0,"['A1', 'F1', 'E2']",7.6,90,0,0.24942895901930193,[9200|0|0]
9200,1.6926472187042236,1.1734821796417236,-0.045935437083244324,0.5370716452598572,0.8107397556304932,-0.5849651098251343,4.12890625,0,"['A1', 'F1', 'E2']",7.6,90,0,0.24994021205573044,[9300|0|0]
9300,1.6928495168685913,1.1736469268798828,-0.045941367745399475,0.5323448777198792,0.800460934638977,-0.5771877765655518,4.12890625,0,"['A1', 'F1', 'E2']",7.6,90,0,0.2502011744525259,[9400|0|0]
9400,1.6925002336502075,1.173722743988037,-0.04606209695339203,0.5050669312477112,0.7967334389686584,-0.5626927018165588,4.12109375,0,"['A1', 'F1', 'E2']",7.6,90,0,0.25057843105246275,[9500|0|0]
9500,1.6929373741149902,1.1735812425613403,-0.04610958695411682,0.513742983341217,0.7940158247947693,-0.5801848769187927,4.12109375,0,"['A1', 'F1', 'E2']",7.6,90,0,0.25104035067737224,[9600|0|0]
9600,1.6928876638412476,1.1735928058624268,-0.04598289355635643,0.5204370021820068,0.7965570092201233,-0.5826149582862854,4.12890625,0,"['A1', 'F1', 'E2']",7.6,90,0,0.25117693778614775,[9700|0|0]
9700,1.6930325031280518,1.1732662916183472,-0.04595530033111572,0.523969292640686,0.7968879342079163,-0.6065786480903625,4.12890625,0,"['A1', 'F1', 'E2']",7.6,90,0,0.2515351993619105,[9800|0|0]
9800,1.6928434371948242,1.1733200550079346,-0.04622819647192955,0.5243215560913086,0.8064256906509399,-0.637600839138031,4.12109375,0,"['A1', 'F1', 'E2']",7.6,90,0,0.25187151577964567,[9900|0|0]
9900,1.6931382417678833,1.17410147190094,-0.046193063259124756,0.5200761556625366,0.8094740509986877,-0.6267480850219727,4.12890625,0,"['A1', 'F1', 'E2']",7.6,90,0,0.2527074323063472,[10000|0|0]
10000,1.6927069425582886,1.1734603643417358,-0.04595404490828514,0.5445865392684937,0.826275110244751,-0.6144324541091919,4.12109375,0,"['A1', 'F1', 'E2']",7.6,90,0,0.2535162386383598,[10100|0|0]
10100,1.692980408668518,1.1738007068634033,-0.04585479944944382,0.5010116100311279,0.7937459349632263,-0.6199068427085876,4.12109375,0,"['A1', 'F1', 'E2']",7.6,90,0,0.25396397338863014,[10200|0|0]
10200,1.692928671836853,1.1737048625946045,-0.045888837426900864,0.5195729732513428,0.7934218645095825,-0.5945929884910583,4.12890625,0,"['A1', 'F1', 'E2']",7.6,90,0,0.2540780847707166,[10300|0|0]
10300,1.6929630041122437,1.1736235618591309,-0.04604505002498627,0.5287747979164124,0.7983537912368774,-0.6114256978034973,4.12109375,0,"['A1', 'F1', 'E2']",7.6,90,0,0.2542575029708041,[10400|0|0]
10400,1.6929739713668823,1.1735281944274902,-0.045685868710279465,0.53128981590271,0.8102351427078247,-0.6005192995071411,4.12890625,0,"['A1', 'F1', 'E2']",7.6,90,0,0.25462929114238375,[10500|0|0]
10500,1.6927907466888428,1.1733344793319702,-0.0460737943649292,0.5389792919158936,0.8146224021911621,-0.5971323847770691,4.12890625,0,"['A1', 'F1', 'E2']",7.6,90,0,0.25510001732012455,[10600|0|0]
10600,1.692849040031433,1.1738144159317017,-0.04622567072510719,0.530279815196991,0.8137346506118774,-0.5886985659599304,4.12890625,0,"['A1', 'F1', 'E2']",7.6,90,0,0.25560677533173665,[10700|0|0]
10700,1.6930549144744873,1.1735702753067017,-0.04592794179916382,0.5403038263320923,0.8044971227645874,-0.6133860945701599,4.12890625,0,"['A1', 'F1', 'E2']",7.6,90,0,0.2560433889417188,[10800|0|0]
10800,1.692968487739563,1.1734592914581299,-0.046139948070049286,0.5413974523544312,0.8002389073371887,-0.6016552448272705,4.12890625,0,"['A1', 'F1', 'E2']",7.6,90,0,0.25629781703381604,[10900|0|0]
10900,1.6929534673690796,1.173566222190857,-0.046053264290094376,0.5338115096092224,0.7942532300949097,-0.6149818301200867,4.12109375,0,"['A1', 'F1', 'E2']",7.6,90,0,0.2564362867808306,[11000|0|0]
11000,1.692812204360962,1.1732417345046997,-0.04623611271381378,0.5356248617172241,0.8021636605262756,-0.5997564196586609,4.12109375,0,"['A1', 'F1', 'E2']",7.6,90,0,0.25683463467148243,[11100|0|0]
11100,1.6930793523788452,1.1734113693237305,-0.04615476354956627,0.5295748114585876,0.7943585515022278,-0.6394147872924805,4.12890625,0,"['A1', 'F1', 'E2']",7.6,90,0,0.2571613787943222,[11200|0|0]
11200,1.6927080154418945,1.173414707183838,-0.04579103738069534,0.48953279852867126,0.7871349453926086,-0.6466475129127502,4.12890625,0,"['A1', 'F1', 'E2']",7.6,90,0,0.25768118547759544,[11300|0|0]
11300,1.6929738521575928,1.1735303401947021,-0.04582953080534935,0.4934239983558655,0.7893486618995667,-0.6361531019210815,4.12109375,0,"['A1', 'F1', 'E2']",7.6,90,0,0.25797362674752217,[11400|0|0]
11400,1.692737340927124,1.1733368635177612,-0.04601941630244255,0.4989725649356842,0.8087372779846191,-0.6393439769744873,4.12890625,0,"['A1', 'F1', 'E2']",7.6,90,0,0.2583333867906958,[11500|0|0]
11500,1.6929285526275635,1.1731932163238525,-0.0461973175406456,0.5090726613998413,0.8045843839645386,-0.6453485488891602,4.12890625,0,"['A1', 'F1', 'E2']",7.6,90,0,0.2586314560465022,[11600|0|0]
11600,1.6928496360778809,1.1735743284225464,-0.04625678434967995,0.5058226585388184,0.8106430768966675,-0.5897566676139832,4.12890625,0,"['A1', 'F1', 'E2']",7.6,90,0,0.2590251698447889,[11700|0|0]
11700,1.6927787065505981,1.1735833883285522,-0.04600178077816963,0.5141267776489258,0.8173089027404785,-0.6022315621376038,4.12109375,0,"['A1', 'F1', 'E2']",7.6,90,0,0.25929000923238144,[11800|0|0]
11800,1.6927289962768555,1.1731464862823486,-0.045921385288238525,0.5270849466323853,0.8214142918586731,-0.602644145488739,4.12890625,0,"['A1', 'F1', 'E2']",7.6,90,0,0.2597370192368486,[11900|0|0]
11900,1.6928157806396484,1.1738303899765015,-0.045951370149850845,0.5256094336509705,0.8266752362251282,-0.6079462170600891,4.12109375,0,"['A1', 'F1', 'E2']",7.6,90,0,0.26042705900412816,[12000|0|0]
12000,1.693049430847168,1.173686146736145,-0.04617150500416756,0.5366836190223694,0.8222501277923584,-0.6145555973052979,4.12109375,0,"['A1', 'F1', 'E2']",7.6,90,0,0.26077899349511685,[12100|0|0]
12100,1.6927257776260376,1.1735143661499023,-0.04611728712916374,0.5511772632598877,0.836796760559082,-0.636131227016449,4.12890625,0,"['A1', 'F1', 'E2']",7.6,90,0,0.2611493980784145,[12200|0|0]
12200,1.6929415464401245,1.173891305923462,-0.046057626605033875,0.5409415364265442,0.8313311338424683,-0.6544064879417419,4.12890625,0,"['A1', 'F1', 'E2']",7.6,90,0,0.26158780331579545,[12300|0|0]
12300,1.692845344543457,1.1736555099487305,-0.046025827527046204,0.5469309091567993,0.8393483757972717,-0.6379746794700623,4.12109375,0,"['A1', 'F1', 'E2']",7.6,90,0,0.2618444465077621,[12400|0|0]
12400,1.6929399967193604,1.1736700534820557,-0.04632702097296715,0.5480487942695618,0.8305564522743225,-0.6265690922737122,4.12109375,0,"['A1', 'F1', 'E2']",7.6,90,0,0.26216049720089624,[12500|0|0]
12500,1.6930732727050781,1.1738715171813965,-0.0457286573946476,0.5040260553359985,0.8008045554161072,-0.6165552735328674,4.12890625,0,"['A1', 'F1', 'E2']",7.6,90,0,0.2628057793735777,[12600|0|0]
12600,1.693320631980896,1.1733845472335815,-0.04612131789326668,0.5207149982452393,0.7949569225311279,-0.6370528340339661,4.12109375,0,"['A1', 'F1', 'E2']",7.6,90,0,0.2634784669746109,[12700|0|0]
12700,1.692793846130371,1.1737624406814575,-0.04578380659222603,0.48899003863334656,0.7948108315467834,-0.6325331926345825,4.12890625,0,"['A1', 'F1', 'E2']",7.6,90,0,0.2642093709823924,[12800|0|0]
12800,1.6928930282592773,1.173360824584961,-0.04570308327674866,0.513889729976654,0.7960078716278076,-0.6602283716201782,4.12890625,0,"['A1', 'F1', 'E2']",7.6,90,0,0.2646308550714411,[12900|0|0]
12900,1.6928638219833374,1.1735634803771973,-0.04599947854876518,0.5142624974250793,0.8030136823654175,-0.6361181735992432,4.12109375,0,"['A1', 'F1', 'E2']",7.6,90,0,0.26499109462223325,[13000|0|0]
13000,1.6927791833877563,1.1733304262161255,-0.045713335275650024,0.5282424092292786,0.8040167689323425,-0.6114413738250732,4.12890625,0,"['A1', 'F1', 'E2']",7.6,90,0,0.26536971832276435,[13100|0|0]
13100,1.6926302909851074,1.1732072830200195,-0.04579265043139458,0.5374329090118408,0.8021636605262756,-0.6146255731582642,4.12109375,0,"['A1', 'F1', 'E2']",7.6,90,0,0.26557858212586233,[13200|0|0]
13200,1.6927684545516968,1.1732535362243652,-0.04604709893465042,0.5517619252204895,0.8076764345169067,-0.6067257523536682,4.12109375,0,"['A1', 'F1', 'E2']",7.6,90,0,0.26587179292179947,[13300|0|0]
13300,1.6928991079330444,1.1737844944000244,-0.046253494918346405,0.5477808117866516,0.8077031970024109,-0.6270149350166321,4.12890625,0,"['A1', 'F1', 'E2']",7.6,90,0,0.26645624667740614,[13400|0|0]
13400,1.692794680595398,1.173466682434082,-0.04632943496108055,0.5670697093009949,0.8262187242507935,-0.6546026468276978,4.12109375,0,"['A1', 'F1', 'E2']",7.6,90,0,0.2667992866235269,[13500|0|0]
13500,1.6926443576812744,1.1737427711486816,-0.04605654627084732,0.5605122447013855,0.8323304057121277,-0.6589893698692322,4.12109375,0,"['A1', 'F1', 'E2']",7.6,90,0,0.26721556801164925,[13600|0|0]
13600,1.6928637027740479,1.173406720161438,-0.046040408313274384,0.5712720155715942,0.822935163974762,-0.6360401511192322,4.12109375,0,"['A1', 'F1', 'E2']",7.6,90,0,0.26761719342098717,[13700|0|0]
13700,1.6927872896194458,1.1734869480133057,-0.04593165963888168,0.564905047416687,0.8249261975288391,-0.6239150762557983,4.12109375,0,"['A1', 'F1', 'E2']",7.6,90,0,0.2677724408125714,[13800|0|0]
13800,1.6926655769348145,1.1734639406204224,-0.04603496938943863,0.562039852142334,0.8342750072479248,-0.5858322381973267,4.12109375,0,"['A1', 'F1', 'E2']",7.6,90,0,0.26793373626287176,[13900|0|0]
13900,1.6926345825195312,1.1737323999404907,-0.04657813161611557,0.5478700399398804,0.8311240673065186,-0.5802560448646545,4.12890625,0,"['A1', 'F1', 'E2']",7.6,90,0,0.26854041267151063,[14000|0|0]
14000,1.6928576231002808,1.1733704805374146,-0.04629131034016609,0.5581356287002563,0.8188613057136536,-0.5680845379829407,4.12109375,0,"['A1', 'F1', 'E2']",7.6,90,0,0.26905324714706913,[14100|0|0]
14100,1.692872166633606,1.1734514236450195,-0.04635177552700043,0.5513235330581665,0.8119965195655823,-0.5772398710250854,4.12109375,0,"['A1', 'F1', 'E2']",7.6,90,0,0.2691553223147116,[14200|0|0]
14200,1.6927096843719482,1.1734302043914795,-0.046006232500076294,0.5484642386436462,0.8187922835350037,-0.5980077981948853,4.12109375,0,"['A1', 'F1', 'E2']",7.6,90,0,0.2695377497268176,[14300|0|0]
14300,1.6928609609603882,1.1734886169433594,-0.04599059373140335,0.5449979901313782,0.8087682723999023,-0.6233421564102173,4.12109375,0,"['A1', 'F1', 'E2']",7.6,90,0,0.2697006644392065,[14400|0|0]
14400,1.6929064989089966,1.173639178276062,-0.04596198350191116,0.5347754955291748,0.8089759349822998,-0.5971455574035645,4.12109375,0,"['A1', 'F1', 'E2']",7.6,90,0,0.26986054240798346,[14500|0|0]
14500,1.6927870512008667,1.1733343601226807,-0.04622948169708252,0.5391170978546143,0.8147680163383484,-0.6092734932899475,4.12109375,0,"['A1', 'F1', 'E2']",7.6,90,0,0.27028331556941665,[14600|0|0]
14600,1.6929298639297485,1.173587679862976,-0.04647079110145569,0.5368439555168152,0.8189672827720642,-0.6274732351303101,4.12109375,0,"['A1', 'F1', 'E2']",7.6,90,0,0.2706611999366415,[14700|0|0]
14700,1.692850112915039,1.1733914613723755,-0.04595285654067993,0.49839141964912415,0.7968825697898865,-0.6604642868041992,4.12109375,0,"['A1', 'F1', 'E2']",7.6,90,0,0.27122076952985286,[14800|0|0]
14800,1.6929866075515747,1.1734561920166016,-0.04622313007712364,0.5028441548347473,0.7991345524787903,-0.6502127647399902,4.12109375,0,"['A1', 'F1', 'E2']",7.6,90,0,0.2715303961220679,[14900|0|0]
14900,1.6929705142974854,1.1734185218811035,-0.04621011018753052,0.5134992003440857,0.8049702644348145,-0.6468176245689392,4.12109375,0,"['A1', 'F1', 'E2']",7.6,90,0,0.2715733792520219,[15000|0|0]
15000,1.6932814121246338,1.1733927726745605,-0.04613691568374634,0.5132673382759094,0.8040122985839844,-0.6227756142616272,4.12109375,0,"['A1', 'F1', 'E2']",7.6,90,0,0.27189381320145206,[15100|0|0]
15100,1.6930186748504639,1.1730903387069702,-0.046142395585775375,0.5233708620071411,0.8082084059715271,-0.6032770276069641,4.12890625,0,"['A1', 'F1', 'E2']",7.6,90,0,0.2722944716711203,[15200|0|0]
15200,1.6931664943695068,1.1733487844467163,-0.04581860080361366,0.5137395262718201,0.8038093447685242,-0.6188295483589172,4.12109375,0,"['A1', 'F1', 'E2']",7.6,90,0,0.2727343442339816,[15300|0|0]
15300,1.6929991245269775,1.1733677387237549,-0.045800499618053436,0.5116751194000244,0.8091111183166504,-0.6171765327453613,4.12109375,0,"['A1', 'F1', 'E2']",7.6,90,0,0.27290375374293846,[15400|0|0]
15400,1.6929820775985718,1.1732549667358398,-0.04621779918670654,0.5162668228149414,0.8106123208999634,-0.6084336638450623,4.12109375,0,"['A1', 'F1', 'E2']",7.6,90,0,0.27333635870017364,[15500|0|0]
15500,1.692927598953247,1.1735703945159912,-0.04628029093146324,0.5107252597808838,0.8061362504959106,-0.5913435816764832,4.12109375,0,"['A1', 'F1', 'E2']",7.6,90,0,0.2736624995063454,[15600|0|0]
15600,1.6928393840789795,1.1733499765396118,-0.0458223819732666,0.5170343518257141,0.8129785656929016,-0.5869871973991394,4.12109375,0,"['A1', 'F1', 'E2']",7.6,90,0,0.2741782965229614,[15700|0|0]
15700,1.6928834915161133,1.1734520196914673,-0.045863859355449677,0.5199887752532959,0.811251699924469,-0.5638615489006042,4.12109375,0,"['A1', 'F1', 'E2']",7.6,90,0,0.27429694998512694,[15800|0|0]
15800,1.692933440208435,1.1733616590499878,-0.04611840844154358,0.5219718217849731,0.80865478515625,-0.5831248164176941,4.12109375,0,"['A1', 'F1', 'E2']",7.6,90,0,0.2745716410017702,[15900|0|0]
15900,1.6930357217788696,1.1735992431640625,-0.04590708389878273,0.5128318667411804,0.8130587339401245,-0.5972880125045776,4.12109375,0,"['A1', 'F1', 'E2']",7.6,90,0,0.27490565566205366,[16000|0|0]
16000,1.692936658859253,1.173490047454834,-0.04615851119160652,0.5139989256858826,0.8210475444793701,-0.5889178514480591,4.12109375,0,"['A1', 'F1', 'E2']",7.6,90,0,0.27519712238148075,[16100|0|0]
16100,1.6930334568023682,1.173425316810608,-0.046354182064533234,0.5241597890853882,0.8134721517562866,-0.5806459784507751,4.12109375,0,"['A1', 'F1', 'E2']",7.6,90,0,0.2754248217196554,[16200|0|0]
16200,1.6930128335952759,1.1736000776290894,-0.046084608882665634,0.4900161921977997,0.7910852432250977,-0.6146093010902405,4.12109375,0,"['A1', 'F1', 'E2']",7.6,90,0,0.2757467477371335,[16300|0|0]
16300,1.6929292678833008,1.1734586954116821,-0.0458717979490757,0.5001541376113892,0.7989842891693115,-0.6191335916519165,4.12109375,0,"['A1', 'F1', 'E2']",7.6,90,0,0.27601556115397186,[16400|0|0]
16400,1.6930071115493774,1.17365300655365,-0.04586523771286011,0.4959566593170166,0.7966295480728149,-0.6075463891029358,4.12109375,0,"['A1', 'F1', 'E2']",7.6,90,0,0.2762249877352367,[16500|0|0]
16500,1.6929714679718018,1.173269271850586,-0.04608434438705444,0.5175545811653137,0.8056437373161316,-0.637902557849884,4.12109375,0,"['A1', 'F1', 'E2']",7.6,90,0,0.27666830536587467,[16600|0|0]
16600,1.6929622888565063,1.1737064123153687,-0.04612482339143753,0.5195778608322144,0.8266481757164001,-0.6317996978759766,4.12109375,0,"['A1', 'F1', 'E2']",7.6,90,0,0.27710741194963756,[16700|0|0]
16700,1.6930345296859741,1.1734111309051514,-0.045880500227212906,0.5385270118713379,0.827785313129425,-0.630735456943512,4.12109375,0,"['A1', 'F1', 'E2']",7.6,90,0,0.2774974166383771,[16800|0|0]
16800,1.692910075187683,1.1732650995254517,-0.04582871124148369,0.5452892780303955,0.8356479406356812,-0.6179826855659485,4.12109375,0,"['A1', 'F1', 'E2']",7.6,90,0,0.27769615310972734,[16900|0|0]
16900,1.6931565999984741,1.173579454421997,-0.04595305025577545,0.5344701409339905,0.8317250609397888,-0.6167322397232056,4.12890625,0,"['A1', 'F1', 'E2']",7.6,90,0,0.2781145472705287,[17000|0|0]
17000,1.693131685256958,1.1733105182647705,-0.046070441603660583,0.5125014781951904,0.8031870126724243,-0.6261917948722839,4.12109375,0,"['A1', 'F1', 'E2']",7.6,90,0,0.2784090436704505,[17100|0|0]
17100,1.6929504871368408,1.1736555099487305,-0.045802805572748184,0.48031556606292725,0.7929081320762634,-0.6306347846984863,4.12109375,0,"['A1', 'F1', 'E2']",7.6,90,0,0.2788817815108844,[17200|0|0]
17200,1.6931177377700806,1.1734833717346191,-0.04603602737188339,0.507786750793457,0.7990933656692505,-0.6304426789283752,4.12109375,0,"['A1', 'F1', 'E2']",7.6,90,0,0.279216440660869,[17300|0|0]
17300,1.6928004026412964,1.1735262870788574,-0.04595676437020302,0.5177494883537292,0.8098127245903015,-0.6426030397415161,4.12109375,0,"['A1', 'F1', 'E2']",7.6,90,0,0.27954632842082217,[17400|0|0]
17400,1.6929064989089966,1.173439860343933,-0.04576291888952255,0.5270776748657227,0.8123276233673096,-0.6325272917747498,4.12109375,0,"['A1', 'F1', 'E2']",7.6,90,0,0.27978360899084387,[17500|0|0]
17500,1.6928833723068237,1.173360824584961,-0.046066299080848694,0.5282475352287292,0.8113005757331848,-0.6217926740646362,4.12109375,0,"['A1', 'F1', 'E2']",7.6,90,0,0.28009796711689355,[17600|0|0]
17600,1.6928547620773315,1.173233985900879,-0.04606076702475548,0.5307906866073608,0.817333996295929,-0.616352915763855,4.12109375,0,"['A1', 'F1', 'E2']",7.6,90,0,0.28022811011768833,[17700|0|0]
17700,1.6931817531585693,1.1732598543167114,-0.04612142592668533,0.5317472815513611,0.8181616067886353,-0.608677089214325,4.12109375,0,"['A1', 'F1', 'E2']",7.6,90,0,0.28056168446401925,[17800|0|0]
17800,1.6931365728378296,1.1733728647232056,-0.046200960874557495,0.5456278920173645,0.8220393061637878,-0.6475998163223267,4.12890625,0,"['A1', 'F1', 'E2']",7.6,90,0,0.28070707504587084,[17900|0|0]
17900,1.6931718587875366,1.1737513542175293,-0.0459967665374279,0.5446044206619263,0.822448194026947,-0.6417907476425171,4.12890625,0,"['A1', 'F1', 'E2']",7.6,90,0,0.28113857791130276,[18000|0|0]
18000,1.6929997205734253,1.1732996702194214,-0.04595937952399254,0.5701045393943787,0.8300225734710693,-0.638018012046814,4.12109375,0,"['A1', 'F1', 'E2']",7.6,90,0,0.28162339518376506,[18100|0|0]
18100,1.6930902004241943,1.1734758615493774,-0.04575423151254654,0.5332356095314026,0.800920844078064,-0.646969735622406,4.12109375,0,"['A1', 'F1', 'E2']",7.6,90,0,0.28190855425296524,[18200|0|0]
18200,1.6929662227630615,1.1735117435455322,-0.046031225472688675,0.5427529811859131,0.8105538487434387,-0.6482904553413391,4.12109375,0,"['A1', 'F1', 'E2']",7.6,90,0,0.2822141416088281,[18300|0|0]
18300,1.6929818391799927,1.1734490394592285,-0.045850757509469986,0.5395254492759705,0.7979471683502197,-0.6630849242210388,4.12109375,0,"['A1', 'F1', 'E2']",7.6,90,0,0.28240582979486273,[18400|0|0]
18400,1.692883849143982,1.1733218431472778,-0.04613105207681656,0.5480523705482483,0.7978872060775757,-0.6343871355056763,4.12109375,0,"['A1', 'F1', 'E2']",7.6,90,0,0.28272885609938797,[18500|0|0]
18500,1.692675232887268,1.1733382940292358,-0.04592938348650932,0.522853434085846,0.7812665104866028,-0.6383141279220581,4.12109375,0,"['A1', 'F1', 'E2']",7.6,90,0,0.28301947886931317,[18600|0|0]
18600,1.692996621131897,1.1734415292739868,-0.046156443655490875,0.5303353071212769,0.7823693752288818,-0.62410569190979,4.12109375,0,"['A1', 'F1', 'E2']",7.6,90,0,0.28342630099246086,[18700|0|0]
18700,1.6960586309432983,1.1776254177093506,-0.04121711477637291,0.4781452715396881,0.6698564291000366,-0.6322009563446045,4.12109375,0,"['A1', 'F1', 'E2']",7.6,90,0,0.290587152638793,[18800|0|0]
18800,1.6956663131713867,1.177979826927185,-0.03986078128218651,0.5570374727249146,0.689834475517273,-0.6338868141174316,4.12890625,0,"['A1', 'F1', 'E2']",7.6,90,0,0.2920428860193595,[18900|0|0]
18900,1.6949796676635742,1.178105115890503,-0.039427340030670166,0.6003736257553101,0.7083734273910522,-0.6257271766662598,4.12109375,0,"['A1', 'F1', 'E2']",7.6,90,0,0.2928645007077898,[19000|0|0]
19000,1.6942481994628906,1.1779838800430298,-0.03917788714170456,0.6375987529754639,0.7229408025741577,-0.6537936925888062,4.12109375,0,"['A1', 'F1', 'E2']",7.6,90,0,0.2936467862075513,[19100|0|0]
19100,1.6933430433273315,1.172881007194519,-0.04576463624835014,0.7200747728347778,0.7894205451011658,-0.6707574725151062,4.12109375,0,"['A1', 'F1', 'E2']",7.6,90,0,0.302027948581095,[19200|0|0]
19200,1.6931281089782715,1.173246145248413,-0.046173904091119766,0.6557155847549438,0.8336017727851868,-0.6713637113571167,4.12109375,0,"['A1', 'F1', 'E2']",7.6,90,0,0.30261703494142994,[19300|0|0]
19300,1.6930385828018188,1.1731032133102417,-0.0459553487598896,0.5691453218460083,0.8402524590492249,-0.6848272085189819,4.12109375,0,"['A1', 'F1', 'E2']",7.6,90,0,0.3028930981733693,[19400|0|0]
19400,1.6931143999099731,1.1733136177062988,-0.04607921466231346,0.5292381644248962,0.8484460115432739,-0.6854879260063171,4.12109375,0,"['A1', 'F1', 'E2']",7.6,90,0,0.303148756158874,[19500|0|0]
19500,1.6930454969406128,1.173317313194275,-0.04620629921555519,0.5014427304267883,0.8535887002944946,-0.6694202423095703,4.12109375,0,"['A1', 'F1', 'E2']",7.6,90,0,0.3032933651471517,[19600|0|0]
19600,1.6932830810546875,1.1733962297439575,-0.046400658786296844,0.47904014587402344,0.8468700647354126,-0.6697872877120972,4.12109375,0,"['A1', 'F1', 'E2']",7.6,90,0,0.3036103031155514,[19700|0|0]
19700,1.694858193397522,1.176418423652649,-0.043044790625572205,0.38673049211502075,0.7895357608795166,-0.6531190872192383,4.12109375,0,"['A1', 'F1', 'E2']",7.6,90,0,0.3083932400821491,[19800|0|0]
19800,1.6929080486297607,1.1734321117401123,-0.045828960835933685,0.4579334855079651,0.8571784496307373,-0.6485484838485718,4.12109375,0,"['A1', 'F1', 'E2']",7.6,90,0,0.31291791987352097,[19900|0|0]
19900,1.69295334815979,1.1732856035232544,-0.04601797088980675,0.45843544602394104,0.8504159450531006,-0.6513544321060181,4.12109375,0,"['A1', 'F1', 'E2']",7.6,90,0,0.31316131565305066,[20000|0|0]
20000,1.694584846496582,1.1763508319854736,-0.043082430958747864,0.3653128743171692,0.7821160554885864,-0.6465335488319397,4.12109375,0,"['A1', 'F1', 'E2']",7.6,90,0,0.3177082714517577,[20100|0|0]
20100,1.6949477195739746,1.176193356513977,-0.042959071695804596,0.3703598082065582,0.7646231651306152,-0.6804667115211487,4.12109375,0,"['A1', 'F1', 'E2']",7.6,90,0,0.31812262987410883,[20200|0|0]
20200,1.6948527097702026,1.176692247390747,-0.04303992539644241,0.3649081587791443,0.765204668045044,-0.6646487712860107,4.12109375,0,"['A1', 'F1', 'E2']",7.6,90,0,0.31863688301279053,[20300|0|0]
20300,1.6946461200714111,1.1761748790740967,-0.04304301738739014,0.3733372688293457,0.7652853727340698,-0.6589442491531372,4.12109375,0,"['A1', 'F1', 'E2']",7.6,90,0,0.3191939816029238,[20400|0|0]
20400,1.6947113275527954,1.17638099193573,-0.04307857155799866,0.3725966215133667,0.7597712874412537,-0.6247073411941528,4.12109375,0,"['A1', 'F1', 'E2']",7.6,90,0,0.3194130674911202,[20500|0|0]
20500,1.6949995756149292,1.1759470701217651,-0.043253012001514435,0.3887427747249603,0.747714638710022,-0.6524114608764648,4.12890625,0,"['A1', 'F1', 'E2']",7.6,90,0,0.3199624349039619,[20600|0|0]
20600,1.694649577140808,1.1759793758392334,-0.04309556633234024,0.391065388917923,0.7458826899528503,-0.6519560217857361,4.12109375,0,"['A1', 'F1', 'E2']",7.6,90,0,0.32034757348942167,[20700|0|0]
20700,1.69475257396698,1.176076889038086,-0.043360739946365356,0.39963099360466003,0.7810107469558716,-0.6325340867042542,4.12109375,0,"['A1', 'F1', 'E2']",7.6,90,0,0.3206482963115138,[20800|0|0]
20800,1.6949771642684937,1.1761380434036255,-0.04280181601643562,0.414025217294693,0.7316485643386841,-0.6297106146812439,4.12109375,0,"['A1', 'F1', 'E2']",7.6,90,0,0.3212537520236899,[20900|0|0]
20900,1.6946501731872559,1.1757564544677734,-0.043222080916166306,0.44082802534103394,0.7492970824241638,-0.6209943294525146,4.12109375,0,"['A1', 'F1', 'E2']",7.6,90,0,0.32190885191616386,[21000|0|0]
21000,1.694965124130249,1.1765345335006714,-0.04275934770703316,0.4232103228569031,0.7393545508384705,-0.581142008304596,4.12109375,0,"['A1', 'F1', 'E2']",7.6,90,0,0.3228673523599626,[21100|0|0]
21101,1.694793701171875,1.1761023998260498,-0.04312930628657341,0.45813074707984924,0.7541617155075073,-0.593994140625,4.12109375,0,"['A1', 'F1', 'E2']",7.6,90,0,0.32346148592573304,[21200|0|0]
21200,1.694801926612854,1.1763529777526855,-0.042902473360300064,0.4560816287994385,0.7571454644203186,-0.6236147284507751,4.12109375,0,"['A1', 'F1', 'E2']",7.6,90,0,0.3237995837394469,[21300|0|0]
21300,1.6950125694274902,1.1762093305587769,-0.042936623096466064,0.46661239862442017,0.7491530776023865,-0.6081336140632629,4.12109375,0,"['A1', 'F1', 'E2']",7.6,90,0,0.3240568212098044,[21400|0|0]
21401,1.6949810981750488,1.1762990951538086,-0.04282846674323082,0.46208351850509644,0.7512849569320679,-0.625390887260437,4.12109375,0,"['A1', 'F1', 'E2']",7.6,90,0,0.3242008556466471,[21500|0|0]
21501,1.694342017173767,1.1764910221099854,-0.042908769100904465,0.41379648447036743,0.736728310585022,-0.6183192133903503,4.12109375,0,"['A1', 'F1', 'E2']",7.6,90,0,0.3248729486099747,[21600|0|0]
21601,1.6948541402816772,1.1757820844650269,-0.043283749371767044,0.438824862241745,0.731174647808075,-0.6273460388183594,4.12109375,0,"['A1', 'F1', 'E2']",7.6,90,0,0.3258245119896983,[21700|0|0]
21701,1.6948035955429077,1.1762936115264893,-0.0426790788769722,0.43293192982673645,0.7400951385498047,-0.602036714553833,4.12109375,0,"['A1', 'F1', 'E2']",7.6,90,0,0.32661813728698985,[21800|0|0]
21801,1.6951649188995361,1.176308512687683,-0.04287203028798103,0.4399009048938751,0.7408974170684814,-0.5989421010017395,4.12109375,0,"['A1', 'F1', 'E2']",7.6,90,0,0.32702802368547174,[21900|0|0]
21901,1.6947888135910034,1.1760027408599854,-0.043139826506376266,0.4517161250114441,0.7550749778747559,-0.623515784740448,4.12109375,0,"['A1', 'F1', 'E2']",7.6,90,0,0.3275817983944527,[22000|0|0]
22002,1.694589614868164,1.175742506980896,-0.043073058128356934,0.4585394859313965,0.758025050163269,-0.6310734152793884,4.12109375,0,"['A1', 'F1', 'E2']",7.6,90,0,0.32791625290452847,[22100|0|0]
22101,1.6947001218795776,1.175981044769287,-0.04293268546462059,0.46040078997612,0.7647849917411804,-0.6269044280052185,4.12109375,0,"['A1', 'F1', 'E2']",7.6,90,0,0.32821427397892844,[22200|0|0]
22201,1.6950864791870117,1.1762007474899292,-0.043047476559877396,0.45361435413360596,0.7574165463447571,-0.6243440508842468,4.12109375,0,"['A1', 'F1', 'E2']",7.6,90,0,0.32867331455449394,[22300|0|0]
22302,1.6947757005691528,1.1762309074401855,-0.04302608594298363,0.44987279176712036,0.7582833170890808,-0.6255407333374023,4.12109375,0,"['A1', 'F1', 'E2']",7.6,90,0,0.32898628504896404,[22400|0|0]
22402,1.694696068763733,1.1761126518249512,-0.04332345724105835,0.4660506844520569,0.7675054669380188,-0.6276262402534485,4.12109375,0,"['A1', 'F1', 'E2']",7.6,90,0,0.32931606573955635,[22500|0|0]
22501,1.694784164428711,1.1761380434036255,-0.042876556515693665,0.46892404556274414,0.7696853280067444,-0.6109612584114075,4.12109375,0,"['A1', 'F1', 'E2']",7.6,90,0,0.3297722738464407,[22600|0|0]
22602,1.6948152780532837,1.1766867637634277,-0.04326639324426651,0.45942240953445435,0.7799270153045654,-0.5876942873001099,4.12109375,0,"['A1', 'F1', 'E2']",7.6,90,0,0.33044609486558446,[22700|0|0]
22702,1.6947071552276611,1.176143765449524,-0.04314781352877617,0.4742678701877594,0.7803620100021362,-0.5932267904281616,4.12109375,0,"['A1', 'F1', 'E2']",7.6,90,0,0.3310123093684442,[22800|0|0]
22800,1.69480562210083,1.1763510704040527,-0.0429571196436882,0.4695488512516022,0.7777906060218811,-0.5915719866752625,4.12109375,0,"['A1', 'F1', 'E2']",7.6,90,0,0.33131069708115,[22900|0|0]
22900,1.694924235343933,1.1764909029006958,-0.04311009868979454,0.46206867694854736,0.7740501165390015,-0.5987420082092285,4.12109375,0,"['A1', 'F1', 'E2']",7.6,90,0,0.33154949577692633,[23000|0|0]
23002,1.694625735282898,1.1763807535171509,-0.04309101402759552,0.47163137793540955,0.7821661233901978,-0.5998517274856567,4.12109375,0,"['A1', 'F1', 'E2']",7.6,90,0,0.3318682423807742,[23100|0|0]
23102,1.6947649717330933,1.1762784719467163,-0.043086498975753784,0.4750288426876068,0.7778031826019287,-0.6199454069137573,4.12109375,0,"['A1', 'F1', 'E2']",7.6,90,0,0.3320410679992649,[23200|0|0]
23200,1.6948012113571167,1.176307201385498,-0.04306522384285927,0.4712699055671692,0.7781493067741394,-0.628319501876831,4.12109375,0,"['A1', 'F1', 'E2']",7.6,90,0,0.33209197303125343,[23300|0|0]
23300,1.6945652961730957,1.1764622926712036,-0.04306039586663246,0.47180628776550293,0.7786459922790527,-0.6248070597648621,4.12109375,0,"['A1', 'F1', 'E2']",7.6,90,0,0.3323743426300206,[23400|0|0]
23400,1.6951955556869507,1.1760990619659424,-0.04304792732000351,0.48654797673225403,0.7536044120788574,-0.6442893743515015,4.12109375,0,"['A1', 'F1', 'E2']",7.6,90,0,0.3331018858003578,[23500|0|0]
23500,1.6945217847824097,1.1760791540145874,-0.04303533211350441,0.4847727119922638,0.7685198783874512,-0.6695376634597778,4.12109375,0,"['A1', 'F1', 'E2']",7.6,90,0,0.3337760684147583,[23600|0|0]
23600,1.695279836654663,1.1781412363052368,-0.04032697528600693,0.45802342891693115,0.6977466344833374,-0.6807063221931458,4.12109375,0,"['A1', 'F1', 'E2']",7.6,90,0,0.33726347758482844,[23700|0|0]
23700,1.6944688558578491,1.1785084009170532,-0.03904501348733902,0.5320967435836792,0.7181817889213562,-0.6528626680374146,4.12109375,0,"['A1', 'F1', 'E2']",7.6,90,0,0.33882422284213826,[23800|0|0]
23800,1.69328773021698,1.1783695220947266,-0.03866090252995491,0.5909715294837952,0.7424643635749817,-0.6086639761924744,4.12109375,0,"['A1', 'F1', 'E2']",7.6,90,0,0.3400739773517888,[23900|0|0]
23900,1.6923071146011353,1.1783970594406128,-0.03810086473822594,0.6272937059402466,0.7503090500831604,-0.5529739856719971,4.12109375,0,"['A1', 'F1', 'E2']",7.6,90,0,0.341203582424202,[24000|0|0]
24000,1.6910433769226074,1.178230881690979,-0.03788672387599945,0.6450269222259521,0.7606640458106995,-0.5313661098480225,4.12109375,0,"['A1', 'F1', 'E2']",7.6,90,0,0.34249606231707436,[24100|0|0]
24100,1.6968740224838257,1.1760908365249634,-0.04248029366135597,0.6982840895652771,0.7012051343917847,-0.4482708275318146,4.12109375,0,"['A1', 'F1', 'E2']",7.6,90,0,0.3502211580670364,[24200|0|0]
24200,1.695015788078308,1.175169825553894,-0.04394254833459854,0.6387702822685242,0.7930101156234741,-0.4830353856086731,4.12109375,0,"['A1', 'F1', 'E2']",7.6,90,0,0.3527587721125719,[24300|0|0]
24300,1.6951366662979126,1.1757181882858276,-0.04343385621905327,0.5427067875862122,0.8162543177604675,-0.5290136337280273,4.12109375,0,"['A1', 'F1', 'E2']",7.6,90,0,0.35351645337680265,[24400|0|0]
24400,1.6946214437484741,1.175612449645996,-0.04335944727063179,0.47674983739852905,0.8305716514587402,-0.5564355254173279,4.12109375,0,"['A1', 'F1', 'E2']",7.6,90,0,0.35404765167029434,[24500|0|0]
24500,1.6949957609176636,1.1759535074234009,-0.04291662573814392,0.4156073033809662,0.8183968663215637,-0.5810815691947937,4.12109375,0,"['A1', 'F1', 'E2']",7.6,90,0,0.35472035120226475,[24600|0|0]
24600,1.6948094367980957,1.1755985021591187,-0.04298738017678261,0.3953883945941925,0.8216776847839355,-0.5637277960777283,4.12109375,0,"['A1', 'F1', 'E2']",7.6,90,0,0.3551274772340877,[24700|0|0]
24700,1.6946109533309937,1.1759783029556274,-0.04299645870923996,0.3656633794307709,0.8133193850517273,-0.577618420124054,4.12109375,0,"['A1', 'F1', 'E2']",7.6,90,0,0.3555561108206079,[24800|0|0]
24800,1.6947890520095825,1.176206111907959,-0.04288310557603836,0.3541693687438965,0.7984175086021423,-0.6049060821533203,4.12109375,0,"['A1', 'F1', 'E2']",7.6,90,0,0.35586669895767065,[24900|0|0]
24900,1.6948939561843872,1.176295280456543,-0.04332439973950386,0.3473457992076874,0.7826319932937622,-0.617071807384491,4.12109375,0,"['A1', 'F1', 'E2']",7.6,90,0,0.35632897209625514,[25000|0|0]
25000,1.6947989463806152,1.176079273223877,-0.04296457767486572,0.36415529251098633,0.7872846722602844,-0.6427122950553894,4.12109375,0,"['A1', 'F1', 'E2']",7.6,90,0,0.35675927188195955,[25100|0|0]
25100,1.694840431213379,1.1762878894805908,-0.04295406863093376,0.3700511157512665,0.7842094302177429,-0.6612253189086914,4.12109375,0,"['A1', 'F1', 'E2']",7.6,90,0,0.3569722323804542,[25200|0|0]
25200,1.694724440574646,1.176130771636963,-0.04279859736561775,0.3948986828327179,0.7730906009674072,-0.6842867136001587,4.12109375,0,"['A1', 'F1', 'E2']",7.6,90,0,0.3572218544135341,[25300|0|0]
25300,1.694839358329773,1.1762975454330444,-0.043000467121601105,0.4044875502586365,0.7622185349464417,-0.6652562022209167,4.12109375,0,"['A1', 'F1', 'E2']",7.6,90,0,0.35750781068271464,[25400|0|0]
25400,1.694846749305725,1.17594313621521,-0.04310094192624092,0.4264039993286133,0.756327748298645,-0.6579750776290894,4.12109375,0,"['A1', 'F1', 'E2']",7.6,90,0,0.3578762610953606,[25500|0|0]
25500,1.6949498653411865,1.1763333082199097,-0.04307147115468979,0.4283703863620758,0.7540757060050964,-0.6441298723220825,4.12109375,0,"['A1', 'F1', 'E2']",7.6,90,0,0.35828090369864957,[25600|0|0]
25600,1.6952378749847412,1.1763375997543335,-0.043108999729156494,0.4186912477016449,0.7503913640975952,-0.6241108179092407,4.12109375,0,"['A1', 'F1', 'E2']",7.6,90,0,0.35857137980085024,[25700|0|0]
25700,1.6949800252914429,1.1757107973098755,-0.043446674942970276,0.4443304240703583,0.7640582323074341,-0.6387878656387329,4.12109375,0,"['A1', 'F1', 'E2']",7.6,90,0,0.35932860652960247,[25800|0|0]
25800,1.6947108507156372,1.1760292053222656,-0.043476082384586334,0.4449833333492279,0.7678971290588379,-0.6339471340179443,4.12109375,0,"['A1', 'F1', 'E2']",7.6,90,0,0.35974658190236597,[25900|0|0]
25900,1.6950790882110596,1.1762596368789673,-0.0432259738445282,0.44982191920280457,0.758597195148468,-0.6326033473014832,4.12109375,0,"['A1', 'F1', 'E2']",7.6,90,0,0.3602478321763498,[26000|0|0]
26000,1.6947835683822632,1.176110863685608,-0.04327564686536789,0.46350526809692383,0.7648964524269104,-0.6170544624328613,4.12109375,0,"['A1', 'F1', 'E2']",7.6,90,0,0.3605823958343785,[26100|0|0]
26100,1.694944977760315,1.176193118095398,-0.04310663416981697,0.46391576528549194,0.7655870318412781,-0.625026524066925,4.12109375,0,"['A1', 'F1', 'E2']",7.6,90,0,0.3608301539149942,[26200|0|0]
26200,1.6948864459991455,1.1764827966690063,-0.04295027628540993,0.4041624367237091,0.7341485619544983,-0.5858120918273926,4.12109375,0,"['A1', 'F1', 'E2']",7.6,90,0,0.3611645001892214,[26300|0|0]
26300,1.6948859691619873,1.1759904623031616,-0.04313047230243683,0.42624154686927795,0.744327962398529,-0.6214646697044373,4.12109375,0,"['A1', 'F1', 'E2']",7.6,90,0,0.36168877488794127,[26400|0|0]
26400,1.6947839260101318,1.1759265661239624,-0.04305212199687958,0.435486763715744,0.7501440644264221,-0.6180096864700317,4.12109375,0,"['A1', 'F1', 'E2']",7.6,90,0,0.3618324213182407,[26500|0|0]
26500,1.6950494050979614,1.1760259866714478,-0.04321026802062988,0.43518272042274475,0.7458980083465576,-0.6259056329727173,4.12109375,0,"['A1', 'F1', 'E2']",7.6,90,0,0.36215703455913695,[26600|0|0]
26600,1.6949540376663208,1.1760022640228271,-0.04311435669660568,0.44226834177970886,0.7570050358772278,-0.6308813095092773,4.12109375,0,"['A1', 'F1', 'E2']",7.6,90,0,0.3622943542341707,[26700|0|0]
26700,1.6947896480560303,1.1761832237243652,-0.04286149889230728,0.43829357624053955,0.7600773572921753,-0.6220622062683105,4.12109375,0,"['A1', 'F1', 'E2']",7.6,90,0,0.3626460748999651,[26800|0|0]
26800,1.6947628259658813,1.175902247428894,-0.04333886504173279,0.46090081334114075,0.7667087316513062,-0.6142458915710449,4.12109375,0,"['A1', 'F1', 'E2']",7.6,90,0,0.3632006427891852,[26900|0|0]
26900,1.6951631307601929,1.1757464408874512,-0.0432845801115036,0.471267968416214,0.757280707359314,-0.5752214193344116,4.12109375,0,"['A1', 'F1', 'E2']",7.6,90,0,0.3636336167610994,[27000|0|0]
27000,1.6949697732925415,1.1758432388305664,-0.043148819357156754,0.4746996760368347,0.7671490907669067,-0.5789210200309753,4.12109375,0,"['A1', 'F1', 'E2']",7.6,90,0,0.36388893604064704,[27100|0|0]
27100,1.694854497909546,1.1761448383331299,-0.04320329800248146,0.465141236782074,0.7678371667861938,-0.601776659488678,4.12109375,0,"['A1', 'F1', 'E2']",7.6,90,0,0.36421637854959743,[27200|0|0]
27200,1.6946885585784912,1.1762535572052002,-0.043186016380786896,0.45508912205696106,0.7723363637924194,-0.6052301526069641,4.12109375,0,"['A1', 'F1', 'E2']",7.6,90,0,0.3644155124472229,[27300|0|0]
27300,1.6950191259384155,1.176140308380127,-0.04273798689246178,0.46034348011016846,0.7644197344779968,-0.621848464012146,4.12109375,0,"['A1', 'F1', 'E2']",7.6,90,0,0.3649836941947621,[27400|0|0]
27400,1.6947404146194458,1.1763731241226196,-0.04299500584602356,0.4551244080066681,0.7682672739028931,-0.5931245684623718,4.12109375,0,"['A1', 'F1', 'E2']",7.6,90,0,0.365428600827399,[27500|0|0]
27500,1.6950640678405762,1.1759834289550781,-0.043170105665922165,0.4511599540710449,0.7597857117652893,-0.5788124203681946,4.12109375,0,"['A1', 'F1', 'E2']",7.6,90,0,0.3659645800043096,[27600|0|0]
27600,1.6949383020401,1.176104187965393,-0.04311595484614372,0.45306530594825745,0.7657113075256348,-0.5764262080192566,4.12109375,0,"['A1', 'F1', 'E2']",7.6,90,0,0.36614715077531174,[27700|0|0]
27700,1.6948862075805664,1.1762677431106567,-0.043071433901786804,0.45669981837272644,0.7753340005874634,-0.593372642993927,4.12109375,0,"['A1', 'F1', 'E2']",7.6,90,0,0.3663244816320253,[27800|0|0]
27800,1.6950739622116089,1.17629873752594,-0.043374739587306976,0.4561381936073303,0.7705032825469971,-0.5983256697654724,4.12109375,0,"['A1', 'F1', 'E2']",7.6,90,0,0.36668254139536866,[27900|0|0]
27900,1.6953227519989014,1.176068663597107,-0.042845726013183594,0.4657709002494812,0.7654063105583191,-0.6107203960418701,4.12109375,0,"['A1', 'F1', 'E2']",7.6,90,0,0.3673107815823963,[28000|0|0]
28000,1.694664478302002,1.175949215888977,-0.043497804552316666,0.47335225343704224,0.7848533391952515,-0.6161317825317383,4.12109375,0,"['A1', 'F1', 'E2']",7.6,90,0,0.36824501840258966,[28100|0|0]
28100,1.6950403451919556,1.175790548324585,-0.04312822222709656,0.47699683904647827,0.7677240967750549,-0.6223703026771545,4.12109375,0,"['A1', 'F1', 'E2']",7.6,90,0,0.36879551128180665,[28200|0|0]
28200,1.6948083639144897,1.1758158206939697,-0.043138083070516586,0.4672708213329315,0.7751341462135315,-0.6314598917961121,4.12109375,0,"['A1', 'F1', 'E2']",7.6,90,0,0.36902907335488777,[28300|0|0]
28300,1.6945098638534546,1.1762133836746216,-0.042860597372055054,0.40906473994255066,0.7413501143455505,-0.6205469369888306,4.12109375,0,"['A1', 'F1', 'E2']",7.6,90,0,0.3695984211597254,[28400|0|0]
28400,1.6946709156036377,1.1758959293365479,-0.04313603788614273,0.4384220540523529,0.7417148947715759,-0.6453163623809814,4.12109375,0,"['A1', 'F1', 'E2']",7.6,90,0,0.3700485127057466,[28500|0|0]
28500,1.6946278810501099,1.1759198904037476,-0.04317055270075798,0.4356316924095154,0.7492247223854065,-0.6310191750526428,4.12109375,0,"['A1', 'F1', 'E2']",7.6,90,0,0.37010865734779075,[28600|0|0]
28600,1.6946983337402344,1.1757653951644897,-0.0428474135696888,0.43287232518196106,0.7485674023628235,-0.6135032176971436,4.12109375,0,"['A1', 'F1', 'E2']",7.6,90,0,0.37047369331660374,[28700|0|0]
28700,1.6947063207626343,1.175866723060608,-0.04290958493947983,0.4326119124889374,0.7391998767852783,-0.6025072932243347,4.12109375,0,"['A1', 'F1', 'E2']",7.6,90,0,0.3705928420231861,[28800|0|0]
28800,1.694777488708496,1.1755906343460083,-0.04315336421132088,0.44319814443588257,0.738569438457489,-0.6130820512771606,4.12109375,0,"['A1', 'F1', 'E2']",7.6,90,0,0.3709679662535776,[28900|0|0]
28900,1.694895625114441,1.175714373588562,-0.043020449578762054,0.44419318437576294,0.7412130236625671,-0.6279965043067932,4.12109375,0,"['A1', 'F1', 'E2']",7.6,90,0,0.37118460860886754,[29000|0|0]
29000,1.6949069499969482,1.1758652925491333,-0.04329837113618851,0.4458792507648468,0.7469834089279175,-0.6385669708251953,4.12109375,0,"['A1', 'F1', 'E2']",7.6,90,0,0.3715010658377407,[29100|0|0]
29100,1.694915771484375,1.1763594150543213,-0.043104980140924454,0.4245617389678955,0.7539453506469727,-0.6033750176429749,4.12109375,0,"['A1', 'F1', 'E2']",7.6,90,0,0.3720317587299325,[29200|0|0]
29200,1.6951797008514404,1.1758283376693726,-0.043018534779548645,0.456491619348526,0.7601516842842102,-0.6038582921028137,4.12109375,0,"['A1', 'F1', 'E2']",7.6,90,0,0.3726310705854025,[29300|0|0]
29300,1.6946848630905151,1.1761270761489868,-0.04301410913467407,0.4031260907649994,0.7350309491157532,-0.6231763958930969,4.12109375,0,"['A1', 'F1', 'E2']",7.6,90,0,0.3732091092304535,[29400|0|0]
29400,1.694942831993103,1.176140308380127,-0.04312393441796303,0.4158998727798462,0.7322317361831665,-0.6227134466171265,4.12109375,0,"['A1', 'F1', 'E2']",7.6,90,0,0.3734897952463019,[29500|0|0]
29500,1.6949248313903809,1.1758933067321777,-0.042980022728443146,0.4270821809768677,0.7382311224937439,-0.628058135509491,4.12109375,0,"['A1', 'F1', 'E2']",7.6,90,0,0.37377622920058884,[29600|0|0]
29600,1.6948163509368896,1.1759525537490845,-0.043013956397771835,0.43086785078048706,0.7433326840400696,-0.6022853255271912,4.12109375,0,"['A1', 'F1', 'E2']",7.6,90,0,0.3739044076376058,[29700|0|0]
29700,1.6951740980148315,1.1764930486679077,-0.04301456734538078,0.4193808436393738,0.7371676564216614,-0.6376598477363586,4.12109375,0,"['A1', 'F1', 'E2']",7.6,90,0,0.37455257281894977,[29800|0|0]
29800,1.69477117061615,1.176269769668579,-0.04311724379658699,0.431818425655365,0.7482924461364746,-0.6591652631759644,4.12109375,0,"['A1', 'F1', 'E2']",7.6,90,0,0.3750245330437377,[29900|0|0]
29900,1.6945611238479614,1.1760778427124023,-0.04306643456220627,0.44208788871765137,0.7542001605033875,-0.6595316529273987,4.12109375,0,"['A1', 'F1', 'E2']",7.6,90,0,0.37531356103482516,[30000|0|0]
30000,1.6949388980865479,1.1758838891983032,-0.04308435693383217,0.4458311200141907,0.7495270371437073,-0.6579710841178894,4.12109375,0,"['A1', 'F1', 'E2']",7.6,90,0,0.3757385934481487,[30100|0|0]
30100,1.6947592496871948,1.1756746768951416,-0.0433797687292099,0.45586642622947693,0.764079213142395,-0.6573594808578491,4.12109375,0,"['A1', 'F1', 'E2']",7.6,90,0,0.37614271157943285,[30200|0|0]
30200,1.6948195695877075,1.1754579544067383,-0.043222904205322266,0.46823301911354065,0.7636213898658752,-0.663364052772522,4.12109375,0,"['C1', 'F1', 'J1']",7.6,90,0,0.3764169625707384,[30200|0|0]
