time.ms,stateEstimate.x,stateEstimate.y,stateEstimate.z,stabilizer.roll,stabilizer.pitch,stabilizer.yaw,pm.vbat,drone_id,node_name,wind_speed,global_wind_direction,relative_wind_direction,travel_dist,waiting_time,curr_node_role
0,0.6533000469207764,0.3965362310409546,0.0,-0.3387800455093384,0.6094351410865784,1.1791106462478638,4.09765625,0,F2,7.6,90,270.0,0.0,[6200|0|0|0],start
100,0.6536259651184082,0.3968251049518585,0.0,-0.349883496761322,0.6119141578674316,1.1817219257354736,4.09765625,0,F2,7.6,90,270.0,0.0004355121214713,[6300|0|0|0],start
200,0.6535449624061584,0.3967550992965698,0.0,-0.3492445647716522,0.6094555854797363,1.1935616731643677,4.09765625,0,F2,7.6,90,270.0,0.0005425739314888,[6400|0|0|0],start
300,0.6534923315048218,0.3969437181949615,0.0,-0.3533608019351959,0.6140421032905579,1.213274598121643,4.09765625,0,F2,7.6,90,270.0,0.0007383980888494,[6500|0|0|0],start
400,0.6535022258758545,0.3969866931438446,0.0,-0.349195659160614,0.6178390979766846,1.192908763885498,4.09765625,0,F2,7.6,90,270.0,0.0007824973497235,[6600|0|0|0],start
500,0.6529826521873474,0.397000789642334,0.0,-0.3451701402664184,0.6305531859397888,1.1995999813079834,2.9296875,0,fly,7.6,90,270.0,0.0013022622283547,[6600|0|0|0],fly
600,0.6534497737884521,0.3973490297794342,0.0,0.6729156970977783,-0.4448229670524597,1.3159723281860352,3.140625,0,fly,7.6,90,270.0,0.0018849060160211,[6600|0|0|0],fly
700,0.6599277853965759,0.3921404480934143,0.0,15.1719388961792,-12.692211151123049,5.785838603973389,3.541015625,0,fly,7.6,90,270.0,0.0101971835363478,[6600|0|0|0],fly
800,0.6835449934005737,0.3603749573230743,0.0195994153618812,19.40656852722168,-21.61372947692871,11.614645957946776,3.5,0,fly,7.6,90,270.0,0.0543668111135891,[6600|0|0|0],fly
900,0.7562217116355896,0.321505606174469,0.0514909997582435,-0.1398214548826217,-13.386208534240724,11.205533981323242,3.373046875,0,fly,7.6,90,270.0,0.1427399121536441,[6600|0|0|0],fly
1000,0.8356977105140686,0.2877119183540344,0.0962133184075355,-16.36092758178711,16.053508758544922,12.768632888793944,3.3515625,0,fly,7.6,90,270.0,0.2399949044142258,[6600|0|0|0],fly
1100,0.8756499290466309,0.2837666869163513,0.1420653313398361,-18.42648696899414,25.237279891967773,11.07198715209961,3.3515625,0,fly,7.6,90,270.0,0.3009387450112407,[6600|0|0|0],fly
1200,0.8668007254600525,0.3044321537017822,0.1902373731136322,-4.136984825134277,21.939918518066406,3.926216125488281,3.341796875,0,fly,7.6,90,270.0,0.3540980859611887,[6600|0|0|0],fly
1300,0.8177707195281982,0.3323160111904144,0.2478660941123962,0.6298894286155701,11.027776718139648,-1.1065759658813477,3.345703125,0,fly,7.6,90,270.0,0.434736293245809,[6600|0|0|0],fly
1400,0.75114905834198,0.358083039522171,0.3201823532581329,2.33217191696167,-2.4260473251342773,-4.698256492614746,3.419921875,0,fly,7.6,90,270.0,0.5363828712752446,[6600|0|0|0],fly
1500,0.6910493969917297,0.3809324502944946,0.4030846357345581,3.441542148590088,-9.08161449432373,-6.025055885314941,3.37890625,0,fly,7.6,90,270.0,0.6412964228634839,[6600|0|0|0],fly
1600,0.649077296257019,0.3960089087486267,0.4925982654094696,5.307192802429199,-11.27603530883789,-5.472818374633789,3.37890625,0,fly,7.6,90,270.0,0.7413046562104493,[6600|0|0|0],fly
1700,0.630142867565155,0.3995711207389831,0.5874572992324829,4.619894027709961,-10.702068328857422,-7.124706745147705,3.3828125,0,fly,7.6,90,270.0,0.8381005148098083,[6600|0|0|0],fly
1800,0.6295560598373413,0.3965169787406921,0.6877204775810242,0.1134284362196922,-7.537166118621826,-9.94959545135498,3.416015625,0,fly,7.6,90,270.0,0.9384119152546556,[6600|0|0|0],fly
1900,0.640692949295044,0.3932248950004577,0.7924264073371887,2.084209680557251,-2.4890365600585938,-9.924238204956056,3.388671875,0,fly,7.6,90,270.0,1.0437599092946406,[6600|0|0|0],fly
2000,0.6538559794425964,0.3893933296203613,0.897463858127594,2.39694881439209,-0.0319580882787704,-8.159116744995117,3.416015625,0,fly,7.6,90,270.0,1.1496882450904706,[6600|0|0|0],fly
2100,0.6648794412612915,0.3835687339305877,1.0025547742843628,2.6212193965911865,1.500115990638733,-6.23626184463501,3.462890625,0,fly,7.6,90,270.0,1.255516139731187,[6600|0|0|0],fly
2200,0.672924280166626,0.3737154603004455,1.1079869270324707,2.158860683441162,1.7029792070388794,-4.170911312103272,3.431640625,0,fly,7.6,90,270.0,1.361712868811435,[6600|0|0|0],fly
2300,0.6778966784477234,0.3584259152412414,1.2149778604507446,1.5064398050308228,1.719306468963623,-2.6107311248779297,3.39453125,0,fly,7.6,90,270.0,1.4699050809456586,[6600|0|0|0],fly
2400,0.6817298531532288,0.3400464355945587,1.3225244283676147,0.2524996697902679,0.7645509839057922,-1.7247687578201294,3.37890625,0,fly,7.6,90,270.0,1.5790781672403298,[6600|0|0|0],fly
2500,0.6830317974090576,0.3227126002311706,1.4184433221817017,-1.1324516534805298,0.703474760055542,1.2491518259048462,3.388671875,0,fly,7.6,90,270.0,1.6765594018332934,[6600|0|0|0],fly
2600,0.6824422478675842,0.306713193655014,1.5246801376342771,-1.9996455907821653,-0.2272485494613647,4.713089466094971,3.3984375,0,fly,7.6,90,270.0,1.783995846008236,[6600|0|0|0],fly
2700,0.6746060848236084,0.2997233271598816,1.6255857944488523,-2.8415892124176025,-0.8979377150535583,2.051568031311035,3.5,0,fly,7.6,90,270.0,1.885446401758574,[6600|0|0|0],fly
2800,0.6699052453041077,0.2997433245182037,1.7211456298828125,-2.613066911697388,-0.6731166243553162,-0.25232595205307,3.568359375,0,fly,7.6,90,270.0,1.9811217927441769,[6600|0|0|0],fly
2900,0.6654874086380005,0.3030847907066345,1.8006362915039062,-2.098019599914551,-0.96933513879776,-1.532073140144348,3.578125,0,fly,7.6,90,270.0,2.0608052161273127,[6600|0|0|0],fly
3000,0.6620764136314392,0.3075607717037201,1.8613461256027224,-1.3205631971359253,-0.6771458387374878,-1.9867031574249268,3.515625,0,fly,7.6,90,270.0,2.121775317399386,[6600|0|0|0],fly
3100,0.6598594784736633,0.3118397891521454,1.9057422876358032,-0.6127702593803406,-1.1517900228500366,-2.501455545425415,3.484375,0,fly,7.6,90,270.0,2.1664322764884827,[6600|0|0|0],fly
3200,0.6591407060623169,0.3148893117904663,1.9340637922286987,0.0435227043926715,-1.3408169746398926,-2.599182367324829,3.435546875,0,fly,7.6,90,270.0,2.194926553887749,[6600|0|0|0],fly
3300,0.6620312929153442,0.3146200776100158,1.9510425329208367,0.2184733003377914,-1.2594974040985107,-2.6395061016082764,3.3828125,0,fly,7.6,90,270.0,2.212151698731544,[6600|0|0|0],fly
3400,0.6694909334182739,0.3089171946048736,1.9610991477966309,-0.1974614858627319,-0.3991400003433227,-2.9785330295562744,3.388671875,0,fly,7.6,90,270.0,2.2259105000515467,[6600|0|0|0],fly
3500,0.6808577179908752,0.2977663576602936,1.9665429592132568,-2.224323272705078,-0.4947632551193237,-3.6027538776397705,3.7109375,0,fly,7.6,90,2.0,2.242738454140631,[6600|0|0|0],fly
3600,0.7119162678718567,0.2646504342556,1.965230226516724,-14.677440643310549,0.1852477341890335,0.2408692985773086,3.63671875,0,fly,7.6,90,2.0,2.288158946991188,[6600|0|0|0],fly
3700,0.762699544429779,0.2440743446350097,1.9624934196472168,-15.953606605529783,0.226963385939598,6.37551212310791,3.55859375,0,fly,7.6,90,2.0,2.3430206527054107,[6600|0|0|0],fly
3800,0.7721561193466187,0.2728301584720611,1.8991719484329224,-17.172277450561523,5.621328830718994,2.6781928539276123,3.341796875,0,fly,7.6,90,2.0,2.413205639385837,[6600|0|0|0],fly
3900,0.7717539668083191,0.3202205002307892,1.821710228919983,-13.948657989501951,5.155849933624268,-0.6880863308906555,3.2734375,0,fly,7.6,90,2.0,2.504014913188541,[6600|0|0|0],fly
4000,0.7290138006210327,0.3999153673648834,1.740015745162964,-7.687227249145508,5.218731880187988,-2.231133222579956,3.2890625,0,fly,7.6,90,2.0,2.6258836225833795,[6600|0|0|0],fly
4100,0.709653377532959,0.465506911277771,1.669251799583435,-0.3612009286880493,-0.668766975402832,-5.809996128082275,3.283203125,0,fly,7.6,90,2.0,2.7242940519544985,[6600|0|0|0],fly
4200,0.6831907629966736,0.5493612289428711,1.6236084699630735,3.769762516021729,-3.216395139694214,-4.469228267669678,3.298828125,0,fly,7.6,90,2.0,2.823365390382969,[6600|0|0|0],fly
4300,0.6637085676193237,0.6253155469894409,1.5991477966308594,6.7900590896606445,-5.255871295928955,-3.160792350769043,3.357421875,0,fly,7.6,90,2.0,2.9055051426744507,[6600|0|0|0],fly
4400,0.6514661312103271,0.6869620680809021,1.588571548461914,8.315549850463867,-4.036448955535889,-2.1702897548675537,3.37890625,0,fly,7.6,90,2.0,2.969239182537301,[6600|0|0|0],fly
4500,0.6457641124725342,0.7324493527412415,1.5856008529663086,8.432538032531738,-3.667710304260254,-1.2474364042282104,3.3984375,0,fly,7.6,90,2.0,3.01517861130154,[6600|0|0|0],fly
4600,0.644750714302063,0.7622528672218323,1.5853945016860962,7.304325103759766,-2.7586348056793213,-0.7878856062889099,3.3828125,0,fly,7.6,90,2.0,3.0450000638499573,[6600|0|0|0],fly
4700,0.6476743221282959,0.7787530422210693,1.5838265419006348,5.696948051452637,-1.8650033473968504,-0.8366538286209106,3.36328125,0,fly,7.6,90,2.0,3.0618304457712293,[6600|0|0|0],fly
4800,0.6517894268035889,0.787112295627594,1.5802216529846191,3.951651096343994,-1.2940268516540527,-0.915791630744934,3.345703125,0,fly,7.6,90,2.0,3.071820762487927,[6600|0|0|0],fly
4900,0.660948634147644,0.7906611561775208,1.5785422325134275,2.125943183898926,-0.7439858913421631,-2.0017073154449463,3.416015625,0,fly,7.6,90,2.0,3.0817859992384147,[6600|0|0|0],fly
5000,0.6618544459342957,0.7959102988243103,1.5672744512557983,2.279397964477539,-0.0492563657462596,-1.6762924194335938,3.3671875,0,fly,7.6,90,2.0,3.0942494212399745,[6600|0|0|0],fly
5100,0.6622018814086914,0.7988216876983643,1.551627278327942,2.321541547775269,0.0749147683382034,-0.8588007688522339,3.2890625,0,fly,7.6,90,2.0,3.1101689349643027,[6600|0|0|0],fly
5200,0.6581964492797852,0.7961199283599854,1.530758023262024,2.432344913482666,-0.9561594128608704,-0.2014869451522827,3.2734375,0,fly,7.6,90,2.0,3.131590158016877,[6600|0|0|0],fly
5300,0.6595709919929504,0.7900587916374207,1.51682448387146,1.4775344133377075,-1.62901771068573,0.6984071135520935,3.2890625,0,fly,7.6,90,2.0,3.146846968495753,[6600|0|0|0],fly
5400,0.6661620736122131,0.780038595199585,1.5114259719848633,0.5901675820350647,-1.4028698205947876,1.21613872051239,3.3984375,0,fly,7.6,90,2.0,3.159999558512716,[6600|0|0|0],fly
5500,0.6725860238075256,0.7744134068489075,1.5072685480117798,-0.494062066078186,-0.0106833316385746,1.246068835258484,3.3671875,0,fly,7.6,90,2.0,3.16949661353964,[6600|0|0|0],fly
5600,0.6756966710090637,0.766768753528595,1.4974666833877563,0.0410369932651519,0.6612799763679504,2.300096273422241,3.37890625,0,fly,7.6,90,2.0,3.1823104108108584,[6600|0|0|0],fly
5700,0.6783801317214966,0.7569078803062439,1.483872890472412,0.1990450769662857,0.1920566111803054,2.973348617553711,3.357421875,0,fly,7.6,90,2.0,3.199317144416337,[6600|0|0|0],fly
5800,0.6796843409538269,0.7472295761108398,1.4690451622009275,-0.5627766251564026,-0.4376546740531921,2.733823299407959,3.314453125,0,fly,7.6,90,2.0,3.217071920098205,[6600|0|0|0],fly
5900,0.6835381984710693,0.7358136177062988,1.4575722217559814,-1.4925366640090942,-0.7920553088188171,2.898122787475586,3.3671875,0,fly,7.6,90,2.0,3.233709368415501,[6600|0|0|0],fly
6000,0.6875417232513428,0.7275216579437256,1.4482817649841309,-1.751699447631836,-1.0654051303863523,2.720149278640747,3.373046875,0,fly,7.6,90,2.0,3.246789788683979,[6600|0|0|0],fly
6100,0.6926509141921997,0.7217568159103394,1.441142439842224,-2.022681713104248,-0.9701023697853088,2.7178940773010254,3.3984375,0,fly,7.6,90,2.0,3.2572925121032594,[6600|0|0|0],fly
6200,0.6996966004371643,0.7185020446777344,1.4341940879821775,-0.7264735698699951,-0.867948591709137,2.8935482501983643,3.373046875,0,fly,7.6,90,2.0,3.2677095569822106,[6600|0|0|0],fly
6300,0.706685483455658,0.7169668674468994,1.426092267036438,-0.7071303129196167,0.3938156366348266,1.7971112728118896,3.29296875,0,fly,7.6,90,2.0,3.278518847320299,[6600|0|0|0],fly
6400,0.7137541770935059,0.7146992087364197,1.4186642169952393,-0.1074841767549514,0.5867331027984619,1.2163652181625366,3.330078125,0,fly,7.6,90,2.0,3.289020496390208,[6600|0|0|0],fly
6500,0.7195813059806824,0.7134702801704407,1.4127802848815918,-0.2172705978155136,0.5804403424263,1.7456456422805786,3.806640625,0,fly,7.6,90,270.0,3.2973922556799904,[6600|0|0|0],fly
6600,0.7252892255783081,0.7098037600517273,1.393388748168945,-0.902864933013916,1.249184489250183,1.2317626476287842,3.83203125,0,fly,7.6,90,270.0,3.317936242926672,[6600|0|0|0],fly
6700,0.7293009161949158,0.7076988220214844,1.3356459140777588,-1.0763661861419678,1.46557879447937,1.3554834127426147,3.705078125,0,fly,7.6,90,270.0,3.3758565270644145,[6600|0|0|0],fly
6800,0.7318383455276489,0.7043558955192566,1.23647940158844,-1.2006208896636963,1.5843791961669922,1.695286750793457,3.3828125,0,fly,7.6,90,270.0,3.475111808558712,[6600|0|0|0],fly
6900,0.7314726710319519,0.7019662261009216,1.1122664213180542,-1.410741686820984,0.629934549331665,0.9823248982429504,3.283203125,0,fly,7.6,90,270.0,3.599348311670385,[6600|0|0|0],fly
7000,0.7311522364616394,0.7002855539321899,0.980080783367157,-0.7683475017547607,-0.1593383848667144,0.2426680773496627,3.2890625,0,fly,7.6,90,270.0,3.731545021983987,[6600|0|0|0],fly
7100,0.7311965823173523,0.6996076703071594,0.8484066128730774,0.1883897632360458,-0.3095419108867645,0.0626989752054214,3.3671875,0,fly,7.6,90,270.0,3.863220944870701,[6600|0|0|0],fly
7200,0.7310494780540466,0.7007160782814026,0.7200136184692383,-1.4763034582138062,-0.872909426689148,0.1872963309288025,3.330078125,0,fly,7.6,90,270.0,3.991618807858704,[6600|0|0|0],fly
7300,0.7340533137321472,0.7027988433837891,0.5934779644012451,0.3189487755298614,0.1894213557243347,1.5972460508346558,3.310546875,0,fly,7.6,90,270.0,4.118207246073525,[6600|0|0|0],fly
7400,0.7376224994659424,0.7057149410247803,0.4700250923633575,-0.0264329817146062,-0.2163878679275512,1.2482566833496094,3.224609375,0,fly,7.6,90,270.0,4.241746123867753,[6600|0|0|0],fly
7500,0.7408007979393005,0.7112932801246643,0.356310486793518,0.4417542815208435,1.3107270002365112,-0.7998411655426025,3.251953125,0,fly,7.6,90,270.0,4.355641826017585,[6600|0|0|0],fly
7600,0.7431115508079529,0.7157102823257446,0.2649852335453033,1.0534205436706543,0.2698669731616974,-4.81929874420166,3.2578125,0,fly,7.6,90,270.0,4.4471030274535766,[6600|0|0|0],fly
7700,0.743740439414978,0.7202117443084717,0.1956182867288589,2.214822292327881,1.48009192943573,-9.219902992248535,3.3203125,0,fly,7.6,90,270.0,4.516618723317873,[6600|0|0|0],fly
7800,0.7412370443344116,0.7217535972595215,0.1457149535417556,1.821625709533692,2.091531991958618,-11.154533386230469,3.283203125,0,fly,7.6,90,270.0,4.566608591897768,[6600|0|0|0],fly
7900,0.7354065179824829,0.7221276760101318,0.110579527914524,0.8401219248771667,-0.4266369044780731,-11.0193510055542,3.26171875,0,fly,7.6,90,270.0,4.6022264681182685,[6600|0|0|0],fly
8000,0.7292851209640503,0.7209029197692871,0.0884952172636985,0.9839510321617126,-0.5400547385215759,-9.904337882995604,3.3046875,0,fly,7.6,90,270.0,4.6251761588837,[6600|0|0|0],fly
8100,0.725512683391571,0.7185776829719543,0.0791469439864158,-0.4063326716423034,-1.8137749433517456,-8.560815811157227,3.326171875,0,fly,7.6,90,270.0,4.635521603517387,[6600|0|0|0],fly
8200,0.7252208590507507,0.7167152762413025,0.0800622701644897,-0.4612753689289093,-1.7480794191360474,-7.00833797454834,3.345703125,0,fly,7.6,90,270.0,4.637617204216122,[6600|0|0|0],fly
8300,0.7291863560676575,0.716414213180542,0.0869087874889373,-2.1827285289764404,-2.3900394439697266,-4.885763168334961,3.39453125,0,fly,7.6,90,270.0,4.645534944110285,[6600|0|0|0],fly
8400,0.7369508743286133,0.720844566822052,0.0922689214348793,-1.0173017978668213,-0.7688935995101929,-2.6367876529693604,3.345703125,0,fly,7.6,90,270.0,4.655958322311808,[6600|0|0|0],fly
8500,0.7477448582649231,0.7268737554550171,0.09570924192667,1.3121429681777954,1.2663346529006958,-2.260941982269287,3.326171875,0,fly,7.6,90,270.0,4.668791755596609,[6600|0|0|0],fly
8600,0.7563972473144531,0.7322245836257935,0.0990638434886932,2.0239250659942627,3.0772833824157715,-3.2469756603240967,3.357421875,0,fly,7.6,90,270.0,4.679503830559824,[6600|0|0|0],fly
8700,0.7600353956222534,0.7333190441131592,0.1034513115882873,3.1417181491851807,2.283453941345215,-4.978063583374023,3.36328125,0,fly,7.6,90,270.0,4.685307608914733,[6600|0|0|0],fly
8800,0.7579236030578613,0.7297437787055969,0.1088360026478767,1.982694149017334,1.2772927284240725,-7.339247226715088,3.345703125,0,fly,7.6,90,270.0,4.692107394821418,[6600|0|0|0],fly
8900,0.753641664981842,0.7225160002708435,0.1113084256649017,-0.0942692533135414,-0.3209063112735748,-9.402135848999023,3.345703125,0,fly,7.6,90,270.0,4.700864600446723,[6600|0|0|0],fly
9000,0.7478956580162048,0.7150307893753052,0.1118809655308723,0.6212009191513062,1.7714054584503174,-10.230953216552734,3.341796875,0,fly,7.6,90,270.0,4.710318318239103,[6600|0|0|0],fly
9100,0.7391679883003235,0.7077019810676575,0.1099623665213584,-1.2497541904449463,0.2915630042552948,-9.835634231567385,3.283203125,0,fly,7.6,90,270.0,4.721875336541375,[6600|0|0|0],fly
9200,0.7296332120895386,0.7035108208656311,0.1083306595683097,-1.463070034980774,-1.0710831880569458,-8.487680435180664,3.310546875,0,fly,7.6,90,270.0,4.7324176441070565,[6600|0|0|0],fly
9300,0.7210963368415833,0.7034351825714111,0.109392873942852,-1.4790903329849243,-1.0624018907546997,-7.145455360412598,3.298828125,0,fly,7.6,90,270.0,4.741020681915191,[6600|0|0|0],fly
9400,0.7155092358589172,0.7064108848571777,0.1114132180809974,-0.6706233024597168,-1.5012431144714355,-5.286538600921631,3.298828125,0,fly,7.6,90,270.0,4.747665401015391,[6600|0|0|0],fly
9500,0.7124817371368408,0.7123571038246155,0.1119182184338569,0.812741756439209,-1.8993979692459104,-3.961902141571045,3.326171875,0,F1,7.6,90,270.0,4.754357059545029,[6600|0|100|0],second_intermediate
9600,0.7136783599853516,0.7180566191673279,0.1127784773707389,1.711753010749817,-1.9971998929977417,-2.775964736938477,3.29296875,0,F1,7.6,90,270.0,4.760244030482776,[6600|0|200|0],second_intermediate
9700,0.7190874218940735,0.7213766574859619,0.117199532687664,1.832894206047058,-0.4504668414592743,-0.3078912496566772,3.3359375,0,F1,7.6,90,270.0,4.767978779042678,[6600|0|300|0],second_intermediate
9800,0.7250620722770691,0.7221993803977966,0.1234944462776184,1.5873336791992188,0.3914749324321747,2.467179775238037,3.357421875,0,F1,7.6,90,270.0,4.776696534332526,[6600|0|400|0],second_intermediate
9900,0.7312685251235962,0.7207024693489075,0.1278952658176422,1.1532135009765625,-0.1223039478063583,3.84453010559082,3.3671875,0,F1,7.6,90,270.0,4.784450759777295,[6600|0|500|0],second_intermediate
10000,0.7379363775253296,0.7182505130767822,0.1296649128198623,0.49978768825531,-0.2061975747346878,3.8748860359191895,3.326171875,0,F1,7.6,90,270.0,4.791772234746465,[6600|0|600|0],second_intermediate
10100,0.7445038557052612,0.7155891060829163,0.1300415992736816,0.4861365556716919,0.8128724694252014,3.20172119140625,3.3203125,0,F1,7.6,90,270.0,4.798868483721478,[6600|0|700|0],second_intermediate
10200,0.7493681311607361,0.7129383087158203,0.1293047964572906,-0.5102444887161255,1.2140846252441406,1.6870450973510742,3.3359375,0,F1,7.6,90,270.0,4.804456934381399,[6600|0|800|0],second_intermediate
10300,0.751643180847168,0.7102410793304443,0.1281231045722961,-0.6521527767181396,-0.1830057203769683,-0.0832127332687377,3.388671875,0,F1,7.6,90,270.0,4.808178129504492,[6600|0|900|0],second_intermediate
10400,0.7610521912574768,0.7244514226913452,0.138438269495964,-1.0094759464263916,0.5069169402122498,-2.700643539428711,3.37890625,0,F1,7.6,90,270.0,4.8280996244970495,[6600|0|1000|0],second_intermediate
10500,0.757438063621521,0.7215487360954285,0.1363848447799682,-0.6732950806617737,0.7285080552101135,-4.237450122833252,3.345703125,0,F1,7.6,90,270.0,4.833169541765344,[6600|0|1100|0],second_intermediate
10600,0.7488996386528015,0.7174558043479919,0.1339803785085678,2.4719467163085938,1.1411768198013306,-3.38653302192688,3.3671875,0,F1,7.6,90,270.0,4.8429387919559135,[6600|0|1200|0],second_intermediate
10700,0.7365292906761169,0.7089062929153442,0.1302153170108795,0.9270647168159484,0.1310546398162841,-2.3376827239990234,3.330078125,0,F1,7.6,90,270.0,4.85844025456054,[6600|0|1300|0],second_intermediate
10800,0.7237074971199036,0.6968546509742737,0.129431203007698,-0.1537069380283355,-1.7862062454223633,-0.8485358357429504,3.3515625,0,F1,7.6,90,270.0,4.87605431991309,[6600|0|1400|0],second_intermediate
10900,0.7118181586265564,0.6837595701217651,0.1300063580274582,0.5118434429168701,0.3514453470706939,1.3443207740783691,3.37890625,0,F1,7.6,90,270.0,4.893750882167942,[6600|0|1500|0],second_intermediate
11000,0.7009490728378296,0.670482337474823,0.1326294839382171,-0.5130792260169983,-0.7232723236083984,1.7861814498901367,3.3984375,0,F1,7.6,90,270.0,4.911108955856789,[6600|0|1600|0],second_intermediate
11100,0.6895979642868042,0.6571410298347473,0.1349570751190185,0.0329704843461513,0.3522315919399261,1.6935620307922363,3.388671875,0,F1,7.6,90,270.0,4.928779718024541,[6600|0|1700|0],second_intermediate
11200,0.6769199967384338,0.6432176828384399,0.1363440454006195,0.4936816692352295,0.0186651591211557,1.919735074043274,3.36328125,0,F1,7.6,90,270.0,4.947661300037157,[6600|0|1800|0],second_intermediate
11300,0.6633884310722351,0.627776563167572,0.1352798193693161,-0.4973458647727966,-0.6454448103904724,2.169133424758911,3.330078125,0,F1,7.6,90,270.0,4.968220094338244,[6600|0|1900|0],second_intermediate
11400,0.6498307585716248,0.6114155650138855,0.1338739097118377,0.2457432299852371,-0.9977425336837769,1.4018081426620483,3.3671875,0,F1,7.6,90,270.0,4.989514913571657,[6600|0|2000|0],second_intermediate
11501,0.63941890001297,0.5958819389343262,0.112103097140789,-6.881847381591797,-3.498950481414795,-3.369325876235962,3.96875,0,F1,7.6,90,270.0,5.018214541057545,[6600|0|2100|0],second_intermediate
11601,0.6333349943161011,0.5841406583786011,0.0318676009774208,-22.469575881958008,-8.843439102172852,-14.363275527954102,3.974609375,0,F1,7.6,90,270.0,5.09953247525535,[6600|0|2200|0],second_intermediate
11701,0.6220178604125977,0.572569727897644,0.0,-6.543323040008545,6.952203273773193,-14.317940711975098,3.974609375,0,F1,7.6,90,270.0,5.135274718386428,[6600|0|2300|0],second_intermediate
11801,0.6179371476173401,0.5728503465652466,0.0,-2.5981485843658447,0.9570344090461732,-9.586254119873049,3.98046875,0,F1,7.6,90,270.0,5.139365068463619,[6600|0|2400|0],second_intermediate
11901,0.618762731552124,0.5736501812934875,0.0,-2.517483949661255,0.7598594427108765,-9.264202117919922,3.98046875,0,F1,7.6,90,270.0,5.1405145572308,[6600|0|2500|0],second_intermediate
12001,0.6187654137611389,0.5740644931793213,0.0,-2.409026861190796,0.6233931183815002,-9.020330429077148,3.984375,0,F1,7.6,90,270.0,5.140928877798704,[6600|0|2600|0],second_intermediate
12101,0.6191246509552002,0.5738177299499512,0.0,-2.2688088417053223,0.4910258054733276,-8.826419830322266,3.984375,0,F1,7.6,90,270.0,5.141364702824335,[6600|0|2700|0],second_intermediate
12201,0.619048535823822,0.5740809440612793,0.0,-2.13998818397522,0.4022613763809204,-8.682108879089355,3.984375,0,F1,7.6,90,270.0,5.141638701330949,[6600|0|2800|0],second_intermediate
12301,0.6191127300262451,0.5742485523223877,0.0,-2.0098876953125,0.3201744854450226,-8.549782752990723,3.984375,0,F1,7.6,90,270.0,5.141818182318289,[6600|0|2900|0],second_intermediate
12401,0.6193088889122009,0.5737574100494385,0.0,-1.8606685400009155,0.2553720772266388,-8.448343276977539,3.990234375,0,F1,7.6,90,270.0,5.142347048124347,[6600|0|3000|0],second_intermediate
12500,0.6205955743789673,0.5753801465034485,0.0,-1.3477791547775269,-0.109266884624958,-9.08112335205078,3.990234375,0,F1,7.6,90,270.0,5.144417997928075,[6600|0|3100|0],second_intermediate
12600,0.6197237372398376,0.6035022735595703,0.0,-0.7163097858428955,-0.7703287601470947,-10.868967056274414,3.990234375,0,F1,7.6,90,270.0,5.172553636007881,[6600|0|3200|0],second_intermediate
12700,0.6358799934387207,0.6501550078392029,0.0,-3.1073155403137207,3.835624933242798,-23.01436233520508,3.99609375,0,F1,7.6,90,270.0,5.221924702738608,[6600|0|3300|0],second_intermediate
12800,0.6947106122970581,0.7315665483474731,0.0348502285778522,2.515519857406616,9.11756992340088,-28.858991622924805,3.99609375,0,F1,7.6,90,270.0,5.328242241626194,[6600|0|3400|0],second_intermediate
12900,0.7314440011978149,0.834842324256897,0.0332716517150402,4.644379615783691,10.767861366271973,-12.546629905700684,3.99609375,0,F1,7.6,90,270.0,5.437867602080514,[6600|0|3500|0],second_intermediate
13000,0.5978901982307434,0.9483185410499572,0.0133029595017433,-5.130321979522705,8.102910041809082,8.539755821228027,4.0,0,F1,7.6,90,270.0,5.614254162604105,[6600|0|3600|0],second_intermediate
13101,0.5459061861038208,1.02252197265625,0.0103955389931797,-7.119965553283691,0.8827371597290039,18.770023345947266,4.0,0,F1,7.6,90,270.0,5.704901500529581,[6600|0|3700|0],second_intermediate
13201,0.6121054291725159,0.9726360440254213,0.0,-4.7028117179870605,-0.4912327826023102,24.85451316833496,4.0,0,F1,7.6,90,270.0,5.788441987056696,[6600|0|3800|0],second_intermediate
13300,0.578458845615387,1.0330729484558103,0.0,-3.707650661468506,-1.8727062940597528,28.221908569335938,4.0,0,F1,7.6,90,270.0,5.8576135997471255,[6600|0|3900|0],second_intermediate
13400,0.5488126277923584,1.0874649286270142,0.0,-3.958022594451904,-1.786596655845642,25.1794490814209,4.0,0,F1,7.6,90,270.0,5.919560235960524,[6600|0|4000|0],second_intermediate
13500,0.525057315826416,1.1327338218688965,0.0,-4.035886287689209,-0.8188730478286743,17.20075225830078,4.0,0,F1,7.6,90,270.0,5.97068349428728,[6600|0|4100|0],second_intermediate
13600,0.7453963160514832,0.761078417301178,0.0,-1.6956321001052856,-0.8381578922271729,8.858317375183105,4.0,0,F1,7.6,90,270.0,6.40274484961147,[6600|0|4200|0],second_intermediate
13700,0.7460934519767761,0.764666736125946,0.0,-2.182422637939453,-0.8459281921386719,3.357414960861206,4.0078125,0,F1,7.6,90,270.0,6.406400260735615,[6600|0|4300|0],second_intermediate
13800,0.7462284564971924,0.7655735611915588,0.0,-2.2052478790283203,-0.9707112312316896,-0.0173564776778221,4.04296875,0,F1,7.6,90,270.0,6.407317080194481,[6600|0|4400|0],second_intermediate
13900,0.7466626763343811,0.7663130760192871,0.0,-2.028480529785156,-1.0555380582809448,-2.2974424362182617,4.09765625,0,F1,7.6,90,270.0,6.408174651793497,[6600|0|4500|0],second_intermediate
14000,0.7468878626823425,0.7664963006973267,0.0,-1.7553726434707642,-1.1131727695465088,-3.8341550827026367,4.09765625,0,F1,7.6,90,270.0,6.408464962272038,[6600|0|4600|0],second_intermediate
14100,0.7473965287208557,0.7667469382286072,0.0,-1.4947474002838137,-1.1348997354507446,-4.947197914123535,4.1015625,0,F1,7.6,90,270.0,6.409032025152875,[6600|0|4700|0],second_intermediate
14200,0.7477628588676453,0.7669482827186584,0.0,-1.2346460819244385,-1.1564635038375854,-5.734626293182373,4.1015625,0,F1,7.6,90,270.0,6.409450041157498,[6600|0|4800|0],second_intermediate
14300,0.7482187747955322,0.7684940695762634,0.0,-1.0862189531326294,-1.1609355211257937,-6.272369384765625,4.09765625,0,F1,7.6,90,270.0,6.41106166032543,[6600|0|4900|0],second_intermediate
14400,0.7485108971595764,0.7681167125701904,0.0,-0.8107132315635681,-1.120040774345398,-6.628803253173828,4.1015625,0,F1,7.6,90,270.0,6.411538874937117,[6600|0|5000|0],second_intermediate
14500,0.7482241988182068,0.7677174806594849,0.0,-0.572526752948761,-1.07624089717865,-6.896632194519043,4.1015625,0,F1,7.6,90,270.0,6.412030384914096,[6600|0|5100|0],second_intermediate
14600,0.7480998635292053,0.7671961784362793,0.0,-0.3726251721382141,-1.0494898557662964,-7.077258586883545,4.1015625,0,F1,7.6,90,270.0,6.412566309602845,[6600|0|5200|0],second_intermediate
14700,0.7480266094207764,0.767192006111145,0.0,-0.2176989912986755,-1.013989806175232,-7.198602199554443,4.10546875,0,F1,7.6,90,270.0,6.412639682436365,[6600|0|5300|0],second_intermediate
14800,0.7480201721191406,0.7671142816543579,0.0,-0.0780540108680725,-0.9959184527397156,-7.314250469207764,4.10546875,0,F1,7.6,90,270.0,6.412717673012944,[6600|0|5400|0],second_intermediate
14900,0.7478691935539246,0.7668434977531433,0.0,-0.3561476767063141,-1.156599998474121,-7.415457248687744,4.10546875,0,F1,7.6,90,270.0,6.413027702766858,[6600|0|5500|0],second_intermediate
15000,0.7481406331062317,0.7665849924087524,0.0,-0.184777557849884,-1.1088390350341797,-7.4501214027404785,4.11328125,0,F1,7.6,90,270.0,6.413402541990573,[6600|0|5600|0],second_intermediate
15100,0.7483912110328674,0.7658922672271729,0.0,-0.0635735467076301,-1.0818004608154297,-7.53001070022583,4.11328125,0,F1,7.6,90,270.0,6.414139194876613,[6600|0|5700|0],second_intermediate
15200,0.748319685459137,0.7654212713241577,0.0,0.0226023979485034,-1.0485637187957764,-7.518161296844482,4.11328125,0,F1,7.6,90,270.0,6.414615590771174,[6600|0|5800|0],second_intermediate
15300,0.7484460473060608,0.7667088508605957,0.0,0.2048113793134689,-0.9087095260620116,-7.547016143798828,4.11328125,0,F1,7.6,90,270.0,6.415909355965872,[6600|0|5900|0],second_intermediate
15400,0.7476659417152405,0.7666487693786621,0.0,0.2488929331302642,-0.8644101619720459,-7.558572769165039,4.11328125,0,F1,7.6,90,270.0,6.416691771787095,[6600|0|6000|0],second_intermediate
15500,0.748099148273468,0.7655708193778992,0.0,0.268016368150711,-0.8609834313392639,-7.562035083770752,4.11328125,0,F1,7.6,90,270.0,6.417853513637179,[6600|0|6100|0],second_intermediate
15600,0.7479721903800964,0.7654423713684082,0.0,0.3047953248023987,-0.8674505949020386,-7.537642478942871,4.11328125,0,F1,7.6,90,270.0,6.4180341159567424,[6600|0|6200|0],second_intermediate
15700,0.748497486114502,0.7649956345558167,0.0,0.3086955845355987,-0.8895614147186279,-7.531996726989746,4.11328125,0,F1,7.6,90,270.0,6.4187236878444445,[6600|0|6300|0],second_intermediate
15800,0.7485052943229675,0.7650325894355774,0.0,0.2538003921508789,-0.8801645040512085,-7.535589218139648,4.11328125,0,F1,7.6,90,270.0,6.418761458616976,[6600|0|6400|0],second_intermediate
15900,0.7482803463935852,0.7650145292282104,0.0,0.3188261389732361,-0.8804788589477539,-7.539952278137207,4.1171875,0,F1,7.6,90,270.0,6.418987130374233,[6600|0|6500|0],second_intermediate
16000,0.7480400800704956,0.7649390697479248,0.0,0.3841307759284973,-0.9429834485054016,-7.554690837860107,4.1171875,0,F1,7.6,90,270.0,6.419238967701045,[6600|0|6600|0],second_intermediate
16100,0.7476915121078491,0.766535758972168,0.0,-0.0157023500651121,-1.1291812658309937,-7.545280456542969,4.1171875,0,F1,7.6,90,270.0,6.420873261463927,[6600|0|6700|0],second_intermediate
16200,0.7483088970184326,0.7659628987312317,0.0,0.0790625214576721,-1.1072207689285278,-7.56665563583374,4.1171875,0,F1,7.6,90,270.0,6.4217154805467445,[6600|0|6800|0],second_intermediate
16300,0.7483037710189819,0.7657046318054199,0.0,0.1221811547875404,-1.0815035104751587,-7.558337211608887,4.1171875,0,F1,7.6,90,270.0,6.421973798337147,[6600|0|6900|0],second_intermediate
16400,0.7478243708610535,0.7655110955238342,0.0,0.1558184623718261,-1.047905683517456,-7.539605617523193,4.12109375,0,F1,7.6,90,270.0,6.422490790410309,[6600|0|7000|0],second_intermediate
16500,0.7479543089866638,0.7653970122337341,0.0,0.1773069351911544,-1.044628024101257,-7.536946773529053,4.12109375,0,F1,7.6,90,270.0,6.422663703433436,[6600|0|7100|0],second_intermediate
16600,0.7479710578918457,0.7653281092643738,0.0,0.1919085681438446,-1.0366666316986084,-7.577452659606934,4.12109375,0,F1,7.6,90,270.0,6.42273461284756,[6600|0|7200|0],second_intermediate
16700,0.7479619383811951,0.7655750513076782,0.0,0.1892140060663223,-1.028892159461975,-7.592881202697754,4.12109375,0,F1,7.6,90,270.0,6.422981723224165,[6600|0|7300|0],second_intermediate
16800,0.7479909062385559,0.7655735611915588,0.0,0.1834502518177032,-1.0222440958023071,-7.593275547027588,4.12109375,0,F1,7.6,90,270.0,6.423010729382238,[6600|0|7400|0],second_intermediate
16900,0.7481753826141357,0.7654916644096375,0.0,0.1816901117563247,-1.033610224723816,-7.596034049987793,4.12109375,0,F1,7.6,90,270.0,6.423212567475858,[6600|0|7500|0],second_intermediate
17000,0.7479687929153442,0.7656167149543762,0.0,0.1779785454273224,-1.0326952934265137,-7.599208354949951,4.12109375,0,F1,7.6,90,270.0,6.42345405648676,[6600|0|7600|0],second_intermediate
17100,0.7479343414306641,0.7653605341911316,0.0,0.184846431016922,-1.0332549810409546,-7.591161251068115,4.12890625,0,F1,7.6,90,270.0,6.423712543407615,[6600|0|7700|0],second_intermediate
17200,0.7477936148643494,0.7657067179679871,0.0,0.1864036470651626,-1.025996208190918,-7.569735050201416,4.12890625,0,F1,7.6,90,270.0,6.424086237365052,[6600|0|7800|0],second_intermediate
17300,0.7478492259979248,0.7651764750480652,0.0,0.1894185245037078,-1.0408761501312256,-7.594284534454346,4.12109375,0,F1,7.6,90,270.0,6.424619388518389,[6600|0|7900|0],second_intermediate
17400,0.7478927373886108,0.7654288411140442,0.0,0.1743273586034774,-1.0453376770019531,-7.573582172393799,4.12890625,0,F1,7.6,90,270.0,6.424875478097203,[6600|0|8000|0],second_intermediate
17500,0.748288094997406,0.7655622959136963,0.0,0.158960685133934,-1.0515985488891602,-7.5684990882873535,4.12890625,0,F1,7.6,90,270.0,6.425292752374366,[6600|0|8100|0],second_intermediate
17600,0.7478058338165283,0.7657696008682251,0.0,0.1516806334257125,-1.0394046306610107,-7.580225467681885,4.12890625,0,F1,7.6,90,270.0,6.425817682075139,[6600|0|8200|0],second_intermediate
17700,0.7477087378501892,0.7658568024635315,0.0,0.1266074031591415,-1.0587228536605835,-7.579439163208008,4.12890625,0,F1,7.6,90,270.0,6.425948187802612,[6600|0|8300|0],second_intermediate
17800,0.7483119368553162,0.7654900550842285,0.0,0.2010800987482071,-1.058704137802124,-7.558768272399902,4.12890625,0,F1,7.6,90,270.0,6.426654128791655,[6600|0|8400|0],second_intermediate
17900,0.7479288578033447,0.7655424475669861,0.0,0.242633119225502,-1.019820213317871,-7.534622669219971,4.12890625,0,F1,7.6,90,270.0,6.427040774019621,[6600|0|8500|0],second_intermediate
18000,0.7480804920196533,0.7654508948326111,0.0,0.2694361805915832,-1.0053249597549438,-7.539766788482666,4.1328125,0,F1,7.6,90,270.0,6.42721790346022,[6600|0|8600|0],second_intermediate
18100,0.7475754022598267,0.765718936920166,0.0,0.2848582863807678,-0.9794020056724548,-7.53311014175415,4.1328125,0,F1,7.6,90,270.0,6.427789709569127,[6600|0|8700|0],second_intermediate
18200,0.7477636337280273,0.7653489112854004,0.0,0.3176259398460388,-0.9835020303726196,-7.554025650024414,4.1328125,0,F1,7.6,90,270.0,6.428204860211671,[6600|0|8800|0],second_intermediate
18300,0.7484078407287598,0.7639080286026001,0.0,0.316176027059555,-0.990911304950714,-7.574737548828125,4.1328125,0,F1,7.6,90,270.0,6.42978319654002,[6600|0|8900|0],second_intermediate
18400,0.7486302256584167,0.7651113271713257,0.0,0.2283452451229095,-1.0115443468093872,-7.5734663009643555,4.1328125,0,F1,7.6,90,270.0,6.431006872355927,[6600|0|9000|0],second_intermediate
18500,0.7485686540603638,0.7651671171188354,0.0,0.2948110699653625,-0.9685313105583192,-7.592244148254394,4.1328125,0,F1,7.6,90,270.0,6.431089960140408,[6600|0|9100|0],second_intermediate
18600,0.7481926083564758,0.765023946762085,0.0,0.3383780717849731,-0.9358174204826356,-7.578750133514404,4.1328125,0,F1,7.6,90,270.0,6.431492338224385,[6600|0|9200|0],second_intermediate
18700,0.7483655214309692,0.765062153339386,0.0,0.3405582308769226,-0.9548112154006958,-7.582647800445557,4.1328125,0,F1,7.6,90,270.0,6.431669422029064,[6600|0|9300|0],second_intermediate
18800,0.747923731803894,0.7652629613876343,0.0,0.3145983517169952,-0.967846155166626,-7.585003852844238,4.1328125,0,F1,7.6,90,270.0,6.432154707457274,[6600|0|9400|0],second_intermediate
18900,0.7479174137115479,0.7638105750083923,0.0,0.3330219686031341,-0.9673399925231934,-7.582762241363525,4.13671875,0,F1,7.6,90,270.0,6.433607107578762,[6600|0|9500|0],second_intermediate
19000,0.748450756072998,0.763931930065155,0.0,0.3310043513774872,-0.9821221232414246,-7.558863162994385,4.13671875,0,F1,7.6,90,270.0,6.434154082097656,[6600|0|9600|0],second_intermediate
19100,0.7485312223434448,0.7641288638114929,0.0,0.3221836984157562,-0.9855928421020508,-7.548728942871094,4.13671875,0,F1,7.6,90,270.0,6.43436682071927,[6600|0|9700|0],second_intermediate
19200,0.7478882074356079,0.7638899683952332,0.0,0.3360898792743683,-0.97707599401474,-7.53476095199585,4.13671875,0,F1,7.6,90,270.0,6.435052779312489,[6600|0|9800|0],second_intermediate
19300,0.7477757930755615,0.7642806172370911,0.0,0.3262721300125122,-0.9804608225822448,-7.530689716339111,4.13671875,0,F1,7.6,90,270.0,6.435459280857368,[6600|0|9900|0],second_intermediate
19400,0.7479367852210999,0.7640417814254761,0.0,0.3156540989875793,-1.007419466972351,-7.522881984710693,4.13671875,0,F1,7.6,90,270.0,6.435747310397233,[6600|0|10000|0],second_intermediate
19500,0.7491034865379333,0.7653754949569702,0.0,0.2276141494512558,-1.048235535621643,-7.53154182434082,4.13671875,0,F1,7.6,90,270.0,6.437519310325786,[6600|0|10100|0],second_intermediate
19600,0.748932421207428,0.7651296257972717,0.0,0.2767374813556671,-1.00948965549469,-7.5670576095581055,4.13671875,0,F1,7.6,90,270.0,6.43781883493411,[6600|0|10200|0],second_intermediate
19700,0.7486518025398254,0.7653074264526367,0.0,0.3053760826587677,-0.9780610799789428,-7.562540531158447,4.13671875,0,F1,7.6,90,270.0,6.43815103955427,[6600|0|10300|0],second_intermediate
19800,0.7483171224594116,0.765418529510498,0.0,0.3303042352199554,-0.9608155488967896,-7.577206611633301,4.13671875,0,F1,7.6,90,270.0,6.438503679095008,[6600|0|10400|0],second_intermediate
19900,0.7481058239936829,0.7653306126594543,0.0,0.3532188236713409,-0.9445955753326416,-7.565524578094482,4.14453125,0,F1,7.6,90,270.0,6.438732538034786,[6600|0|10500|0],second_intermediate
20000,0.7482815980911255,0.7652180194854736,0.0,0.3649468421936035,-0.9511072039604188,-7.544408798217773,4.14453125,0,F1,7.6,90,270.0,6.438941281312903,[6600|0|10600|0],second_intermediate
20100,0.7485236525535583,0.7658185362815857,0.0,0.0005970762576907,-1.139136791229248,-7.582338809967041,4.14453125,0,F1,7.6,90,270.0,6.439588746203994,[6600|0|10700|0],second_intermediate
20200,0.7480246424674988,0.7658252716064453,0.0,0.0917365625500679,-1.084957242012024,-7.589981555938721,4.14453125,0,F1,7.6,90,270.0,6.440087801742577,[6600|0|10800|0],second_intermediate
20300,0.7477128505706787,0.7661130428314209,0.0,0.1234711930155754,-1.060867428779602,-7.582201957702637,4.14453125,0,F1,7.6,90,270.0,6.440512096999264,[6600|0|10900|0],second_intermediate
20400,0.7478833794593811,0.7658395171165466,0.0,0.1599570512771606,-1.065488576889038,-7.579941272735596,4.14453125,0,F1,7.6,90,270.0,6.440834426673013,[6600|0|11000|0],second_intermediate
20500,0.7480671405792236,0.765839159488678,0.0,0.1715613603591919,-1.0596940517425537,-7.598408222198486,4.14453125,0,F1,7.6,90,270.0,6.441018188140856,[6600|0|11100|0],second_intermediate
20600,0.7484090924263,0.7655199766159058,0.0,0.1871653348207473,-1.0610322952270508,-7.581861972808838,4.14453125,0,F1,7.6,90,270.0,6.441485958139883,[6600|0|11200|0],second_intermediate
20700,0.7482066750526428,0.7654028534889221,0.0,0.2001009285449981,-1.0510823726654053,-7.567245483398437,4.14453125,0,F1,7.6,90,270.0,6.441719818397372,[6600|0|11300|0],second_intermediate
20800,0.7480618953704834,0.7656214237213135,0.0,0.1827370822429657,-1.0553834438323977,-7.575447082519531,4.14453125,0,F1,7.6,90,270.0,6.441981990292994,[6600|0|11400|0],second_intermediate
20900,0.7480738759040833,0.7642067670822144,0.0,0.2488452047109604,-1.0335649251937866,-7.56682825088501,4.14453125,0,F1,7.6,90,270.0,6.4433966976619335,[6600|0|11500|0],second_intermediate
21000,0.7483080625534058,0.7642530202865601,0.0,0.2868475019931793,-1.0167113542556765,-7.567600727081299,4.14453125,0,F1,7.6,90,270.0,6.443635408251629,[6600|0|11600|0],second_intermediate
21100,0.7482191324234009,0.7640945911407471,0.0,0.3216128349304199,-0.9945828318595886,-7.561535358428955,4.1484375,0,F1,7.6,90,270.0,6.443817090287796,[6600|0|11700|0],second_intermediate
21200,0.7482559084892273,0.7638838291168213,0.0,0.3447592854499817,-0.9837599992752076,-7.563068866729736,4.14453125,0,F1,7.6,90,270.0,6.444031036799212,[6600|0|11800|0],second_intermediate
21300,0.7481293082237244,0.7640895247459412,0.0,0.3344510495662689,-0.9872673749923706,-7.57960033416748,4.1484375,0,F1,7.6,90,270.0,6.444272570066205,[6600|0|11900|0],second_intermediate
21400,0.7485294342041016,0.7655326128005981,0.0,0.2313093394041061,-1.0279574394226074,-7.590469837188721,4.1484375,0,F1,7.6,90,270.0,6.445770102681431,[6600|0|12000|0],second_intermediate
21500,0.7483847141265869,0.765120267868042,0.0,0.3184126317501068,-0.994409203529358,-7.58237886428833,4.1484375,0,F1,7.6,90,270.0,6.446207106393361,[6600|0|12100|0],second_intermediate
21600,0.7480514645576477,0.7654246687889099,0.0,0.2762739658355713,-1.0093364715576172,-7.573242664337158,4.1484375,0,F1,7.6,90,270.0,6.446658454591345,[6600|0|12200|0],second_intermediate
21700,0.7480056881904602,0.7640455961227417,0.0,0.2552892863750458,-1.0093876123428345,-7.584540367126465,4.1484375,0,F1,7.6,90,270.0,6.448038286789247,[6600|0|12300|0],second_intermediate
21800,0.7481978535652161,0.7642626166343689,0.0,0.2838620245456695,-1.0124622583389282,-7.550859928131103,4.1484375,0,F1,7.6,90,270.0,6.448328158198189,[6600|0|12400|0],second_intermediate
21900,0.7483009099960327,0.7642232179641724,0.0,0.3265218734741211,-0.9949686527252196,-7.576287746429443,4.1484375,0,F1,7.6,90,270.0,6.448438488987844,[6600|0|12500|0],second_intermediate
22000,0.7483124136924744,0.76405268907547,0.0,0.3415921628475189,-0.9910083413124084,-7.585195541381836,4.1484375,0,F1,7.6,90,270.0,6.448609405449643,[6600|0|12600|0],second_intermediate
22100,0.7478386163711548,0.7638283967971802,0.0,0.3556482195854187,-0.9716099500656128,-7.577616214752197,4.1484375,0,F1,7.6,90,270.0,6.449133610493295,[6600|0|12700|0],second_intermediate
22200,0.7485677003860474,0.7639430165290833,0.0,0.3267363607883453,-0.9991992115974426,-7.594117164611816,4.1484375,0,F1,7.6,90,270.0,6.449871649234631,[6600|0|12800|0],second_intermediate
22300,0.7488906383514404,0.7657030820846558,0.0,0.2126445025205612,-1.0270752906799316,-7.577310085296631,4.1484375,0,F1,7.6,90,270.0,6.45166109598975,[6600|0|12900|0],second_intermediate
22400,0.7481765747070312,0.765526533126831,0.0,0.2838772237300873,-0.9707326889038086,-7.572166919708252,4.1484375,0,F1,7.6,90,270.0,6.452396661366026,[6600|0|13000|0],second_intermediate
22500,0.7481343746185303,0.7653856873512268,0.0,0.3273252844810486,-0.9472033381462096,-7.564899444580078,4.1484375,0,F1,7.6,90,270.0,6.452543693267241,[6600|0|13100|0],second_intermediate
22600,0.7482681274414062,0.7652312517166138,0.0,0.3584674000740051,-0.9415163397789,-7.557872772216797,4.15234375,0,F1,7.6,90,270.0,6.452747997410287,[6600|0|13200|0],second_intermediate
22700,0.7485575675964355,0.764965295791626,0.0,0.3790352940559387,-0.9493387341499328,-7.567386627197266,4.1484375,0,fly,7.6,90,270.0,6.453141072666924,[6600|0|13200|0],fly
22800,0.748711884021759,0.7648227214813232,0.0,0.3703674376010895,-1.27181077003479,-7.581996440887451,2.9921875,0,fly,7.6,90,270.0,6.453351170246831,[6600|0|13200|0],fly
22900,0.7502881288528442,0.7628792524337769,0.0,3.8780577182769775,-4.606833934783936,-6.07223653793335,3.3984375,0,fly,7.6,90,270.0,6.455853493108952,[6600|0|13200|0],fly
23000,0.7601345181465149,0.7511863112449646,0.0069288341328501,11.41995906829834,-7.16005802154541,0.6061897873878479,3.42578125,0,fly,7.6,90,270.0,6.472636967070206,[6600|0|13200|0],fly
23100,0.780829906463623,0.7260990142822266,0.048155665397644,1.2600362300872805,-2.050032377243042,3.9437193870544434,3.326171875,0,fly,7.6,90,270.0,6.525147186862435,[6600|0|13200|0],fly
23200,0.7977394461631775,0.7010923027992249,0.0985205844044685,-4.980733871459961,6.758069038391113,3.8168320655822754,3.341796875,0,fly,7.6,90,270.0,6.583865950631854,[6600|0|13200|0],fly
23300,0.8027689456939697,0.6842374205589294,0.1703832745552063,-8.398350715637207,8.242674827575684,2.2265312671661377,3.36328125,0,fly,7.6,90,270.0,6.657849929685197,[6600|0|13200|0],fly
23400,0.7921568155288696,0.6833149790763855,0.2509453892707824,-7.705714702606201,6.903800964355469,0.5367863774299622,3.3203125,0,fly,7.6,90,270.0,6.739113221104972,[6600|0|13200|0],fly
23500,0.7693560123443604,0.6954948902130127,0.3368264436721802,-4.70181131362915,3.635489702224731,-0.4256544411182403,3.3828125,0,fly,7.6,90,270.0,6.828800357118175,[6600|0|13200|0],fly
23600,0.7401354312896729,0.7152390480041504,0.4264726042747497,-1.5636049509048462,-0.4663933515548706,-0.8404962420463562,3.3671875,0,fly,7.6,90,270.0,6.925133675522747,[6600|0|13200|0],fly
23700,0.7133294939994812,0.737129807472229,0.5181013345718384,1.7962934970855713,-3.2367308139801025,-0.527057409286499,3.310546875,0,fly,7.6,90,270.0,7.023080537851009,[6600|0|13200|0],fly
23800,0.6940650939941406,0.7557100057601929,0.6114976406097412,3.52824330329895,-5.22894811630249,-0.5051361918449402,3.3046875,0,fly,7.6,90,270.0,7.120236139117799,[6600|0|13200|0],fly
23900,0.683641791343689,0.7690859436988831,0.7057621479034424,3.79574990272522,-5.336532115936279,-0.8655889630317688,3.404296875,0,fly,7.6,90,270.0,7.216013789377173,[6600|0|13200|0],fly
24000,0.6839598417282104,0.7756869196891785,0.8033340573310852,3.534274101257324,-4.129122257232666,-1.4415462017059326,3.419921875,0,fly,7.6,90,270.0,7.31380924709085,[6600|0|13200|0],fly
24100,0.6918938755989075,0.777249276638031,0.903132975101471,2.742260932922364,-2.096330404281616,-2.011282444000244,3.3828125,0,fly,7.6,90,270.0,7.413935236927841,[6600|0|13200|0],fly
24200,0.7018421292304993,0.7757508158683777,1.0043326616287231,1.769692063331604,-0.3480822443962097,-2.1257364749908447,3.326171875,0,fly,7.6,90,270.0,7.515633760457983,[6600|0|13200|0],fly
24300,0.7147552371025085,0.7697503566741943,1.1139060258865356,1.6778759956359863,0.4565276801586151,-1.905024170875549,3.357421875,0,fly,7.6,90,270.0,7.6261284482046365,[6600|0|13200|0],fly
24400,0.7224717140197754,0.7630594372749329,1.2115691900253296,0.6326141357421875,1.81429135799408,-1.910557508468628,3.419921875,0,fly,7.6,90,270.0,7.724324201921501,[6600|0|13200|0],fly
24500,0.7266684770584106,0.7543255686759949,1.3023124933242798,0.4347203969955444,1.0727983713150024,-2.109570503234864,3.47265625,0,fly,7.6,90,270.0,7.815583395290231,[6600|0|13200|0],fly
24600,0.7289451956748962,0.7452447414398193,1.3755043745040894,-0.2252624034881591,1.1656962633132937,-1.9598546028137207,3.525390625,0,fly,7.6,90,270.0,7.889371580940722,[6600|0|13200|0],fly
24700,0.7301986813545227,0.7360998392105103,1.4326308965682983,-0.5036514401435852,0.8383753299713135,-1.7293866872787476,3.521484375,0,fly,7.6,90,270.0,7.947239015532945,[6600|0|13200|0],fly
24800,0.729171872138977,0.7278731465339661,1.468996286392212,-1.0218602418899536,0.7124341726303101,-1.693162202835083,3.53125,0,fly,7.6,90,270.0,7.984537465723331,[6600|0|13200|0],fly
24900,0.7275514006614685,0.7207853198051453,1.494391918182373,-1.0741188526153564,0.0187461767345666,-1.7610632181167605,3.447265625,0,fly,7.6,90,270.0,8.010953395189633,[6600|0|13200|0],fly
25000,0.7252907752990723,0.7143392562866211,1.506731629371643,-0.8635168075561523,-0.5710784196853638,-1.7583746910095217,3.357421875,0,fly,7.6,90,270.0,8.025057672347593,[6600|0|13200|0],fly
25100,0.7222452759742737,0.7085979580879211,1.5133957862854004,-1.2008652687072754,-0.6813815236091614,-0.7357162237167358,3.373046875,0,fly,7.6,90,270.0,8.034366193095538,[6600|0|13200|0],fly
25200,0.7212530970573425,0.7044493556022644,1.5190424919128418,-1.2289944887161257,-0.6012911796569824,-1.286006212234497,3.453125,0,fly,7.6,90,270.0,8.041442958319154,[6600|0|13200|0],fly
25300,0.7205299139022827,0.6981182098388672,1.5228819847106934,-1.052625298500061,-0.6639480590820312,-0.6490671038627625,3.419921875,0,fly,7.6,90,270.0,8.048882589055816,[6600|0|13200|0],fly
25400,0.720498263835907,0.6957223415374756,1.5259857177734375,-1.1516151428222656,-0.8083528280258179,1.8750174045562744,3.435546875,0,fly,7.6,90,270.0,8.052803602390286,[6600|0|13200|0],fly
25500,0.7199015617370605,0.6966859698295593,1.5273209810256958,-0.7162544131278992,-0.8751874566078186,-0.298953115940094,3.431640625,0,fly,7.6,90,270.0,8.054555047745673,[6600|0|13200|0],fly
25600,0.7208026647567749,0.6943519711494446,1.5237418413162231,-0.359975665807724,-0.168434739112854,-1.7412030696868896,3.388671875,0,fly,7.6,90,270.0,8.058921943387984,[6600|0|13200|0],fly
25700,0.7203027606010437,0.6910914182662964,1.5185341835021973,-0.3566766083240509,-0.0695352554321289,-2.3987958431243896,3.3671875,0,fly,7.6,90,270.0,8.065086423023502,[6600|0|13200|0],fly
25800,0.7202016711235046,0.6866085529327393,1.5084388256072998,-4.97944450378418,-4.91986608505249,-3.079477310180664,3.83203125,0,fly,7.6,90,53.0,8.076132804861341,[6600|0|13200|0],fly
25900,0.7153028249740601,0.6876428127288818,1.4515149593353271,-15.828797340393066,-15.908766746520996,-4.323625564575195,3.7578125,0,fly,7.6,90,53.0,8.13327643913736,[6600|0|13200|0],fly
26000,0.7320502400398254,0.7071110010147095,1.3723454475402832,-15.705589294433594,-15.145489692687988,-0.8174067735671997,3.431640625,0,fly,7.6,90,53.0,8.216506829406677,[6600|0|13200|0],fly
26100,0.7619943022727966,0.7476581931114197,1.2537001371383667,-14.223429679870604,-14.234209060668944,-0.8947156071662903,3.341796875,0,fly,7.6,90,53.0,8.345415445605544,[6600|0|13200|0],fly
26200,0.8095575571060181,0.811964750289917,1.1226747035980225,-9.063136100769045,-11.362115859985352,-1.346205234527588,3.26171875,0,fly,7.6,90,53.0,8.498925252265954,[6600|0|13200|0],fly
26300,0.8725557923316956,0.8951509594917297,1.0026869773864746,-0.8498103618621826,-3.0069382190704346,-1.165560603141785,3.283203125,0,fly,7.6,90,53.0,8.657940275091896,[6600|0|13200|0],fly
26400,0.9499005675315856,0.9626981019973756,0.9179633855819702,6.77610445022583,2.656656265258789,-3.1301443576812744,3.326171875,0,fly,7.6,90,53.0,8.791067724251173,[6600|0|13200|0],fly
26500,1.0242091417312622,1.0130269527435305,0.8652251958847046,8.305794715881348,5.2789483070373535,-4.702605247497559,3.341796875,0,fly,7.6,90,53.0,8.895164189462832,[6600|0|13200|0],fly
26600,1.0871756076812744,1.0477715730667114,0.836063802242279,6.1664557456970215,5.669597625732422,-4.463893413543701,3.37890625,0,fly,7.6,90,53.0,8.972767999645095,[6600|0|13200|0],fly
26700,1.1362439393997192,1.0736136436462402,0.822572648525238,4.081462860107422,5.4998321533203125,-3.689951896667481,3.404296875,0,fly,7.6,90,53.0,9.02984273151556,[6600|0|13200|0],fly
26800,1.174037218093872,1.0940535068511963,0.8151549696922302,2.6460490226745605,5.203003883361816,-3.146450519561768,3.357421875,0,fly,7.6,90,53.0,9.073444817263386,[6600|0|13200|0],fly
26900,1.2027064561843872,1.111794114112854,0.8090664744377136,2.06002163887024,4.7049336433410645,-2.769517421722412,3.388671875,0,fly,7.6,90,53.0,9.107704474780167,[6600|0|13200|0],fly
27000,1.2239829301834106,1.1273711919784546,0.802524983882904,2.0516016483306885,4.154245853424072,-2.3624391555786133,3.3828125,0,fly,7.6,90,53.0,9.134872927061092,[6600|0|13200|0],fly
27100,1.2368789911270142,1.140779733657837,0.7941087484359741,2.354456663131714,3.639016151428223,-2.207592725753784,3.39453125,0,fly,7.6,90,53.0,9.15529180060806,[6600|0|13200|0],fly
27200,1.2448017597198486,1.1489322185516355,0.7869372367858887,2.393686056137085,3.1298367977142334,-2.217663288116455,3.42578125,0,fly,7.6,90,53.0,9.168732925987529,[6600|0|13200|0],fly
27300,1.248981475830078,1.1560200452804563,0.7798246741294861,2.432589769363404,2.397691488265991,-1.882190465927124,3.41015625,0,fly,7.6,90,53.0,9.179609316107468,[6600|0|13200|0],fly
27400,1.248725652694702,1.1613844633102417,0.7742085456848145,2.1096909046173096,1.9671217203140257,-1.8347711563110352,3.416015625,0,fly,7.6,90,53.0,9.18737998692677,[6600|0|13200|0],fly
27500,1.2469160556793213,1.1631160974502563,0.7687143683433533,1.995180487632752,0.9762872457504272,-1.4499783515930176,3.3828125,0,fly,7.6,90,53.0,9.193418130914152,[6600|0|13200|0],fly
27600,1.242906928062439,1.1622369289398191,0.7647926211357117,1.7466375827789309,0.803432285785675,-0.8554484248161316,3.39453125,0,fly,7.6,90,53.0,9.199094938351331,[6600|0|13200|0],fly
27700,1.2386143207550049,1.15917706489563,0.7616716623306274,1.3288286924362185,0.2747423350811004,-0.4916913211345672,3.3828125,0,fly,7.6,90,53.0,9.205221081455097,[6600|0|13200|0],fly
27800,1.2344626188278198,1.15399968624115,0.7591058611869812,0.8943749666213989,0.3088007867336273,0.0891877934336662,3.3515625,0,fly,7.6,90,53.0,9.21233622123818,[6600|0|13200|0],fly
27900,1.2299511432647705,1.1497178077697754,0.7533853650093079,0.4039971530437469,0.0652825608849525,0.7339473366737366,3.36328125,0,fly,7.6,90,53.0,9.220786781664469,[6600|0|13200|0],fly
28000,1.2255369424819946,1.1443387269973757,0.7494485974311829,-0.1435799896717071,0.6182008385658264,1.3746851682662964,3.419921875,0,fly,7.6,90,53.0,9.228781643606418,[6600|0|13200|0],fly
28100,1.220862627029419,1.1386390924453735,0.7458987236022949,0.0203410610556602,0.2602023780345917,2.2098641395568848,3.416015625,0,fly,7.6,90,53.0,9.236963126551313,[6600|0|13200|0],fly
28201,1.2150301933288574,1.1330320835113523,0.7422246336936951,-0.4065282344818115,-0.1321447938680648,2.930668354034424,3.3984375,0,fly,7.6,90,53.0,9.245848776145692,[6600|0|13200|0],fly
28301,1.2097082138061523,1.127827763557434,0.7368912696838379,-0.7947098612785339,-0.1515122950077057,3.621955633163452,3.357421875,0,fly,7.6,90,53.0,9.255005914557035,[6600|0|13200|0],fly
28401,1.2044355869293213,1.1251847743988037,0.7299900650978088,-0.7438488006591797,-0.7266837358474731,4.503798484802246,3.373046875,0,fly,7.6,90,53.0,9.2640840537173,[6600|0|13200|0],fly
28501,1.199173927307129,1.124281406402588,0.7228042483329773,-0.7207591533660889,-0.7308646440505981,5.415488243103027,3.341796875,0,fly,7.6,90,53.0,9.273035986374229,[6600|0|13200|0],fly
28601,1.1947686672210691,1.125046968460083,0.7160241007804871,-0.1044588238000869,-0.4694129526615143,6.031199455261231,3.345703125,0,fly,7.6,90,53.0,9.281157735109767,[6600|0|13200|0],fly
28701,1.1911773681640625,1.1259052753448486,0.7118127942085266,0.1921000629663467,-0.4592695236206054,6.427363395690918,3.3671875,0,fly,7.6,90,53.0,9.286758558501765,[6600|0|13200|0],fly
28801,1.187339186668396,1.1269341707229614,0.7096585631370544,0.4065062403678894,-0.6782723665237427,6.532767295837402,3.822265625,0,fly,7.6,90,270.0,9.29127862204137,[6600|0|13200|0],fly
28901,1.184159278869629,1.1281191110610962,0.6895962357521057,-0.0473067983984947,-0.2690253257751465,6.215878963470459,3.7421875,0,fly,7.6,90,270.0,9.311625928431024,[6600|0|13200|0],fly
29001,1.1794856786727903,1.1298044919967651,0.6320949792861938,0.0672682300209999,-1.1949684619903564,5.403286457061768,3.447265625,0,fly,7.6,90,270.0,9.369341416325147,[6600|0|13200|0],fly
29101,1.1751500368118286,1.1298094987869265,0.5341309309005737,1.1122938394546509,-0.9400429129600524,4.991368293762207,3.267578125,0,fly,7.6,90,270.0,9.467401360193756,[6600|0|13200|0],fly
29201,1.1733769178390503,1.1290968656539917,0.4466490745544433,2.2407784461975098,-1.1758980751037598,4.717556476593018,3.208984375,0,fly,7.6,90,270.0,9.55490408578924,[6600|0|13200|0],fly
29300,1.1741502285003662,1.1234595775604248,0.3612384796142578,0.4892939627170563,-2.4328246116638184,4.2083048820495605,3.236328125,0,fly,7.6,90,270.0,9.640504008420429,[6600|0|13200|0],fly
29400,1.1809358596801758,1.1169779300689695,0.2968149185180664,0.3528152704238891,-2.1112067699432373,4.627913951873779,3.267578125,0,fly,7.6,90,270.0,9.705607401335287,[6600|0|13200|0],fly
29500,1.191945195198059,1.1107817888259888,0.2503168880939483,-1.5797569751739502,0.4125971794128418,5.352965831756592,3.27734375,0,fly,7.6,90,270.0,9.753791054872254,[6600|0|13200|0],fly
29600,1.2038278579711914,1.107557773590088,0.2167275249958038,-1.322785496711731,0.90812087059021,5.109379291534424,3.2734375,0,fly,7.6,90,270.0,9.789565868109506,[6600|0|13200|0],fly
29700,1.2140297889709473,1.105826497077942,0.1932627409696579,-1.38709557056427,2.7027950286865234,4.795253753662109,3.27734375,0,fly,7.6,90,270.0,9.815211000276818,[6600|0|13200|0],fly
29800,1.220129370689392,1.1045663356781006,0.1796802282333374,-1.096191167831421,2.829580307006836,4.07667350769043,3.24609375,0,fly,7.6,90,270.0,9.830153475176443,[6600|0|13200|0],fly
29900,1.2213842868804932,1.104833483695984,0.1714794933795929,-0.4124217331409454,2.357427835464477,3.4341816902160645,3.357421875,0,fly,7.6,90,270.0,9.838453971237016,[6600|0|13200|0],fly
30000,1.2193049192428589,1.103954195976257,0.1670016199350357,-0.9938167929649352,1.504408359527588,2.641101598739624,3.310546875,0,fly,7.6,90,270.0,9.843468776043984,[6600|0|13200|0],fly
30100,1.213981866836548,1.1040492057800293,0.1634485870599746,-0.5244839191436768,0.0055602374486625,2.253655910491944,3.314453125,0,fly,7.6,90,270.0,9.849869397607112,[6600|0|13200|0],fly
30200,1.2094732522964478,1.105679988861084,0.1620212495326995,-1.126979947090149,-0.7617900967597961,2.8444266319274902,3.283203125,0,fly,7.6,90,270.0,9.854871832108977,[6600|0|13200|0],fly
30300,1.2070978879928589,1.107547402381897,0.1635248214006424,-0.1478104144334793,-0.837108850479126,4.105124473571777,3.283203125,0,fly,7.6,90,270.0,9.85824678650786,[6600|0|13200|0],fly
30400,1.2071468830108645,1.1093981266021729,0.1647654920816421,0.6373518109321594,-0.7645280957221985,6.121243953704834,3.29296875,0,fly,7.6,90,270.0,9.860475428334174,[6600|0|13200|0],fly
30500,1.210815191268921,1.1098260879516602,0.1650290042161941,0.4792111217975616,0.5465869903564453,6.53804349899292,3.240234375,0,fly,7.6,90,270.0,9.8641780051447,[6600|0|13200|0],fly
30600,1.2145202159881592,1.1079635620117188,0.1650093644857406,-0.3501207232475281,0.9689652919769288,6.37040376663208,3.29296875,0,fly,7.6,90,270.0,9.868324883098792,[6600|0|13200|0],fly
30700,1.215282678604126,1.1064143180847168,0.1636218130588531,-1.4544310569763184,2.0459554195404053,5.13080644607544,3.267578125,0,fly,7.6,90,270.0,9.870540014008771,[6600|0|13200|0],fly
30800,1.211809158325195,1.1062943935394287,0.1621750146150589,-1.3197290897369385,2.015344858169556,3.156450033187866,3.29296875,0,fly,7.6,90,270.0,9.874304711972975,[6600|0|13200|0],fly
30900,1.204805850982666,1.1071951389312744,0.1609776318073272,-0.7744404673576355,0.4243030548095703,0.8365946412086487,3.2734375,0,fly,7.6,90,270.0,9.88146651213656,[6600|0|13200|0],fly
31000,1.1960673332214355,1.1104669570922852,0.1579271703958511,-0.6989604830741882,-0.8206644654273987,-1.1312707662582395,3.27734375,0,fly,7.6,90,270.0,9.891283426191643,[6600|0|13200|0],fly
31100,1.1878232955932615,1.115644454956055,0.1553646922111511,-0.9302350282669068,-0.7669350504875183,-2.7452080249786377,3.26171875,0,fly,7.6,90,270.0,9.901350050997962,[6600|0|13200|0],fly
31200,1.1811151504516602,1.1226069927215576,0.1530122011899948,-0.1874141246080398,-1.792919039726257,-4.215307235717773,3.251953125,0,fly,7.6,90,270.0,9.911300445833415,[6600|0|13200|0],fly
31300,1.1761893033981323,1.129419207572937,0.1518839597702026,0.6378828287124634,-1.0173436403274536,-4.136541843414307,3.240234375,0,fly,7.6,90,270.0,9.919782377752352,[6600|0|13200|0],fly
31400,1.1734780073165894,1.135014533996582,0.1530526429414749,1.0862334966659546,-1.035786509513855,-3.679999828338623,3.267578125,0,fly,7.6,90,270.0,9.926108879517448,[6600|0|13200|0],fly
31500,1.1721209287643433,1.139037013053894,0.1560864001512527,1.319850206375122,-1.304015040397644,-2.7980167865753174,3.267578125,0,fly,7.6,90,270.0,9.93132670308397,[6600|0|13200|0],fly
31600,1.1725904941558838,1.1410303115844729,0.1600535959005355,1.3648539781570437,-1.209839940071106,-2.5139920711517334,3.2890625,0,fly,7.6,90,270.0,9.935791271685982,[6600|0|13200|0],fly
31700,1.174660086631775,1.1403262615203855,0.1617201715707779,1.4667359590530396,-0.7373365163803101,-2.54260778427124,3.251953125,0,fly,7.6,90,270.0,9.938540157637354,[6600|0|13200|0],fly
31800,1.1772806644439695,1.1376063823699951,0.1613876074552536,0.680844783782959,-0.195936918258667,-2.866319179534912,3.240234375,0,A/E1,7.6,90,270.0,9.942331696843722,[6600|0|13200|100],destination
