,time.ms,stateEstimate.x,stateEstimate.y,stateEstimate.z,stabilizer.roll,stabilizer.pitch,stabilizer.yaw,pm.vbat,drone_id,node_name,wind_speed,global_wind_direction,relative_wind_direction,travel_dist,waiting_time
0,0,1.8328495025634768,-0.149885892868042,0.0,0.4737653136253357,0.6477959752082825,-11.514598846435549,4.0234375,1,B1,7.6,180,450.0,0.0,[6200|0|0|0]
1,100,1.8328781127929688,-0.1499776840209961,0.0,0.4731842279434204,0.6422721147537231,-11.490191459655762,4.0234375,1,B1,7.6,180,450.0,9.614655996043852e-05,[6300|0|0|0]
2,200,1.8329848051071167,-0.149931713938713,0.0,0.4660094678401947,0.6363393068313599,-11.497844696044922,4.0234375,1,B1,7.6,180,450.0,0.0002123209907245,[6400|0|0|0]
3,300,1.832826375961304,-0.1500057727098465,0.0,0.4676378965377807,0.6422793865203857,-11.550236701965332,3.125,1,E2,7.6,180,450.0,0.0003872052262198,[6400|0|0|0]
4,400,1.832621455192566,-0.1494734138250351,0.0,0.5675665736198425,0.5380856990814209,-10.703286170959473,3.37890625,1,E2,7.6,180,450.0,0.0009576423425593,[6400|0|0|0]
5,500,1.831698656082153,-0.1495195776224136,0.0048345639370381,0.6342536807060242,1.4786343574523926,-8.142182350158691,3.525390625,1,E2,7.6,180,450.0,0.005879704690364,[6400|0|0|0]
6,600,1.8277485370635984,-0.1508321315050125,0.0575954727828502,1.0331391096115112,0.6437128782272339,-5.979221343994141,3.578125,1,E2,7.6,180,450.0,0.0588045546211061,[6400|0|0|0]
7,700,1.8237438201904297,-0.1514601707458496,0.1303264498710632,-2.0839195251464844,-1.8656708002090447,-4.498264789581299,3.611328125,1,E2,7.6,180,450.0,0.1316484096723624,[6400|0|0|0]
8,800,1.823630928993225,-0.1495110094547271,0.2114447206258773,-1.6668927669525146,-2.4195995330810547,-3.0103280544281006,3.615234375,1,E2,7.6,180,450.0,0.2127901734220649,[6400|0|0|0]
9,900,1.8277682065963743,-0.1442384570837021,0.2957868278026581,-0.8232138752937317,-2.3173844814300537,-1.73981511592865,3.615234375,1,E2,7.6,180,450.0,0.2973981394624461,[6400|0|0|0]
10,1000,1.8363958597183228,-0.1382999718189239,0.3825876712799072,0.2461883723735809,-1.633800745010376,-1.1845898628234863,3.615234375,1,E2,7.6,180,450.0,0.3848286171804282,[6400|0|0|0]
11,1100,1.8475724458694456,-0.132481575012207,0.4708040952682495,1.7079057693481443,-0.2933671772480011,-1.0482035875320437,3.615234375,1,E2,7.6,180,450.0,0.4739403856551075,[6400|0|0|0]
12,1200,1.8591392040252688,-0.1287468373775482,0.5588226318359375,1.848637938499451,1.1076914072036743,-1.0328857898712158,3.6484375,1,E2,7.6,180,450.0,0.5627942034625179,[6400|0|0|0]
13,1300,1.8695650100708008,-0.1273281276226043,0.6424853205680847,2.016119956970215,0.9286370873451232,-0.8649576306343079,3.673828125,1,E2,7.6,180,450.0,0.647115942385289,[6400|0|0|0]
14,1400,1.8791594505310056,-0.1288086622953415,0.7159005999565125,1.83381736278534,1.338952660560608,-0.9044108986854552,3.68359375,1,E2,7.6,180,450.0,0.7211703042982952,[6400|0|0|0]
15,1500,1.887394666671753,-0.1319107562303543,0.7755963206291199,1.3541913032531738,1.4480674266815186,-0.8348763585090637,3.673828125,1,E2,7.6,180,450.0,0.7815111763361473,[6400|0|0|0]
16,1600,1.894258975982666,-0.1361831575632095,0.8202273845672607,0.9153712391853333,1.3301806449890137,-0.934694766998291,3.6640625,1,E2,7.6,180,450.0,0.8268686897569169,[6400|0|0|0]
17,1700,1.8999384641647337,-0.1429001539945602,0.8548285961151123,0.3232290744781494,1.2815614938735962,-0.8869874477386475,3.642578125,1,E2,7.6,180,450.0,0.8625704889783594,[6400|0|0|0]
18,1800,1.903672337532044,-0.1465478688478469,0.8753361105918884,0.1113412827253341,1.7809010744094849,-1.0223301649093628,3.626953125,1,E2,7.6,180,450.0,0.8837319110475206,[6400|0|0|0]
19,1900,1.9064271450042725,-0.1511255949735641,0.8907508254051208,-0.3925504386425018,2.050039291381836,-1.0809754133224487,3.62109375,1,E2,7.6,180,450.0,0.9000462597462706,[6400|0|0|0]
20,2000,1.9071308374404907,-0.1540291160345077,0.9026385545730592,-0.8983831405639648,1.3378384113311768,-1.3040543794631958,3.615234375,1,E2,7.6,180,450.0,0.9123036543457108,[6400|0|0|0]
21,2100,1.906355261802673,-0.1550224721431732,0.9119489192962646,-0.3669720590114593,1.7657065391540527,-1.4792150259017944,3.615234375,1,E2,7.6,180,450.0,0.9216989279025428,[6400|0|0|0]
22,2200,1.904671669006348,-0.155092567205429,0.9193410277366638,-0.3156833350658417,0.7271962761878967,-1.637253999710083,3.611328125,1,E2,7.6,180,450.0,0.9292806602386392,[6400|0|0|0]
23,2300,1.902132272720337,-0.1540036797523498,0.9247994422912598,-0.0764738917350769,0.4364954531192779,-1.6812944412231443,3.611328125,1,E2,7.6,180,450.0,0.9353985437642308,[6400|0|0|0]
24,2400,1.9001305103302,-0.1523149162530899,0.9297230839729308,0.1826236993074417,0.1792456209659576,-1.6068291664123535,3.60546875,1,E2,7.6,180,450.0,0.9409753907437066,[6400|0|0|0]
25,2500,1.898239254951477,-0.1509323716163635,0.933813452720642,0.4652861654758453,0.7257508635520935,-1.461687684059143,3.60546875,1,E2,7.6,180,450.0,0.9456891358654056,[6400|0|0|0]
26,2600,1.8966050148010247,-0.1508583128452301,0.9369776844978333,0.7361152172088623,0.5722107887268066,-1.404123067855835,3.60546875,1,E2,7.6,180,450.0,0.9492512403431996,[6400|0|0|0]
27,2700,1.894517421722412,-0.1507620066404342,0.9385454058647156,0.3554969131946563,0.4273308515548706,-1.410677433013916,3.599609375,1,E2,7.6,180,450.0,0.951863723841929,[6400|0|0|0]
28,2800,1.8920329809188845,-0.1513978242874145,0.9395540356636048,0.4528658092021942,0.1983445733785629,-1.6813782453536987,3.60546875,1,E2,7.6,180,450.0,0.9546194531932354,[6400|0|0|0]
29,2900,1.8894110918045044,-0.152713268995285,0.9409627318382264,0.6535780429840088,0.8736543655395508,-2.1252241134643555,3.59375,1,E2,7.6,180,450.0,0.9578735463418656,[6400|0|0|0]
30,3000,1.886480689048767,-0.1543892323970794,0.9399356245994568,0.3457055687904358,0.3491077721118927,-2.303532361984253,3.58984375,1,E2,7.6,180,450.0,0.9614021527119389,[6400|0|0|0]
31,3100,1.8835399150848389,-0.1565957963466644,0.9390655755996704,-0.1146868839859962,0.1599606871604919,-2.25241494178772,3.58984375,1,E2,7.6,180,450.0,0.9651802555735024,[6400|0|0|0]
32,3200,1.8809517621994016,-0.1587202847003936,0.9395297169685364,-0.3561334609985351,-0.2304400652647018,-2.0616469383239746,3.59375,1,E2,7.6,180,450.0,0.9685607013035537,[6400|0|0|0]
33,3300,1.8785669803619385,-0.1592878103256225,0.9395617246627808,-2.317108154296875,1.5362424850463867,-1.7683345079421997,3.552734375,1,E2,7.6,180,49.0,0.9710122914487608,[6400|0|0|0]
34,3400,1.8684276342391968,-0.149564728140831,0.939484715461731,-15.201810836791992,15.068076133728027,0.7265719771385193,3.55859375,1,E2,7.6,180,49.0,0.98506044425922,[6400|0|0|0]
35,3500,1.838462352752685,-0.1158352047204971,0.937157154083252,-16.84287452697754,16.22955894470215,0.5623593330383301,3.537109375,1,E2,7.6,180,49.0,1.0302380536105271,[6400|0|0|0]
36,3600,1.7821303606033323,-0.0544833876192569,0.9336187839508056,-14.728226661682127,14.201711654663086,-0.9716975688934326,3.525390625,1,E2,7.6,180,49.0,1.1136038671334152,[6400|0|0|0]
37,3700,1.7167922258377075,0.0570676214993,0.9377861618995668,-9.00133228302002,7.939236640930176,-2.997563123703003,3.537109375,1,E2,7.6,180,49.0,1.242948625546685,[6400|0|0|0]
38,3800,1.6280744075775146,0.1558874696493148,0.9417096972465516,1.521114468574524,-0.4248890280723572,-3.596245050430298,3.578125,1,E2,7.6,180,49.0,1.375807978980531,[6400|0|0|0]
39,3900,1.539320707321167,0.2225616127252578,0.934301495552063,7.458116054534912,-7.26860237121582,-2.942391395568848,3.58984375,1,E2,7.6,180,49.0,1.4870623816639807,[6400|0|0|0]
40,4000,1.4701999425888062,0.2906372845172882,0.9490491151809692,9.886271476745604,-12.57757568359375,-4.692162990570068,3.599609375,1,E2,7.6,180,49.0,1.5851922420115911,[6400|0|0|0]
41,4100,1.4215816259384155,0.3400587439537048,0.9606422781944276,9.295454025268556,-12.893375396728516,-5.6152024269104,3.578125,1,E2,7.6,180,49.0,1.655481805926867,[6400|0|0|0]
42,4200,1.3905333280563354,0.3776340186595917,0.9666464328765868,6.730888366699219,-9.219666481018066,-4.312764644622803,3.5625,1,E2,7.6,180,49.0,1.704593392584646,[6400|0|0|0]
43,4300,1.3652613162994385,0.4350715279579162,0.9537582993507384,3.888164758682251,-5.989569187164307,-3.3048787117004395,3.5625,1,E2,7.6,180,49.0,1.768654660433604,[6400|0|0|0]
44,4400,1.3545883893966677,0.4604843556880951,0.9600861072540284,5.01462459564209,-3.376016139984131,-1.4269495010375977,3.541015625,1,E2,7.6,180,49.0,1.7969347653622738,[6400|0|0|0]
45,4500,1.3532336950302124,0.4666104912757873,0.9759501814842224,4.80249547958374,-1.3742090463638306,0.1481849998235702,3.5625,1,E2,7.6,180,49.0,1.81399447184411,[6400|0|0|0]
46,4600,1.3560266494750977,0.4606891274452209,1.00032377243042,2.9190869331359863,-0.6497685313224792,1.2972407341003418,3.599609375,1,E2,7.6,180,49.0,1.8392320446227608,[6400|0|0|0]
47,4700,1.358629822731018,0.4507031142711639,1.0235968828201294,0.6379274725914001,0.6941028833389282,1.1077550649642944,3.615234375,1,E2,7.6,180,49.0,1.8646905331349328,[6400|0|0|0]
48,4800,1.3577122688293457,0.4438247084617615,1.0375087261199951,-1.383884072303772,1.0760841369628906,0.8943212032318115,3.60546875,1,E2,7.6,180,49.0,1.8802370361385443,[6400|0|0|0]
49,4900,1.3527343273162842,0.4414753913879394,1.0404843091964722,-2.377859354019165,0.9838793873786926,0.814544141292572,3.583984375,1,E2,7.6,180,49.0,1.8864942948886547,[6400|0|0|0]
50,5000,1.3448151350021362,0.4440987110137939,1.0348737239837646,-1.8477697372436523,0.8846686482429504,0.6436119675636292,3.5625,1,E2,7.6,180,49.0,1.8965478554120168,[6400|0|0|0]
51,5100,1.334205985069275,0.4508640468120575,1.0248441696166992,-1.5410321950912476,-0.2906582653522491,0.5821424126625061,3.546875,1,E2,7.6,180,49.0,1.9126387159099243,[6400|0|0|0]
52,5200,1.323171615600586,0.4596411883831024,1.0159471035003662,0.006312740035355,-1.3468849658966064,0.5301551818847656,3.546875,1,E2,7.6,180,49.0,1.9293106476878588,[6400|0|0|0]
53,5300,1.3150920867919922,0.4692896902561188,1.0099618434906006,0.9836822748184204,-2.1706106662750244,0.7468187808990479,3.55859375,1,E2,7.6,180,49.0,1.9432460598291263,[6400|0|0|0]
54,5400,1.309445023536682,0.4789233207702636,1.0057083368301392,1.4793353080749512,-1.9723327159881592,0.7968162298202515,3.552734375,1,E2,7.6,180,49.0,1.9551954731705057,[6400|0|0|0]
55,5500,1.3076788187026978,0.4855787754058838,1.0029518604278564,2.1514101028442383,-1.6952011585235596,0.942489743232727,3.552734375,1,E2,7.6,180,49.0,1.9626125290607312,[6400|0|0|0]
56,5600,1.3086813688278198,0.4899724721908569,1.0021547079086304,2.226776599884033,-1.244375467300415,1.0705854892730713,3.5625,1,E2,7.6,180,49.0,1.9671891140681983,[6400|0|0|0]
57,5700,1.3115588426589966,0.490691214799881,1.0015535354614258,1.790869951248169,-1.1543867588043213,1.110611915588379,3.5625,1,E2,7.6,180,49.0,1.970215308856776,[6400|0|0|0]
58,5800,1.3156019449234009,0.4903323948383331,0.9992181062698364,1.6012709140777588,0.1848801523447036,0.9311206936836244,3.55859375,1,E2,7.6,180,49.0,1.974898220044719,[6400|0|0|0]
59,5900,1.3198609352111816,0.4874216318130493,0.996437132358551,0.9573310017585754,-0.710796058177948,0.8884936571121216,3.55859375,1,E2,7.6,180,49.0,1.9807587111125409,[6400|0|0|0]
60,6000,1.324810266494751,0.4835525751113891,0.9940906763076782,0.8119314312934875,-0.2396901398897171,0.8109451532363892,3.55859375,1,E2,7.6,180,49.0,1.987464778209868,[6400|0|0|0]
61,6100,1.329706788063049,0.4792738258838653,0.991795301437378,-0.09022156894207,0.285273939371109,0.7198372483253479,3.55859375,1,E2,7.6,180,49.0,1.994360600439019,[6400|0|0|0]
62,6200,1.3341519832611084,0.4750833213329315,0.9892795085906982,0.1757488548755645,1.0616008043289185,0.6093615293502808,3.552734375,1,E2,7.6,180,49.0,2.0009673623075632,[6400|0|0|0]
63,6300,1.336879849433899,0.4713025987148285,0.9848488569259644,-0.4587966799736023,1.0098625421524048,0.6344431042671204,3.7890625,1,E2,7.6,180,450.0,2.007398986639402,[6400|0|0|0]
64,6400,1.339302659034729,0.4685660898685455,0.9633955955505372,0.277458131313324,-0.0136562101542949,0.9840092062950134,3.7734375,1,E2,7.6,180,450.0,2.0291613603764294,[6400|0|0|0]
65,6500,1.3410117626190186,0.4655050337314605,0.9009841680526732,-0.1455648243427276,-0.4350179135799408,1.2694215774536133,3.66796875,1,E2,7.6,180,450.0,2.091671178661698,[6400|0|0|0]
66,6600,1.3421939611434937,0.4630254805088043,0.8027811646461487,-0.0897645503282547,-0.1029095575213432,-1.25524640083313,3.583984375,1,E2,7.6,180,450.0,2.189912593836751,[6400|0|0|0]
67,6701,1.3423783779144287,0.4621375799179077,0.6827669739723206,-0.5877408385276794,-0.1261868625879287,-2.1511452198028564,3.537109375,1,E2,7.6,180,450.0,2.309930210627365,[6400|0|0|0]
68,6800,1.3425787687301636,0.4618265032768249,0.5572435259819031,-1.0100328922271729,0.5974897146224976,0.8251770734786987,3.478515625,1,E2,7.6,180,450.0,2.4354542040332423,[6400|0|0|0]
69,6901,1.3413640260696411,0.4638706743717193,0.4379945993423462,-2.498051166534424,2.0565547943115234,3.378123044967652,3.46875,1,E2,7.6,180,450.0,2.5547268360151136,[6400|0|0|0]
70,7001,1.3361729383468628,0.4715075492858886,0.3310982584953308,-5.05791711807251,4.23687744140625,6.766341209411621,3.494140625,1,E2,7.6,180,450.0,2.662021276396158,[6400|0|0|0]
71,7101,1.3223505020141602,0.4871701598167419,0.2383116334676742,-4.484872817993164,5.049073696136475,10.946889877319336,3.48828125,1,E2,7.6,180,450.0,2.757130344832537,[6400|0|0|0]
72,7200,1.299009919166565,0.5083168148994446,0.1609338968992233,-3.223957061767578,2.935058116912842,14.350625991821287,3.494140625,1,E2,7.6,180,450.0,2.840672417737803,[6400|0|0|0]
73,7300,1.26880145072937,0.534324049949646,0.0973766222596168,-0.9642075896263124,2.958566188812256,17.863672256469727,3.509765625,1,E2,7.6,180,450.0,2.915695447534605,[6400|0|0|0]
74,7400,1.2327995300292969,0.5582407712936401,0.0458152964711189,4.1203389167785645,3.68511176109314,20.559999465942383,3.48828125,1,E2,7.6,180,450.0,2.982976337622417,[6400|0|0|0]
75,7500,1.1951491832733154,0.5737523436546326,0.0069116996601223,6.197256088256836,-2.0397024154663086,21.835643768310547,3.47265625,1,E2,7.6,180,450.0,3.0392937180017325,[6400|0|0|0]
76,7600,1.1668354272842407,0.5798720717430115,0.0,9.818792343139648,-7.563265323638916,21.646869659423828,3.453125,1,E2,7.6,180,450.0,3.069074440663822,[6400|0|0|0]
77,7700,1.1587510108947754,0.5759795904159546,0.0,11.246786117553713,-12.190796852111816,16.472375869750977,3.431640625,1,E2,7.6,180,450.0,3.078047132525228,[6400|0|0|0]
78,7800,1.178741216659546,0.558684766292572,0.0,10.816762924194336,-13.676716804504396,9.06955337524414,3.447265625,1,E2,7.6,180,450.0,3.104480430994708,[6400|0|0|0]
79,7900,1.2241904735565186,0.5308985710144043,0.0,8.37187385559082,-7.965174198150635,3.5228703022003174,3.5,1,E2,7.6,180,450.0,3.157750568975789,[6400|0|0|0]
80,8000,1.2822611331939695,0.4921521544456482,0.0245493836700916,3.580847978591919,-1.5922913551330566,-2.732638597488404,3.515625,1,E2,7.6,180,450.0,3.2317516402263435,[6400|0|0|0]
81,8100,1.3421683311462402,0.4476005136966705,0.0612332560122013,-0.9774388670921326,4.466996669769287,-4.718664646148682,3.541015625,1,E2,7.6,180,450.0,3.3149347367660296,[6400|0|0|0]
82,8200,1.3923797607421875,0.4071328938007355,0.1005855873227119,-3.662179470062256,8.102137565612793,-4.836244583129883,3.568359375,1,E2,7.6,180,450.0,3.390482217873495,[6400|0|0|0]
83,8300,1.4310877323150637,0.3735687136650085,0.1353484094142913,-5.896036624908447,9.385749816894531,-4.65971040725708,3.57421875,1,E2,7.6,180,450.0,3.4523959889687923,[6400|0|0|0]
84,8400,1.4566065073013306,0.3497943878173828,0.1610278636217117,-6.723801612854004,9.311742782592772,-4.4441633224487305,3.5625,1,E2,7.6,180,450.0,3.495707197849402,[6400|0|0|0]
85,8500,1.4697645902633667,0.3359426259994507,0.178410992026329,-6.092488765716553,8.701419830322266,-3.972326278686523,3.546875,1,E2,7.6,180,450.0,3.5215370179383605,[6400|0|0|0]
86,8600,1.4723104238510132,0.3314357697963714,0.1892172247171402,-5.348997592926025,6.465963840484619,-4.010880470275879,3.541015625,1,E2,7.6,180,450.0,3.533518991334224,[6400|0|0|0]
87,8700,1.4677958488464355,0.3340746760368347,0.196233794093132,-4.110363483428955,4.494463443756104,-4.099562168121338,3.541015625,1,E2,7.6,180,450.0,3.5422698461168163,[6400|0|0|0]
88,8800,1.459359645843506,0.3421429097652435,0.2004879862070083,-3.3582332134246826,2.971879720687866,-3.7778124809265137,3.537109375,1,E2,7.6,180,450.0,3.5546941797868623,[6400|0|0|0]
89,8900,1.4497870206832886,0.3545723855495453,0.2026590406894683,-1.4083915948867798,1.2052994966506958,-3.772449970245361,3.53125,1,E2,7.6,180,450.0,3.5705321246755277,[6400|0|0|0]
90,9000,1.4409455060958862,0.3688943088054657,0.2033098191022873,-1.240890383720398,1.5349591970443726,-3.254218578338623,3.53125,1,E2,7.6,180,450.0,3.587375918146426,[6400|0|0|0]
91,9100,1.4329464435577393,0.3833056390285492,0.2030865252017974,1.0448342561721802,2.0254366397857666,-1.9274948835372925,3.53125,1,E2,7.6,180,450.0,3.6038598891623534,[6400|0|0|0]
92,9200,1.4232786893844604,0.395803153514862,0.2011427730321884,0.0482984967529773,1.4349899291992188,-0.2018816620111465,3.525390625,1,E2,7.6,180,450.0,3.619779421554589,[6400|0|0|0]
93,9300,1.4142072200775146,0.4065301716327667,0.1970597058534622,0.7719609141349792,0.3245738744735718,1.2460784912109375,3.521484375,1,B2,7.6,180,450.0,3.634409251036668,[6400|100|0|0]
94,9400,1.4031414985656738,0.4172253906726837,0.1922498941421508,1.0584228038787842,-0.1705237030982971,1.84717059135437,3.521484375,1,B2,7.6,180,450.0,3.6505329042079455,[6400|200|0|0]
95,9500,1.3940306901931765,0.4258743226528168,0.1867626756429672,1.2786712646484375,-0.7995072603225708,2.332944631576538,3.515625,1,B2,7.6,180,450.0,3.6642413111341767,[6400|300|0|0]
96,9600,1.3858120441436768,0.4325374066829681,0.181295707821846,0.6018055081367493,-0.0390182621777057,3.7607710361480713,3.515625,1,B2,7.6,180,450.0,3.676150575126422,[6400|400|0|0]
97,9700,1.3778631687164309,0.4383431673049927,0.1758124381303787,-0.1949230432510376,0.7157381772994995,6.267032623291016,3.515625,1,B2,7.6,180,450.0,3.687418126922065,[6400|500|0|0]
98,9800,1.3690022230148315,0.4438814222812652,0.1693342179059982,0.0273246169090271,0.2451866269111633,8.411609649658203,3.515625,1,B2,7.6,180,450.0,3.699712677104339,[6400|600|0|0]
99,9900,1.3598686456680298,0.4485442638397217,0.1638453304767608,-0.2046051770448684,-0.3718456625938415,9.16705322265625,3.509765625,1,B2,7.6,180,450.0,3.711344195137688,[6400|700|0|0]
100,10000,1.3511978387832642,0.45572230219841,0.1600961685180664,-1.0348349809646606,0.1124193295836448,9.797239303588867,3.521484375,1,B2,7.6,180,450.0,3.7232085679447193,[6400|800|0|0]
101,10100,1.3412108421325684,0.4654054045677185,0.1585396081209182,-2.495057821273804,0.2968055307865143,10.060501098632812,3.525390625,1,B2,7.6,180,450.0,3.737205905329575,[6400|900|0|0]
102,10200,1.3300679922103882,0.4794251620769501,0.158307135105133,-1.2662432193756104,-0.6160274744033813,8.896675109863281,3.525390625,1,B2,7.6,180,450.0,3.755115979274396,[6400|1000|0|0]
103,10300,1.3195650577545166,0.4974594414234161,0.1577221155166626,-1.0241655111312866,-0.5990076065063477,5.85505485534668,3.521484375,1,B2,7.6,180,450.0,3.7759939368289466,[6400|1100|0|0]
104,10400,1.310094952583313,0.5185707807540894,0.1560665965080261,0.1113565489649772,0.494387686252594,2.697641611099243,3.509765625,1,B2,7.6,180,450.0,3.799191184154361,[6400|1200|0|0]
105,10500,1.3005136251449585,0.5404180884361267,0.1520002037286758,0.6213102340698242,-0.0158548783510923,0.1298635601997375,3.505859375,1,B2,7.6,180,450.0,3.82339123040784,[6400|1300|0|0]
106,10600,1.2885775566101074,0.5621178150177002,0.1450571715831756,0.2085217088460922,1.9066898822784424,-0.9632118940353394,3.5,1,B2,7.6,180,450.0,3.849111913936028,[6400|1400|0|0]
107,10700,1.273973822593689,0.5840720534324646,0.1371600031852722,1.1744980812072754,0.5512669682502747,-1.9870421886444087,3.494140625,1,B2,7.6,180,450.0,3.876636864440969,[6400|1500|0|0]
108,10800,1.2566773891448977,0.6044173240661621,0.1333519071340561,0.2100013345479965,0.6300324201583862,-1.454282522201538,3.5,1,B2,7.6,180,450.0,3.903610893482663,[6400|1600|0|0]
109,10900,1.2372472286224363,0.6235871911048889,0.1339005529880523,1.2615909576416016,0.01257318072021,-0.0043706451542675,3.509765625,1,B2,7.6,180,450.0,3.930911368798748,[6400|1700|0|0]
110,11000,1.2153916358947754,0.6410931944847107,0.138113185763359,-1.0187466144561768,1.007369041442871,0.5821058750152588,3.521484375,1,B2,7.6,180,450.0,3.959228737368432,[6400|1800|0|0]
111,11100,1.1912702322006226,0.6589717864990234,0.1423191279172897,1.2073808908462524,0.4205465316772461,-0.7732031941413879,3.521484375,1,B2,7.6,180,450.0,3.989546654809984,[6400|1900|0|0]
112,11200,1.1639422178268433,0.675645649433136,0.1427031308412552,1.057737946510315,0.8105931878089905,-1.3521580696105957,3.78515625,1,B2,7.6,180,450.0,4.021562050059842,[6400|2000|0|0]
113,11300,1.1340426206588743,0.6912920475006104,0.1270129233598709,-6.916176795959473,-0.162486121058464,-1.5615859031677246,3.890625,1,B2,7.6,180,450.0,4.05877734656681,[6400|2100|0|0]
114,11400,1.1019119024276731,0.7118248343467712,0.0506049506366252,-19.47384262084961,2.0225377082824707,-1.7053385972976685,3.896484375,1,B2,7.6,180,450.0,4.144171472157503,[6400|2200|0|0]
115,11500,1.0655457973480225,0.739203155040741,0.0,-8.755023002624512,-2.1584270000457764,-1.5037989616394043,3.900390625,1,B2,7.6,180,450.0,4.21223708073938,[6400|2300|0|0]
116,11600,1.0223952531814575,0.6990179419517517,0.0,2.231504440307617,3.275583505630493,-101.3290557861328,3.900390625,1,B2,7.6,180,450.0,4.271201653262872,[6400|2400|0|0]
117,11700,0.9953686594963074,0.6886381506919861,0.0,5.54028844833374,3.0153019428253174,-140.07643127441406,3.90625,1,B2,7.6,180,450.0,4.300152937048198,[6400|2500|0|0]
118,11800,0.9903396368026732,0.690626859664917,0.0,3.731099367141724,0.8947271108627319,-143.72592163085938,3.90625,1,B2,7.6,180,450.0,4.305560897165664,[6400|2600|0|0]
119,11900,0.9908567667007446,0.6923809051513672,0.0,3.7580177783966064,0.9563155174255372,-143.11170959472656,3.90625,1,B2,7.6,180,450.0,4.307389584919223,[6400|2700|0|0]
120,12000,0.991479218006134,0.690762996673584,0.0,4.27061128616333,1.530478596687317,-142.75692749023438,3.912109375,1,B2,7.6,180,450.0,4.309123099692758,[6400|2800|0|0]
121,12100,0.9921239614486694,0.6888799071311951,0.0,2.785287857055664,0.0663944408297538,-142.29693603515625,3.912109375,1,B2,7.6,180,450.0,4.311113506769551,[6400|2900|0|0]
122,12200,0.98976331949234,0.698131263256073,0.0,2.2677364349365234,-0.2984050512313843,-142.02781677246094,3.912109375,1,B2,7.6,180,450.0,4.320661292931551,[6400|3000|0|0]
123,12300,0.9816454648971558,0.7107403874397278,0.0,4.39071798324585,2.912837505340576,-143.29238891601562,3.912109375,1,B2,7.6,180,450.0,4.335657611676743,[6400|3100|0|0]
124,12400,0.9889674186706544,0.7336046099662781,0.0,0.8330565094947815,11.58813190460205,-127.81183624267578,3.912109375,1,B2,7.6,180,450.0,4.359665603654516,[6400|3200|0|0]
125,12500,1.0206323862075806,0.7434738874435425,0.0,-11.824087142944336,3.913127422332764,-95.95988464355467,3.912109375,1,B2,7.6,180,450.0,4.392832949147302,[6400|3300|0|0]
126,12600,1.0805391073226929,0.7170489430427551,0.0,-15.357879638671877,-6.931356906890869,-60.32201385498047,3.916015625,1,B2,7.6,180,450.0,4.458308844875032,[6400|3400|0|0]
127,12700,1.2085124254226685,0.7210074663162231,0.0,-10.584189414978027,-9.810574531555176,-26.014873504638672,3.916015625,1,B2,7.6,180,450.0,4.586343371671612,[6400|3500|0|0]
128,12800,1.326577067375183,0.6159389615058899,0.0,-9.630663871765137,-1.9803742170333865,-28.2805290222168,3.916015625,1,B2,7.6,180,450.0,4.7443897268414,[6400|3600|0|0]
129,12900,1.358453392982483,0.6044526696205139,0.0,-5.171329975128174,1.7899549007415771,-5.87640905380249,3.916015625,1,B2,7.6,180,450.0,4.778272392549674,[6400|3700|0|0]
130,13000,1.3614145517349243,0.5945085883140564,0.0,-0.1825912892818451,3.4519760608673096,8.794096946716309,3.921875,1,B2,7.6,180,450.0,4.788647999239723,[6400|3800|0|0]
131,13100,1.3596056699752808,0.5924155116081238,0.0,-0.1779341250658035,4.310210704803467,16.437118530273438,3.921875,1,B2,7.6,180,450.0,4.791414409064259,[6400|3900|0|0]
132,13200,1.3541966676712036,0.5876787900924683,0.0,4.3446125984191895,-3.697386503219605,22.5922966003418,3.921875,1,B2,7.6,180,450.0,4.798604251666319,[6400|4000|0|0]
133,13300,1.3530675172805786,0.5917997360229492,0.0,2.4986157417297363,-4.790872573852539,23.062061309814453,3.921875,1,B2,7.6,180,450.0,4.802877093339795,[6400|4100|0|0]
134,13400,1.3526077270507812,0.5965283513069153,0.0,2.379695177078247,-4.913291931152344,19.476099014282227,3.921875,1,B2,7.6,180,450.0,4.80762801004704,[6400|4200|0|0]
135,13500,1.35163414478302,0.5989898443222046,0.0,1.997148513793945,-4.9995293617248535,12.41329574584961,3.921875,1,B2,7.6,180,450.0,4.8102750480702685,[6400|4300|0|0]
136,13600,1.3492308855056765,0.6047677397727966,0.0,1.7501840591430664,-5.033863067626953,6.451960563659668,3.921875,1,B2,7.6,180,450.0,4.816532821715273,[6400|4400|0|0]
137,13700,1.3485361337661743,0.6065467000007629,0.0,1.8801181316375728,-5.019388675689697,2.215801477432251,3.927734375,1,B2,7.6,180,450.0,4.818442633086123,[6400|4500|0|0]
138,13800,1.348577857017517,0.6065037250518799,0.0,2.114185571670532,-4.98182487487793,-0.8351508975028992,3.921875,1,B2,7.6,180,450.0,4.818502530297528,[6400|4600|0|0]
139,13900,1.34925377368927,0.6054999828338623,0.0,2.3653459548950195,-4.939181804656982,-3.09127140045166,3.927734375,1,B2,7.6,180,450.0,4.819712638469298,[6400|4700|0|0]
140,14000,1.3496615886688232,0.6039478182792664,0.0,2.598066806793213,-4.87523078918457,-4.788682460784912,3.927734375,1,B2,7.6,180,450.0,4.821317483590203,[6400|4800|0|0]
141,14100,1.3498945236206057,0.60312420129776,0.0,2.766576051712036,-4.797411918640137,-6.053701400756836,3.927734375,1,B2,7.6,180,450.0,4.822173406264273,[6400|4900|0|0]
142,14200,1.3503575325012207,0.602578341960907,0.0,2.930805206298828,-4.719590663909912,-6.981747627258301,3.927734375,1,B2,7.6,180,450.0,4.822889185307804,[6400|5000|0|0]
143,14300,1.350302815437317,0.6022354364395142,0.0,3.097114562988281,-4.624615669250488,-7.624034404754639,3.927734375,1,B2,7.6,180,450.0,4.823236428959558,[6400|5100|0|0]
144,14400,1.350727915763855,0.6016145348548889,0.0,3.249955892562866,-4.541625499725342,-8.089545249938965,3.927734375,1,B2,7.6,180,450.0,4.823988910896492,[6400|5200|0|0]
145,14500,1.35038959980011,0.6013650298118591,0.0,3.3891730308532715,-4.446447372436523,-8.422381401062012,3.931640625,1,B2,7.6,180,450.0,4.824409280326663,[6400|5300|0|0]
146,14600,1.3504515886306765,0.6011991500854492,0.0,3.500767707824707,-4.38411283493042,-8.664790153503418,3.931640625,1,B2,7.6,180,450.0,4.824586364201561,[6400|5400|0|0]
147,14700,1.3505781888961792,0.6006590723991394,0.0,3.5849649906158447,-4.328612327575684,-8.863733291625977,3.931640625,1,B2,7.6,180,450.0,4.825141081728304,[6400|5500|0|0]
148,14800,1.3504287004470823,0.6007702946662903,0.0,3.645401954650879,-4.267289638519287,-8.970345497131348,3.931640625,1,B2,7.6,180,450.0,4.825327407220718,[6400|5600|0|0]
149,14900,1.3504105806350708,0.6004346609115601,0.0,3.704815149307251,-4.218186378479004,-9.098441123962402,3.931640625,1,B2,7.6,180,450.0,4.825663529735438,[6400|5700|0|0]
150,15000,1.3510292768478394,0.5995075702667236,0.0,3.772128343582153,-4.199534893035889,-9.173955917358398,3.931640625,1,B2,7.6,180,450.0,4.826778106815517,[6400|5800|0|0]
151,15100,1.3508031368255615,0.599738359451294,0.0,3.79456090927124,-4.14503812789917,-9.24685001373291,3.931640625,1,B2,7.6,180,450.0,4.82710122128036,[6400|5900|0|0]
152,15200,1.3507345914840698,0.6000845432281494,0.0,3.812978982925415,-4.116103649139404,-9.308357238769531,3.931640625,1,B2,7.6,180,450.0,4.8274541259009,[6400|6000|0|0]
153,15300,1.3506988286972046,0.6000515222549438,0.0,3.8416550159454346,-4.089045524597168,-9.347716331481934,4.0,1,B2,7.6,180,450.0,4.827502801989443,[6400|6100|0|0]
154,15400,1.350337028503418,0.60048508644104,0.0,3.848689794540405,-4.057522296905518,-9.33674144744873,4.0,1,B2,7.6,180,450.0,4.828067494192053,[6400|6200|0|0]
155,15500,1.3503549098968506,0.6002711653709412,0.0,3.87442684173584,-4.044301509857178,-9.37168025970459,4.0078125,1,B2,7.6,180,450.0,4.828282161302863,[6400|6300|0|0]
156,15600,1.3505325317382812,0.5998263359069824,0.0,3.905539989471436,-4.044241905212402,-9.39533805847168,4.0078125,1,B2,7.6,180,450.0,4.828761142273842,[6400|6400|0|0]
157,15700,1.350857138633728,0.5998880863189697,0.0,3.9113383293151855,-4.039652824401856,-9.416479110717772,4.0078125,1,B2,7.6,180,450.0,4.829091570405138,[6400|6500|0|0]
158,15800,1.3501999378204346,0.6002476811408997,0.0,3.9163739681243896,-4.008452892303467,-9.42489242553711,4.0078125,1,B2,7.6,180,450.0,4.829840717483457,[6400|6600|0|0]
159,15900,1.350342869758606,0.6003803014755249,0.0,3.927191734313965,-4.010465621948242,-9.404709815979004,4.0078125,1,B2,7.6,180,450.0,4.830035698744365,[6400|6700|0|0]
160,16000,1.3502382040023804,0.5999891757965088,0.0,3.9494788646698,-4.007691860198975,-9.420821189880373,4.01171875,1,B2,7.6,180,450.0,4.83044058665146,[6400|6800|0|0]
161,16100,1.3505295515060425,0.599844217300415,0.0,3.948287487030029,-4.016663074493408,-9.424747467041016,4.01171875,1,B2,7.6,180,450.0,4.830766003819845,[6400|6900|0|0]
162,16200,1.3503663539886477,0.5998818278312683,0.0,3.954758644104004,-4.005091190338135,-9.414946556091309,4.01171875,1,B2,7.6,180,450.0,4.830933479136578,[6400|7000|0|0]
163,16300,1.350463628768921,0.5998429656028748,0.0,3.960026025772095,-4.0121893882751465,-9.448439598083496,4.01171875,1,B2,7.6,180,450.0,4.831038229581317,[6400|7100|0|0]
164,16400,1.350849986076355,0.5994882583618164,0.0,3.968455314636232,-4.021283149719238,-9.45149040222168,4.01171875,1,B2,7.6,180,450.0,4.831562719043429,[6400|7200|0|0]
165,16500,1.3507109880447388,0.5997253656387329,0.0,3.9564056396484375,-4.008414268493652,-9.436383247375488,4.01171875,1,B2,7.6,180,450.0,4.831837565024953,[6400|7300|0|0]
166,16600,1.3503605127334597,0.6000687479972839,0.0,3.947767972946167,-3.9925248622894287,-9.430530548095703,4.01171875,1,B2,7.6,180,450.0,4.832328222123119,[6400|7400|0|0]
167,16700,1.3505421876907349,0.5999020934104919,0.0,3.956918716430664,-4.000778675079346,-9.441667556762695,4.01171875,1,B2,7.6,180,450.0,4.832574757194457,[6400|7500|0|0]
168,16800,1.3505805730819702,0.5996673703193665,0.0,3.97109603881836,-4.00390625,-9.427851676940918,4.015625,1,B2,7.6,180,450.0,4.832812598250138,[6400|7600|0|0]
169,16900,1.3503071069717407,0.6001548171043396,0.0,3.956353902816773,-3.9908323287963854,-9.41866397857666,4.015625,1,B2,7.6,180,450.0,4.83337151513271,[6400|7700|0|0]
170,17000,1.350649118423462,0.5994517207145691,0.0,3.97757887840271,-4.004833698272705,-9.432416915893556,4.015625,1,B2,7.6,180,450.0,4.834153382363394,[6400|7800|0|0]
171,17100,1.3506224155426023,0.5992453098297119,0.0,3.98501181602478,-4.005590915679932,-9.4279146194458,4.015625,1,B2,7.6,180,450.0,4.834361513325131,[6400|7900|0|0]
172,17200,1.35045325756073,0.5994975566864014,0.0,3.969719409942627,-3.995361089706421,-9.43520736694336,4.015625,1,B2,7.6,180,450.0,4.834665228486987,[6400|8000|0|0]
173,17300,1.3507709503173828,0.5996190309524536,0.0,3.968536138534546,-4.000788688659668,-9.450185775756836,4.015625,1,B2,7.6,180,450.0,4.835005353000867,[6400|8100|0|0]
174,17400,1.3503965139389038,0.5999712944030762,0.0,3.97236704826355,-3.9894940853118896,-9.45964527130127,4.015625,1,B2,7.6,180,450.0,4.83551944651393,[6400|8200|0|0]
175,17500,1.3504637479782104,0.6001585721969604,0.0,3.962057590484619,-3.986135244369507,-9.456609725952148,4.015625,1,B2,7.6,180,450.0,4.835718427387694,[6400|8300|0|0]
176,17600,1.350297927856445,0.5998356938362122,0.0,3.988821268081665,-3.985004186630249,-9.460623741149902,4.0234375,1,B2,7.6,180,450.0,4.836081396737119,[6400|8400|0|0]
177,17700,1.350420594215393,0.6002355813980103,0.0,3.966041803359986,-3.982076406478882,-9.451151847839355,4.0234375,1,B2,7.6,180,450.0,4.8364996754691845,[6400|8500|0|0]
178,17800,1.3503800630569458,0.5998644828796387,0.0,3.988058090209961,-3.988237380981445,-9.434846878051758,4.0234375,1,B2,7.6,180,450.0,4.836872980820261,[6400|8600|0|0]
179,17900,1.3505839109420776,0.6000173091888428,0.0,3.97417426109314,-3.9898159503936768,-9.427743911743164,4.0234375,1,B2,7.6,180,450.0,4.837127754918352,[6400|8700|0|0]
180,18000,1.3506760597229004,0.5998269319534302,0.0,3.990543365478516,-3.996858835220337,-9.443897247314451,4.0234375,1,B2,7.6,180,450.0,4.8373392611583785,[6400|8800|0|0]
181,18100,1.35036039352417,0.5998534560203552,0.0,3.9711294174194336,-3.983478784561157,-9.452017784118652,4.0234375,1,B2,7.6,180,450.0,4.837656039748481,[6400|8900|0|0]
182,18200,1.3503817319869995,0.6002700924873352,0.0,3.9525704383850098,-3.981676816940308,-9.447833061218262,4.0234375,1,B2,7.6,180,450.0,4.838073222293194,[6400|9000|0|0]
183,18300,1.350515365600586,0.6000867486000061,0.0,3.966824769973755,-3.995929479598999,-9.43184757232666,4.0234375,1,B2,7.6,180,450.0,4.838300098743495,[6400|9100|0|0]
184,18400,1.3506910800933838,0.5997335910797119,0.0,3.983731031417847,-4.005626678466797,-9.41158390045166,4.0234375,1,B2,7.6,180,450.0,4.838694555099915,[6400|9200|0|0]
185,18500,1.350581169128418,0.5999195575714111,0.0,3.968610286712648,-4.005709171295166,-9.42708969116211,4.0234375,1,B2,7.6,180,450.0,4.838910573516386,[6400|9300|0|0]
186,18600,1.3506196737289429,0.5997035503387451,0.0,3.9735865592956543,-4.007020950317383,-9.458407402038574,4.02734375,1,B2,7.6,180,450.0,4.83912998575129,[6400|9400|0|0]
187,18700,1.3506639003753662,0.5996655821800232,0.0,3.969846248626709,-4.014960289001465,-9.496771812438965,4.02734375,1,B2,7.6,180,450.0,4.839188274492318,[6400|9500|0|0]
188,18800,1.3505373001098633,0.5998541116714478,0.0,3.95794415473938,-4.002443790435791,-9.49252700805664,4.02734375,1,B2,7.6,180,450.0,4.839415366976478,[6400|9600|0|0]
189,18900,1.3510327339172363,0.5993924140930176,0.0,3.962732553482056,-4.011757373809815,-9.500325202941896,4.02734375,1,B2,7.6,180,450.0,4.8400925813527405,[6400|9700|0|0]
190,19000,1.350923776626587,0.5994368195533752,0.0,3.972090005874634,-4.006206035614014,-9.480219841003418,4.02734375,1,B2,7.6,180,450.0,4.840210239909995,[6400|9800|0|0]
191,19100,1.3504886627197266,0.6000732779502869,0.0,3.950946569442749,-3.9919047355651855,-9.490768432617188,4.02734375,1,B2,7.6,180,450.0,4.8409812155276,[6400|9900|0|0]
192,19200,1.3508042097091677,0.6000438332557678,0.0,3.960585832595825,-4.009281158447266,-9.480456352233888,4.02734375,1,B2,7.6,180,450.0,4.841298133328585,[6400|10000|0|0]
193,19300,1.3504812717437744,0.6001393795013428,0.0,3.965038061141968,-4.001445770263672,-9.458062171936035,4.02734375,1,B2,7.6,180,450.0,4.841634909240039,[6400|10100|0|0]
194,19400,1.3504149913787842,0.5999730229377747,0.0,3.9758763313293457,-4.006311893463135,-9.46437931060791,4.02734375,1,B2,7.6,180,450.0,4.841813983506826,[6400|10200|0|0]
195,19500,1.3510732650756836,0.5993170142173767,0.0,3.9977738857269287,-4.031097888946533,-9.465238571166992,4.02734375,1,B2,7.6,180,450.0,4.842743322896537,[6400|10300|0|0]
196,19600,1.350044012069702,0.5990087985992432,0.0,3.99701452255249,-4.015848636627197,-9.486924171447754,4.02734375,1,B2,7.6,180,450.0,4.843817733720004,[6400|10400|0|0]
197,19700,1.3499422073364258,0.6002565622329712,0.0,3.955817461013794,-3.97879958152771,-9.420541763305664,4.02734375,1,B2,7.6,180,450.0,4.845069643576732,[6400|10500|0|0]
198,19800,1.3497793674468994,0.5999243855476379,0.0,3.9828038215637207,-3.973646640777588,-9.420791625976562,4.02734375,1,B2,7.6,180,450.0,4.845439587058767,[6400|10600|0|0]
199,19900,1.3497645854949951,0.6002625823020935,0.0,3.9653377532958975,-3.9762423038482666,-9.41468334197998,4.02734375,1,B2,7.6,180,450.0,4.845778106704912,[6400|10700|0|0]
200,20000,1.3497620820999146,0.6002323627471924,0.0,3.978543996810913,-3.976348161697388,-9.406716346740724,4.03125,1,B2,7.6,180,450.0,4.845808429773446,[6400|10800|0|0]
201,20100,1.3495546579360962,0.6002622842788696,0.0,3.976010799407959,-3.9792752265930176,-9.428739547729492,4.03125,1,B2,7.6,180,450.0,4.84601800095895,[6400|10900|0|0]
202,20200,1.3497332334518433,0.5998665690422058,0.0,3.989933729171753,-3.986683368682861,-9.445269584655762,4.03125,1,B2,7.6,180,450.0,4.846452143520043,[6400|11000|0|0]
203,20300,1.3499042987823486,0.6001075506210327,0.0,3.970256090164185,-3.9834415912628174,-9.4429292678833,4.03125,1,B2,7.6,180,450.0,4.846747669269573,[6400|11100|0|0]
204,20400,1.349939227104187,0.5996492505073547,0.0,3.993146181106568,-3.982891321182251,-9.42666244506836,4.03125,1,B2,7.6,180,450.0,4.84720729844822,[6400|11200|0|0]
205,20500,1.3499242067337036,0.5996304154396057,0.0,3.989972114562988,-3.987582445144653,-9.432744979858398,4.03125,1,B2,7.6,180,450.0,4.847231389344977,[6400|11300|0|0]
206,20600,1.350189447402954,0.599805474281311,0.0,3.974107027053833,-3.986026525497437,-9.410449028015137,4.03125,1,B2,7.6,180,450.0,4.847549191501489,[6400|11400|0|0]
207,20700,1.349764704704285,0.6004458665847778,0.0,3.9599320888519287,-3.9692108631134033,-9.42230224609375,4.03125,1,B2,7.6,180,450.0,4.848317637115969,[6400|11500|0|0]
208,20800,1.3500362634658811,0.6002892255783081,0.0,3.968741416931152,-3.979753017425537,-9.425847053527832,4.03125,1,B2,7.6,180,450.0,4.848631134430004,[6400|11600|0|0]
209,20900,1.349735140800476,0.6002695560455322,0.0,3.97420334815979,-3.96991777420044,-9.401008605957031,4.03125,1,B2,7.6,180,450.0,4.848932898825088,[6400|11700|0|0]
210,21000,1.3495947122573853,0.6002820730209351,0.0,3.973811864852905,-3.9627721309661865,-9.413426399230955,4.03125,1,B2,7.6,180,450.0,4.849073884109383,[6400|11800|0|0]
211,21100,1.3493905067443848,0.5999523401260376,0.0,3.989657878875733,-3.965363025665283,-9.412637710571287,4.03125,1,B2,7.6,180,450.0,4.849461729018486,[6400|11900|0|0]
212,21201,1.349785327911377,0.6001579165458679,0.0,3.9725382328033447,-3.9833168983459473,-9.393905639648438,4.0390625,1,B2,7.6,180,450.0,4.849906864299379,[6400|12000|0|0]
213,21301,1.3496906757354736,0.6003571152687073,0.0,3.9715867042541504,-3.978921890258789,-9.390482902526855,4.0390625,1,B2,7.6,180,450.0,4.8501274071876885,[6400|12100|0|0]
214,21401,1.3501344919204712,0.5999618172645569,0.0,3.981267929077149,-3.9965527057647705,-9.407419204711914,4.0390625,1,B2,7.6,180,450.0,4.850721741536478,[6400|12200|0|0]
215,21501,1.3499757051467896,0.5996344685554504,0.0,3.983937740325928,-3.993380069732666,-9.407586097717283,4.0390625,1,B2,7.6,180,450.0,4.851085568991255,[6400|12300|0|0]
216,21601,1.3501062393188477,0.5994125008583069,0.0,3.979047775268554,-3.9995250701904297,-9.419315338134766,4.0390625,1,B2,7.6,180,450.0,4.851343073998295,[6400|12400|0|0]
217,21701,1.3497471809387207,0.5998926758766174,0.0,3.958131074905396,-3.985377073287964,-9.435954093933104,4.0390625,1,B2,7.6,180,450.0,4.851942649655363,[6400|12500|0|0]
218,21801,1.3499823808670044,0.6000943779945374,0.0,3.956146001815796,-3.989722490310669,-9.410950660705566,4.0390625,1,B2,7.6,180,450.0,4.85225249276185,[6400|12600|0|0]
219,21901,1.350025296211243,0.5996748805046082,0.0,3.973780393600464,-3.998481273651123,-9.421219825744627,4.0390625,1,B2,7.6,180,450.0,4.852674179696469,[6400|12700|0|0]
220,22001,1.3498995304107666,0.6002630591392517,0.0,3.954078197479248,-3.988950252532959,-9.39021110534668,4.0390625,1,B2,7.6,180,450.0,4.853275653837908,[6400|12800|0|0]
221,22102,1.3494477272033691,0.60040682554245,0.0,3.959756374359131,-3.977851152420044,-9.397311210632324,4.0390625,1,B2,7.6,180,450.0,4.8537497792610855,[6400|12900|0|0]
222,22202,1.349894642829895,0.6002511382102966,0.0,3.965728759765625,-3.99520754814148,-9.406871795654297,4.0390625,1,B2,7.6,180,450.0,4.854223036191966,[6400|13000|0|0]
223,22302,1.3496863842010498,0.6004958152770996,0.0,3.967043161392212,-3.994614601135254,-9.397400856018066,4.0390625,1,B2,7.6,180,450.0,4.854544343713677,[6400|13100|0|0]
224,22402,1.349846124649048,0.5998463034629822,0.0,4.004210472106934,-4.006511688232422,-9.399065017700195,4.0390625,1,B2,7.6,180,450.0,4.85521321037259,[6400|13200|0|0]
225,22502,1.3500689268112185,0.5998595356941223,0.0,3.993539333343506,-4.003928184509277,-9.394362449645996,4.0390625,1,B2,7.6,180,450.0,4.855436405120307,[6400|13300|0|0]
226,22600,1.3502219915390017,0.5999226570129395,0.0,3.9687037467956543,-4.002294063568115,-9.376187324523926,4.0390625,1,B2,7.6,180,450.0,4.855601974174724,[6400|13400|0|0]
227,22700,1.3499385118484497,0.6002431511878967,0.0,3.967429637908936,-3.990869522094727,-9.383769989013672,4.0390625,1,B2,7.6,180,450.0,4.856029849449935,[6400|13500|0|0]
228,22800,1.3499966859817505,0.6005236506462097,0.0,3.952014207839966,-3.9974286556243896,-9.409525871276855,4.0390625,1,B2,7.6,180,450.0,4.856316317905264,[6400|13600|0|0]
229,22900,1.3499654531478882,0.5999191403388977,0.0,3.9929232597351074,-4.005015850067139,-9.41853141784668,4.0390625,1,B2,7.6,180,450.0,4.856921634517921,[6400|13700|0|0]
230,23000,1.350197672843933,0.5998026132583618,0.0,3.9954586029052734,-4.018458366394043,-9.438228607177734,4.04296875,1,B2,7.6,180,450.0,4.857181450891018,[6400|13800|0|0]
231,23100,1.3496322631835938,0.6000329256057739,0.0,3.994168519973755,-3.995741605758667,-9.454319953918455,4.04296875,1,B2,7.6,180,450.0,4.857791968590496,[6400|13900|0|0]
232,23200,1.350072145462036,0.5998063087463379,0.0,3.991975069046021,-4.009819984436035,-9.440956115722656,4.04296875,1,B2,7.6,180,450.0,4.858286793428057,[6400|14000|0|0]
233,23300,1.350175380706787,0.5993443131446838,0.0,3.999465227127075,-4.011206150054932,-9.45094394683838,4.04296875,1,B2,7.6,180,450.0,4.8587601827516655,[6400|14100|0|0]
234,23400,1.3501170873641968,0.5999104380607605,0.0,3.9592299461364746,-4.003173828125,-9.436616897583008,4.04296875,1,B2,7.6,180,450.0,4.859329300959416,[6400|14200|0|0]
235,23500,1.3499053716659546,0.5995120406150818,0.0,3.98913836479187,-3.9986302852630615,-9.435086250305176,4.04296875,1,B2,7.6,180,450.0,4.859780459536422,[6400|14300|0|0]
236,23600,1.3501397371292114,0.5994378328323364,0.0,3.981708526611328,-4.0033488273620605,-9.450335502624512,4.04296875,1,B2,7.6,180,450.0,4.86002629274286,[6400|14400|0|0]
237,23700,1.3500549793243408,0.5998737215995789,0.0,3.968974113464356,-4.000350475311279,-9.431063652038574,4.04296875,1,B2,7.6,180,450.0,4.860470345558293,[6400|14500|0|0]
238,23800,1.3496183156967163,0.5998843312263489,0.0,3.9745407104492174,-3.9877169132232666,-9.406268119812012,4.04296875,1,B2,7.6,180,450.0,4.860907138058081,[6400|14600|0|0]
239,23900,1.35014808177948,0.5999956727027893,0.0,3.968607664108277,-4.008244514465332,-9.400311470031738,4.04296875,1,B2,7.6,180,450.0,4.861448478086919,[6400|14700|0|0]
240,24000,1.349901556968689,0.6002240180969238,0.0,3.9749932289123535,-4.001642227172852,-9.389835357666016,4.04296875,1,B2,7.6,180,450.0,4.861784507998323,[6400|14800|0|0]
241,24100,1.3498036861419678,0.6001125574111938,0.0,3.988950252532959,-3.999346971511841,-9.402158737182615,4.04296875,1,B2,7.6,180,450.0,4.861932839327402,[6400|14900|0|0]
242,24200,1.3500006198883057,0.5998746752738953,0.0,4.00361442565918,-4.005439758300781,-9.393181800842283,4.04296875,1,B2,7.6,180,450.0,4.862241660977699,[6400|15000|0|0]
243,24300,1.3506838083267212,0.5995692610740662,0.0,3.9956676959991455,-4.022136211395264,-9.409889221191406,4.04296875,1,B2,7.6,180,450.0,4.862990008674857,[6400|15100|0|0]
244,24400,1.3503072261810305,0.5992699265480042,0.0,4.009588241577148,-4.000195026397705,-9.399166107177734,4.04296875,1,B2,7.6,180,450.0,4.863471065086253,[6400|15200|0|0]
245,24500,1.350308179855347,0.5994759798049927,0.0,3.990634202957153,-3.986786842346192,-9.378768920898438,4.04296875,1,B2,7.6,180,450.0,4.863677120550171,[6400|15300|0|0]
246,24600,1.3499633073806765,0.6000363826751709,0.0,3.972537279129028,-3.9745376110076895,-9.38035488128662,4.04296875,1,B2,7.6,180,450.0,4.864335139091467,[6400|15400|0|0]
247,24700,1.3500784635543823,0.6003049612045288,0.0,3.979489088058472,-3.97953724861145,-9.380467414855955,4.04296875,1,B2,7.6,180,450.0,4.864627363954842,[6400|15500|0|0]
248,24800,1.349781513214111,0.6001774072647095,0.0,3.993067502975464,-3.966361999511719,-9.373207092285156,4.04296875,1,B2,7.6,180,450.0,4.864950550452318,[6400|15600|0|0]
249,24900,1.34990656375885,0.5996195077896118,0.0,4.0080108642578125,-3.974427938461304,-9.37989616394043,4.04296875,1,B2,7.6,180,450.0,4.865522292931983,[6400|15700|0|0]
250,25000,1.350028157234192,0.5997354984283447,0.0,3.9948890209198,-3.981545925140381,-9.388779640197754,4.04296875,1,B2,7.6,180,450.0,4.86569033697835,[6400|15800|0|0]
251,25100,1.349692463874817,0.6002416610717773,0.0,3.9735071659088135,-3.97542142868042,-9.39680004119873,4.046875,1,B2,7.6,180,450.0,4.8662977006693415,[6400|15900|0|0]
252,25200,1.3499997854232788,0.599797785282135,0.0,3.992442607879639,-3.9864020347595215,-9.386346817016602,4.04296875,1,B2,7.6,180,450.0,4.866837582370068,[6400|16000|0|0]
253,25300,1.3498432636260986,0.6002086997032166,0.0,3.972537279129028,-3.9766204357147217,-9.387924194335938,4.04296875,1,B2,7.6,180,450.0,4.867277297885424,[6400|16100|0|0]
254,25400,1.349666714668274,0.5998013615608215,0.0,3.994692802429199,-3.9762446880340576,-9.393120765686035,4.046875,1,B2,7.6,180,450.0,4.867721250469333,[6400|16200|0|0]
255,25500,1.3504397869110107,0.5994424223899841,0.0,3.989173412322998,-3.9980547428131104,-9.415690422058104,4.046875,1,B2,7.6,180,450.0,4.86857358726946,[6400|16300|0|0]
256,25600,1.3507789373397827,0.5992465019226074,0.0,3.9933483600616455,-4.006688117980957,-9.401237487792969,4.046875,1,B2,7.6,180,450.0,4.8689652604021525,[6400|16400|0|0]
257,25700,1.3506019115447998,0.5992929339408875,0.0,3.977445602416992,-3.9993221759796143,-9.41339111328125,4.046875,1,B2,7.6,180,450.0,4.8691482742388175,[6400|16500|0|0]
258,25800,1.3503100872039795,0.5998486876487732,0.0,3.9439733028411865,-3.97963547706604,-9.411179542541504,4.046875,1,B2,7.6,180,450.0,4.8697759872542346,[6400|16600|0|0]
259,25900,1.3500900268554688,0.5996596813201904,0.0,3.954521417617798,-3.971678256988525,-9.431146621704102,4.046875,1,B2,7.6,180,450.0,4.870066073360815,[6400|16700|0|0]
260,26000,1.3501423597335815,0.5994359850883484,0.0,3.965662717819214,-3.9717936515808105,-9.43099880218506,4.046875,1,B2,7.6,180,450.0,4.870295809588415,[6400|16800|0|0]
261,26100,1.3502520322799685,0.599910318851471,0.0,3.9411003589630127,-3.977781057357788,-9.449271202087402,4.046875,1,B2,7.6,180,450.0,4.870782657189075,[6400|16900|0|0]
262,26200,1.350123643875122,0.6000956892967224,0.0,3.9527065753936768,-3.9862873554229736,-9.450836181640623,4.046875,1,B2,7.6,180,450.0,4.871008147287465,[6400|17000|0|0]
263,26300,1.3501259088516235,0.6001209616661072,0.0,3.9477694034576416,-3.986482858657837,-9.44084644317627,4.046875,1,B2,7.6,180,450.0,4.871033520950442,[6400|17100|0|0]
264,26400,1.3504718542099,0.5998749136924744,0.0,3.955236434936523,-3.9983861446380615,-9.437275886535645,4.046875,1,B2,7.6,180,450.0,4.87145804161689,[6400|17200|0|0]
265,26500,1.3502299785614014,0.5999277234077454,0.0,3.949221134185791,-3.9887661933898926,-9.453530311584473,4.046875,1,B2,7.6,180,450.0,4.871705615232939,[6400|17300|0|0]
266,26600,1.3500910997390747,0.600081205368042,0.0,3.9497785568237305,-3.985645294189453,-9.44229793548584,4.046875,1,B2,7.6,180,450.0,4.871912603250532,[6400|17400|0|0]
267,26700,1.3503414392471311,0.5996087193489075,0.0,3.969706058502197,-3.995386838912964,-9.457406997680664,4.046875,1,B2,7.6,180,450.0,4.872447311495813,[6400|17500|0|0]
268,26800,1.3499586582183838,0.5999057292938232,0.0,3.957408428192138,-3.982919692993164,-9.43274211883545,4.046875,1,B2,7.6,180,450.0,4.872931807340324,[6400|17600|0|0]
269,26900,1.3502137660980225,0.5998787879943848,0.0,3.9616482257843018,-3.987985372543335,-9.413087844848633,4.046875,1,B2,7.6,180,450.0,4.873188333876708,[6400|17700|0|0]
270,27000,1.3505855798721311,0.5993478298187256,0.0,3.978034734725952,-4.000341892242432,-9.416661262512209,4.046875,1,B2,7.6,180,450.0,4.873836532971829,[6400|17800|0|0]
271,27100,1.3503514528274536,0.5997056365013123,0.0,3.959357023239136,-3.995903730392456,-9.426071166992188,4.046875,1,B2,7.6,180,450.0,4.874264132194412,[6400|17900|0|0]
272,27200,1.3504505157470703,0.5996518731117249,0.0,3.976124048233032,-4.001405239105225,-9.434940338134766,4.046875,1,B2,7.6,180,450.0,4.874376844057598,[6400|18000|0|0]
273,27300,1.350069284439087,0.6002886891365051,0.0,3.9520437717437744,-3.9941718578338623,-9.445969581604004,4.046875,1,B2,7.6,180,450.0,4.875119051548535,[6400|18100|0|0]
274,27400,1.3503018617630005,0.6000393033027649,0.0,3.9656286239624015,-4.0070343017578125,-9.467480659484863,4.046875,1,B2,7.6,180,450.0,4.875460058155024,[6400|18200|0|0]
275,27500,1.350290298461914,0.5995287299156189,0.0,3.9842915534973145,-4.009239673614502,-9.485711097717283,4.046875,1,B2,7.6,180,450.0,4.875970762466338,[6400|18300|0|0]
276,27600,1.3503367900848389,0.599826455116272,0.0,3.967692852020264,-4.003950119018555,-9.468008995056152,4.046875,1,B2,7.6,180,450.0,4.876272095780305,[6400|18400|0|0]
277,27700,1.3502707481384275,0.5996379256248474,0.0,3.993449687957764,-3.995930671691896,-9.469300270080566,4.0546875,1,B2,7.6,180,450.0,4.876471857908403,[6400|18500|0|0]
278,27800,1.3500972986221311,0.5996398329734802,0.0,3.986694097518921,-3.984992504119873,-9.431771278381348,4.046875,1,B2,7.6,180,450.0,4.876645317911523,[6400|18600|0|0]
279,27900,1.3499174118041992,0.5997853875160217,0.0,3.977078437805176,-3.9822323322296143,-9.44760513305664,4.0546875,1,B2,7.6,180,450.0,4.876876716684467,[6400|18700|0|0]
280,28000,1.3499068021774292,0.5998141169548035,0.0,3.97051215171814,-3.9825613498687744,-9.458138465881348,4.0546875,1,B2,7.6,180,450.0,4.876907342569481,[6400|18800|0|0]
281,28100,1.3499261140823364,0.5997859835624695,0.0,3.975441455841065,-3.984540939331055,-9.461305618286133,4.0546875,1,B2,7.6,180,450.0,4.876941466423826,[6400|18900|0|0]
282,28200,1.3503292798995972,0.5999805331230164,0.0,3.963787794113159,-3.996776342391968,-9.450986862182615,4.0546875,1,B2,7.6,180,450.0,4.877389118306115,[6400|19000|0|0]
283,28300,1.3503310680389404,0.5999550223350525,0.0,3.9732472896575928,-3.9856503009796143,-9.451008796691896,4.0546875,1,B2,7.6,180,450.0,4.877414691685728,[6400|19100|0|0]
284,28400,1.3500635623931885,0.6000900864601135,0.0,3.9730026721954346,-3.978590965270996,-9.413467407226562,4.0546875,1,B2,7.6,180,450.0,4.877714360817251,[6400|19200|0|0]
285,28500,1.3501389026641846,0.5998895168304443,0.0,3.977181434631348,-3.983141183853149,-9.40550422668457,4.0546875,1,B2,7.6,180,450.0,4.87792861378171,[6400|19300|0|0]
286,28600,1.350209355354309,0.5998630523681641,0.0,3.982079029083252,-3.9898369312286377,-9.399622917175291,4.0546875,1,B2,7.6,180,450.0,4.878003872995827,[6400|19400|0|0]
287,28700,1.3501951694488523,0.599707841873169,0.0,3.97846794128418,-3.995789051055908,-9.40920066833496,4.0546875,1,B2,7.6,180,450.0,4.87815973042321,[6400|19500|0|0]
288,28800,1.3501784801483154,0.5996876955032349,0.0,3.973912715911865,-3.995033264160156,-9.410676956176758,4.0546875,1,B2,7.6,180,450.0,4.878185891634457,[6400|19600|0|0]
289,28900,1.3498047590255735,0.6000757217407227,0.0,3.976213216781616,-3.9865784645080566,-9.406031608581545,4.0546875,1,B2,7.6,180,450.0,4.878724623328868,[6400|19700|0|0]
290,29000,1.349959373474121,0.6001543998718262,0.0,3.982032537460327,-3.993290901184082,-9.394187927246094,4.0546875,1,B2,7.6,180,450.0,4.878898104959059,[6400|19800|0|0]
291,29100,1.350165843963623,0.5999439358711243,0.0,3.982813596725464,-4.00055456161499,-9.38105297088623,4.0546875,1,B2,7.6,180,450.0,4.879192935687828,[6400|19900|0|0]
292,29200,1.3500914573669434,0.5994475483894348,0.0,4.002812385559082,-3.996347665786743,-9.358566284179688,4.0546875,1,B2,7.6,180,450.0,4.879694865860008,[6400|20000|0|0]
293,29300,1.3503451347351074,0.599485456943512,0.0,3.9981529712677,-3.995902538299561,-9.36848258972168,4.0546875,1,B2,7.6,180,450.0,4.87995136004238,[6400|20100|0|0]
294,29400,1.3502341508865356,0.5996893048286438,0.0,3.990004301071167,-3.984722852706909,-9.367833137512209,4.0546875,1,B2,7.6,180,450.0,4.880183462121036,[6400|20200|0|0]
295,29500,1.3498071432113647,0.600373387336731,0.0,3.957503080368042,-3.9653549194335938,-9.374218940734863,4.0546875,1,B2,7.6,180,450.0,4.8809898766748026,[6400|20300|0|0]
296,29600,1.3497997522354126,0.6004870533943176,0.0,3.966825008392334,-3.972771644592285,-9.39511013031006,4.0546875,1,B2,7.6,180,450.0,4.881103782772852,[6400|20400|0|0]
297,29700,1.350031495094299,0.6001580357551575,0.0,3.9788761138916016,-3.976156949996948,-9.381972312927246,4.0546875,1,B2,7.6,180,450.0,4.881506222034759,[6400|20500|0|0]
298,29800,1.3498473167419434,0.6000991463661194,0.0,3.9792423248291016,-3.975957155227661,-9.395009994506836,4.0546875,1,B2,7.6,180,450.0,4.881699586006629,[6400|20600|0|0]
299,29900,1.3500522375106812,0.59996098279953,0.0,3.985966682434082,-3.980898380279541,-9.410513877868652,4.0546875,1,B2,7.6,180,450.0,4.88194673311382,[6400|20700|0|0]
300,30000,1.3502222299575806,0.59965580701828,0.0,3.980524778366089,-3.979979515075684,-9.437722206115724,4.0546875,1,B2,7.6,180,450.0,4.882296060595511,[6400|20800|0|0]
301,30100,1.3502957820892334,0.5998714566230774,0.0,3.9670841693878174,-3.9770331382751465,-9.411706924438477,4.0546875,1,B2,7.6,180,450.0,4.8825239085011845,[6400|20900|0|0]
302,30200,1.349960207939148,0.5998350381851196,0.0,3.968519449234009,-3.9736649990081774,-9.415532112121582,4.0546875,1,B2,7.6,180,450.0,4.882861453035771,[6400|21000|0|0]
303,30300,1.350109577178955,0.5995936989784241,0.0,3.974625587463379,-3.9824705123901367,-9.41225528717041,4.0546875,1,B2,7.6,180,450.0,4.883145276541649,[6400|21100|0|0]
304,30400,1.3500134944915771,0.6001319885253906,0.0,3.953747749328613,-3.987612724304199,-9.432433128356934,4.0546875,1,B2,7.6,180,450.0,4.883692074053702,[6400|21200|0|0]
305,30500,1.3499975204467771,0.6001436114311218,0.0,3.965346336364746,-3.991935014724731,-9.432588577270508,4.0546875,1,B2,7.6,180,450.0,4.883711829104826,[6400|21300|0|0]
306,30600,1.3498589992523191,0.6005808115005493,0.0,3.955162525177002,-3.980438470840454,-9.402888298034668,4.05859375,1,B2,7.6,180,450.0,4.884170448796969,[6400|21400|0|0]
307,30700,1.34974467754364,0.6006830334663391,0.0,3.957761764526367,-3.9783010482788086,-9.395182609558104,4.05859375,1,B2,7.6,180,450.0,4.884323807146481,[6400|21500|0|0]
308,30800,1.349711537361145,0.6004284620285034,0.0,3.976937532424927,-3.978152513504028,-9.4003324508667,4.0546875,1,B2,7.6,180,450.0,4.884580526621118,[6400|21600|0|0]
309,30900,1.350308895111084,0.6001970171928406,0.0,3.980686902999878,-3.998276948928833,-9.418397903442385,4.05859375,1,B2,7.6,180,450.0,4.885221153652523,[6400|21700|0|0]
310,31000,1.3502899408340454,0.5999120473861694,0.0,3.994763612747192,-3.991645574569702,-9.406888008117676,4.05859375,1,B2,7.6,180,450.0,4.885506753119141,[6400|21800|0|0]
311,31100,1.3504520654678345,0.5995672941207886,0.0,3.9977099895477295,-3.9955294132232666,-9.389358520507812,4.05859375,1,B2,7.6,180,450.0,4.885887724523411,[6400|21900|0|0]
312,31200,1.3505674600601196,0.5996968150138855,0.0,3.976806879043579,-3.997137069702149,-9.4147367477417,4.05859375,1,B2,7.6,180,450.0,4.886061193753182,[6400|22000|0|0]
313,31300,1.3503563404083252,0.5995053648948669,0.0,3.97648811340332,-3.991114854812622,-9.423460006713867,4.05859375,1,B2,7.6,180,450.0,4.886346193148701,[6400|22100|0|0]
314,31400,1.3501009941101074,0.6002772450447083,0.0,3.95304274559021,-3.980867862701416,-9.436070442199709,4.05859375,1,B2,7.6,180,450.0,4.887159212642768,[6400|22200|0|0]
315,31500,1.349742770195007,0.5999437570571899,0.0,3.973320245742798,-3.9641597270965576,-9.43557834625244,4.05859375,1,B2,7.6,180,450.0,4.887648639461781,[6400|22300|0|0]
316,31600,1.3502932786941528,0.60004723072052,0.0,3.968513011932373,-3.989480018615722,-9.423974990844728,4.05859375,1,B2,7.6,180,450.0,4.888208788019428,[6400|22400|0|0]
317,31700,1.349950075149536,0.5997804403305054,0.0,3.982552528381348,-3.9731967449188232,-9.43836784362793,4.05859375,1,B2,7.6,180,450.0,4.888643489969322,[6400|22500|0|0]
318,31800,1.3503108024597168,0.5991796255111694,0.0,3.994001626968384,-3.989782094955444,-9.425500869750977,4.05859375,1,B2,7.6,180,450.0,4.889344277126342,[6400|22600|0|0]
319,31900,1.350156307220459,0.6001802086830139,0.0,3.9356093406677246,-3.9837746620178223,-9.454169273376465,4.05859375,1,B2,7.6,180,450.0,4.890356717476551,[6400|22700|0|0]
320,32000,1.349992036819458,0.5998383164405823,0.0,3.971201896667481,-3.9802279472351074,-9.467636108398438,4.05859375,1,B2,7.6,180,450.0,4.89073602615043,[6400|22800|0|0]
321,32100,1.3502987623214722,0.5995121598243713,0.0,3.97828221321106,-3.98590898513794,-9.44526195526123,4.05859375,1,B2,7.6,180,450.0,4.891183752263007,[6400|22900|0|0]
322,32200,1.3506171703338623,0.59942227602005,0.0,3.979793071746826,-3.998426675796509,-9.43674087524414,4.05859375,1,B2,7.6,180,450.0,4.891514603831892,[6400|23000|0|0]
323,32300,1.3504871129989624,0.599888801574707,0.0,3.9618327617645264,-3.9940826892852783,-9.427562713623049,4.05859375,1,B2,7.6,180,450.0,4.891998918815667,[6400|23100|0|0]
324,32400,1.3503260612487793,0.5998272895812988,0.0,3.960333824157715,-3.992976188659668,-9.450379371643066,4.05859375,1,B2,7.6,180,450.0,4.892171317747132,[6400|23200|0|0]
325,32500,1.3504661321640017,0.5994963049888611,0.0,3.985931158065796,-4.004602909088135,-9.463315963745115,4.05859375,1,B2,7.6,180,450.0,4.892530720949291,[6400|23300|0|0]
326,32600,1.350486397743225,0.5996328592300415,0.0,3.9675815105438232,-4.00758171081543,-9.442384719848633,4.05859375,1,B2,7.6,180,450.0,4.892668770775389,[6400|23400|0|0]
327,32700,1.3502371311187744,0.600068986415863,0.0,3.9598910808563232,-3.9951751232147217,-9.423243522644045,4.05859375,1,B2,7.6,180,450.0,4.893171106093954,[6400|23500|0|0]
328,32800,1.3501369953155518,0.6003503203392029,0.0,3.955347776412964,-3.9895248413085938,-9.42078685760498,4.05859375,1,B2,7.6,180,450.0,4.893469729528246,[6400|23600|0|0]
329,32900,1.350153565406799,0.5999130606651306,0.0,3.976993560791016,-4.009222030639648,-9.403841018676758,4.05859375,1,B2,7.6,180,450.0,4.8939073030540605,[6400|23700|0|0]
330,33000,1.3501417636871338,0.6001500487327576,0.0,3.969729661941528,-4.002966403961182,-9.383309364318848,4.05859375,1,B2,7.6,180,450.0,4.894144584795424,[6400|23800|0|0]
331,33100,1.3502904176712036,0.5997515320777893,0.0,3.989483833312988,-4.013203144073486,-9.37454605102539,4.05859375,1,B2,7.6,180,450.0,4.894569924108523,[6400|23900|0|0]
332,33200,1.350343942642212,0.6002323627471924,0.0,3.969855070114136,-4.01274299621582,-9.395723342895508,4.05859375,1,B2,7.6,180,450.0,4.895053724744281,[6400|24000|0|0]
333,33300,1.350364089012146,0.5994876623153687,0.0,4.004114151000977,-4.014438629150391,-9.374541282653809,4.05859375,1,B2,7.6,180,450.0,4.895798697635989,[6400|24100|0|0]
334,33400,1.35039484500885,0.5996780395507812,0.0,3.981182098388672,-4.0163164138793945,-9.37933349609375,4.05859375,1,B2,7.6,180,450.0,4.895991543229915,[6400|24200|0|0]
335,33500,1.3505685329437256,0.5992085337638855,0.0,3.988642454147339,-4.016270637512207,-9.39299488067627,4.06640625,1,B2,7.6,180,450.0,4.896492146049174,[6400|24300|0|0]
336,33600,1.3504812717437744,0.5994423627853394,0.0,3.970963716506958,-4.00638484954834,-9.392924308776855,4.06640625,1,B2,7.6,180,450.0,4.896741726754139,[6400|24400|0|0]
337,33700,1.3500971794128418,0.6000880599021912,0.0,3.961978673934937,-3.98810076713562,-9.394102096557615,4.06640625,1,B2,7.6,180,450.0,4.897493026751072,[6400|24500|0|0]
338,33800,1.3501275777816772,0.6003037095069885,0.0,3.961708068847656,-3.995335102081299,-9.405888557434082,4.05859375,1,B2,7.6,180,450.0,4.897710808322554,[6400|24600|0|0]
339,33900,1.3503583669662476,0.5999925136566162,0.0,3.986607551574707,-4.006426334381104,-9.420989990234377,4.05859375,1,B2,7.6,180,450.0,4.898098244130145,[6400|24700|0|0]
340,34000,1.3501546382904053,0.6000164151191711,0.0,3.9790403842926025,-3.996098756790161,-9.449313163757324,4.06640625,1,B2,7.6,180,450.0,4.898303370075048,[6400|24800|0|0]
