time.ms,stateEstimate.x,stateEstimate.y,stateEstimate.z,stabilizer.roll,stabilizer.pitch,stabilizer.yaw,pm.vbat,drone_id,node_name,wind_speed,global_wind_direction,relative_wind_direction,travel_dist,waiting_time
0,1.6854697465896606,1.1758466958999634,-0.05243224278092384,-1.0600019693374634,-10.091288566589355,6.959042549133301,4.046875,0,A1,7.6,180,0,0.06775415194009393,[100|0|0|0]
100,1.6888548135757446,1.1774377822875977,-0.05508691817522049,0.922383725643158,0.8410775661468506,6.787525177001953,4.046875,0,A1,7.6,180,0,0.07234082130274423,[200|0|0|0]
200,1.6872135400772095,1.1735033988952637,-0.05211344733834267,3.4661216735839844,8.140193939208984,5.5490617752075195,4.046875,0,A1,7.6,180,0,0.07753838613568573,[300|0|0|0]
300,1.6857060194015503,1.1703130006790161,-0.05026521533727646,4.3779988288879395,9.449542999267578,4.652395248413086,4.046875,0,A1,7.6,180,0,0.08152175416984234,[400|0|0|0]
400,1.6849875450134277,1.1684902906417847,-0.04827415198087692,4.166851997375488,8.792747497558594,4.176397323608398,4.04296875,0,A1,7.6,180,0,0.08431510531415079,[500|0|0|0]
500,1.6847516298294067,1.1673736572265625,-0.04747682064771652,3.65041446685791,7.757026672363281,3.91015887260437,4.046875,0,A1,7.6,180,0,0.0857073206038534,[600|0|0|0]
600,1.6848913431167603,1.1671502590179443,-0.04669303447008133,3.0963220596313477,6.736602783203125,3.752357244491577,4.046875,0,A1,7.6,180,0,0.08653421076253769,[700|0|0|0]
700,1.6846177577972412,1.1668829917907715,-0.046694185584783554,2.6202094554901123,5.8470916748046875,3.673125743865967,4.046875,0,A1,7.6,180,0,0.08691667909173902,[800|0|0|0]
800,1.684649109840393,1.1668757200241089,-0.04624970257282257,2.1984639167785645,5.078497886657715,3.6530120372772217,4.046875,0,A1,7.6,180,0,0.08736232578714032,[900|0|0|0]
900,1.6850675344467163,1.1669368743896484,-0.046078961342573166,1.8435778617858887,4.3965163230896,3.6763312816619873,4.046875,0,A1,7.6,180,0,0.08781836479348559,[1000|0|0|0]
1000,1.6846264600753784,1.1668683290481567,-0.04613190516829491,1.5436391830444336,3.835261106491089,3.715728998184204,4.046875,0,A1,7.6,180,0,0.08826786241703147,[1100|0|0|0]
1100,1.684877872467041,1.166879653930664,-0.04618823528289795,1.2764884233474731,3.331591844558716,3.772693634033203,4.046875,0,A1,7.6,180,0,0.08852575682460267,[1200|0|0|0]
1200,1.685077428817749,1.1672621965408325,-0.046086378395557404,1.0422171354293823,2.8967387676239014,3.8412468433380127,4.046875,0,A1,7.6,180,0,0.08896908109779454,[1300|0|0|0]
1300,1.685095191001892,1.167121171951294,-0.04598290100693703,0.8602952361106873,2.5335946083068848,3.9326515197753906,4.046875,0,A1,7.6,180,0,0.08914489634171767,[1400|0|0|0]
1400,1.6853570938110352,1.167250633239746,-0.04622563347220421,0.6956150531768799,2.219322681427002,4.000013828277588,4.04296875,0,A1,7.6,180,0,0.08952472835240055,[1500|0|0|0]
1500,1.685337781906128,1.1670928001403809,-0.04625973850488663,0.5623133778572083,1.955261468887329,4.060527801513672,4.046875,0,A1,7.6,180,0,0.08968735488830613,[1600|0|0|0]
1600,1.6854997873306274,1.1674373149871826,-0.04603339731693268,0.4339446723461151,1.7298939228057861,4.121706962585449,4.046875,0,A1,7.6,180,0,0.09013026184309293,[1700|0|0|0]
1700,1.6853137016296387,1.1678533554077148,-0.04636375978589058,0.3295559287071228,1.5495100021362305,4.174676895141602,4.046875,0,A1,7.6,180,0,0.09069316226104009,[1800|0|0|0]
1800,1.6855958700180054,1.1677701473236084,-0.04619460180401802,0.25496360659599304,1.3939638137817383,4.247838497161865,4.046875,0,A1,7.6,180,0,0.09103251017614393,[1900|0|0|0]
1900,1.6870366334915161,1.171715259552002,-0.04212652146816254,0.10343948006629944,1.2081732749938965,4.35764741897583,4.04296875,0,A1,7.6,180,0,0.09687964515835507,[2000|0|0|0]
2000,1.687145471572876,1.171697735786438,-0.04257811978459358,0.05081837996840477,1.100261926651001,4.41919469833374,4.046875,0,A1,7.6,180,0,0.09734450411515486,[2100|0|0|0]
2100,1.6874407529830933,1.171945333480835,-0.04197696968913078,0.0008744325023144484,1.0030444860458374,4.4381022453308105,4.046875,0,A1,7.6,180,0,0.09805856095236429,[2200|0|0|0]
2200,1.687455415725708,1.1719791889190674,-0.04218228906393051,-0.0401250422000885,0.9408075213432312,4.438472270965576,4.046875,0,A1,7.6,180,0,0.09826716879590582,[2300|0|0|0]
2300,1.6878060102462769,1.1723642349243164,-0.042400721460580826,-0.07071404904127121,0.8801113963127136,4.478538513183594,4.046875,0,A1,7.6,180,0,0.09883187195325269,[2400|0|0|0]
2400,1.6880676746368408,1.1722160577774048,-0.04189004749059677,-0.08033257722854614,0.8446319699287415,4.515136241912842,4.046875,0,A1,7.6,180,0,0.09942450389955271,[2500|0|0|0]
2500,1.6880239248275757,1.17246413230896,-0.042238470166921616,-0.10091834515333176,0.8221896886825562,4.518253803253174,4.046875,0,A1,7.6,180,0,0.09985444968729161,[2600|0|0|0]
2600,1.6884057521820068,1.1723073720932007,-0.04200246185064316,-0.10372010618448257,0.7989404797554016,4.544224262237549,4.046875,0,A1,7.6,180,0,0.100329913481065,[2700|0|0|0]
2700,1.6881157159805298,1.1723058223724365,-0.041757963597774506,-0.11466676741838455,0.7864614129066467,4.552536487579346,4.046875,0,A1,7.6,180,0,0.1007092587004332,[2800|0|0|0]
2800,1.6880192756652832,1.1721817255020142,-0.042316485196352005,-0.12075120210647583,0.7733501195907593,4.561710357666016,4.046875,0,A1,7.6,180,0,0.10128947171625674,[2900|0|0|0]
2900,1.6883918046951294,1.1725456714630127,-0.04195977374911308,-0.13853730261325836,0.7584419250488281,4.592235088348389,4.04296875,0,A1,7.6,180,0,0.10192072253581785,[3000|0|0|0]
3001,1.688202142715454,1.172519326210022,-0.041751179844141006,-0.1336919367313385,0.7650644183158875,4.585660934448242,4.046875,0,A1,7.6,180,0,0.1022038782457744,[3100|0|0|0]
3101,1.6882954835891724,1.1721537113189697,-0.04202761873602867,-0.12898510694503784,0.7595240473747253,4.5767621994018555,4.046875,0,A1,7.6,180,0,0.10267164445683898,[3200|0|0|0]
3201,1.6877955198287964,1.1724942922592163,-0.04225517436861992,-0.1344996988773346,0.7649190425872803,4.591704845428467,4.046875,0,A1,7.6,180,0,0.10331797309187887,[3300|0|0|0]
3301,1.6882342100143433,1.1724892854690552,-0.041899681091308594,-0.1288360357284546,0.7514368295669556,4.592608451843262,4.046875,0,A1,7.6,180,0,0.10388264079686688,[3400|0|0|0]
3401,1.6880813837051392,1.1725229024887085,-0.041775234043598175,-0.13061915338039398,0.7450152039527893,4.6251091957092285,4.04296875,0,A1,7.6,180,0,0.10408257341671456,[3500|0|0|0]
3501,1.6883682012557983,1.1723891496658325,-0.04199455305933952,-0.12817338109016418,0.7396522164344788,4.650708198547363,4.046875,0,A1,7.6,180,0,0.10446761231820269,[3600|0|0|0]
3601,1.688368320465088,1.172403335571289,-0.04192696139216423,-0.12628881633281708,0.7392338514328003,4.654386520385742,4.046875,0,A1,7.6,180,0,0.10453667669104436,[3700|0|0|0]
3701,1.688392162322998,1.1720112562179565,-0.04214904084801674,-0.11981489509344101,0.744856059551239,4.65286111831665,4.046875,0,A1,7.6,180,0,0.10498791270269459,[3800|0|0|0]
3801,1.68844735622406,1.1722562313079834,-0.042274583131074905,-0.12704327702522278,0.7417239546775818,4.638276100158691,4.046875,0,A1,7.6,180,0,0.10526866174772158,[3900|0|0|0]
3902,1.688248634338379,1.1726882457733154,-0.041952285915613174,-0.13464970886707306,0.7529299855232239,4.660974979400635,4.046875,0,A1,7.6,180,0,0.1058431200849395,[4000|0|0|0]
4002,1.6879686117172241,1.1724369525909424,-0.04246707260608673,-0.1251598745584488,0.7609444260597229,4.676171779632568,4.046875,0,A1,7.6,180,0,0.10648074557733632,[4100|0|0|0]
4102,1.6881667375564575,1.1721090078353882,-0.04201406240463257,-0.11383187025785446,0.7568913102149963,4.682837963104248,4.046875,0,A1,7.6,180,0,0.10707405818759248,[4200|0|0|0]
4202,1.6880836486816406,1.172400951385498,-0.04200279712677002,-0.12592920660972595,0.7637838125228882,4.679080486297607,4.046875,0,A1,7.6,180,0,0.10737780430535271,[4300|0|0|0]
4300,1.6882308721542358,1.1725454330444336,-0.042038578540086746,-0.13107624650001526,0.7657967209815979,4.6860671043396,4.046875,0,A1,7.6,180,0,0.10758716048555932,[4400|0|0|0]
4402,1.6883530616760254,1.1720407009124756,-0.04204387590289116,-0.12238854169845581,0.7721041440963745,4.673670291900635,4.04296875,0,A1,7.6,180,0,0.10810649935982035,[4500|0|0|0]
4502,1.6881648302078247,1.172418475151062,-0.041819408535957336,-0.13533255457878113,0.7733283638954163,4.664591312408447,4.046875,0,A1,7.6,180,0,0.10858454753707734,[4600|0|0|0]
4602,1.688334345817566,1.1725348234176636,-0.042120374739170074,-0.13506987690925598,0.7682026028633118,4.661351203918457,4.046875,0,A1,7.6,180,0,0.10894903775171062,[4700|0|0|0]
4702,1.6883972883224487,1.1726844310760498,-0.04205067828297615,-0.1369064599275589,0.7687814235687256,4.655337810516357,4.046875,0,A1,7.6,180,0,0.1091256780822547,[4800|0|0|0]
4802,1.6882374286651611,1.172378659248352,-0.042229149490594864,-0.11817936599254608,0.7692499756813049,4.608450889587402,4.046875,0,A1,7.6,180,0,0.10951414106966871,[4900|0|0|0]
4900,1.6883177757263184,1.1726632118225098,-0.042352113872766495,-0.12602940201759338,0.7583102583885193,4.617447853088379,4.04296875,0,A1,7.6,180,0,0.10983436920237918,[5000|0|0|0]
5000,1.6886309385299683,1.172382116317749,-0.04224162548780441,-0.11576153337955475,0.7455092668533325,4.613554954528809,4.04296875,0,A1,7.6,180,0,0.11026944770977537,[5100|0|0|0]
5100,1.6881662607192993,1.1726136207580566,-0.04209040105342865,-0.1202484518289566,0.7541534900665283,4.6335601806640625,4.046875,0,A1,7.6,180,0,0.11081017740487496,[5200|0|0|0]
5200,1.6884832382202148,1.1723003387451172,-0.04202301427721977,-0.11624310165643692,0.7449891567230225,4.649240016937256,4.046875,0,A1,7.6,180,0,0.11126091162071161,[5300|0|0|0]
5300,1.6882303953170776,1.172256588935852,-0.042297374457120895,-0.11936458945274353,0.7504692673683167,4.647280216217041,4.046875,0,A1,7.6,180,0,0.11163656716478486,[5400|0|0|0]
5400,1.6879841089248657,1.1723183393478394,-0.04236311838030815,-0.12799286842346191,0.7598123550415039,4.647082328796387,4.04296875,0,A1,7.6,180,0,0.11189885014899355,[5500|0|0|0]
5500,1.6879321336746216,1.1722073554992676,-0.04192541912198067,-0.12530113756656647,0.7623831629753113,4.615246295928955,4.046875,0,A1,7.6,180,0,0.11235338230629617,[5600|0|0|0]
5600,1.6881210803985596,1.1723071336746216,-0.042249180376529694,-0.13118009269237518,0.7490983009338379,4.624800205230713,4.046875,0,A1,7.6,180,0,0.11274129711487021,[5700|0|0|0]
5700,1.6882174015045166,1.1723947525024414,-0.04192793741822243,-0.12816520035266876,0.7484890222549438,4.6307291984558105,4.046875,0,A1,7.6,180,0,0.11308792638758576,[5800|0|0|0]
5800,1.6879363059997559,1.1723461151123047,-0.042041562497615814,-0.13227365911006927,0.7556020617485046,4.652266025543213,4.046875,0,A1,7.6,180,0,0.1133949946815908,[5900|0|0|0]
5900,1.6884865760803223,1.1724939346313477,-0.041959136724472046,-0.13090911507606506,0.739100456237793,4.653219223022461,4.04296875,0,A1,7.6,180,0,0.11397070448683559,[6000|0|0|0]
6000,1.688323736190796,1.1720860004425049,-0.042268071323633194,-0.1172766238451004,0.7568985223770142,4.64424991607666,4.046875,0,A1,7.6,180,0,0.11450770329373057,[6100|0|0|0]
6100,1.6881779432296753,1.1726083755493164,-0.04196032136678696,-0.12622229754924774,0.7579300403594971,4.61746072769165,4.046875,0,A1,7.6,180,0,0.11513127476170158,[6200|0|0|0]
6200,1.6881908178329468,1.1722915172576904,-0.04203568398952484,-0.11592110991477966,0.7601994872093201,4.62202787399292,4.046875,0,A1,7.6,180,0,0.1154572263797179,[6300|0|0|0]
6300,1.688568353652954,1.1723414659500122,-0.04235653206706047,-0.11634254455566406,0.7430290579795837,4.622699737548828,4.046875,0,A1,7.6,180,0,0.11595519390487549,[6400|0|0|0]
6400,1.6880780458450317,1.1726899147033691,-0.04221448302268982,-0.1263345330953598,0.7581269145011902,4.640908718109131,4.04296875,0,A1,7.6,180,0,0.11657325232544126,[6500|0|0|0]
6500,1.6882802248001099,1.172114372253418,-0.042207472026348114,-0.10876400023698807,0.7433761358261108,4.642516136169434,4.046875,0,A1,7.6,180,0,0.11718331346634599,[6600|0|0|0]
6600,1.688120722770691,1.1726267337799072,-0.041975151747465134,-0.12210292369127274,0.7420499324798584,4.625930309295654,4.046875,0,A1,7.6,180,0,0.11776805951652113,[6700|0|0|0]
6700,1.6879973411560059,1.172347068786621,-0.041880134493112564,-0.11614147573709488,0.7473317384719849,4.621951580047607,4.046875,0,A1,7.6,180,0,0.11808815920401976,[6800|0|0|0]
6800,1.688645362854004,1.1722017526626587,-0.04193691164255142,-0.11640775948762894,0.7406917214393616,4.63191556930542,4.046875,0,A1,7.6,180,0,0.11875469693112763,[6900|0|0|0]
6900,1.6839613914489746,1.1678742170333862,-0.04769887775182724,0.007282811217010021,0.8135856986045837,4.484208583831787,4.04296875,0,A1,7.6,180,0,0.12734931188411985,[7000|0|0|0]
7000,1.6886794567108154,1.172389030456543,-0.04178662225604057,-0.1204279288649559,0.6807964444160461,4.533707618713379,4.046875,0,A1,7.6,180,0,0.1361583098469057,[7100|0|0|0]
7100,1.6885566711425781,1.1725536584854126,-0.041683997958898544,-0.12460251897573471,0.7056283354759216,4.545115947723389,4.046875,0,A1,7.6,180,0,0.1363878973683888,[7200|0|0|0]
7200,1.68833327293396,1.1725760698318481,-0.04169076681137085,-0.12775878608226776,0.729693591594696,4.557022571563721,4.046875,0,A1,7.6,180,0,0.13661251892885584,[7300|0|0|0]
7300,1.6883952617645264,1.1722289323806763,-0.042450468987226486,-0.13082355260849,0.7442537546157837,4.572955131530762,4.046875,0,A1,7.6,180,0,0.13745007156667682,[7400|0|0|0]
7400,1.6882951259613037,1.1723558902740479,-0.042026471346616745,-0.1267784684896469,0.7483325004577637,4.583770275115967,4.04296875,0,A1,7.6,180,0,0.13790385508887548,[7500|0|0|0]
7500,1.6882401704788208,1.172042965888977,-0.04279365390539169,-0.12149858474731445,0.7588838338851929,4.59500789642334,4.046875,0,A1,7.6,180,0,0.13873422299186508,[7600|0|0|0]
7600,1.688095211982727,1.1720774173736572,-0.04225239157676697,-0.12490040808916092,0.7686908841133118,4.5677666664123535,4.046875,0,A1,7.6,180,0,0.1392956183772885,[7700|0|0|0]
7700,1.6884909868240356,1.172162413597107,-0.04191383719444275,-0.13261494040489197,0.762269139289856,4.588991641998291,4.046875,0,A1,7.6,180,0,0.1398233315122439,[7800|0|0|0]
7800,1.6881704330444336,1.1721676588058472,-0.04219167307019234,-0.1329016238451004,0.7681950330734253,4.586928367614746,4.046875,0,A1,7.6,180,0,0.14024756613092257,[7900|0|0|0]
7900,1.6884489059448242,1.1721655130386353,-0.04204561188817024,-0.13114647567272186,0.7611889243125916,4.594396591186523,4.04296875,0,A1,7.6,180,0,0.14056202698613762,[8000|0|0|0]
8000,1.6886560916900635,1.1721962690353394,-0.04205827787518501,-0.13075794279575348,0.7558282017707825,4.581808567047119,4.046875,0,A1,7.6,180,0,0.1407718657137135,[8100|0|0|0]
8100,1.6885299682617188,1.172053337097168,-0.04238419607281685,-0.13037614524364471,0.7629797458648682,4.607792377471924,4.046875,0,A1,7.6,180,0,0.14114943601137267,[8200|0|0|0]
8200,1.688759446144104,1.1721909046173096,-0.04212936758995056,-0.12711398303508759,0.75663161277771,4.599756717681885,4.046875,0,A1,7.6,180,0,0.14151892549265985,[8300|0|0|0]
8300,1.688507080078125,1.172305941581726,-0.04227658361196518,-0.1365455538034439,0.7535304427146912,4.548429489135742,4.046875,0,A1,7.6,180,0,0.1418329234091779,[8400|0|0|0]
8400,1.6884526014328003,1.1723564863204956,-0.042387399822473526,-0.13544949889183044,0.758093535900116,4.556214809417725,4.04296875,0,A1,7.6,180,0,0.1419663510147366,[8500|0|0|0]
8500,1.688477635383606,1.1721789836883545,-0.042061325162649155,-0.13246861100196838,0.7556750774383545,4.5734639167785645,4.046875,0,A1,7.6,180,0,0.14233845122555291,[8600|0|0|0]
8600,1.6885879039764404,1.1724435091018677,-0.0423160195350647,-0.14013873040676117,0.7520146369934082,4.610652923583984,4.046875,0,A1,7.6,180,0,0.14272185972871915,[8700|0|0|0]
8700,1.688522219657898,1.1721136569976807,-0.04213463142514229,-0.12988243997097015,0.7569624781608582,4.623036861419678,4.046875,0,A1,7.6,180,0,0.14310398338247565,[8800|0|0|0]
8800,1.6884268522262573,1.1724088191986084,-0.04227311536669731,-0.14094077050685883,0.7622851729393005,4.626188278198242,4.046875,0,A1,7.6,180,0,0.14344367953191342,[8900|0|0|0]
8900,1.6886671781539917,1.171878695487976,-0.04237877577543259,-0.12146180868148804,0.7609922885894775,4.651967525482178,4.04296875,0,A1,7.6,180,0,0.14403524679105653,[9000|0|0|0]
9000,1.6883395910263062,1.1723003387451172,-0.042419929057359695,-0.13208261132240295,0.7699743509292603,4.662083148956299,4.046875,0,A1,7.6,180,0,0.14457077452622177,[9100|0|0|0]
9100,1.6887249946594238,1.1722878217697144,-0.042481228709220886,-0.13117356598377228,0.7636472582817078,4.660331726074219,4.046875,0,A1,7.6,180,0,0.1449612233479793,[9200|0|0|0]
9200,1.6881462335586548,1.1721704006195068,-0.04209500178694725,-0.12427220493555069,0.7768471837043762,4.63337516784668,4.046875,0,A1,7.6,180,0,0.1456668602048458,[9300|0|0|0]
9300,1.6886043548583984,1.17240309715271,-0.04216478765010834,-0.12659774720668793,0.7599861025810242,4.6420135498046875,4.046875,0,A1,7.6,180,0,0.14618540901502733,[9400|0|0|0]
9400,1.6883575916290283,1.1719285249710083,-0.042113956063985825,-0.11705545336008072,0.7648610472679138,4.668893814086914,4.04296875,0,A1,7.6,180,0,0.14672271218565075,[9500|0|0|0]
9500,1.688521385192871,1.172142505645752,-0.04206131026148796,-0.1274869740009308,0.7653846144676208,4.645482540130615,4.046875,0,A1,7.6,180,0,0.14699728028511008,[9600|0|0|0]
9600,1.6884154081344604,1.1723822355270386,-0.04216272011399269,-0.12877798080444336,0.7650492191314697,4.628878593444824,4.046875,0,A1,7.6,180,0,0.14727832389574036,[9700|0|0|0]
9700,1.6884230375289917,1.1721081733703613,-0.042167432606220245,-0.12194685637950897,0.7662268280982971,4.612736225128174,4.046875,0,A1,7.6,180,0,0.14755253272303534,[9800|0|0|0]
9800,1.6881518363952637,1.1720114946365356,-0.042511411011219025,-0.11967238038778305,0.7738746404647827,4.597689628601074,4.046875,0,A1,7.6,180,0,0.1480011059897544,[9900|0|0|0]
9900,1.6883238554000854,1.1717277765274048,-0.042196184396743774,-0.11428866535425186,0.7673346996307373,4.6007232666015625,4.04296875,0,A1,7.6,180,0,0.14845876778840292,[10000|0|0|0]
10000,1.6884677410125732,1.1720483303070068,-0.042686063796281815,-0.12054827064275742,0.7645214200019836,4.632388114929199,4.046875,0,A1,7.6,180,0,0.1490616273252686,[10100|0|0|0]
10100,1.6882903575897217,1.1719824075698853,-0.04207414388656616,-0.12060104310512543,0.768483579158783,4.636550426483154,4.046875,0,A1,7.6,180,0,0.14970214013691138,[10200|0|0|0]
10200,1.6882760524749756,1.1721471548080444,-0.042000751942396164,-0.12840919196605682,0.762800931930542,4.62183141708374,4.046875,0,A1,7.6,180,0,0.14988306184997544,[10300|0|0|0]
10300,1.6882894039154053,1.1719517707824707,-0.042221151292324066,-0.12891140580177307,0.7578375935554504,4.587538242340088,4.046875,0,A1,7.6,180,0,0.15017789918115923,[10400|0|0|0]
10400,1.6882132291793823,1.1717677116394043,-0.04235083982348442,-0.13163140416145325,0.7604086399078369,4.607871055603027,4.04296875,0,A1,7.6,180,0,0.15041559536049123,[10500|0|0|0]
10500,1.688391923904419,1.1716501712799072,-0.042228277772665024,-0.12566855549812317,0.7572087049484253,4.613160133361816,4.04296875,0,A1,7.6,180,0,0.15066210904604982,[10600|0|0|0]
10600,1.6881752014160156,1.171857237815857,-0.04219931736588478,-0.12834109365940094,0.7620770335197449,4.609070777893066,4.046875,0,A1,7.6,180,0,0.15096324670967032,[10700|0|0|0]
10700,1.6884081363677979,1.1720314025878906,-0.042195990681648254,-0.13258717954158783,0.7498815655708313,4.588752269744873,4.046875,0,A1,7.6,180,0,0.15125411287547058,[10800|0|0|0]
10800,1.6883444786071777,1.1719177961349487,-0.0423194095492363,-0.13360704481601715,0.7443606853485107,4.612583637237549,4.046875,0,A1,7.6,180,0,0.15143353125110118,[10900|0|0|0]
10900,1.6885817050933838,1.1723400354385376,-0.04209642484784126,-0.14102230966091156,0.7396764755249023,4.606445789337158,4.04296875,0,A1,7.6,180,0,0.1519667147207522,[11000|0|0|0]
11000,1.6882961988449097,1.1719218492507935,-0.04225141182541847,-0.1276213526725769,0.740439772605896,4.618605613708496,4.04296875,0,A1,7.6,180,0,0.15249625647430548,[11100|0|0|0]
11100,1.688425064086914,1.1724086999893188,-0.04229941591620445,-0.14148539304733276,0.7391621470451355,4.609731197357178,4.046875,0,A1,7.6,180,0,0.1530021559553605,[11200|0|0|0]
11200,1.6881786584854126,1.1719679832458496,-0.04251569136977196,-0.1284245103597641,0.7520045638084412,4.6380839347839355,4.04296875,0,A1,7.6,180,0,0.15355144826391878,[11300|0|0|0]
11300,1.6884126663208008,1.1716868877410889,-0.04222320765256882,-0.12036677449941635,0.7461265921592712,4.639638900756836,4.046875,0,A1,7.6,180,0,0.1540197655438143,[11400|0|0|0]
11400,1.6886162757873535,1.1724494695663452,-0.04229152575135231,-0.14538781344890594,0.7335422039031982,4.631499290466309,4.04296875,0,A1,7.6,180,0,0.15481201248618934,[11500|0|0|0]
11500,1.6887706518173218,1.172197699546814,-0.04242107644677162,-0.13225936889648438,0.734846830368042,4.6318888664245605,4.04296875,0,A1,7.6,180,0,0.15513450819786184,[11600|0|0|0]
11600,1.6887811422348022,1.1715764999389648,-0.04238114506006241,-0.11564887315034866,0.7396135926246643,4.651082992553711,4.04296875,0,A1,7.6,180,0,0.15575707828812907,[11700|0|0|0]
11700,1.6886733770370483,1.1718446016311646,-0.04219822585582733,-0.12398960441350937,0.7312583327293396,4.6602630615234375,4.046875,0,A1,7.6,180,0,0.1560990597064624,[11800|0|0|0]
11800,1.6885485649108887,1.171775460243225,-0.04221552237868309,-0.12268450111150742,0.737815260887146,4.661376476287842,4.04296875,0,A1,7.6,180,0,0.15624278781111,[11900|0|0|0]
11900,1.6886788606643677,1.172277569770813,-0.041943635791540146,-0.13958704471588135,0.7362309098243713,4.663668632507324,4.04296875,0,A1,7.6,180,0,0.15682846116489813,[12000|0|0|0]
12000,1.688357949256897,1.172357439994812,-0.04216471686959267,-0.14100801944732666,0.7468438744544983,4.6365251541137695,4.046875,0,A1,7.6,180,0,0.15722625536696666,[12100|0|0|0]
12100,1.6884162425994873,1.1720750331878662,-0.0426797978579998,-0.12949131429195404,0.7351347804069519,4.622642517089844,4.04296875,0,A1,7.6,180,0,0.1578165604940138,[12200|0|0|0]
12200,1.688508152961731,1.1718355417251587,-0.042217157781124115,-0.11986817419528961,0.7371023297309875,4.637364864349365,4.046875,0,A1,7.6,180,0,0.15834555909148745,[12300|0|0|0]
12300,1.6886060237884521,1.1720457077026367,-0.04214117303490639,-0.12350965291261673,0.7370386123657227,4.648748874664307,4.04296875,0,A1,7.6,180,0,0.15858953064407127,[12400|0|0|0]
12400,1.688372254371643,1.1721628904342651,-0.04205755516886711,-0.12890540063381195,0.7480809092521667,4.634756088256836,4.04296875,0,A1,7.6,180,0,0.15886407004078534,[12500|0|0|0]
12500,1.6882489919662476,1.1720885038375854,-0.04233931377530098,-0.1351737380027771,0.7503072619438171,4.63917350769043,4.046875,0,A1,7.6,180,0,0.15918047942536334,[12600|0|0|0]
12600,1.688342571258545,1.172025203704834,-0.042382486164569855,-0.13185745477676392,0.7458954453468323,4.61379861831665,4.04296875,0,A1,7.6,180,0,0.15930142505756398,[12700|0|0|0]
12700,1.6885690689086914,1.1720551252365112,-0.042300429195165634,-0.13017964363098145,0.7379196286201477,4.637176036834717,4.04296875,0,A1,7.6,180,0,0.1595441797275656,[12800|0|0|0]
12800,1.6885915994644165,1.172289252281189,-0.04230422154068947,-0.13585571944713593,0.742077112197876,4.641555309295654,4.04296875,0,A1,7.6,180,0,0.15977941892684025,[12900|0|0|0]
12900,1.6884794235229492,1.1722986698150635,-0.04229874908924103,-0.13381874561309814,0.7472954988479614,4.623081684112549,4.04296875,0,A1,7.6,180,0,0.15989212242950634,[13000|0|0|0]
13000,1.6885184049606323,1.1719181537628174,-0.04218710958957672,-0.12061373144388199,0.7498546242713928,4.656233310699463,4.04296875,0,A1,7.6,180,0,0.1602905887347143,[13100|0|0|0]
13100,1.688524842262268,1.1719324588775635,-0.04239397868514061,-0.1245952770113945,0.7493823766708374,4.664633274078369,4.04296875,0,A1,7.6,180,0,0.16049805173830692,[13200|0|0|0]
13200,1.688747525215149,1.1723183393478394,-0.042106062173843384,-0.13753284513950348,0.7425447106361389,4.619045734405518,4.04296875,0,A1,7.6,180,0,0.161028511305401,[13300|0|0|0]
13300,1.6883372068405151,1.171867847442627,-0.04267507791519165,-0.12587082386016846,0.7518886923789978,4.607884407043457,4.04296875,0,A1,7.6,180,0,0.16186222770749834,[13400|0|0|0]
13400,1.6883413791656494,1.172038197517395,-0.04206423833966255,-0.12612350285053253,0.7596089839935303,4.617259502410889,4.04296875,0,A1,7.6,180,0,0.16249638978717756,[13500|0|0|0]
13500,1.6885018348693848,1.171828269958496,-0.04216623678803444,-0.11700399965047836,0.7581508159637451,4.622852325439453,4.04296875,0,A1,7.6,180,0,0.16277961989913026,[13600|0|0|0]
13600,1.688401460647583,1.171825885772705,-0.04238653555512428,-0.11877494305372238,0.7592401504516602,4.639547824859619,4.04296875,0,A1,7.6,180,0,0.16302171949748906,[13700|0|0|0]
13700,1.6881921291351318,1.1720870733261108,-0.04230699688196182,-0.1250341236591339,0.7585816383361816,4.636387348175049,4.046875,0,A1,7.6,180,0,0.16336576167613526,[13800|0|0|0]
13800,1.688248872756958,1.1719189882278442,-0.04246976599097252,-0.12273228913545609,0.7501152157783508,4.623349666595459,4.04296875,0,A1,7.6,180,0,0.16360652342917212,[13900|0|0|0]
13900,1.6884658336639404,1.1721808910369873,-0.04213462024927139,-0.12554383277893066,0.7453702092170715,4.604303359985352,4.04296875,0,A1,7.6,180,0,0.1640840040934676,[14000|0|0|0]
14000,1.6885132789611816,1.1720640659332275,-0.04216668754816055,-0.1171470656991005,0.7459880113601685,4.6154656410217285,4.04296875,0,A1,7.6,180,0,0.1642141097150096,[14100|0|0|0]
14100,1.6883490085601807,1.1721856594085693,-0.04192371666431427,-0.12356837093830109,0.7492408752441406,4.615902900695801,4.04296875,0,A1,7.6,180,0,0.16453160709812914,[14200|0|0|0]
14200,1.688498616218567,1.1717824935913086,-0.042564138770103455,-0.1197650283575058,0.745084285736084,4.632338047027588,4.04296875,0,A1,7.6,180,0,0.16530301205095144,[14300|0|0|0]
14300,1.6883302927017212,1.17209792137146,-0.04260702431201935,-0.13557028770446777,0.7516041398048401,4.6360697746276855,4.04296875,0,A1,7.6,180,0,0.16566310462310468,[14400|0|0|0]
14400,1.6885688304901123,1.172175645828247,-0.04186168313026428,-0.1352834701538086,0.7466319799423218,4.623885631561279,4.04296875,0,A1,7.6,180,0,0.16644953633971676,[14500|0|0|0]
14500,1.6882253885269165,1.1723085641860962,-0.04235666245222092,-0.1442302018404007,0.7585241794586182,4.610784530639648,4.04296875,0,A1,7.6,180,0,0.16706648382621925,[14600|0|0|0]
14600,1.6884784698486328,1.1720458269119263,-0.042599134147167206,-0.1300426870584488,0.7464586496353149,4.618305206298828,4.04296875,0,A1,7.6,180,0,0.16750451756178084,[14700|0|0|0]
14700,1.6881548166275024,1.1719814538955688,-0.04234873130917549,-0.12796156108379364,0.75604248046875,4.617161750793457,4.04296875,0,A1,7.6,180,0,0.16791876009225945,[14800|0|0|0]
14800,1.6886045932769775,1.1722055673599243,-0.041930317878723145,-0.13322296738624573,0.7415539026260376,4.620217323303223,4.04296875,0,A1,7.6,180,0,0.16857266809656996,[14900|0|0|0]
14900,1.6883831024169922,1.1723344326019287,-0.04216478392481804,-0.14101700484752655,0.7526177763938904,4.621684551239014,4.04296875,0,A1,7.6,180,0,0.16891999903159485,[15000|0|0|0]
15000,1.688544750213623,1.1721055507659912,-0.042249973863363266,-0.1280808001756668,0.7463582158088684,4.592212200164795,4.04296875,0,A1,7.6,180,0,0.1692128714109806,[15100|0|0|0]
15100,1.6884280443191528,1.1720960140228271,-0.041998621076345444,-0.12501513957977295,0.7575597763061523,4.604696273803711,4.04296875,0,A1,7.6,180,0,0.16949016086050203,[15200|0|0|0]
15200,1.688277006149292,1.171791434288025,-0.04220379889011383,-0.11499752849340439,0.7576807141304016,4.629258632659912,4.04296875,0,A1,7.6,180,0,0.16988724936306776,[15300|0|0|0]
15300,1.6882308721542358,1.1719149351119995,-0.04206688702106476,-0.11813150346279144,0.7549962997436523,4.635948181152344,4.04296875,0,A1,7.6,180,0,0.17007731687451766,[15400|0|0|0]
15400,1.6888409852981567,1.1721309423446655,-0.04217776656150818,-0.12070855498313904,0.7429572939872742,4.635577201843262,4.04296875,0,A1,7.6,180,0,0.17073396856715084,[15500|0|0|0]
15500,1.6882244348526,1.1721605062484741,-0.0425008088350296,-0.1278923749923706,0.7483370304107666,4.618392467498779,4.04296875,0,A1,7.6,180,0,0.17143064983344583,[15600|0|0|0]
15600,1.6884483098983765,1.1721999645233154,-0.04220377281308174,-0.12440960854291916,0.7444425821304321,4.613359451293945,4.04296875,0,A1,7.6,180,0,0.17180469179621127,[15700|0|0|0]
15700,1.688435673713684,1.1721022129058838,-0.042035061866045,-0.12287536263465881,0.7465893030166626,4.617681980133057,4.04296875,0,A1,7.6,180,0,0.1720000848245519,[15800|0|0|0]
15800,1.6886677742004395,1.171716570854187,-0.04225529730319977,-0.11887059360742569,0.744979739189148,4.635563373565674,4.04296875,0,A1,7.6,180,0,0.17250117770592993,[15900|0|0|0]
15900,1.6882981061935425,1.1719141006469727,-0.04228619486093521,-0.13097238540649414,0.7479358911514282,4.606581687927246,4.04296875,0,A1,7.6,180,0,0.17292144799209722,[16000|0|0|0]
16000,1.6884748935699463,1.1719883680343628,-0.04193291440606117,-0.13158150017261505,0.7410939335823059,4.623648643493652,4.04296875,0,A1,7.6,180,0,0.17332341378800714,[16100|0|0|0]
16100,1.688499927520752,1.1722147464752197,-0.042256180197000504,-0.1396319717168808,0.7389059662818909,4.6209797859191895,4.04296875,0,A1,7.6,180,0,0.17371885615899108,[16200|0|0|0]
16200,1.6886310577392578,1.1720260381698608,-0.04207295924425125,-0.13534262776374817,0.7331618666648865,4.6166090965271,4.04296875,0,A1,7.6,180,0,0.17401275388991658,[16300|0|0|0]
16300,1.6889461278915405,1.1746026277542114,-0.038579437881708145,-0.1769212782382965,0.6450579762458801,4.7424845695495605,4.04296875,0,A1,7.6,180,0,0.1783650836795337,[16400|0|0|0]
16400,1.6871581077575684,1.175233244895935,-0.03621392697095871,-0.0777156725525856,0.6944076418876648,4.912962436676025,4.04296875,0,A1,7.6,180,0,0.18139664035025588,[16500|0|0|0]
16500,1.684958815574646,1.1755975484848022,-0.034841813147068024,-0.022387612611055374,0.7298474311828613,5.062458515167236,4.04296875,0,A1,7.6,180,0,0.18401433008672902,[16600|0|0|0]
16600,1.682715654373169,1.1754261255264282,-0.03395475819706917,0.021203162148594856,0.7483076453208923,5.218874454498291,4.04296875,0,A1,7.6,180,0,0.1864325989904672,[16700|0|0|0]
16700,1.689350962638855,1.1709392070770264,-0.04361232742667198,0.16787467896938324,0.7691497206687927,5.157381057739258,4.04296875,0,A1,7.6,180,0,0.19897964630753887,[16800|0|0|0]
16800,1.6891261339187622,1.1713165044784546,-0.042752500623464584,0.08270401507616043,0.8039386868476868,5.044068813323975,4.04296875,0,A1,7.6,180,0,0.19994515312471672,[16900|0|0|0]
16900,1.6857259273529053,1.1675772666931152,-0.04659499600529671,0.054432883858680725,0.8772962689399719,4.826481342315674,4.04296875,0,A1,7.6,180,0,0.2062940171699777,[17000|0|0|0]
17000,1.685877799987793,1.1677807569503784,-0.04630314186215401,-0.021181756630539894,0.8901920914649963,4.781816005706787,4.04296875,0,A1,7.6,180,0,0.20668086652424666,[17100|0|0|0]
17100,1.6857279539108276,1.1679177284240723,-0.04590193182229996,-0.08396269381046295,0.8976000547409058,4.735175609588623,4.046875,0,A1,7.6,180,0,0.20713051586258427,[17200|0|0|0]
17200,1.6853594779968262,1.1678751707077026,-0.046598710119724274,-0.12142713367938995,0.9025402069091797,4.6880903244018555,4.04296875,0,A1,7.6,180,0,0.20791987361049288,[17300|0|0|0]
17300,1.685476541519165,1.167999029159546,-0.046205051243305206,-0.14103765785694122,0.899993896484375,4.625423908233643,4.04296875,0,A1,7.6,180,0,0.20834883992075387,[17400|0|0|0]
17400,1.6853362321853638,1.1679925918579102,-0.04663538560271263,-0.1466403603553772,0.8888881206512451,4.603613376617432,4.04296875,0,A1,7.6,180,0,0.20880151619458617,[17500|0|0|0]
17500,1.685624122619629,1.16837477684021,-0.04638592526316643,-0.15963280200958252,0.8739452362060547,4.584193706512451,4.04296875,0,A1,7.6,180,0,0.20934112412989048,[17600|0|0|0]
17600,1.6853328943252563,1.1685272455215454,-0.04624761641025543,-0.16639067232608795,0.874423086643219,4.578046798706055,4.04296875,0,A1,7.6,180,0,0.2096977611400631,[17700|0|0|0]
17700,1.685441255569458,1.1684421300888062,-0.046648718416690826,-0.16330046951770782,0.8656439185142517,4.564120292663574,4.04296875,0,A1,7.6,180,0,0.2101218715215699,[17800|0|0|0]
17800,1.6854379177093506,1.168427586555481,-0.046083156019449234,-0.1503562182188034,0.8615137934684753,4.515142440795898,4.04296875,0,A1,7.6,180,0,0.21068763072904717,[17900|0|0|0]
17900,1.6854374408721924,1.1686193943023682,-0.04638783261179924,-0.1422061324119568,0.8563259840011597,4.507934093475342,4.04296875,0,A1,7.6,180,0,0.21104765609630013,[18000|0|0|0]
18000,1.685459852218628,1.1686967611312866,-0.04633878916501999,-0.1336432546377182,0.8484252691268921,4.513599872589111,4.04296875,0,A1,7.6,180,0,0.21114195961870488,[18100|0|0|0]
18100,1.6853742599487305,1.1680866479873657,-0.04635755345225334,-0.1168222427368164,0.8488484025001526,4.514280319213867,4.04296875,0,A1,7.6,180,0,0.21175833303111544,[18200|0|0|0]
18200,1.6857439279556274,1.168213129043579,-0.04620913416147232,-0.11541815847158432,0.8331812024116516,4.544469356536865,4.04296875,0,A1,7.6,180,0,0.2121762806101011,[18300|0|0|0]
18300,1.685481071472168,1.168464183807373,-0.04620075598359108,-0.11333030462265015,0.8319386839866638,4.555364608764648,4.04296875,0,A1,7.6,180,0,0.2125398630893062,[18400|0|0|0]
18400,1.6857155561447144,1.168439269065857,-0.046632010489702225,-0.10522779822349548,0.8180885910987854,4.548973083496094,4.04296875,0,A1,7.6,180,0,0.21303137530181487,[18500|0|0|0]
18500,1.6856322288513184,1.1685082912445068,-0.04604152590036392,-0.09738583117723465,0.8241976499557495,4.549983024597168,4.04296875,0,A1,7.6,180,0,0.2136316915095057,[18600|0|0|0]
18600,1.6853266954421997,1.1680923700332642,-0.04604260250926018,-0.07969780266284943,0.8383122682571411,4.544081687927246,4.04296875,0,A1,7.6,180,0,0.21414777510461017,[18700|0|0|0]
18701,1.6884859800338745,1.1721563339233398,-0.042074184864759445,-0.14899082481861115,0.7601550817489624,4.607573509216309,4.04296875,0,A1,7.6,180,0,0.22064740741976596,[18800|0|0|0]
18801,1.6855961084365845,1.1684365272521973,-0.046628765761852264,-0.07372238487005234,0.8244866728782654,4.533687591552734,4.04296875,0,A1,7.6,180,0,0.2271996991308899,[18900|0|0|0]
18901,1.6856226921081543,1.1681874990463257,-0.04617713391780853,-0.058667346835136414,0.8149294853210449,4.532480239868164,4.04296875,0,A1,7.6,180,0,0.22771612246640843,[19000|0|0|0]
19001,1.6854782104492188,1.1684455871582031,-0.04655448719859123,-0.06368280202150345,0.814591109752655,4.548684597015381,4.04296875,0,A1,7.6,180,0,0.22819558041219587,[19100|0|0|0]
19101,1.6853994131088257,1.1679996252059937,-0.046118929982185364,-0.04640964791178703,0.8211366534233093,4.571295738220215,4.04296875,0,A1,7.6,180,0,0.2288239124680666,[19200|0|0|0]
19201,1.6853843927383423,1.1683343648910522,-0.0463625006377697,-0.0567634180188179,0.8258880972862244,4.5506367683410645,4.04296875,0,A1,7.6,180,0,0.22923816231121005,[19300|0|0|0]
19301,1.6854456663131714,1.1685737371444702,-0.04617417976260185,-0.058720000088214874,0.8248701095581055,4.554501056671143,4.04296875,0,A1,7.6,180,0,0.22954883622177016,[19400|0|0|0]
19401,1.685305118560791,1.1680673360824585,-0.04613668844103813,-0.04493296891450882,0.8353820443153381,4.561676502227783,4.04296875,0,A1,7.6,180,0,0.23007571505556249,[19500|0|0|0]
19501,1.6854686737060547,1.168601155281067,-0.046208083629608154,-0.04754888638854027,0.8237192630767822,4.549249649047852,4.04296875,0,A1,7.6,180,0,0.23063857427001677,[19600|0|0|0]
19601,1.685469627380371,1.1681830883026123,-0.046607017517089844,-0.03576071560382843,0.8237409591674805,4.559017658233643,4.04296875,0,A1,7.6,180,0,0.23121644030514094,[19700|0|0|0]
19701,1.6855194568634033,1.1681828498840332,-0.046060655266046524,-0.03675342723727226,0.8230920433998108,4.547945976257324,4.04296875,0,A1,7.6,180,0,0.23176507018364537,[19800|0|0|0]
19801,1.685412049293518,1.1683272123336792,-0.0461021363735199,-0.04574908688664436,0.8329174518585205,4.54393196105957,4.04296875,0,A1,7.6,180,0,0.23194972549825524,[19900|0|0|0]
19900,1.6855167150497437,1.1682270765304565,-0.045969367027282715,-0.03924935311079025,0.8262198567390442,4.572514533996582,4.04296875,0,A1,7.6,180,0,0.2321462192612951,[20000|0|0|0]
20000,1.6854884624481201,1.1685675382614136,-0.046059608459472656,-0.04764639958739281,0.8271516561508179,4.592175006866455,4.04296875,0,A1,7.6,180,0,0.23249956882734613,[20100|0|0|0]
20100,1.6854945421218872,1.1679660081863403,-0.04609689116477966,-0.034359004348516464,0.830211877822876,4.605022430419922,4.04296875,0,A1,7.6,180,0,0.23310228384604548,[20200|0|0|0]
20200,1.6854596138000488,1.1682229042053223,-0.04606135934591293,-0.0404568649828434,0.8340457677841187,4.603069305419922,4.04296875,0,A1,7.6,180,0,0.23336396697960052,[20300|0|0|0]
20300,1.6854839324951172,1.168265700340271,-0.04636493697762489,-0.03771721571683884,0.8282256722450256,4.5801005363464355,4.04296875,0,A1,7.6,180,0,0.23367150931257635,[20400|0|0|0]
20402,1.685464859008789,1.1683309078216553,-0.04622234031558037,-0.03977958858013153,0.8207562565803528,4.567911148071289,4.04296875,0,A1,7.6,180,0,0.23382946380455247,[20500|0|0|0]
20502,1.6855584383010864,1.1680755615234375,-0.0461268313229084,-0.041413016617298126,0.8103284239768982,4.549217700958252,4.04296875,0,A1,7.6,180,0,0.23411770117832903,[20600|0|0|0]
20602,1.6854926347732544,1.1684108972549438,-0.04602564126253128,-0.04902267083525658,0.8175148963928223,4.549345970153809,4.04296875,0,A1,7.6,180,0,0.2344740992498995,[20700|0|0|0]
20702,1.6854794025421143,1.168426752090454,-0.046079691499471664,-0.05193556845188141,0.8188428282737732,4.539422035217285,4.04296875,0,A1,7.6,180,0,0.23453196025458586,[20800|0|0|0]
20800,1.6854701042175293,1.1683897972106934,-0.0462692491710186,-0.04697220027446747,0.8230207562446594,4.531710147857666,4.04296875,0,A1,7.6,180,0,0.23472531028127455,[20900|0|0|0]
20900,1.685451626777649,1.1681723594665527,-0.04613785445690155,-0.04017277806997299,0.8254684805870056,4.54208517074585,4.04296875,0,A1,7.6,180,0,0.23498003593616507,[21000|0|0|0]
21000,1.685478687286377,1.1680593490600586,-0.046392202377319336,-0.03609989583492279,0.8214080929756165,4.546985149383545,4.04296875,0,A1,7.6,180,0,0.2352596722852498,[21100|0|0|0]
21100,1.6852270364761353,1.1681634187698364,-0.046108901500701904,-0.04093072563409805,0.8250498175621033,4.563901901245117,4.04296875,0,A1,7.6,180,0,0.23565263287039895,[21200|0|0|0]
21200,1.6854606866836548,1.1681517362594604,-0.04647984355688095,-0.04353465512394905,0.8254161477088928,4.57264518737793,4.04296875,0,A1,7.6,180,0,0.23609118379054955,[21300|0|0|0]
21300,1.685579538345337,1.1681742668151855,-0.046018827706575394,-0.0418555773794651,0.8207694888114929,4.568556785583496,4.04296875,0,A1,7.6,180,0,0.2365678062382572,[21400|0|0|0]
21400,1.6854723691940308,1.168167233467102,-0.04624107480049133,-0.04866805300116539,0.8302748799324036,4.56293249130249,4.04296875,0,A1,7.6,180,0,0.2368146431595859,[21500|0|0|0]
21500,1.6854090690612793,1.1680946350097656,-0.046094860881567,-0.05584440380334854,0.8330067992210388,4.5493645668029785,4.04296875,0,A1,7.6,180,0,0.2369897315741118,[21600|0|0|0]
21600,1.6854668855667114,1.168211579322815,-0.04614170268177986,-0.055358584970235825,0.8244627714157104,4.539787292480469,4.04296875,0,A1,7.6,180,0,0.23712834208923292,[21700|0|0|0]
21700,1.685713291168213,1.1682257652282715,-0.04603274166584015,-0.057313427329063416,0.811672568321228,4.531821250915527,4.04296875,0,A1,7.6,180,0,0.23739813731409715,[21800|0|0|0]
21800,1.6853371858596802,1.1683945655822754,-0.04638126492500305,-0.061968374997377396,0.812140703201294,4.557950973510742,4.04296875,0,A1,7.6,180,0,0.23793796805126932,[21900|0|0|0]
21900,1.6855003833770752,1.1682597398757935,-0.04642200842499733,-0.05127894878387451,0.8041337728500366,4.582099914550781,4.04296875,0,A1,7.6,180,0,0.23815354039087724,[22000|0|0|0]
22000,1.6857191324234009,1.168479561805725,-0.04586787521839142,-0.0672033354640007,0.800194263458252,4.552361488342285,4.04296875,0,A1,7.6,180,0,0.23878854939617608,[22100|0|0|0]
22100,1.6852741241455078,1.1682244539260864,-0.04639119654893875,-0.05801698938012123,0.8157661557197571,4.532879829406738,4.04296875,0,A1,7.6,180,0,0.23952133695928896,[22200|0|0|0]
22200,1.6854552030563354,1.168296217918396,-0.046220436692237854,-0.06364224851131439,0.816397488117218,4.550795078277588,4.04296875,0,A1,7.6,180,0,0.23978037087830198,[22300|0|0|0]
22300,1.6853160858154297,1.1682637929916382,-0.046052586287260056,-0.06601198017597198,0.8187618851661682,4.552489757537842,4.04296875,0,A1,7.6,180,0,0.24000077673358647,[22400|0|0|0]
22400,1.685246229171753,1.1684068441390991,-0.0461590550839901,-0.07045528292655945,0.8173942565917969,4.54819917678833,4.04296875,0,A1,7.6,180,0,0.24019229484273757,[22500|0|0|0]
22500,1.685460090637207,1.1679786443710327,-0.04642626270651817,-0.0603143572807312,0.8074028491973877,4.566315650939941,4.04296875,0,A1,7.6,180,0,0.2407404660580667,[22600|0|0|0]
22600,1.685379981994629,1.168320894241333,-0.046388328075408936,-0.0677013099193573,0.8091328740119934,4.569754123687744,4.04296875,0,A1,7.6,180,0,0.24109400729268252,[22700|0|0|0]
22700,1.6853749752044678,1.1683601140975952,-0.04609384760260582,-0.06611289829015732,0.8028731346130371,4.515052318572998,4.04296875,0,A1,7.6,180,0,0.24139113018633981,[22800|0|0|0]
22800,1.6844180822372437,1.1705739498138428,-0.04483695328235626,-0.06106502190232277,0.7832500338554382,4.487489700317383,4.04296875,0,A1,7.6,180,0,0.244110780175131,[22900|0|0|0]
22900,1.6868886947631836,1.1759490966796875,-0.03554419428110123,-0.14353325963020325,0.6193304061889648,4.702922344207764,4.04296875,0,A1,7.6,180,0,0.2551267458585442,[23000|0|0|0]
23000,1.6853585243225098,1.1761482954025269,-0.03401780128479004,-0.05357907712459564,0.6719728708267212,4.905753135681152,4.04296875,0,A1,7.6,180,0,0.2572972244435297,[23100|0|0|0]
23100,1.6895794868469238,1.1704699993133545,-0.041819825768470764,0.1942945420742035,0.6826056241989136,4.971993923187256,4.04296875,0,A1,7.6,180,0,0.2678296105527061,[23200|0|0|0]
23200,1.685853362083435,1.1678640842437744,-0.04699523746967316,0.1469200700521469,0.7868787050247192,4.874529838562012,4.04296875,0,A1,7.6,180,0,0.27471870957796996,[23300|0|0|0]
23300,1.6856670379638672,1.1676404476165771,-0.0463884063065052,0.09129218012094498,0.8397358655929565,4.802962779998779,4.04296875,0,A1,7.6,180,0,0.2753917430683318,[23400|0|0|0]
23400,1.6858279705047607,1.1678105592727661,-0.04641805589199066,0.02390962280333042,0.8707449436187744,4.761512279510498,4.04296875,0,A1,7.6,180,0,0.2756277861919539,[23500|0|0|0]
23500,1.6855599880218506,1.1680614948272705,-0.046174220740795135,-0.02877913974225521,0.889942467212677,4.717569351196289,4.04296875,0,A1,7.6,180,0,0.27606851155385137,[23600|0|0|0]
23600,1.685736894607544,1.1680432558059692,-0.04600531980395317,-0.06485142558813095,0.8955888748168945,4.678374767303467,4.04296875,0,A1,7.6,180,0,0.2763137790168908,[23700|0|0|0]
23700,1.6856955289840698,1.1681334972381592,-0.04601364582777023,-0.09013847261667252,0.9066030979156494,4.6632232666015625,4.04296875,0,A1,7.6,180,0,0.2764133980590549,[23800|0|0|0]
23800,1.6857209205627441,1.1681548357009888,-0.046189162880182266,-0.10814966261386871,0.8954142928123474,4.66591739654541,4.04296875,0,A1,7.6,180,0,0.27659202140005745,[23900|0|0|0]
23900,1.6853783130645752,1.1683894395828247,-0.04610641673207283,-0.12128371745347977,0.9046524167060852,4.6233038902282715,4.04296875,0,A1,7.6,180,0,0.27701541932660056,[24000|0|0|0]
24000,1.6853573322296143,1.168443202972412,-0.04617958888411522,-0.12640342116355896,0.8961018919944763,4.589845180511475,4.04296875,0,A1,7.6,180,0,0.2771086119300093,[24100|0|0|0]
24100,1.6855111122131348,1.1683712005615234,-0.04615107551217079,-0.12237212806940079,0.877234697341919,4.582063674926758,4.04296875,0,A1,7.6,180,0,0.27728079103119463,[24200|0|0|0]
24200,1.6855754852294922,1.1682064533233643,-0.046351365745067596,-0.11307260394096375,0.8605954647064209,4.5829691886901855,4.04296875,0,A1,7.6,180,0,0.27754800202481184,[24300|0|0|0]
24300,1.6854091882705688,1.168357253074646,-0.046253155916929245,-0.11281148344278336,0.8533393740653992,4.599771976470947,4.04296875,0,A1,7.6,180,0,0.277793033479684,[24400|0|0|0]
24400,1.6856505870819092,1.1688681840896606,-0.046350106596946716,-0.12066961079835892,0.8362205624580383,4.59883975982666,4.04296875,0,A1,7.6,180,0,0.27836637746245196,[24500|0|0|0]
24500,1.6852693557739258,1.168631911277771,-0.046253133565187454,-0.10722755640745163,0.8341342806816101,4.604477882385254,4.04296875,0,A1,7.6,180,0,0.27882525208662895,[24600|0|0|0]
24600,1.685288667678833,1.1681984663009644,-0.04603930935263634,-0.08978936821222305,0.8285990953445435,4.573472023010254,4.04296875,0,A1,7.6,180,0,0.27930895477575024,[24700|0|0|0]
24700,1.6858859062194824,1.1683616638183594,-0.04642776772379875,-0.08604314923286438,0.8165960311889648,4.56717586517334,4.04296875,0,A1,7.6,180,0,0.2800398632585626,[24800|0|0|0]
24800,1.6853269338607788,1.1684702634811401,-0.0463348813354969,-0.08396730571985245,0.8272997736930847,4.5740180015563965,4.04296875,0,A1,7.6,180,0,0.28061681374663117,[24900|0|0|0]
24900,1.6855006217956543,1.168346881866455,-0.04620586708188057,-0.07373271882534027,0.832851767539978,4.562195777893066,4.04296875,0,A1,7.6,180,0,0.28086588241025584,[25000|0|0|0]
25000,1.6857099533081055,1.1685081720352173,-0.04604354500770569,-0.07776081562042236,0.8266761302947998,4.557693004608154,4.04296875,0,A1,7.6,180,0,0.28117601569838996,[25100|0|0|0]
25100,1.6857231855392456,1.168498158454895,-0.04605240374803543,-0.07320097833871841,0.8300748467445374,4.580530166625977,4.04296875,0,A1,7.6,180,0,0.28119482636058046,[25200|0|0|0]
25200,1.6855864524841309,1.1682835817337036,-0.04609953612089157,-0.06531712412834167,0.8311592936515808,4.600311756134033,4.04296875,0,A1,7.6,180,0,0.28145359374300977,[25300|0|0|0]
25300,1.6855494976043701,1.168548345565796,-0.04612870514392853,-0.0678088366985321,0.8303738236427307,4.584189414978027,4.04296875,0,A1,7.6,180,0,0.28172251079681493,[25400|0|0|0]
25400,1.685487151145935,1.1681283712387085,-0.04617423564195633,-0.04963542893528938,0.8324854969978333,4.583540916442871,4.04296875,0,A1,7.6,180,0,0.28214952197060617,[25500|0|0|0]
25500,1.6855711936950684,1.1681369543075562,-0.046105124056339264,-0.047595225274562836,0.8270984292030334,4.561441421508789,4.04296875,0,A1,7.6,180,0,0.28225866971635555,[25600|0|0|0]
25600,1.6857069730758667,1.1682795286178589,-0.046270616352558136,-0.05160510912537575,0.8216851353645325,4.561268329620361,4.04296875,0,A1,7.6,180,0,0.28251586842225446,[25700|0|0|0]
25700,1.6855835914611816,1.1684789657592773,-0.046096980571746826,-0.05575914308428764,0.8226069211959839,4.538289546966553,4.04296875,0,A1,7.6,180,0,0.28280766900586835,[25800|0|0|0]
25800,1.6855182647705078,1.168273687362671,-0.04611549898982048,-0.05299728736281395,0.8209519982337952,4.55276346206665,4.04296875,0,A1,7.6,180,0,0.283023885860983,[25900|0|0|0]
25900,1.6855887174606323,1.1684902906417847,-0.046433817595243454,-0.058917853981256485,0.8170134425163269,4.590761184692383,4.04296875,0,A1,7.6,180,0,0.28341530289769323,[26000|0|0|0]
26000,1.6856244802474976,1.1684443950653076,-0.0460827611386776,-0.053538184612989426,0.8167333602905273,4.608570575714111,4.04296875,0,A1,7.6,180,0,0.2837711483930435,[26100|0|0|0]
26100,1.685761570930481,1.16834557056427,-0.04625638946890831,-0.04609924182295799,0.8111133575439453,4.585504055023193,4.04296875,0,A1,7.6,180,0,0.2840134435321299,[26200|0|0|0]
26200,1.6854888200759888,1.1684435606002808,-0.0462755411863327,-0.04839947447180748,0.8141458630561829,4.591398239135742,4.04296875,0,A1,7.6,180,0,0.2843038946709879,[26300|0|0|0]
26300,1.68556809425354,1.1684774160385132,-0.04608936607837677,-0.04717987775802612,0.8096678256988525,4.595247268676758,4.04296875,0,A1,7.6,180,0,0.28450905742771226,[26400|0|0|0]
26400,1.6857560873031616,1.1681122779846191,-0.04629376158118248,-0.03507710620760918,0.8105218410491943,4.609318256378174,4.04296875,0,A1,7.6,180,0,0.2849677999553623,[26500|0|0|0]
26500,1.6856844425201416,1.1681432723999023,-0.04646315425634384,-0.040639478713274,0.8051979541778564,4.598476886749268,4.04296875,0,A1,7.6,180,0,0.2851543140489613,[26600|0|0|0]
26600,1.685811161994934,1.16859769821167,-0.046052154153585434,-0.0503985658288002,0.810815155506134,4.591363430023193,4.04296875,0,A1,7.6,180,0,0.28577999905610124,[26700|0|0|0]
26700,1.6855441331863403,1.1682099103927612,-0.04635785147547722,-0.04043911024928093,0.8184517025947571,4.593984127044678,4.04296875,0,A1,7.6,180,0,0.2863413675889963,[26800|0|0|0]
26800,1.6856276988983154,1.1681808233261108,-0.04622695595026016,-0.04392220452427864,0.815345048904419,4.591865062713623,4.04296875,0,A1,7.6,180,0,0.2864993641844852,[26900|0|0|0]
26900,1.6857130527496338,1.1683039665222168,-0.04623692110180855,-0.044314827769994736,0.8066920638084412,4.6108245849609375,4.04296875,0,A1,7.6,180,0,0.28664952686602574,[27000|0|0|0]
27000,1.6855829954147339,1.1681979894638062,-0.0461464561522007,-0.04631970077753067,0.8051490783691406,4.609577178955078,4.04296875,0,A1,7.6,180,0,0.286840131048504,[27100|0|0|0]
27100,1.6859893798828125,1.1681526899337769,-0.04605972021818161,-0.05645469203591347,0.8051325678825378,4.621189594268799,4.04296875,0,A1,7.6,180,0,0.28725813045707604,[27200|0|0|0]
27200,1.685876727104187,1.1680670976638794,-0.0461939312517643,-0.060168735682964325,0.809372067451477,4.604722499847412,4.04296875,0,A1,7.6,180,0,0.28745314144839085,[27300|0|0|0]
27300,1.6859384775161743,1.1679270267486572,-0.046064987778663635,-0.06157221272587776,0.8038298487663269,4.615067481994629,4.04296875,0,A1,7.6,180,0,0.28765328987813,[27400|0|0|0]
27400,1.6863515377044678,1.168097972869873,-0.04628909006714821,-0.061768125742673874,0.792451024055481,4.595322608947754,4.04296875,0,A1,7.6,180,0,0.2881533530053607,[27500|0|0|0]
27500,1.6860712766647339,1.168163537979126,-0.04591608792543411,-0.06357592344284058,0.7957403659820557,4.593626022338867,4.04296875,0,A1,7.6,180,0,0.2886244959047738,[27600|0|0|0]
27600,1.6858322620391846,1.1680245399475098,-0.04623957723379135,-0.06580968201160431,0.8071867823600769,4.609816074371338,4.04296875,0,A1,7.6,180,0,0.2890500470493394,[27700|0|0|0]
27700,1.686049222946167,1.1684881448745728,-0.04646163061261177,-0.07739526033401489,0.8055770397186279,4.620832920074463,4.04296875,0,A1,7.6,180,0,0.2896079980029198,[27800|0|0|0]
27800,1.6858216524124146,1.1679412126541138,-0.04616209492087364,-0.05833248049020767,0.8086212873458862,4.569697380065918,4.04296875,0,A1,7.6,180,0,0.2902718088436219,[27900|0|0|0]
27900,1.6856876611709595,1.1683768033981323,-0.04639135301113129,-0.06873972713947296,0.8092837333679199,4.593681335449219,4.04296875,0,A1,7.6,180,0,0.2907819580580777,[28000|0|0|0]
28000,1.6861064434051514,1.168068766593933,-0.04586443305015564,-0.0587725006043911,0.7975219488143921,4.606446266174316,4.04296875,0,A1,7.6,180,0,0.29152216740528336,[28100|0|0|0]
28100,1.6857854127883911,1.1680835485458374,-0.046063996851444244,-0.055850669741630554,0.8127390742301941,4.634190082550049,4.04296875,0,A1,7.6,180,0,0.29190045945355336,[28200|0|0|0]
28200,1.6859663724899292,1.1683344841003418,-0.04621770977973938,-0.06220781058073044,0.8071869015693665,4.612829685211182,4.04296875,0,A1,7.6,180,0,0.29224591962552726,[28300|0|0|0]
28300,1.6859883069992065,1.1681727170944214,-0.04595667123794556,-0.06032845750451088,0.805818498134613,4.608936309814453,4.04296875,0,A1,7.6,180,0,0.2925538007831247,[28400|0|0|0]
28400,1.6858017444610596,1.1682735681533813,-0.046190228313207626,-0.0640367716550827,0.803774356842041,4.588277816772461,4.04296875,0,A1,7.6,180,0,0.2928692772864307,[28500|0|0|0]
28500,1.6860677003860474,1.1681463718414307,-0.04632764682173729,-0.061582356691360474,0.8011330366134644,4.588024139404297,4.04296875,0,A1,7.6,180,0,0.2931945391844398,[28600|0|0|0]
28600,1.68576979637146,1.1682429313659668,-0.046042390167713165,-0.06883690506219864,0.8047971129417419,4.584626197814941,4.04296875,0,A1,7.6,180,0,0.2936181450181472,[28700|0|0|0]
28700,1.686248540878296,1.1679866313934326,-0.046421732753515244,-0.06276379525661469,0.7950246334075928,4.5858612060546875,4.04296875,0,A1,7.6,180,0,0.2942805548430665,[28800|0|0|0]
28800,1.685598373413086,1.168258786201477,-0.04628478363156319,-0.06530851125717163,0.8128698468208313,4.580680847167969,4.04296875,0,A1,7.6,180,0,0.29499856670533803,[28900|0|0|0]
28900,1.685978651046753,1.1681255102157593,-0.04656629264354706,-0.05686459690332413,0.8060846328735352,4.583703994750977,4.04296875,0,A1,7.6,180,0,0.295490116184907,[29000|0|0|0]
29000,1.6858694553375244,1.1678296327590942,-0.04625026881694794,-0.04816340655088425,0.8091356158256531,4.607435703277588,4.04296875,0,A1,7.6,180,0,0.29593658928740574,[29100|0|0|0]
29100,1.6861803531646729,1.1680487394332886,-0.046129994094371796,-0.05221158638596535,0.80931556224823,4.635624885559082,4.04296875,0,A1,7.6,180,0,0.29633550181226914,[29200|0|0|0]
29200,1.6856328248977661,1.1680291891098022,-0.04614231362938881,-0.05281413346529007,0.8186391592025757,4.654041290283203,4.04296875,0,A1,7.6,180,0,0.2968835174955788,[29300|0|0|0]
29300,1.6857550144195557,1.1681240797042847,-0.046113889664411545,-0.05414353683590889,0.8130598068237305,4.643812656402588,4.04296875,0,A1,7.6,180,0,0.297040814749024,[29400|0|0|0]
29400,1.6860568523406982,1.168212890625,-0.04602932184934616,-0.058954592794179916,0.8033790588378906,4.652844429016113,4.04296875,0,A1,7.6,180,0,0.29736661411308557,[29500|0|0|0]
29500,1.685800552368164,1.1681689023971558,-0.04618244618177414,-0.05940470099449158,0.8058711290359497,4.614040851593018,4.04296875,0,A1,7.6,180,0,0.297668394995998,[29600|0|0|0]
29600,1.6858065128326416,1.1681225299835205,-0.04607352986931801,-0.05426832661032677,0.8051764369010925,4.608835697174072,4.04296875,0,A1,7.6,180,0,0.29778692217010666,[29700|0|0|0]
29700,1.6859838962554932,1.1679915189743042,-0.04621236398816109,-0.045899324119091034,0.7932876348495483,4.6070966720581055,4.04296875,0,A1,7.6,180,0,0.2980475055076272,[29800|0|0|0]
29800,1.685861587524414,1.1683712005615234,-0.04621225968003273,-0.06265944987535477,0.7955735325813293,4.6065263748168945,4.04296875,0,A1,7.6,180,0,0.2984464009127796,[29900|0|0|0]
29900,1.6860439777374268,1.168110966682434,-0.046374887228012085,-0.05059381574392319,0.7949839234352112,4.590674877166748,4.04296875,0,A1,7.6,180,0,0.2988033821181539,[30000|0|0|0]
30000,1.6860988140106201,1.1681017875671387,-0.04622703045606613,-0.050024375319480896,0.796316921710968,4.583179473876953,4.04296875,0,A1,7.6,180,0,0.29896134698141663,[30100|0|0|0]
30100,1.6859992742538452,1.1680173873901367,-0.046278368681669235,-0.048038821667432785,0.8038157820701599,4.60141134262085,4.04296875,0,A1,7.6,180,0,0.29910158665649056,[30200|0|0|0]
30200,1.6857032775878906,1.1683775186538696,-0.04636842757463455,-0.05706922337412834,0.8111695051193237,4.620359420776367,4.04296875,0,A1,7.6,180,0,0.2995763699308129,[30300|0|0|0]
30300,1.685847282409668,1.16807222366333,-0.04614729806780815,-0.04687298461794853,0.8110435605049133,4.6331400871276855,4.04296875,0,A1,7.6,180,0,0.2999799051569493,[30400|0|0|0]
30400,1.6859567165374756,1.1677591800689697,-0.046324074268341064,-0.033641718327999115,0.8071619272232056,4.631166458129883,4.04296875,0,A1,7.6,180,0,0.3003557002412358,[30500|0|0|0]
30500,1.6857490539550781,1.1682833433151245,-0.04622192308306694,-0.0421307273209095,0.8139565587043762,4.627816200256348,4.04296875,0,A1,7.6,180,0,0.30092867992796163,[30600|0|0|0]
30600,1.6857757568359375,1.168212890625,-0.046275727450847626,-0.044081274420022964,0.8189197182655334,4.61287784576416,4.04296875,0,A1,7.6,180,0,0.3010212625147923,[30700|0|0|0]
30700,1.685727596282959,1.1682250499725342,-0.04620181769132614,-0.04585694521665573,0.8190494775772095,4.603684902191162,4.04296875,0,A1,7.6,180,0,0.30111031273179467,[30800|0|0|0]
30800,1.686082363128662,1.16803777217865,-0.04624099284410477,-0.04133482649922371,0.8021537661552429,4.623133182525635,4.04296875,0,A1,7.6,180,0,0.30151338490831836,[30900|0|0|0]
30900,1.686064600944519,1.1683160066604614,-0.046040553599596024,-0.04628516361117363,0.7988672852516174,4.603024005889893,4.04296875,0,A1,7.6,180,0,0.30185675906691756,[31000|0|0|0]
31000,1.6861343383789062,1.1686806678771973,-0.04642613232135773,-0.057003963738679886,0.7948976755142212,4.6126298904418945,4.04296875,0,A1,7.6,180,0,0.3023920272832555,[31100|0|0|0]
31100,1.6860883235931396,1.1682413816452026,-0.04617787525057793,-0.037329595535993576,0.8005029559135437,4.59840202331543,4.04296875,0,A1,7.6,180,0,0.3028987040316083,[31200|0|0|0]
31200,1.6857879161834717,1.1682568788528442,-0.04613587260246277,-0.03416163846850395,0.8097016215324402,4.584139823913574,4.04296875,0,A1,7.6,180,0,0.30320242923253304,[31300|0|0|0]
31300,1.6859986782073975,1.1682407855987549,-0.046415746212005615,-0.032486286014318466,0.8057647347450256,4.630434989929199,4.04296875,0,A1,7.6,180,0,0.30355315542327876,[31400|0|0|0]
31400,1.685903787612915,1.1684844493865967,-0.04645070433616638,-0.038602959364652634,0.8099433779716492,4.617177963256836,4.04296875,0,A1,7.6,180,0,0.3038169703903892,[31500|0|0|0]
31500,1.68587327003479,1.1682301759719849,-0.0461709201335907,-0.03895175829529762,0.8059137463569641,4.621918678283691,4.04296875,0,A1,7.6,180,0,0.3041962664383041,[31600|0|0|0]
31600,1.68588387966156,1.1682158708572388,-0.04607843607664108,-0.036161333322525024,0.8040633797645569,4.59349250793457,4.04296875,0,A1,7.6,180,0,0.3042904497769472,[31700|0|0|0]
31700,1.686087965965271,1.1682965755462646,-0.04660667106509209,-0.040199726819992065,0.7960140109062195,4.6039886474609375,4.04296875,0,A1,7.6,180,0,0.30486246085133034,[31800|0|0|0]
31800,1.6857647895812988,1.1682368516921997,-0.04628550633788109,-0.04161585494875908,0.8021345138549805,4.613110542297363,4.04296875,0,A1,7.6,180,0,0.3053219787464185,[31900|0|0|0]
31900,1.6859298944473267,1.168105125427246,-0.04602431505918503,-0.03969242051243782,0.7979267835617065,4.622374534606934,4.04296875,0,A1,7.6,180,0,0.3056578839558624,[32000|0|0|0]
32000,1.6858028173446655,1.168127417564392,-0.04607955738902092,-0.047649409621953964,0.8025420904159546,4.595930576324463,4.04296875,0,A1,7.6,180,0,0.3057982308275945,[32100|0|0|0]
32100,1.6856518983840942,1.1682294607162476,-0.04614175856113434,-0.049491822719573975,0.7971583008766174,4.5866827964782715,4.04296875,0,A1,7.6,180,0,0.30599073621274725,[32200|0|0|0]
32200,1.6857198476791382,1.168083906173706,-0.046650808304548264,-0.04829418286681175,0.7947720289230347,4.575138568878174,4.04296875,0,A1,7.6,180,0,0.3065245291246721,[32300|0|0|0]
32300,1.6859900951385498,1.167966365814209,-0.04637724161148071,-0.04465460032224655,0.7759850025177002,4.558914661407471,4.04296875,0,A1,7.6,180,0,0.30692663378888907,[32400|0|0|0]
32400,1.6859397888183594,1.1682322025299072,-0.0461234413087368,-0.04974639415740967,0.7835838794708252,4.579413414001465,4.04296875,0,A1,7.6,180,0,0.30729759804449497,[32500|0|0|0]
32500,1.6857649087905884,1.16812264919281,-0.04611462727189064,-0.048316750675439835,0.7927096486091614,4.5895490646362305,4.04296875,0,A1,7.6,180,0,0.30750414742122567,[32600|0|0|0]
32600,1.6860767602920532,1.1680737733840942,-0.04630781337618828,-0.044696249067783356,0.7791593670845032,4.584713459014893,4.04296875,0,A1,7.6,180,0,0.3078742299451811,[32700|0|0|0]
32700,1.6859732866287231,1.16818368434906,-0.04620664194226265,-0.04825402423739433,0.7854398488998413,4.584920406341553,4.04296875,0,A1,7.6,180,0,0.30805595192586926,[32800|0|0|0]
