time.ms,stateEstimate.x,stateEstimate.y,stateEstimate.z,stabilizer.roll,stabilizer.pitch,stabilizer.yaw,pm.vbat,drone_id,node_name,wind_speed,global_wind_direction,relative_wind_direction,travel_dist,waiting_time
0,1.2516742944717407,1.0868980884552002,-0.04805847629904747,0.11660358309745789,0.9833635091781616,-2.1069839000701904,4.06640625,2,A/E1,7.6,180,0,0.08490625589844873,[100|0|0|0]
100,1.2518794536590576,1.0871275663375854,-0.04827048256993294,0.12224278599023819,0.9825966358184814,-2.1281139850616455,4.06640625,2,A/E1,7.6,180,0,0.08528001658329842,[200|0|0|0]
200,1.251725673675537,1.0875881910324097,-0.04824480786919594,0.12587207555770874,0.9819273352622986,-2.142169713973999,4.06640625,2,A/E1,7.6,180,0,0.08576631133246955,[300|0|0|0]
300,1.2517445087432861,1.087080955505371,-0.048489417880773544,0.12961514294147491,0.9866805076599121,-2.17187237739563,4.06640625,2,A/E1,7.6,180,0,0.08632976203788326,[400|0|0|0]
400,1.2515209913253784,1.0871682167053223,-0.04808934032917023,0.12861119210720062,0.989676296710968,-2.13067364692688,4.06640625,2,A/E1,7.6,180,0,0.086796277418575,[500|0|0|0]
500,1.2516690492630005,1.0868879556655884,-0.048336226493120193,0.13762767612934113,0.9872804284095764,-2.138044834136963,4.06640625,2,A/E1,7.6,180,0,0.08719804872321926,[600|0|0|0]
600,1.2519426345825195,1.0871106386184692,-0.04817051440477371,0.13244910538196564,0.978574812412262,-2.156874179840088,4.06640625,2,A/E1,7.6,180,0,0.0875877885348683,[700|0|0|0]
700,1.251821756362915,1.0871515274047852,-0.04839732497930527,0.13206049799919128,0.9766499996185303,-2.117661476135254,4.06640625,2,A/E1,7.6,180,0,0.08784803163956173,[800|0|0|0]
800,1.2516745328903198,1.0871989727020264,-0.0480935238301754,0.13438071310520172,0.9760025143623352,-2.1140859127044678,4.06640625,2,A/E1,7.6,180,0,0.08818894357148246,[900|0|0|0]
900,1.2520532608032227,1.0874541997909546,-0.04830838739871979,0.1482253074645996,0.9786078929901123,-2.1132383346557617,4.06640625,2,A/E1,7.6,180,0,0.08869366334722158,[1000|0|0|0]
1000,1.2516417503356934,1.0871922969818115,-0.048351895064115524,0.16465722024440765,0.9948592782020569,-2.13559627532959,4.06640625,2,A/E1,7.6,180,0,0.08918338455696381,[1100|0|0|0]
1100,1.2516858577728271,1.0871635675430298,-0.04853769764304161,0.16700465977191925,1.0059653520584106,-2.1162216663360596,4.05859375,2,A/E1,7.6,180,0,0.08937649966512164,[1200|0|0|0]
1200,1.2517515420913696,1.087380051612854,-0.048456721007823944,0.16409088671207428,1.0086541175842285,-2.101454973220825,4.06640625,2,A/E1,7.6,180,0,0.08961678490736764,[1300|0|0|0]
1300,1.2517123222351074,1.0871976613998413,-0.04833739995956421,0.1721191108226776,1.0141173601150513,-2.0990214347839355,4.06640625,2,A/E1,7.6,180,0,0.0898382389646478,[1400|0|0|0]
1400,1.251883864402771,1.0872318744659424,-0.04850051924586296,0.16795149445533752,1.0110762119293213,-2.1114730834960938,4.06640625,2,A/E1,7.6,180,0,0.09007741494743322,[1500|0|0|0]
1500,1.251928448677063,1.0871301889419556,-0.04836953058838844,0.11998607218265533,0.9778460264205933,-2.0958781242370605,4.06640625,2,A/E1,7.6,180,0,0.09024912904612518,[1600|0|0|0]
1600,1.25191330909729,1.0872501134872437,-0.04830952733755112,0.13265222311019897,0.9899828433990479,-2.1075336933135986,4.06640625,2,A/E1,7.6,180,0,0.09038407901296217,[1700|0|0|0]
1700,1.2516164779663086,1.0874898433685303,-0.0485815554857254,0.133219376206398,0.997572660446167,-2.106215476989746,4.06640625,2,A/E1,7.6,180,0,0.09085267099934323,[1800|0|0|0]
1800,1.251941204071045,1.0872080326080322,-0.048127755522727966,0.09166692197322845,0.9729793071746826,-2.1174347400665283,4.06640625,2,A/E1,7.6,180,0,0.09147780998728607,[1900|0|0|0]
1900,1.2520296573638916,1.0871708393096924,-0.04821909964084625,0.10968269407749176,0.9827865958213806,-2.1267738342285156,4.06640625,2,A/E1,7.6,180,0,0.09161029045517331,[2000|0|0|0]
2000,1.251795768737793,1.0871977806091309,-0.04841459542512894,0.11890503764152527,0.9924389123916626,-2.1029484272003174,4.06640625,2,A/E1,7.6,180,0,0.09191631059291924,[2100|0|0|0]
2100,1.251656413078308,1.0870126485824585,-0.048281121999025345,0.1292712390422821,1.000474214553833,-2.1116957664489746,4.06640625,2,A/E1,7.6,180,0,0.0921837223028463,[2200|0|0|0]
2200,1.2518473863601685,1.0871301889419556,-0.048237159848213196,0.12694059312343597,1.0025787353515625,-2.1351797580718994,4.06640625,2,A/E1,7.6,180,0,0.09241223751284171,[2300|0|0|0]
2300,1.2516227960586548,1.087631344795227,-0.04875287413597107,0.1412178874015808,1.0144027471542358,-2.1488661766052246,4.06640625,2,A/E1,7.6,180,0,0.09316560277577854,[2400|0|0|0]
2400,1.2520276308059692,1.0875102281570435,-0.04824891313910484,0.16397786140441895,1.0063947439193726,-2.1295974254608154,4.06640625,2,A/E1,7.6,180,0,0.09382327830295015,[2500|0|0|0]
2500,1.2515538930892944,1.0874927043914795,-0.048327524214982986,0.11812689900398254,0.9925976395606995,-2.135125160217285,4.06640625,2,A/E1,7.6,180,0,0.09430381363756199,[2600|0|0|0]
2600,1.2519382238388062,1.0873888731002808,-0.048232220113277435,0.1289013773202896,0.9854139685630798,-2.120907783508301,4.05859375,2,A/E1,7.6,180,0,0.09471317159076938,[2700|0|0|0]
2700,1.2520285844802856,1.0874453783035278,-0.048139359802007675,0.1306564211845398,0.9799756407737732,-2.1329102516174316,4.06640625,2,A/E1,7.6,180,0,0.09485452547621896,[2800|0|0|0]
2800,1.2517963647842407,1.0870075225830078,-0.048495300114154816,0.13605929911136627,0.9963152408599854,-2.0908401012420654,4.06640625,2,A/E1,7.6,180,0,0.09546471981004606,[2900|0|0|0]
2900,1.2521967887878418,1.0873417854309082,-0.04812785983085632,0.1312159150838852,0.9910793900489807,-2.1143040657043457,4.06640625,2,A/E1,7.6,180,0,0.09610275068385772,[3000|0|0|0]
3000,1.2517197132110596,1.087161898612976,-0.04797939956188202,0.09620697796344757,0.9760652780532837,-2.1141977310180664,4.06640625,2,A/E1,7.6,180,0,0.09663378818224344,[3100|0|0|0]
3100,1.252246618270874,1.0869500637054443,-0.048431992530822754,0.1100064069032669,0.9581196904182434,-2.102823495864868,4.06640625,2,A/E1,7.6,180,0,0.09735997229501488,[3200|0|0|0]
3200,1.251724362373352,1.0874214172363281,-0.04836193472146988,0.11063060909509659,0.9790394902229309,-2.1133668422698975,4.06640625,2,A/E1,7.6,180,0,0.09806696131206141,[3300|0|0|0]
3300,1.2519391775131226,1.0873310565948486,-0.047933973371982574,0.12063867598772049,0.9755018353462219,-2.092639446258545,4.06640625,2,A/E1,7.6,180,0,0.09855426153416089,[3400|0|0|0]
3400,1.2517824172973633,1.0870999097824097,-0.04810510575771332,0.1301673948764801,0.9799439311027527,-2.09305477142334,4.06640625,2,A/E1,7.6,180,0,0.09888181138928448,[3500|0|0|0]
3500,1.251794695854187,1.0869598388671875,-0.04825827479362488,0.13530713319778442,0.97528076171875,-2.0746846199035645,4.06640625,2,A/E1,7.6,180,0,0.09908973295577272,[3600|0|0|0]
3600,1.2519959211349487,1.087064266204834,-0.048167187720537186,0.13342192769050598,0.9748528003692627,-2.051415205001831,4.05859375,2,A/E1,7.6,180,0,0.09933405556493784,[3700|0|0|0]
3700,1.2520267963409424,1.0871235132217407,-0.048383455723524094,0.14137211441993713,0.9817036986351013,-2.0672011375427246,4.06640625,2,A/E1,7.6,180,0,0.09956040780476207,[3800|0|0|0]
3800,1.2517163753509521,1.0874075889587402,-0.048392683267593384,0.1427583247423172,0.9970407485961914,-2.068960428237915,4.06640625,2,A/E1,7.6,180,0,0.09998129420623862,[3900|0|0|0]
3900,1.2516084909439087,1.087423324584961,-0.0485476553440094,0.15600542724132538,1.0133816003799438,-2.0775129795074463,4.06640625,2,A/E1,7.6,180,0,0.10017077507515253,[4000|0|0|0]
4000,1.2517602443695068,1.0875381231307983,-0.048540495336055756,0.1208919808268547,0.979748547077179,-2.1271629333496094,4.06640625,2,A/E1,7.6,180,0,0.10036119323085478,[4100|0|0|0]
4100,1.2520666122436523,1.0869723558425903,-0.04815727472305298,0.14596369862556458,0.9807751774787903,-2.117852210998535,4.06640625,2,A/E1,7.6,180,0,0.1011100670099023,[4200|0|0|0]
4200,1.2547122240066528,1.0882469415664673,-0.047383032739162445,-0.6491420865058899,-1.2221060991287231,-1.2556730508804321,4.06640625,2,A/E1,7.6,180,0,0.10414705252479305,[4300|0|0|0]
4300,1.2553309202194214,1.0878472328186035,-0.04719671607017517,1.2446346282958984,3.8709497451782227,-1.6339924335479736,4.06640625,2,A/E1,7.6,180,0,0.10490683274824947,[4400|0|0|0]
4400,1.253159999847412,1.087063193321228,-0.04805126413702965,2.6389739513397217,6.526367664337158,-2.3760268688201904,4.06640625,2,A/E1,7.6,180,0,0.10736810591342526,[4500|0|0|0]
4500,1.2519481182098389,1.0868297815322876,-0.04843612760305405,2.932255983352661,6.684268951416016,-2.873588800430298,4.06640625,2,A/E1,7.6,180,0,0.108660877375898,[4600|0|0|0]
4600,1.2512643337249756,1.0868289470672607,-0.04863002523779869,2.7066762447357178,6.044104099273682,-3.1507568359375,4.06640625,2,A/E1,7.6,180,0,0.10937162220411076,[4700|0|0|0]
4700,1.2513798475265503,1.086633563041687,-0.04877978563308716,2.374943733215332,5.247186183929443,-3.290964365005493,4.06640625,2,A/E1,7.6,180,0,0.10964355332002175,[4800|0|0|0]
4800,1.2508760690689087,1.086470127105713,-0.04862549155950546,2.0265767574310303,4.567124843597412,-3.3006696701049805,4.06640625,2,A/E1,7.6,180,0,0.11019519695561807,[4900|0|0|0]
4900,1.2510536909103394,1.0869194269180298,-0.0487554669380188,1.7031395435333252,3.953012704849243,-3.2656824588775635,4.06640625,2,A/E1,7.6,180,0,0.11069551029635655,[5000|0|0|0]
5000,1.2512856721878052,1.0867201089859009,-0.04847002029418945,1.439589500427246,3.4447760581970215,-3.2159178256988525,4.06640625,2,A/E1,7.6,180,0,0.11111386748541424,[5100|0|0|0]
5100,1.2512437105178833,1.0870915651321411,-0.048490557819604874,1.2106810808181763,3.0161101818084717,-3.128371477127075,4.06640625,2,A/E1,7.6,180,0,0.1114882499640006,[5200|0|0|0]
5200,1.2511563301086426,1.086477279663086,-0.048389188945293427,1.046900749206543,2.6719982624053955,-3.047825813293457,4.06640625,2,A/E1,7.6,180,0,0.11211694513822304,[5300|0|0|0]
5300,1.2513189315795898,1.0864686965942383,-0.04841509088873863,0.8831071853637695,2.367382526397705,-2.9327375888824463,4.06640625,2,A/E1,7.6,180,0,0.11228182029735653,[5400|0|0|0]
5400,1.2513295412063599,1.0867189168930054,-0.04849500209093094,0.7339560985565186,2.1166622638702393,-2.8597617149353027,4.06640625,2,A/E1,7.6,180,0,0.11254470537173526,[5500|0|0|0]
5500,1.2517168521881104,1.0867058038711548,-0.048385750502347946,0.6099895238876343,1.889259934425354,-2.742067337036133,4.06640625,2,A/E1,7.6,180,0,0.11294734374240364,[5600|0|0|0]
5600,1.2515994310379028,1.0868613719940186,-0.048394352197647095,0.5072012543678284,1.710141658782959,-2.673595666885376,4.06640625,2,A/E1,7.6,180,0,0.11314244155512698,[5700|0|0|0]
5700,1.2514852285385132,1.0866990089416504,-0.048151299357414246,0.42865684628486633,1.577863097190857,-2.6078174114227295,4.06640625,2,A/E1,7.6,180,0,0.11345625464406116,[5800|0|0|0]
5800,1.2515493631362915,1.0866894721984863,-0.048292119055986404,0.3629283010959625,1.4580100774765015,-2.5402486324310303,4.06640625,2,A/E1,7.6,180,0,0.11361128491081032,[5900|0|0|0]
5900,1.2514592409133911,1.0868386030197144,-0.0481843575835228,0.2631692886352539,1.342294454574585,-2.489534854888916,4.06640625,2,A/E1,7.6,180,0,0.11381616182958884,[6000|0|0|0]
6000,1.2514816522598267,1.0867483615875244,-0.04820329323410988,0.2357635200023651,1.2646592855453491,-2.4284465312957764,4.06640625,2,A/E1,7.6,180,0,0.11391105304833907,[6100|0|0|0]
6100,1.251549482345581,1.0870611667633057,-0.048149868845939636,0.19975757598876953,1.20127534866333,-2.378934860229492,4.06640625,2,A/E1,7.6,180,0,0.11423555599713978,[6200|0|0|0]
6200,1.2514348030090332,1.0866954326629639,-0.048384927213191986,0.18795210123062134,1.1516867876052856,-2.3410027027130127,4.06640625,2,C1,7.6,180,0,0.11468518386371303,[6200|0|0|0]
6300,1.2517746686935425,1.0869581699371338,-0.048331063240766525,0.15896019339561462,1.120054841041565,-2.2937169075012207,2.951171875,2,C1,7.6,180,0,0.11511812830156926,[6200|0|0|0]
6400,1.2509690523147583,1.0897091627120972,-0.044616132974624634,-1.238753080368042,1.9774030447006226,-1.5202593803405762,3.326171875,2,C1,7.6,180,0,0.11981042900377954,[6200|0|0|0]
6500,1.247284173965454,1.103340983390808,-0.011435970664024353,-6.69987154006958,5.933175563812256,1.1202387809753418,3.435546875,2,C1,7.6,180,0,0.15587049049046425,[6200|0|0|0]
6600,1.2378684282302856,1.1316996812820435,0.04235431179404259,-0.7272881865501404,2.7315330505371094,2.258871555328369,3.416015625,2,C1,7.6,180,0,0.21740313630351477,[6200|0|0|0]
6700,1.2265715599060059,1.1668379306793213,0.1091521605849266,2.826570510864258,-1.400078296661377,1.021320104598999,3.44140625,2,C1,7.6,180,0,0.29372003094507637,[6200|0|0|0]
6800,1.22030508518219,1.2009528875350952,0.18587155640125275,6.224285125732422,-2.043036460876465,0.21179074048995972,3.46875,2,C1,7.6,180,0,0.37791602064267216,[6200|0|0|0]
6900,1.2230134010314941,1.2226481437683105,0.26134058833122253,9.794966697692871,-2.5436697006225586,-0.4755317270755768,3.521484375,2,C1,7.6,180,0,0.4564882415493721,[6200|0|0|0]
7000,1.2284119129180908,1.2347389459609985,0.3414064645767212,8.364363670349121,-0.9689475297927856,-1.41265070438385,3.541015625,2,C1,7.6,180,0,0.5376416516269034,[6200|0|0|0]
7100,1.2370949983596802,1.2382055521011353,0.41362833976745605,7.360567569732666,-0.2199857383966446,-2.027529001235962,3.552734375,2,C1,7.6,180,0,0.6104661844917482,[6200|0|0|0]
7200,1.2449489831924438,1.2351500988006592,0.4769841432571411,5.353063583374023,2.2815020084381104,-2.4117250442504883,3.5625,2,C1,7.6,180,0,0.6743800226525742,[6200|0|0|0]
7300,1.2481844425201416,1.2286344766616821,0.5290875434875488,3.9045422077178955,2.7510268688201904,-2.1145970821380615,3.55859375,2,C1,7.6,180,0,0.7269888227195703,[6200|0|0|0]
7400,1.2468713521957397,1.2192991971969604,0.5713162422180176,2.3971338272094727,2.472024917602539,-1.6512668132781982,3.537109375,2,C1,7.6,180,0,0.7702569939930732,[6200|0|0|0]
7500,1.2406561374664307,1.2091848850250244,0.6029815077781677,1.7454071044921875,1.6384198665618896,-0.9797186255455017,3.521484375,2,C1,7.6,180,0,0.8040744044178474,[6200|0|0|0]
7600,1.2317116260528564,1.2001476287841797,0.6265472769737244,1.3352328538894653,1.3468377590179443,0.08363959938287735,3.525390625,2,C1,7.6,180,0,0.8308516664617625,[6200|0|0|0]
7700,1.2207181453704834,1.1917872428894043,0.6433360576629639,0.8829857707023621,0.04437702149152756,1.1331816911697388,3.509765625,2,C1,7.6,180,0,0.852591395688564,[6200|0|0|0]
7800,1.2082834243774414,1.1836433410644531,0.6536749601364136,0.35532480478286743,-0.6433433294296265,2.2638702392578125,3.494140625,2,C1,7.6,180,0,0.8706977019784937,[6200|0|0|0]
7900,1.1987406015396118,1.1751433610916138,0.6590167284011841,0.7183352708816528,-1.97012460231781,2.0177531242370605,3.47265625,2,C1,7.6,180,0,0.8845486808409201,[6200|0|0|0]
8000,1.1927061080932617,1.1672122478485107,0.6614280343055725,0.2891354560852051,-2.54954195022583,1.7230863571166992,3.48828125,2,C1,7.6,180,0,0.8948020736741975,[6200|0|0|0]
8100,1.1903003454208374,1.1590718030929565,0.6652662754058838,-0.21288375556468964,-1.518032193183899,2.15781307220459,3.478515625,2,C1,7.6,180,0,0.9041180078516367,[6200|0|0|0]
8200,1.190674901008606,1.1527681350708008,0.6688004732131958,0.7830061912536621,-0.6342178583145142,2.042618751525879,3.494140625,2,C1,7.6,180,0,0.9113545178228235,[6200|0|0|0]
8300,1.1925047636032104,1.145792841911316,0.6721306443214417,0.594860315322876,-0.405245840549469,0.08217933028936386,3.47265625,2,C1,7.6,180,0,0.9192976375742867,[6200|0|0|0]
8400,1.1943613290786743,1.1361677646636963,0.6746341586112976,1.4282993078231812,-0.3076075315475464,-2.838183879852295,3.478515625,2,C1,7.6,180,0,0.9294147780392028,[6200|0|0|0]
8500,1.195024013519287,1.1240159273147583,0.6760625839233398,0.2769491672515869,0.19267579913139343,-6.087278366088867,3.48828125,2,C1,7.6,180,0,0.941668214312141,[6200|0|0|0]
8600,1.1929415464401245,1.1118382215499878,0.6766632795333862,-1.8156293630599976,1.1297118663787842,-7.253857612609863,3.46875,2,C1,7.6,180,0,0.9540372895421269,[6200|0|0|0]
8700,1.188960075378418,1.1007850170135498,0.6787535548210144,-1.5062830448150635,0.18117333948612213,-6.8221564292907715,3.47265625,2,C1,7.6,180,0,0.9659702142933188,[6200|0|0|0]
8800,1.1848803758621216,1.0920913219451904,0.6774381399154663,-1.1911262273788452,-0.6295202374458313,-5.007833480834961,3.45703125,2,C1,7.6,180,0,0.9756632323196418,[6200|0|0|0]
8900,1.1814662218093872,1.0832902193069458,0.6753833293914795,-0.8058670163154602,-0.3002699911594391,-3.8064658641815186,3.447265625,2,C1,7.6,180,0,0.9853243969406492,[6200|0|0|0]
9000,1.178277850151062,1.0752137899398804,0.6730920076370239,-1.6889070272445679,-0.11600623279809952,-2.3498709201812744,3.453125,2,C1,7.6,180,0,0.9943046297068557,[6200|0|0|0]
9100,1.1758066415786743,1.0677872896194458,0.6731517314910889,-2.046506881713867,-0.9157016277313232,-0.5852239727973938,3.45703125,2,C1,7.6,180,0,1.002131720210766,[6200|0|0|0]
9200,1.1736258268356323,1.064499855041504,0.6731454730033875,-2.2675082683563232,-0.5871073007583618,0.24332667887210846,3.462890625,2,C1,7.6,180,0,1.0060767446994587,[6200|0|0|0]
9300,1.173219084739685,1.0629698038101196,0.6751748323440552,0.44148412346839905,-1.679276466369629,0.5384474992752075,3.310546875,2,C1,7.6,180,257.19573393471325,1.008650612457684,[6200|0|0|0]
9400,1.17792809009552,1.0541375875473022,0.689523458480835,12.348123550415039,-4.945815563201904,1.878764033317566,3.3046875,2,C1,7.6,180,257.19573393471325,1.0261453501684226,[6200|0|0|0]
9500,1.1921221017837524,1.0222333669662476,0.7237856388092041,17.495567321777344,-4.246313095092773,3.761370897293091,3.431640625,2,C1,7.6,180,257.19573393471325,1.0750661663875327,[6200|0|0|0]
9600,1.216280460357666,0.9575541615486145,0.7683740854263306,16.823793411254883,-2.298851728439331,5.5019025802612305,3.484375,2,C1,7.6,180,257.19573393471325,1.1572559192413434,[6200|0|0|0]
9700,1.246324896812439,0.8669525980949402,0.8175928592681885,10.736730575561523,-0.4763387143611908,5.567813873291016,3.515625,2,C1,7.6,180,257.19573393471325,1.2646514459667664,[6200|0|0|0]
9800,1.2782139778137207,0.7621020674705505,0.8659378886222839,1.3557463884353638,0.8517393469810486,2.793064832687378,3.55859375,2,C1,7.6,180,257.19573393471325,1.3844337030943172,[6200|0|0|0]
9900,1.308620572090149,0.656192421913147,0.9111790060997009,-5.65250825881958,2.8695905208587646,1.1699695587158203,3.568359375,2,C1,7.6,180,257.19573393471325,1.5035478194206016,[6200|0|0|0]
10000,1.3348270654678345,0.5609992146492004,0.9449835419654846,-11.361978530883789,4.013256072998047,0.1997089684009552,3.568359375,2,C1,7.6,180,257.19573393471325,1.6079090845022994,[6200|0|0|0]
10100,1.354809284210205,0.4927976727485657,0.9682551026344299,-13.762502670288086,4.048913955688477,-0.01395934633910656,3.5625,2,C1,7.6,180,257.19573393471325,1.6826907996435048,[6200|0|0|0]
10200,1.3716734647750854,0.4374053180217743,0.9824671745300293,-13.794179916381836,4.076862812042236,0.3859842121601105,3.537109375,2,C1,7.6,180,257.19573393471325,1.7423120755093335,[6200|0|0|0]
10300,1.3833708763122559,0.402154803276062,0.9878607392311096,-12.186525344848633,3.8511621952056885,0.7067342400550842,3.505859375,2,C1,7.6,180,257.19573393471325,1.7798423135407175,[6200|0|0|0]
10400,1.3890103101730347,0.38519778847694397,0.9900534749031067,-9.273133277893066,3.316462516784668,0.7796899676322937,3.494140625,2,C1,7.6,180,257.19573393471325,1.7978465256838483,[6200|0|0|0]
10500,1.3916609287261963,0.37824761867523193,0.9878384470939636,-6.295257568359375,2.618623971939087,0.8298224210739136,3.48828125,2,C1,7.6,180,257.19573393471325,1.8056077747574364,[6200|0|0|0]
10600,1.3896523714065552,0.3807121813297272,0.9890742897987366,-3.578994035720825,1.7645514011383057,0.6843924522399902,3.505859375,2,C1,7.6,180,257.19573393471325,1.8090188858337803,[6200|0|0|0]
10700,1.3856278657913208,0.38743242621421814,0.9940539598464966,-1.7981187105178833,0.8278634548187256,0.38071417808532715,3.515625,2,C1,7.6,180,257.19573393471325,1.8183008818766118,[6200|0|0|0]
10800,1.3821173906326294,0.3927593231201172,0.9956262707710266,-0.6110596656799316,0.08332618325948715,0.07406031340360641,3.521484375,2,C1,7.6,180,257.19573393471325,1.8248713786713193,[6200|0|0|0]
10900,1.379092812538147,0.398195743560791,0.9984176158905029,-0.10147795081138611,-0.20660440623760223,-0.1805015504360199,3.521484375,2,C1,7.6,180,257.19573393471325,1.8316900550409254,[6200|0|0|0]
11000,1.3767611980438232,0.40401819348335266,1.0006812810897827,-0.16963520646095276,-0.11509864777326584,-0.3497157394886017,3.515625,2,C1,7.6,180,257.19573393471325,1.8383580029550373,[6200|0|0|0]
11100,1.3753362894058228,0.4076429307460785,0.9999074339866638,0.05007057636976242,0.19781704246997833,-0.33453065156936646,3.505859375,2,C1,7.6,180,257.19573393471325,1.842328887515113,[6200|0|0|0]
11200,1.3744267225265503,0.4087967872619629,0.9985145330429077,-0.32929015159606934,0.226497620344162,-0.5303772687911987,3.505859375,2,C1,7.6,180,257.19573393471325,1.8443534540875512,[6200|0|0|0]
11300,1.374294400215149,0.4094305634498596,0.9978211522102356,-0.8301389217376709,0.4884348511695862,-0.7921081781387329,3.515625,2,C1,7.6,180,257.19573393471325,1.8453021154758014,[6200|0|0|0]
11400,1.373630166053772,0.4119431972503662,0.996792197227478,-0.9496064782142639,0.7616304159164429,-1.1659841537475586,3.515625,2,C1,7.6,180,257.19573393471325,1.8480973406891124,[6200|0|0|0]
11500,1.3721469640731812,0.4146800935268402,0.9958096742630005,-1.0018962621688843,0.6328889727592468,-1.3543572425842285,3.509765625,2,C1,7.6,180,257.19573393471325,1.8513616692141128,[6200|0|0|0]
11600,1.3702510595321655,0.4179399311542511,0.995242178440094,-0.5297437310218811,0.25593292713165283,-1.4865243434906006,3.509765625,2,C1,7.6,180,257.19573393471325,1.8551752039123612,[6200|0|0|0]
11700,1.3680981397628784,0.42269250750541687,0.9930225610733032,-0.6831182241439819,0.42488962411880493,-1.4379976987838745,3.5,2,C1,7.6,180,257.19573393471325,1.8608451903992593,[6200|0|0|0]
11800,1.3659254312515259,0.4262155294418335,0.9896844625473022,-0.2420337200164795,0.18191078305244446,-1.223313331604004,3.5,2,C1,7.6,180,257.19573393471325,1.8661626378704683,[6200|0|0|0]
11900,1.3639719486236572,0.4323938190937042,0.9890694618225098,-0.2201899290084839,0.04728872701525688,-1.3438998460769653,3.48828125,2,C1,7.6,180,257.19573393471325,1.872671522820388,[6200|0|0|0]
12000,1.3616400957107544,0.4372692406177521,0.9862079620361328,0.16735078394412994,0.03174641728401184,-1.673011302947998,3.484375,2,C1,7.6,180,257.19573393471325,1.8787867050803047,[6200|0|0|0]
12101,1.3597757816314697,0.4410386383533478,0.983635425567627,0.11867870390415192,0.12479367107152939,-2.0471153259277344,3.48828125,2,C1,7.6,180,257.19573393471325,1.8837164079270414,[6200|0|0|0]
12201,1.3582837581634521,0.44455304741859436,0.9827370643615723,0.1261824518442154,-0.03994862735271454,-2.2036662101745605,3.494140625,2,C1,7.6,180,257.19573393471325,1.8876386850671154,[6200|0|0|0]
12301,1.3572313785552979,0.4478766918182373,0.9796021580696106,0.10697589814662933,-0.04630320891737938,-1.813244342803955,3.826171875,2,C1,7.6,180,0,1.8923271552221146,[6200|0|0|0]
12401,1.3571127653121948,0.45047855377197266,0.9556485414505005,0.46253207325935364,-0.3760969638824463,-1.4240270853042603,3.75390625,2,C1,7.6,180,0,1.9164219576463521,[6200|0|0|0]
12501,1.3573511838912964,0.45261454582214355,0.8915982246398926,0.5204978585243225,-0.06572440266609192,-0.9906527400016785,3.615234375,2,C1,7.6,180,0,1.9805083242854158,[6200|0|0|0]
12601,1.357125163078308,0.45363283157348633,0.7905436158180237,0.22102071344852448,-0.09916279464960098,-1.2686878442764282,3.46875,2,C1,7.6,180,0,2.0815683161487653,[6200|0|0|0]
12701,1.3568174839019775,0.4547857940196991,0.6694128513336182,-1.0478004217147827,0.6716347932815552,-3.560755729675293,3.419921875,2,C1,7.6,180,0,2.2027049583898908,[6200|0|0|0]
12801,1.35716712474823,0.4598586857318878,0.5409522652626038,-1.8602004051208496,-0.361036092042923,-5.9563727378845215,3.373046875,2,C1,7.6,180,0,2.3312661448061394,[6200|0|0|0]
12901,1.3533161878585815,0.4742801785469055,0.40563005208969116,-2.0772178173065186,0.7399680018424988,-5.459255218505859,3.298828125,2,C1,7.6,180,0,2.4674091231339137,[6200|0|0|0]
13001,1.3544294834136963,0.4882415533065796,0.2944241166114807,0.4288831651210785,-0.7102220058441162,-4.902948379516602,3.2890625,2,C1,7.6,180,0,2.5794935533539802,[6200|0|0|0]
13102,1.358844518661499,0.5024982690811157,0.2069566398859024,3.1231112480163574,-1.4782135486602783,-3.8237338066101074,3.26171875,2,C1,7.6,180,0,2.6682252047848807,[6200|0|0|0]
13201,1.3668994903564453,0.5109258890151978,0.14400458335876465,5.3051371574401855,0.8339207172393799,-2.7181010246276855,3.298828125,2,C1,7.6,180,0,2.7322476131100575,[6200|0|0|0]
13301,1.3740402460098267,0.5096158385276794,0.10163354873657227,5.0759429931640625,2.0118355751037598,-1.5765835046768188,3.3515625,2,C1,7.6,180,0,2.775236113881033,[6200|0|0|0]
13402,1.3794653415679932,0.5009194612503052,0.0775226280093193,0.6338675618171692,1.4460527896881104,-1.041215181350708,3.388671875,2,C1,7.6,180,0,2.8014352577197457,[6200|0|0|0]
13500,1.3838272094726562,0.49066677689552307,0.06815881282091141,1.2982912063598633,1.6645653247833252,-2.5026111602783203,3.41015625,2,C1,7.6,180,0,2.8159894482839505,[6200|0|0|0]
13600,1.3855434656143188,0.48040810227394104,0.06522393226623535,0.49063989520072937,1.5036003589630127,-4.59779167175293,3.435546875,2,C1,7.6,180,0,2.826796828355249,[6200|0|0|0]
13702,1.3863805532455444,0.470892995595932,0.06365684419870377,-1.0553562641143799,1.3166625499725342,-4.424044132232666,3.44140625,2,C1,7.6,180,0,2.8364763808143065,[6200|0|0|0]
13802,1.3850375413894653,0.46242254972457886,0.0622347854077816,-1.6684809923171997,1.103867769241333,-2.301004409790039,3.416015625,2,C1,7.6,180,0,2.8451697337526114,[6200|0|0|0]
13900,1.3837794065475464,0.45817044377326965,0.06130899861454964,-1.7427982091903687,0.5254899859428406,-0.07990028709173203,3.41015625,2,C1,7.6,180,0,2.849699677404373,[6200|0|0|0]
14000,1.382938027381897,0.4564751088619232,0.062393538653850555,-0.31691744923591614,-0.4192640781402588,1.4213149547576904,3.419921875,2,C1,7.6,180,0,2.851881031676119,[6200|0|0|0]
14102,1.383330225944519,0.4565746784210205,0.06516066938638687,-0.4847661256790161,1.0018316507339478,1.1623334884643555,3.42578125,2,C1,7.6,180,0,2.8546775914020266,[6200|0|0|0]
14200,1.3835432529449463,0.4578896760940552,0.0666271224617958,-0.8357104659080505,0.281369149684906,1.3454267978668213,3.419921875,2,C1,7.6,180,0,2.8566587738785727,[6200|0|0|0]
14300,1.3821899890899658,0.4621013104915619,0.06668546795845032,-0.01173057034611702,0.7219153046607971,1.4495919942855835,3.42578125,2,C1,7.6,180,0,2.8610828660517127,[6200|0|0|0]
14400,1.3795888423919678,0.46690523624420166,0.06550297141075134,1.133069634437561,1.1045103073120117,0.45761704444885254,3.404296875,2,C1,7.6,180,0,2.866672317265088,[6200|0|0|0]
14500,1.3735371828079224,0.47041377425193787,0.06275284290313721,1.4381921291351318,0.7054332494735718,-0.6112430691719055,3.388671875,2,C1,7.6,180,0,2.874188674726072,[6200|0|0|0]
14600,1.3656325340270996,0.4710967540740967,0.061846815049648285,1.0147886276245117,0.010863264091312885,-1.124941110610962,3.3984375,2,C1,7.6,180,0,2.882174338146035,[6200|0|0|0]
14700,1.3580645322799683,0.4695248007774353,0.06387494504451752,1.3030750751495361,-1.9795869588851929,-1.5423543453216553,3.416015625,2,C1,7.6,180,0,2.890165520717317,[6200|0|0|0]
14800,1.3537771701812744,0.46647486090660095,0.0668858140707016,-0.4939262866973877,-1.1107144355773926,-0.6783581972122192,3.42578125,2,C1,7.6,180,0,2.896227611055959,[6200|0|0|0]
14900,1.3520983457565308,0.46379056572914124,0.06766873598098755,-0.01990433968603611,-1.1748449802398682,-0.20545698702335358,3.431640625,2,C1,7.6,180,0,2.89948903080301,[6200|0|0|0]
15000,1.3538358211517334,0.46175748109817505,0.06819891929626465,0.14466901123523712,-0.6557296514511108,1.002886176109314,3.435546875,2,C1,7.6,180,0,2.9022154475381043,[6200|0|0|0]
15100,1.357914924621582,0.45966023206710815,0.06802459806203842,0.23561739921569824,-1.136053442955017,1.9531065225601196,3.3984375,2,C1,7.6,180,0,2.906805428639236,[6200|0|0|0]
15200,1.3637815713882446,0.4561653137207031,0.0675467997789383,1.6888315677642822,1.314624547958374,2.6214237213134766,3.404296875,2,C1,7.6,180,0,2.913650886237685,[6200|0|0|0]
15300,1.3693609237670898,0.44927898049354553,0.06713448464870453,0.723251223564148,0.7888006567955017,3.1080386638641357,3.41015625,2,B2,7.6,180,0,2.922523358387509,[6200|100|0|0]
15400,1.374444842338562,0.4399431049823761,0.06826704740524292,-0.4265151023864746,0.6304571032524109,3.0398449897766113,3.416015625,2,B2,7.6,180,0,2.9332138914892263,[6200|200|0|0]
15500,1.3774000406265259,0.43020445108413696,0.06973141431808472,-0.04748633876442909,0.6819239258766174,1.8085110187530518,3.41015625,2,B2,7.6,180,0,2.943495863436586,[6200|300|0|0]
15600,1.3799318075180054,0.4197959899902344,0.07165654748678207,-2.425128221511841,1.43129563331604,0.20065250992774963,3.404296875,2,B2,7.6,180,0,2.9543794310342673,[6200|400|0|0]
15700,1.3803176879882812,0.41075611114501953,0.07305937260389328,-1.2101116180419922,0.15466995537281036,-2.6211636066436768,3.39453125,2,B2,7.6,180,0,2.96353564376567,[6200|500|0|0]
15800,1.380562663078308,0.40349236130714417,0.07460428774356842,-3.343061685562134,-1.9491132497787476,-7.224006175994873,3.431640625,2,B2,7.6,180,0,2.9709659087199474,[6200|600|0|0]
15900,1.382258653640747,0.40048322081565857,0.07530060410499573,-2.1842074394226074,-0.007676701992750168,-10.955840110778809,3.3984375,2,B2,7.6,180,0,2.9744895668986833,[6200|700|0|0]
16000,1.3857908248901367,0.40087175369262695,0.07155784964561462,-1.4256656169891357,-2.323894500732422,-13.454995155334473,3.3828125,2,B2,7.6,180,0,2.9796505166634764,[6200|800|0|0]
16100,1.390285611152649,0.4021112322807312,0.0631769672036171,-0.002027082722634077,0.8678969740867615,-13.76456069946289,3.3515625,2,B2,7.6,180,0,2.989241064156848,[6200|900|0|0]
16200,1.3924068212509155,0.40362077951431274,0.05821515619754791,0.04769613593816757,1.5355626344680786,-10.968392372131348,3.36328125,2,B2,7.6,180,0,2.9948444411378614,[6200|1000|0|0]
16300,1.3885670900344849,0.40309011936187744,0.057934366166591644,0.9153337478637695,2.5011045932769775,-6.098955154418945,3.37890625,2,B2,7.6,180,0,2.9987308249394564,[6200|1100|0|0]
16400,1.3772025108337402,0.40230822563171387,0.0625942051410675,0.8050697445869446,1.2670308351516724,-0.7978505492210388,3.404296875,2,B2,7.6,180,0,3.01103851024106,[6200|1200|0|0]
16500,1.3617875576019287,0.40004101395606995,0.06745889782905579,-1.2785084247589111,1.882341742515564,2.668957471847534,3.41015625,2,B2,7.6,180,0,3.0273610794894865,[6200|1300|0|0]
16600,1.3438657522201538,0.3981090486049652,0.07214392721652985,-0.43057847023010254,0.4021574854850769,4.209593296051025,3.39453125,2,B2,7.6,180,0,3.04598560897674,[6200|1400|0|0]
16700,1.3245140314102173,0.39823418855667114,0.07608993351459503,0.26435649394989014,0.5596258044242859,3.631235361099243,3.3984375,2,B2,7.6,180,0,3.0657359437591585,[6200|1500|0|0]
16800,1.3064947128295898,0.4000108540058136,0.07996517419815063,-1.7792046070098877,-1.1735590696334839,1.2327587604522705,3.404296875,2,B2,7.6,180,0,3.0842526894933258,[6200|1600|0|0]
16900,1.290539264678955,0.40567412972450256,0.08260083198547363,-0.9744178056716919,-0.11616135388612747,-0.36990228295326233,3.41015625,2,B2,7.6,180,0,3.101387324287373,[6200|1700|0|0]
17000,1.2728571891784668,0.41536185145378113,0.08777962625026703,-0.18666104972362518,-0.4382841885089874,-0.0674331858754158,3.416015625,2,B2,7.6,180,0,3.1222038479247614,[6200|1800|0|0]
17100,1.2579153776168823,0.4185328185558319,0.08236265927553177,-0.7552292943000793,0.05452687293291092,0.928539514541626,3.388671875,2,B2,7.6,180,0,3.138410522361843,[6200|1900|0|0]
17200,1.2410775423049927,0.42783012986183167,0.08192937076091766,0.817110002040863,0.9281665086746216,1.6320459842681885,3.921875,2,B2,7.6,180,0,3.157649556496848,[6200|2000|0|0]
17300,1.22340726852417,0.4364669620990753,0.05677914246916771,-2.493098258972168,3.688400983810425,0.8999668955802917,3.9375,2,B2,7.6,180,0,3.189577090534269,[6200|2100|0|0]
17400,1.2028663158416748,0.44586753845214844,-0.02382473275065422,0.13129371404647827,-3.5188169479370117,-0.8308264017105103,3.943359375,2,B2,7.6,180,0,3.273286625674103,[6200|2200|0|0]
17500,1.189154863357544,0.45140308141708374,-0.027130912989377975,1.1227951049804688,2.3394174575805664,-4.773330211639404,3.943359375,2,B2,7.6,180,0,3.288438424013315,[6200|2300|0|0]
17600,1.1870979070663452,0.4524553418159485,-0.025509079918265343,0.67365562915802,2.4111053943634033,-6.255086421966553,3.943359375,2,B2,7.6,180,0,3.2912613061648535,[6200|2400|0|0]
17700,1.1875439882278442,0.45186668634414673,-0.02513812854886055,1.0287063121795654,2.3641252517700195,-6.020442008972168,3.94921875,2,B2,7.6,180,0,3.292087809997627,[6200|2500|0|0]
17800,1.1873018741607666,0.4519549608230591,-0.02443092316389084,1.2573766708374023,2.4245266914367676,-5.93135404586792,3.94921875,2,B2,7.6,180,0,3.2928405058602666,[6200|2600|0|0]
17900,1.187148094177246,0.4517361521720886,-0.02462439052760601,1.4593957662582397,2.478666305541992,-5.841100692749023,3.953125,2,B2,7.6,180,0,3.29317058937984,[6200|2700|0|0]
18000,1.1833908557891846,0.45110654830932617,-0.02857067808508873,1.6025980710983276,2.5178134441375732,-5.7632341384887695,3.953125,2,B2,7.6,180,0,3.2986556989334472,[6200|2800|0|0]
18100,1.1835166215896606,0.46048763394355774,-0.029574057087302208,1.5866010189056396,2.47971510887146,-5.708009243011475,3.953125,2,B2,7.6,180,0,3.3080911297204034,[6200|2900|0|0]
18200,1.1777334213256836,0.4563315212726593,-0.04184549301862717,1.9544597864151,2.575183868408203,-5.667806148529053,3.958984375,2,B2,7.6,180,0,3.322279393096979,[6200|3000|0|0]
18300,1.1772778034210205,0.46169155836105347,-0.04701954871416092,1.931701421737671,2.58233380317688,-5.596102714538574,3.958984375,2,B2,7.6,180,0,3.3297432016157242,[6200|3100|0|0]
18400,1.1777641773223877,0.4676786959171295,-0.05216670036315918,1.8987133502960205,2.6122376918792725,-5.538379669189453,3.958984375,2,B2,7.6,180,0,3.337653672258176,[6200|3200|0|0]
18500,1.1918845176696777,0.4528219699859619,-0.02188842184841633,2.044999599456787,2.4100003242492676,-5.497893810272217,3.958984375,2,B2,7.6,180,0,3.374217048288481,[6200|3300|0|0]
18600,1.1966947317123413,0.45469382405281067,-0.020847588777542114,2.0453755855560303,2.439171314239502,-5.4637322425842285,3.958984375,2,B2,7.6,180,0,3.3794825330966676,[6200|3400|0|0]
18700,1.203273057937622,0.4574611783027649,-0.018859749659895897,2.019505500793457,2.4235334396362305,-5.401591777801514,3.96484375,2,B2,7.6,180,0,3.3868909154996354,[6200|3500|0|0]
18800,1.188825011253357,0.4507703483104706,-0.024300822988152504,2.343397378921509,2.930036783218384,-5.338142395019531,3.96484375,2,B2,7.6,180,0,3.403717042146608,[6200|3600|0|0]
18900,1.189302682876587,0.44998297095298767,-0.02513965405523777,2.317197799682617,2.900097370147705,-5.286787986755371,3.96484375,2,B2,7.6,180,0,3.404962743090584,[6200|3700|0|0]
19000,1.1903005838394165,0.4492430090904236,-0.02594972401857376,2.292510509490967,2.869495153427124,-5.230154037475586,3.96484375,2,B2,7.6,180,0,3.406445835547299,[6200|3800|0|0]
19100,1.1939088106155396,0.45137086510658264,-0.02358514443039894,2.1834943294525146,2.785003662109375,-5.197947978973389,3.96484375,2,B2,7.6,180,0,3.411256065097149,[6200|3900|0|0]
19200,1.1969237327575684,0.451901912689209,-0.023178882896900177,2.1617319583892822,2.7640931606292725,-5.1450347900390625,3.96875,2,B2,7.6,180,0,3.414344238585007,[6200|4000|0|0]
19300,1.2006429433822632,0.45278990268707275,-0.02277594804763794,2.137205123901367,2.744055986404419,-5.08549165725708,3.96875,2,B2,7.6,180,0,3.418189158662187,[6200|4100|0|0]
19400,1.1998851299285889,0.45035305619239807,-0.027556397020816803,2.2446987628936768,2.8031222820281982,-5.1591477394104,3.96875,2,B2,7.6,180,0,3.4236081248416665,[6200|4200|0|0]
19500,1.2041015625,0.45018675923347473,-0.029015999287366867,2.3025903701782227,2.70151948928833,-5.528567790985107,3.96875,2,B2,7.6,180,0,3.428073144111986,[6200|4300|0|0]
19600,1.2106112241744995,0.4521206021308899,-0.01956631802022457,4.511789321899414,3.0366995334625244,-5.088840484619141,3.96875,2,B2,7.6,180,0,3.439709806843152,[6200|4400|0|0]
19700,1.2183231115341187,0.49643030762672424,0.016561662778258324,13.515522003173828,2.852442979812622,-13.815132141113281,3.974609375,2,B2,7.6,180,0,3.4973990970480986,[6200|4500|0|0]
19800,1.2817163467407227,0.5277716517448425,0.03289512172341347,11.4716215133667,1.523269534111023,-11.791727066040039,3.974609375,2,B2,7.6,180,0,3.5699784605214937,[6200|4600|0|0]
19900,1.3234679698944092,0.5184345841407776,0.028562262654304504,3.6039342880249023,0.15007418394088745,-12.580486297607422,3.974609375,2,B2,7.6,180,0,3.6129802341491373,[6200|4700|0|0]
20000,1.3298457860946655,0.5116302967071533,0.01894323341548443,0.40606236457824707,-1.597501277923584,-11.882965087890625,3.974609375,2,B2,7.6,180,0,3.6263780171918985,[6200|4800|0|0]
20100,1.3300926685333252,0.5093643069267273,0.009141281247138977,-0.6921558380126953,-0.6759693622589111,-11.657081604003906,3.974609375,2,B2,7.6,180,0,3.636441511959326,[6200|4900|0|0]
20200,1.341290831565857,0.5124022960662842,0.006026768125593662,-0.3878708481788635,0.9509731531143188,-11.109808921813965,3.974609375,2,B2,7.6,180,0,3.648455188553088,[6200|5000|0|0]
20300,1.351800560951233,0.5191925764083862,0.00600476237013936,3.254628896713257,-1.627028465270996,-10.888444900512695,3.974609375,2,B2,7.6,180,0,3.660967694422475,[6200|5100|0|0]
20400,1.360237956047058,0.5290634632110596,0.007789588067680597,2.7017829418182373,-1.6958187818527222,-10.306645393371582,3.98046875,2,B2,7.6,180,0,3.674075312247421,[6200|5200|0|0]
20500,1.3629860877990723,0.5426536202430725,0.010597346350550652,0.5458691716194153,-2.067807197570801,-10.909797668457031,3.98046875,2,B2,7.6,180,0,3.688221976266059,[6200|5300|0|0]
20600,1.3163293600082397,0.5113819241523743,-0.006911056581884623,0.7707685828208923,-0.45410916209220886,-9.288704872131348,3.974609375,2,B2,7.6,180,0,3.7470549041022747,[6200|5400|0|0]
20700,1.316536784172058,0.5075167417526245,-0.010313068516552448,0.519485354423523,-0.5869573354721069,-6.692986488342285,3.98046875,2,B2,7.6,180,0,3.7522081889741496,[6200|5500|0|0]
20800,1.3194999694824219,0.5078786611557007,-0.01083359494805336,0.49425050616264343,-0.5872027277946472,-6.603837490081787,3.98046875,2,B2,7.6,180,0,3.7552384365884164,[6200|5600|0|0]
20900,1.3231985569000244,0.5085479617118835,-0.01132647693157196,0.497351735830307,-0.5814831256866455,-6.528748989105225,3.98046875,2,B2,7.6,180,0,3.7590292735368793,[6200|5700|0|0]
21000,1.3115030527114868,0.500821053981781,-0.0113682234659791,0.6816543936729431,-0.33106759190559387,-4.255224227905273,3.98046875,2,B2,7.6,180,0,3.77304682196971,[6200|5800|0|0]
21100,1.3183627128601074,0.5145986676216125,-0.004238990135490894,0.22074633836746216,-0.6054578423500061,-5.2859907150268555,3.98046875,2,B2,7.6,180,0,3.79000864801656,[6200|5900|0|0]
21200,1.3210248947143555,0.5171014070510864,-0.001860397169366479,0.38131144642829895,-0.5417600870132446,-7.304632663726807,3.984375,2,B2,7.6,180,0,3.7943685357875268,[6200|6000|0|0]
21300,1.3224046230316162,0.5163375735282898,-0.0028140696231275797,0.6651110649108887,-0.43819957971572876,-8.425765991210938,3.984375,2,B2,7.6,180,0,3.7962115178897355,[6200|6100|0|0]
21400,1.3234833478927612,0.514955997467041,-0.004742132965475321,0.8041265606880188,-0.37405750155448914,-9.136080741882324,3.984375,2,B2,7.6,180,0,3.798817247728221,[6200|6200|0|0]
21500,1.3252164125442505,0.5136525630950928,-0.006386980414390564,0.8343796730041504,-0.3658667504787445,-9.59910774230957,3.984375,2,B2,7.6,180,0,3.8015390077063276,[6200|6300|0|0]
21600,1.3271794319152832,0.5128453373908997,-0.007812930271029472,0.8141133785247803,-0.3757805824279785,-9.942867279052734,3.984375,2,B2,7.6,180,0,3.804096035547828,[6200|6400|0|0]
21700,1.3300589323043823,0.5123481750488281,-0.008993316441774368,0.780784010887146,-0.392028272151947,-10.103719711303711,3.984375,2,B2,7.6,180,0,3.807247543821224,[6200|6500|0|0]
21800,1.3328965902328491,0.5115408301353455,-0.010427722707390785,0.6040694713592529,-0.3947836458683014,-10.124072074890137,3.984375,2,B2,7.6,180,0,3.810528036110981,[6200|6600|0|0]
21900,1.3371977806091309,0.5112699866294861,-0.013415833003818989,-1.9051856994628906,-0.7971609830856323,-10.312912940979004,4.02734375,2,B2,7.6,180,0,3.815772308987301,[6200|6700|0|0]
22000,1.3403791189193726,0.5081887245178223,-0.0146064143627882,-2.475705862045288,-1.5262826681137085,-9.657870292663574,4.07421875,2,B2,7.6,180,0,3.820358437378146,[6200|6800|0|0]
22100,1.3410724401474,0.5085373520851135,-0.015543234534561634,-2.4800353050231934,-1.45827317237854,-10.101763725280762,4.08203125,2,B2,7.6,180,0,3.8215749354423245,[6200|6900|0|0]
22200,1.343339204788208,0.5080034136772156,-0.01627749390900135,-2.444387197494507,-1.435158610343933,-10.392277717590332,4.08203125,2,B2,7.6,180,0,3.8240167480864886,[6200|7000|0|0]
22300,1.3424005508422852,0.5081859827041626,-0.01593225635588169,-2.3949413299560547,-1.4472525119781494,-10.539817810058594,4.08203125,2,B2,7.6,180,0,3.82503340518103,[6200|7100|0|0]
22400,1.3504902124404907,0.5056154727935791,-0.021130606532096863,-2.322737693786621,-1.5747038125991821,-7.42683219909668,4.08203125,2,B2,7.6,180,0,3.8349869467883395,[6200|7200|0|0]
22500,1.321641206741333,0.5115262269973755,-0.007038157898932695,-2.1731817722320557,-1.4288779497146606,-4.520241737365723,4.08203125,2,B2,7.6,180,0,3.8676335278278007,[6200|7300|0|0]
22600,1.3219728469848633,0.5129586458206177,-0.0058409976772964,-2.321913480758667,-1.424961805343628,-5.797729969024658,4.0859375,2,B2,7.6,180,0,3.8695295767545366,[6200|7400|0|0]
22700,1.3204550743103027,0.5102906823158264,-0.008040624670684338,-2.315565347671509,-1.2506710290908813,-7.2059645652771,4.0859375,2,B2,7.6,180,0,3.8733058211937355,[6200|7500|0|0]
22800,1.3200099468231201,0.5110669136047363,-0.007678696420043707,-2.5580074787139893,-1.2703875303268433,-8.319185256958008,4.0859375,2,B2,7.6,180,0,3.8742710494322057,[6200|7600|0|0]
22900,1.3200477361679077,0.5119920969009399,-0.007641352713108063,-2.6629931926727295,-1.2629809379577637,-9.112099647521973,4.0859375,2,B2,7.6,180,0,3.8751977568933826,[6200|7700|0|0]
23000,1.320778489112854,0.511512279510498,-0.007402709685266018,-2.714141607284546,-1.227297306060791,-9.703147888183594,4.0859375,2,B2,7.6,180,0,3.8761039440095213,[6200|7800|0|0]
23100,1.3205060958862305,0.511767566204071,-0.007344013545662165,-2.688291072845459,-1.2008066177368164,-10.12969970703125,4.0859375,2,B2,7.6,180,0,3.87648185220291,[6200|7900|0|0]
23200,1.320373773574829,0.5120269060134888,-0.007447877433151007,-2.654536485671997,-1.1919602155685425,-10.459982872009277,4.08984375,2,B2,7.6,180,0,3.8767909703647314,[6200|8000|0|0]
23300,1.3203641176223755,0.5117869973182678,-0.007127799559384584,-2.608423948287964,-1.1980005502700806,-10.69232177734375,4.08984375,2,B2,7.6,180,0,3.8771910944264114,[6200|8100|0|0]
23400,1.3201806545257568,0.5113398432731628,-0.007437742780894041,-2.5517795085906982,-1.206573247909546,-10.866129875183105,4.08984375,2,B2,7.6,180,0,3.8777652636074325,[6200|8200|0|0]
23500,1.3202096223831177,0.5118063688278198,-0.007292142603546381,-2.5177626609802246,-1.229538917541504,-11.007365226745605,4.08984375,2,B2,7.6,180,0,3.8782548395888203,[6200|8300|0|0]
23600,1.3200713396072388,0.5116462707519531,-0.007432452868670225,-2.4765281677246094,-1.250241994857788,-11.089691162109375,4.08984375,2,B2,7.6,180,0,3.878508690904555,[6200|8400|0|0]
23700,1.3201119899749756,0.5112015008926392,-0.0071632033213973045,-2.4432148933410645,-1.2351917028427124,-11.155701637268066,4.08984375,2,B2,7.6,180,0,3.8790301964163745,[6200|8500|0|0]
23800,1.3201045989990234,0.5113097429275513,-0.007500579580664635,-2.4118196964263916,-1.2361167669296265,-11.231311798095703,4.08984375,2,B2,7.6,180,0,3.879384588437962,[6200|8600|0|0]
23900,1.3197683095932007,0.5117802023887634,-0.00754344929009676,-2.4081499576568604,-1.2411233186721802,-11.268171310424805,4.09765625,2,B2,7.6,180,0,3.879964468150574,[6200|8700|0|0]
24000,1.3197482824325562,0.511517345905304,-0.007552447263151407,-2.3755571842193604,-1.2597744464874268,-11.291620254516602,4.08984375,2,B2,7.6,180,0,3.880228239986787,[6200|8800|0|0]
24100,1.3201470375061035,0.5118246078491211,-0.0070905182510614395,-2.388197183609009,-1.2964807748794556,-11.303326606750488,4.09765625,2,B2,7.6,180,0,3.8809114631736072,[6200|8900|0|0]
24200,1.320144534111023,0.5117263793945312,-0.007409596815705299,-2.3454513549804688,-1.2951585054397583,-11.322653770446777,4.09765625,2,B2,7.6,180,0,3.881245328755381,[6200|9000|0|0]
24300,1.3201005458831787,0.5120113492012024,-0.007498705293983221,-2.3365707397460938,-1.2912936210632324,-11.307353973388672,4.09765625,2,B2,7.6,180,0,3.881547128483353,[6200|9100|0|0]
24400,1.3201565742492676,0.5118889212608337,-0.0074000731110572815,-2.3257296085357666,-1.2975726127624512,-11.319343566894531,4.09765625,2,B2,7.6,180,0,3.8817140299090456,[6200|9200|0|0]
24500,1.319809079170227,0.5117955803871155,-0.007459323853254318,-2.312091588973999,-1.2958117723464966,-11.316182136535645,4.09765625,2,B2,7.6,180,0,3.8820786886524137,[6200|9300|0|0]
24600,1.3201481103897095,0.511822521686554,-0.00701166782528162,-2.3165805339813232,-1.3055533170700073,-11.317161560058594,4.1015625,2,B2,7.6,180,0,3.8826408842774227,[6200|9400|0|0]
24700,1.3200536966323853,0.5115436315536499,-0.0075729102827608585,-2.4582884311676025,-1.3563669919967651,-11.364250183105469,4.1015625,2,B2,7.6,180,0,3.883274671907375,[6200|9500|0|0]
24800,1.3201249837875366,0.5116866230964661,-0.00738429045304656,-2.439466953277588,-1.3519476652145386,-11.361492156982422,4.1015625,2,B2,7.6,180,0,3.883521867942877,[6200|9600|0|0]
24900,1.319992184638977,0.5116457343101501,-0.0074468329548835754,-2.4241881370544434,-1.3450230360031128,-11.366605758666992,4.1015625,2,B2,7.6,180,0,3.883674245996548,[6200|9700|0|0]
25000,1.31992506980896,0.5115799903869629,-0.007592388894408941,-2.3884150981903076,-1.331648588180542,-11.375232696533203,4.1015625,2,B2,7.6,180,0,3.883847489164885,[6200|9800|0|0]
25100,1.3202745914459229,0.5116804838180542,-0.007233739364892244,-2.3707010746002197,-1.330235242843628,-11.360254287719727,4.1015625,2,B2,7.6,180,0,3.8843582667969523,[6200|9900|0|0]
25200,1.3201897144317627,0.5111562609672546,-0.007281465455889702,-2.35046648979187,-1.326831340789795,-11.373988151550293,4.1015625,2,B2,7.6,180,0,3.884891456711143,[6200|10000|0|0]
25300,1.3198983669281006,0.5115014910697937,-0.00751785933971405,-2.345337390899658,-1.316480278968811,-11.375993728637695,4.1015625,2,B2,7.6,180,0,3.8854013089053123,[6200|10100|0|0]
25400,1.320170283317566,0.5117049217224121,-0.007620734628289938,-2.348531484603882,-1.320743203163147,-11.367820739746094,4.1015625,2,B2,7.6,180,0,3.8857561410885824,[6200|10200|0|0]
25500,1.3201442956924438,0.5116395354270935,-0.007525084540247917,-2.3382394313812256,-1.3143161535263062,-11.355887413024902,4.1015625,2,B2,7.6,180,0,3.885874883093018,[6200|10300|0|0]
25600,1.3204431533813477,0.511879563331604,-0.007204571273177862,-2.3592684268951416,-1.3243457078933716,-11.363924026489258,4.10546875,2,B2,7.6,180,0,3.8863745410435486,[6200|10400|0|0]
25700,1.3202049732208252,0.5116245150566101,-0.007290381006896496,-2.3263423442840576,-1.3098196983337402,-11.34022331237793,4.10546875,2,B2,7.6,180,0,3.886733905373783,[6200|10500|0|0]
25800,1.3201943635940552,0.5116870403289795,-0.007359218783676624,-2.316192865371704,-1.303225040435791,-11.356451988220215,4.10546875,2,B2,7.6,180,0,3.8868275035221465,[6200|10600|0|0]
25900,1.320143222808838,0.511724591255188,-0.0077239107340574265,-2.314669132232666,-1.3024448156356812,-11.353812217712402,4.10546875,2,B2,7.6,180,0,3.8871976733083855,[6200|10700|0|0]
26000,1.320156216621399,0.5117139220237732,-0.007365467958152294,-2.314879894256592,-1.3025519847869873,-11.380815505981445,4.10546875,2,B2,7.6,180,0,3.8875565101727996,[6200|10800|0|0]
26100,1.320754051208496,0.5113457441329956,-0.007750411052256823,-2.307828187942505,-1.3007450103759766,-11.403611183166504,4.10546875,2,B2,7.6,180,0,3.888357223816049,[6200|10900|0|0]
26200,1.32039213180542,0.5113590955734253,-0.007635976187884808,-2.3088953495025635,-1.290588140487671,-11.410643577575684,4.10546875,2,B2,7.6,180,0,3.8887370385780953,[6200|11000|0|0]
26300,1.3204858303070068,0.5116352438926697,-0.007656182162463665,-2.316758394241333,-1.2873620986938477,-11.402175903320312,4.10546875,2,B2,7.6,180,0,3.8890293493456523,[6200|11100|0|0]
26400,1.319943904876709,0.5115836262702942,-0.007777609396725893,-2.306966781616211,-1.2929458618164062,-11.383445739746094,4.10546875,2,B2,7.6,180,0,3.8895871056761084,[6200|11200|0|0]
26500,1.3152399063110352,0.5059412121772766,-0.011888505890965462,-2.256800889968872,-1.2712993621826172,-11.381494522094727,4.10546875,2,B2,7.6,180,0,3.898005176077887,[6200|11300|0|0]
26600,1.3203577995300293,0.5116348266601562,-0.007083887234330177,-2.4340322017669678,-1.354965329170227,-11.400518417358398,4.10546875,2,B2,7.6,180,0,3.907043673592207,[6200|11400|0|0]
26700,1.3198755979537964,0.5115063786506653,-0.007733890786767006,-2.4135119915008545,-1.337045431137085,-11.380023002624512,4.11328125,2,B2,7.6,180,0,3.907863137971814,[6200|11500|0|0]
26800,1.31515371799469,0.5057724714279175,-0.01168507244437933,-2.2028987407684326,-1.2485772371292114,-11.364323616027832,4.11328125,2,B2,7.6,180,0,3.9162765605143197,[6200|11600|0|0]
26900,1.3152294158935547,0.5057517290115356,-0.011675112880766392,-2.198275089263916,-1.2465280294418335,-11.355627059936523,4.11328125,2,B2,7.6,180,0,3.916355678228122,[6200|11700|0|0]
27000,1.3150500059127808,0.5059547424316406,-0.011699266731739044,-2.1981732845306396,-1.244842767715454,-11.348268508911133,4.10546875,2,B2,7.6,180,0,3.916627681534096,[6200|11800|0|0]
27100,1.3202604055404663,0.5114495158195496,-0.007222156040370464,-2.3997504711151123,-1.3384697437286377,-11.345155715942383,4.11328125,2,B2,7.6,180,0,3.925424574110877,[6200|11900|0|0]
27200,1.3150726556777954,0.505853533744812,-0.01170402579009533,-2.2012646198272705,-1.2520054578781128,-11.325918197631836,4.11328125,2,B2,7.6,180,0,3.9342741458785913,[6200|12000|0|0]
27300,1.3150917291641235,0.5056535601615906,-0.011552480049431324,-2.1986544132232666,-1.2528347969055176,-11.337762832641602,4.11328125,2,B2,7.6,180,0,3.9345257792296806,[6200|12100|0|0]
27400,1.3154690265655518,0.5059069991111755,-0.011884966865181923,-2.20253586769104,-1.2578662633895874,-11.343955993652344,4.11328125,2,B2,7.6,180,0,3.935088924071563,[6200|12200|0|0]
27500,1.3151330947875977,0.5058950781822205,-0.011579226702451706,-2.172307252883911,-1.244565725326538,-11.333236694335938,4.11328125,2,B2,7.6,180,0,3.935543313018494,[6200|12300|0|0]
27600,1.3149272203445435,0.5058217644691467,-0.012056970037519932,-2.154125928878784,-1.2330995798110962,-11.361480712890625,4.11328125,2,B2,7.6,180,0,3.936068668023257,[6200|12400|0|0]
27700,1.3155521154403687,0.5061343312263489,-0.012363255023956299,-2.1407883167266846,-1.2240577936172485,-11.371760368347168,4.11328125,2,B2,7.6,180,0,3.9368315588092875,[6200|12500|0|0]
27800,1.31563401222229,0.505862832069397,-0.011700023896992207,-2.2301979064941406,-1.2736995220184326,-11.395777702331543,4.11328125,2,B2,7.6,180,0,3.9375528731671707,[6200|12600|0|0]
27901,1.3153107166290283,0.5063773989677429,-0.012075425125658512,-2.217804193496704,-1.2495441436767578,-11.422927856445312,4.1171875,2,B2,7.6,180,0,3.9382671736753463,[6200|12700|0|0]
28001,1.3157473802566528,0.5058847069740295,-0.011578988283872604,-2.1831917762756348,-1.2567085027694702,-11.426586151123047,4.11328125,2,B2,7.6,180,0,3.9390917160103673,[6200|12800|0|0]
28100,1.3153969049453735,0.5058354735374451,-0.011682620272040367,-2.174931049346924,-1.2460259199142456,-11.41008186340332,4.1171875,2,B2,7.6,180,0,3.939460492994554,[6200|12900|0|0]
28200,1.315466284751892,0.5060790777206421,-0.012002401053905487,-2.1761224269866943,-1.2528327703475952,-11.36953353881836,4.1171875,2,B2,7.6,180,0,3.9398684345394765,[6200|13000|0|0]
28301,1.3151801824569702,0.506081759929657,-0.011276033706963062,-2.243267059326172,-1.2741789817810059,-11.353339195251465,4.1171875,2,B2,7.6,180,0,3.9406491209298466,[6200|13100|0|0]
28400,1.3149930238723755,0.5062334537506104,-0.011813831515610218,-2.2308530807495117,-1.2698196172714233,-11.355871200561523,4.1171875,2,B2,7.6,180,0,3.941238413585569,[6200|13200|0|0]
28501,1.3151997327804565,0.5060499906539917,-0.011878373101353645,-2.215005397796631,-1.271981954574585,-11.345722198486328,4.1171875,2,B2,7.6,180,0,3.941522232007789,[6200|13300|0|0]
28601,1.3153866529464722,0.5059993863105774,-0.011864078231155872,-2.176913022994995,-1.254068374633789,-11.343165397644043,4.1171875,2,B2,7.6,180,0,3.9417164079366516,[6200|13400|0|0]
28701,1.315266728401184,0.5058431029319763,-0.012293638661503792,-2.1539084911346436,-1.2558056116104126,-11.330119132995605,4.1171875,2,B2,7.6,180,0,3.9421889844429554,[6200|13500|0|0]
28801,1.3146469593048096,0.506120502948761,-0.012156886979937553,-2.1482560634613037,-1.235248327255249,-11.341830253601074,4.1171875,2,B2,7.6,180,0,3.942881635527228,[6200|13600|0|0]
28901,1.315521478652954,0.5058455467224121,-0.012254709377884865,-2.141167163848877,-1.2395917177200317,-11.340080261230469,4.1171875,2,B2,7.6,180,0,3.9438035651548176,[6200|13700|0|0]
29002,1.3156805038452148,0.5057762861251831,-0.011579673737287521,-2.244847536087036,-1.2924988269805908,-11.354795455932617,4.1171875,2,B2,7.6,180,0,3.944500529399366,[6200|13800|0|0]
29101,1.315869688987732,0.5058518648147583,-0.011640254408121109,-2.216277599334717,-1.275618314743042,-11.344263076782227,4.1171875,2,B2,7.6,180,0,3.944713069217155,[6200|13900|0|0]
29201,1.315346360206604,0.5059311389923096,-0.011783318594098091,-2.203110933303833,-1.2509286403656006,-11.332670211791992,4.12109375,2,B2,7.6,180,0,3.945261361812119,[6200|14000|0|0]
29302,1.315107822418213,0.5061756372451782,-0.011373649351298809,-2.2662765979766846,-1.2739754915237427,-11.352043151855469,4.1171875,2,B2,7.6,180,0,3.9457947552510007,[6200|14100|0|0]
29401,1.315184473991394,0.5059861540794373,-0.011451754719018936,-2.2312426567077637,-1.2672011852264404,-11.343847274780273,4.12109375,2,B2,7.6,180,0,3.9460135697437497,[6200|14200|0|0]
29500,1.315047264099121,0.5060295462608337,-0.01177091896533966,-2.217095375061035,-1.2559609413146973,-11.318456649780273,4.1171875,2,B2,7.6,180,0,3.946363677230207,[6200|14300|0|0]
29602,1.314962387084961,0.5059165358543396,-0.011622167192399502,-2.1967198848724365,-1.2472504377365112,-11.311796188354492,4.12109375,2,B2,7.6,180,0,3.9465688662880574,[6200|14400|0|0]
29700,1.3150752782821655,0.5058329701423645,-0.011794944293797016,-2.1918866634368896,-1.2478824853897095,-11.319550514221191,4.12109375,2,B2,7.6,180,0,3.9467915310077406,[6200|14500|0|0]
29802,1.3149161338806152,0.5061936974525452,-0.011794081889092922,-2.194488286972046,-1.2389140129089355,-11.328572273254395,4.12109375,2,B2,7.6,180,0,3.9471858048676363,[6200|14600|0|0]
29902,1.3146638870239258,0.5057090520858765,-0.01244248915463686,-2.046363353729248,-1.1854891777038574,-11.352896690368652,4.12109375,2,B2,7.6,180,0,3.948033709101706,[6200|14700|0|0]
30000,1.3153997659683228,0.5057289600372314,-0.012075423263013363,-2.075796127319336,-1.200792670249939,-11.382537841796875,4.12109375,2,B2,7.6,180,0,3.948856297404642,[6200|14800|0|0]
30100,1.3154847621917725,0.5055820941925049,-0.011964059434831142,-2.0942413806915283,-1.2142784595489502,-11.378523826599121,4.12109375,2,B2,7.6,180,0,3.9490592649798244,[6200|14900|0|0]
30200,1.315138339996338,0.5060154795646667,-0.012173407711088657,-2.1131041049957275,-1.2083914279937744,-11.395191192626953,4.12109375,2,B2,7.6,180,0,3.9496522725000682,[6200|15000|0|0]
30300,1.3155765533447266,0.5058485865592957,-0.011629708111286163,-2.219088315963745,-1.279593586921692,-11.361358642578125,4.12109375,2,B2,7.6,180,0,3.9503702512384535,[6200|15100|0|0]
30400,1.315616488456726,0.5056679844856262,-0.011848913505673409,-2.202577590942383,-1.277909517288208,-11.366864204406738,4.12109375,2,B2,7.6,180,0,3.95065706638295,[6200|15200|0|0]
30500,1.3153785467147827,0.5062257647514343,-0.01192855928093195,-2.206096887588501,-1.2657952308654785,-11.36772632598877,4.12109375,2,B2,7.6,180,0,3.9512686859926753,[6200|15300|0|0]
30600,1.3153531551361084,0.506039023399353,-0.01187077071517706,-2.195547342300415,-1.2740564346313477,-11.350300788879395,4.12109375,2,B2,7.6,180,0,3.951465806725164,[6200|15400|0|0]
30700,1.314995527267456,0.5062179565429688,-0.011616289615631104,-2.2724406719207764,-1.2931984663009644,-11.347010612487793,4.12109375,2,B2,7.6,180,0,3.9519398060841793,[6200|15500|0|0]
30800,1.3153034448623657,0.5059425830841064,-0.011676646769046783,-2.247204303741455,-1.29440176486969,-11.33095645904541,4.12109375,2,B2,7.6,180,0,3.952357282757862,[6200|15600|0|0]
30900,1.3150568008422852,0.5061536431312561,-0.011740450747311115,-2.223884105682373,-1.272763729095459,-11.327218055725098,4.12890625,2,B2,7.6,180,0,3.9526881158937277,[6200|15700|0|0]
31000,1.3158036470413208,0.5064630508422852,-0.012178072705864906,-2.193584442138672,-1.2615681886672974,-11.32156753540039,4.12109375,2,B2,7.6,180,0,3.953607368500614,[6200|15800|0|0]
31100,1.3156688213348389,0.5058073401451111,-0.011844667606055737,-2.1552176475524902,-1.2499943971633911,-11.343339920043945,4.12109375,2,B2,7.6,180,0,3.954355227745456,[6200|15900|0|0]
31200,1.315305471420288,0.5059694647789001,-0.011956905014812946,-2.1508281230926514,-1.233620524406433,-11.339344024658203,4.12890625,2,B2,7.6,180,0,3.9547686340748824,[6200|16000|0|0]
31300,1.3154844045639038,0.5060048699378967,-0.012260082177817822,-2.147019624710083,-1.2283920049667358,-11.357166290283203,4.12890625,2,B2,7.6,180,0,3.9551224518066816,[6200|16100|0|0]
31400,1.3153868913650513,0.5061988830566406,-0.012192873284220695,-2.139875650405884,-1.2252548933029175,-11.336166381835938,4.12890625,2,B2,7.6,180,0,3.9553497554572763,[6200|16200|0|0]
31500,1.3156031370162964,0.506096601486206,-0.01168355718255043,-2.23093581199646,-1.2812525033950806,-11.348615646362305,4.12890625,2,B2,7.6,180,0,3.9559124512834147,[6200|16300|0|0]
31600,1.3154761791229248,0.5062073469161987,-0.011913971975445747,-2.2109570503234863,-1.2748167514801025,-11.300466537475586,4.12890625,2,B2,7.6,180,0,3.9561978875,[6200|16400|0|0]
31700,1.3156177997589111,0.5062075257301331,-0.012150897644460201,-2.1960608959198,-1.2720805406570435,-11.318516731262207,4.12890625,2,B2,7.6,180,0,3.956473913240013,[6200|16500|0|0]
31800,1.3153564929962158,0.5061054229736328,-0.011977879330515862,-2.17301869392395,-1.2591649293899536,-11.316842079162598,4.12890625,2,B2,7.6,180,0,3.9568035213923323,[6200|16600|0|0]
31900,1.3155101537704468,0.5059332251548767,-0.01186588779091835,-2.1679177284240723,-1.2583093643188477,-11.335686683654785,4.12890625,2,B2,7.6,180,0,3.9570600478573668,[6200|16700|0|0]
32000,1.3153810501098633,0.505841076374054,-0.011762915179133415,-2.1659727096557617,-1.2448854446411133,-11.35597038269043,4.12890625,2,B2,7.6,180,0,3.957249157644953,[6200|16800|0|0]
32100,1.3153311014175415,0.5059110522270203,-0.011767620220780373,-2.163655996322632,-1.2454558610916138,-11.338234901428223,4.12890625,2,B2,7.6,180,0,3.9573352600797613,[6200|16900|0|0]
32200,1.3149887323379517,0.5061011910438538,-0.011997738853096962,-2.2390940189361572,-1.2695711851119995,-11.3604097366333,4.12890625,2,B2,7.6,180,0,3.957789489032235,[6200|17000|0|0]
