time.ms,stateEstimate.x,stateEstimate.y,stateEstimate.z,stabilizer.roll,stabilizer.pitch,stabilizer.yaw,pm.vbat,drone_id,node_name,wind_speed,global_wind_direction,relative_wind_direction,travel_dist,waiting_time
0,0.7777043581008911,1.1990108489990234,-0.057833265513181686,0.8531816601753235,0.4959881007671356,1.5584243535995483,4.1171875,2,"['C1', 'F2', 'F1']",0,None,0,0.0956566378520575,[100|0|0]
100,0.7782484292984009,1.199231743812561,-0.057844147086143494,0.8438880443572998,0.47295743227005005,1.557012677192688,4.11328125,2,"['C1', 'F2', 'F1']",0,None,0,0.09624394219840413,[200|0|0]
200,0.7779855728149414,1.198982834815979,-0.057809341698884964,0.8539046049118042,0.4894271492958069,1.5423173904418945,4.11328125,2,"['C1', 'F2', 'F1']",0,None,0,0.0966076187503818,[300|0|0]
300,0.7779658436775208,1.1989585161209106,-0.05780034512281418,0.8539145588874817,0.49159345030784607,1.5356918573379517,4.1171875,2,"['C1', 'F2', 'F1']",0,None,0,0.09664020058848509,[400|0|0]
400,0.7781949639320374,1.1989120244979858,-0.05778827518224716,0.8492881059646606,0.4886634647846222,1.5376267433166504,4.1171875,2,"['C1', 'F2', 'F1']",0,None,0,0.09687430151863537,[500|0|0]
500,0.7779086232185364,1.1988734006881714,-0.05766652897000313,0.8396634459495544,0.4946776032447815,1.5178873538970947,4.11328125,2,"['C1', 'F2', 'F1']",0,None,0,0.09718783770967016,[600|0|0]
600,0.7778002023696899,1.1992443799972534,-0.05781213939189911,0.8317846655845642,0.4914119243621826,1.5386526584625244,4.11328125,2,"['C1', 'F2', 'F1']",0,None,0,0.09760085480761682,[700|0|0]
700,0.7779172658920288,1.1988955736160278,-0.05776245519518852,0.8409913182258606,0.49287211894989014,1.5326632261276245,4.11328125,2,"['C1', 'F2', 'F1']",0,None,0,0.0979721205874146,[800|0|0]
800,0.778190553188324,1.1990317106246948,-0.05762196704745293,0.8525180816650391,0.4894696772098541,1.5456433296203613,4.11328125,2,"['C1', 'F2', 'F1']",0,None,0,0.09830821008605937,[900|0|0]
900,0.7779155969619751,1.1991323232650757,-0.057662397623062134,0.840255856513977,0.5000014901161194,1.5440752506256104,4.11328125,2,"['C1', 'F2', 'F1']",0,None,0,0.09860377473424402,[1000|0|0]
1000,0.7781843543052673,1.198872447013855,-0.057702723890542984,0.8410694003105164,0.49533724784851074,1.548105239868164,4.11328125,2,"['C1', 'F2', 'F1']",0,None,0,0.09897979652001043,[1100|0|0]
1100,0.7777908444404602,1.1992051601409912,-0.0576435811817646,0.8270620703697205,0.5059736967086792,1.533074975013733,4.11328125,2,"['C1', 'F2', 'F1']",0,None,0,0.09949849286535223,[1200|0|0]
1200,0.7781262993812561,1.1990644931793213,-0.05760759487748146,0.8297402262687683,0.496151328086853,1.5102801322937012,4.11328125,2,"['C1', 'F2', 'F1']",0,None,0,0.09986402292636744,[1300|0|0]
1300,0.7778427600860596,1.198968768119812,-0.05778389051556587,0.8304195404052734,0.505929708480835,1.5274666547775269,4.11328125,2,"['C1', 'F2', 'F1']",0,None,0,0.10021135269898446,[1400|0|0]
1400,0.7777285575866699,1.199063777923584,-0.05760292336344719,0.8434996604919434,0.5134052038192749,1.547884464263916,4.11328125,2,"['C1', 'F2', 'F1']",0,None,0,0.10044548553270408,[1500|0|0]
1500,0.7779523730278015,1.198960304260254,-0.05772390589118004,0.8429476022720337,0.5119953155517578,1.566643238067627,4.11328125,2,"['C1', 'F2', 'F1']",0,None,0,0.10072014336111701,[1600|0|0]
1600,0.7778988480567932,1.1990625858306885,-0.05775054916739464,0.8378955721855164,0.5195823311805725,1.5452942848205566,4.11328125,2,"['C1', 'F2', 'F1']",0,None,0,0.10083861827972618,[1700|0|0]
1700,0.7782195806503296,1.1991572380065918,-0.057832494378089905,0.8315805792808533,0.5142669081687927,1.5429450273513794,4.11328125,2,"['C1', 'F2', 'F1']",0,None,0,0.10118291967170084,[1800|0|0]
1800,0.7777416706085205,1.199190616607666,-0.05777892470359802,0.825274646282196,0.5314903259277344,1.552058458328247,4.11328125,2,"['C1', 'F2', 'F1']",0,None,0,0.1016649796774022,[1900|0|0]
1900,0.7778733968734741,1.1990610361099243,-0.05732300132513046,0.8217787742614746,0.5290026664733887,1.5555132627487183,4.11328125,2,"['C1', 'F2', 'F1']",0,None,0,0.10215692382190124,[2000|0|0]
2000,0.7781640291213989,1.199102520942688,-0.05788370966911316,0.8152766227722168,0.5144839882850647,1.5318495035171509,4.11328125,2,"['C1', 'F2', 'F1']",0,None,0,0.102789839252188,[2100|0|0]
2100,0.7772818207740784,1.198111653327942,-0.058545876294374466,0.8397712707519531,0.5420768857002258,1.559874176979065,4.11328125,2,"['C1', 'F2', 'F1']",0,None,0,0.10427259844964544,[2200|0|0]
2200,0.7775099873542786,1.1982132196426392,-0.05801713466644287,0.84006267786026,0.5327857136726379,1.5617815256118774,4.11328125,2,"['C1', 'F2', 'F1']",0,None,0,0.10485735772807477,[2300|0|0]
2300,0.7778912782669067,1.1990491151809692,-0.057930607348680496,0.8324853777885437,0.5173081159591675,1.552497386932373,4.11328125,2,"['C1', 'F2', 'F1']",0,None,0,0.10578017465887529,[2400|0|0]
2400,0.7772126197814941,1.198129415512085,-0.05844837799668312,0.8433007597923279,0.5375183820724487,1.5702375173568726,4.11328125,2,"['C1', 'F2', 'F1']",0,None,0,0.10703496996676476,[2500|0|0]
2500,0.7776356935501099,1.1985552310943604,-0.058351919054985046,0.8432543277740479,0.5309799909591675,1.5707693099975586,4.11328125,2,"['C1', 'F2', 'F1']",0,None,0,0.10764292938254245,[2600|0|0]
2600,0.7776737809181213,1.1982959508895874,-0.05841091647744179,0.855255126953125,0.5299052596092224,1.565675973892212,4.11328125,2,"['C1', 'F2', 'F1']",0,None,0,0.10791155099009792,[2700|0|0]
2700,0.7776907086372375,1.1978323459625244,-0.05867437645792961,0.8777850270271301,0.5448278188705444,1.5475279092788696,4.11328125,2,"['C1', 'F2', 'F1']",0,None,0,0.10844505566429506,[2800|0|0]
2800,0.7775799632072449,1.198438286781311,-0.058338191360235214,0.8597976565361023,0.5434888601303101,1.5605515241622925,4.11328125,2,"['C1', 'F2', 'F1']",0,None,0,0.10914680294505065,[2900|0|0]
2900,0.7772460579872131,1.1983046531677246,-0.05846163257956505,0.8658197522163391,0.5504990220069885,1.5643717050552368,4.11328125,2,"['C1', 'F2', 'F1']",0,None,0,0.10952705072384002,[3000|0|0]
3000,0.7776324152946472,1.1982736587524414,-0.05815025791525841,0.8625572919845581,0.536554217338562,1.5684962272644043,4.11328125,2,"['C1', 'F2', 'F1']",0,None,0,0.11002422956928554,[3100|0|0]
3100,0.7772682905197144,1.1981455087661743,-0.058556850999593735,0.8648537397384644,0.547508180141449,1.5933970212936401,4.11328125,2,"['C1', 'F2', 'F1']",0,None,0,0.11058487848521197,[3200|0|0]
3200,0.7776669859886169,1.1984007358551025,-0.05838901922106743,0.8613504767417908,0.5343548655509949,1.5962449312210083,4.11328125,2,"['C1', 'F2', 'F1']",0,None,0,0.1110871398213006,[3300|0|0]
3300,0.7775797247886658,1.198332667350769,-0.058320991694927216,0.8623846769332886,0.536226212978363,1.5888140201568604,4.11328125,2,"['C1', 'F2', 'F1']",0,None,0,0.11121704587432306,[3400|0|0]
3400,0.777289867401123,1.1978967189788818,-0.058459892868995667,0.8672950863838196,0.5457248687744141,1.5647422075271606,4.11328125,2,"['C1', 'F2', 'F1']",0,None,0,0.11175867473638802,[3500|0|0]
3501,0.7777509689331055,1.198034405708313,-0.0583554171025753,0.869828462600708,0.5282455682754517,1.5569602251052856,4.11328125,2,"['C1', 'F2', 'F1']",0,None,0,0.11225110487765387,[3600|0|0]
3601,0.7775417566299438,1.1979992389678955,-0.05841316655278206,0.8660829067230225,0.5282277464866638,1.5382087230682373,4.11328125,2,"['C1', 'F2', 'F1']",0,None,0,0.1124709718520383,[3700|0|0]
3700,0.7774418592453003,1.1985975503921509,-0.058197617530822754,0.8522454500198364,0.530126690864563,1.5604521036148071,4.11328125,2,"['C1', 'F2', 'F1']",0,None,0,0.11311472446657336,[3800|0|0]
3801,0.7776919603347778,1.198090672492981,-0.058051422238349915,0.8631689548492432,0.5204833745956421,1.549281358718872,4.11328125,2,"['C1', 'F2', 'F1']",0,None,0,0.1136985470622015,[3900|0|0]
3901,0.7778174877166748,1.198179006576538,-0.05857068672776222,0.8782565593719482,0.5281684398651123,1.5585293769836426,4.11328125,2,"['C1', 'F2', 'F1']",0,None,0,0.11424002249459748,[4000|0|0]
4001,0.7776075005531311,1.1979697942733765,-0.05835852026939392,0.8779090046882629,0.5323714017868042,1.5587435960769653,4.11328125,2,"['C1', 'F2', 'F1']",0,None,0,0.11460454821756345,[4100|0|0]
4101,0.7774782180786133,1.1980633735656738,-0.058124057948589325,0.8735225796699524,0.5287711024284363,1.5716215372085571,4.11328125,2,"['C1', 'F2', 'F1']",0,None,0,0.11488817406624689,[4200|0|0]
4201,0.7774527668952942,1.1979031562805176,-0.05829813703894615,0.8782939910888672,0.5190126299858093,1.5724202394485474,4.11328125,2,"['C1', 'F2', 'F1']",0,None,0,0.11512612547072823,[4300|0|0]
4301,0.7774724960327148,1.1980525255203247,-0.05819481611251831,0.8811168074607849,0.5136119723320007,1.5908693075180054,4.11328125,2,"['C1', 'F2', 'F1']",0,None,0,0.11530881543351171,[4400|0|0]
4402,0.7772473096847534,1.1980313062667847,-0.05822242796421051,0.8758592009544373,0.5069171190261841,1.5851194858551025,4.11328125,2,"['C1', 'F2', 'F1']",0,None,0,0.11553667846777324,[4500|0|0]
4502,0.7770150303840637,1.1980783939361572,-0.05828147754073143,0.03979207202792168,-0.00953100435435772,1.3958673477172852,4.11328125,2,"['C1', 'F2', 'F1']",0,None,0,0.11578092787846472,[4600|0|0]
4601,0.7778480052947998,1.198562741279602,-0.05827908590435982,0.17377682030200958,0.05793621763586998,1.598470687866211,4.11328125,2,"['C1', 'F2', 'F1']",0,None,0,0.1167444865279212,[4700|0|0]
4701,0.7775102853775024,1.1982165575027466,-0.05824264511466026,0.4383558928966522,0.27600422501564026,1.6546037197113037,4.11328125,2,"['C1', 'F2', 'F1']",0,None,0,0.11722948743622054,[4800|0|0]
4802,0.7777469754219055,1.1984384059906006,-0.0583588145673275,0.5515723824501038,0.3430313169956207,1.6579285860061646,4.11328125,2,"['C1', 'F2', 'F1']",0,None,0,0.11757406583138721,[4900|0|0]
4900,0.777999758720398,1.1984680891036987,-0.05831747129559517,0.7138996720314026,0.4178308844566345,1.6380647420883179,4.11328125,2,"['C1', 'F2', 'F1']",0,None,0,0.1178319218945648,[5000|0|0]
5002,0.7778308391571045,1.1983928680419922,-0.05839269980788231,0.7861151099205017,0.4703858196735382,1.6229267120361328,4.11328125,2,"['C1', 'F2', 'F1']",0,None,0,0.11803154993880821,[5100|0|0]
5102,0.7777100801467896,1.198319673538208,-0.058386776596307755,0.8193658590316772,0.4940773844718933,1.6161473989486694,4.11328125,2,"['C1', 'F2', 'F1']",0,None,0,0.1181728837931808,[5200|0|0]
5202,0.7776145935058594,1.198211669921875,-0.058312419801950455,0.8457239270210266,0.5154018998146057,1.595099925994873,4.11328125,2,"['C1', 'F2', 'F1']",0,None,0,0.11833509172333291,[5300|0|0]
5300,0.7777430415153503,1.1981502771377563,-0.05827093869447708,0.8531330823898315,0.5103537440299988,1.5690391063690186,4.11328125,2,"['C1', 'F2', 'F1']",0,None,0,0.11848337741839905,[5400|0|0]
5400,0.777789831161499,1.1984862089157104,-0.05838136374950409,0.8461785912513733,0.5174428820610046,1.5707218647003174,4.11328125,2,"['C1', 'F2', 'F1']",0,None,0,0.11884007494180486,[5500|0|0]
5500,0.7778344750404358,1.1979804039001465,-0.05817248672246933,0.8659117817878723,0.5247342586517334,1.5764259099960327,4.11328125,2,"['C1', 'F2', 'F1']",0,None,0,0.11938912995008642,[5600|0|0]
5600,0.777536928653717,1.1984328031539917,-0.05806727334856987,0.8522834181785583,0.5342837572097778,1.5712645053863525,4.11328125,2,"['C1', 'F2', 'F1']",0,None,0,0.11994073559833197,[5700|0|0]
5700,0.7775527834892273,1.19821035861969,-0.05791948735713959,0.853873074054718,0.5375768542289734,1.5507925748825073,4.11328125,2,"['C1', 'F2', 'F1']",0,None,0,0.1202082681120809,[5800|0|0]
5800,0.7773717641830444,1.1981792449951172,-0.05824856087565422,0.8733987808227539,0.5502154231071472,1.567350149154663,4.11328125,2,"['C1', 'F2', 'F1']",0,None,0,0.12058513072289892,[5900|0|0]
5900,0.7773087024688721,1.198086142539978,-0.058479078114032745,0.8750089406967163,0.5402877330780029,1.573409914970398,4.11328125,2,"['C1', 'F2', 'F1']",0,None,0,0.12084161277711901,[6000|0|0]
6000,0.7776078581809998,1.1982390880584717,-0.058405037969350815,0.8621693253517151,0.5261186957359314,1.5647623538970947,4.11328125,2,"['C1', 'F2', 'F1']",0,None,0,0.12118565988835588,[6100|0|0]
6100,0.777319073677063,1.1982890367507935,-0.058149587363004684,0.8552858233451843,0.5284383893013,1.5756317377090454,4.11328125,2,"['C1', 'F2', 'F1']",0,None,0,0.12157443536837136,[6200|0|0]
6200,0.7775285243988037,1.1980485916137695,-0.058405593037605286,0.8587297797203064,0.5273508429527283,1.5900065898895264,4.11328125,2,"['C1', 'F2', 'F1']",0,None,0,0.12198336369238899,[6300|0|0]
6300,0.7775858044624329,1.1980371475219727,-0.05854137986898422,0.8633560538291931,0.5257207155227661,1.614983320236206,4.11328125,2,"['C1', 'F2', 'F1']",0,None,0,0.12213118127085092,[6400|0|0]
6400,0.7775770425796509,1.1983072757720947,-0.05834801122546196,0.855178952217102,0.5249805450439453,1.6162654161453247,4.11328125,2,"['C1', 'F2', 'F1']",0,None,0,0.12246350261293044,[6500|0|0]
6500,0.7775763869285583,1.1980268955230713,-0.05826779827475548,0.8595994114875793,0.5122413635253906,1.6033390760421753,4.11328125,2,"['C1', 'F2', 'F1']",0,None,0,0.12275513188337811,[6600|0|0]
6600,0.7774056792259216,1.1982276439666748,-0.05854007974267006,0.8555015325546265,0.5220200419425964,1.587869644165039,3.1875,2,"['E1B', 'F2', 'G1']",0,None,0,0.12313404909744796,[6600|0|0]
6700,0.7774626016616821,1.197992205619812,-0.05726923421025276,0.8647280335426331,0.2804478704929352,1.4715919494628906,3.435546875,2,"['E1B', 'F2', 'G1']",0,None,0,0.12442777230823587,[6600|0|0]
6800,0.7803206443786621,1.1979880332946777,-0.03376580402255058,1.063662052154541,-5.746997833251953,-0.10382983833551407,3.59375,2,"['E1B', 'F2', 'G1']",0,None,0,0.14810433574486176,[6600|0|0]
6900,0.7947168946266174,1.1988452672958374,0.01679072342813015,0.3645159900188446,-2.679795503616333,-2.1081748008728027,3.57421875,2,"['E1B', 'F2', 'G1']",0,None,0,0.20067761164817532,[6600|0|0]
7000,0.8157907724380493,1.1999895572662354,0.08437136560678482,2.9816503524780273,1.3994539976119995,-3.0279719829559326,3.568359375,2,"['E1B', 'F2', 'G1']",0,None,0,0.27147705319136034,[6600|0|0]
7100,0.8376840353012085,1.1961236000061035,0.1675017923116684,2.976412296295166,4.048882961273193,-3.4056379795074463,3.59375,2,"['E1B', 'F2', 'G1']",0,None,0,0.35752894700241233,[6600|0|0]
7200,0.8516795635223389,1.1919097900390625,0.2501020133495331,2.376131534576416,4.745655536651611,-3.298302173614502,3.57421875,2,"['E1B', 'F2', 'G1']",0,None,0,0.44141236324263766,[6600|0|0]
7300,0.8564457893371582,1.1869118213653564,0.32824763655662537,2.1523146629333496,4.982594966888428,-2.7636895179748535,3.578125,2,"['E1B', 'F2', 'G1']",0,None,0,0.5198625705451428,[6600|0|0]
7400,0.8539493083953857,1.1796603202819824,0.4170616865158081,1.2121875286102295,3.5376152992248535,-2.5019707679748535,3.578125,2,"['E1B', 'F2', 'G1']",0,None,0,0.6090071281760325,[6600|0|0]
7500,0.8448731899261475,1.1708742380142212,0.5080454349517822,0.2969900369644165,1.8760206699371338,-2.3340046405792236,3.57421875,2,"['E1B', 'F2', 'G1']",0,None,0,0.7008636121471934,[6600|0|0]
7600,0.834416389465332,1.1631330251693726,0.5996345281600952,-0.47638335824012756,0.6081001162528992,-1.9553629159927368,3.5625,2,"['E1B', 'F2', 'G1']",0,None,0,0.7933721687617444,[6600|0|0]
7700,0.8226003646850586,1.1575381755828857,0.6930752992630005,-1.0160490274429321,-0.982525646686554,-1.7416478395462036,3.568359375,2,"['E1B', 'F2', 'G1']",0,None,0,0.887723101389933,[6600|0|0]
7800,0.8073820471763611,1.1566932201385498,0.7914581894874573,-0.7408034801483154,-1.1535792350769043,-1.5763782262802124,3.568359375,2,"['E1B', 'F2', 'G1']",0,None,0,0.98727963922857,[6600|0|0]
7900,0.8015410900115967,1.1558029651641846,0.8867394924163818,-0.8221214413642883,-1.7401847839355469,-1.6763123273849487,3.5625,2,"['E1B', 'F2', 'G1']",0,None,0,1.0827439572869602,[6600|0|0]
8000,0.7976147532463074,1.1567856073379517,0.9841831922531128,-0.21539612114429474,-1.5101640224456787,-1.4031587839126587,3.55859375,2,"['E1B', 'F2', 'G1']",0,None,0,1.1802716781867486,[6600|0|0]
8100,0.7980960607528687,1.1592880487442017,1.0831255912780762,0.08444613218307495,-1.067299723625183,-1.3086965084075928,3.55859375,2,"['E1B', 'F2', 'G1']",0,None,0,1.2792468881876506,[6600|0|0]
8200,0.7995912432670593,1.1609611511230469,1.1840516328811646,0.7324428558349609,-0.27105090022087097,-1.1981217861175537,3.5625,2,"['E1B', 'F2', 'G1']",0,None,0,1.3801978699361663,[6600|0|0]
8300,0.802300214767456,1.1630604267120361,1.2857762575149536,0.3601875305175781,0.29575884342193604,-0.8444511294364929,3.5625,2,"['E1B', 'F2', 'G1']",0,None,0,1.481980209963667,[6600|0|0]
8400,0.804703950881958,1.163880467414856,1.3881940841674805,0.8971248865127563,0.9754323959350586,-0.5902154445648193,3.55859375,2,"['E1B', 'F2', 'G1']",0,None,0,1.5844295224566725,[6600|0|0]
8500,0.8052122592926025,1.16372549533844,1.4933546781539917,1.1467974185943604,0.6492470502853394,-0.7384474277496338,3.5625,2,"['E1B', 'F2', 'G1']",0,None,0,1.6895914591133385,[6600|0|0]
8600,0.8045008182525635,1.1625491380691528,1.5989737510681152,0.4239645004272461,0.6891936659812927,-0.3474668860435486,3.57421875,2,"['E1B', 'F2', 'G1']",0,None,0,1.79521947872943,[6600|0|0]
8700,0.8016765117645264,1.1601970195770264,1.7044206857681274,0.42326584458351135,-0.06752260029315948,-0.3873523771762848,3.65234375,2,"['E1B', 'F2', 'G1']",0,None,0,1.9007304506999696,[6600|0|0]
8800,0.7999666929244995,1.1565823554992676,1.8011474609375,-0.20606805384159088,0.01088256947696209,4.266671657562256,3.716796875,2,"['E1B', 'F2', 'G1']",0,None,0,1.9975398423493704,[6600|0|0]
8900,0.7951727509498596,1.1527966260910034,1.8810585737228394,0.08696732670068741,-0.5953494310379028,8.159173011779785,3.716796875,2,"['E1B', 'F2', 'G1']",0,None,0,2.0776840846466187,[6600|0|0]
9000,0.7904289960861206,1.1541913747787476,1.9415557384490967,0.5115408301353455,-1.091255784034729,2.2302322387695312,3.705078125,2,"['E1B', 'F2', 'G1']",0,None,0,2.1383829765147997,[6600|0|0]
9100,0.7875418663024902,1.1553757190704346,1.989172101020813,0.5752108693122864,-1.0786850452423096,4.538555145263672,3.6796875,2,"['E1B', 'F2', 'G1']",0,None,0,2.18610148628145,[6600|0|0]
9200,0.7852582931518555,1.153710126876831,2.0145657062530518,1.0413975715637207,-1.1624271869659424,8.9920072555542,3.658203125,2,"['E1B', 'F2', 'G1']",0,None,0,2.211651908790295,[6600|0|0]
9300,0.7841728925704956,1.1517696380615234,2.0286271572113037,0.7015387415885925,-1.3371022939682007,7.47268009185791,3.583984375,2,"['E1B', 'F2', 'G1']",0,None,0,2.2258880597559063,[6600|0|0]
9400,0.7851706743240356,1.1467690467834473,2.0319430828094482,0.6165951490402222,-0.8525665998458862,-0.386670857667923,3.57421875,2,"['E1B', 'F2', 'G1']",0,None,0,2.231970562869798,[6600|0|0]
9500,0.7876477241516113,1.142149567604065,2.0237512588500977,0.1361781656742096,-0.4985028803348541,-4.4168596267700195,3.583984375,2,"['E1B', 'F2', 'G1']",0,None,0,2.2416958568765635,[6600|0|0]
9600,0.7909690141677856,1.137292742729187,2.0247833728790283,0.39378461241722107,-0.22650447487831116,-3.7524869441986084,3.6484375,2,"['E1B', 'F2', 'G1']",0,None,WindDirection.NONE,2.247669547076556,[6600|0|0]
9700,0.7945573925971985,1.1237260103225708,2.0066049098968506,13.360719680786133,3.7018704414367676,-3.680851936340332,3.642578125,2,"['E1B', 'F2', 'G1']",0,None,WindDirection.NONE,2.270634503082171,[6600|0|0]
9800,0.7941015958786011,1.0939286947250366,1.990167260169983,15.733698844909668,1.93995201587677,-7.367429256439209,3.578125,2,"['E1B', 'F2', 'G1']",0,None,WindDirection.NONE,2.3046680761536384,[6600|0|0]
9900,0.7840351462364197,1.0442137718200684,1.9626842737197876,16.623676300048828,2.0610005855560303,-8.503119468688965,3.537109375,2,"['E1B', 'F2', 'G1']",0,None,WindDirection.NONE,2.362358816416415,[6600|0|0]
10000,0.7637881636619568,0.9702185988426208,1.9290287494659424,12.966924667358398,0.14624527096748352,-9.358865737915039,3.53125,2,"['E1B', 'F2', 'G1']",0,None,WindDirection.NONE,2.446131844534862,[6600|0|0]
10100,0.7378684878349304,0.8826958537101746,1.9015257358551025,7.232297420501709,-0.5865607857704163,-3.9073009490966797,3.525390625,2,"['E1B', 'F2', 'G1']",0,None,WindDirection.NONE,2.5414653447757285,[6600|0|0]
10200,0.7088874578475952,0.7819614410400391,1.8803194761276245,3.1008763313293457,-2.2754948139190674,-8.02076530456543,3.5625,2,"['E1B', 'F2', 'G1']",0,None,WindDirection.NONE,2.6484093836313525,[6600|0|0]
10300,0.6817459464073181,0.6827025413513184,1.8657252788543701,-2.8887274265289307,-3.568190813064575,-7.7987165451049805,3.58984375,2,"['E1B', 'F2', 'G1']",0,None,WindDirection.NONE,2.752341964686231,[6600|0|0]
10400,0.658251941204071,0.5900067687034607,1.8573036193847656,-6.328786373138428,-4.613525390625,-2.156017780303955,3.611328125,2,"['E1B', 'F2', 'G1']",0,None,WindDirection.NONE,2.8483388338825515,[6600|0|0]
10500,0.6389567255973816,0.5240384936332703,1.8446489572525024,-8.316451072692871,-5.02278470993042,5.40746545791626,3.611328125,2,"['E1B', 'F2', 'G1']",0,None,WindDirection.NONE,2.9182263086883182,[6600|0|0]
10600,0.6232991814613342,0.4602821171283722,1.828595757484436,-8.320658683776855,-5.256771564483643,9.418768882751465,3.5625,2,"['E1B', 'F2', 'G1']",0,None,WindDirection.NONE,2.985811362185375,[6600|0|0]
10700,0.5925776362419128,0.425982266664505,1.8230431079864502,-8.188672065734863,-5.031754493713379,13.280540466308594,3.578125,2,"['E1B', 'F2', 'G1']",0,None,WindDirection.NONE,3.0321915842521148,[6600|0|0]
10800,0.5633826851844788,0.405753493309021,1.8194516897201538,-5.546385765075684,-5.8649773597717285,6.700212478637695,3.583984375,2,"['E1B', 'F2', 'G1']",0,None,WindDirection.NONE,3.0678909781388044,[6600|0|0]
10900,0.5488932132720947,0.39117908477783203,1.8150050640106201,-3.6574013233184814,-6.117944240570068,-1.266701102256775,3.5625,2,"['E1B', 'F2', 'G1']",0,None,WindDirection.NONE,3.0889178813947393,[6600|0|0]
11000,0.5466432571411133,0.3810369074344635,1.823921799659729,-1.3614330291748047,-6.03711462020874,4.811185836791992,3.583984375,2,"['E1B', 'F2', 'G1']",0,None,WindDirection.NONE,3.1026085438510185,[6600|0|0]
11100,0.5431220531463623,0.35567706823349,1.8059720993041992,-0.8463388085365295,-4.567020893096924,-2.798158645629883,3.578125,2,"['E1B', 'F2', 'G1']",0,None,WindDirection.NONE,3.133876931476945,[6600|0|0]
11200,0.5412185192108154,0.34136858582496643,1.8026232719421387,-2.3361923694610596,-4.765394687652588,-5.486012935638428,3.5625,2,"['E1B', 'F2', 'G1']",0,None,WindDirection.NONE,3.14869485153948,[6600|0|0]
11300,0.5469404458999634,0.32746395468711853,1.7992194890975952,-2.570204496383667,-3.506040334701538,-5.848795413970947,3.568359375,2,"['E1B', 'F2', 'G1']",0,None,WindDirection.NONE,3.164111237295175,[6600|0|0]
11400,0.5564640760421753,0.3132197856903076,1.799747347831726,-3.475048303604126,-2.4784951210021973,-5.339767932891846,3.578125,2,"['E1B', 'F2', 'G1']",0,None,WindDirection.NONE,3.1812540059262497,[6600|0|0]
11500,0.565385103225708,0.29806917905807495,1.790711760520935,-3.0744364261627197,-1.4916353225708008,-5.745420455932617,3.58984375,2,"['E1B', 'F2', 'G1']",0,None,WindDirection.NONE,3.2010218445887064,[6600|0|0]
11600,0.5762895345687866,0.2959107458591461,1.7913475036621094,-3.73711895942688,-1.0002888441085815,-4.272916793823242,3.568359375,2,"['E1B', 'F2', 'G1']",0,None,WindDirection.NONE,3.2121560094038912,[6600|0|0]
11700,0.587911069393158,0.29374128580093384,1.7881940603256226,-3.143737554550171,-0.5241402983665466,-2.8705952167510986,3.583984375,2,"['E1B', 'F2', 'G1']",0,None,WindDirection.NONE,3.2243916472497367,[6600|0|0]
11800,0.5965534448623657,0.29548975825309753,1.7809808254241943,-2.411756753921509,-0.14706477522850037,-2.056730270385742,3.59375,2,"['E1B', 'F2', 'G1']",0,None,WindDirection.NONE,3.235783686900735,[6600|0|0]
11900,0.6051090955734253,0.3019549250602722,1.7760326862335205,-1.5327068567276,-0.07513183355331421,-1.678292155265808,3.60546875,2,"['E1B', 'F2', 'G1']",0,None,WindDirection.NONE,3.2475939206996287,[6600|0|0]
12000,0.6123130917549133,0.3163922131061554,1.776862382888794,-0.8675931692123413,-0.1733361929655075,-1.7670243978500366,3.568359375,2,"['E1B', 'F2', 'G1']",0,None,WindDirection.NONE,3.263750072581883,[6600|0|0]
12100,0.6176201105117798,0.3279043734073639,1.7691665887832642,0.0699574202299118,-0.20701251924037933,-1.8818689584732056,3.5625,2,"['E1B', 'F2', 'G1']",0,None,WindDirection.NONE,3.2785797566581256,[6600|0|0]
12200,0.6216736435890198,0.33511972427368164,1.7548635005950928,0.997865617275238,-0.4375070631504059,-1.843605637550354,3.55859375,2,"['E1B', 'F2', 'G1']",0,None,WindDirection.NONE,3.2951046091612786,[6600|0|0]
12300,0.6265432238578796,0.3398623764514923,1.7411408424377441,1.1985194683074951,-0.7354226112365723,-1.1759854555130005,3.525390625,2,"['E1B', 'F2', 'G1']",0,None,WindDirection.NONE,3.3104185540670827,[6600|0|0]
12400,0.6334378123283386,0.34596845507621765,1.7301757335662842,1.158138394355774,-0.49308985471725464,-1.6469887495040894,3.537109375,2,"['E1B', 'F2', 'G1']",0,None,WindDirection.NONE,3.3247382313997353,[6600|0|0]
12500,0.6388817429542542,0.3483755588531494,1.7198967933654785,1.2189521789550781,0.044358812272548676,-1.6167021989822388,3.552734375,2,"['E1B', 'F2', 'G1']",0,None,WindDirection.NONE,3.3366162422140273,[6600|0|0]
12600,0.6450175642967224,0.3517901301383972,1.712485909461975,0.7201575636863708,0.23826998472213745,-1.4642218351364136,3.521484375,2,"['E1B', 'F2', 'G1']",0,None,0,3.3468254929622425,[6600|0|0]
12700,0.6491599082946777,0.34996452927589417,1.690517544746399,-0.256303995847702,0.5887207388877869,-1.1331247091293335,3.869140625,2,"['E1B', 'F2', 'G1']",0,None,0,3.3692554033629363,[6600|0|0]
12800,0.6513579487800598,0.3550679087638855,1.6400976181030273,-0.3645803928375244,0.05522479861974716,4.788232326507568,3.76953125,2,"['E1B', 'F2', 'G1']",0,None,0,3.4199805930313527,[6600|0|0]
12900,0.6514780521392822,0.355694442987442,1.5491348505020142,-0.5290866494178772,0.03923233225941658,1.797979712486267,3.6484375,2,"['E1B', 'F2', 'G1']",0,None,0,3.510945597618755,[6600|0|0]
13000,0.6522894501686096,0.3582245707511902,1.438123106956482,-0.4835471510887146,-0.08032270520925522,0.29930123686790466,3.541015625,2,"['E1B', 'F2', 'G1']",0,None,0,3.6219891346584308,[6600|0|0]
13100,0.6538933515548706,0.36070337891578674,1.3168083429336548,-0.2624378204345703,-0.039047494530677795,-0.42348065972328186,3.521484375,2,"['E1B', 'F2', 'G1']",0,None,0,3.7433398205217085,[6600|0|0]
13200,0.6569530367851257,0.3658367097377777,1.1964951753616333,-0.49805545806884766,0.4496914744377136,0.5104936957359314,3.525390625,2,"['E1B', 'F2', 'G1']",0,None,0,3.863801312502547,[6600|0|0]
13300,0.6608734726905823,0.37124937772750854,1.0779380798339844,0.1979382485151291,-0.22334471344947815,1.7059537172317505,3.541015625,2,"['E1B', 'F2', 'G1']",0,None,0,3.982546635325839,[6600|0|0]
13400,0.6655269861221313,0.376543253660202,0.9590509533882141,0.16942191123962402,0.711441159248352,-0.3356917202472687,3.55859375,2,"['E1B', 'F2', 'G1']",0,None,0,4.101642517472037,[6600|0|0]
13500,0.6698799133300781,0.38209766149520874,0.840984582901001,0.8553056120872498,0.30758026242256165,-1.2788152694702148,3.53125,2,"['E1B', 'F2', 'G1']",0,None,0,4.219919595816487,[6600|0|0]
13600,0.6746201515197754,0.38474780321121216,0.7223950028419495,1.5712827444076538,0.7717124819755554,-1.0736552476882935,3.537109375,2,"['E1B', 'F2', 'G1']",0,None,0,4.338633460246014,[6600|0|0]
13700,0.6794707775115967,0.3846440613269806,0.6031872034072876,1.9057317972183228,0.9262873530387878,-0.6866751909255981,3.552734375,2,"['E1B', 'F2', 'G1']",0,None,0,4.457939951188233,[6600|0|0]
13800,0.6832406520843506,0.38177216053009033,0.48441606760025024,0.8859528303146362,0.8138725161552429,0.12629486620426178,3.53125,2,"['E1B', 'F2', 'G1']",0,None,0,4.5768056000081305,[6600|0|0]
13900,0.6869195699691772,0.3761737644672394,0.36653420329093933,0.4971831142902374,0.6294385194778442,1.2593227624893188,3.484375,2,"['E1B', 'F2', 'G1']",0,None,0,4.694877656009195,[6600|0|0]
14000,0.6884154081344604,0.3702273964881897,0.2556658387184143,0.13102048635482788,0.2722218334674835,1.680972695350647,3.431640625,2,"['E1B', 'F2', 'G1']",0,None,0,4.8059154472648995,[6600|0|0]
14100,0.6945415735244751,0.36031922698020935,0.15554963052272797,-0.7775360345840454,0.3333994448184967,1.8227558135986328,3.431640625,2,"['E1B', 'F2', 'G1']",0,None,0,4.906707098054371,[6600|0|0]
14200,0.6941831111907959,0.3547702729701996,0.08316633105278015,-1.1502463817596436,-0.596070408821106,2.1391706466674805,3.46875,2,"['E1B', 'F2', 'G1']",0,None,0,4.9793036642817485,[6600|0|0]
14300,0.6953967213630676,0.35015878081321716,0.031131017953157425,-0.6848028898239136,-0.05500279739499092,2.0709452629089355,3.478515625,2,"['E1B', 'F2', 'G1']",0,None,0,5.031557013637937,[6600|0|0]
14400,0.6964964866638184,0.3461951017379761,-0.0006568175740540028,0.2325959950685501,0.6907497644424438,1.5075905323028564,3.509765625,2,"['E1B', 'F2', 'G1']",0,None,0,5.063609887503369,[6600|0|0]
14500,0.697466254234314,0.34122684597969055,-0.01052060816437006,1.127862572669983,-0.9867780804634094,0.8124051094055176,3.58984375,2,"['E1B', 'F2', 'G1']",0,None,0,5.074696743650633,[6600|0|0]
14600,0.7014034390449524,0.3353109359741211,-0.007630237378180027,-1.6643383502960205,0.06349772959947586,0.45835524797439575,3.642578125,2,"['E1B', 'F2', 'G1']",0,None,0,5.082368357477513,[6600|0|0]
14700,0.7061720490455627,0.33005574345588684,-0.001861315919086337,-0.47322407364845276,0.6070830821990967,-0.02085074968636036,3.65234375,2,"['E1B', 'F2', 'G1']",0,None,0,5.091513692055472,[6600|0|0]
14800,0.7106505632400513,0.3264002799987793,0.0013460556510835886,-1.4657495021820068,1.404854416847229,-0.06926070153713226,3.63671875,2,"['E1B', 'F2', 'G1']",0,None,0,5.098124798987418,[6600|0|0]
14900,0.713894784450531,0.3249669373035431,0.0003171434218529612,-1.2520601749420166,1.329546570777893,0.1821330338716507,3.626953125,2,"['E1B', 'F2', 'G1']",0,None,0,5.101817779209403,[6600|0|0]
15000,0.7147393226623535,0.32451245188713074,-0.003133357735350728,-0.753677248954773,1.464196801185608,0.28066205978393555,3.626953125,2,"['E1B', 'F2', 'G1']",0,None,0,5.1053990862362895,[6600|0|0]
15100,0.7127702236175537,0.324125200510025,-0.0056070429272949696,0.31131407618522644,1.824378252029419,0.36237290501594543,3.626953125,2,"['E1B', 'F2', 'G1']",0,None,0,5.108584432858895,[6600|0|0]
15200,0.7080808877944946,0.3238579034805298,-0.007115042768418789,-0.31436213850975037,0.7840659618377686,0.36347493529319763,3.630859375,2,"['E1B', 'F2', 'G1']",0,None,0,5.113517523338932,[6600|0|0]
15300,0.7027551531791687,0.32183390855789185,-0.007085401099175215,0.1493261456489563,-0.531410276889801,0.20306392014026642,3.63671875,2,"['E1B', 'F2', 'G1']",0,None,0,5.1192149686671735,[6600|0|0]
15400,0.697638988494873,0.3196461498737335,-0.0070245829410851,-0.2523421049118042,-0.2384246289730072,-0.1588256061077118,3.63671875,2,"['E1B', 'F2', 'G1']",0,None,0,5.124779600549455,[6600|0|0]
15500,0.6936818957328796,0.3176437020301819,-0.008788892067968845,-1.0756903886795044,-1.3757840394973755,-0.20969408750534058,3.630859375,2,"['E1B', 'F2', 'G1']",0,None,0,5.129552562647395,[6600|0|0]
15600,0.691754162311554,0.31604424118995667,-0.010168846696615219,0.23360107839107513,-1.5341193675994873,-0.663167417049408,3.630859375,2,"['A1', 'F2', 'J1']",0,None,0,5.132412406331975,[6600|100|0]
15700,0.6928991675376892,0.3154006004333496,-0.009081145748496056,-0.998144805431366,-1.7306804656982422,-0.8770527243614197,3.6484375,2,"['A1', 'F2', 'J1']",0,None,0,5.134117810607794,[6600|200|0]
15800,0.6969861388206482,0.3161136507987976,-0.008527768775820732,-0.7210953831672668,-0.16078659892082214,-0.3071132004261017,3.65234375,2,"['A1', 'F2', 'J1']",0,None,0,5.138303261738232,[6600|300|0]
15900,0.7019374966621399,0.3174225091934204,-0.007364634424448013,-1.0411783456802368,0.3981515169143677,0.3508956730365753,3.65234375,2,"['A1', 'F2', 'J1']",0,None,0,5.14355511248735,[6600|400|0]
16000,0.7061651945114136,0.32023757696151733,-0.007679783273488283,-0.2242317646741867,0.933299720287323,1.2010819911956787,3.65234375,2,"['A1', 'F2', 'J1']",0,None,0,5.148644056821962,[6600|500|0]
16100,0.7082011699676514,0.3234703838825226,-0.008557543158531189,0.756385326385498,0.32911428809165955,1.1681357622146606,3.65234375,2,"['A1', 'F2', 'J1']",0,None,0,5.152564094967528,[6600|600|0]
16200,0.7094211578369141,0.3254958391189575,-0.00829324871301651,0.09776606410741806,-0.0862746313214302,0.9281820058822632,3.65234375,2,"['A1', 'F2', 'J1']",0,None,0,5.154943315610907,[6600|700|0]
16300,0.7110440731048584,0.3275662660598755,-0.006833571009337902,-0.729573667049408,0.1430530548095703,0.6368635892868042,3.658203125,2,"['A1', 'F2', 'J1']",0,None,0,5.157951833631996,[6600|800|0]
16400,0.7123398780822754,0.329607754945755,-0.0047176131047308445,-0.17977207899093628,0.298969566822052,0.24819566309452057,3.658203125,2,"['A1', 'F2', 'J1']",0,None,0,5.161164941981358,[6600|900|0]
16500,0.714127779006958,0.3322816789150238,-0.002987523563206196,-0.5080150365829468,-0.04728148877620697,-0.023572681471705437,3.658203125,2,"['A1', 'F2', 'J1']",0,None,0,5.164817293132549,[6600|1000|0]
16600,0.7152648568153381,0.33595675230026245,-0.0025944439694285393,-0.5303153395652771,0.2215767353773117,-0.2266777753829956,3.658203125,2,"['A1', 'F2', 'J1']",0,None,0,5.168684284456077,[6600|1100|0]
16700,0.7166798114776611,0.340908408164978,-0.0022577489726245403,-0.2303241342306137,0.33846724033355713,-0.28281909227371216,3.658203125,2,"['A1', 'F2', 'J1']",0,None,0,5.173845132837872,[6600|1200|0]
16800,0.7178384065628052,0.34697502851486206,-0.0014340808847919106,-0.5622040629386902,0.35057228803634644,-0.3151739537715912,3.658203125,2,"['A1', 'F2', 'J1']",0,None,0,5.180076076117976,[6600|1300|0]
16900,0.7184192538261414,0.35318487882614136,-0.0014436012133955956,-0.28956493735313416,0.5387333631515503,-0.4280114471912384,3.65234375,2,"['A1', 'F2', 'J1']",0,None,0,5.186313039727656,[6600|1400|0]
17000,0.717948317527771,0.36038896441459656,-0.0011130839120596647,-0.1766723245382309,0.21133574843406677,-0.6949706673622131,3.65234375,2,"['A1', 'F2', 'J1']",0,None,0,5.193540063447653,[6600|1500|0]
17100,0.7166213393211365,0.3678556978702545,0.0004384496423881501,-0.4601294994354248,0.21523892879486084,-0.7319777011871338,3.65234375,2,"['A1', 'F2', 'J1']",0,None,0,5.2012808796855765,[6600|1600|0]
17200,0.715676486492157,0.37607404589653015,0.0027262303046882153,-0.3297576904296875,-0.16826273500919342,-0.6805848479270935,3.658203125,2,"['A1', 'F2', 'J1']",0,None,0,5.209863882161879,[6600|1700|0]
17300,0.7137842774391174,0.38497474789619446,0.0036536387633532286,-0.24300573766231537,0.3330189883708954,-0.49297410249710083,3.65234375,2,"['A1', 'F2', 'J1']",0,None,0,5.219010632275249,[6600|1800|0]
17400,0.7113010287284851,0.394294798374176,0.003912509884685278,-0.20657044649124146,0.42342808842658997,-0.25073227286338806,3.6484375,2,"['A1', 'F2', 'J1']",0,None,0,5.228659304687993,[6600|1900|0]
17500,0.707725465297699,0.4026627540588379,0.004185523837804794,-0.04909335821866989,0.31892111897468567,0.21768003702163696,3.6484375,2,"['A1', 'F2', 'J1']",0,None,0,5.237763252886804,[6600|2000|0]
17600,0.7039156556129456,0.4129091501235962,-0.007139033172279596,-3.4912796020507812,0.3368849456310272,0.5321722626686096,4.0078125,2,"['A1', 'F2', 'J1']",0,None,0,5.253503293344966,[6600|2100|0]
17700,0.7071709632873535,0.421734482049942,-0.021982179954648018,-3.1270751953125,-16.04216766357422,0.3012561500072479,4.01171875,2,"['A1', 'F2', 'J1']",0,None,0,5.271076071101149,[6600|2200|0]
17800,0.7027335166931152,0.430669367313385,-0.023089362308382988,-18.92464828491211,-2.0597028732299805,3.492941379547119,4.01171875,2,"['A1', 'F2', 'J1']",0,None,0,5.2811134492305225,[6600|2300|0]
17900,0.705398678779602,0.4300224184989929,-0.024637794122099876,-12.206277847290039,-8.730456352233887,3.478907346725464,4.015625,2,"['A1', 'F2', 'J1']",0,None,0,5.2842629369344865,[6600|2400|0]
18000,0.7085023522377014,0.42774057388305664,-0.024437345564365387,-7.2086873054504395,-13.388944625854492,2.659864664077759,4.015625,2,"['A1', 'F2', 'J1']",0,None,0,5.288120369164622,[6600|2500|0]
18100,0.7058595418930054,0.4329427480697632,-0.02465776726603508,-13.80379867553711,-6.281888008117676,6.290324687957764,4.015625,2,"['A1', 'F2', 'J1']",0,None,0,5.293959517091626,[6600|2600|0]
18200,0.7045114636421204,0.43603184819221497,-0.024662304669618607,-16.4091854095459,-3.495622158050537,7.527764320373535,4.0234375,2,"['A1', 'F2', 'J1']",0,None,0,5.297329958475936,[6600|2700|0]
18300,0.7019329071044922,0.43574419617652893,-0.018511412665247917,-18.167020797729492,6.345571517944336,3.9635448455810547,4.0234375,2,"['A1', 'F2', 'J1']",0,None,0,5.304005673415125,[6600|2800|0]
18400,0.6928284168243408,0.43262895941734314,0.00853197555989027,-16.036102294921875,7.752370834350586,-2.679661512374878,4.0234375,2,"['A1', 'F2', 'J1']",0,None,0,5.332710050956237,[6600|2900|0]
18500,0.6700976490974426,0.4176659882068634,0.043097931891679764,-1.6118264198303223,0.9766709804534912,3.772817373275757,4.0234375,2,"['A1', 'F2', 'J1']",0,None,0,5.376703046376315,[6600|3000|0]
18600,0.6549351215362549,0.4028971493244171,0.013538366183638573,-1.8201922178268433,8.112564086914062,5.036711692810059,4.02734375,2,"['A1', 'F2', 'J1']",0,None,0,5.413059459412084,[6600|3100|0]
18700,0.6526058912277222,0.39487534761428833,-0.015632834285497665,-1.8547199964523315,9.057110786437988,5.716349124908447,4.02734375,2,"['A1', 'F2', 'J1']",0,None,0,5.443403051047178,[6600|3200|0]
18800,0.6570156812667847,0.39310526847839355,-0.01890314370393753,0.43068984150886536,2.768207311630249,5.5453386306762695,4.02734375,2,"['A1', 'F2', 'J1']",0,None,0,5.449171443546677,[6600|3300|0]
18900,0.6560893058776855,0.3922518491744995,-0.020437922328710556,0.28301653265953064,-1.5408250093460083,2.1529653072357178,4.02734375,2,"['A1', 'F2', 'J1']",0,None,0,5.45115690099947,[6600|3400|0]
19000,0.6555669903755188,0.3923833668231964,-0.02118951454758644,0.3082055151462555,-2.152482509613037,1.7432736158370972,4.02734375,2,"['A1', 'F2', 'J1']",0,None,0,5.452081563769996,[6600|3500|0]
19100,0.6557320952415466,0.3927234709262848,-0.02111045829951763,0.2504068613052368,-2.09433650970459,1.7683680057525635,4.03125,2,"['A1', 'F2', 'J1']",0,None,0,5.45246780243725,[6600|3600|0]
19200,0.6554953455924988,0.39228811860084534,-0.02106812596321106,0.233587846159935,-2.0132174491882324,1.7787119150161743,4.03125,2,"['A1', 'F2', 'J1']",0,None,0,5.4529651695755765,[6600|3700|0]
19300,0.6577057242393494,0.3958892822265625,-0.0193947684019804,0.1222178116440773,-1.9954586029052734,1.7714145183563232,4.03125,2,"['A1', 'F2', 'J1']",0,None,0,5.457509867447754,[6600|3800|0]
19400,0.6574038863182068,0.3961268961429596,-0.019759880378842354,0.09657809883356094,-1.9362998008728027,1.8041619062423706,4.03125,2,"['A1', 'F2', 'J1']",0,None,0,5.458039842220317,[6600|3900|0]
19500,0.6547644138336182,0.3925817012786865,-0.020484499633312225,0.2746129035949707,-1.6864395141601562,1.7719546556472778,4.03125,2,"['A1', 'F2', 'J1']",0,None,0,5.462518714253153,[6600|4000|0]
19600,0.654624879360199,0.3924606144428253,-0.020655380561947823,0.25969356298446655,-1.6358600854873657,1.72174870967865,4.03125,2,"['A1', 'F2', 'J1']",0,None,0,5.462770373115231,[6600|4100|0]
19700,0.654592752456665,0.3923826217651367,-0.020474595949053764,0.2380772978067398,-1.5895956754684448,1.7210581302642822,4.0390625,2,"['A1', 'F2', 'J1']",0,None,0,5.462969867656417,[6600|4200|0]
19801,0.6544877886772156,0.39277374744415283,-0.020565954968333244,0.2365003228187561,-1.5390775203704834,1.7000868320465088,4.10546875,2,"['A1', 'F2', 'J1']",0,None,0,5.463385009996086,[6600|4300|0]
19900,0.6546603441238403,0.39269471168518066,-0.020674554631114006,0.23444905877113342,-1.513198971748352,1.7052959203720093,4.11328125,2,"['A1', 'F2', 'J1']",0,None,0,5.463603678512595,[6600|4400|0]
20000,0.6546949744224548,0.3925227224826813,-0.02041054330766201,0.23173455893993378,-1.4794666767120361,1.7434155941009521,4.11328125,2,"['A1', 'F2', 'J1']",0,None,0,5.463920666717848,[6600|4500|0]
20101,0.6540709137916565,0.39246681332588196,-0.020526256412267685,0.22690361738204956,-1.4482228755950928,1.7166668176651,4.11328125,2,"['A1', 'F2', 'J1']",0,None,0,5.4645578221363325,[6600|4600|0]
20201,0.6543343663215637,0.3925987482070923,-0.020602429285645485,0.22098718583583832,-1.4446409940719604,1.7225284576416016,4.11328125,2,"['A1', 'F2', 'J1']",0,None,0,5.464862151489227,[6600|4700|0]
20301,0.6539081335067749,0.39247652888298035,-0.02085566334426403,0.22037212550640106,-1.41851007938385,1.681862235069275,4.1171875,2,"['A1', 'F2', 'J1']",0,None,0,5.465372778029893,[6600|4800|0]
20401,0.6544975638389587,0.39241722226142883,-0.020671457052230835,0.21574679017066956,-1.4236040115356445,1.6626453399658203,4.1171875,2,"['A1', 'F2', 'J1']",0,None,0,5.465993162870039,[6600|4900|0]
20501,0.6545694470405579,0.392363578081131,-0.02072610706090927,0.21225225925445557,-1.4201191663742065,1.6833888292312622,4.1171875,2,"['A1', 'F2', 'J1']",0,None,0,5.466098193894982,[6600|5000|0]
20601,0.6544415354728699,0.39256182312965393,-0.020728252828121185,0.20476946234703064,-1.4179261922836304,1.7145030498504639,4.1171875,2,"['A1', 'F2', 'J1']",0,None,0,5.466334132600432,[6600|5100|0]
20702,0.6541725993156433,0.3926735818386078,-0.020749084651470184,0.20024803280830383,-1.4087839126586914,1.7090120315551758,4.1171875,2,"['A1', 'F2', 'J1']",0,None,0,5.466626109706649,[6600|5200|0]
20801,0.654477059841156,0.3922930061817169,-0.020782511681318283,0.20896050333976746,-1.4164447784423828,1.7025712728500366,4.1171875,2,"['A1', 'F2', 'J1']",0,None,0,5.467114629315813,[6600|5300|0]
20902,0.6545344591140747,0.39263689517974854,-0.020334772765636444,0.19619996845722198,-1.4157146215438843,1.6887915134429932,4.12109375,2,"['A1', 'F2', 'J1']",0,None,0,5.467682101302888,[6600|5400|0]
21002,0.6544529795646667,0.39249274134635925,-0.020551668480038643,0.201516255736351,-1.4130685329437256,1.7091355323791504,4.12109375,2,"['A1', 'F2', 'J1']",0,None,0,5.4679549803888925,[6600|5500|0]
21102,0.6544623970985413,0.3925817310810089,-0.020504051819443703,0.19753581285476685,-1.4144227504730225,1.6979701519012451,4.12109375,2,"['A1', 'F2', 'J1']",0,None,0,5.468056347095377,[6600|5600|0]
21200,0.6545078158378601,0.39254412055015564,-0.020606746897101402,0.19521096348762512,-1.4156413078308105,1.704370141029358,4.12109375,2,"['A1', 'F2', 'J1']",0,None,0,5.468174768769439,[6600|5700|0]
21302,0.6544181108474731,0.3926611840724945,-0.020588800311088562,0.13618233799934387,-1.4514760971069336,1.6988192796707153,4.12109375,2,"['A1', 'F2', 'J1']",0,None,0,5.468323338394572,[6600|5800|0]
21402,0.6543203592300415,0.3927171528339386,-0.020570935681462288,0.1475459486246109,-1.439692497253418,1.681931495666504,4.12890625,2,"['A1', 'F2', 'J1']",0,None,0,5.468437386743791,[6600|5900|0]
21502,0.6546684503555298,0.39264461398124695,-0.020587017759680748,0.15640833973884583,-1.4419225454330444,1.6762346029281616,4.12890625,2,"['A1', 'F2', 'J1']",0,None,0,5.4687933192514855,[6600|6000|0]
21600,0.6545009016990662,0.39286673069000244,-0.020683545619249344,0.15756294131278992,-1.429215669631958,1.6634423732757568,4.12890625,2,"['A1', 'F2', 'J1']",0,None,0,5.4690878120566,[6600|6100|0]
21700,0.6543852090835571,0.3926391005516052,-0.020759444683790207,0.17505387961864471,-1.4165366888046265,1.695981740951538,4.12890625,2,"['A1', 'F2', 'J1']",0,None,0,5.469354196983328,[6600|6200|0]
21800,0.6544792056083679,0.39260658621788025,-0.020857034251093864,0.17920036613941193,-1.4165050983428955,1.6980383396148682,4.12890625,2,"['A1', 'F2', 'J1']",0,None,0,5.469493539195958,[6600|6300|0]
21900,0.6543628573417664,0.3924606442451477,-0.02059248276054859,0.18171417713165283,-1.410430908203125,1.7058672904968262,4.12890625,2,"['A1', 'F2', 'J1']",0,None,0,5.4698173037241204,[6600|6400|0]
22000,0.6544245481491089,0.39270448684692383,-0.020780054852366447,0.176319882273674,-1.4158185720443726,1.6981583833694458,4.1328125,2,"['A1', 'F2', 'J1']",0,None,0,5.470131068380799,[6600|6500|0]
22100,0.6546404361724854,0.3922421634197235,-0.020741255953907967,0.18021631240844727,-1.4191426038742065,1.670252799987793,4.1328125,2,"['A1', 'F2', 'J1']",0,None,0,5.470642786999277,[6600|6600|0]
22200,0.654521644115448,0.3928464651107788,-0.020784737542271614,0.16518346965312958,-1.419913649559021,1.6651448011398315,4.1328125,2,"['A1', 'F2', 'J1']",0,None,0,5.471260186979156,[6600|6700|0]
22300,0.6545751690864563,0.39276307821273804,-0.020735763013362885,0.17322184145450592,-1.4239988327026367,1.6542867422103882,4.1328125,2,"['A1', 'F2', 'J1']",0,None,0,5.471370716621189,[6600|6800|0]
22400,0.6545182466506958,0.3925511837005615,-0.02038622833788395,0.16930599510669708,-1.4177823066711426,1.6276463270187378,4.1328125,2,"['A1', 'F2', 'J1']",0,None,0,5.471783407713104,[6600|6900|0]
22500,0.6544721722602844,0.3928282856941223,-0.020783599466085434,0.16233029961585999,-1.4101440906524658,1.6295727491378784,4.1328125,2,"['A1', 'F2', 'J1']",0,None,0,5.472270041227994,[6600|7000|0]
22600,0.6545142531394958,0.392732173204422,-0.020497219637036324,0.17195124924182892,-1.4107553958892822,1.6419497728347778,4.1328125,2,"['A1', 'F2', 'J1']",0,None,0,5.472575036010832,[6600|7100|0]
22700,0.6544607877731323,0.3927939236164093,-0.020381176844239235,0.17356908321380615,-1.4055523872375488,1.6269434690475464,4.1328125,2,"['A1', 'F2', 'J1']",0,None,0,5.472716942982264,[6600|7200|0]
22800,0.6542209386825562,0.39267686009407043,-0.020647570490837097,0.13478045165538788,-1.4302444458007812,1.6564271450042725,4.1328125,2,"['A1', 'F2', 'J1']",0,None,0,5.473094033196219,[6600|7300|0]
22900,0.6543790102005005,0.3928067982196808,-0.020359568297863007,0.13563202321529388,-1.4336869716644287,1.6388423442840576,4.1328125,2,"['A1', 'F2', 'J1']",0,None,0,5.4734473259706,[6600|7400|0]
23000,0.6545301675796509,0.393069326877594,-0.020541159436106682,0.1426256000995636,-1.4321012496948242,1.6157429218292236,4.13671875,2,"['A1', 'F2', 'J1']",0,None,0,5.4738005188229995,[6600|7500|0]
23100,0.6542391180992126,0.3926766514778137,-0.020712779834866524,0.1623871922492981,-1.4187067747116089,1.633530616760254,4.13671875,2,"['A1', 'F2', 'J1']",0,None,0,5.47431855099471,[6600|7600|0]
23200,0.6542078852653503,0.39267057180404663,-0.020502299070358276,0.1762726753950119,-1.4128891229629517,1.6447031497955322,4.13671875,2,"['A1', 'F2', 'J1']",0,None,0,5.474531423267615,[6600|7700|0]
23300,0.6541448831558228,0.3925988972187042,-0.02071671187877655,0.1852767914533615,-1.411760926246643,1.637128233909607,4.13671875,2,"['A1', 'F2', 'J1']",0,None,0,5.4747661132000855,[6600|7800|0]
23400,0.6543408632278442,0.3925114572048187,-0.020457828417420387,0.1906093955039978,-1.4162312746047974,1.627454161643982,4.13671875,2,"['A1', 'F2', 'J1']",0,None,0,5.475102378855813,[6600|7900|0]
23500,0.6543084979057312,0.39261844754219055,-0.020416654646396637,0.18271943926811218,-1.408560872077942,1.6367952823638916,4.13671875,2,"['A1', 'F2', 'J1']",0,None,0,5.47522149949125,[6600|8000|0]
23600,0.6542315483093262,0.3928671181201935,-0.02064475044608116,0.17700961232185364,-1.4090889692306519,1.6501257419586182,4.13671875,2,"['A1', 'F2', 'J1']",0,None,0,5.475567600618935,[6600|8100|0]
23700,0.6541778445243835,0.39282017946243286,-0.020805705338716507,0.18375787138938904,-1.40812087059021,1.659766674041748,4.14453125,2,"['A1', 'F2', 'J1']",0,None,0,5.4757436512127216,[6600|8200|0]
23800,0.6540027856826782,0.39285197854042053,-0.020687388256192207,0.19028525054454803,-1.4027931690216064,1.6447598934173584,4.13671875,2,"['A1', 'F2', 'J1']",0,None,0,5.475957323184297,[6600|8300|0]
23900,0.6542952060699463,0.39238280057907104,-0.020452279597520828,0.1995302438735962,-1.413067102432251,1.6817020177841187,4.14453125,2,"['A1', 'F2', 'J1']",0,None,0,5.476558084138162,[6600|8400|0]
24000,0.6543831825256348,0.3923950791358948,-0.02034587785601616,0.19455745816230774,-1.4135956764221191,1.6835731267929077,4.14453125,2,"['A1', 'F2', 'J1']",0,None,0,5.476696691318021,[6600|8500|0]
24100,0.6545436978340149,0.39235609769821167,-0.02056189998984337,0.19621890783309937,-1.4246282577514648,1.65804123878479,4.14453125,2,"['A1', 'F2', 'J1']",0,None,0,5.476968629323845,[6600|8600|0]
24200,0.654447078704834,0.3926399350166321,-0.020520495250821114,0.18282094597816467,-1.4191240072250366,1.6397473812103271,4.14453125,2,"['A1', 'F2', 'J1']",0,None,0,5.477271306101721,[6600|8700|0]
24300,0.6545076370239258,0.39233461022377014,-0.020527806133031845,0.18556086719036102,-1.4186962842941284,1.658708095550537,4.14453125,2,"['A1', 'F2', 'J1']",0,None,0,5.477582664397172,[6600|8800|0]
24400,0.654474139213562,0.39260441064834595,-0.02060655690729618,0.1985194832086563,-1.4044700860977173,1.6734473705291748,4.14453125,2,"['A1', 'F2', 'J1']",0,None,0,5.477865712196753,[6600|8900|0]
24500,0.6544167995452881,0.392763614654541,-0.020659102126955986,0.21184800565242767,-1.3991788625717163,1.6477196216583252,4.14453125,2,"['A1', 'F2', 'J1']",0,None,0,5.478042897843054,[6600|9000|0]
24600,0.6543244123458862,0.39233678579330444,-0.020621201023459435,0.2237640917301178,-1.395241618156433,1.659018635749817,4.14453125,2,"['A1', 'F2', 'J1']",0,None,0,5.478481252454122,[6600|9100|0]
24700,0.6544467210769653,0.39263445138931274,-0.020689841359853745,0.22186888754367828,-1.4002026319503784,1.674330234527588,4.14453125,2,"['A1', 'F2', 'J1']",0,None,0,5.478810305228803,[6600|9200|0]
24800,0.6542001962661743,0.3924467861652374,-0.020943058654665947,0.23539747297763824,-1.3905282020568848,1.7020303010940552,4.14453125,2,"['A1', 'F2', 'J1']",0,None,0,5.479210444850754,[6600|9300|0]
24900,0.6543609499931335,0.3925081491470337,-0.020732002332806587,0.23388898372650146,-1.388215184211731,1.7013862133026123,4.14453125,2,"['A1', 'F2', 'J1']",0,None,0,5.4794827534023325,[6600|9400|0]
25000,0.6543035507202148,0.39266231656074524,-0.02067749761044979,0.22972333431243896,-1.3841506242752075,1.7123832702636719,4.1484375,2,"['A1', 'F2', 'J1']",0,None,0,5.479656053814165,[6600|9500|0]
25100,0.6545379161834717,0.39245909452438354,-0.020395366474986076,0.23522460460662842,-1.39600670337677,1.7019318342208862,4.1484375,2,"['A1', 'F2', 'J1']",0,None,0,5.480075367949425,[6600|9600|0]
25200,0.6544658541679382,0.3922390639781952,-0.020649999380111694,0.23590116202831268,-1.3949331045150757,1.7009382247924805,4.1484375,2,"['A1', 'F2', 'J1']",0,None,0,5.480419525314175,[6600|9700|0]
25300,0.6544497013092041,0.39253610372543335,-0.02069491520524025,0.22276732325553894,-1.3981155157089233,1.703962802886963,4.1484375,2,"['A1', 'F2', 'J1']",0,None,0,5.480720375704953,[6600|9800|0]
25400,0.6542984247207642,0.3927637040615082,-0.020884644240140915,0.2138175368309021,-1.4005979299545288,1.7321984767913818,4.1484375,2,"['A1', 'F2', 'J1']",0,None,0,5.481053067192485,[6600|9900|0]
25500,0.6544176936149597,0.3923943340778351,-0.020607683807611465,0.21973469853401184,-1.4069342613220215,1.7115916013717651,4.1484375,2,"['A1', 'F2', 'J1']",0,None,0,5.481529896653768,[6600|10000|0]
25600,0.6545773148536682,0.39252620935440063,-0.02062942460179329,0.21796011924743652,-1.4106677770614624,1.7168898582458496,4.1484375,2,"['A1', 'F2', 'J1']",0,None,0,5.4817380857278035,[6600|10100|0]
25700,0.6543925404548645,0.39251020550727844,-0.020593583583831787,0.21338732540607452,-1.4068337678909302,1.7195073366165161,4.1484375,2,"['A1', 'F2', 'J1']",0,None,0,5.4819269832665505,[6600|10200|0]
25800,0.6545310020446777,0.3926289677619934,-0.020666562020778656,0.2151094526052475,-1.4124433994293213,1.7058473825454712,4.1484375,2,"['A1', 'F2', 'J1']",0,None,0,5.482123457023723,[6600|10300|0]
25900,0.6542609930038452,0.39284148812294006,-0.020611200481653214,0.15520620346069336,-1.4448610544204712,1.7030457258224487,4.1484375,2,"['A1', 'F2', 'J1']",0,None,0,5.482471501109957,[6600|10400|0]
26000,0.6542520523071289,0.3926814794540405,-0.020867852494120598,0.16288083791732788,-1.445835828781128,1.6764718294143677,4.15234375,2,"['A1', 'F2', 'J1']",0,None,0,5.482774078316112,[6600|10500|0]
26100,0.6545447707176208,0.39284273982048035,-0.020633511245250702,0.17123350501060486,-1.4446884393692017,1.6626989841461182,4.1484375,2,"['E1B', 'F2', 'G1']",0,None,0,5.48318225082198,[6600|10500|0]
26200,0.6545634865760803,0.39257556200027466,-0.02028587833046913,0.19046132266521454,-1.435333013534546,1.66523015499115,3.177734375,2,"['E1B', 'F2', 'G1']",0,None,0,5.483621093520914,[6600|10500|0]
26300,0.6556779742240906,0.39227262139320374,-0.01883821189403534,0.9608888626098633,-1.7238881587982178,1.7085028886795044,3.47265625,2,"['E1B', 'F2', 'G1']",0,None,0,5.485473009782562,[6600|10500|0]
26400,0.662423312664032,0.3905751705169678,0.006309407763183117,4.607724666595459,-3.3036789894104004,1.8320186138153076,3.568359375,2,"['E1B', 'F2', 'G1']",0,None,0,5.511564841925413,[6600|10500|0]
26500,0.6782900094985962,0.385452002286911,0.06248669698834419,1.3948172330856323,-0.37046194076538086,0.7443115711212158,3.615234375,2,"['E1B', 'F2', 'G1']",0,None,0,5.5701642168865915,[6600|10500|0]
26600,0.696049153804779,0.38090047240257263,0.13464757800102234,0.5872155427932739,1.727927803993225,-0.6296994090080261,3.65234375,2,"['E1B', 'F2', 'G1']",0,None,0,5.644617533664971,[6600|10500|0]
26700,0.7114794850349426,0.3778686225414276,0.21593499183654785,-0.04328049346804619,3.310340404510498,-1.5018177032470703,3.6640625,2,"['E1B', 'F2', 'G1']",0,None,0,5.727412043649155,[6600|10500|0]
26800,0.7222333550453186,0.377186119556427,0.3010896146297455,0.17930187284946442,3.9486303329467773,-1.9785500764846802,3.6484375,2,"['E1B', 'F2', 'G1']",0,None,0,5.813245727675744,[6600|10500|0]
26900,0.7274070382118225,0.3777417540550232,0.3888390362262726,0.6665781140327454,3.4179978370666504,-2.262657403945923,3.6484375,2,"['E1B', 'F2', 'G1']",0,None,0,5.901149292550716,[6600|10500|0]
27000,0.7271164059638977,0.3793218731880188,0.47750455141067505,1.0044565200805664,2.8734610080718994,-2.2961738109588623,3.63671875,2,"['E1B', 'F2', 'G1']",0,None,0,5.989829362614365,[6600|10500|0]
27100,0.7233337163925171,0.3801541030406952,0.5594138503074646,0.9742168188095093,1.9053605794906616,-2.0600569248199463,3.630859375,2,"['E1B', 'F2', 'G1']",0,None,0,6.07183018329736,[6600|10500|0]
27200,0.716291069984436,0.38088399171829224,0.6518418192863464,0.8292890787124634,0.9585509300231934,-1.858729362487793,3.63671875,2,"['E1B', 'F2', 'G1']",0,None,0,6.164528948421131,[6600|10500|0]
27300,0.708276093006134,0.38024088740348816,0.7460208535194397,1.1774152517318726,0.3898155391216278,-1.5649983882904053,3.630859375,2,"['E1B', 'F2', 'G1']",0,None,0,6.259050606934937,[6600|10500|0]
27400,0.6964589953422546,0.38271528482437134,0.8472988605499268,0.3719295561313629,-0.35333940386772156,-1.263334035873413,3.626953125,2,"['E1B', 'F2', 'G1']",0,None,0,6.361045710483399,[6600|10500|0]
27500,0.6913517713546753,0.3802625834941864,0.9429312348365784,0.3095611035823822,-0.7116919159889221,-1.1942017078399658,3.615234375,2,"['E1B', 'F2', 'G1']",0,None,0,6.456845765245266,[6600|10500|0]
27600,0.6857396960258484,0.3786805272102356,1.0407462120056152,-0.09900340437889099,-0.811991810798645,-1.8837841749191284,3.615234375,2,"['E1B', 'F2', 'G1']",0,None,0,6.554834377084403,[6600|10500|0]
27700,0.682367205619812,0.37956660985946655,1.1418834924697876,-0.1792028695344925,-0.10947055369615555,-1.8846179246902466,3.62109375,2,"['E1B', 'F2', 'G1']",0,None,0,6.656031750240473,[6600|10500|0]
27800,0.6787471175193787,0.3798635005950928,1.2436233758926392,-0.10097239166498184,-0.3092859387397766,-1.8282086849212646,3.599609375,2,"['E1B', 'F2', 'G1']",0,None,0,6.757836450823792,[6600|10500|0]
27900,0.6757206320762634,0.3795809745788574,1.3462820053100586,0.22523745894432068,0.26222407817840576,-1.7518417835235596,3.615234375,2,"['E1B', 'F2', 'G1']",0,None,0,6.860540071154091,[6600|10500|0]
28000,0.6698415279388428,0.3787938058376312,1.4482636451721191,-0.01035558246076107,0.12410248816013336,-2.113337516784668,3.626953125,2,"['E1B', 'F2', 'G1']",0,None,0,6.962694064561304,[6600|10500|0]
28100,0.6667368412017822,0.3792796730995178,1.5534886121749878,0.10423889011144638,-0.19477972388267517,4.1840643882751465,3.689453125,2,"['E1B', 'F2', 'G1']",0,None,0,7.067965945077832,[6600|10500|0]
28200,0.6621701717376709,0.3786225914955139,1.6500262022018433,-0.00607531750574708,0.008388561196625233,7.8266987800598145,3.720703125,2,"['E1B', 'F2', 'G1']",0,None,0,7.164613720605373,[6600|10500|0]
28300,0.6570739150047302,0.3772697448730469,1.7319897413253784,0.35614505410194397,-0.30760350823402405,8.551450729370117,3.7265625,2,"['E1B', 'F2', 'G1']",0,None,0,7.246746684586513,[6600|10500|0]
28400,0.6537265777587891,0.3732074797153473,1.798630714416504,-0.1848476380109787,-0.3298092186450958,5.4961771965026855,3.720703125,2,"['E1B', 'F2', 'G1']",0,None,0,7.313595214558245,[6600|10500|0]
28500,0.6481547355651855,0.37470611929893494,1.8449962139129639,-0.3231312036514282,-0.5731759667396545,2.2430248260498047,3.7109375,2,"['E1B', 'F2', 'G1']",0,None,0,7.360318344692988,[6600|10500|0]
28600,0.6414906978607178,0.3766691982746124,1.8763128519058228,0.4371066689491272,-0.6883242130279541,-0.24011015892028809,3.7109375,2,"['E1B', 'F2', 'G1']",0,None,0,7.3923962949511814,[6600|10500|0]
28700,0.6363520622253418,0.36975350975990295,1.8924355506896973,0.6635608673095703,-1.0414353609085083,0.2661612927913666,3.66796875,2,"['E1B', 'F2', 'G1']",0,None,0,7.410676714527908,[6600|10500|0]
28800,0.631732702255249,0.3682268559932709,1.8984090089797974,0.28194382786750793,-1.5244297981262207,0.5454501509666443,3.66796875,2,"['E1B', 'F2', 'G1']",0,None,0,7.41838069805593,[6600|10500|0]
28900,0.6285295486450195,0.3656052350997925,1.8988165855407715,-0.2905188202857971,-1.6893022060394287,-0.9969026446342468,3.66796875,2,"['E1B', 'F2', 'G1']",0,None,0,7.422539929693253,[6600|10500|0]
29000,0.6291401982307434,0.35429373383522034,1.890211582183838,-0.1801687777042389,-2.0518622398376465,-4.993540287017822,3.630859375,2,"['E1B', 'F2', 'G1']",0,None,0,7.436765576833112,[6600|10500|0]
29100,0.632378876209259,0.34771937131881714,1.883043885231018,-1.0078784227371216,-1.4749562740325928,-8.000964164733887,3.63671875,2,"['E1B', 'F2', 'G1']",0,None,0,7.447016779550505,[6600|10500|0]
29200,0.6364705562591553,0.34239065647125244,1.8766145706176758,1.8503687381744385,-1.34767484664917,-9.26486873626709,3.859375,2,"['E1B', 'F2', 'G1']",0,None,WindDirection.NONE,7.4563158727296655,[6600|10500|0]
29300,0.6461120247840881,0.33122485876083374,1.848492980003357,15.652034759521484,-3.0479750633239746,-7.536606311798096,3.822265625,2,"['E1B', 'F2', 'G1']",0,None,WindDirection.NONE,7.488072081768318,[6600|10500|0]
29400,0.6527333855628967,0.3014273941516876,1.7843343019485474,15.330220222473145,-1.4329077005386353,-3.377173662185669,3.6953125,2,"['E1B', 'F2', 'G1']",0,None,WindDirection.NONE,7.559121833952525,[6600|10500|0]
29500,0.6603800058364868,0.2500826120376587,1.695247769355774,16.602283477783203,-0.5384513735771179,-2.4694221019744873,3.552734375,2,"['E1B', 'F2', 'G1']",0,None,WindDirection.NONE,7.662229388192498,[6600|10500|0]
29600,0.656714677810669,0.1874982863664627,1.5917123556137085,12.290678977966309,-0.9987615346908569,-2.5245745182037354,3.42578125,2,"['E1B', 'F2', 'G1']",0,None,WindDirection.NONE,7.78326580563781,[6600|10500|0]
29700,0.6572489142417908,0.10287918895483017,1.501700520515442,6.238288879394531,-1.8791475296020508,-3.412444829940796,3.453125,2,"['E1B', 'F2', 'G1']",0,None,WindDirection.NONE,7.906808541211705,[6600|10500|0]
29800,0.6603571176528931,0.008830047212541103,1.4335541725158691,2.1671500205993652,-2.393366575241089,-3.982381820678711,3.478515625,2,"['E1B', 'F2', 'G1']",0,None,WindDirection.NONE,8.02299299256637,[6600|10500|0]
