time.ms,stateEstimate.x,stateEstimate.y,stateEstimate.z,stabilizer.roll,stabilizer.pitch,stabilizer.yaw,pm.vbat,drone_id,node_name,wind_speed,global_wind_direction,relative_wind_direction,travel_dist,waiting_time
0,1.6788973808288574,1.220263123512268,-0.05272704362869263,0.29433050751686096,0.48244431614875793,-7.336085319519043,4.07421875,1,"['C1', 'F2', 'F1']",0,None,0,0.06344914438401443,[100|0|0]
100,1.6794013977050781,1.220378041267395,-0.05262871831655502,0.2892796993255615,0.4685228765010834,-7.333163738250732,4.07421875,1,"['C1', 'F2', 'F1']",0,None,0,0.06397536389046174,[200|0|0]
200,1.679086446762085,1.2201576232910156,-0.052604615688323975,0.296676903963089,0.4825877845287323,-7.306520938873291,4.0703125,1,"['C1', 'F2', 'F1']",0,None,0,0.06436053802963922,[300|0|0]
300,1.679102897644043,1.2201167345046997,-0.05257188901305199,0.29782330989837646,0.4940794110298157,-7.313177108764648,4.07421875,1,"['C1', 'F2', 'F1']",0,None,0,0.0644154339278279,[400|0|0]
400,1.6792744398117065,1.2200902700424194,-0.0527198389172554,0.28965723514556885,0.49099043011665344,-7.289791107177734,4.07421875,1,"['C1', 'F2', 'F1']",0,None,0,0.06464350465634058,[500|0|0]
500,1.6790212392807007,1.2200872898101807,-0.05247398838400841,0.28953489661216736,0.49579930305480957,-7.298033714294434,4.07421875,1,"['C1', 'F2', 'F1']",0,None,0,0.0649964379012803,[600|0|0]
600,1.6790639162063599,1.22046959400177,-0.05271286517381668,0.280108243227005,0.4974215626716614,-7.303295612335205,4.07421875,1,"['C1', 'F2', 'F1']",0,None,0,0.06544925125753166,[700|0|0]
700,1.6789180040359497,1.220023274421692,-0.05272912606596947,0.2862124443054199,0.4940049350261688,-7.311622142791748,4.0703125,1,"['C1', 'F2', 'F1']",0,None,0,0.06591909798322901,[800|0|0]
800,1.679375171661377,1.2204769849777222,-0.05249979346990585,0.27451127767562866,0.4838294982910156,-7.343216896057129,4.07421875,1,"['C1', 'F2', 'F1']",0,None,0,0.06660280036439303,[900|0|0]
900,1.6791030168533325,1.2203408479690552,-0.05244419351220131,0.27951204776763916,0.4867866039276123,-7.33482027053833,4.07421875,1,"['C1', 'F2', 'F1']",0,None,0,0.06691214302224553,[1000|0|0]
1000,1.6794092655181885,1.2201716899871826,-0.05261852219700813,0.28431040048599243,0.47902217507362366,-7.337534427642822,4.0703125,1,"['C1', 'F2', 'F1']",0,None,0,0.06730303067605892,[1100|0|0]
1100,1.6790744066238403,1.2203326225280762,-0.0525592602789402,0.28561899065971375,0.47918859124183655,-7.355573654174805,4.07421875,1,"['C1', 'F2', 'F1']",0,None,0,0.06767925100615234,[1200|0|0]
1200,1.6792763471603394,1.2202850580215454,-0.05240299552679062,0.26512786746025085,0.45758160948753357,-7.359272480010986,4.0703125,1,"['C1', 'F2', 'F1']",0,None,0,0.06793898362891544,[1300|0|0]
1300,1.6790282726287842,1.2202266454696655,-0.05268310010433197,0.26223236322402954,0.4695678949356079,-7.335160255432129,4.0703125,1,"['C1', 'F2', 'F1']",0,None,0,0.06831768083485056,[1400|0|0]
1400,1.678880214691162,1.2202391624450684,-0.052495650947093964,0.26971468329429626,0.4713621139526367,-7.332258701324463,4.07421875,1,"['C1', 'F2', 'F1']",0,None,0,0.06855687743623815,[1500|0|0]
1500,1.6791914701461792,1.2201546430587769,-0.052586693316698074,0.2662542462348938,0.4645775854587555,-7.345075607299805,4.07421875,1,"['C1', 'F2', 'F1']",0,None,0,0.06889200755723612,[1600|0|0]
1600,1.6790739297866821,1.2204424142837524,-0.05261940509080887,0.26248812675476074,0.4686781167984009,-7.353648662567139,4.07421875,1,"['C1', 'F2', 'F1']",0,None,0,0.06920457446879287,[1700|0|0]
1700,1.6792218685150146,1.2201553583145142,-0.052722301334142685,0.2700783312320709,0.4535398483276367,-7.357068061828613,4.0703125,1,"['C1', 'F2', 'F1']",0,None,0,0.06954350607503251,[1800|0|0]
1800,1.6790369749069214,1.2204921245574951,-0.052695248275995255,0.25691699981689453,0.450575053691864,-7.353944778442383,4.07421875,1,"['C1', 'F2', 'F1']",0,None,0,0.06992864113793952,[1900|0|0]
1900,1.6789895296096802,1.2201488018035889,-0.05233149230480194,0.26417508721351624,0.45750173926353455,-7.3480000495910645,4.07421875,1,"['C1', 'F2', 'F1']",0,None,0,0.07043107518949143,[2000|0|0]
2000,1.6792854070663452,1.2202272415161133,-0.05270148068666458,0.25898563861846924,0.4532739520072937,-7.322592258453369,4.07421875,1,"['C1', 'F2', 'F1']",0,None,0,0.07091127062947064,[2100|0|0]
2100,1.679225206375122,1.220328450202942,-0.052570801228284836,0.25691500306129456,0.4546332061290741,-7.315904140472412,4.07421875,1,"['C1', 'F2', 'F1']",0,None,0,0.07108718095422659,[2200|0|0]
2200,1.6790841817855835,1.2201968431472778,-0.05237443000078201,0.25769737362861633,0.4612376391887665,-7.3251237869262695,4.07421875,1,"['C1', 'F2', 'F1']",0,None,0,0.07136244448422294,[2300|0|0]
2300,1.6791282892227173,1.2202746868133545,-0.05274234712123871,0.2558654844760895,0.4614538550376892,-7.323994159698486,4.07421875,1,"['C1', 'F2', 'F1']",0,None,0,0.07174108429972563,[2400|0|0]
2400,1.679284691810608,1.2199758291244507,-0.052669525146484375,-0.06812716275453568,-0.0029747765511274338,-4.959936141967773,4.07421875,1,"['C1', 'F2', 'F1']",0,None,0,0.07208616505509012,[2500|0|0]
2500,1.6792595386505127,1.2205344438552856,-0.052360668778419495,-0.1226382777094841,0.23665235936641693,-6.18912410736084,4.07421875,1,"['C1', 'F2', 'F1']",0,None,0,0.07272497281573712,[2600|0|0]
2600,1.6793408393859863,1.2201403379440308,-0.052792150527238846,0.009817388840019703,0.447200745344162,-6.602231025695801,4.0703125,1,"['C1', 'F2', 'F1']",0,None,0,0.07331497771269883,[2700|0|0]
2700,1.6791385412216187,1.219990611076355,-0.05298906937241554,0.13502079248428345,0.5644722580909729,-6.857242107391357,4.0703125,1,"['C1', 'F2', 'F1']",0,None,0,0.07363453946541067,[2800|0|0]
2800,1.6789615154266357,1.22052800655365,-0.05268649011850357,0.14149075746536255,0.6132094860076904,-7.02162504196167,4.07421875,1,"['C1', 'F2', 'F1']",0,None,0,0.07427616726718074,[2900|0|0]
2900,1.6790357828140259,1.2201870679855347,-0.052871331572532654,0.1767745018005371,0.606693685054779,-7.1300883293151855,4.0703125,1,"['C1', 'F2', 'F1']",0,None,0,0.07467103574551981,[3000|0|0]
3000,1.678950548171997,1.2202494144439697,-0.05246603861451149,0.1977231353521347,0.6064130663871765,-7.20073938369751,4.07421875,1,"['C1', 'F2', 'F1']",0,None,0,0.07508986077689057,[3100|0|0]
3100,1.6792410612106323,1.2204262018203735,-0.052633218467235565,0.20744433999061584,0.580718457698822,-7.28598690032959,4.07421875,1,"['C1', 'F2', 'F1']",0,None,0,0.07546880761383433,[3200|0|0]
3200,1.679395079612732,1.2203178405761719,-0.05290203541517258,0.22317393124103546,0.5706614851951599,-7.298752784729004,4.0703125,1,"['C1', 'F2', 'F1']",0,None,0,0.07579702458312206,[3300|0|0]
3300,1.6790871620178223,1.2201718091964722,-0.05299678444862366,0.255201131105423,0.5741121172904968,-7.323314666748047,4.07421875,1,"['C1', 'F2', 'F1']",0,None,0,0.07615074168541125,[3400|0|0]
3400,1.6790093183517456,1.2202026844024658,-0.05256212502717972,0.2543208599090576,0.5558341145515442,-7.348653793334961,4.07421875,1,"['C1', 'F2', 'F1']",0,None,0,0.07659339474068523,[3500|0|0]
3500,1.6791893243789673,1.2203437089920044,-0.05267809331417084,0.2594367265701294,0.5271521210670471,-7.348957061767578,4.0703125,1,"['C1', 'F2', 'F1']",0,None,0,0.07684979042761914,[3600|0|0]
3600,1.6791775226593018,1.2202575206756592,-0.05251898616552353,0.26260367035865784,0.5153359174728394,-7.383425712585449,4.07421875,1,"['C1', 'F2', 'F1']",0,None,0,0.07703112655532722,[3700|0|0]
3700,1.6791658401489258,1.22037672996521,-0.05292153358459473,0.2664724290370941,0.5102295279502869,-7.370609760284424,4.0703125,1,"['C1', 'F2', 'F1']",0,None,0,0.07745111674612311,[3800|0|0]
3800,1.6800371408462524,1.221677303314209,-0.051064226776361465,0.23419953882694244,0.47972333431243896,-7.365344524383545,4.0703125,1,"['C1', 'F2', 'F1']",0,None,0,0.0798801586397919,[3900|0|0]
3900,1.6804307699203491,1.22161865234375,-0.05146356672048569,0.2339206486940384,0.4620968997478485,-7.393378734588623,4.07421875,1,"['C1', 'F2', 'F1']",0,None,0,0.08044394598913839,[4000|0|0]
4000,1.680181622505188,1.2214747667312622,-0.051423579454422,0.24250324070453644,0.46508365869522095,-7.3750762939453125,4.07421875,1,"['C1', 'F2', 'F1']",0,None,0,0.08073442229696694,[4100|0|0]
4100,1.6799890995025635,1.221439242362976,-0.05122828111052513,0.24481643736362457,0.46728041768074036,-7.372950553894043,4.07421875,1,"['C1', 'F2', 'F1']",0,None,0,0.08101095173556352,[4200|0|0]
4200,1.6798018217086792,1.221190333366394,-0.051279425621032715,0.25184571743011475,0.46231937408447266,-7.365608215332031,4.0703125,1,"['C1', 'F2', 'F1']",0,None,0,0.08132661678211872,[4300|0|0]
4300,1.6798902750015259,1.221388816833496,-0.05123768374323845,0.24999360740184784,0.4593370854854584,-7.365238666534424,4.07421875,1,"['C1', 'F2', 'F1']",0,None,0,0.08154789049517579,[4400|0|0]
4400,1.6797127723693848,1.221295952796936,-0.05125746503472328,0.2577723264694214,0.4659428298473358,-7.373553276062012,4.07421875,1,"['C1', 'F2', 'F1']",0,None,0,0.08174919179471471,[4500|0|0]
4500,1.6799638271331787,1.221365213394165,-0.05114973708987236,0.2522302269935608,0.4581350088119507,-7.370999813079834,4.07421875,1,"['C1', 'F2', 'F1']",0,None,0,0.08203102655987678,[4600|0|0]
4600,1.6801093816757202,1.221683144569397,-0.05120882764458656,0.2466469705104828,0.4619412422180176,-7.37001895904541,4.07421875,1,"['C1', 'F2', 'F1']",0,None,0,0.08238565037562419,[4700|0|0]
4700,1.679709553718567,1.2212454080581665,-0.051268983632326126,0.2641606330871582,0.4757828414440155,-7.369897365570068,4.0703125,1,"['C1', 'F2', 'F1']",0,None,0,0.08298154834629244,[4800|0|0]
4801,1.6799166202545166,1.2216682434082031,-0.051642004400491714,0.255440890789032,0.46587666869163513,-7.332014560699463,4.07421875,1,"['C1', 'F2', 'F1']",0,None,0,0.08358222361383194,[4900|0|0]
4901,1.6802051067352295,1.2218302488327026,-0.051328178495168686,0.25222912430763245,0.45511963963508606,-7.338142395019531,4.07421875,1,"['C1', 'F2', 'F1']",0,None,0,0.08403824653647202,[5000|0|0]
5001,1.680350661277771,1.2215195894241333,-0.05140303820371628,0.2620351314544678,0.44940176606178284,-7.329527854919434,4.0703125,1,"['C1', 'F2', 'F1']",0,None,0,0.08438938663522313,[5100|0|0]
5101,1.6801893711090088,1.2215734720230103,-0.05126537010073662,0.2665475010871887,0.45826971530914307,-7.313347816467285,4.0703125,1,"['C1', 'F2', 'F1']",0,None,0,0.08460817959575682,[5200|0|0]
5201,1.68001389503479,1.2213585376739502,-0.05142408609390259,0.26809951663017273,0.4603967070579529,-7.315613746643066,4.0703125,1,"['C1', 'F2', 'F1']",0,None,0,0.08492783471227423,[5300|0|0]
5301,1.6802972555160522,1.2212555408477783,-0.051450569182634354,0.2671426236629486,0.4521421194076538,-7.310946941375732,4.0703125,1,"['C1', 'F2', 'F1']",0,None,0,0.08523049436028071,[5400|0|0]
5401,1.6802637577056885,1.221767783164978,-0.0513504296541214,0.25534582138061523,0.46438121795654297,-7.322274208068848,4.07421875,1,"['C1', 'F2', 'F1']",0,None,0,0.08575350699875142,[5500|0|0]
5501,1.6802899837493896,1.2213852405548096,-0.051125433295965195,0.2701289653778076,0.45627978444099426,-7.326465129852295,4.0703125,1,"['C1', 'F2', 'F1']",0,None,0,0.08619808546780527,[5600|0|0]
5601,1.68016517162323,1.2216733694076538,-0.05111873522400856,0.2612413167953491,0.45584845542907715,-7.333371162414551,4.07421875,1,"['C1', 'F2', 'F1']",0,None,0,0.08651215738129925,[5700|0|0]
5701,1.6799219846725464,1.2214590311050415,-0.051096368581056595,0.26583704352378845,0.4607686400413513,-7.327126979827881,4.0703125,1,"['C1', 'F2', 'F1']",0,None,0,0.08683708978606437,[5800|0|0]
5802,1.6799871921539307,1.2215334177017212,-0.051226578652858734,0.26129916310310364,0.45293891429901123,-7.330021858215332,4.07421875,1,"['C1', 'F2', 'F1']",0,None,0,0.08700061361977918,[5900|0|0]
5900,1.679876685142517,1.2213225364685059,-0.051500335335731506,0.26188570261001587,0.45541590452194214,-7.340917110443115,4.07421875,1,"['C1', 'F2', 'F1']",0,None,0,0.08736341579109501,[6000|0|0]
6000,1.6802259683609009,1.221489429473877,-0.05147506296634674,0.2621040940284729,0.44858816266059875,-7.339190483093262,4.0703125,1,"['C1', 'F2', 'F1']",0,None,0,0.08775134714396643,[6100|0|0]
6100,1.679816722869873,1.2214665412902832,-0.051255520433187485,0.26018890738487244,0.4648141860961914,-7.368519306182861,4.0703125,1,"['C1', 'F2', 'F1']",0,None,0,0.0882163252775822,[6200|0|0]
6200,1.6799829006195068,1.2212013006210327,-0.051406871527433395,0.26462841033935547,0.45301055908203125,-7.353438377380371,4.0703125,1,"['C1', 'F2', 'F1']",0,None,0,0.08856399582684865,[6300|0|0]
6300,1.6801387071609497,1.2212542295455933,-0.051523104310035706,0.25352606177330017,0.4428267478942871,-7.34482479095459,4.07421875,1,"['C1', 'F2', 'F1']",0,None,0,0.0887654585012154,[6400|0|0]
6400,1.6801514625549316,1.221597671508789,-0.0512915663421154,0.248199462890625,0.4479004144668579,-7.344399452209473,4.07421875,1,"['C1', 'F2', 'F1']",0,None,0,0.08917985554843953,[6500|0|0]
6500,1.6800284385681152,1.2213923931121826,-0.051162976771593094,0.2524905800819397,0.44466695189476013,-7.324825763702393,4.07421875,1,"['C1', 'F2', 'F1']",0,None,0,0.08945153440130194,[6600|0|0]
6600,1.679960012435913,1.2214878797531128,-0.05182986333966255,0.24747000634670258,0.4461834132671356,-7.314012050628662,4.07421875,1,"['C1', 'F2', 'F1']",0,None,0,0.09012868839326811,[6700|0|0]
6700,1.6802794933319092,1.221435546875,-0.051142532378435135,0.2477385550737381,0.4424736499786377,-7.303450107574463,4.0703125,1,"['C1', 'F2', 'F1']",0,None,0,0.0908884453434172,[6800|0|0]
6800,1.6799263954162598,1.2214125394821167,-0.05143382027745247,0.24321000277996063,0.4474819004535675,-7.308753490447998,4.0703125,1,"['C1', 'F2', 'F1']",0,None,0,0.09134676413888294,[6900|0|0]
6900,1.6797930002212524,1.2215582132339478,-0.05109255760908127,0.2413887232542038,0.4471133053302765,-7.314144611358643,4.07421875,1,"['C1', 'F2', 'F1']",0,None,0,0.09174106773872374,[7000|0|0]
7000,1.6801193952560425,1.221575379371643,-0.051508571952581406,0.2424667924642563,0.4368816018104553,-7.309261798858643,4.0703125,1,"['C1', 'F2', 'F1']",0,None,0,0.09227012003199617,[7100|0|0]
7100,1.6795156002044678,1.2214285135269165,-0.051784947514534,0.25174084305763245,0.44903764128685,-7.30116081237793,4.0703125,1,"['C1', 'F2', 'F1']",0,None,0,0.09295020935840702,[7200|0|0]
7200,1.6801278591156006,1.221103549003601,-0.05154922604560852,0.2565307915210724,0.42313721776008606,-7.313342571258545,4.0703125,1,"['C1', 'F2', 'F1']",0,None,0,0.09368234836610129,[7300|0|0]
7300,1.6800345182418823,1.2211886644363403,-0.05153854191303253,0.2554154694080353,0.4324564039707184,-7.321735382080078,4.07421875,1,"['C1', 'F2', 'F1']",0,None,0,0.09380912102200854,[7400|0|0]
7400,1.6801936626434326,1.2216215133666992,-0.051436685025691986,0.2520487308502197,0.43725380301475525,-7.338527202606201,4.0703125,1,"['C1', 'F2', 'F1']",0,None,0,0.09428141326475273,[7500|0|0]
7500,1.6797221899032593,1.2213947772979736,-0.05132269114255905,0.26020753383636475,0.44951024651527405,-7.352304458618164,4.07421875,1,"['C1', 'F2', 'F1']",0,None,0,0.09481684803667123,[7600|0|0]
7600,1.6801625490188599,1.2211542129516602,-0.05156491696834564,0.2664322853088379,0.43550989031791687,-7.362615585327148,4.07421875,1,"['C1', 'F2', 'F1']",0,None,0,0.09537403804563384,[7700|0|0]
7700,1.6801800727844238,1.2213151454925537,-0.05147165432572365,0.26409345865249634,0.44052526354789734,-7.329798221588135,4.0703125,1,"['C1', 'F2', 'F1']",0,None,0,0.09556086493231462,[7800|0|0]
7800,1.6801594495773315,1.2217813730239868,-0.05135239288210869,0.25079235434532166,0.44493940472602844,-7.326592445373535,4.07421875,1,"['C1', 'F2', 'F1']",0,None,0,0.09604254607131646,[7900|0|0]
7900,1.6801732778549194,1.221374273300171,-0.05144461989402771,0.2594134509563446,0.4431888461112976,-7.34254264831543,4.07421875,1,"['C1', 'F2', 'F1']",0,None,0,0.09646019093016134,[8000|0|0]
8000,1.6797535419464111,1.2215408086776733,-0.0513744093477726,0.2290077954530716,0.44184964895248413,-7.337796688079834,4.07421875,1,"['C1', 'F2', 'F1']",0,None,0,0.09691718303693848,[8100|0|0]
8100,1.6802977323532104,1.2217603921890259,-0.05139244720339775,0.2260923534631729,0.43271079659461975,-7.356791019439697,4.07421875,1,"['C1', 'F2', 'F1']",0,None,0,0.09750428224622587,[8200|0|0]
8200,1.6798526048660278,1.221210241317749,-0.05128321051597595,0.2499942183494568,0.4447069466114044,-7.345203876495361,4.0703125,1,"['C1', 'F2', 'F1']",0,None,0,0.09822033888846242,[8300|0|0]
8300,1.6798579692840576,1.2212122678756714,-0.05142426863312721,0.25430551171302795,0.44669049978256226,-7.3599853515625,4.07421875,1,"['C1', 'F2', 'F1']",0,None,0,0.0983615135190873,[8400|0|0]
8400,1.6802022457122803,1.2214298248291016,-0.05166413635015488,0.2509942650794983,0.44311726093292236,-7.361039638519287,4.0703125,1,"['C1', 'F2', 'F1']",0,None,0,0.09883415906142069,[8500|0|0]
8500,1.6798830032348633,1.2210352420806885,-0.0513775534927845,0.2649935483932495,0.4458199739456177,-7.342972755432129,4.07421875,1,"['C1', 'F2', 'F1']",0,None,0,0.09941703215127057,[8600|0|0]
8600,1.6803957223892212,1.2216339111328125,-0.051438555121421814,0.23834306001663208,0.43385040760040283,-7.347930908203125,4.0703125,1,"['C1', 'F2', 'F1']",0,None,0,0.10020760584417526,[8700|0|0]
8700,1.6801292896270752,1.2214891910552979,-0.05156394839286804,0.24556006491184235,0.44912654161453247,-7.334515571594238,4.0703125,1,"['C1', 'F2', 'F1']",0,None,0,0.10053571221428194,[8800|0|0]
8800,1.6799712181091309,1.2211085557937622,-0.05141720920801163,0.25519827008247375,0.45375964045524597,-7.323513031005859,4.07421875,1,"['C1', 'F2', 'F1']",0,None,0,0.10097320758052239,[8900|0|0]
8900,1.6799516677856445,1.2211395502090454,-0.051216233521699905,0.23122632503509521,0.44507119059562683,-7.336507320404053,4.0703125,1,"['C1', 'F2', 'F1']",0,None,0,0.10117749682501567,[9000|0|0]
9000,1.6800994873046875,1.2213374376296997,-0.051020413637161255,0.2281000316143036,0.4430229365825653,-7.337548732757568,4.07421875,1,"['C1', 'F2', 'F1']",0,None,0,0.1014927038500707,[9100|0|0]
9100,1.6799293756484985,1.2211155891418457,-0.05145353451371193,0.23674392700195312,0.4553132951259613,-7.356208324432373,4.07421875,1,"['C1', 'F2', 'F1']",0,None,0,0.10200821177516835,[9200|0|0]
9200,1.6802538633346558,1.2215567827224731,-0.05149906128644943,0.229719340801239,0.44710639119148254,-7.379423141479492,4.0703125,1,"['C1', 'F2', 'F1']",0,None,0,0.10255777225508883,[9300|0|0]
9300,1.6800572872161865,1.221608281135559,-0.05139019712805748,0.22641214728355408,0.45166561007499695,-7.365546703338623,4.07421875,1,"['C1', 'F2', 'F1']",0,None,0,0.10278830568408599,[9400|0|0]
9400,1.6799911260604858,1.2210893630981445,-0.05145870894193649,0.25047966837882996,0.45812466740608215,-7.358663558959961,4.07421875,1,"['C1', 'F2', 'F1']",0,None,0,0.10331589178769261,[9500|0|0]
9500,1.6800174713134766,1.2216507196426392,-0.05137016251683235,0.23675253987312317,0.4684982895851135,-7.340864181518555,4.0703125,1,"['C1', 'F2', 'F1']",0,None,0,0.10388479925978347,[9600|0|0]
9600,1.6797311305999756,1.221113920211792,-0.05137949436903,0.25777512788772583,0.47741761803627014,-7.331575870513916,4.07421875,1,"['C1', 'F2', 'F1']",0,None,0,0.10449326595289948,[9700|0|0]
9700,1.6802432537078857,1.2215780019760132,-0.05124182999134064,0.24672144651412964,0.4724431335926056,-7.339083194732666,4.0703125,1,"['C1', 'F2', 'F1']",0,None,0,0.10519795981722839,[9800|0|0]
9800,1.680342674255371,1.2214467525482178,-0.051550060510635376,0.2534468472003937,0.47097963094711304,-7.321762561798096,4.07421875,1,"['C1', 'F2', 'F1']",0,None,0,0.10554741211809879,[9900|0|0]
9900,1.6802502870559692,1.2212661504745483,-0.051328275352716446,0.26050877571105957,0.46643728017807007,-7.333193778991699,4.07421875,1,"['C1', 'F2', 'F1']",0,None,0,0.10584798018010828,[10000|0|0]
10000,1.6797730922698975,1.2211980819702148,-0.05123187601566315,0.2618947923183441,0.4801211357116699,-7.302306175231934,4.07421875,1,"['C1', 'F2', 'F1']",0,None,0,0.10633955013171294,[10100|0|0]
10100,1.6800085306167603,1.2211356163024902,-0.051607538014650345,0.2602024972438812,0.4744536280632019,-7.312946319580078,4.0703125,1,"['C1', 'F2', 'F1']",0,None,0,0.10678727226909372,[10200|0|0]
10200,1.6799776554107666,1.221068024635315,-0.05157247185707092,0.26501139998435974,0.4676917493343353,-7.312322616577148,4.0703125,1,"['C1', 'F2', 'F1']",0,None,0,0.1068694400682858,[10300|0|0]
10300,1.680127501487732,1.221372365951538,-0.05161707103252411,0.25742435455322266,0.4618646204471588,-7.319150924682617,4.07421875,1,"['C1', 'F2', 'F1']",0,None,0,0.10721158999155547,[10400|0|0]
10400,1.6801420450210571,1.2214539051055908,-0.05131601169705391,0.2527884840965271,0.4550042748451233,-7.334752559661865,4.0703125,1,"['C1', 'F2', 'F1']",0,None,0,0.10752383488179225,[10500|0|0]
10500,1.680195689201355,1.221416711807251,-0.05129661411046982,0.2561246156692505,0.452791303396225,-7.339818954467773,4.07421875,1,"['C1', 'F2', 'F1']",0,None,0,0.10759193264891065,[10600|0|0]
10600,1.6799808740615845,1.221268892288208,-0.0517389178276062,0.2612157166004181,0.45893287658691406,-7.302130699157715,4.0703125,1,"['C1', 'F2', 'F1']",0,None,0,0.10810538053592293,[10700|0|0]
10700,1.6801711320877075,1.221157431602478,-0.05127538740634918,0.2620892822742462,0.4522607922554016,-7.318141937255859,4.0703125,1,"['C1', 'F2', 'F1']",0,None,0,0.10861868556453491,[10800|0|0]
10800,1.6800349950790405,1.221640706062317,-0.05128762125968933,0.24468190968036652,0.46309471130371094,-7.340022087097168,4.0703125,1,"['C1', 'F2', 'F1']",0,None,0,0.10912091773776647,[10900|0|0]
10900,1.680015206336975,1.2213903665542603,-0.05143546685576439,0.25321856141090393,0.4630708396434784,-7.349761962890625,4.07421875,1,"['C1', 'F2', 'F1']",0,None,0,0.10941232773053501,[11000|0|0]
11000,1.680182933807373,1.2214171886444092,-0.051528602838516235,0.25334933400154114,0.45687511563301086,-7.3173136711120605,4.0703125,1,"['C1', 'F2', 'F1']",0,None,0,0.10960604463771971,[11100|0|0]
11100,1.6801536083221436,1.2214070558547974,-0.051627349108457565,0.2546059787273407,0.4601704180240631,-7.355074405670166,4.0703125,1,"['C1', 'F2', 'F1']",0,None,0,0.109709550595696,[11200|0|0]
11200,1.680191993713379,1.2211986780166626,-0.051455069333314896,0.25594455003738403,0.4618522524833679,-7.363804817199707,4.0703125,1,"['C1', 'F2', 'F1']",0,None,0,0.10998263498303665,[11300|0|0]
11300,1.6800023317337036,1.2214494943618774,-0.05173785984516144,0.2529843747615814,0.4720170199871063,-7.35213565826416,4.0703125,1,"['C1', 'F2', 'F1']",0,None,0,0.1104055427497562,[11400|0|0]
11400,1.6796848773956299,1.2213938236236572,-0.05142694339156151,0.2515018582344055,0.4755505621433258,-7.333024024963379,4.0703125,1,"['C1', 'F2', 'F1']",0,None,0,0.11085336584984704,[11500|0|0]
11500,1.6800003051757812,1.2216438055038452,-0.05137857794761658,0.24520854651927948,0.4637109637260437,-7.352382183074951,4.0703125,1,"['C1', 'F2', 'F1']",0,None,0,0.1112587358550047,[11600|0|0]
11600,1.6800298690795898,1.2214245796203613,-0.051147256046533585,0.25344347953796387,0.4617101550102234,-7.362886428833008,4.0703125,1,"['C1', 'F2', 'F1']",0,None,0,0.11157880433879895,[11700|0|0]
11700,1.68021821975708,1.2217223644256592,-0.051342885941267014,0.24717102944850922,0.45179277658462524,-7.369697570800781,4.0703125,1,"['C1', 'F2', 'F1']",0,None,0,0.11198182148941506,[11800|0|0]
11800,1.6798315048217773,1.221502661705017,-0.05160808190703392,0.25216224789619446,0.466592937707901,-7.383189678192139,4.0703125,1,"['C1', 'F2', 'F1']",0,None,0,0.11249965025155828,[11900|0|0]
11900,1.6801315546035767,1.2213428020477295,-0.051661234349012375,0.25285470485687256,0.4595816433429718,-7.369530200958252,4.0703125,1,"['C1', 'F2', 'F1']",0,None,0,0.11284375803071213,[12000|0|0]
12000,1.6802270412445068,1.2212973833084106,-0.05115499347448349,0.255219429731369,0.45700889825820923,-7.364822864532471,4.0703125,1,"['C1', 'F2', 'F1']",0,None,0,0.11336092375223784,[12100|0|0]
12100,1.6800799369812012,1.2213600873947144,-0.051453232765197754,0.2471451312303543,0.44885843992233276,-7.368384838104248,4.0703125,1,"['C1', 'F2', 'F1']",0,None,0,0.11369932904363801,[12200|0|0]
12200,1.6800665855407715,1.221169114112854,-0.05138087272644043,0.24869582056999207,0.45100244879722595,-7.360827922821045,4.0703125,1,"['C1', 'F2', 'F1']",0,None,0,0.113903987370014,[12300|0|0]
12300,1.6800864934921265,1.221486210823059,-0.05133948475122452,0.24043750762939453,0.4544839560985565,-7.359877586364746,4.0703125,1,"['C1', 'F2', 'F1']",0,None,0,0.11422439276110864,[12400|0|0]
12400,1.6802982091903687,1.221682071685791,-0.05149058252573013,0.23547641932964325,0.4505839943885803,-7.361371040344238,4.07421875,1,"['C1', 'F2', 'F1']",0,None,0,0.11454999305578423,[12500|0|0]
12500,1.6800960302352905,1.2214369773864746,-0.05124838277697563,0.2438499629497528,0.46050435304641724,-7.349182605743408,4.0703125,1,"['C1', 'F2', 'F1']",0,None,0,0.11494950308535874,[12600|0|0]
12600,1.6800075769424438,1.2211800813674927,-0.05134150758385658,0.2485055923461914,0.46521785855293274,-7.365567207336426,4.0703125,1,"['C1', 'F2', 'F1']",0,None,0,0.11523671690682422,[12700|0|0]
12700,1.6802269220352173,1.2215161323547363,-0.05116579309105873,0.2404046654701233,0.46069851517677307,-7.355358600616455,4.0703125,1,"['C1', 'F2', 'F1']",0,None,0,0.11567480150907637,[12800|0|0]
12800,1.680327296257019,1.2216321229934692,-0.051661837846040726,0.2404078096151352,0.4522691071033478,-7.359357833862305,4.0703125,1,"['C1', 'F2', 'F1']",0,None,0,0.11619402131958163,[12900|0|0]
12900,1.6800106763839722,1.2212679386138916,-0.05138009414076805,0.25120651721954346,0.45954957604408264,-7.362387657165527,4.0703125,1,"['C1', 'F2', 'F1']",0,None,0,0.11675282175068145,[13000|0|0]
13000,1.6801807880401611,1.2215156555175781,-0.051460716873407364,0.24074307084083557,0.45365527272224426,-7.3617987632751465,4.0703125,1,"['C1', 'F2', 'F1']",0,None,0,0.1170639514100867,[13100|0|0]
13100,1.6799108982086182,1.2212028503417969,-0.05173707753419876,0.2456260770559311,0.45359230041503906,-7.36121129989624,4.0703125,1,"['C1', 'F2', 'F1']",0,None,0,0.1175610055459702,[13200|0|0]
13200,1.6797926425933838,1.2216449975967407,-0.05136978626251221,0.21321362257003784,0.441683828830719,-7.370093822479248,4.0703125,1,"['C1', 'F2', 'F1']",0,None,0,0.11814784578304155,[13300|0|0]
13300,1.6800113916397095,1.2217638492584229,-0.05120771378278732,0.20879563689231873,0.446684330701828,-7.371563911437988,4.0703125,1,"['C1', 'F2', 'F1']",0,None,0,0.11844490529128388,[13400|0|0]
13400,1.6798509359359741,1.221203327178955,-0.051553163677453995,0.2288977950811386,0.4543438255786896,-7.356664180755615,4.0703125,1,"['C1', 'F2', 'F1']",0,None,0,0.11912259745160247,[13500|0|0]
13500,1.6799306869506836,1.2215824127197266,-0.051527973264455795,0.2230740189552307,0.4531227946281433,-7.3618292808532715,4.0703125,1,"['C1', 'F2', 'F1']",0,None,0,0.11951079923995,[13600|0|0]
13600,1.6801687479019165,1.221447467803955,-0.05125075951218605,0.23220638930797577,0.4482291042804718,-7.357993125915527,4.0703125,1,"['C1', 'F2', 'F1']",0,None,0,0.11990032537673927,[13700|0|0]
13700,1.6800726652145386,1.2215174436569214,-0.05103907734155655,0.2109590321779251,0.43692800402641296,-7.342313766479492,4.0703125,1,"['C1', 'F2', 'F1']",0,None,0,0.12014309655331207,[13800|0|0]
13800,1.6802164316177368,1.2216088771820068,-0.05116153508424759,0.21728909015655518,0.4363352656364441,-7.369082927703857,4.0703125,1,"['C1', 'F2', 'F1']",0,None,0,0.12035291735052506,[13900|0|0]
13900,1.6803996562957764,1.2213345766067505,-0.05138011276721954,0.22757433354854584,0.43898099660873413,-7.3806586265563965,4.0703125,1,"['C1', 'F2', 'F1']",0,None,0,0.12074862973562571,[14000|0|0]
14000,1.6800559759140015,1.2214263677597046,-0.05133802443742752,0.23414576053619385,0.46132275462150574,-7.389963626861572,4.0703125,1,"['C1', 'F2', 'F1']",0,None,0,0.1211068381220187,[14100|0|0]
14100,1.6799571514129639,1.2212697267532349,-0.05175042897462845,0.24270261824131012,0.46766144037246704,-7.3944573402404785,4.0703125,1,"['C1', 'F2', 'F1']",0,None,0,0.1215589223942701,[14200|0|0]
14200,1.6799085140228271,1.2214637994766235,-0.05150364339351654,0.24054297804832458,0.47363629937171936,-7.363406181335449,4.0703125,1,"['C1', 'F2', 'F1']",0,None,0,0.12187662184458053,[14300|0|0]
14300,1.6801598072052002,1.22130286693573,-0.0513240210711956,0.25289714336395264,0.46821898221969604,-7.36510705947876,4.0703125,1,"['C1', 'F2', 'F1']",0,None,0,0.12222492017202641,[14400|0|0]
14400,1.680084228515625,1.2217583656311035,-0.051645275205373764,0.23975157737731934,0.47031816840171814,-7.390883922576904,4.0703125,1,"['C1', 'F2', 'F1']",0,None,0,0.12278741054397196,[14500|0|0]
14500,1.6801502704620361,1.2215259075164795,-0.05159071832895279,0.24960143864154816,0.4693961441516876,-7.334569931030273,4.0703125,1,"['C1', 'F2', 'F1']",0,None,0,0.12303514985555804,[14600|0|0]
14600,1.680306077003479,1.2214529514312744,-0.05151061341166496,0.25801920890808105,0.4663105309009552,-7.356480598449707,4.0703125,1,"['C1', 'F2', 'F1']",0,None,0,0.12322492621472464,[14700|0|0]
14700,1.6800788640975952,1.2214168310165405,-0.05156365782022476,0.2647250294685364,0.47760894894599915,-7.386910438537598,4.0703125,1,"['C1', 'F2', 'F1']",0,None,0,0.12346102809578484,[14800|0|0]
14800,1.6798985004425049,1.2210010290145874,-0.0514923632144928,0.2855443060398102,0.4543423354625702,-7.363741874694824,4.0703125,1,"['C1', 'F2', 'F1']",0,None,0,0.12391983663288092,[14900|0|0]
14900,1.6802465915679932,1.221509575843811,-0.05152073875069618,0.31627726554870605,0.41539353132247925,-7.374420642852783,4.0703125,1,"['C1', 'F2', 'F1']",0,None,0,0.12453675841091436,[15000|0|0]
15000,1.6803364753723145,1.2216070890426636,-0.05150243639945984,0.33149874210357666,0.39853042364120483,-7.353829383850098,4.0703125,1,"['C1', 'F2', 'F1']",0,None,0,0.12467063484009627,[15100|0|0]
15100,1.6801005601882935,1.2211016416549683,-0.05138010531663895,0.34842169284820557,0.41000232100486755,-7.314209461212158,4.07421875,1,"['C1', 'F2', 'F1']",0,None,0,0.1252416846887118,[15200|0|0]
15200,1.680081844329834,1.2216378450393677,-0.05141313374042511,0.3343544900417328,0.4083162844181061,-7.301360607147217,4.0703125,1,"['C1', 'F2', 'F1']",0,None,0,0.12577923024917814,[15300|0|0]
15300,1.6805320978164673,1.2212716341018677,-0.0516652837395668,0.3482697010040283,0.39515793323516846,-7.298825263977051,4.0703125,1,"['C1', 'F2', 'F1']",0,None,0,0.1264120163702627,[15400|0|0]
15400,1.6800183057785034,1.2215187549591064,-0.05137989670038223,0.35647404193878174,0.3972127437591553,-7.263050079345703,4.0703125,1,"['C1', 'F2', 'F1']",0,None,0,0.1270495873376789,[15500|0|0]
15500,1.6800122261047363,1.2224379777908325,-0.05090181902050972,0.39254245162010193,0.38429197669029236,-7.193376541137695,4.07421875,1,"['C1', 'F2', 'F1']",0,None,0,0.1280857175634671,[15600|0|0]
15600,1.6802126169204712,1.2222776412963867,-0.04994608089327812,0.4166388213634491,0.38667765259742737,-7.207857131958008,4.0703125,1,"['C1', 'F2', 'F1']",0,None,0,0.12907531325784244,[15700|0|0]
15700,1.680269718170166,1.2214041948318481,-0.05133507400751114,0.3586122989654541,0.44447973370552063,-7.2639288902282715,4.0703125,1,"['C1', 'F2', 'F1']",0,None,0,0.13071710226697802,[15800|0|0]
15800,1.6801141500473022,1.2214299440383911,-0.05147256702184677,0.3060236871242523,0.475747674703598,-7.294037818908691,4.0703125,1,"['C1', 'F2', 'F1']",0,None,0,0.13092631218901818,[15900|0|0]
15900,1.6793134212493896,1.2198830842971802,-0.053038910031318665,0.3484470248222351,0.4746657907962799,-7.233147621154785,4.0703125,1,"['C1', 'F2', 'F1']",0,None,0,0.1332688262423607,[16000|0|0]
16000,1.6795789003372192,1.218975305557251,-0.053400903940200806,0.3637517988681793,0.4543021619319916,-7.161942005157471,4.0703125,1,"['C1', 'F2', 'F1']",0,None,0,0.13428153596227557,[16100|0|0]
16100,1.6804101467132568,1.2213855981826782,-0.05147244781255722,0.28321146965026855,0.45445749163627625,-7.22144079208374,4.0703125,1,"['C1', 'F2', 'F1']",0,None,0,0.1374783193634635,[16200|0|0]
16200,1.6801540851593018,1.2210627794265747,-0.05129430815577507,0.2749035060405731,0.4634431302547455,-7.2644429206848145,4.0703125,1,"['C1', 'F2', 'F1']",0,None,0,0.13792722158669765,[16300|0|0]
16300,1.680276870727539,1.2210347652435303,-0.05161168426275253,0.2567647397518158,0.47477826476097107,-7.275349140167236,4.0703125,1,"['C1', 'F2', 'F1']",0,None,0,0.1382686724374788,[16400|0|0]
16400,1.6800968647003174,1.2211976051330566,-0.05161279812455177,0.23805254697799683,0.49931177496910095,-7.2907609939575195,4.0703125,1,"['C1', 'F2', 'F1']",0,None,0,0.13851140735492004,[16500|0|0]
16500,1.6802613735198975,1.2213714122772217,-0.05131765455007553,0.22344444692134857,0.507565975189209,-7.318464279174805,4.0703125,1,"['C1', 'F2', 'F1']",0,None,0,0.13889138341289878,[16600|0|0]
16600,1.6800254583358765,1.2213070392608643,-0.05162208154797554,0.21813665330410004,0.505560576915741,-7.301052570343018,4.0703125,1,"['C1', 'F2', 'F1']",0,None,0,0.1392818647265836,[16700|0|0]
16700,1.6799908876419067,1.2213287353515625,-0.051568809896707535,0.21404577791690826,0.504819393157959,-7.288275241851807,4.0703125,1,"['C1', 'F2', 'F1']",0,None,0,0.13934897450278613,[16800|0|0]
16800,1.6801025867462158,1.2214674949645996,-0.05125697702169418,0.21094828844070435,0.5003634095191956,-7.301187515258789,4.0703125,1,"['C1', 'F2', 'F1']",0,None,0,0.13970809935858527,[16900|0|0]
16900,1.6802453994750977,1.2213047742843628,-0.05146756023168564,0.21586841344833374,0.48710399866104126,-7.311803340911865,4.0703125,1,"['C1', 'F2', 'F1']",0,None,0,0.14001012383381486,[17000|0|0]
17000,1.6803920269012451,1.2214430570602417,-0.05129450559616089,0.2124830186367035,0.4864705502986908,-7.305307865142822,4.0703125,1,"['C1', 'F2', 'F1']",0,None,0,0.14027577329283936,[17100|0|0]
17100,1.6798028945922852,1.2212973833084106,-0.051455456763505936,0.22223129868507385,0.4994247257709503,-7.299965858459473,4.0703125,1,"['C1', 'F2', 'F1']",0,None,0,0.14090362916619148,[17200|0|0]
17200,1.6801509857177734,1.2215358018875122,-0.050938233733177185,0.2185061126947403,0.48236358165740967,-7.320263385772705,4.0703125,1,"['C1', 'F2', 'F1']",0,None,0,0.14157110988771604,[17300|0|0]
17300,1.6800440549850464,1.2214112281799316,-0.051369115710258484,0.22460873425006866,0.47780174016952515,-7.3300981521606445,4.0703125,1,"['C1', 'F2', 'F1']",0,None,0,0.14203220864980004,[17400|0|0]
17400,1.6799713373184204,1.2217377424240112,-0.05162107199430466,0.22625461220741272,0.47406136989593506,-7.324361324310303,4.0703125,1,"['C1', 'F2', 'F1']",0,None,0,0.14245099425090965,[17500|0|0]
17500,1.679121971130371,1.2202855348587036,-0.052786510437726974,0.26621580123901367,0.4705168306827545,-7.294316291809082,4.0703125,1,"['C1', 'F2', 'F1']",0,None,0,0.14449759545767776,[17600|0|0]
17600,1.6790379285812378,1.2200790643692017,-0.052894074469804764,0.26600152254104614,0.470689982175827,-7.2953410148620605,4.0703125,1,"['C1', 'F2', 'F1']",0,None,0,0.14474510956656214,[17700|0|0]
17700,1.6790509223937988,1.2201038599014282,-0.05239366739988327,0.26893502473831177,0.46616092324256897,-7.3102946281433105,4.0703125,1,"['C1', 'F2', 'F1']",0,None,0,0.14524629904491407,[17800|0|0]
17800,1.678957223892212,1.220383644104004,-0.052769098430871964,0.27101144194602966,0.46856510639190674,-7.309914588928223,4.0703125,1,"['C1', 'F2', 'F1']",0,None,0,0.1457237999017089,[17900|0|0]
17900,1.6793924570083618,1.220133662223816,-0.05274852365255356,0.2781004309654236,0.45315709710121155,-7.289092063903809,4.0703125,1,"['C1', 'F2', 'F1']",0,None,0,0.14622613656901354,[18000|0|0]
18000,1.6793934106826782,1.22025465965271,-0.05259065330028534,0.27812933921813965,0.44949132204055786,-7.272515296936035,4.0703125,1,"['C1', 'F2', 'F1']",0,None,0,0.14642504442561796,[18100|0|0]
18100,1.6789520978927612,1.2204598188400269,-0.052630968391895294,0.27592724561691284,0.4647125005722046,-7.292177677154541,4.0703125,1,"['C1', 'F2', 'F1']",0,None,0,0.14691338096663897,[18200|0|0]
18200,1.6792126893997192,1.220607876777649,-0.05249127000570297,0.2735094130039215,0.4589506983757019,-7.30154275894165,4.0703125,1,"['C1', 'F2', 'F1']",0,None,0,0.14724405410660696,[18300|0|0]
18300,1.6792080402374268,1.2205398082733154,-0.052449654787778854,0.27675577998161316,0.46178939938545227,-7.298461437225342,4.0703125,1,"['C1', 'F2', 'F1']",0,None,0,0.14732397132849995,[18400|0|0]
18401,1.679323434829712,1.2202396392822266,-0.0524679459631443,0.28682395815849304,0.4539526104927063,-7.290370941162109,4.0703125,1,"['C1', 'F2', 'F1']",0,None,0,0.1476460767494978,[18500|0|0]
18501,1.6791342496871948,1.220346450805664,-0.052612174302339554,0.2867181599140167,0.45429885387420654,-7.297119140625,4.0703125,1,"['C1', 'F2', 'F1']",0,None,0,0.14790684778607066,[18600|0|0]
18601,1.6791399717330933,1.2202118635177612,-0.052580345422029495,0.2862437665462494,0.4570591449737549,-7.2981438636779785,4.0703125,1,"['C1', 'F2', 'F1']",0,None,0,0.14804526583943112,[18700|0|0]
18701,1.6789531707763672,1.220292091369629,-0.05239206179976463,0.287162184715271,0.4619494676589966,-7.298485279083252,4.0703125,1,"['C1', 'F2', 'F1']",0,None,0,0.1483223611805364,[18800|0|0]
18801,1.6792691946029663,1.2201935052871704,-0.05292308330535889,0.28424784541130066,0.46069538593292236,-7.291833400726318,4.07421875,1,"['C1', 'F2', 'F1']",0,None,0,0.1489481200111065,[18900|0|0]
18901,1.6794452667236328,1.2204748392105103,-0.05255398899316788,0.2588234543800354,0.4412042200565338,-7.291590213775635,4.0703125,1,"['C1', 'F2', 'F1']",0,None,0,0.14944448759605694,[19000|0|0]
19001,1.6793174743652344,1.2203835248947144,-0.05286034941673279,0.25854364037513733,0.438982754945755,-7.290337562561035,4.0703125,1,"['C1', 'F2', 'F1']",0,None,0,0.14978876350323195,[19100|0|0]
19101,1.6795676946640015,1.2204570770263672,-0.052443310618400574,0.26428523659706116,0.43974873423576355,-7.309003829956055,4.0703125,1,"['C1', 'F2', 'F1']",0,None,0,0.15028063896846694,[19200|0|0]
19201,1.6794565916061401,1.2201476097106934,-0.05254089832305908,0.28333422541618347,0.45012781023979187,-7.310239315032959,4.0703125,1,"['C1', 'F2', 'F1']",0,None,0,0.15062362186751152,[19300|0|0]
19301,1.6792203187942505,1.2204105854034424,-0.05238960310816765,0.2660413086414337,0.45567840337753296,-7.283482074737549,4.0703125,1,"['C1', 'F2', 'F1']",0,None,0,0.15100816224076785,[19400|0|0]
19401,1.679198980331421,1.2204782962799072,-0.05304647982120514,0.26845285296440125,0.4625036120414734,-7.297245502471924,4.0703125,1,"['C1', 'F2', 'F1']",0,None,0,0.15166886422269202,[19500|0|0]
19502,1.67935311794281,1.220463752746582,-0.052683863788843155,0.26960399746894836,0.466947466135025,-7.316065311431885,4.0703125,1,"['C1', 'F2', 'F1']",0,None,0,0.15206314877036323,[19600|0|0]
19602,1.6793582439422607,1.2202070951461792,-0.05273923650383949,0.28822487592697144,0.45611077547073364,-7.316107273101807,4.0703125,1,"['C1', 'F2', 'F1']",0,None,0,0.15232576167423692,[19700|0|0]
19702,1.6792466640472412,1.2203305959701538,-0.052761178463697433,0.28716030716896057,0.46970003843307495,-7.313692092895508,4.0703125,1,"['C1', 'F2', 'F1']",0,None,0,0.15249364251321917,[19800|0|0]
19802,1.6792213916778564,1.2205227613449097,-0.052475545555353165,0.2887129485607147,0.4812452793121338,-7.347414016723633,4.0703125,1,"['C1', 'F2', 'F1']",0,None,0,0.152838827075792,[19900|0|0]
19900,1.6798057556152344,1.220672369003296,-0.05237298831343651,0.2959387004375458,0.4646199643611908,-7.403274059295654,4.0703125,1,"['C1', 'F2', 'F1']",0,None,0,0.15345069442303746,[20000|0|0]
20000,1.6797763109207153,1.2211772203445435,-0.05241549015045166,0.3092940151691437,0.4451203942298889,-7.331696033477783,4.0703125,1,"['C1', 'F2', 'F1']",0,None,0,0.15395818656380858,[20100|0|0]
20102,1.6784435510635376,1.2201578617095947,-0.05352748557925224,0.37442705035209656,0.47007402777671814,-7.286287307739258,4.0703125,1,"['C1', 'F2', 'F1']",0,None,0,0.15597111346194034,[20200|0|0]
20200,1.680336833000183,1.2210408449172974,-0.05123988538980484,0.3293441832065582,0.4263147711753845,-7.296376705169678,4.0703125,1,"['C1', 'F2', 'F1']",0,None,0,0.1590690628584723,[20300|0|0]
20302,1.680834174156189,1.2214795351028442,-0.05089280754327774,0.29735279083251953,0.41304269433021545,-7.255138397216797,4.0703125,1,"['C1', 'F2', 'F1']",0,None,0,0.15981756825985716,[20400|0|0]
20400,1.6818866729736328,1.221923828125,-0.04977588355541229,0.29007014632225037,0.3849910795688629,-7.214794158935547,4.0703125,1,"['C1', 'F2', 'F1']",0,None,0,0.16141527575653053,[20500|0|0]
20500,1.6792999505996704,1.2197389602661133,-0.05268349125981331,0.3499022126197815,0.48164838552474976,-7.2154011726379395,4.0703125,1,"['C1', 'F2', 'F1']",0,None,0,0.1658783422766987,[20600|0|0]
20600,1.6795709133148193,1.2199718952178955,-0.0526508167386055,0.3994547426700592,0.42336517572402954,-7.221101760864258,4.0703125,1,"['C1', 'F2', 'F1']",0,None,0,0.1662371557506637,[20700|0|0]
20700,1.6791577339172363,1.2202776670455933,-0.052620161324739456,0.377393901348114,0.41453492641448975,-7.214144229888916,4.0703125,1,"['C1', 'F2', 'F1']",0,None,0,0.1667520862115999,[20800|0|0]
20800,1.6795995235443115,1.2198436260223389,-0.0527922585606575,0.35059013962745667,0.39490988850593567,-7.197862148284912,4.0703125,1,"['C1', 'F2', 'F1']",0,None,0,0.16739488255809667,[20900|0|0]
20900,1.6795316934585571,1.2204546928405762,-0.05224017798900604,0.31043845415115356,0.4047715961933136,-7.188984394073486,4.0703125,1,"['C1', 'F2', 'F1']",0,None,0,0.16822119759153073,[21000|0|0]
21000,1.6794042587280273,1.2204222679138184,-0.052671629935503006,0.29508092999458313,0.4080462157726288,-7.198444366455078,4.0703125,1,"['C1', 'F2', 'F1']",0,None,0,0.16867224278722232,[21100|0|0]
21100,1.6795917749404907,1.2204841375350952,-0.05236787348985672,0.274854451417923,0.39472946524620056,-7.153102397918701,4.0703125,1,"['C1', 'F2', 'F1']",0,None,0,0.16903453846515018,[21200|0|0]
21200,1.6794713735580444,1.2204891443252563,-0.052558645606040955,0.24780352413654327,0.3698737323284149,-7.141062259674072,4.0703125,1,"['C1', 'F2', 'F1']",0,None,0,0.16926018323277423,[21300|0|0]
21300,1.679150104522705,1.2206876277923584,-0.052567269653081894,0.22359035909175873,0.3770464360713959,-7.163433074951172,4.0703125,1,"['C1', 'F2', 'F1']",0,None,0,0.16963791839657036,[21400|0|0]
21400,1.6788595914840698,1.2205780744552612,-0.05249430239200592,0.20730596780776978,0.45010337233543396,-7.182624816894531,4.0703125,1,"['C1', 'F2', 'F1']",0,None,0,0.16995686036695862,[21500|0|0]
21500,1.6793489456176758,1.2206089496612549,-0.052455198019742966,0.2083393782377243,0.4554854929447174,-7.223779201507568,4.0703125,1,"['C1', 'F2', 'F1']",0,None,0,0.17044874439633187,[21600|0|0]
21600,1.6790823936462402,1.2209417819976807,-0.05279165506362915,0.21389959752559662,0.47118836641311646,-7.241806507110596,4.0703125,1,"['C1', 'F2', 'F1']",0,None,0,0.1709919116450016,[21700|0|0]
21700,1.6790331602096558,1.220718264579773,-0.052771806716918945,0.22831293940544128,0.47297340631484985,-7.2585554122924805,4.0703125,1,"['C1', 'F2', 'F1']",0,None,0,0.1712216461096628,[21800|0|0]
21800,1.6792967319488525,1.220451831817627,-0.0527438223361969,0.2368934601545334,0.45974501967430115,-7.271300315856934,4.0703125,1,"['C1', 'F2', 'F1']",0,None,0,0.1715974646882514,[21900|0|0]
21900,1.6789716482162476,1.2204198837280273,-0.052442535758018494,0.24400073289871216,0.4722030758857727,-7.282644271850586,4.0703125,1,"['C1', 'F2', 'F1']",0,None,0,0.17204184483612472,[22000|0|0]
22000,1.679034948348999,1.2207698822021484,-0.0528208464384079,0.24044564366340637,0.4599802494049072,-7.30715274810791,4.0703125,1,"['C1', 'F2', 'F1']",0,None,0,0.17256109892574767,[22100|0|0]
22100,1.679059386253357,1.2203954458236694,-0.0528874397277832,0.24893809854984283,0.4575885534286499,-7.312026023864746,4.0703125,1,"['C1', 'F2', 'F1']",0,None,0,0.1729421953425344,[22200|0|0]
22200,1.679147481918335,1.2208826541900635,-0.05274931713938713,0.2393212765455246,0.464756041765213,-7.335728645324707,4.0703125,1,"['C1', 'F2', 'F1']",0,None,0,0.17345620963017389,[22300|0|0]
22300,1.6792889833450317,1.2208932638168335,-0.05290408059954643,0.24281662702560425,0.4602009952068329,-7.340527057647705,4.0703125,1,"['C1', 'F2', 'F1']",0,None,0,0.17366617854820202,[22400|0|0]
22400,1.679146409034729,1.2204328775405884,-0.05231892690062523,0.25542986392974854,0.4615233838558197,-7.320132732391357,4.0703125,1,"['C1', 'F2', 'F1']",0,None,0,0.17442426021179394,[22500|0|0]
22500,1.6790906190872192,1.2209174633026123,-0.052836861461400986,0.23312680423259735,0.4552451968193054,-7.303468704223633,4.0703125,1,"['C1', 'F2', 'F1']",0,None,0,0.17513573198793508,[22600|0|0]
22600,1.6791915893554688,1.220647931098938,-0.05227493867278099,0.2506125867366791,0.44899478554725647,-7.323827266693115,4.0703125,1,"['C1', 'F2', 'F1']",0,None,0,0.17576707961346194,[22700|0|0]
22700,1.6790050268173218,1.2206263542175293,-0.052135780453681946,0.25829240679740906,0.4571765959262848,-7.321189880371094,4.0703125,1,"['C1', 'F2', 'F1']",0,None,0,0.17600082338855336,[22800|0|0]
22800,1.6790087223052979,1.2204886674880981,-0.052805520594120026,0.27108582854270935,0.459127277135849,-7.326591491699219,4.0703125,1,"['C1', 'F2', 'F1']",0,None,0,0.1766845800322555,[22900|0|0]
22900,1.6791064739227295,1.2206348180770874,-0.0524941049516201,0.26475459337234497,0.46145540475845337,-7.334173679351807,4.0703125,1,"['C1', 'F2', 'F1']",0,None,0,0.17704220424251826,[23000|0|0]
23000,1.6792781352996826,1.2208398580551147,-0.05271437391638756,0.25259870290756226,0.45373210310935974,-7.340548038482666,4.0703125,1,"['C1', 'F2', 'F1']",0,None,0,0.17738865400477338,[23100|0|0]
23100,1.6790746450424194,1.2206600904464722,-0.052766259759664536,0.2568136751651764,0.461241751909256,-7.358608722686768,4.0703125,1,"['C1', 'F2', 'F1']",0,None,0,0.1776650899261922,[23200|0|0]
23200,1.6790481805801392,1.220319390296936,-0.05236906185746193,0.26892733573913574,0.46180614829063416,-7.362398624420166,4.0703125,1,"['C1', 'F2', 'F1']",0,None,0,0.17818905856377643,[23300|0|0]
23300,1.678886890411377,1.2206100225448608,-0.052744060754776,0.2633328139781952,0.4627056419849396,-7.375152587890625,4.0703125,1,"['C1', 'F2', 'F1']",0,None,0,0.1786901631387505,[23400|0|0]
23400,1.6791257858276367,1.220367193222046,-0.0524955578148365,0.26683545112609863,0.4511280059814453,-7.36305046081543,4.0703125,1,"['C1', 'F2', 'F1']",0,None,0,0.1791118156154268,[23500|0|0]
23500,1.6791850328445435,1.220362901687622,-0.05241446942090988,0.2648141384124756,0.45381608605384827,-7.337482929229736,4.0703125,1,"['C1', 'F2', 'F1']",0,None,0,0.17921233404114895,[23600|0|0]
23600,1.6792019605636597,1.2209991216659546,-0.05270441621541977,0.2575400471687317,0.45776933431625366,-7.3241095542907715,4.0703125,1,"['C1', 'F2', 'F1']",0,None,0,0.17991171344615775,[23700|0|0]
23700,1.679046392440796,1.2208143472671509,-0.05292772501707077,0.2699317932128906,0.4593166410923004,-7.330831527709961,4.0703125,1,"['C1', 'F2', 'F1']",0,None,0,0.18024066608742917,[23800|0|0]
23800,1.6788207292556763,1.2208932638168335,-0.05284073203802109,0.2747746706008911,0.46640440821647644,-7.336226463317871,4.0703125,1,"['C1', 'F2', 'F1']",0,None,0,0.1804950663101808,[23900|0|0]
23900,1.679091215133667,1.2202529907226562,-0.0524396076798439,0.2888917922973633,0.4612480401992798,-7.347586631774902,4.0703125,1,"['C1', 'F2', 'F1']",0,None,0,0.18129757051331172,[24000|0|0]
24000,1.678926944732666,1.2204407453536987,-0.052359990775585175,0.28730010986328125,0.4694688618183136,-7.3453593254089355,4.0703125,1,"['C1', 'F2', 'F1']",0,None,0,0.18155943959809773,[24100|0|0]
24100,1.6791919469833374,1.220443606376648,-0.052841730415821075,0.2749842405319214,0.4532198905944824,-7.347685813903809,4.0703125,1,"['C1', 'F2', 'F1']",0,None,0,0.18210926453322512,[24200|0|0]
24200,1.679072618484497,1.2208362817764282,-0.05262669175863266,0.25326740741729736,0.453717440366745,-7.35033655166626,4.0703125,1,"['C1', 'F2', 'F1']",0,None,0,0.18257259474410445,[24300|0|0]
24300,1.6790047883987427,1.220359206199646,-0.05249771475791931,0.27504950761795044,0.4659092128276825,-7.363808631896973,4.0703125,1,"['C1', 'F2', 'F1']",0,None,0,0.1830714304818063,[24400|0|0]
24400,1.6790763139724731,1.2205696105957031,-0.05256200209259987,0.28208935260772705,0.46724116802215576,-7.383825302124023,4.0703125,1,"['C1', 'F2', 'F1']",0,None,0,0.1833027717426699,[24500|0|0]
24500,1.6790106296539307,1.2207292318344116,-0.05254870653152466,0.28166723251342773,0.46828585863113403,-7.363631725311279,4.0703125,1,"['C1', 'F2', 'F1']",0,None,0,0.18347589060788547,[24600|0|0]
24600,1.679031252861023,1.2200918197631836,-0.05255667865276337,0.3007103502750397,0.4719572961330414,-7.359286785125732,4.0703125,1,"['C1', 'F2', 'F1']",0,None,0,0.1841136860452594,[24700|0|0]
24700,1.6790717840194702,1.2206449508666992,-0.052556365728378296,0.2898840606212616,0.47075560688972473,-7.348737716674805,4.0703125,1,"['C1', 'F2', 'F1']",0,None,0,0.18466830022683356,[24800|0|0]
24800,1.6789348125457764,1.2206146717071533,-0.05291585251688957,0.2931644022464752,0.47373518347740173,-7.36417818069458,4.0703125,1,"['C1', 'F2', 'F1']",0,None,0,0.18505418720928155,[24900|0|0]
24900,1.6789780855178833,1.2206637859344482,-0.05270083248615265,0.3000052273273468,0.4797690510749817,-7.3649492263793945,4.0703125,1,"['C1', 'F2', 'F1']",0,None,0,0.18527895013117004,[25000|0|0]
25000,1.6788723468780518,1.2208267450332642,-0.052754081785678864,0.3007206320762634,0.4879792630672455,-7.342550277709961,4.0703125,1,"['C1', 'F2', 'F1']",0,None,0,0.18548037459775826,[25100|0|0]
25100,1.6790618896484375,1.2204416990280151,-0.0523713119328022,0.3062805235385895,0.4806179702281952,-7.360517978668213,4.0703125,1,"['C1', 'F2', 'F1']",0,None,0,0.1860554395056034,[25200|0|0]
25200,1.6790058612823486,1.220218539237976,-0.05259554088115692,0.3097008764743805,0.4790876507759094,-7.358775615692139,4.0703125,1,"['C1', 'F2', 'F1']",0,None,0,0.1863767152298297,[25300|0|0]
25300,1.6791751384735107,1.2205888032913208,-0.05256671831011772,0.29382821917533875,0.4744831919670105,-7.357208728790283,4.0703125,1,"['C1', 'F2', 'F1']",0,None,0,0.18678485855912508,[25400|0|0]
25400,1.6790640354156494,1.2207502126693726,-0.052746374160051346,0.2864033281803131,0.4735225737094879,-7.370704174041748,4.0703125,1,"['C1', 'F2', 'F1']",0,None,0,0.1870507026886532,[25500|0|0]
25500,1.6790950298309326,1.220357894897461,-0.05263644829392433,0.2933732569217682,0.4778348207473755,-7.3617448806762695,4.0703125,1,"['C1', 'F2', 'F1']",0,None,0,0.18745930712325987,[25600|0|0]
25600,1.6792696714401245,1.2206082344055176,-0.05244991555809975,0.284681111574173,0.47592946887016296,-7.339923858642578,4.0703125,1,"['C1', 'F2', 'F1']",0,None,0,0.1878170277160266,[25700|0|0]
25700,1.679073452949524,1.2206157445907593,-0.052450500428676605,0.28255167603492737,0.48717623949050903,-7.346480369567871,4.0703125,1,"['C1', 'F2', 'F1']",0,None,0,0.18801339074974102,[25800|0|0]
25800,1.6792922019958496,1.2205946445465088,-0.05264454707503319,0.2811683714389801,0.4702754616737366,-7.350013256072998,4.0703125,1,"['C1', 'F2', 'F1']",0,None,0,0.18830656383530311,[25900|0|0]
25900,1.6790516376495361,1.22072434425354,-0.052654191851615906,0.2859973609447479,0.47843849658966064,-7.340874195098877,4.0703125,1,"['C1', 'F2', 'F1']",0,None,0,0.18858003456579644,[26000|0|0]
26000,1.678900957107544,1.2205557823181152,-0.05290565639734268,0.2911331355571747,0.48933592438697815,-7.36059045791626,4.0703125,1,"['C1', 'F2', 'F1']",0,None,0,0.1889181945420899,[26100|0|0]
26100,1.679288625717163,1.2206279039382935,-0.05253329500555992,0.2915259301662445,0.47724631428718567,-7.3268141746521,4.0703125,1,"['C1', 'F2', 'F1']",0,None,0,0.1894605426637531,[26200|0|0]
26200,1.678900957107544,1.2204159498214722,-0.0522356815636158,0.2994736433029175,0.4889700710773468,-7.3372063636779785,4.0703125,1,"['C1', 'F2', 'F1']",0,None,0,0.18999325765260489,[26300|0|0]
26300,1.6791627407073975,1.2203000783920288,-0.052494172006845474,0.29112541675567627,0.48012351989746094,-7.335206985473633,4.0703125,1,"['C1', 'F2', 'F1']",0,None,0,0.19037897017580654,[26400|0|0]
26400,1.678939700126648,1.220503330230713,-0.05294770374894142,0.28832054138183594,0.4882960617542267,-7.35076379776001,4.0703125,1,"['C1', 'F2', 'F1']",0,None,0,0.19092371732052427,[26500|0|0]
26500,1.6793416738510132,1.2204984426498413,-0.052279289811849594,0.2854902148246765,0.47665736079216003,-7.340175151824951,4.0703125,1,"['C1', 'F2', 'F1']",0,None,0,0.19170370703508813,[26600|0|0]
26600,1.6793153285980225,1.2204350233078003,-0.05257716402411461,0.2866414487361908,0.47192251682281494,-7.351508140563965,4.0703125,1,"['C1', 'F2', 'F1']",0,None,0,0.1920093949995757,[26700|0|0]
26700,1.678849220275879,1.2204358577728271,-0.05280328169465065,0.28967180848121643,0.48490434885025024,-7.372932434082031,4.0703125,1,"['C1', 'F2', 'F1']",0,None,0,0.19252745567674778,[26800|0|0]
26800,1.6788928508758545,1.2206183671951294,-0.052802924066782,0.28397729992866516,0.48218533396720886,-7.383634567260742,4.0703125,1,"['C1', 'F2', 'F1']",0,None,0,0.192715108138445,[26900|0|0]
26900,1.6790581941604614,1.2203036546707153,-0.05241847783327103,0.29205796122550964,0.47907713055610657,-7.3705010414123535,4.0703125,1,"['C1', 'F2', 'F1']",0,None,0,0.1932387313629571,[27000|0|0]
27000,1.6793361902236938,1.2204809188842773,-0.052476994693279266,0.28445398807525635,0.4644765257835388,-7.3585944175720215,4.0703125,1,"['C1', 'F2', 'F1']",0,None,0,0.19357358750443834,[27100|0|0]
27100,1.67909574508667,1.2202951908111572,-0.05250408127903938,0.2840513288974762,0.4711998403072357,-7.383742332458496,4.0703125,1,"['C1', 'F2', 'F1']",0,None,0,0.1938786161329169,[27200|0|0]
27200,1.6792720556259155,1.2208504676818848,-0.05247928947210312,0.2678038775920868,0.4618567228317261,-7.377061367034912,4.0703125,1,"['C1', 'F2', 'F1']",0,None,0,0.19446173914147102,[27300|0|0]
27300,1.6793291568756104,1.2203127145767212,-0.052563801407814026,0.28063520789146423,0.4546375274658203,-7.34355354309082,4.0703125,1,"['C1', 'F2', 'F1']",0,None,0,0.1950090792753068,[27400|0|0]
27400,1.6790026426315308,1.2205595970153809,-0.05241350829601288,0.2741106450557709,0.4681008458137512,-7.33908748626709,4.0703125,1,"['C1', 'F2', 'F1']",0,None,0,0.19544514178178987,[27500|0|0]
27500,1.6792229413986206,1.2206913232803345,-0.052916269749403,0.27026715874671936,0.45540332794189453,-7.374263763427734,4.0703125,1,"['C1', 'F2', 'F1']",0,None,0,0.19600963485940454,[27600|0|0]
27600,1.679197072982788,1.2208569049835205,-0.052815742790699005,0.26761725544929504,0.4593751132488251,-7.36647891998291,4.0703125,1,"['C1', 'F2', 'F1']",0,None,0,0.19620506296586301,[27700|0|0]
27700,1.6789695024490356,1.2205381393432617,-0.052781842648983,0.2755495607852936,0.4662282168865204,-7.366693496704102,4.0703125,1,"['C1', 'F2', 'F1']",0,None,0,0.19659819030000594,[27800|0|0]
27800,1.679088830947876,1.2204993963241577,-0.05220996215939522,0.27149367332458496,0.462541401386261,-7.353702068328857,4.0703125,1,"['C1', 'F2', 'F1']",0,None,0,0.19718367096282577,[27900|0|0]
27900,1.6791874170303345,1.2202105522155762,-0.05251382663846016,0.2799223065376282,0.4555686414241791,-7.347567081451416,4.0703125,1,"['C1', 'F2', 'F1']",0,None,0,0.19761434921437115,[28000|0|0]
28000,1.6789880990982056,1.2205764055252075,-0.052776116877794266,0.2746925354003906,0.4608767628669739,-7.3465399742126465,4.0703125,1,"['C1', 'F2', 'F1']",0,None,0,0.19810666258193932,[28100|0|0]
28100,1.6790255308151245,1.2205651998519897,-0.05259207263588905,0.2752911448478699,0.4550851881504059,-7.341951847076416,4.0703125,1,"['C1', 'F2', 'F1']",0,None,0,0.198294808757883,[28200|0|0]
28200,1.6791614294052124,1.2206045389175415,-0.05264262109994888,0.2752712368965149,0.4463701844215393,-7.332572937011719,4.0703125,1,"['C1', 'F2', 'F1']",0,None,0,0.1984450456910425,[28300|0|0]
28300,1.6792458295822144,1.2206532955169678,-0.05263800173997879,0.2690761387348175,0.4496273696422577,-7.332783222198486,4.0703125,1,"['C1', 'F2', 'F1']",0,None,0,0.19854262609046833,[28400|0|0]
28400,1.679240107536316,1.2203480005264282,-0.052346374839544296,0.27840542793273926,0.4483104944229126,-7.320788383483887,4.0703125,1,"['C1', 'F2', 'F1']",0,None,0,0.1989648630169857,[28500|0|0]
28500,1.679342269897461,1.2204521894454956,-0.052912596613168716,0.27043992280960083,0.44574111700057983,-7.315674304962158,4.0703125,1,"['C1', 'F2', 'F1']",0,None,0,0.19954958481050597,[28600|0|0]
28600,1.6792412996292114,1.2207406759262085,-0.05241035297513008,0.25212669372558594,0.45172759890556335,-7.2926788330078125,4.0703125,1,"['C1', 'F2', 'F1']",0,None,0,0.2001375202802429,[28700|0|0]
28700,1.6792789697647095,1.220678687095642,-0.052717410027980804,0.2518599331378937,0.44316601753234863,-7.3048415184021,4.0703125,1,"['C1', 'F2', 'F1']",0,None,0,0.20045302889807892,[28800|0|0]
28800,1.6789535284042358,1.2207142114639282,-0.05292881652712822,0.258571594953537,0.4556284546852112,-7.310244560241699,4.0703125,1,"['C1', 'F2', 'F1']",0,None,0,0.2008427297676325,[28900|0|0]
28900,1.6791963577270508,1.2202593088150024,-0.05260487645864487,0.2746822237968445,0.44418495893478394,-7.321315288543701,4.0703125,1,"['C1', 'F2', 'F1']",0,None,0,0.20145169583235817,[29000|0|0]
29000,1.6792196035385132,1.2203214168548584,-0.05290960893034935,0.27839282155036926,0.44183245301246643,-7.3363518714904785,4.0703125,1,"['C1', 'F2', 'F1']",0,None,0,0.20176356063588113,[29100|0|0]
29100,1.6793097257614136,1.2205513715744019,-0.052453868091106415,0.2745043635368347,0.45260411500930786,-7.354294776916504,4.0703125,1,"['C1', 'F2', 'F1']",0,None,0,0.2022819243119375,[29200|0|0]
29200,1.6790423393249512,1.2205612659454346,-0.05281132087111473,0.27184656262397766,0.4576120972633362,-7.332301616668701,4.0703125,1,"['C1', 'F2', 'F1']",0,None,0,0.2027284283935738,[29300|0|0]
29300,1.6792081594467163,1.2207642793655396,-0.05228300392627716,0.25988176465034485,0.4420791268348694,-7.334440231323242,4.0703125,1,"['C1', 'F2', 'F1']",0,None,0,0.20331819915897967,[29400|0|0]
29400,1.6789731979370117,1.22085440158844,-0.05278506129980087,0.2613905668258667,0.4524448812007904,-7.352010250091553,4.0703125,1,"['C1', 'F2', 'F1']",0,None,0,0.2038797955731533,[29500|0|0]
29500,1.6791636943817139,1.2206295728683472,-0.05262363702058792,0.2689833343029022,0.4496750235557556,-7.367332935333252,4.0703125,1,"['C1', 'F2', 'F1']",0,None,0,0.2042157935593707,[29600|0|0]
29600,1.6793321371078491,1.2207789421081543,-0.052396178245544434,0.2588443458080292,0.43832114338874817,-7.357748985290527,4.0703125,1,"['C1', 'F2', 'F1']",0,None,0,0.20453582733279582,[29700|0|0]
29700,1.6792515516281128,1.220835566520691,-0.052700240164995193,0.2627985179424286,0.44683483242988586,-7.3815226554870605,4.0703125,1,"['C1', 'F2', 'F1']",0,None,0,0.20485544271806308,[29800|0|0]
29800,1.6788551807403564,1.2204784154891968,-0.05265883356332779,0.2862309515476227,0.4679599404335022,-7.390101909637451,4.0703125,1,"['C1', 'F2', 'F1']",0,None,0,0.2053905887230185,[29900|0|0]
29900,1.6792224645614624,1.2205308675765991,-0.052519045770168304,0.27331164479255676,0.43931344151496887,-7.375453948974609,4.0703125,1,"['C1', 'F2', 'F1']",0,None,0,0.2057870597230115,[30000|0|0]
30000,1.6790637969970703,1.2204707860946655,-0.05295180156826973,0.2822350561618805,0.4463815987110138,-7.376190662384033,4.0703125,1,"['C1', 'F2', 'F1']",0,None,0,0.20625188524000887,[30100|0|0]
30100,1.6788963079452515,1.2206813097000122,-0.05266662687063217,0.2571752667427063,0.44709914922714233,-7.420280456542969,4.0703125,1,"['C1', 'F2', 'F1']",0,None,0,0.2066439278130287,[30200|0|0]
30200,1.6792402267456055,1.2207378149032593,-0.05274749547243118,0.2624720335006714,0.4497303068637848,-7.420048236846924,4.0703125,1,"['C1', 'F2', 'F1']",0,None,0,0.20700171645173576,[30300|0|0]
