time.ms,stateEstimate.x,stateEstimate.y,stateEstimate.z,stabilizer.roll,stabilizer.pitch,stabilizer.yaw,pm.vbat,drone_id,node_name,wind_speed,global_wind_direction,relative_wind_direction,travel_dist,waiting_time
0,1.2610682249069214,-0.31550219655036926,-0.018156474456191063,0.023188302293419838,0.6805967688560486,-10.313411712646484,4.07421875,0,"['C1', 'F2', 'F1']",0,None,0,0.02835139912395572,[100|0|0]
100,1.2613539695739746,-0.3153705596923828,-0.018141072243452072,0.010555719956755638,0.6702547669410706,-10.303364753723145,4.07421875,0,"['C1', 'F2', 'F1']",0,None,0,0.02866638405262241,[200|0|0]
200,1.2612942457199097,-0.31569182872772217,-0.0179367084056139,0.01997373066842556,0.6750629544258118,-10.311806678771973,4.07421875,0,"['C1', 'F2', 'F1']",0,None,0,0.02905179981518045,[300|0|0]
300,1.2605507373809814,-0.3041529953479767,-0.034998975694179535,-1.7098288536071777,-2.0038740634918213,-8.870917320251465,4.0703125,0,"['C1', 'F2', 'F1']",0,None,0,0.04966292412808588,[400|0|0]
400,1.267834186553955,-0.3158842921257019,-0.011910091154277325,2.7221696376800537,2.9555306434631348,-9.840996742248535,4.07421875,0,"['C1', 'F2', 'F1']",0,None,0,0.07656587090421603,[500|0|0]
500,1.263954520225525,-0.3162297308444977,-0.014899933710694313,4.575409412384033,6.606563091278076,-9.991938591003418,4.0703125,0,"['C1', 'F2', 'F1']",0,None,0,0.08147609465070256,[600|0|0]
600,1.2612837553024292,-0.31610342860221863,-0.01721348986029625,4.699605464935303,7.585912704467773,-9.944650650024414,4.07421875,0,"['C1', 'F2', 'F1']",0,None,0,0.08501183779581421,[700|0|0]
700,1.2600237131118774,-0.3164879083633423,-0.017801448702812195,4.206356048583984,7.117641448974609,-9.870275497436523,4.07421875,0,"['C1', 'F2', 'F1']",0,None,0,0.08645448349354351,[800|0|0]
800,1.2596760988235474,-0.31629279255867004,-0.01813367009162903,3.550922155380249,6.258866786956787,-9.796387672424316,4.0703125,0,"['C1', 'F2', 'F1']",0,None,0,0.08697340248709791,[900|0|0]
900,1.2591814994812012,-0.3161775469779968,-0.018352648243308067,2.9733757972717285,5.408233642578125,-9.781991958618164,4.07421875,0,"['C1', 'F2', 'F1']",0,None,0,0.08752644993915493,[1000|0|0]
1000,1.2593994140625,-0.3163332939147949,-0.018282700330018997,2.456261157989502,4.6006646156311035,-9.781730651855469,4.07421875,0,"['C1', 'F2', 'F1']",0,None,0,0.08780328307235637,[1100|0|0]
1100,1.2592973709106445,-0.31604695320129395,-0.018351037055253983,2.0285205841064453,3.9549107551574707,-9.835667610168457,4.0703125,0,"['C1', 'F2', 'F1']",0,None,0,0.08811484962554314,[1200|0|0]
1200,1.2595285177230835,-0.3160879611968994,-0.01822740025818348,1.6942312717437744,3.396444797515869,-9.860063552856445,4.07421875,0,"['C1', 'F2', 'F1']",0,None,0,0.08838017313033328,[1300|0|0]
1300,1.2595826387405396,-0.31615468859672546,-0.018359923735260963,1.4111453294754028,2.929518938064575,-9.905770301818848,4.0703125,0,"['C1', 'F2', 'F1']",0,None,0,0.08853811015067597,[1400|0|0]
1400,1.2596949338912964,-0.31600624322891235,-0.018180890008807182,1.1594324111938477,2.5396482944488525,-9.941855430603027,4.0703125,0,"['C1', 'F2', 'F1']",0,None,0,0.0887963722332909,[1500|0|0]
1500,1.2600401639938354,-0.316057413816452,-0.01814790815114975,0.9563083648681641,2.2007977962493896,-9.985491752624512,4.07421875,0,"['C1', 'F2', 'F1']",0,None,0,0.08914692901280433,[1600|0|0]
1600,1.2601324319839478,-0.3158022165298462,-0.018376924097537994,0.7787365913391113,1.9199703931808472,-10.019457817077637,4.07421875,0,"['C1', 'F2', 'F1']",0,None,0,0.08950201680587873,[1700|0|0]
1700,1.2604423761367798,-0.3157556653022766,-0.018180450424551964,0.6354813575744629,1.6728185415267944,-10.06598949432373,4.0703125,0,"['C1', 'F2', 'F1']",0,None,0,0.08987192800987183,[1800|0|0]
1800,1.2603392601013184,-0.31568142771720886,-0.018282504752278328,0.511668860912323,1.4819825887680054,-10.095189094543457,4.0703125,0,"['C1', 'F2', 'F1']",0,None,0,0.09003489801206135,[1900|0|0]
1900,1.2605137825012207,-0.31577032804489136,-0.017816193401813507,0.41742199659347534,1.3123878240585327,-10.124260902404785,4.07421875,0,"['C1', 'F2', 'F1']",0,None,0,0.0905406722817727,[2000|0|0]
2000,1.2608505487442017,-0.31562137603759766,-0.018072664737701416,0.3087606430053711,1.1570241451263428,-10.162961959838867,4.0703125,0,"['C1', 'F2', 'F1']",0,None,0,0.0909894213753879,[2100|0|0]
2100,1.260955810546875,-0.31553173065185547,-0.018142960965633392,0.2716502547264099,1.0519176721572876,-10.190279960632324,4.0703125,0,"['C1', 'F2', 'F1']",0,None,0,0.09114452747439233,[2200|0|0]
2200,1.2609456777572632,-0.31580057740211487,-0.01795174926519394,0.26748913526535034,0.9891335368156433,-10.2289400100708,4.0703125,0,"['C1', 'F2', 'F1']",0,None,0,0.09147459286630022,[2300|0|0]
2300,1.2619487047195435,-0.315551221370697,-0.018368495628237724,0.2616189420223236,0.9404119849205017,-10.254053115844727,4.0703125,0,"['C1', 'F2', 'F1']",0,None,0,0.09258900708398406,[2400|0|0]
2400,1.2620038986206055,-0.3154395520687103,-0.018292130902409554,0.23519986867904663,0.8887417316436768,-10.243356704711914,4.07421875,0,"['C1', 'F2', 'F1']",0,None,0,0.09273511653293055,[2500|0|0]
2500,1.2619030475616455,-0.31525707244873047,-0.01816897839307785,0.21636894345283508,0.8574286699295044,-10.244275093078613,4.07421875,0,"['C1', 'F2', 'F1']",0,None,0,0.09297726584297714,[2600|0|0]
2600,1.2619895935058594,-0.31567949056625366,-0.01820780336856842,0.20671199262142181,0.830427348613739,-10.226800918579102,4.0703125,0,"['C1', 'F2', 'F1']",0,None,0,0.093410203073062,[2700|0|0]
2700,1.262098789215088,-0.3158353269100189,-0.018335776403546333,0.18745514750480652,0.7975431680679321,-10.251007080078125,4.07421875,0,"['C1', 'F2', 'F1']",0,None,0,0.09363951893957258,[2800|0|0]
2800,1.2619593143463135,-0.3155224621295929,-0.018160788342356682,0.17129531502723694,0.7834274172782898,-10.247350692749023,4.0703125,0,"['C1', 'F2', 'F1']",0,None,0,0.09402417259080909,[2900|0|0]
2900,1.261933445930481,-0.3156189024448395,-0.018284263089299202,0.16283051669597626,0.7667636871337891,-10.260366439819336,4.07421875,0,"['C1', 'F2', 'F1']",0,None,0,0.09418296781263602,[3000|0|0]
3000,1.2619444131851196,-0.3156343996524811,-0.017908500507473946,0.15778595209121704,0.7620226144790649,-10.26705551147461,4.0703125,0,"['C1', 'F2', 'F1']",0,None,0,0.09455920970559716,[3100|0|0]
3100,1.2621359825134277,-0.31526267528533936,-0.018204091116786003,0.13133159279823303,0.7467724084854126,-10.266475677490234,4.07421875,0,"['C1', 'F2', 'F1']",0,None,0,0.09507131479343442,[3200|0|0]
3200,1.2621471881866455,-0.31563445925712585,-0.0183336790651083,0.1419205516576767,0.7354742884635925,-10.269177436828613,4.0703125,0,"['C1', 'F2', 'F1']",0,None,0,0.09546519539100173,[3300|0|0]
3300,1.2620270252227783,-0.31567034125328064,-0.018207469955086708,0.13522057235240936,0.7248518466949463,-10.280204772949219,4.0703125,0,"['C1', 'F2', 'F1']",0,None,0,0.09564311502169448,[3400|0|0]
3400,1.262040138244629,-0.3156034052371979,-0.017970208078622818,0.11958042532205582,0.7153081297874451,-10.28858470916748,4.07421875,0,"['C1', 'F2', 'F1']",0,None,0,0.09588998660696556,[3500|0|0]
3500,1.2621363401412964,-0.31564855575561523,-0.017936386168003082,0.12039019167423248,0.715376615524292,-10.296710014343262,4.0703125,0,"['C1', 'F2', 'F1']",0,None,0,0.09600150923190663,[3600|0|0]
3600,1.2621235847473145,-0.31556251645088196,-0.017979200929403305,0.10979105532169342,0.712741494178772,-10.300527572631836,4.0703125,0,"['C1', 'F2', 'F1']",0,None,0,0.09609845543259742,[3700|0|0]
3700,1.2619282007217407,-0.3153808116912842,-0.018344465643167496,0.10916417092084885,0.7147677540779114,-10.284124374389648,4.0703125,0,"['C1', 'F2', 'F1']",0,None,0,0.09655079363376012,[3800|0|0]
3800,1.2621737718582153,-0.315656840801239,-0.017838919535279274,0.11535993963479996,0.7108433842658997,-10.299856185913086,4.0703125,0,"['C1', 'F2', 'F1']",0,None,0,0.09717695185642658,[3900|0|0]
3900,1.2621302604675293,-0.31546223163604736,-0.018019186332821846,0.11932902783155441,0.7153403162956238,-10.282024383544922,4.0703125,0,"['C1', 'F2', 'F1']",0,None,0,0.09744576793963641,[4000|0|0]
4000,1.2621285915374756,-0.3156581521034241,-0.018013328313827515,0.12039237469434738,0.7135432362556458,-10.288844108581543,4.07421875,0,"['C1', 'F2', 'F1']",0,None,0,0.09764178306979521,[4100|0|0]
4100,1.2619951963424683,-0.3156604468822479,-0.017758585512638092,0.12061131745576859,0.7244685292243958,-10.27435302734375,4.0703125,0,"['C1', 'F2', 'F1']",0,None,0,0.09792934773872852,[4200|0|0]
4200,1.2621797323226929,-0.3155437707901001,-0.017743133008480072,0.11240319162607193,0.7234960198402405,-10.28132438659668,4.07421875,0,"['C1', 'F2', 'F1']",0,None,0,0.09814822126010811,[4300|0|0]
4300,1.2620927095413208,-0.3155498504638672,-0.01789315603673458,0.1139988824725151,0.7279677391052246,-10.267158508300781,4.0703125,0,"['C1', 'F2', 'F1']",0,None,0,0.09832176328936183,[4400|0|0]
4400,1.2621058225631714,-0.31561198830604553,-0.018001290038228035,0.11660932004451752,0.7268232703208923,-10.268190383911133,4.0703125,0,"['C1', 'F2', 'F1']",0,None,0,0.09844716673848354,[4500|0|0]
4500,1.2622625827789307,-0.31576183438301086,-0.017875459045171738,0.11505969613790512,0.7244434356689453,-10.272940635681152,4.07421875,0,"['C1', 'F2', 'F1']",0,None,0,0.0986978878003039,[4600|0|0]
4600,1.2619909048080444,-0.31571680307388306,-0.018103521317243576,0.11790211498737335,0.7337163090705872,-10.276007652282715,4.07421875,0,"['C1', 'F2', 'F1']",0,None,0,0.09905544777934126,[4700|0|0]
4700,1.2620316743850708,-0.315748393535614,-0.01796054281294346,0.12038575857877731,0.7382957935333252,-10.279014587402344,4.0703125,0,"['C1', 'F2', 'F1']",0,None,0,0.09920744438580069,[4800|0|0]
4800,1.2619177103042603,-0.31545668840408325,-0.018176408484578133,0.11206012964248657,0.7366596460342407,-10.281432151794434,4.0703125,0,"['C1', 'F2', 'F1']",0,None,0,0.09958780958356024,[4900|0|0]
4900,1.262084722518921,-0.31555888056755066,-0.018081726506352425,0.11192066222429276,0.7314743399620056,-10.283924102783203,4.0703125,0,"['C1', 'F2', 'F1']",0,None,0,0.09980529750304254,[5000|0|0]
5000,1.2622064352035522,-0.3155185282230377,-0.018104953691363335,0.11177973449230194,0.7281420230865479,-10.275191307067871,4.0703125,0,"['C1', 'F2', 'F1']",0,None,0,0.09993561170576577,[5100|0|0]
5100,1.262115716934204,-0.3155147135257721,-0.01806560531258583,0.10294712334871292,0.7218693494796753,-10.26733112335205,4.0703125,0,"['C1', 'F2', 'F1']",0,None,0,0.10003456953123283,[5200|0|0]
5200,1.2619940042495728,-0.31567779183387756,-0.017979025840759277,0.10965581983327866,0.7295128703117371,-10.258257865905762,4.0703125,0,"['C1', 'F2', 'F1']",0,None,0,0.10025571318842533,[5300|0|0]
5300,1.2619316577911377,-0.31577739119529724,-0.017895787954330444,0.12064279615879059,0.7270786166191101,-10.261797904968262,4.0703125,0,"['C1', 'F2', 'F1']",0,None,0,0.10039971200582234,[5400|0|0]
5400,1.2620525360107422,-0.3154035806655884,-0.018089937046170235,0.11399780958890915,0.7250117063522339,-10.240650177001953,4.0703125,0,"['C1', 'F2', 'F1']",0,None,0,0.10083793538032237,[5500|0|0]
5500,1.2620693445205688,-0.3158189654350281,-0.01779879443347454,0.12146918475627899,0.7172965407371521,-10.251311302185059,4.0703125,0,"['C1', 'F2', 'F1']",0,None,0,0.10134546966843731,[5600|0|0]
5600,1.2620702981948853,-0.31568941473960876,-0.017967937514185905,0.1206589788198471,0.7093312740325928,-10.223101615905762,4.0703125,0,"['C1', 'F2', 'F1']",0,None,0,0.10155852758059,[5700|0|0]
5700,1.2620810270309448,-0.3157220780849457,-0.017766917124390602,0.11744607985019684,0.7071014642715454,-10.251958847045898,4.0703125,0,"['C1', 'F2', 'F1']",0,None,0,0.10176246678517128,[5800|0|0]
5800,1.2619985342025757,-0.315441757440567,-0.017919545993208885,0.10782866179943085,0.7086076736450195,-10.223487854003906,4.0703125,0,"['C1', 'F2', 'F1']",0,None,0,0.1020921337413467,[5900|0|0]
5900,1.2619903087615967,-0.3155510127544403,-0.018215361982584,0.10957175493240356,0.7137293219566345,-10.209532737731934,4.0703125,0,"['C1', 'F2', 'F1']",0,None,0,0.10240758814543519,[6000|0|0]
6000,1.2618892192840576,-0.3155486583709717,-0.01808353327214718,0.11452513933181763,0.7151844501495361,-10.206547737121582,4.0703125,0,"['C1', 'F2', 'F1']",0,None,0,0.1025737309589604,[6100|0|0]
6100,1.2620503902435303,-0.31549009680747986,-0.017907924950122833,0.11756670475006104,0.706557035446167,-10.210351943969727,4.0703125,0,"['C1', 'F2', 'F1']",0,None,0,0.10281917711937068,[6200|0|0]
6200,1.2621642351150513,-0.3156892955303192,-0.017982343211770058,0.10890219360589981,0.6962699294090271,-10.221732139587402,4.0703125,0,"['C1', 'F2', 'F1']",0,None,0,0.10306038007047007,[6300|0|0]
6300,1.2620805501937866,-0.315582811832428,-0.01806328445672989,0.10163328796625137,0.6975112557411194,-10.22571849822998,4.0703125,0,"['C1', 'F2', 'F1']",0,None,0,0.10321815658678131,[6400|0|0]
6400,1.262007474899292,-0.3153875470161438,-0.018032638356089592,0.09834190458059311,0.6981256008148193,-10.250266075134277,4.0703125,0,"['C1', 'F2', 'F1']",0,None,0,0.10342888753047119,[6500|0|0]
6500,1.262069821357727,-0.3156459629535675,-0.018049728125333786,0.10153765231370926,0.6970052123069763,-10.253567695617676,4.0703125,0,"['C1', 'F2', 'F1']",0,None,0,0.10369526684236832,[6600|0|0]
6600,1.2619842290878296,-0.31538617610931396,-0.01832958310842514,0.09770435094833374,0.7066606879234314,-10.267821311950684,4.0703125,0,"['C1', 'F2', 'F1']",0,None,0,0.10408659030534298,[6700|0|0]
6700,1.2681140899658203,-0.3058144450187683,-0.01421389076858759,-0.18407461047172546,0.5708557367324829,-10.226168632507324,4.0703125,0,"['C1', 'F2', 'F1']",0,None,0,0.11617510360886533,[6800|0|0]
6800,1.2680037021636963,-0.30581724643707275,-0.0142672723159194,-0.18718133866786957,0.5726493000984192,-10.207250595092773,4.0703125,0,"['C1', 'F2', 'F1']",0,None,0,0.11629775312740424,[6900|0|0]
6900,1.2678687572479248,-0.3055706322193146,-0.014326145872473717,-0.18935471773147583,0.5759016275405884,-10.21168041229248,4.0703125,0,"['C1', 'F2', 'F1']",0,None,0,0.1165849722046857,[7000|0|0]
7000,1.2680628299713135,-0.30562663078308105,-0.014415398240089417,-0.18473954498767853,0.5688628554344177,-10.193443298339844,4.0703125,0,"['C1', 'F2', 'F1']",0,None,0,0.11680580256091512,[7100|0|0]
7100,1.267627477645874,-0.30562856793403625,-0.014703205786645412,-0.17916987836360931,0.5659635066986084,-10.220439910888672,4.0703125,0,"['C1', 'F2', 'F1']",0,None,0,0.11732769199716953,[7200|0|0]
7200,1.268160343170166,-0.30608832836151123,-0.014487417414784431,-0.17071433365345,0.5493296384811401,-10.202893257141113,4.0703125,0,"['C1', 'F2', 'F1']",0,None,0,0.11806382373747241,[7300|0|0]
7300,1.268066167831421,-0.3060227036476135,-0.014429045841097832,-0.17872178554534912,0.5541340112686157,-10.208724975585938,4.0703125,0,"['C1', 'F2', 'F1']",0,None,0,0.11819259810649266,[7400|0|0]
7400,1.2682738304138184,-0.30567872524261475,-0.014410052448511124,-0.1870993673801422,0.5567655563354492,-10.206982612609863,4.0703125,0,"['C1', 'F2', 'F1']",0,None,0,0.11859484882457212,[7500|0|0]
7500,1.2679089307785034,-0.30577272176742554,-0.014397376216948032,-0.18243803083896637,0.5692136287689209,-10.20793342590332,4.0703125,0,"['C1', 'F2', 'F1']",0,None,0,0.1189718737274315,[7600|0|0]
7600,1.2680680751800537,-0.3059520423412323,-0.014398890547454357,-0.18083952367305756,0.5619308352470398,-10.209420204162598,4.07421875,0,"['C1', 'F2', 'F1']",0,None,0,0.11921163423696564,[7700|0|0]
7700,1.2682727575302124,-0.30594760179519653,-0.014336816966533661,-0.1771191656589508,0.5647785663604736,-10.211664199829102,4.0703125,0,"['C1', 'F2', 'F1']",0,None,0,0.11942556813414862,[7800|0|0]
7800,1.2682057619094849,-0.30544719099998474,-0.014543934725224972,-0.1926608830690384,0.5660368204116821,-10.220845222473145,4.0703125,0,"['C1', 'F2', 'F1']",0,None,0,0.11997127606255582,[7900|0|0]
7900,1.268127679824829,-0.30580195784568787,-0.014500228688120842,-0.18858100473880768,0.5629872679710388,-10.235037803649902,4.0703125,0,"['C1', 'F2', 'F1']",0,None,0,0.12033715383508879,[8000|0|0]
8000,1.267821192741394,-0.3057277798652649,-0.014436811208724976,-0.18978790938854218,0.5738901495933533,-10.232746124267578,4.0703125,0,"['C1', 'F2', 'F1']",0,None,0,0.12065880346090092,[8100|0|0]
8100,1.268263816833496,-0.3055635094642639,-0.014410784468054771,-0.1857324093580246,0.5700089931488037,-10.228415489196777,4.0703125,0,"['C1', 'F2', 'F1']",0,None,0,0.12113164407123816,[8200|0|0]
8200,1.2679433822631836,-0.305970698595047,-0.01434249710291624,-0.17604203522205353,0.5778773427009583,-10.224641799926758,4.0703125,0,"['C1', 'F2', 'F1']",0,None,0,0.12165427631891984,[8300|0|0]
8300,1.2678974866867065,-0.30586913228034973,-0.014496663585305214,-0.18061980605125427,0.5792443752288818,-10.21642780303955,4.0703125,0,"['C1', 'F2', 'F1']",0,None,0,0.12184451150103276,[8400|0|0]
8401,1.2681316137313843,-0.305751234292984,-0.014558220282196999,-0.18222370743751526,0.5768682360649109,-10.202474594116211,4.0703125,0,"['C1', 'F2', 'F1']",0,None,0,0.12211377834898594,[8500|0|0]
8501,1.2679569721221924,-0.30602261424064636,-0.014391816221177578,-0.1835472583770752,0.5774470567703247,-10.20412540435791,4.0703125,0,"['C1', 'F2', 'F1']",0,None,0,0.1224768721098496,[8600|0|0]
8601,1.2682530879974365,-0.3055337369441986,-0.014619186520576477,-0.1956324428319931,0.5752366185188293,-10.21025562286377,4.0703125,0,"['C1', 'F2', 'F1']",0,None,0,0.12309200045060656,[8700|0|0]
8701,1.2682195901870728,-0.30562639236450195,-0.014596326276659966,-0.18565447628498077,0.5799968242645264,-10.231734275817871,4.0703125,0,"['C1', 'F2', 'F1']",0,None,0,0.12319314253365155,[8800|0|0]
8801,1.268033504486084,-0.30604878067970276,-0.014288287609815598,-0.17718419432640076,0.5918857455253601,-10.225006103515625,4.0703125,0,"['C1', 'F2', 'F1']",0,None,0,0.12374805477644486,[8900|0|0]
8901,1.2680039405822754,-0.30598369240760803,-0.014303055591881275,-0.1861013025045395,0.5863611102104187,-10.230731010437012,4.0703125,0,"['C1', 'F2', 'F1']",0,None,0,0.12382105204260582,[9000|0|0]
9001,1.2681974172592163,-0.30578726530075073,-0.01405860111117363,-0.19065216183662415,0.5843109488487244,-10.233558654785156,4.0703125,0,"['C1', 'F2', 'F1']",0,None,0,0.12418952840001085,[9100|0|0]
9101,1.2678495645523071,-0.3059224486351013,-0.014490888454020023,-0.1815832108259201,0.5925624370574951,-10.221051216125488,4.0703125,0,"['C1', 'F2', 'F1']",0,None,0,0.12476062242587295,[9200|0|0]
9201,1.2681527137756348,-0.30557847023010254,-0.01456985529512167,-0.17908985912799835,0.5898637771606445,-10.225424766540527,4.0703125,0,"['C1', 'F2', 'F1']",0,None,0,0.12522587113001218,[9300|0|0]
9300,1.2680634260177612,-0.3055320978164673,-0.01453382894396782,-0.1820627748966217,0.5855019688606262,-10.232398986816406,4.0703125,0,"['C1', 'F2', 'F1']",0,None,0,0.1253327383486992,[9400|0|0]
9400,1.2679678201675415,-0.3059912919998169,-0.014354610815644264,-0.17013989388942719,0.5794491171836853,-10.214452743530273,4.0703125,0,"['C1', 'F2', 'F1']",0,None,0,0.12583485279196702,[9500|0|0]
9500,1.2680420875549316,-0.30539020895957947,-0.014377789571881294,-0.18310391902923584,0.5799413323402405,-10.226778030395508,4.0703125,0,"['C1', 'F2', 'F1']",0,None,0,0.1264409499135833,[9600|0|0]
9600,1.2677308320999146,-0.3059244453907013,-0.014338333159685135,-0.17674246430397034,0.5814841985702515,-10.225082397460938,4.0703125,0,"['C1', 'F2', 'F1']",0,None,0,0.12706050243845837,[9700|0|0]
9700,1.268198013305664,-0.3056107759475708,-0.014325756579637527,-0.1881871372461319,0.5749550461769104,-10.226292610168457,4.0703125,0,"['C1', 'F2', 'F1']",0,None,0,0.12762335674369646,[9800|0|0]
9800,1.2682006359100342,-0.30578064918518066,-0.014339925721287727,-0.18533025681972504,0.5809260606765747,-10.225653648376465,4.0703125,0,"['C1', 'F2', 'F1']",0,None,0,0.12779384005515199,[9900|0|0]
9902,1.2682374715805054,-0.3057704567909241,-0.01414439082145691,-0.19138546288013458,0.5788068771362305,-10.231146812438965,4.0703125,0,"['C1', 'F2', 'F1']",0,None,0,0.12799307521412648,[10000|0|0]
10002,1.2677887678146362,-0.30596259236335754,-0.014199771918356419,-0.18514616787433624,0.5902987718582153,-10.232897758483887,4.0703125,0,"['C1', 'F2', 'F1']",0,None,0,0.128484316716438,[10100|0|0]
10102,1.268021821975708,-0.30596283078193665,-0.01439859438687563,-0.19037069380283356,0.5833072662353516,-10.250960350036621,4.0703125,0,"['C1', 'F2', 'F1']",0,None,0,0.12879065749534993,[10200|0|0]
10200,1.2677479982376099,-0.30587470531463623,-0.014401072636246681,-0.19476626813411713,0.5878325700759888,-10.254425048828125,4.0703125,0,"['C1', 'F2', 'F1']",0,None,0,0.129078323411393,[10300|0|0]
10300,1.2679073810577393,-0.305602490901947,-0.014695603400468826,-0.20499253273010254,0.58270663022995,-10.262978553771973,4.0703125,0,"['C1', 'F2', 'F1']",0,None,0,0.12950989257259593,[10400|0|0]
10400,1.268187165260315,-0.3055253326892853,-0.014468747191131115,-0.201640322804451,0.5721785426139832,-10.266607284545898,4.0703125,0,"['C1', 'F2', 'F1']",0,None,0,0.12987826239968162,[10500|0|0]
10500,1.2682181596755981,-0.3057486116886139,-0.014214664697647095,-0.1943872720003128,0.5772645473480225,-10.25694751739502,4.0703125,0,"['C1', 'F2', 'F1']",0,None,0,0.1302179270560929,[10600|0|0]
10600,1.2679297924041748,-0.30583712458610535,-0.01460479386150837,-0.19244351983070374,0.5779778957366943,-10.25865364074707,4.0703125,0,"['C1', 'F2', 'F1']",0,None,0,0.13071107103176893,[10700|0|0]
10700,1.2682560682296753,-0.30596503615379333,-0.014209389686584473,-0.1915062963962555,0.5631524920463562,-10.246983528137207,4.0703125,0,"['C1', 'F2', 'F1']",0,None,0,0.13123942862374777,[10800|0|0]
10800,1.2681002616882324,-0.3055671155452728,-0.014444604516029358,-0.19486364722251892,0.5723956823348999,-10.261107444763184,4.0703125,0,"['C1', 'F2', 'F1']",0,None,0,0.13172722213029794,[10900|0|0]
10900,1.2677432298660278,-0.30555009841918945,-0.01443304494023323,-0.1942400187253952,0.5701854228973389,-10.236883163452148,4.0703125,0,"['C1', 'F2', 'F1']",0,None,0,0.13208484613458102,[11000|0|0]
11000,1.2680169343948364,-0.3057054281234741,-0.01452117320150137,-0.18365229666233063,0.5526412725448608,-10.222116470336914,4.0703125,0,"['C1', 'F2', 'F1']",0,None,0,0.1324116611840473,[11100|0|0]
11100,1.2681666612625122,-0.3057898283004761,-0.014463461004197598,-0.18656609952449799,0.5481454730033875,-10.198617935180664,4.0703125,0,"['C1', 'F2', 'F1']",0,None,0,0.13259296816819183,[11200|0|0]
11200,1.268025279045105,-0.30585604906082153,-0.014463812112808228,-0.18882441520690918,0.5475151538848877,-10.183168411254883,4.0703125,0,"['C1', 'F2', 'F1']",0,None,0,0.13274909069628105,[11300|0|0]
11300,1.2680147886276245,-0.30576181411743164,-0.014739357866346836,-0.19150704145431519,0.546481192111969,-10.198466300964355,4.0703125,0,"['C1', 'F2', 'F1']",0,None,0,0.13304049374312127,[11400|0|0]
11400,1.2677357196807861,-0.3056832551956177,-0.0145419891923666,-0.19653068482875824,0.5492191910743713,-10.199959754943848,4.0703125,0,"['C1', 'F2', 'F1']",0,None,0,0.13339121496397163,[11500|0|0]
11500,1.268022060394287,-0.3054744005203247,-0.014551105909049511,-0.19921660423278809,0.5478654503822327,-10.207352638244629,4.0703125,0,"['C1', 'F2', 'F1']",0,None,0,0.13374574901610634,[11600|0|0]
11600,1.268161654472351,-0.30558449029922485,-0.014277358539402485,-0.19746078550815582,0.5408838391304016,-10.196686744689941,4.0703125,0,"['C1', 'F2', 'F1']",0,None,0,0.13407215962934904,[11700|0|0]
11700,1.2682280540466309,-0.30548906326293945,-0.014508047141134739,-0.1928802877664566,0.5436714291572571,-10.192691802978516,4.0703125,0,"['C1', 'F2', 'F1']",0,None,0,0.1343304858837018,[11800|0|0]
11800,1.267841100692749,-0.3056781589984894,-0.014599012210965157,-0.17765696346759796,0.5537176728248596,-10.202305793762207,4.0703125,0,"['C1', 'F2', 'F1']",0,None,0,0.13477067304754559,[11900|0|0]
11900,1.2680234909057617,-0.3057691156864166,-0.014635642059147358,-0.17813695967197418,0.5516656637191772,-10.219258308410645,4.0703125,0,"['C1', 'F2', 'F1']",0,None,0,0.134977750459784,[12000|0|0]
12000,1.2683658599853516,-0.30597859621047974,-0.014131760224699974,-0.17329441010951996,0.5470673441886902,-10.235843658447266,4.0703125,0,"['C1', 'F2', 'F1']",0,None,0,0.1356219519652984,[12100|0|0]
12100,1.2688075304031372,-0.3058302700519562,-0.014693760313093662,-0.19288024306297302,0.5458666086196899,-10.237466812133789,4.0703125,0,"['C1', 'F2', 'F1']",0,None,0,0.13635196395602445,[12200|0|0]
12200,1.2679741382598877,-0.30585014820098877,-0.014352266676723957,-0.2516421377658844,0.5314903259277344,-10.23395824432373,4.0703125,0,"['C1', 'F2', 'F1']",0,None,0,0.13725282771315978,[12300|0|0]
12300,1.2681961059570312,-0.30568134784698486,-0.014286545105278492,-0.29036110639572144,0.5084219574928284,-10.230279922485352,4.0703125,0,"['C1', 'F2', 'F1']",0,None,0,0.1375393282245735,[12400|0|0]
12400,1.2684204578399658,-0.3054695725440979,-0.014325273223221302,-0.3234788477420807,0.4926739037036896,-10.23537826538086,4.0703125,0,"['C1', 'F2', 'F1']",0,None,0,0.13785026618206428,[12500|0|0]
12500,1.2683336734771729,-0.30554458498954773,-0.014040457084774971,-0.33599796891212463,0.4827890694141388,-10.231738090515137,4.0703125,0,"['C1', 'F2', 'F1']",0,None,0,0.1381573144279756,[12600|0|0]
12600,1.2682605981826782,-0.30567991733551025,-0.014048662036657333,-0.3413136303424835,0.47911742329597473,-10.247220039367676,4.0703125,0,"['C1', 'F2', 'F1']",0,None,0,0.13831133443889818,[12700|0|0]
12700,1.2684853076934814,-0.3054683208465576,-0.014001558534801006,-0.3613041341304779,0.4702945053577423,-10.26994514465332,4.07421875,0,"['C1', 'F2', 'F1']",0,None,0,0.138623562205552,[12800|0|0]
12800,1.268375277519226,-0.30524230003356934,-0.014498305507004261,-0.3627684712409973,0.4738917946815491,-10.269041061401367,4.0703125,0,"['C1', 'F2', 'F1']",0,None,0,0.13918029338084548,[12900|0|0]
12900,1.2682266235351562,-0.3056817352771759,-0.014211785979568958,-0.32722142338752747,0.4830329716205597,-10.286236763000488,4.0703125,0,"['C1', 'F2', 'F1']",0,None,0,0.13972554082917069,[13000|0|0]
13000,1.268396019935608,-0.3056960105895996,-0.014464224688708782,-0.3054022192955017,0.49298393726348877,-10.278706550598145,4.0703125,0,"['C1', 'F2', 'F1']",0,None,0,0.14002988311493286,[13100|0|0]
13100,1.2680904865264893,-0.3058590590953827,-0.014672583900392056,-0.2780766189098358,0.5193111896514893,-10.272968292236328,4.0703125,0,"['C1', 'F2', 'F1']",0,None,0,0.14043404773537735,[13200|0|0]
13200,1.2679206132888794,-0.3055635988712311,-0.014519624412059784,-0.2684186100959778,0.5372949242591858,-10.267448425292969,4.0703125,0,"['C1', 'F2', 'F1']",0,None,0,0.1408076120082711,[13300|0|0]
13300,1.2681782245635986,-0.305478036403656,-0.014481926336884499,-0.26472243666648865,0.5474284291267395,-10.268426895141602,4.0703125,0,"['C1', 'F2', 'F1']",0,None,0,0.14108166610802503,[13400|0|0]
13400,1.267991542816162,-0.30594602227211,-0.014685171656310558,-0.2462800145149231,0.5510333776473999,-10.276556015014648,4.0703125,0,"['C1', 'F2', 'F1']",0,None,0,0.1416249611547236,[13500|0|0]
13500,1.2680306434631348,-0.30535438656806946,-0.014481808058917522,-0.2751726508140564,0.5489744544029236,-10.265875816345215,4.0703125,0,"['C1', 'F2', 'F1']",0,None,0,0.1422517932053032,[13600|0|0]
13600,1.2682406902313232,-0.3057364225387573,-0.014378640800714493,-0.25699853897094727,0.5476779341697693,-10.262378692626953,4.0703125,0,"['C1', 'F2', 'F1']",0,None,0,0.14269980504765895,[13700|0|0]
13700,1.2681519985198975,-0.3057974576950073,-0.014284394681453705,-0.2471480369567871,0.5442270636558533,-10.258922576904297,4.0703125,0,"['C1', 'F2', 'F1']",0,None,0,0.14284289187783494,[13800|0|0]
13800,1.268296241760254,-0.30565086007118225,-0.014314718544483185,-0.2439376562833786,0.5427921414375305,-10.243945121765137,4.0703125,0,"['C1', 'F2', 'F1']",0,None,0,0.14305077769353364,[13900|0|0]
13900,1.2683899402618408,-0.30584943294525146,-0.014242684468626976,-0.23487143218517303,0.5469163656234741,-10.248641014099121,4.0703125,0,"['C1', 'F2', 'F1']",0,None,0,0.14328186101963095,[14000|0|0]
14000,1.2680975198745728,-0.305580735206604,-0.014336716383695602,-0.23768240213394165,0.554962694644928,-10.230308532714844,4.0703125,0,"['C1', 'F2', 'F1']",0,None,0,0.143689966592609,[14100|0|0]
14100,1.26799476146698,-0.3056568503379822,-0.014746221713721752,-0.23412996530532837,0.5631962418556213,-10.259841918945312,4.0703125,0,"['C1', 'F2', 'F1']",0,None,0,0.14411897407375068,[14200|0|0]
14200,1.2680460214614868,-0.30568644404411316,-0.01457392331212759,-0.22752994298934937,0.5612769722938538,-10.2465181350708,4.0703125,0,"['C1', 'F2', 'F1']",0,None,0,0.1443011556141748,[14300|0|0]
14300,1.2681350708007812,-0.3058820366859436,-0.014431520365178585,-0.21819497644901276,0.5560622215270996,-10.241195678710938,4.0703125,0,"['C1', 'F2', 'F1']",0,None,0,0.14455896342178884,[14400|0|0]
14400,1.268096923828125,-0.3054516017436981,-0.014618324115872383,-0.23372302949428558,0.5692607164382935,-10.243143081665039,4.0703125,0,"['C1', 'F2', 'F1']",0,None,0,0.14502973414337417,[14500|0|0]
14500,1.268115520477295,-0.30571064352989197,-0.014573913998901844,-0.24539406597614288,0.5621698498725891,-10.25658893585205,4.0703125,0,"['C1', 'F2', 'F1']",0,None,0,0.14529321230346373,[14600|0|0]
14600,1.2682355642318726,-0.3057301342487335,-0.01449673343449831,-0.23779955506324768,0.56298828125,-10.259512901306152,4.0703125,0,"['C1', 'F2', 'F1']",0,None,0,0.14543725129351748,[14700|0|0]
14700,1.2680540084838867,-0.3057307302951813,-0.014596286229789257,-0.24030804634094238,0.5613934993743896,-10.262951850891113,4.0703125,0,"['C1', 'F2', 'F1']",0,None,0,0.1456443107148156,[14800|0|0]
14800,1.2678802013397217,-0.306071937084198,-0.014417847618460655,-0.22996576130390167,0.567278265953064,-10.261686325073242,4.0703125,0,"['C1', 'F2', 'F1']",0,None,0,0.14606676939237684,[14900|0|0]
14900,1.2681639194488525,-0.3055821657180786,-0.014518918469548225,-0.24079932272434235,0.566504955291748,-10.257085800170898,4.0703125,0,"['C1', 'F2', 'F1']",0,None,0,0.14664173658575294,[15000|0|0]
15000,1.2681533098220825,-0.3054630160331726,-0.014629210345447063,-0.24589645862579346,0.5652248859405518,-10.276618957519531,4.0703125,0,"['C1', 'F2', 'F1']",0,None,0,0.14680444340639265,[15100|0|0]
15100,1.267951488494873,-0.3060416877269745,-0.014242866076529026,-0.2331218123435974,0.5653183460235596,-10.268442153930664,4.0703125,0,"['C1', 'F2', 'F1']",0,None,0,0.14752891195053375,[15200|0|0]
15200,1.268054723739624,-0.3054465353488922,-0.014455287717282772,-0.24877877533435822,0.5679055452346802,-10.276168823242188,4.0703125,0,"['C1', 'F2', 'F1']",0,None,0,0.1481692140841834,[15300|0|0]
15300,1.268207311630249,-0.3058893382549286,-0.014485497027635574,-0.23728491365909576,0.5580369830131531,-10.253435134887695,4.0703125,0,"['C1', 'F2', 'F1']",0,None,0,0.1486385434785235,[15400|0|0]
15400,1.2679369449615479,-0.30603161454200745,-0.014254128560423851,-0.23241522908210754,0.5567596554756165,-10.234641075134277,4.0703125,0,"['C1', 'F2', 'F1']",0,None,0,0.14902178236620248,[15500|0|0]
15500,1.268656611442566,-0.306178480386734,-0.014543484896421432,-0.25131645798683167,0.5474568009376526,-10.217249870300293,4.0703125,0,"['C1', 'F2', 'F1']",0,None,0,0.14981122299692154,[15600|0|0]
15600,1.2687325477600098,-0.3055027723312378,-0.014731776900589466,-0.2951807677745819,0.5324651598930359,-10.228130340576172,4.0703125,0,"['C1', 'F2', 'F1']",0,None,0,0.15051677354748685,[15700|0|0]
15700,1.2687175273895264,-0.3055475950241089,-0.014370104297995567,-0.2485170066356659,0.5529414415359497,-10.2080659866333,4.0703125,0,"['C1', 'F2', 'F1']",0,None,0,0.15088152244302008,[15800|0|0]
15800,1.2687287330627441,-0.3056502640247345,-0.014649642631411552,-0.21116331219673157,0.5644537806510925,-10.230774879455566,4.0703125,0,"['C1', 'F2', 'F1']",0,None,0,0.151179529440674,[15900|0|0]
15900,1.2686214447021484,-0.30574244260787964,-0.014484579674899578,-0.19076044857501984,0.5702822804450989,-10.213821411132812,4.0703125,0,"['C1', 'F2', 'F1']",0,None,0,0.1513969080576593,[16000|0|0]
16000,1.268869400024414,-0.3058212399482727,-0.014621207490563393,-0.17863547801971436,0.563870906829834,-10.241714477539062,4.0703125,0,"['C1', 'F2', 'F1']",0,None,0,0.15169077541329093,[16100|0|0]
16100,1.268714427947998,-0.3056768476963043,-0.014730410650372505,-0.17492347955703735,0.5692448019981384,-10.251253128051758,4.0703125,0,"['C1', 'F2', 'F1']",0,None,0,0.15192908361081986,[16200|0|0]
16200,1.2686045169830322,-0.3060271739959717,-0.014443429186940193,-0.16362449526786804,0.5778535604476929,-10.260371208190918,4.0703125,0,"['C1', 'F2', 'F1']",0,None,0,0.15239509573170523,[16300|0|0]
16300,1.2686636447906494,-0.30593064427375793,-0.01464761234819889,-0.16188614070415497,0.5883954167366028,-10.242630004882812,4.0703125,0,"['C1', 'F2', 'F1']",0,None,0,0.15262855846587467,[16400|0|0]
16400,1.268619179725647,-0.3059677183628082,-0.014897213317453861,-0.1632721871137619,0.5856643915176392,-10.223684310913086,4.0703125,0,"['C1', 'F2', 'F1']",0,None,0,0.15288478546276923,[16500|0|0]
16500,1.268794059753418,-0.3058914244174957,-0.014489141292870045,-0.1710445135831833,0.5750401020050049,-10.198322296142578,4.0703125,0,"['C1', 'F2', 'F1']",0,None,0,0.15333525917726595,[16600|0|0]
16600,1.2684513330459595,-0.3057711720466614,-0.014838098548352718,-0.17799898982048035,0.5762745141983032,-10.218130111694336,4.0703125,0,"['C1', 'F2', 'F1']",0,None,0,0.1538389390307946,[16700|0|0]
16700,1.268435001373291,-0.30572509765625,-0.014838128350675106,-0.17831751704216003,0.5752602815628052,-10.251310348510742,4.0703125,0,"['C1', 'F2', 'F1']",0,None,0,0.1538878222986079,[16800|0|0]
16800,1.2687366008758545,-0.305766761302948,-0.014460397884249687,-0.18006570637226105,0.5685145854949951,-10.23383617401123,4.0703125,0,"['C1', 'F2', 'F1']",0,None,0,0.1543729804425864,[16900|0|0]
16900,1.26884126663208,-0.30595850944519043,-0.01447806041687727,-0.17934292554855347,0.5690802931785583,-10.247699737548828,4.0703125,0,"['C1', 'F2', 'F1']",0,None,0,0.15459214758345957,[17000|0|0]
17000,1.2689296007156372,-0.30585527420043945,-0.014516305178403854,-0.1853710561990738,0.5641056895256042,-10.242899894714355,4.0703125,0,"['C1', 'F2', 'F1']",0,None,0,0.15473329675228778,[17100|0|0]
17100,1.2684792280197144,-0.30599045753479004,-0.014669248834252357,-0.18196479976177216,0.5742946863174438,-10.241729736328125,4.0703125,0,"['C1', 'F2', 'F1']",0,None,0,0.1552277680466854,[17200|0|0]
17200,1.2688788175582886,-0.3058575987815857,-0.014240984804928303,-0.184308722615242,0.5686473846435547,-10.232210159301758,4.0703125,0,"['C1', 'F2', 'F1']",0,None,0,0.155828378841172,[17300|0|0]
17300,1.268508791923523,-0.3058168292045593,-0.01467951014637947,-0.1833716332912445,0.5738649964332581,-10.224472999572754,4.0703125,0,"['C1', 'F2', 'F1']",0,None,0,0.1564036054086126,[17400|0|0]
17400,1.268551230430603,-0.30560123920440674,-0.014917999505996704,-0.18427801132202148,0.5712730884552002,-10.225737571716309,4.0703125,0,"['C1', 'F2', 'F1']",0,None,0,0.15672788499430929,[17500|0|0]
17500,1.2685973644256592,-0.3062160909175873,-0.014762633480131626,-0.16562271118164062,0.5666615962982178,-10.232263565063477,4.0703125,0,"['C1', 'F2', 'F1']",0,None,0,0.15736373841821608,[17600|0|0]
17600,1.2686989307403564,-0.3059239089488983,-0.014674650505185127,-0.18387280404567719,0.5629357695579529,-10.249810218811035,4.0703125,0,"['C1', 'F2', 'F1']",0,None,0,0.1576853391380358,[17700|0|0]
17700,1.2688329219818115,-0.3059152662754059,-0.014395203441381454,-0.18557368218898773,0.5617517232894897,-10.226460456848145,4.0703125,0,"['C1', 'F2', 'F1']",0,None,0,0.15799536979790715,[17800|0|0]
17800,1.2686243057250977,-0.3058934807777405,-0.014689041301608086,-0.18169142305850983,0.5699736475944519,-10.205465316772461,4.0703125,0,"['C1', 'F2', 'F1']",0,None,0,0.15835639062635948,[17900|0|0]
17900,1.268512487411499,-0.30607062578201294,-0.01484068762511015,-0.1861901581287384,0.5599949955940247,-10.213303565979004,4.0703125,0,"['C1', 'F2', 'F1']",0,None,0,0.15861500287515373,[18000|0|0]
18000,1.2687021493911743,-0.30623963475227356,-0.014413353055715561,-0.18480505049228668,0.5524064898490906,-10.249885559082031,4.0703125,0,"['C1', 'F2', 'F1']",0,None,0,0.1591121452418482,[18100|0|0]
18100,1.2686594724655151,-0.30594325065612793,-0.014548592269420624,-0.19061560928821564,0.5606852173805237,-10.25369930267334,4.0703125,0,"['C1', 'F2', 'F1']",0,None,0,0.15944070953898856,[18200|0|0]
18200,1.2685678005218506,-0.30571675300598145,-0.014675005339086056,-0.19632424414157867,0.5580323934555054,-10.238802909851074,4.0703125,0,"['C1', 'F2', 'F1']",0,None,0,0.15971581896259915,[18300|0|0]
18300,1.2687150239944458,-0.30579909682273865,-0.014587627723813057,-0.19023476541042328,0.5592980980873108,-10.255636215209961,4.0703125,0,"['C1', 'F2', 'F1']",0,None,0,0.1599057929152662,[18400|0|0]
18400,1.2685880661010742,-0.3061436414718628,-0.014734117314219475,-0.18105049431324005,0.5577124953269958,-10.26701545715332,4.0703125,0,"['C1', 'F2', 'F1']",0,None,0,0.1603011263467223,[18500|0|0]
18500,1.2686949968338013,-0.30568432807922363,-0.014712403528392315,-0.18692098557949066,0.5679785013198853,-10.281231880187988,4.0703125,0,"['C1', 'F2', 'F1']",0,None,0,0.16077322216618503,[18600|0|0]
18600,1.26858651638031,-0.3060658276081085,-0.014527415856719017,-0.1822109967470169,0.5646435618400574,-10.283093452453613,4.0703125,0,"['C1', 'F2', 'F1']",0,None,0,0.16121086395806528,[18700|0|0]
18700,1.2686408758163452,-0.30577629804611206,-0.014326327480375767,-0.1852489560842514,0.565427303314209,-10.24732494354248,4.0703125,0,"['C1', 'F2', 'F1']",0,None,0,0.16156754147439661,[18800|0|0]
18800,1.268458366394043,-0.3061697483062744,-0.014787056483328342,-0.17877209186553955,0.5625290870666504,-10.238731384277344,4.0703125,0,"['C1', 'F2', 'F1']",0,None,0,0.1622003005206477,[18900|0|0]
18900,1.268557071685791,-0.3060028851032257,-0.014889375306665897,-0.1815650761127472,0.5591310858726501,-10.237695693969727,4.0703125,0,"['C1', 'F2', 'F1']",0,None,0,0.1624195154944974,[19000|0|0]
19000,1.2688231468200684,-0.3058842718601227,-0.014621327631175518,-0.18191157281398773,0.5554787516593933,-10.23316478729248,4.0703125,0,"['C1', 'F2', 'F1']",0,None,0,0.16281538748751526,[19100|0|0]
19100,1.2685438394546509,-0.30595508217811584,-0.014920401386916637,-0.17926627397537231,0.5662338137626648,-10.253256797790527,4.0703125,0,"['C1', 'F2', 'F1']",0,None,0,0.16323068475079042,[19200|0|0]
19200,1.268803358078003,-0.30620867013931274,-0.014441014267504215,-0.17457479238510132,0.5622150301933289,-10.26729965209961,4.0703125,0,"['C1', 'F2', 'F1']",0,None,0,0.1638319074883753,[19300|0|0]
19300,1.268519639968872,-0.3061150908470154,-0.014332268387079239,-0.1743559092283249,0.5775013566017151,-10.270462989807129,4.0703125,0,"['C1', 'F2', 'F1']",0,None,0,0.16414983627899526,[19400|0|0]
19400,1.268797755241394,-0.30595168471336365,-0.014754402451217175,-0.17500238120555878,0.5625830888748169,-10.252440452575684,4.0703125,0,"['C1', 'F2', 'F1']",0,None,0,0.1646811053609402,[19500|0|0]
19500,1.2683050632476807,-0.3048771023750305,-0.014308529905974865,-0.440142422914505,0.4535524845123291,-10.256792068481445,4.0703125,0,"['C1', 'F2', 'F1']",0,None,0,0.16594454310342202,[19600|0|0]
19600,1.2682708501815796,-0.30542972683906555,-0.014359590597450733,-0.3773079812526703,0.4728001356124878,-10.24656867980957,4.0703125,0,"['C1', 'F2', 'F1']",0,None,0,0.1665005750506661,[19700|0|0]
19700,1.268315315246582,-0.30508777499198914,-0.014444871805608273,-0.36037716269493103,0.49154210090637207,-10.232319831848145,4.0703125,0,"['C1', 'F2', 'F1']",0,None,0,0.16685579483078744,[19800|0|0]
19800,1.268309235572815,-0.3051607310771942,-0.014513049274682999,-0.3396962285041809,0.5025242567062378,-10.221542358398438,4.0703125,0,"['C1', 'F2', 'F1']",0,None,0,0.16695583342379533,[19900|0|0]
19900,1.2684050798416138,-0.30539631843566895,-0.01425983291119337,-0.3220025300979614,0.504266083240509,-10.238133430480957,4.0703125,0,"['C1', 'F2', 'F1']",0,None,0,0.16731472902710304,[20000|0|0]
20000,1.2682979106903076,-0.3055206835269928,-0.01429568137973547,-0.30930137634277344,0.5149557590484619,-10.235128402709961,4.0703125,0,"['C1', 'F2', 'F1']",0,None,0,0.16748276775962767,[20100|0|0]
20100,1.2680517435073853,-0.3057754337787628,-0.014255168847739697,-0.29844316840171814,0.5263043642044067,-10.241857528686523,4.0703125,0,"['C1', 'F2', 'F1']",0,None,0,0.167839330850782,[20200|0|0]
20200,1.2681732177734375,-0.30548474192619324,-0.014333813451230526,-0.30467626452445984,0.5266096591949463,-10.240166664123535,4.0703125,0,"['C1', 'F2', 'F1']",0,None,0,0.1681640503052677,[20300|0|0]
20300,1.2688159942626953,-0.3059314489364624,-0.014411607757210732,-0.29754507541656494,0.5243275761604309,-10.247020721435547,4.0703125,0,"['C1', 'F2', 'F1']",0,None,0,0.16895066375684933,[20400|0|0]
20400,1.2684553861618042,-0.3059275150299072,-0.014971992000937462,-0.3003232181072235,0.5325675010681152,-10.253307342529297,4.0703125,0,"['C1', 'F2', 'F1']",0,None,0,0.1696170601694044,[20500|0|0]
20500,1.268949270248413,-0.306010901927948,-0.014403688721358776,-0.30682113766670227,0.5160928964614868,-10.27786922454834,4.0703125,0,"['C1', 'F2', 'F1']",0,None,0,0.17037458474547454,[20600|0|0]
20600,1.2686384916305542,-0.30580079555511475,-0.014857488684356213,-0.3171904683113098,0.5225629210472107,-10.280465126037598,4.0703125,0,"['C1', 'F2', 'F1']",0,None,0,0.17096336521699165,[20700|0|0]
20700,1.2685706615447998,-0.3059471547603607,-0.014521341770887375,-0.31643369793891907,0.5187010169029236,-10.278252601623535,4.0703125,0,"['C1', 'F2', 'F1']",0,None,0,0.171336214630198,[20800|0|0]
20800,1.268844723701477,-0.30605417490005493,-0.014635754749178886,-0.31874018907546997,0.5138680934906006,-10.256914138793945,4.0703125,0,"['C1', 'F2', 'F1']",0,None,0,0.1716518943818836,[20900|0|0]
20900,1.2685046195983887,-0.3061119019985199,-0.014395920559763908,-0.31687769293785095,0.5251961946487427,-10.241527557373047,4.0703125,0,"['C1', 'F2', 'F1']",0,None,0,0.17207204156710215,[21000|0|0]
21000,1.2684807777404785,-0.30621621012687683,-0.014492625370621681,-0.3192030191421509,0.5186688899993896,-10.251171112060547,4.0703125,0,"['C1', 'F2', 'F1']",0,None,0,0.17221626514448454,[21100|0|0]
21100,1.2687128782272339,-0.3058042824268341,-0.014501804485917091,-0.33389580249786377,0.5131226181983948,-10.249105453491211,4.0703125,0,"['C1', 'F2', 'F1']",0,None,0,0.17268917033812506,[21200|0|0]
21200,1.2689110040664673,-0.30581799149513245,-0.014513474889099598,-0.3355571925640106,0.5106295347213745,-10.239059448242188,4.0703125,0,"['C1', 'F2', 'F1']",0,None,0,0.1728881125031781,[21300|0|0]
21300,1.2685420513153076,-0.30606645345687866,-0.014627060852944851,-0.32416611909866333,0.5200198292732239,-10.229915618896484,4.0703125,0,"['C1', 'F2', 'F1']",0,None,0,0.17334719991337982,[21400|0|0]
21400,1.2686396837234497,-0.30571338534355164,-0.014507841318845749,-0.33318203687667847,0.5123611092567444,-10.227888107299805,4.0703125,0,"['C1', 'F2', 'F1']",0,None,0,0.17373243033413957,[21500|0|0]
21500,1.2688682079315186,-0.305713415145874,-0.01461063977330923,-0.3318696618080139,0.5088847875595093,-10.209524154663086,4.0703125,0,"['C1', 'F2', 'F1']",0,None,0,0.1739830113326246,[21600|0|0]
21600,1.2686924934387207,-0.3056095540523529,-0.014709355309605598,-0.3374246060848236,0.5129969716072083,-10.222002983093262,4.0703125,0,"['C1', 'F2', 'F1']",0,None,0,0.17420974348039567,[21700|0|0]
21700,1.2687857151031494,-0.30590033531188965,-0.014594699256122112,-0.33196425437927246,0.4998381733894348,-10.239466667175293,4.0703125,0,"['C1', 'F2', 'F1']",0,None,0,0.17453591832647833,[21800|0|0]
21800,1.2688236236572266,-0.30573827028274536,-0.01485093217343092,-0.33111292123794556,0.4994114637374878,-10.232887268066406,4.0703125,0,"['C1', 'F2', 'F1']",0,None,0,0.17484146282414822,[21900|0|0]
21900,1.2688711881637573,-0.30587929487228394,-0.014344347640872002,-0.32882317900657654,0.49512556195259094,-10.225808143615723,4.0703125,0,"['C1', 'F2', 'F1']",0,None,0,0.17536945733715378,[22000|0|0]
22000,1.2688316106796265,-0.30597254633903503,-0.014425225555896759,-0.3290520906448364,0.49777182936668396,-10.218558311462402,4.0703125,0,"['C1', 'F2', 'F1']",0,None,0,0.17549908546080029,[22100|0|0]
22100,1.2691936492919922,-0.3060712516307831,-0.014431992545723915,-0.33110684156417847,0.49020665884017944,-10.249348640441895,4.0703125,0,"['C1', 'F2', 'F1']",0,None,0,0.1758743993076193,[22200|0|0]
22200,1.268813967704773,-0.30584245920181274,-0.014637122862040997,-0.3323572278022766,0.5085399150848389,-10.258194923400879,4.0703125,0,"['C1', 'F2', 'F1']",0,None,0,0.1763628484143846,[22300|0|0]
22300,1.2687835693359375,-0.3062651753425598,-0.01456412859261036,-0.3122011125087738,0.5106648206710815,-10.25721263885498,4.0703125,0,"['C1', 'F2', 'F1']",0,None,0,0.17679289627200706,[22400|0|0]
22400,1.2688822746276855,-0.3058927655220032,-0.01427553966641426,-0.3219800889492035,0.511771559715271,-10.222073554992676,4.0703125,0,"['C1', 'F2', 'F1']",0,None,0,0.1772742645067184,[22500|0|0]
22500,1.268661379814148,-0.30563685297966003,-0.014791750349104404,-0.32954472303390503,0.5149811506271362,-10.221165657043457,4.0703125,0,"['C1', 'F2', 'F1']",0,None,0,0.17789132140595848,[22600|0|0]
22600,1.268831729888916,-0.3057214915752411,-0.014378883875906467,-0.3321659564971924,0.5067727565765381,-10.217886924743652,4.0703125,0,"['C1', 'F2', 'F1']",0,None,0,0.1783458998530128,[22700|0|0]
22700,1.2685579061508179,-0.305666446685791,-0.014591570012271404,-0.3335933983325958,0.5137729644775391,-10.220617294311523,4.0703125,0,"['C1', 'F2', 'F1']",0,None,0,0.17869696220075526,[22800|0|0]
22800,1.268626093864441,-0.3060304522514343,-0.014752579852938652,-0.31945139169692993,0.5089614391326904,-10.244454383850098,4.0703125,0,"['C1', 'F2', 'F1']",0,None,0,0.17910078615361114,[22900|0|0]
22900,1.2687472105026245,-0.30595239996910095,-0.01450817845761776,-0.3265787363052368,0.5031449794769287,-10.241844177246094,4.0703125,0,"['C1', 'F2', 'F1']",0,None,0,0.17938449981358742,[23000|0|0]
23000,1.2688231468200684,-0.3059622049331665,-0.014506837353110313,-0.32801470160484314,0.5102987289428711,-10.245980262756348,4.0703125,0,"['C1', 'F2', 'F1']",0,None,0,0.17946107827131907,[23100|0|0]
23100,1.268502116203308,-0.30619382858276367,-0.014819406904280186,-0.3206082582473755,0.5204861760139465,-10.235031127929688,4.0703125,0,"['C1', 'F2', 'F1']",0,None,0,0.1799654688900549,[23200|0|0]
23200,1.2687828540802002,-0.3058379292488098,-0.014516256749629974,-0.3276596963405609,0.5207622647285461,-10.242744445800781,4.0703125,0,"['C1', 'F2', 'F1']",0,None,0,0.18051079274584625,[23300|0|0]
23300,1.2684557437896729,-0.30615395307540894,-0.01479647308588028,-0.31072309613227844,0.5238953828811646,-10.252227783203125,4.0703125,0,"['C1', 'F2', 'F1']",0,None,0,0.1810450149807343,[23400|0|0]
23400,1.2689217329025269,-0.3060070276260376,-0.014444117434322834,-0.3256687521934509,0.5010956525802612,-10.26063060760498,4.0703125,0,"['C1', 'F2', 'F1']",0,None,0,0.18164741638026446,[23500|0|0]
23500,1.2606126070022583,-0.3157208263874054,-0.017643561586737633,-0.011776771396398544,0.6526954174041748,-10.262722969055176,4.0703125,0,"['C1', 'F2', 'F1']",0,None,0,0.19482451403063064,[23600|0|0]
23600,1.260559320449829,-0.31539374589920044,-0.018070243299007416,-0.020792176946997643,0.6592622399330139,-10.264044761657715,4.0703125,0,"['C1', 'F2', 'F1']",0,None,0,0.195364771733972,[23700|0|0]
23700,1.2603449821472168,-0.3154390752315521,-0.018232356756925583,-0.01736466959118843,0.6620644330978394,-10.297113418579102,4.0703125,0,"['C1', 'F2', 'F1']",0,None,0,0.19563730875820237,[23800|0|0]
23800,1.2602882385253906,-0.3153690695762634,-0.018182827159762383,-0.01748497411608696,0.6638399958610535,-10.282672882080078,4.0703125,0,"['C1', 'F2', 'F1']",0,None,0,0.19574013779780453,[23900|0|0]
23900,1.2606546878814697,-0.31590837240219116,-0.017670756205916405,-0.006575937382876873,0.6542300581932068,-10.279908180236816,4.0703125,0,"['C1', 'F2', 'F1']",0,None,0,0.1965692031332258,[24000|0|0]
24000,1.260499119758606,-0.30609583854675293,-0.014488277025520802,-0.31992289423942566,0.5080232620239258,-10.264778137207031,4.0703125,0,"['C1', 'F2', 'F1']",0,None,0,0.20688609199754066,[24100|0|0]
24100,1.2606256008148193,-0.31574568152427673,-0.017948074266314507,-0.0084648746997118,0.6512410044670105,-10.26776123046875,4.0703125,0,"['C1', 'F2', 'F1']",0,None,0,0.21713819733721845,[24200|0|0]
24200,1.2604085206985474,-0.3155716359615326,-0.01798860728740692,-0.006285086274147034,0.6548164486885071,-10.290303230285645,4.0703125,0,"['C1', 'F2', 'F1']",0,None,0,0.21741937087898663,[24300|0|0]
24300,1.2605403661727905,-0.31584399938583374,-0.0177603829652071,-0.008457142859697342,0.6511443853378296,-10.271096229553223,4.0703125,0,"['C1', 'F2', 'F1']",0,None,0,0.21779838460593992,[24400|0|0]
24400,1.2605433464050293,-0.3157114088535309,-0.017807980999350548,-0.016692012548446655,0.6524688005447388,-10.235313415527344,4.0703125,0,"['C1', 'F2', 'F1']",0,None,0,0.21793929132648537,[24500|0|0]
24500,1.2605806589126587,-0.3155195116996765,-0.01792233996093273,-0.02354288101196289,0.6554844975471497,-10.244592666625977,4.0703125,0,"['C1', 'F2', 'F1']",0,None,0,0.21816577468785472,[24600|0|0]
24600,1.2605299949645996,-0.31583815813064575,-0.01766413450241089,-0.012422590516507626,0.6546887159347534,-10.242318153381348,4.0703125,0,"['C1', 'F2', 'F1']",0,None,0,0.2185790209127774,[24700|0|0]
24700,1.2605383396148682,-0.3156408369541168,-0.017928704619407654,-0.021198777481913567,0.6552931666374207,-10.239891052246094,4.0703125,0,"['C1', 'F2', 'F1']",0,None,0,0.2189091763711641,[24800|0|0]
24800,1.2604228258132935,-0.31570693850517273,-0.018196582794189453,-0.020605619996786118,0.6600478887557983,-10.243790626525879,4.0703125,0,"['C1', 'F2', 'F1']",0,None,0,0.2192082943578026,[24900|0|0]
24900,1.2605576515197754,-0.3157999813556671,-0.017888855189085007,-0.02447514608502388,0.6652387380599976,-10.244357109069824,4.0703125,0,"['C1', 'F2', 'F1']",0,None,0,0.21955690764225944,[25000|0|0]
25000,1.2604538202285767,-0.3155399262905121,-0.01802218332886696,-0.03311432898044586,0.6675471663475037,-10.234980583190918,4.0703125,0,"['C1', 'F2', 'F1']",0,None,0,0.21986704626739745,[25100|0|0]
25100,1.2607243061065674,-0.31573671102523804,-0.017527246847748756,-0.025427579879760742,0.6686352491378784,-10.254070281982422,4.0703125,0,"['C1', 'F2', 'F1']",0,None,0,0.22046441463143696,[25200|0|0]
25200,1.2606608867645264,-0.31595778465270996,-0.017709070816636086,-0.007558726239949465,0.6779767274856567,-10.257160186767578,4.0703125,0,"['C1', 'F2', 'F1']",0,None,0,0.22075759634534567,[25300|0|0]
25300,1.2607028484344482,-0.3156072795391083,-0.017898306250572205,-0.013369622640311718,0.6856812238693237,-10.245617866516113,4.0703125,0,"['C1', 'F2', 'F1']",0,None,0,0.22115812682590932,[25400|0|0]
25401,1.2605046033859253,-0.3154071569442749,-0.018161628395318985,-0.01466078869998455,0.6941018104553223,-10.252908706665039,4.0703125,0,"['C1', 'F2', 'F1']",0,None,0,0.22154372856882648,[25500|0|0]
25501,1.2604804039001465,-0.3157828748226166,-0.01778952218592167,-0.007897932082414627,0.6911405324935913,-10.255765914916992,4.0703125,0,"['C1', 'F2', 'F1']",0,None,0,0.22207307965297535,[25600|0|0]
25601,1.260742425918579,-0.31571319699287415,-0.017712490633130074,-0.01281034667044878,0.6777205467224121,-10.259099006652832,4.0703125,0,"['C1', 'F2', 'F1']",0,None,0,0.22235493847974258,[25700|0|0]
25701,1.2604628801345825,-0.3156684637069702,-0.01781536266207695,-0.010704218409955502,0.6856004595756531,-10.255265235900879,4.0703125,0,"['C1', 'F2', 'F1']",0,None,0,0.22265615196974206,[25800|0|0]
25801,1.2606325149536133,-0.3156117796897888,-0.017908869311213493,-0.013634169474244118,0.6785335540771484,-10.246329307556152,4.0703125,0,"['C1', 'F2', 'F1']",0,None,0,0.2228579750186343,[25900|0|0]
25901,1.2604503631591797,-0.31540200114250183,-0.017964495345950127,-0.01948496513068676,0.6792631149291992,-10.23944091796875,4.0703125,0,"['C1', 'F2', 'F1']",0,None,0,0.2231413132808894,[26000|0|0]
26001,1.2603241205215454,-0.31561940908432007,-0.0182089414447546,-0.016394073143601418,0.6771355271339417,-10.262208938598633,4.0703125,0,"['C1', 'F2', 'F1']",0,None,0,0.22349196597508014,[26100|0|0]
26101,1.2605661153793335,-0.3155328035354614,-0.017870821058750153,-0.011797886341810226,0.6723394989967346,-10.23227310180664,4.0703125,0,"['E1B', 'F2', 'G1']",0,None,0,0.2239166863863165,[26100|0|0]
26201,1.2601290941238403,-0.315544992685318,-0.01754196360707283,0.008547536097466946,0.6926624774932861,-10.266969680786133,2.919921875,0,"['E1B', 'F2', 'G1']",0,None,0,0.2244637543680617,[26100|0|0]
26301,1.2602030038833618,-0.31483858823776245,-0.013754518702626228,-1.3741365671157837,-0.42359355092048645,-9.194585800170898,3.345703125,0,"['E1B', 'F2', 'G1']",0,None,0,0.22831722148227163,[26100|0|0]
26402,1.2622878551483154,-0.3085903823375702,0.021702779456973076,-3.159876823425293,-3.2518274784088135,-7.988252639770508,3.568359375,0,"['E1B', 'F2', 'G1']",0,None,0,0.2643811463178591,[26100|0|0]
26502,1.271020531654358,-0.29623961448669434,0.08679008483886719,-0.04544869437813759,0.7113139629364014,-5.984748840332031,3.615234375,0,"['E1B', 'F2', 'G1']",0,None,0,0.3312029872633266,[26100|0|0]
26602,1.2789074182510376,-0.2820870578289032,0.16340644657611847,2.026700258255005,1.7087737321853638,-4.542738437652588,3.630859375,0,"['E1B', 'F2', 'G1']",0,None,0,0.4095136808242587,[26100|0|0]
26702,1.2830922603607178,-0.2704406678676605,0.24434609711170197,3.274657964706421,2.1805334091186523,-3.4066765308380127,3.62109375,0,"['E1B', 'F2', 'G1']",0,None,0,0.491393949091007,[26100|0|0]
26802,1.283145546913147,-0.2635064721107483,0.32582560181617737,3.6461493968963623,1.822614073753357,-2.511951446533203,3.611328125,0,"['E1B', 'F2', 'G1']",0,None,0,0.5731680011927494,[26100|0|0]
26902,1.2795183658599854,-0.26238468289375305,0.40854644775390625,3.1643474102020264,1.2188940048217773,-1.727610468864441,3.599609375,0,"['E1B', 'F2', 'G1']",0,None,0,0.6559759308015329,[26100|0|0]
27002,1.2734870910644531,-0.26530003547668457,0.4935038983821869,2.1735177040100098,0.3848777115345001,-1.297303318977356,3.611328125,0,"['E1B', 'F2', 'G1']",0,None,0,0.7411970782568376,[26100|0|0]
27100,1.2663763761520386,-0.27106916904449463,0.5805391073226929,1.1396455764770508,-0.03566194698214531,-0.9664687514305115,3.60546875,0,"['E1B', 'F2', 'G1']",0,None,0,0.8287126355252821,[26100|0|0]
27200,1.2584946155548096,-0.27687719464302063,0.6684837937355042,0.48333755135536194,-0.5403757691383362,-0.7296286225318909,3.599609375,0,"['E1B', 'F2', 'G1']",0,None,0,0.9172006187756245,[26100|0|0]
27300,1.2560726404190063,-0.28840377926826477,0.7575013637542725,-0.15971186757087708,-0.9712338447570801,-0.6255950927734375,3.611328125,0,"['E1B', 'F2', 'G1']",0,None,0,1.0069940254864052,[26100|0|0]
27400,1.2479431629180908,-0.28997647762298584,0.8463367223739624,-0.407233864068985,-1.0941826105117798,-0.2932623028755188,3.599609375,0,"['E1B', 'F2', 'G1']",0,None,0,1.0962144420155928,[26100|0|0]
27500,1.2398178577423096,-0.2886528968811035,0.9434995055198669,-0.6919977068901062,-1.0878826379776,-0.25696897506713867,3.583984375,0,"['E1B', 'F2', 'G1']",0,None,0,1.1937253587318146,[26100|0|0]
27600,1.2372946739196777,-0.29174333810806274,1.0387333631515503,-0.2857702076435089,-0.8257105350494385,-0.4142325818538666,3.583984375,0,"['E1B', 'F2', 'G1']",0,None,0,1.28904274918598,[26100|0|0]
27700,1.2372090816497803,-0.2970508635044098,1.1320675611495972,0.13397373259067535,-0.8971518278121948,-0.6175240874290466,3.599609375,0,"['E1B', 'F2', 'G1']",0,None,0,1.3825277729481213,[26100|0|0]
27800,1.2320778369903564,-0.29387450218200684,1.2297124862670898,-0.5079142451286316,-0.7142855525016785,5.394619941711426,3.58984375,0,"['E1B', 'F2', 'G1']",0,None,0,1.4803590069391432,[26100|0|0]
27900,1.2283040285110474,-0.291536420583725,1.3356270790100098,-0.39978963136672974,-0.18771898746490479,8.098183631896973,3.59375,0,"['E1B', 'F2', 'G1']",0,None,0,1.5863665972895389,[26100|0|0]
28000,1.2242398262023926,-0.2892952859401703,1.4308698177337646,0.3207809329032898,-0.4608488976955414,8.293010711669922,3.63671875,0,"['E1B', 'F2', 'G1']",0,None,0,1.681722350679136,[26100|0|0]
28100,1.2199777364730835,-0.29016634821891785,1.5191236734390259,0.6233192086219788,0.2701724171638489,7.481805801391602,3.658203125,0,"['E1B', 'F2', 'G1']",0,None,0,1.7700833556824698,[26100|0|0]
28200,1.2155499458312988,-0.29685088992118835,1.5923479795455933,1.2685801982879639,0.4707942008972168,6.603971481323242,3.68359375,0,"['E1B', 'F2', 'G1']",0,None,0,1.8437453365988499,[26100|0|0]
28300,1.2062745094299316,-0.3012215495109558,1.655537724494934,0.7542012333869934,0.8010426759719849,2.3670647144317627,3.673828125,0,"['E1B', 'F2', 'G1']",0,None,0,1.907761586508136,[26100|0|0]
28400,1.193324089050293,-0.3046514689922333,1.7014076709747314,0.12641113996505737,0.07607177644968033,-1.1538565158843994,3.66796875,0,"['E1B', 'F2', 'G1']",0,None,0,1.9555478787446854,[26100|0|0]
28500,1.1797376871109009,-0.3074938654899597,1.7319966554641724,-0.659515380859375,0.16911324858665466,-4.996459484100342,3.65234375,0,"['E1B', 'F2', 'G1']",0,None,0,1.9891388821176759,[26100|0|0]
28600,1.1637117862701416,-0.30803382396698,1.7479437589645386,-0.8938515782356262,-0.9345713257789612,-7.612137794494629,3.626953125,0,"['E1B', 'F2', 'G1']",0,None,0,2.01175372598108,[26100|0|0]
28700,1.150542140007019,-0.3118172287940979,1.7534637451171875,-1.6371572017669678,-3.450425148010254,-7.8892035484313965,3.615234375,0,"['E1B', 'F2', 'G1']",0,None,0,2.0265261320784993,[26100|0|0]
28800,1.1445906162261963,-0.31553950905799866,1.752708911895752,-1.1378241777420044,-3.775033712387085,-8.05700397491455,3.59375,0,"['E1B', 'F2', 'G1']",0,None,0,2.033586286387642,[26100|0|0]
28900,1.142663598060608,-0.3184387981891632,1.745713710784912,-1.4714109897613525,-4.149273872375488,-8.05964183807373,3.578125,0,"['E1B', 'F2', 'G1']",0,None,0,2.041399871675952,[26100|0|0]
29000,1.1471326351165771,-0.3174932599067688,1.7392008304595947,-1.2648268938064575,-3.4332258701324463,-7.848874092102051,3.583984375,0,"['E1B', 'F2', 'G1']",0,None,0,2.0493549923527867,[26100|0|0]
29100,1.157807469367981,-0.3145022988319397,1.7353378534317017,-0.6159728169441223,-2.3079659938812256,-7.511031627655029,3.583984375,0,"['E1B', 'F2', 'G1']",0,None,0,2.061094691069709,[26100|0|0]
29200,1.1723315715789795,-0.310350239276886,1.7351179122924805,-3.3715925216674805,2.089524269104004,-6.475583553314209,3.537109375,0,"['E1B', 'F2', 'G1']",0,None,WindDirection.NONE,2.0762022228895987,[26100|0|0]
29300,1.1956785917282104,-0.3491280674934387,1.742038369178772,-15.2817964553833,15.180135726928711,-3.187480926513672,3.578125,0,"['E1B', 'F2', 'G1']",0,None,WindDirection.NONE,2.121991916430352,[26100|0|0]
29400,1.1894911527633667,-0.3344617486000061,1.7453985214233398,-18.07682991027832,15.321426391601562,2.3721225261688232,3.5625,0,"['E1B', 'F2', 'G1']",0,None,WindDirection.NONE,2.1382607803714575,[26100|0|0]
29500,1.158060073852539,-0.2716514766216278,1.752156138420105,-16.15081214904785,18.163270950317383,-0.5479004383087158,3.55859375,0,"['E1B', 'F2', 'G1']",0,None,WindDirection.NONE,2.208820743346019,[26100|0|0]
29600,1.097746729850769,-0.17601384222507477,1.7562663555145264,-10.876249313354492,13.82181167602539,-3.624420166015625,3.5625,0,"['E1B', 'F2', 'G1']",0,None,WindDirection.NONE,2.3219629125943055,[26100|0|0]
29700,1.0580084323883057,-0.05598406493663788,1.7852190732955933,-1.395410180091858,6.724113941192627,-9.255488395690918,3.615234375,0,"['E1B', 'F2', 'G1']",0,None,WindDirection.NONE,2.4516723555352,[26100|0|0]
