time.ms,stateEstimate.x,stateEstimate.y,stateEstimate.z,stabilizer.roll,stabilizer.pitch,stabilizer.yaw,pm.vbat,drone_id,node_name,wind_speed,global_wind_direction,relative_wind_direction,travel_dist,waiting_time
0,0.7039794921875,0.7459671497344971,-0.029127325862646103,-1.1488395929336548,0.1910669207572937,12.770384788513184,4.046875,1,"['A1', 'B2', 'F2']",6.1,90,0,0.032575425654213216,[100|0|0]
100,0.70412677526474,0.7457771301269531,-0.029079962521791458,-1.1400341987609863,0.19247758388519287,12.749263763427734,4.0546875,1,"['A1', 'B2', 'F2']",6.1,90,0,0.03282046247215972,[200|0|0]
200,0.7038710713386536,0.7454010248184204,-0.02920522727072239,-1.1310378313064575,0.20367774367332458,12.743858337402344,4.0546875,1,"['A1', 'B2', 'F2']",6.1,90,0,0.03329219434329759,[300|0|0]
300,0.7039927244186401,0.7455482482910156,-0.028991572558879852,-1.1309720277786255,0.20570296049118042,12.767134666442871,4.0546875,1,"['A1', 'B2', 'F2']",6.1,90,0,0.03357876468133998,[400|0|0]
400,0.7039067149162292,0.745551586151123,-0.029051434248685837,-1.1365461349487305,0.20810312032699585,12.770018577575684,4.0546875,1,"['A1', 'B2', 'F2']",6.1,90,0,0.033683608363655575,[500|0|0]
500,0.7030631899833679,0.7439438104629517,-0.030287034809589386,-1.1134485006332397,0.23175199329853058,12.726573944091797,4.0546875,1,"['A1', 'B2', 'F2']",6.1,90,0,0.035879783612113414,[600|0|0]
600,0.7028709053993225,0.7438676357269287,-0.030325651168823242,-1.1141293048858643,0.2375294417142868,12.727023124694824,4.0546875,1,"['A1', 'B2', 'F2']",6.1,90,0,0.03609018127101237,[700|0|0]
700,0.7031328082084656,0.743858814239502,-0.030220728367567062,-1.1194641590118408,0.23182983696460724,12.712309837341309,4.0546875,1,"['A1', 'B2', 'F2']",6.1,90,0,0.03637245718975305,[800|0|0]
800,0.7030089497566223,0.7439563870429993,-0.0300990529358387,-1.124579906463623,0.23248374462127686,12.736503601074219,4.0546875,1,"['A1', 'B2', 'F2']",6.1,90,0,0.036571621139205805,[900|0|0]
900,0.7029128074645996,0.743688702583313,-0.030324922874569893,-1.114477515220642,0.24587497115135193,12.727840423583984,4.0546875,1,"['A1', 'B2', 'F2']",6.1,90,0,0.03693482292815425,[1000|0|0]
1000,0.7029083371162415,0.7436287999153137,-0.03012721613049507,-1.1164202690124512,0.2403561919927597,12.73250961303711,4.046875,1,"['A1', 'B2', 'F2']",6.1,90,0,0.03714145368651452,[1100|0|0]
1100,0.702401876449585,0.7436374425888062,-0.03049658238887787,-1.1218490600585938,0.2507122755050659,12.732306480407715,4.0546875,1,"['A1', 'B2', 'F2']",6.1,90,0,0.037768357614965234,[1200|0|0]
1200,0.7028365135192871,0.7435761094093323,-0.03058759681880474,-1.118983507156372,0.23472380638122559,12.722981452941895,4.0546875,1,"['A1', 'B2', 'F2']",6.1,90,0,0.038216637402284,[1300|0|0]
1300,0.7032245993614197,0.7436668276786804,-0.030236274003982544,-1.1187907457351685,0.22485701739788055,12.71151065826416,4.0546875,1,"['A1', 'B2', 'F2']",6.1,90,0,0.0387479265377572,[1400|0|0]
1400,0.7029582858085632,0.7439612746238708,-0.030187686905264854,-1.097607970237732,0.2583566904067993,12.774520874023438,4.0546875,1,"['A1', 'B2', 'F2']",6.1,90,0,0.03914790480982808,[1500|0|0]
1500,0.7027348279953003,0.7437996864318848,-0.030225563794374466,-1.1037184000015259,0.25534722208976746,12.779196739196777,4.046875,1,"['A1', 'B2', 'F2']",6.1,90,0,0.039426254943340185,[1600|0|0]
1600,0.7031325101852417,0.7439255714416504,-0.030490007251501083,-1.1071290969848633,0.23509162664413452,12.763949394226074,4.0546875,1,"['A1', 'B2', 'F2']",6.1,90,0,0.03992014612760789,[1700|0|0]
1701,0.702936589717865,0.7434783577919006,-0.030278461053967476,-1.104543924331665,0.24181467294692993,12.739509582519531,4.0546875,1,"['A1', 'B2', 'F2']",6.1,90,0,0.04045225201157323,[1800|0|0]
1801,0.7040499448776245,0.7455118298530579,-0.029267625883221626,-1.156197190284729,0.1848289966583252,12.748992919921875,4.0546875,1,"['A1', 'B2', 'F2']",6.1,90,0,0.04298135384378303,[1900|0|0]
1901,0.703898012638092,0.7453044652938843,-0.029101135209202766,-1.1459089517593384,0.19323785603046417,12.784411430358887,4.0546875,1,"['A1', 'B2', 'F2']",6.1,90,0,0.043287625961916334,[2000|0|0]
2001,0.7039881348609924,0.7451893091201782,-0.029227430000901222,-1.1392083168029785,0.18844939768314362,12.79986572265625,4.046875,1,"['A1', 'B2', 'F2']",6.1,90,0,0.043480844319774184,[2100|0|0]
2101,0.7033951878547668,0.7435585260391235,-0.030305182561278343,-1.1055958271026611,0.23100194334983826,12.741458892822266,4.0546875,1,"['A1', 'B2', 'F2']",6.1,90,0,0.045523536217992204,[2200|0|0]
2201,0.702924907207489,0.7442378401756287,-0.030016198754310608,0.05076635256409645,0.03945956006646156,10.689946174621582,4.0546875,1,"['A1', 'B2', 'F2']",6.1,90,0,0.046398832295870614,[2300|0|0]
2301,0.7035657167434692,0.7432751059532166,-0.030323753133416176,0.13594916462898254,0.0891696959733963,12.077223777770996,4.0546875,1,"['A1', 'B2', 'F2']",6.1,90,0,0.04759552930869953,[2400|0|0]
2401,0.7031503915786743,0.7432001233100891,-0.03079671412706375,-0.1283370405435562,0.20486800372600555,12.467278480529785,4.0546875,1,"['A1', 'B2', 'F2']",6.1,90,0,0.04822941375463144,[2500|0|0]
2501,0.7033007740974426,0.7431212663650513,-0.03074309043586254,-0.4064220190048218,0.1897142380475998,12.617796897888184,4.0546875,1,"['A1', 'B2', 'F2']",6.1,90,0,0.04840748346005559,[2600|0|0]
2601,0.7033917903900146,0.7431203126907349,-0.030355243012309074,-0.6270171403884888,0.17774748802185059,12.691790580749512,4.0546875,1,"['A1', 'B2', 'F2']",6.1,90,0,0.04880586832292731,[2700|0|0]
2700,0.702864408493042,0.7439799308776855,-0.030415242537856102,-0.8067206144332886,0.19772635400295258,12.72206974029541,4.0546875,1,"['A1', 'B2', 'F2']",6.1,90,0,0.04981615295393816,[2800|0|0]
2800,0.7033836245536804,0.7438558340072632,-0.030613647773861885,-0.8804470300674438,0.1683572381734848,12.73261547088623,4.0546875,1,"['A1', 'B2', 'F2']",6.1,90,0,0.05038567028339182,[2900|0|0]
2900,0.7031432390213013,0.7435305118560791,-0.030291637405753136,-0.9227259755134583,0.1835126429796219,12.73721981048584,4.0546875,1,"['A1', 'B2', 'F2']",6.1,90,0,0.050902690963246865,[3000|0|0]
3000,0.7030297517776489,0.7436485290527344,-0.03027927875518799,-0.971428394317627,0.18942397832870483,12.733926773071289,4.046875,1,"['A1', 'B2', 'F2']",6.1,90,0,0.05106688642427416,[3100|0|0]
3100,0.7033449411392212,0.7438271641731262,-0.030552498996257782,-1.013630986213684,0.17574971914291382,12.729792594909668,4.0546875,1,"['A1', 'B2', 'F2']",6.1,90,0,0.05152065303831268,[3200|0|0]
3202,0.702907145023346,0.7435572743415833,-0.030209826305508614,-1.0343444347381592,0.19286538660526276,12.74234390258789,4.0546875,1,"['A1', 'B2', 'F2']",6.1,90,0,0.05213865832407569,[3300|0|0]
3302,0.702899694442749,0.7432973980903625,-0.03039374016225338,-1.0371782779693604,0.19685976207256317,12.756458282470703,4.0546875,1,"['A1', 'B2', 'F2']",6.1,90,0,0.0524571163021552,[3400|0|0]
3402,0.7032980918884277,0.7435609102249146,-0.03067386895418167,-1.0501283407211304,0.18452173471450806,12.766375541687012,4.0546875,1,"['A1', 'B2', 'F2']",6.1,90,0,0.05301085930197252,[3500|0|0]
3500,0.703106701374054,0.7437857985496521,-0.03054187446832657,-1.0642157793045044,0.19009794294834137,12.768040657043457,4.0546875,1,"['A1', 'B2', 'F2']",6.1,90,0,0.05333432125010811,[3600|0|0]
3600,0.7030270099639893,0.7440102696418762,-0.030145792290568352,-1.0751911401748657,0.19751600921154022,12.785155296325684,4.0546875,1,"['A1', 'B2', 'F2']",6.1,90,0,0.053796510695703834,[3700|0|0]
3700,0.7030496001243591,0.744047224521637,-0.0302831269800663,-1.079262137413025,0.20065495371818542,12.774378776550293,4.0546875,1,"['A1', 'B2', 'F2']",6.1,90,0,0.05394051345756334,[3800|0|0]
3800,0.7030385136604309,0.7437072992324829,-0.030282694846391678,-1.0769360065460205,0.20720861852169037,12.764106750488281,4.0546875,1,"['A1', 'B2', 'F2']",6.1,90,0,0.05428061976245698,[3900|0|0]
3900,0.7034106850624084,0.743633508682251,-0.030323488637804985,-1.0766927003860474,0.2081652730703354,12.747857093811035,4.0546875,1,"['A1', 'B2', 'F2']",6.1,90,0,0.05466222260727255,[4000|0|0]
4000,0.7032196521759033,0.743858277797699,-0.030216149985790253,-1.0865167379379272,0.21318820118904114,12.743197441101074,4.0546875,1,"['A1', 'B2', 'F2']",6.1,90,0,0.05497612753746973,[4100|0|0]
4100,0.7030802965164185,0.7436443567276001,-0.030253689736127853,-1.0889085531234741,0.22168055176734924,12.72441577911377,4.0546875,1,"['A1', 'B2', 'F2']",6.1,90,0,0.05523418074306524,[4200|0|0]
4200,0.7030878663063049,0.7438966035842896,-0.0302086491137743,-1.0941920280456543,0.22672352194786072,12.736083984375,4.0546875,1,"['A1', 'B2', 'F2']",6.1,90,0,0.05549052901415485,[4300|0|0]
4300,0.7030524015426636,0.7439273595809937,-0.030503464862704277,-1.1004458665847778,0.22727903723716736,12.734291076660156,4.0546875,1,"['A1', 'B2', 'F2']",6.1,90,0,0.055789058755739404,[4400|0|0]
4400,0.7030967473983765,0.743951141834259,-0.03070073202252388,-1.1081656217575073,0.22678261995315552,12.730073928833008,4.0546875,1,"['A1', 'B2', 'F2']",6.1,90,0,0.05599264284851824,[4500|0|0]
4500,0.702975332736969,0.7437803149223328,-0.030163180083036423,-1.1035668849945068,0.23361511528491974,12.744609832763672,4.046875,1,"['A1', 'B2', 'F2']",6.1,90,0,0.05656960510160736,[4600|0|0]
4600,0.7026824951171875,0.7438740134239197,-0.030382711440324783,-1.106851577758789,0.24320122599601746,12.726861953735352,4.0546875,1,"['A1', 'B2', 'F2']",6.1,90,0,0.056947397766427356,[4700|0|0]
4700,0.7029275298118591,0.7437824010848999,-0.030290275812149048,-1.099643349647522,0.23500926792621613,12.737412452697754,4.0546875,1,"['A1', 'B2', 'F2']",6.1,90,0,0.057224848965036657,[4800|0|0]
4800,0.7028422355651855,0.7439083456993103,-0.030146703124046326,-1.1010230779647827,0.23797938227653503,12.743915557861328,4.0546875,1,"['A1', 'B2', 'F2']",6.1,90,0,0.057434014619922064,[4900|0|0]
4900,0.7030821442604065,0.7438318729400635,-0.03075457736849785,-1.1044421195983887,0.22728925943374634,12.753045082092285,4.0546875,1,"['A1', 'B2', 'F2']",6.1,90,0,0.058091977659930356,[5000|0|0]
5000,0.7028948068618774,0.7438260912895203,-0.030565882101655006,-1.1088628768920898,0.22950835525989532,12.744319915771484,4.046875,1,"['A1', 'B2', 'F2']",6.1,90,0,0.05835793749167103,[5100|0|0]
5100,0.7031006217002869,0.7437283992767334,-0.030181394889950752,-1.1078730821609497,0.22507703304290771,12.726516723632812,4.0546875,1,"['A1', 'B2', 'F2']",6.1,90,0,0.05880485347151059,[5200|0|0]
5200,0.7028709053993225,0.7437978982925415,-0.0299065001308918,-1.113115906715393,0.23568078875541687,12.732584953308105,4.0546875,1,"['A1', 'B2', 'F2']",6.1,90,0,0.05916977376511609,[5300|0|0]
5300,0.7029405832290649,0.7441150546073914,-0.03046547807753086,-1.1156104803085327,0.23036567866802216,12.712005615234375,4.0546875,1,"['A1', 'B2', 'F2']",6.1,90,0,0.05981622521173492,[5400|0|0]
5400,0.7029404044151306,0.7437505125999451,-0.030369868502020836,-1.1124619245529175,0.23637036979198456,12.735794067382812,4.046875,1,"['A1', 'B2', 'F2']",6.1,90,0,0.06019309667270882,[5500|0|0]
5500,0.7026920318603516,0.7438660264015198,-0.03009115159511566,-1.1198339462280273,0.2338005155324936,12.746569633483887,4.046875,1,"['A1', 'B2', 'F2']",6.1,90,0,0.06058388495108536,[5600|0|0]
5600,0.7028078436851501,0.7439600229263306,-0.030130082741379738,-1.122629165649414,0.22331656515598297,12.77273941040039,4.0546875,1,"['A1', 'B2', 'F2']",6.1,90,0,0.06073803863929657,[5700|0|0]
5700,0.7034685015678406,0.7438696026802063,-0.030506540089845657,-1.120409369468689,0.2042638510465622,12.773699760437012,4.0546875,1,"['A1', 'B2', 'F2']",6.1,90,0,0.06150378324037722,[5800|0|0]
5800,0.7026214599609375,0.743847668170929,-0.03027443215250969,-1.1250224113464355,0.22813045978546143,12.762357711791992,4.046875,1,"['A1', 'B2', 'F2']",6.1,90,0,0.06238232447509335,[5900|0|0]
5900,0.703058660030365,0.7440975308418274,-0.03021221235394478,-1.1284310817718506,0.21165312826633453,12.757187843322754,4.0546875,1,"['A1', 'B2', 'F2']",6.1,90,0,0.06288971639299248,[6000|0|0]
6000,0.7029882669448853,0.7438432574272156,-0.030037319287657738,-1.1279393434524536,0.20537477731704712,12.777495384216309,4.046875,1,"['A1', 'B2', 'F2']",6.1,90,0,0.06320625665977855,[6100|0|0]
6100,0.7028657793998718,0.7436123490333557,-0.03034091927111149,-1.1127268075942993,0.21490752696990967,12.769686698913574,4.0546875,1,"['A1', 'B2', 'F2']",6.1,90,0,0.06360687472601056,[6200|0|0]
6200,0.7029512524604797,0.7434530258178711,-0.030424948781728745,-1.1140819787979126,0.20774494111537933,12.785252571105957,4.0546875,1,"['A1', 'B2', 'F2']",6.1,90,0,0.06380624997456619,[6300|0|0]
6300,0.7029893398284912,0.7440053820610046,-0.030147654935717583,-1.129838466644287,0.2040872573852539,12.8164701461792,4.0546875,1,"['A1', 'B2', 'F2']",6.1,90,0,0.06442547525180083,[6400|0|0]
6400,0.7026292085647583,0.7439084649085999,-0.030158711597323418,-1.1139721870422363,0.2333626002073288,12.866183280944824,3.103515625,1,"['A/E1', 'B2', 'C1']",6.1,90,0,0.06479858342822421,[6400|0|0]
6500,0.70253586769104,0.7449867725372314,-0.029285648837685585,-1.3085359334945679,0.4185125231742859,12.50528335571289,3.3046875,1,"['A/E1', 'B2', 'C1']",6.1,90,0,0.06618915828882611,[6400|0|0]
6600,0.6983999609947205,0.7503306269645691,-0.007726771291345358,-6.773137092590332,8.127538681030273,13.321884155273438,3.58984375,1,"['A/E1', 'B2', 'C1']",6.1,90,0,0.088782248059801,[6400|0|0]
6700,0.6748302578926086,0.7641850709915161,0.036621592938899994,-3.984575033187866,10.658818244934082,13.149094581604004,3.58984375,1,"['A/E1', 'B2', 'C1']",6.1,90,0,0.14088075027930835,[6400|0|0]
6800,0.6381975412368774,0.7791508436203003,0.09421134740114212,3.8753440380096436,-3.2672901153564453,10.062504768371582,3.552734375,1,"['A/E1', 'B2', 'C1']",6.1,90,0,0.21075571073709243,[6400|0|0]
6900,0.6081470847129822,0.7875991463661194,0.16553951799869537,6.6985392570495605,-9.774055480957031,6.703370094299316,3.578125,1,"['A/E1', 'B2', 'C1']",6.1,90,0,0.28861527455152175,[6400|0|0]
7000,0.5970972180366516,0.7854896783828735,0.24625319242477417,5.430785655975342,-11.928030967712402,3.1680047512054443,3.58984375,1,"['A/E1', 'B2', 'C1']",6.1,90,0,0.37010911878589364,[6400|0|0]
7100,0.6084648966789246,0.7755075693130493,0.33317887783050537,3.408114194869995,-8.715523719787598,-0.04585287719964981,3.59375,1,"['A/E1', 'B2', 'C1']",6.1,90,0,0.45834143374165126,[6400|0|0]
7200,0.6332100033760071,0.7623992562294006,0.4229832589626312,-0.01781889796257019,-4.725574016571045,-1.2412821054458618,3.599609375,1,"['A/E1', 'B2', 'C1']",6.1,90,0,0.5524104246359576,[6400|0|0]
7300,0.6637351512908936,0.7505125403404236,0.5176383256912231,-1.6191953420639038,0.2561470866203308,-0.9307289123535156,3.599609375,1,"['A/E1', 'B2', 'C1']",6.1,90,0,0.6525735931523595,[6400|0|0]
7400,0.691252589225769,0.7435317039489746,0.6122033596038818,-2.2465741634368896,3.7989134788513184,-0.5951247215270996,3.599609375,1,"['A/E1', 'B2', 'C1']",6.1,90,0,0.7513080203098925,[6400|0|0]
7500,0.7111345529556274,0.7408477663993835,0.7079763412475586,-2.43894624710083,4.762575149536133,-0.7098257541656494,3.58984375,1,"['A/E1', 'B2', 'C1']",6.1,90,0,0.8491597449520548,[6400|0|0]
7600,0.721437931060791,0.7428021430969238,0.803530752658844,-1.7923507690429688,5.025581359863281,-2.4185047149658203,3.59375,1,"['A/E1', 'B2', 'C1']",6.1,90,0,0.9452879131901475,[6400|0|0]
7700,0.7252315878868103,0.7487651109695435,0.8978205323219299,-0.8164606094360352,4.039691925048828,-4.186249732971191,3.626953125,1,"['A/E1', 'B2', 'C1']",6.1,90,0,1.0398421905491162,[6400|0|0]
7800,0.7213472723960876,0.757523238658905,0.991192638874054,-0.10010560601949692,2.071537971496582,-2.7549474239349365,3.658203125,1,"['A/E1', 'B2', 'C1']",6.1,90,0,1.1337045524916747,[6400|0|0]
7900,0.7140488028526306,0.7677993774414062,1.0747512578964233,0.1972486823797226,0.606375515460968,-1.4437578916549683,3.673828125,1,"['A/E1', 'B2', 'C1']",6.1,90,0,1.2182084547618035,[6400|0|0]
8000,0.7053481340408325,0.7785735726356506,1.144574761390686,0.9937132000923157,-0.9363915920257568,-0.35473987460136414,3.6640625,1,"['A/E1', 'B2', 'C1']",6.1,90,0,1.2893920663593446,[6400|0|0]
8100,0.6981528401374817,0.7887675762176514,1.1976959705352783,1.355851650238037,-0.8403682112693787,-0.09577170014381409,3.6484375,1,"['A/E1', 'B2', 'C1']",6.1,90,0,1.343959023617093,[6400|0|0]
8200,0.6926488280296326,0.7975791096687317,1.2351326942443848,1.7350353002548218,-1.1500399112701416,0.5606374144554138,3.626953125,1,"['A/E1', 'B2', 'C1']",6.1,90,0,1.3828106072799868,[6400|0|0]
8300,0.6883698105812073,0.80442214012146,1.2605149745941162,2.026263952255249,-1.044302225112915,1.1138548851013184,3.611328125,1,"['A/E1', 'B2', 'C1']",6.1,90,0,1.4094451189491213,[6400|0|0]
8400,0.6855480074882507,0.8082274198532104,1.2775821685791016,1.6037613153457642,-0.5439179539680481,1.5916606187820435,3.599609375,1,"['A/E1', 'B2', 'C1']",6.1,90,0,1.4271575958242906,[6400|0|0]
8500,0.6837908625602722,0.8118481636047363,1.2904245853424072,1.0142323970794678,-0.20221324265003204,1.6599550247192383,3.58984375,1,"['A/E1', 'B2', 'C1']",6.1,90,0,1.440615865101377,[6400|0|0]
8600,0.6826894283294678,0.811194121837616,1.298659086227417,1.0930273532867432,-0.334873765707016,1.8796457052230835,3.599609375,1,"['A/E1', 'B2', 'C1']",6.1,90,0,1.4489494077348044,[6400|0|0]
8700,0.68224036693573,0.8115860819816589,1.3040475845336914,0.4806166887283325,-0.2946164011955261,1.8712595701217651,3.58984375,1,"['A/E1', 'B2', 'C1']",6.1,90,0,1.4543707731427609,[6400|0|0]
8800,0.6827326416969299,0.813017725944519,1.3089890480041504,0.2959755063056946,0.026919089257717133,1.953507661819458,3.58984375,1,"['A/E1', 'B2', 'C1']",6.1,90,0,1.4595389449768612,[6400|0|0]
8900,0.6824495196342468,0.8122208118438721,1.310646653175354,0.29021915793418884,0.32557910680770874,2.016082763671875,3.59375,1,"['A/E1', 'B2', 'C1']",6.1,90,0,1.4613998278559777,[6400|0|0]
9000,0.6820706725120544,0.8124426603317261,1.310926914215088,0.6706402897834778,0.08008425682783127,1.6582226753234863,3.583984375,1,"['A/E1', 'B2', 'C1']",6.1,90,0,1.4619206811404535,[6400|0|0]
9100,0.6820422410964966,0.813058614730835,1.3078348636627197,0.534100353717804,0.20266959071159363,1.1179081201553345,3.578125,1,"['A/E1', 'B2', 'C1']",6.1,90,0,1.4650736138681806,[6400|0|0]
9200,0.6807072162628174,0.8135529160499573,1.302161455154419,0.5427143573760986,0.21471963822841644,0.31719616055488586,3.568359375,1,"['A/E1', 'B2', 'C1']",6.1,90,0,1.4709229035004938,[6400|0|0]
9300,0.6792161464691162,0.813064694404602,1.2956390380859375,0.669102132320404,-0.12333321571350098,-0.19033963978290558,3.55859375,1,"['A/E1', 'B2', 'C1']",6.1,90,0,1.4776313738119657,[6400|0|0]
9400,0.6782506108283997,0.8141672015190125,1.2908903360366821,1.084611415863037,-0.8642368912696838,-0.3231183588504791,3.57421875,1,"['A/E1', 'B2', 'C1']",6.1,90,115.11483488614456,1.482601077240081,[6400|0|0]
9500,0.6895698308944702,0.8126293420791626,1.298089861869812,9.719111442565918,-13.245381355285645,0.6698035001754761,3.578125,1,"['A/E1', 'B2', 'C1']",6.1,90,115.11483488614456,1.4961037779618913,[6400|0|0]
9600,0.7172244191169739,0.7875990867614746,1.2930529117584229,10.25462532043457,-15.734258651733398,0.4881208837032318,3.5625,1,"['A/E1', 'B2', 'C1']",6.1,90,115.11483488614456,1.5337423326292734,[6400|0|0]
9700,0.76910400390625,0.7456099390983582,1.2838331460952759,8.326360702514648,-16.306922912597656,-0.5350642204284668,3.546875,1,"['A/E1', 'B2', 'C1']",6.1,90,115.11483488614456,1.6011187670723785,[6400|0|0]
9800,0.8456069827079773,0.6924408078193665,1.2750983238220215,4.186890602111816,-12.659273147583008,-1.8259238004684448,3.546875,1,"['A/E1', 'B2', 'C1']",6.1,90,115.11483488614456,1.6946920506881924,[6400|0|0]
9900,0.9164243340492249,0.6707465648651123,1.2431774139404297,-0.7340114712715149,-4.633993625640869,-3.072920322418213,3.568359375,1,"['A/E1', 'B2', 'C1']",6.1,90,115.11483488614456,1.775343658954963,[6400|0|0]
10000,1.008500576019287,0.6251068115234375,1.2398425340652466,-2.0672154426574707,0.8315346240997314,-2.2692110538482666,3.521484375,1,"['A/E1', 'B2', 'C1']",6.1,90,115.11483488614456,1.878164585055637,[6400|0|0]
10100,1.109009861946106,0.5809059143066406,1.237121820449829,-3.452190637588501,6.003657341003418,-1.4125584363937378,3.5625,1,"['A/E1', 'B2', 'C1']",6.1,90,115.11483488614456,1.9879973586474295,[6400|0|0]
10200,1.1886147260665894,0.5465655326843262,1.241405725479126,-3.9328808784484863,9.09518051147461,-0.967441201210022,3.5625,1,"['A/E1', 'B2', 'C1']",6.1,90,115.11483488614456,2.0747991330757607,[6400|0|0]
10300,1.2525079250335693,0.5194534063339233,1.244910478591919,-4.3967671394348145,10.526605606079102,-0.5823257565498352,3.568359375,1,"['A/E1', 'B2', 'C1']",6.1,90,115.11483488614456,2.144295115433419,[6400|0|0]
10400,1.2986286878585815,0.4997155964374542,1.2463276386260986,-3.585846185684204,10.21099853515625,-0.4935573935508728,3.57421875,1,"['A/E1', 'B2', 'C1']",6.1,90,115.11483488614456,2.1944819089714867,[6400|0|0]
10500,1.3268027305603027,0.4876278042793274,1.2442952394485474,-3.1945574283599854,8.755861282348633,-0.48370933532714844,3.546875,1,"['A/E1', 'B2', 'C1']",6.1,90,115.11483488614456,2.2252068507587937,[6400|0|0]
10600,1.3464510440826416,0.47900259494781494,1.2412660121917725,-2.8019979000091553,7.169219017028809,-0.5079876184463501,3.537109375,1,"['A/E1', 'B2', 'C1']",6.1,90,115.11483488614456,2.2468777224084926,[6400|0|0]
10700,1.3553898334503174,0.47102153301239014,1.2368546724319458,-1.2438435554504395,4.810523986816406,-0.6770453453063965,3.552734375,1,"['A/E1', 'B2', 'C1']",6.1,90,115.11483488614456,2.2596471869020958,[6400|0|0]
10800,1.3579884767532349,0.4676322937011719,1.2335816621780396,-0.7551121711730957,3.223750352859497,-1.1283575296401978,3.552734375,1,"['A/E1', 'B2', 'C1']",6.1,90,115.11483488614456,2.26502793835953,[6400|0|0]
10900,1.3577091693878174,0.4662466049194336,1.2307517528533936,-0.6789385676383972,1.2587101459503174,-1.310441017150879,3.53125,1,"['A/E1', 'B2', 'C1']",6.1,90,115.11483488614456,2.2681912487758393,[6400|0|0]
11000,1.3552407026290894,0.46190527081489563,1.2240267992019653,-0.1871035248041153,0.9994418025016785,-1.3720614910125732,3.525390625,1,"['A/E1', 'B2', 'C1']",6.1,90,115.11483488614456,2.2765677344088497,[6400|0|0]
11100,1.353486180305481,0.4583934247493744,1.2210747003555298,-0.581751823425293,0.6354705095291138,-0.9755436182022095,3.525390625,1,"['A/E1', 'B2', 'C1']",6.1,90,115.11483488614456,2.2814795873149416,[6400|0|0]
11200,1.3523223400115967,0.4553033113479614,1.2204233407974243,-0.21586865186691284,0.5511192083358765,-0.7253228425979614,3.541015625,1,"['A/E1', 'B2', 'C1']",6.1,90,115.11483488614456,2.2848452364851903,[6400|0|0]
11300,1.3512378931045532,0.4518270194530487,1.2196547985076904,-0.4870358407497406,0.7394057512283325,-0.6039354801177979,3.552734375,1,"['A/E1', 'B2', 'C1']",6.1,90,115.11483488614456,2.288566968297659,[6400|0|0]
11400,1.3562994003295898,0.4546562135219574,1.2274322509765625,-1.1624516248703003,0.5634585022926331,-0.8021498322486877,3.537109375,1,"['A/E1', 'B2', 'C1']",6.1,90,115.11483488614456,2.298268100261209,[6400|0|0]
11500,1.3492634296417236,0.44754698872566223,1.2127678394317627,-0.9976043701171875,0.3993910551071167,-0.803084671497345,3.509765625,1,"['A/E1', 'B2', 'C1']",6.1,90,115.11483488614456,2.3160189009946976,[6400|0|0]
11600,1.3480451107025146,0.447969526052475,1.2090191841125488,-1.1469714641571045,0.7394753098487854,-0.6294429302215576,3.521484375,1,"['A/E1', 'B2', 'C1']",6.1,90,115.11483488614456,2.3199831481530437,[6400|0|0]
11700,1.346303939819336,0.4491181969642639,1.2063162326812744,-0.9655986428260803,0.6518491506576538,-0.43398812413215637,3.521484375,1,"['A/E1', 'B2', 'C1']",6.1,90,115.11483488614456,2.323397392922806,[6400|0|0]
11800,1.3448700904846191,0.45196104049682617,1.2034657001495361,-0.9044844508171082,0.3059876263141632,-0.11272526532411575,3.509765625,1,"['A/E1', 'B2', 'C1']",6.1,90,115.11483488614456,2.327670941679963,[6400|0|0]
11900,1.3431086540222168,0.45588210225105286,1.2022165060043335,-0.6197139024734497,0.2231973111629486,0.12246772646903992,3.525390625,1,"['A/E1', 'B2', 'C1']",6.1,90,115.11483488614456,2.3321473095942373,[6400|0|0]
12000,1.3412230014801025,0.4597146809101105,1.1995179653167725,-0.24164722859859467,0.2698608338832855,0.009319264441728592,3.509765625,1,"['A/E1', 'B2', 'C1']",6.1,90,115.11483488614456,2.3371996819607466,[6400|0|0]
12100,1.3400226831436157,0.46367785334587097,1.1973685026168823,0.45030373334884644,0.6745703220367432,-0.23062455654144287,3.509765625,1,"['A/E1', 'B2', 'C1']",6.1,90,115.11483488614456,2.3418652676434553,[6400|0|0]
12200,1.338072419166565,0.4682312607765198,1.1966350078582764,0.22037862241268158,0.7656761407852173,-0.31396207213401794,3.515625,1,"['A/E1', 'B2', 'C1']",6.1,90,115.11483488614456,2.346872768354446,[6400|0|0]
12300,1.33500337600708,0.4704734683036804,1.1944137811660767,0.7825698256492615,1.0074776411056519,-0.5341976284980774,3.53125,1,"['A/E1', 'B2', 'C1']",6.1,90,115.11483488614456,2.3512750823514,[6400|0|0]
12400,1.330201506614685,0.4714948236942291,1.1930041313171387,0.3435680866241455,0.10505111515522003,-1.128622055053711,3.716796875,1,"['A/E1', 'B2', 'C1']",6.1,90,0,2.3563827461218567,[6400|0|0]
12500,1.3248299360275269,0.4700247347354889,1.176193118095398,0.36069002747535706,-1.138350009918213,-1.9446977376937866,3.794921875,1,"['A/E1', 'B2', 'C1']",6.1,90,0,2.3740922096275923,[6400|0|0]
12600,1.3198052644729614,0.47100427746772766,1.122175693511963,-0.7034342288970947,-0.9652698040008545,-2.0245721340179443,3.68359375,1,"['A/E1', 'B2', 'C1']",6.1,90,0,2.428351669510848,[6400|0|0]
12700,1.3153144121170044,0.4738834500312805,1.0306711196899414,-0.9795594215393066,-0.7137059569358826,-5.654261589050293,3.552734375,1,"['A/E1', 'B2', 'C1']",6.1,90,0,2.5200116085239386,[6400|0|0]
12800,1.3107595443725586,0.4754706621170044,0.9121431112289429,-1.2830482721328735,-1.0610651969909668,-3.573908805847168,3.494140625,1,"['A/E1', 'B2', 'C1']",6.1,90,0,2.638637722226213,[6400|0|0]
12900,1.3093867301940918,0.4808562695980072,0.7914931178092957,-0.9432517290115356,-0.693447470664978,-2.7907803058624268,3.48828125,1,"['A/E1', 'B2', 'C1']",6.1,90,0,2.75941566019035,[6400|0|0]
13000,1.3100286722183228,0.4856830835342407,0.6693965196609497,1.321191430091858,-1.471043586730957,0.04777803272008896,3.505859375,1,"['A/E1', 'B2', 'C1']",6.1,90,0,2.8816093159247465,[6400|0|0]
13100,1.3178653717041016,0.48973461985588074,0.5484846234321594,-1.1369268894195557,-0.7083995342254639,1.117691993713379,3.509765625,1,"['A/E1', 'B2', 'C1']",6.1,90,0,3.002842625930857,[6400|0|0]
13200,1.3281227350234985,0.49602749943733215,0.4323667585849762,-1.8105735778808594,1.7546484470367432,3.830813407897949,3.44140625,1,"['A/E1', 'B2', 'C1']",6.1,90,0,3.119582389389421,[6400|0|0]
13300,1.3391824960708618,0.5048595070838928,0.32239866256713867,0.5815098881721497,3.063488721847534,5.998499393463135,3.435546875,1,"['A/E1', 'B2', 'C1']",6.1,90,0,3.230457566121104,[6400|0|0]
13400,1.346667766571045,0.5131790637969971,0.2243233025074005,1.8017792701721191,3.3776445388793945,7.68889045715332,3.3984375,1,"['A/E1', 'B2', 'C1']",6.1,90,0,3.329169371642079,[6400|0|0]
13500,1.3492318391799927,0.5162261128425598,0.14374037086963654,2.4279603958129883,3.1251144409179688,8.33426284790039,3.41015625,1,"['A/E1', 'B2', 'C1']",6.1,90,0,3.4098506448569124,[6400|0|0]
13600,1.348559856414795,0.5133650898933411,0.08446331322193146,2.521969795227051,1.75108003616333,8.117998123168945,3.404296875,1,"['A/E1', 'B2', 'C1']",6.1,90,0,3.469200510707831,[6400|0|0]
13700,1.3451305627822876,0.5031052231788635,0.047619979828596115,3.580591917037964,0.07294955849647522,6.475684642791748,3.44140625,1,"['A/E1', 'B2', 'C1']",6.1,90,0,3.5075991582797084,[6400|0|0]
13800,1.3426622152328491,0.484778493642807,0.031515657901763916,2.103837013244629,-1.4353044033050537,3.8577494621276855,3.478515625,1,"['A/E1', 'B2', 'C1']",6.1,90,0,3.532120800554149,[6400|0|0]
13900,1.342403769493103,0.46067678928375244,0.03208485245704651,-1.1336923837661743,-1.0204460620880127,1.5786412954330444,3.515625,1,"['A/E1', 'B2', 'C1']",6.1,90,0,3.556230610376158,[6400|0|0]
14000,1.3442708253860474,0.4374915659427643,0.0434529110789299,-3.3013339042663574,-0.8646652102470398,1.6384921073913574,3.546875,1,"['A/E1', 'B2', 'C1']",6.1,90,0,3.5821202460613013,[6400|0|0]
14100,1.3463586568832397,0.4181750416755676,0.056237466633319855,-4.434639930725098,0.09500588476657867,0.7319143414497375,3.552734375,1,"['A/E1', 'B2', 'C1']",6.1,90,0,3.605378191173653,[6400|0|0]
14200,1.3502187728881836,0.4051119387149811,0.06308896094560623,-4.689329624176025,1.4146740436553955,-1.9274752140045166,3.537109375,1,"['A/E1', 'B2', 'C1']",6.1,90,0,3.6206257525800485,[6400|0|0]
14300,1.3530644178390503,0.3993130326271057,0.06141951307654381,-4.234732151031494,1.3024821281433105,-5.222360134124756,3.5,1,"['A/E1', 'B2', 'C1']",6.1,90,0,3.627297488725154,[6400|0|0]
14400,1.3552449941635132,0.39987942576408386,0.05363471060991287,-4.669961929321289,1.2468841075897217,-7.2312140464782715,3.484375,1,"['A/E1', 'B2', 'C1']",6.1,90,0,3.635401738458281,[6400|0|0]
14500,1.3564648628234863,0.4070517420768738,0.041841860860586166,-2.6300048828125,1.621850609779358,-7.283006191253662,3.47265625,1,"['A/E1', 'B2', 'C1']",6.1,90,0,3.6492581992635693,[6400|0|0]
14600,1.354527473449707,0.4186173379421234,0.03361259773373604,-1.6220120191574097,2.47471284866333,-6.251867294311523,3.478515625,1,"['A/E1', 'B2', 'C1']",6.1,90,0,3.663584303301822,[6400|0|0]
14700,1.3503140211105347,0.4334580600261688,0.034144915640354156,0.7738512754440308,1.2852052450180054,-5.015169143676758,3.509765625,1,"['A/E1', 'B2', 'C1']",6.1,90,0,3.6790207399030606,[6400|0|0]
14800,1.3452427387237549,0.44791945815086365,0.04000994190573692,1.6263192892074585,0.13671532273292542,-3.9914183616638184,3.515625,1,"['A/E1', 'B2', 'C1']",6.1,90,0,3.695429532480853,[6400|0|0]
14900,1.3408517837524414,0.45907503366470337,0.04766978695988655,2.2213683128356934,-0.7484071850776672,-3.2683684825897217,3.525390625,1,"['A/E1', 'B2', 'C1']",6.1,90,0,3.7096562881496156,[6400|0|0]
15000,1.3355274200439453,0.46736523509025574,0.0545831173658371,1.6766575574874878,-1.500853180885315,-2.550888776779175,3.521484375,1,"['A/E1', 'B2', 'C1']",6.1,90,0,3.7216925012533464,[6400|0|0]
15100,1.334062933921814,0.47134318947792053,0.058699414134025574,2.393916130065918,-1.3818014860153198,-1.2904698848724365,3.521484375,1,"['A/E1', 'B2', 'C1']",6.1,90,0,3.727601201600805,[6400|0|0]
15200,1.3320231437683105,0.47082653641700745,0.057674556970596313,1.83747398853302,-1.142257809638977,-0.02611260861158371,3.509765625,1,"['A/E1', 'B2', 'C1']",6.1,90,0,3.7299417157454133,[6400|0|0]
15300,1.3335292339324951,0.4686041474342346,0.05583388730883598,0.080717533826828,-0.32493725419044495,0.807116687297821,3.5,1,"['A/E1', 'B2', 'C1']",6.1,90,0,3.733196771071691,[6400|0|0]
15400,1.3358286619186401,0.4660772979259491,0.05339764803647995,-0.019934317097067833,-0.03595850616693497,0.9371187686920166,3.5,1,"['F1', 'B2', 'B1']",6.1,90,0,3.737392912071843,[6400|100|0]
15500,1.3394861221313477,0.4642334580421448,0.05016421526670456,-0.4464617073535919,-0.8390277028083801,1.2068896293640137,3.494140625,1,"['F1', 'B2', 'B1']",6.1,90,0,3.7426113264096763,[6400|200|0]
15600,1.3438043594360352,0.4623323380947113,0.04872550442814827,-0.6147063970565796,0.4216863811016083,0.6815410852432251,3.5,1,"['F1', 'B2', 'B1']",6.1,90,0,3.7475440051293076,[6400|300|0]
15700,1.3478446006774902,0.4626712501049042,0.05033494904637337,-0.7178173661231995,0.9133349657058716,0.3500060737133026,3.509765625,1,"['F1', 'B2', 'B1']",6.1,90,0,3.7519061975389727,[6400|400|0]
15800,1.3502646684646606,0.46409517526626587,0.052881158888339996,-0.09308812022209167,1.6688979864120483,0.5466529726982117,3.521484375,1,"['F1', 'B2', 'B1']",6.1,90,0,3.755696642831941,[6400|500|0]
15900,1.349862813949585,0.4650647044181824,0.055063627660274506,0.5100167393684387,0.8471607565879822,2.039677619934082,3.509765625,1,"['F1', 'B2', 'B1']",6.1,90,0,3.758118345490851,[6400|600|0]
16000,1.3476547002792358,0.46377038955688477,0.05501168221235275,1.0170519351959229,0.003740291576832533,2.935988426208496,3.5,1,"['F1', 'B2', 'B1']",6.1,90,0,3.760678368004603,[6400|700|0]
16100,1.344269871711731,0.4594256579875946,0.054818492382764816,-0.542300820350647,0.755397379398346,3.572038173675537,3.5,1,"['F1', 'B2', 'B1']",6.1,90,0,3.7661893642077264,[6400|800|0]
16201,1.3407729864120483,0.45499464869499207,0.054187458008527756,-0.024184226989746094,-0.7314239144325256,4.87371301651001,3.505859375,1,"['F1', 'B2', 'B1']",6.1,90,0,3.7718691753429434,[6400|900|0]
16301,1.3374474048614502,0.45082560181617737,0.05460312217473984,-0.003338445210829377,0.8410097360610962,6.007009029388428,3.5,1,"['F1', 'B2', 'B1']",6.1,90,0,3.7772183080975594,[6400|1000|0]
16401,1.3333444595336914,0.44527891278266907,0.054465848952531815,0.40382081270217896,-1.1073359251022339,5.580937385559082,3.494140625,1,"['F1', 'B2', 'B1']",6.1,90,0,3.784118943107075,[6400|1100|0]
16501,1.3292049169540405,0.44064638018608093,0.05429868400096893,-0.34628909826278687,-0.34913161396980286,3.81866717338562,3.48828125,1,"['F1', 'B2', 'B1']",6.1,90,0,3.7903337733660782,[6400|1200|0]
16601,1.325868010520935,0.43588706851005554,0.056228168308734894,-0.6811013221740723,0.11663166433572769,3.1255345344543457,3.5,1,"['F1', 'B2', 'B1']",6.1,90,0,3.796458224514285,[6400|1300|0]
16701,1.3219650983810425,0.43290212750434875,0.0586630143225193,-1.0672072172164917,0.613638699054718,2.7860488891601562,3.5,1,"['F1', 'B2', 'B1']",6.1,90,0,3.8019419341245864,[6400|1400|0]
16801,1.3189815282821655,0.43202683329582214,0.05984599515795708,0.2513887286186218,-0.7739026546478271,2.1289968490600586,3.5,1,"['F1', 'B2', 'B1']",6.1,90,0,3.805268685414269,[6400|1500|0]
16901,1.3166911602020264,0.4316689372062683,0.057215187698602676,0.07123512029647827,-0.08757764846086502,1.855208158493042,3.48828125,1,"['F1', 'B2', 'B1']",6.1,90,0,3.808775111435396,[6400|1600|0]
17002,1.3143881559371948,0.4312702417373657,0.055206090211868286,-1.8147976398468018,0.5937650203704834,0.7592595815658569,3.478515625,1,"['F1', 'B2', 'B1']",6.1,90,0,3.8118571982985388,[6400|1700|0]
17102,1.3133800029754639,0.4332272708415985,0.05369042605161667,0.2879575192928314,-0.7996054291725159,0.914728045463562,3.48828125,1,"['F1', 'B2', 'B1']",6.1,90,0,3.8145299446680494,[6400|1800|0]
17202,1.3129854202270508,0.436233252286911,0.05509303882718086,-0.10000979900360107,2.024678945541382,1.176723837852478,3.48828125,1,"['F1', 'B2', 'B1']",6.1,90,0,3.817870445018758,[6400|1900|0]
17300,1.3114984035491943,0.4409177303314209,0.054523881524801254,-1.4591621160507202,-1.1719826459884644,1.3976597785949707,3.478515625,1,"['F1', 'B2', 'B1']",6.1,90,0,3.822818120552235,[6400|2000|0]
17400,1.3098456859588623,0.44829556345939636,0.04247467592358589,3.438122272491455,5.318160057067871,4.643944263458252,3.927734375,1,"['F1', 'B2', 'B1']",6.1,90,0,3.8370430020181034,[6400|2100|0]
17500,1.3044570684432983,0.45290565490722656,-0.004188434686511755,10.100489616394043,7.008854389190674,11.529792785644531,3.931640625,1,"['F1', 'B2', 'B1']",6.1,90,0,3.8842419006672944,[6400|2200|0]
17600,1.3033045530319214,0.4476385712623596,-0.0011527114547789097,10.286613464355469,5.282898426055908,17.03800392150879,3.9375,1,"['F1', 'B2', 'B1']",6.1,90,0,3.890429475106052,[6400|2300|0]
17700,1.2954493761062622,0.4519052505493164,-0.0016184726264327765,0.11022079735994339,15.239216804504395,15.91541576385498,3.9375,1,"['F1', 'B2', 'B1']",6.1,90,0,3.899380748207694,[6400|2400|0]
17800,1.2956881523132324,0.45205312967300415,-0.0013826391659677029,0.1385636031627655,15.016600608825684,16.0247802734375,3.943359375,1,"['F1', 'B2', 'B1']",6.1,90,0,3.899747490260522,[6400|2500|0]
17900,1.2953490018844604,0.45205676555633545,-0.0017199378926306963,0.02520219050347805,14.98311710357666,16.092443466186523,3.943359375,1,"['F1', 'B2', 'B1']",6.1,90,0,3.900225827656083,[6400|2600|0]
18000,1.2956856489181519,0.4519978165626526,-0.0016691017663106322,0.0002177066053263843,14.883157730102539,16.1295108795166,3.943359375,1,"['F1', 'B2', 'B1']",6.1,90,0,3.900571356990422,[6400|2700|0]
18100,1.2954081296920776,0.45199069380760193,-0.0016354736872017384,-0.048048388212919235,14.846317291259766,16.180084228515625,3.94921875,1,"['F1', 'B2', 'B1']",6.1,90,0,3.9008509969414034,[6400|2800|0]
18200,1.2954201698303223,0.45233407616615295,-0.001816516974940896,-0.0836726725101471,14.804278373718262,16.210983276367188,3.94921875,1,"['F1', 'B2', 'B1']",6.1,90,0,3.9012393692899665,[6400|2900|0]
18300,1.295373797416687,0.45248159766197205,-0.0019699237309396267,-0.11381524056196213,14.780123710632324,16.23291015625,3.94921875,1,"['F1', 'B2', 'B1']",6.1,90,0,3.9014571917526766,[6400|3000|0]
18400,1.2974047660827637,0.4509959816932678,-0.0016732329968363047,3.175926685333252,11.521346092224121,15.535503387451172,3.953125,1,"['F1', 'B2', 'B1']",6.1,90,0,3.9039909466580998,[6400|3100|0]
18500,1.3037785291671753,0.44280967116355896,-0.0015332532348111272,13.616218566894531,0.9694318771362305,17.60651969909668,3.953125,1,"['F1', 'B2', 'B1']",6.1,90,0,3.914366886628956,[6400|3200|0]
18600,1.287198543548584,0.4485076665878296,0.00369402882643044,-0.5503557920455933,24.776798248291016,3.9249749183654785,3.953125,1,"['F1', 'B2', 'B1']",6.1,90,0,3.932661354446181,[6400|3300|0]
18700,1.28346586227417,0.4642621576786041,0.029050346463918686,-3.9984359741210938,20.27585220336914,-0.48233848810195923,3.953125,1,"['F1', 'B2', 'B1']",6.1,90,0,3.962745897706115,[6400|3400|0]
18800,1.2998558282852173,0.5058296918869019,0.05010542646050453,-13.515447616577148,5.969606399536133,-11.40649700164795,3.953125,1,"['F1', 'B2', 'B1']",6.1,90,0,4.012140303053926,[6400|3500|0]
18900,1.3325552940368652,0.5254207849502563,0.030097445473074913,-8.630929946899414,6.1122565269470215,-12.743285179138184,3.958984375,1,"['F1', 'B2', 'B1']",6.1,90,0,4.0551912646117545,[6400|3600|0]
19000,1.3496750593185425,0.5337083339691162,0.014050555415451527,-7.050447940826416,4.147883415222168,-14.191481590270996,3.958984375,1,"['F1', 'B2', 'B1']",6.1,90,0,4.080076451220683,[6400|3700|0]
19100,1.3538260459899902,0.5261173844337463,0.003482136642560363,-1.9088548421859741,1.859656810760498,-13.341925621032715,3.958984375,1,"['F1', 'B2', 'B1']",6.1,90,0,4.093734587277783,[6400|3800|0]
19200,1.3552842140197754,0.525962233543396,0.0034253480844199657,-3.4054219722747803,-0.09813613444566727,-11.902695655822754,3.958984375,1,"['F1', 'B2', 'B1']",6.1,90,0,4.095202085401189,[6400|3900|0]
19300,1.3569470643997192,0.5277279615402222,0.003836854826658964,-3.32700252532959,0.5374982357025146,-9.52632999420166,3.958984375,1,"['F1', 'B2', 'B1']",6.1,90,0,4.097662208272869,[6400|4000|0]
19400,1.3561592102050781,0.5253952145576477,0.002352177631109953,3.0575335025787354,-2.382415771484375,-8.63640308380127,3.96484375,1,"['F1', 'B2', 'B1']",6.1,90,0,4.1005373933263405,[6400|4100|0]
19500,1.3540338277816772,0.5239610075950623,0.0012248014099895954,4.399462699890137,-4.800997257232666,-6.290419578552246,3.96484375,1,"['F1', 'B2', 'B1']",6.1,90,0,4.103338317673976,[6400|4200|0]
19600,1.3523292541503906,0.5232676267623901,0.0012888319324702024,3.924848794937134,-4.932888031005859,-4.817371845245361,3.96484375,1,"['F1', 'B2', 'B1']",6.1,90,0,4.105179634635122,[6400|4300|0]
19700,1.352813482284546,0.5239365696907043,0.0009003970772027969,2.7664198875427246,-5.207896709442139,-4.469318866729736,3.96484375,1,"['F1', 'B2', 'B1']",6.1,90,0,4.106092237048024,[6400|4400|0]
19800,1.353084683418274,0.5253084301948547,0.000649554654955864,1.6361653804779053,-5.277678966522217,-4.393660545349121,3.96875,1,"['F1', 'B2', 'B1']",6.1,90,0,4.107512966867019,[6400|4500|0]
19900,1.3532301187515259,0.525097131729126,0.0008569194469600916,1.6180779933929443,-5.151494979858398,-4.514980316162109,3.96875,1,"['F1', 'B2', 'B1']",6.1,90,0,4.107842813247537,[6400|4600|0]
20000,1.3533031940460205,0.5252547264099121,0.0006930144736543298,1.598115086555481,-5.03917932510376,-4.638525485992432,4.04296875,1,"['F1', 'B2', 'B1']",6.1,90,0,4.108081645662321,[6400|4700|0]
20100,1.3527146577835083,0.5256717801094055,0.0006414004601538181,1.5844449996948242,-4.92246150970459,-4.719370365142822,4.04296875,1,"['F1', 'B2', 'B1']",6.1,90,0,4.108804814195198,[6400|4800|0]
20200,1.352752923965454,0.525467574596405,0.0007206699810922146,1.5885298252105713,-4.844554424285889,-4.774923801422119,4.046875,1,"['F1', 'B2', 'B1']",6.1,90,0,4.109027182918651,[6400|4900|0]
20300,1.3527729511260986,0.5253362059593201,0.0005834256298840046,1.5931220054626465,-4.784779071807861,-4.839498519897461,4.046875,1,"['F1', 'B2', 'B1']",6.1,90,0,4.1092182190877695,[6400|5000|0]
20400,1.3528908491134644,0.5252468585968018,0.0007967767305672169,1.5921608209609985,-4.732132911682129,-4.870392799377441,4.046875,1,"['F1', 'B2', 'B1']",6.1,90,0,4.109477837228077,[6400|5100|0]
20500,1.3526484966278076,0.5252220034599304,0.0005924883880652487,1.6028101444244385,-4.66788387298584,-4.881885051727295,4.046875,1,"['F1', 'B2', 'B1']",6.1,90,0,4.109795777838907,[6400|5200|0]
20600,1.3525700569152832,0.5255696773529053,0.000555778038688004,1.6101661920547485,-4.566296100616455,-4.899099349975586,4.046875,1,"['F1', 'B2', 'B1']",6.1,90,0,4.110154076002604,[6400|5300|0]
20700,1.3526569604873657,0.5257485508918762,0.000291505828499794,1.6316986083984375,-4.477480411529541,-4.926008701324463,4.0546875,1,"['F1', 'B2', 'B1']",6.1,90,0,4.110484814229699,[6400|5400|0]
20800,1.352434515953064,0.5255446434020996,0.00045575728290714324,1.6466476917266846,-4.455804347991943,-4.921599388122559,4.0546875,1,"['F1', 'B2', 'B1']",6.1,90,0,4.110828381363609,[6400|5500|0]
20900,1.3523544073104858,0.5253667235374451,0.000721199729014188,1.6530156135559082,-4.437133312225342,-4.948268890380859,4.0546875,1,"['F1', 'B2', 'B1']",6.1,90,0,4.111157824173592,[6400|5600|0]
21000,1.3526108264923096,0.5254125595092773,0.0006958761950954795,1.6530745029449463,-4.428277492523193,-4.965782642364502,4.0546875,1,"['F1', 'B2', 'B1']",6.1,90,0,4.111419535874689,[6400|5700|0]
21100,1.352376937866211,0.5252245664596558,0.0005196543643251061,1.6565951108932495,-4.416903972625732,-4.945644378662109,4.0546875,1,"['F1', 'B2', 'B1']",6.1,90,0,4.111767529279461,[6400|5800|0]
21200,1.3526853322982788,0.5251383185386658,0.0005713240243494511,1.6569350957870483,-4.420804977416992,-4.94192361831665,4.05859375,1,"['F1', 'B2', 'B1']",6.1,90,0,4.112091898796174,[6400|5900|0]
21300,1.3526664972305298,0.5251424908638,0.000650229281745851,1.6562327146530151,-4.413468360900879,-4.944390296936035,4.05859375,1,"['F1', 'B2', 'B1']",6.1,90,0,4.1121731281487435,[6400|6000|0]
21400,1.3528016805648804,0.5252664089202881,0.0007482782239094377,1.6470513343811035,-4.407975673675537,-4.941042900085449,4.05859375,1,"['F1', 'B2', 'B1']",6.1,90,0,4.112381079618249,[6400|6100|0]
21500,1.3524794578552246,0.5253163576126099,0.0009776684455573559,1.6430573463439941,-4.395666122436523,-4.9480133056640625,4.05859375,1,"['F1', 'B2', 'B1']",6.1,90,0,4.112779755200985,[6400|6200|0]
21600,1.3524863719940186,0.5253065228462219,0.0005231277900747955,1.6478780508041382,-4.391175270080566,-4.9530768394470215,4.05859375,1,"['F1', 'B2', 'B1']",6.1,90,0,4.113234454811092,[6400|6300|0]
21700,1.3523772954940796,0.525262713432312,0.0007035846938379109,1.648121953010559,-4.382053375244141,-4.953685760498047,4.05859375,1,"['F1', 'B2', 'B1']",6.1,90,0,4.113449818786032,[6400|6400|0]
21800,1.3524261713027954,0.5254957675933838,0.0006318071973510087,1.6368969678878784,-4.382828712463379,-4.9635467529296875,4.06640625,1,"['F1', 'B2', 'B1']",6.1,90,0,4.113698525632887,[6400|6500|0]
21900,1.3525296449661255,0.5256584882736206,0.0005539264529943466,1.631000280380249,-4.3901896476745605,-4.9725260734558105,4.06640625,1,"['F1', 'B2', 'B1']",6.1,90,0,4.113906492527178,[6400|6600|0]
22000,1.352352261543274,0.5256094932556152,0.000669710454531014,1.6372172832489014,-4.388437271118164,-4.97175931930542,4.06640625,1,"['F1', 'B2', 'B1']",6.1,90,0,4.114123912226156,[6400|6700|0]
22100,1.3526030778884888,0.5252666473388672,0.00063947873422876,1.6494170427322388,-4.3908867835998535,-4.958066463470459,4.06640625,1,"['F1', 'B2', 'B1']",6.1,90,0,4.1145497832378135,[6400|6800|0]
22200,1.3526231050491333,0.5253772735595703,0.00036240494227968156,1.643908143043518,-4.400993347167969,-4.952345371246338,4.06640625,1,"['F1', 'B2', 'B1']",6.1,90,0,4.1148487968396035,[6400|6900|0]
22300,1.3525205850601196,0.525456964969635,0.0003297963412478566,1.64026939868927,-4.3927202224731445,-4.959333896636963,4.06640625,1,"['F1', 'B2', 'B1']",6.1,90,0,4.114982678839315,[6400|7000|0]
22400,1.3525903224945068,0.5252335071563721,0.0007582852267660201,1.6397247314453125,-4.392327308654785,-4.974575996398926,4.06640625,1,"['F1', 'B2', 'B1']",6.1,90,0,4.115470940479295,[6400|7100|0]
22500,1.3525952100753784,0.5250804424285889,0.00045016719377599657,1.6368632316589355,-4.383528709411621,-4.982046604156494,4.0703125,1,"['F1', 'B2', 'B1']",6.1,90,0,4.115815018118195,[6400|7200|0]
22600,1.352301836013794,0.5257678627967834,0.00040321980486623943,1.6244441270828247,-4.373743534088135,-4.96937894821167,4.0703125,1,"['F1', 'B2', 'B1']",6.1,90,0,4.116563896719803,[6400|7300|0]
22700,1.3523927927017212,0.52540123462677,0.0009556905133649707,1.6328716278076172,-4.378538131713867,-4.976673126220703,4.0703125,1,"['F1', 'B2', 'B1']",6.1,90,0,4.117233159910091,[6400|7400|0]
22800,1.3525190353393555,0.5251621603965759,0.0008020831737667322,1.6375923156738281,-4.379316329956055,-4.9716315269470215,4.0703125,1,"['F1', 'B2', 'B1']",6.1,90,0,4.117544108307544,[6400|7500|0]
22900,1.3525166511535645,0.5255537629127502,0.0007844334468245506,1.6233195066452026,-4.392489910125732,-4.98993444442749,4.0703125,1,"['F1', 'B2', 'B1']",6.1,90,0,4.117936115613442,[6400|7600|0]
23000,1.3522182703018188,0.525757372379303,0.00048758796765469015,1.6232669353485107,-4.388766288757324,-4.968364238739014,4.0703125,1,"['F1', 'B2', 'B1']",6.1,90,0,4.118403667948546,[6400|7700|0]
23100,1.35256826877594,0.5253573060035706,0.000975503702647984,1.6348289251327515,-4.395761966705322,-4.967618465423584,4.07421875,1,"['F1', 'B2', 'B1']",6.1,90,0,4.119125203672771,[6400|7800|0]
23200,1.3523012399673462,0.5252822041511536,0.0008616127888672054,1.6360887289047241,-4.387580394744873,-4.979673862457275,4.07421875,1,"['F1', 'B2', 'B1']",6.1,90,0,4.119425063328438,[6400|7900|0]
23300,1.352665662765503,0.5256636738777161,0.00042955222306773067,1.6311914920806885,-4.4079270362854,-4.97783899307251,4.07421875,1,"['F1', 'B2', 'B1']",6.1,90,0,4.120106972017794,[6400|8000|0]
23400,1.3524402379989624,0.5255045294761658,0.0010196801740676165,1.634330153465271,-4.402106761932373,-4.985297679901123,4.07421875,1,"['F1', 'B2', 'B1']",6.1,90,0,4.120758427514713,[6400|8100|0]
23500,1.3524529933929443,0.5253170728683472,0.0007605932187289,1.6385914087295532,-4.408761501312256,-4.98410177230835,4.07421875,1,"['F1', 'B2', 'B1']",6.1,90,0,4.121078472402685,[6400|8200|0]
23600,1.352379322052002,0.525502622127533,0.0005499253165908158,1.6295862197875977,-4.411475658416748,-4.98533821105957,4.07421875,1,"['F1', 'B2', 'B1']",6.1,90,0,4.121368708442921,[6400|8300|0]
23700,1.3526688814163208,0.5252509713172913,0.0009198531042784452,1.632681131362915,-4.4208784103393555,-4.996383190155029,4.07421875,1,"['F1', 'B2', 'B1']",6.1,90,0,4.121901643076683,[6400|8400|0]
23800,1.3526725769042969,0.5249741673469543,0.0005605642218142748,1.6405160427093506,-4.4224162101745605,-5.009218215942383,4.07421875,1,"['F1', 'B2', 'B1']",6.1,90,0,4.122355209605086,[6400|8500|0]
23900,1.352595329284668,0.5250430107116699,0.0009778173407539725,1.6368505954742432,-4.4281697273254395,-5.015973091125488,4.07421875,1,"['F1', 'B2', 'B1']",6.1,90,0,4.1227851011831245,[6400|8600|0]
24000,1.3525362014770508,0.5256459712982178,0.0006635428289882839,1.6256048679351807,-4.4226179122924805,-4.982529163360596,4.07421875,1,"['F1', 'B2', 'B1']",6.1,90,0,4.123467615677702,[6400|8700|0]
24100,1.352715015411377,0.5255655646324158,0.0009378754766657948,1.634711503982544,-4.42263126373291,-4.975154399871826,4.08203125,1,"['F1', 'B2', 'B1']",6.1,90,0,4.1238048071019655,[6400|8800|0]
24200,1.3527315855026245,0.5253713130950928,0.0004820892936550081,1.6350899934768677,-4.418045997619629,-4.963451862335205,4.08203125,1,"['F1', 'B2', 'B1']",6.1,90,0,4.124300538150317,[6400|8900|0]
24300,1.352229356765747,0.525484025478363,0.000714654684998095,1.6307629346847534,-4.40204381942749,-4.991530895233154,4.08203125,1,"['F1', 'B2', 'B1']",6.1,90,0,4.12486536064167,[6400|9000|0]
24400,1.3522433042526245,0.5256116390228271,0.00037411332596093416,1.6231358051300049,-4.402894496917725,-4.987162113189697,4.08203125,1,"['F1', 'B2', 'B1']",6.1,90,0,4.125229294930156,[6400|9100|0]
24500,1.3523316383361816,0.5254179239273071,0.0006379568949341774,1.6272143125534058,-4.407388687133789,-4.97586727142334,4.08203125,1,"['F1', 'B2', 'B1']",6.1,90,0,4.12556832572144,[6400|9200|0]
24600,1.3523890972137451,0.5253702402114868,0.0007912868168205023,1.6331217288970947,-4.410763740539551,-4.989124774932861,4.08203125,1,"['F1', 'B2', 'B1']",6.1,90,0,4.125738869921902,[6400|9300|0]
24700,1.3525183200836182,0.5255843997001648,0.0007242278079502285,1.6354482173919678,-4.415173053741455,-4.980672359466553,4.08203125,1,"['F1', 'B2', 'B1']",6.1,90,0,4.125997828890388,[6400|9400|0]
24800,1.3524762392044067,0.5252044200897217,0.0004882589855697006,1.6435859203338623,-4.415289878845215,-4.968792915344238,4.08203125,1,"['F1', 'B2', 'B1']",6.1,90,0,4.126447091163324,[6400|9500|0]
24900,1.3524459600448608,0.5253341197967529,0.0008656051941215992,1.6373833417892456,-4.4143195152282715,-4.958278179168701,4.0859375,1,"['F1', 'B2', 'B1']",6.1,90,0,4.126847252384103,[6400|9600|0]
25000,1.3525567054748535,0.5253932476043701,0.0006768986349925399,1.6315048933029175,-4.41610860824585,-4.950546741485596,4.0859375,1,"['F1', 'B2', 'B1']",6.1,90,0,4.127073903687554,[6400|9700|0]
25100,1.352510690689087,0.5254571437835693,0.0005681084003299475,1.6265654563903809,-4.416244029998779,-4.962202072143555,4.0859375,1,"['F1', 'B2', 'B1']",6.1,90,0,4.127208199619672,[6400|9800|0]
25200,1.3523005247116089,0.5255362391471863,0.000608154630754143,1.6302361488342285,-4.415998935699463,-4.954242706298828,4.0859375,1,"['F1', 'B2', 'B1']",6.1,90,0,4.127436299411882,[6400|9900|0]
25300,1.3525153398513794,0.5253762602806091,0.0010420107282698154,1.636570930480957,-4.423954486846924,-4.974205017089844,4.0859375,1,"['F1', 'B2', 'B1']",6.1,90,0,4.1279461718423756,[6400|10000|0]
25400,1.352230191230774,0.5256309509277344,0.00045854313066229224,1.6346657276153564,-4.402268886566162,-4.949788570404053,4.0859375,1,"['F1', 'B2', 'B1']",6.1,90,0,4.128643747285625,[6400|10100|0]
25500,1.3526071310043335,0.5254889130592346,0.0009535064455121756,1.6442234516143799,-4.4098286628723145,-4.953711986541748,4.0859375,1,"['F1', 'B2', 'B1']",6.1,90,0,4.129281906381796,[6400|10200|0]
25600,1.3527507781982422,0.5254262685775757,0.00047057101619429886,1.6441395282745361,-4.413958549499512,-4.952274322509766,4.0859375,1,"['F1', 'B2', 'B1']",6.1,90,0,4.129789632170279,[6400|10300|0]
25700,1.3528757095336914,0.5250447988510132,0.0006697903736494482,1.6510710716247559,-4.414520263671875,-4.964849948883057,4.0859375,1,"['F1', 'B2', 'B1']",6.1,90,0,4.1302377564200645,[6400|10400|0]
25800,1.3526499271392822,0.5255460739135742,0.0006576064042747021,1.6368796825408936,-4.402862548828125,-4.9515533447265625,4.0859375,1,"['F1', 'B2', 'B1']",6.1,90,0,4.1307876680739515,[6400|10500|0]
25900,1.35231351852417,0.5254372358322144,0.0006965084467083216,1.6407116651535034,-4.391951560974121,-4.950833320617676,4.0859375,1,"['F1', 'B2', 'B1']",6.1,90,0,4.13114337842407,[6400|10600|0]
26000,1.35261070728302,0.5250198841094971,0.0005529726622626185,1.6478701829910278,-4.402568817138672,-4.96436071395874,4.0859375,1,"['F1', 'B2', 'B1']",6.1,90,0,4.13167545561796,[6400|10700|0]
26100,1.3523467779159546,0.5252829194068909,0.0008313938742503524,1.6416982412338257,-4.388834476470947,-4.951415061950684,4.08984375,1,"['F1', 'B2', 'B1']",6.1,90,0,4.132140605754754,[6400|10800|0]
26200,1.3524929285049438,0.5252952575683594,0.0009894948452711105,1.6410773992538452,-4.3948163986206055,-4.973326206207275,4.08984375,1,"['F1', 'B2', 'B1']",6.1,90,0,4.1323562632190995,[6400|10900|0]
26300,1.3525686264038086,0.5254757404327393,0.0006057040300220251,1.6356672048568726,-4.3988447189331055,-4.9504570960998535,4.08984375,1,"['F1', 'B2', 'B1']",6.1,90,0,4.13278707596972,[6400|11000|0]
26400,1.352599859237671,0.525057852268219,0.0009497608989477158,1.64180326461792,-4.396687984466553,-4.967967510223389,4.08984375,1,"['F1', 'B2', 'B1']",6.1,90,0,4.133329276243615,[6400|11100|0]
26500,1.3523756265640259,0.5251285433769226,0.0008916223305277526,1.6408071517944336,-4.388570308685303,-4.960578918457031,4.08984375,1,"['F1', 'B2', 'B1']",6.1,90,0,4.133571469591827,[6400|11200|0]
26600,1.3522944450378418,0.5251263380050659,0.0010016803862527013,1.6388499736785889,-4.388472080230713,-4.978115558624268,4.08984375,1,"['F1', 'B2', 'B1']",6.1,90,0,4.133708247073484,[6400|11300|0]
26700,1.352613091468811,0.525000274181366,0.0007293791277334094,1.6411795616149902,-4.396883487701416,-4.980696201324463,4.08984375,1,"['F1', 'B2', 'B1']",6.1,90,0,4.134145940586123,[6400|11400|0]
26800,1.3525162935256958,0.5254855751991272,0.0008162229205481708,1.6280146837234497,-4.385193824768066,-4.9636125564575195,4.08984375,1,"['F1', 'B2', 'B1']",6.1,90,0,4.134648363479692,[6400|11500|0]
26900,1.3524563312530518,0.5254506468772888,0.0005766375106759369,1.6318663358688354,-4.383676528930664,-4.9645771980285645,4.08984375,1,"['F1', 'B2', 'B1']",6.1,90,0,4.134897796096706,[6400|11600|0]
27000,1.3527344465255737,0.5250470042228699,0.0007778293220326304,1.6422039270401,-4.393617153167725,-4.961945533752441,4.08984375,1,"['F1', 'B2', 'B1']",6.1,90,0,4.1354276580053515,[6400|11700|0]
27100,1.3524889945983887,0.5254008769989014,0.0008031261386349797,1.6319892406463623,-4.38479471206665,-4.976884365081787,4.08984375,1,"['F1', 'B2', 'B1']",6.1,90,0,4.1358590656074,[6400|11800|0]
27200,1.3524153232574463,0.5252445340156555,0.0009325613500550389,1.6363670825958252,-4.387030601501465,-4.972723007202148,4.08984375,1,"['F1', 'B2', 'B1']",6.1,90,0,4.136074991680031,[6400|11900|0]
27300,1.3525702953338623,0.5254659056663513,0.0010180730605497956,1.6303445100784302,-4.392723560333252,-4.974652290344238,4.09765625,1,"['F1', 'B2', 'B1']",6.1,90,0,4.13635842422021,[6400|12000|0]
27400,1.352721095085144,0.5251866579055786,0.00076871964847669,1.6348378658294678,-4.400213241577148,-4.968270778656006,4.09765625,1,"['F1', 'B2', 'B1']",6.1,90,0,4.136762029226367,[6400|12100|0]
27500,1.3524279594421387,0.5251554250717163,0.000924276071600616,1.6403133869171143,-4.391427993774414,-4.978699684143066,4.08984375,1,"['F1', 'B2', 'B1']",6.1,90,0,4.137095348586571,[6400|12200|0]
27600,1.3526315689086914,0.5249874591827393,0.0008641434833407402,1.6463440656661987,-4.396338939666748,-4.992343425750732,4.09765625,1,"['F1', 'B2', 'B1']",6.1,90,0,4.137366061133196,[6400|12300|0]
27700,1.3525224924087524,0.5254210829734802,0.0005167562048882246,1.6325509548187256,-4.396621227264404,-4.978209495544434,4.09765625,1,"['F1', 'B2', 'B1']",6.1,90,0,4.137932281228182,[6400|12400|0]
27800,1.352649211883545,0.5254690051078796,0.0008396113989874721,1.6271289587020874,-4.403590679168701,-5.009357929229736,4.09765625,1,"['F1', 'B2', 'B1']",6.1,90,0,4.138282409536969,[6400|12500|0]
27900,1.3529311418533325,0.5255776643753052,0.00054827646818012,1.632220983505249,-4.407534599304199,-4.984505653381348,4.09765625,1,"['F1', 'B2', 'B1']",6.1,90,0,4.138702132524391,[6400|12600|0]
28000,1.3523715734481812,0.5254242420196533,0.0005185307236388326,1.643735647201538,-4.399311542510986,-4.98258113861084,4.09765625,1,"['F1', 'B2', 'B1']",6.1,90,0,4.139283114476413,[6400|12700|0]
28100,1.3527501821517944,0.5253969430923462,0.0005051286425441504,1.6492893695831299,-4.412583351135254,-4.97352933883667,4.09765625,1,"['F1', 'B2', 'B1']",6.1,90,0,4.139662942592357,[6400|12800|0]
28200,1.3529818058013916,0.52532559633255,0.0007837738958187401,1.6485029458999634,-4.415771961212158,-4.975790977478027,4.09765625,1,"['F1', 'B2', 'B1']",6.1,90,0,4.14003224335374,[6400|12900|0]
28300,1.3528858423233032,0.5252822041511536,0.0008438358781859279,1.646189570426941,-4.410843372344971,-4.992442607879639,4.09765625,1,"['F1', 'B2', 'B1']",6.1,90,0,4.140153484074041,[6400|13000|0]
28400,1.3525521755218506,0.5254710912704468,0.0005644409684464335,1.6376538276672363,-4.408285617828369,-4.9945902824401855,4.09765625,1,"['F1', 'B2', 'B1']",6.1,90,0,4.140627903080632,[6400|13100|0]
28500,1.3524250984191895,0.525417149066925,0.0004953888710588217,1.6365984678268433,-4.409684658050537,-4.992635250091553,4.09765625,1,"['F1', 'B2', 'B1']",6.1,90,0,4.140782261570826,[6400|13200|0]
28600,1.3525830507278442,0.525068998336792,0.0007587329018861055,1.646322250366211,-4.413333892822266,-4.986395835876465,4.09765625,1,"['F1', 'B2', 'B1']",6.1,90,0,4.141246489899641,[6400|13300|0]
28700,1.3527677059173584,0.5253918766975403,0.0009558217716403306,1.6351836919784546,-4.422912120819092,-4.977289199829102,4.09765625,1,"['F1', 'B2', 'B1']",6.1,90,0,4.141667431697797,[6400|13400|0]
28800,1.3525540828704834,0.5254284143447876,0.000775531807448715,1.6331088542938232,-4.412999153137207,-4.979698657989502,4.1015625,1,"['F1', 'B2', 'B1']",6.1,90,0,4.141949343522683,[6400|13500|0]
28900,1.3524781465530396,0.5253505706787109,0.00045126478653401136,1.632944107055664,-4.408087730407715,-4.972243785858154,4.1015625,1,"['F1', 'B2', 'B1']",6.1,90,0,4.142291359694096,[6400|13600|0]
29000,1.3525649309158325,0.5253526568412781,0.0003573659050744027,1.6368321180343628,-4.415962219238281,-4.9753804206848145,4.09765625,1,"['F1', 'B2', 'B1']",6.1,90,0,4.142419238064585,[6400|13700|0]
29100,1.3527113199234009,0.525214672088623,0.0006770888576284051,1.6438729763031006,-4.419592380523682,-4.966536998748779,4.1015625,1,"['F1', 'B2', 'B1']",6.1,90,0,4.142796984407906,[6400|13800|0]
29200,1.3526296615600586,0.5255028605461121,0.0009419063571840525,1.6322379112243652,-4.410765647888184,-4.968331813812256,4.1015625,1,"['F1', 'B2', 'B1']",6.1,90,0,4.143196795592598,[6400|13900|0]
29300,1.35244882106781,0.5251332521438599,0.0007604184793308377,1.6422522068023682,-4.407886028289795,-4.9575371742248535,4.1015625,1,"['F1', 'B2', 'B1']",6.1,90,0,4.143646519401685,[6400|14000|0]
29400,1.3523598909378052,0.5254610776901245,0.0007083859527483582,1.6325981616973877,-4.411032199859619,-4.959868907928467,4.1015625,1,"['F1', 'B2', 'B1']",6.1,90,0,4.143990155169074,[6400|14100|0]
29500,1.3525453805923462,0.5252965688705444,0.0010518430499359965,1.6317707300186157,-4.422213077545166,-4.96699333190918,4.1015625,1,"['F1', 'B2', 'B1']",6.1,90,0,4.1444137497172795,[6400|14200|0]
29600,1.352554440498352,0.5252931714057922,0.0005760402418673038,1.6282966136932373,-4.427813529968262,-4.969789028167725,4.1015625,1,"['F1', 'B2', 'B1']",6.1,90,0,4.144889650901171,[6400|14300|0]
29700,1.3523825407028198,0.5254297852516174,0.0005863324040547013,1.621577501296997,-4.424332618713379,-4.966307163238525,4.1015625,1,"['F1', 'B2', 'B1']",6.1,90,0,4.1451094663036745,[6400|14400|0]
29800,1.3526071310043335,0.5253409743309021,0.0009528829250484705,1.6271491050720215,-4.42767858505249,-4.956893444061279,4.1015625,1,"['F1', 'B2', 'B1']",6.1,90,0,4.145548428110229,[6400|14500|0]
29900,1.3523380756378174,0.5254321098327637,0.0008256678702309728,1.6293330192565918,-4.415905475616455,-4.955408096313477,4.1015625,1,"['F1', 'B2', 'B1']",6.1,90,0,4.145859683857362,[6400|14600|0]
