time.ms,stateEstimate.x,stateEstimate.y,stateEstimate.z,stabilizer.roll,stabilizer.pitch,stabilizer.yaw,pm.vbat,drone_id,node_name,wind_speed,global_wind_direction,relative_wind_direction,travel_dist,waiting_time
0,1.6719731092453003,1.1531124114990234,-0.029335837811231613,-0.3527705669403076,0.9490858912467957,3.8499674797058105,4.12109375,0,"['A1', 'B2', 'F2']",6.1,90,0,0.059513484736063785,[100|0|0]
100,1.672228455543518,1.1528741121292114,-0.029221422970294952,-0.04286308214068413,0.11402662843465805,3.9059531688690186,4.12109375,0,"['A1', 'B2', 'F2']",6.1,90,0,0.059881015792564975,[200|0|0]
200,1.6719634532928467,1.152074933052063,-0.02896491251885891,-0.09329206496477127,0.2853214144706726,4.047378063201904,4.12890625,0,"['A1', 'B2', 'F2']",6.1,90,0,0.06076119248045704,[300|0|0]
300,1.6721051931381226,1.152468204498291,-0.028907738626003265,-0.324363112449646,0.4820324778556824,4.092121601104736,4.12109375,0,"['A1', 'B2', 'F2']",6.1,90,0,0.0611831183841195,[400|0|0]
400,1.6719337701797485,1.1530033349990845,-0.02923957072198391,-0.4534924030303955,0.654519259929657,4.057102680206299,4.12109375,0,"['A1', 'B2', 'F2']",6.1,90,0,0.06183570019773375,[500|0|0]
500,1.671890139579773,1.1528348922729492,-0.029422825202345848,-0.4464625418186188,0.7642366290092468,4.035120010375977,4.12109375,0,"['A1', 'B2', 'F2']",6.1,90,0,0.0620884031573817,[600|0|0]
600,1.6718637943267822,1.1527677774429321,-0.029507748782634735,-0.4389672577381134,0.8203073143959045,3.978257179260254,4.12890625,0,"['A1', 'B2', 'F2']",6.1,90,0,0.06219980552383974,[700|0|0]
700,1.6719720363616943,1.1527259349822998,-0.02945871092379093,-0.42961281538009644,0.8541935086250305,3.9594438076019287,4.12109375,0,"['A1', 'B2', 'F2']",6.1,90,0,0.06232578901971784,[800|0|0]
800,1.6722090244293213,1.1529098749160767,-0.029483534395694733,-0.42430558800697327,0.8630374670028687,3.9232122898101807,4.12890625,0,"['A1', 'B2', 'F2']",6.1,90,0,0.06262680969706866,[900|0|0]
900,1.6718347072601318,1.1528159379959106,-0.029459038749337196,-0.41526105999946594,0.8999643325805664,3.9126079082489014,4.12109375,0,"['A1', 'B2', 'F2']",6.1,90,0,0.063013510517873,[1000|0|0]
1000,1.6719805002212524,1.1527886390686035,-0.029077420011162758,-0.4051749110221863,0.9137699007987976,3.909778594970703,4.12890625,0,"['A1', 'B2', 'F2']",6.1,90,0,0.0634229414403377,[1100|0|0]
1100,1.6717267036437988,1.1527228355407715,-0.029825793579220772,-0.39218419790267944,0.9315447807312012,3.909517288208008,4.12890625,0,"['A1', 'B2', 'F2']",6.1,90,0,0.06421591420429001,[1200|0|0]
1200,1.6719677448272705,1.1529490947723389,-0.02956089749932289,-0.38760650157928467,0.92549067735672,3.894141674041748,4.12109375,0,"['A1', 'B2', 'F2']",6.1,90,0,0.06463954614966731,[1300|0|0]
1300,1.6720930337905884,1.152835488319397,-0.029102284461259842,-0.379146546125412,0.9325392246246338,3.8855364322662354,4.12109375,0,"['A1', 'B2', 'F2']",6.1,90,0,0.06512835047571273,[1400|0|0]
1400,1.6720573902130127,1.1530604362487793,-0.02913619950413704,-0.3783018887042999,0.9343303442001343,3.8680169582366943,4.12109375,0,"['A1', 'B2', 'F2']",6.1,90,0,0.06535861611728601,[1500|0|0]
1500,1.6721413135528564,1.1527531147003174,-0.029500626027584076,-0.36797359585762024,0.933650016784668,3.853347063064575,4.12109375,0,"['A1', 'B2', 'F2']",6.1,90,0,0.06584265780155633,[1600|0|0]
1600,1.6722548007965088,1.152883768081665,-0.02945646084845066,-0.37226012349128723,0.9416694641113281,3.8460285663604736,4.12109375,0,"['A1', 'B2', 'F2']",6.1,90,0,0.06602126413844635,[1700|0|0]
1700,1.6719359159469604,1.1524776220321655,-0.02949775755405426,-0.3689393997192383,0.9494204521179199,3.8461058139801025,4.12890625,0,"['A1', 'B2', 'F2']",6.1,90,0,0.06653928689729893,[1800|0|0]
1800,1.6720489263534546,1.1528548002243042,-0.02956560254096985,-0.37891489267349243,0.9443721175193787,3.849843978881836,4.12109375,0,"['A1', 'B2', 'F2']",6.1,90,0,0.06693883374417742,[1900|0|0]
1900,1.6718696355819702,1.1525769233703613,-0.029314734041690826,-0.37451493740081787,0.9481293559074402,3.859184741973877,4.12109375,0,"['A1', 'B2', 'F2']",6.1,90,0,0.06735391895305284,[2000|0|0]
2000,1.672000765800476,1.1524285078048706,-0.029521681368350983,-0.3727664649486542,0.9452313184738159,3.875093936920166,4.12109375,0,"['A1', 'B2', 'F2']",6.1,90,0,0.06764036181000185,[2100|0|0]
2100,1.6718757152557373,1.1525906324386597,-0.0292490404099226,-0.38234296441078186,0.950770378112793,3.881150960922241,4.12109375,0,"['A1', 'B2', 'F2']",6.1,90,0,0.0679813238721634,[2200|0|0]
2200,1.6718486547470093,1.1528100967407227,-0.02920765057206154,-0.379497230052948,0.9594665169715881,3.871917486190796,4.12109375,0,"['A1', 'B2', 'F2']",6.1,90,0,0.06820629046899675,[2300|0|0]
2300,1.67239511013031,1.1529461145401,-0.029165390878915787,-0.37558093667030334,0.9429318904876709,3.878131628036499,4.12109375,0,"['A1', 'B2', 'F2']",6.1,90,0,0.06877100297049699,[2400|0|0]
2400,1.6719897985458374,1.1527721881866455,-0.029652953147888184,-0.3773314356803894,0.9622244834899902,3.8827157020568848,4.12109375,0,"['A1', 'B2', 'F2']",6.1,90,0,0.06942845625633505,[2500|0|0]
2500,1.6717745065689087,1.1529455184936523,-0.02957080863416195,-0.37703922390937805,0.9650212526321411,3.8659679889678955,4.12109375,0,"['A1', 'B2', 'F2']",6.1,90,0,0.06971679937103051,[2600|0|0]
2600,1.6723780632019043,1.15325927734375,-0.02877284586429596,-0.3821905851364136,0.9528684616088867,3.830995798110962,4.12109375,0,"['A1', 'B2', 'F2']",6.1,90,0,0.07076535542930293,[2700|0|0]
2700,1.671952247619629,1.1533931493759155,-0.029152030125260353,-0.3789833188056946,0.962274432182312,3.7931151390075684,4.12109375,0,"['A1', 'B2', 'F2']",6.1,90,0,0.07135103566191094,[2800|0|0]
2800,1.6724787950515747,1.153519630432129,-0.029257522895932198,-0.37564918398857117,0.9444082975387573,3.773163318634033,4.12109375,0,"['A1', 'B2', 'F2']",6.1,90,0,0.07190274063772101,[2900|0|0]
2900,1.671990156173706,1.1526554822921753,-0.029227882623672485,-0.3560120761394501,0.9600025415420532,3.8193306922912598,4.12109375,0,"['A1', 'B2', 'F2']",6.1,90,0,0.07289591660727003,[3000|0|0]
3000,1.6720454692840576,1.152794599533081,-0.02920464053750038,-0.35724514722824097,0.9576207399368286,3.80873703956604,4.12109375,0,"['A1', 'B2', 'F2']",6.1,90,0,0.0730474202094174,[3100|0|0]
3100,1.6723835468292236,1.1532386541366577,-0.029080506414175034,-0.3731441795825958,0.9449437856674194,3.7751641273498535,4.12109375,0,"['A1', 'B2', 'F2']",6.1,90,0,0.07361916333187438,[3200|0|0]
3200,1.6720571517944336,1.1529535055160522,-0.028665993362665176,-0.36962684988975525,0.9574576020240784,3.779642105102539,4.12109375,0,"['A1', 'B2', 'F2']",6.1,90,0,0.07421888370374848,[3300|0|0]
3300,1.6719831228256226,1.1527760028839111,-0.02881593629717827,-0.36634349822998047,0.9551146030426025,3.7761518955230713,4.12109375,0,"['A1', 'B2', 'F2']",6.1,90,0,0.07446274915076925,[3400|0|0]
3400,1.6723178625106812,1.1529868841171265,-0.029033811762928963,-0.37835732102394104,0.9484907984733582,3.792313814163208,4.12109375,0,"['A1', 'B2', 'F2']",6.1,90,0,0.07491440307785462,[3500|0|0]
3500,1.6721515655517578,1.153236746788025,-0.029209835454821587,-0.3821887969970703,0.9440682530403137,3.7775461673736572,4.12109375,0,"['A1', 'B2', 'F2']",6.1,90,0,0.07526235475979215,[3600|0|0]
3600,1.6721268892288208,1.1535568237304688,-0.02879783883690834,-0.38503095507621765,0.9398016333580017,3.7666449546813965,4.12109375,0,"['A1', 'B2', 'F2']",6.1,90,0,0.07578465676358866,[3700|0|0]
3700,1.672238826751709,1.1535742282867432,-0.028883954510092735,-0.3817715346813202,0.9358257055282593,3.740180253982544,4.12109375,0,"['A1', 'B2', 'F2']",6.1,90,0,0.07592695517109012,[3800|0|0]
3801,1.6720759868621826,1.1529147624969482,-0.02896997705101967,-0.36327528953552246,0.9445615410804749,3.778618812561035,4.12109375,0,"['A1', 'B2', 'F2']",6.1,90,0,0.07661165352443874,[3900|0|0]
3900,1.672609806060791,1.152941107749939,-0.028790462762117386,-0.3596806228160858,0.9271185994148254,3.7960331439971924,4.12109375,0,"['A1', 'B2', 'F2']",6.1,90,0,0.07717546412125131,[4000|0|0]
4000,1.6723265647888184,1.153279185295105,-0.028856899589300156,-0.3671528100967407,0.9407318234443665,3.7811079025268555,4.12109375,0,"['A1', 'B2', 'F2']",6.1,90,0,0.07762148642641135,[4100|0|0]
4100,1.6722813844680786,1.1528651714324951,-0.028815457597374916,-0.35637223720550537,0.9447447657585144,3.77542781829834,4.12109375,0,"['A1', 'B2', 'F2']",6.1,90,0,0.07804001501385792,[4200|0|0]
4201,1.6722441911697388,1.1531212329864502,-0.028784168884158134,-0.3624395430088043,0.9427857995033264,3.7856526374816895,4.12109375,0,"['A1', 'B2', 'F2']",6.1,90,0,0.07830064855818798,[4300|0|0]
4300,1.6721532344818115,1.1532589197158813,-0.029128462076187134,-0.36913952231407166,0.9431053996086121,3.781860589981079,4.12109375,0,"['A1', 'B2', 'F2']",6.1,90,0,0.0786824450440514,[4400|0|0]
4401,1.672271490097046,1.1533517837524414,-0.029351856559515,-0.37216219305992126,0.942089855670929,3.802539825439453,4.12109375,0,"['A1', 'B2', 'F2']",6.1,90,0,0.07895172782293267,[4500|0|0]
4501,1.6721158027648926,1.1530400514602661,-0.02893636003136635,-0.35777756571769714,0.9416733384132385,3.81451153755188,4.12109375,0,"['A1', 'B2', 'F2']",6.1,90,0,0.07949399430012027,[4600|0|0]
4601,1.671728491783142,1.1532032489776611,-0.029128747060894966,-0.36119160056114197,0.950446605682373,3.82357120513916,4.12109375,0,"['A1', 'B2', 'F2']",6.1,90,0,0.07995622367543005,[4700|0|0]
4701,1.672081708908081,1.1529953479766846,-0.028858819976449013,-0.35233446955680847,0.9375147223472595,3.809142589569092,4.12109375,0,"['A1', 'B2', 'F2']",6.1,90,0,0.08044698410015345,[4800|0|0]
4801,1.671947956085205,1.1532013416290283,-0.028846168890595436,-0.3600368797779083,0.9372435212135315,3.7871389389038086,4.12109375,0,"['A1', 'B2', 'F2']",6.1,90,0,0.08069291753099701,[4900|0|0]
4901,1.6720808744430542,1.1530051231384277,-0.029547274112701416,-0.3506218194961548,0.9335213899612427,3.7884790897369385,4.12109375,0,"['A1', 'B2', 'F2']",6.1,90,0,0.08143299693104214,[5000|0|0]
5001,1.6722157001495361,1.1531633138656616,-0.029293445870280266,-0.3557398319244385,0.9245006442070007,3.77860689163208,4.12109375,0,"['A1', 'B2', 'F2']",6.1,90,0,0.0817610686518011,[5100|0|0]
5101,1.672369360923767,1.153236746788025,-0.028899643570184708,-0.3652859330177307,0.9166825413703918,3.806438684463501,4.12109375,0,"['A1', 'B2', 'F2']",6.1,90,0,0.08219011909077609,[5200|0|0]
5202,1.6720161437988281,1.1529059410095215,-0.028606843203306198,-0.3643825352191925,0.9301179051399231,3.8233642578125,4.12109375,0,"['A1', 'B2', 'F2']",6.1,90,0,0.08275573986062598,[5300|0|0]
5302,1.6722915172576904,1.1533063650131226,-0.029011277481913567,-0.3648740351200104,0.9238461852073669,3.797671318054199,4.12109375,0,"['A1', 'B2', 'F2']",6.1,90,0,0.08338798744679643,[5400|0|0]
5402,1.6721543073654175,1.1530213356018066,-0.02901252917945385,-0.36302173137664795,0.9339762330055237,3.8061470985412598,4.12109375,0,"['A1', 'B2', 'F2']",6.1,90,0,0.08370432569392976,[5500|0|0]
5502,1.6719952821731567,1.1528974771499634,-0.028754673898220062,-0.35344627499580383,0.9441524744033813,3.795125722885132,4.12109375,0,"['A1', 'B2', 'F2']",6.1,90,0,0.08403161650334354,[5600|0|0]
5600,1.6719998121261597,1.1532278060913086,-0.02889491803944111,-0.3649044930934906,0.9455487132072449,3.7626097202301025,4.12109375,0,"['A1', 'B2', 'F2']",6.1,90,0,0.08439051223905418,[5700|0|0]
5700,1.6726902723312378,1.153261661529541,-0.02903585508465767,-0.369293749332428,0.9287214875221252,3.7690415382385254,4.12109375,0,"['A1', 'B2', 'F2']",6.1,90,0,0.08509602250560515,[5800|0|0]
5800,1.6718461513519287,1.153180718421936,-0.029018377885222435,-0.35923606157302856,0.9537814259529114,3.765900135040283,4.12109375,0,"['A1', 'B2', 'F2']",6.1,90,0,0.08594419552267099,[5900|0|0]
5900,1.6721880435943604,1.153407335281372,-0.028976304456591606,-0.3666324019432068,0.9422873258590698,3.7783191204071045,4.12109375,0,"['A1', 'B2', 'F2']",6.1,90,0,0.08635652509935976,[6000|0|0]
6002,1.6721489429473877,1.1531732082366943,-0.02878403663635254,-0.36177945137023926,0.9459580183029175,3.793130874633789,4.12109375,0,"['A1', 'B2', 'F2']",6.1,90,0,0.08666199399850122,[6100|0|0]
6102,1.6720706224441528,1.1529968976974487,-0.02889394760131836,-0.357006698846817,0.9470305442810059,3.7924909591674805,4.12109375,0,"['A1', 'B2', 'F2']",6.1,90,0,0.08688402986879194,[6200|0|0]
6200,1.6721363067626953,1.1528854370117188,-0.029107237234711647,-0.3560500741004944,0.948780357837677,3.800089120864868,4.12109375,0,"['A1', 'B2', 'F2']",6.1,90,0,0.08713349004974039,[6300|0|0]
6300,1.6722358465194702,1.153149962425232,-0.028736820444464684,-0.3686612546443939,0.9430245161056519,3.798597574234009,4.12109375,0,"['A1', 'B2', 'F2']",6.1,90,0,0.08759941971832781,[6400|0|0]
6400,1.6719295978546143,1.1529287099838257,-0.028889402747154236,-0.36801478266716003,0.9470945596694946,3.799304962158203,4.12109375,0,"['A1', 'B2', 'F2']",6.1,90,0,0.08800687799428786,[6500|0|0]
6500,1.6720691919326782,1.1533201932907104,-0.029037466272711754,-0.37795260548591614,0.9435383677482605,3.8044638633728027,4.12109375,0,"['A1', 'B2', 'F2']",6.1,90,0,0.08844809052108246,[6600|0|0]
6600,1.67246675491333,1.1532478332519531,-0.028594624251127243,-0.3776349425315857,0.9327943921089172,3.8149194717407227,4.12109375,0,"['A1', 'B2', 'F2']",6.1,90,0,0.08904759144257868,[6700|0|0]
6700,1.671879529953003,1.153149962425232,-0.02906978130340576,-0.378170907497406,0.9499003887176514,3.805176258087158,4.12109375,0,"['A1', 'B2', 'F2']",6.1,90,0,0.08980929090895917,[6800|0|0]
6800,1.6721186637878418,1.1527388095855713,-0.028850236907601357,-0.36557984352111816,0.9431168437004089,3.7906699180603027,4.12109375,0,"['A1', 'B2', 'F2']",6.1,90,0,0.09033315290438819,[6900|0|0]
6900,1.6722384691238403,1.153305172920227,-0.028921322897076607,-0.37150636315345764,0.9341448545455933,3.8017821311950684,4.12109375,0,"['A1', 'B2', 'F2']",6.1,90,0,0.09091639724707468,[7000|0|0]
7000,1.6717827320098877,1.1529831886291504,-0.029019586741924286,-0.363224059343338,0.9406797289848328,3.776608943939209,4.12109375,0,"['A1', 'B2', 'F2']",6.1,90,0,0.09148298879655126,[7100|0|0]
7100,1.672505259513855,1.1532769203186035,-0.02854357659816742,-0.3721751570701599,0.9255275130271912,3.77715802192688,4.12109375,0,"['A1', 'B2', 'F2']",6.1,90,0,0.09239672286964781,[7200|0|0]
7200,1.6722699403762817,1.153254508972168,-0.029142538085579872,-0.3748664855957031,0.9297299981117249,3.7890992164611816,4.12109375,0,"['A1', 'B2', 'F2']",6.1,90,0,0.09304064229656442,[7300|0|0]
7300,1.6721519231796265,1.1530101299285889,-0.028790894895792007,-0.36938780546188354,0.9346333146095276,3.7845935821533203,4.12109375,0,"['A1', 'B2', 'F2']",6.1,90,0,0.09348482931637836,[7400|0|0]
7400,1.6723694801330566,1.1532968282699585,-0.029157312586903572,-0.3748638331890106,0.9301306009292603,3.762648105621338,4.12109375,0,"['A1', 'B2', 'F2']",6.1,90,0,0.09399843314355398,[7500|0|0]
7500,1.6720818281173706,1.1531925201416016,-0.028673728927969933,-0.37502023577690125,0.9470269083976746,3.7755017280578613,4.12109375,0,"['A1', 'B2', 'F2']",6.1,90,0,0.09457068922517935,[7600|0|0]
7600,1.6721863746643066,1.153028130531311,-0.028904039412736893,-0.381510853767395,0.9455311894416809,3.7961981296539307,4.12109375,0,"['A1', 'B2', 'F2']",6.1,90,0,0.09487234605643187,[7700|0|0]
7700,1.6718175411224365,1.1530530452728271,-0.029187843203544617,-0.3736474812030792,0.9537559151649475,3.8118643760681152,4.12109375,0,"['A1', 'B2', 'F2']",6.1,90,0,0.09533839703822475,[7800|0|0]
7800,1.6720330715179443,1.1531823873519897,-0.029161473736166954,-0.3793925344944,0.948380172252655,3.8132219314575195,4.12109375,0,"['A1', 'B2', 'F2']",6.1,90,0,0.09559113815802847,[7900|0|0]
7900,1.6722346544265747,1.153124451637268,-0.029232550412416458,-0.3796824514865875,0.9421820640563965,3.8228204250335693,4.12109375,0,"['A1', 'B2', 'F2']",6.1,90,0,0.09581259720615898,[8000|0|0]
8000,1.6719622611999512,1.1529260873794556,-0.029151342809200287,-0.37136614322662354,0.9526926875114441,3.81857967376709,4.12109375,0,"['A1', 'B2', 'F2']",6.1,90,0,0.09615921100205868,[8100|0|0]
8100,1.672010898590088,1.1527594327926636,-0.02873116545379162,-0.3695325553417206,0.9440864324569702,3.810100555419922,4.12109375,0,"['A1', 'B2', 'F2']",6.1,90,0,0.096613840914203,[8200|0|0]
8200,1.672136902809143,1.1530834436416626,-0.029040521010756493,-0.37705206871032715,0.938703179359436,3.813825845718384,4.12109375,0,"['A1', 'B2', 'F2']",6.1,90,0,0.09707920201497724,[8300|0|0]
8300,1.6723291873931885,1.1534638404846191,-0.029059983789920807,-0.3867253363132477,0.9375157952308655,3.8296377658843994,4.12109375,0,"['A1', 'B2', 'F2']",6.1,90,0,0.09750587978468832,[8400|0|0]
8400,1.6722277402877808,1.1528451442718506,-0.029020406305789948,-0.36793291568756104,0.9418134689331055,3.837343454360962,4.12109375,0,"['A1', 'B2', 'F2']",6.1,90,0,0.09813408587837086,[8500|0|0]
8500,1.672110676765442,1.1532115936279297,-0.029097329825162888,-0.38106268644332886,0.9407172203063965,3.816248893737793,4.12109375,0,"['A1', 'B2', 'F2']",6.1,90,0,0.09852639471929328,[8600|0|0]
8600,1.6722947359085083,1.1532180309295654,-0.028913015499711037,-0.37772202491760254,0.9384579062461853,3.8036253452301025,4.12109375,0,"['A1', 'B2', 'F2']",6.1,90,0,0.09878695369067109,[8700|0|0]
8700,1.672362208366394,1.1531753540039062,-0.028678681701421738,-0.3819129765033722,0.9354337453842163,3.8127996921539307,4.12109375,0,"['A1', 'B2', 'F2']",6.1,90,0,0.09903451415111975,[8800|0|0]
8800,1.6722254753112793,1.153243064880371,-0.02907523699104786,-0.3771315813064575,0.942930281162262,3.835156202316284,4.12109375,0,"['A1', 'B2', 'F2']",6.1,90,0,0.09945941036066168,[8900|0|0]
8900,1.6721352338790894,1.1532652378082275,-0.02880966104567051,-0.3741450011730194,0.9475297927856445,3.821589231491089,4.12109375,0,"['A1', 'B2', 'F2']",6.1,90,0,0.09974077442655584,[9000|0|0]
9000,1.6719558238983154,1.1528011560440063,-0.028640467673540115,-0.3657815754413605,0.9564483165740967,3.8389413356781006,4.12109375,0,"['A1', 'B2', 'F2']",6.1,90,0,0.10026630865213663,[9100|0|0]
9100,1.6722339391708374,1.1531833410263062,-0.0290367528796196,-0.37108397483825684,0.9452861547470093,3.8084607124328613,4.12109375,0,"['A1', 'B2', 'F2']",6.1,90,0,0.10088311934437773,[9200|0|0]
9200,1.672165870666504,1.1531559228897095,-0.028997749090194702,-0.3688163757324219,0.9492021203041077,3.8125503063201904,4.12109375,0,"['A1', 'B2', 'F2']",6.1,90,0,0.10096622392359052,[9300|0|0]
9300,1.6721855401992798,1.1529037952423096,-0.02883174829185009,-0.36421939730644226,0.9494121670722961,3.810732126235962,4.12109375,0,"['A1', 'B2', 'F2']",6.1,90,0,0.10126873261132374,[9400|0|0]
9400,1.6722012758255005,1.153037190437317,-0.029108695685863495,-0.36561691761016846,0.9441086053848267,3.8100266456604004,4.12109375,0,"['A1', 'B2', 'F2']",6.1,90,0,0.10157653408473545,[9500|0|0]
9500,1.6720337867736816,1.152944564819336,-0.0286110769957304,-0.36950355768203735,0.9535543322563171,3.798872470855713,4.12109375,0,"['A1', 'B2', 'F2']",6.1,90,0,0.10210969114260425,[9600|0|0]
9600,1.6720983982086182,1.1531559228897095,-0.02858298271894455,-0.3769090175628662,0.9525079131126404,3.7834866046905518,4.12109375,0,"['A1', 'B2', 'F2']",6.1,90,0,0.10233248288352995,[9700|0|0]
9700,1.6718937158584595,1.1528578996658325,-0.029057197272777557,-0.36839768290519714,0.9608054161071777,3.789763927459717,4.12109375,0,"['A1', 'B2', 'F2']",6.1,90,0,0.10292879836169862,[9800|0|0]
9800,1.6721947193145752,1.153140902519226,-0.029013777151703835,-0.3801211714744568,0.9588698148727417,3.781511068344116,4.12109375,0,"['A1', 'B2', 'F2']",6.1,90,0,0.1033442246518351,[9900|0|0]
9900,1.6724913120269775,1.1531034708023071,-0.02923869527876377,-0.37219810485839844,0.9460844397544861,3.7714617252349854,4.12109375,0,"['A1', 'B2', 'F2']",6.1,90,0,0.10371833230260133,[10000|0|0]
10000,1.6722304821014404,1.1531623601913452,-0.02868996560573578,-0.37191900610923767,0.9548011422157288,3.772359848022461,4.12109375,0,"['A1', 'B2', 'F2']",6.1,90,0,0.10432874565784381,[10100|0|0]
10100,1.6719045639038086,1.1533567905426025,-0.02905282750725746,-0.3721131384372711,0.9615235924720764,3.755488872528076,4.12109375,0,"['A1', 'B2', 'F2']",6.1,90,0,0.10485381193234024,[10200|0|0]
10200,1.671919584274292,1.1532657146453857,-0.029001280665397644,-0.3740941882133484,0.9538080096244812,3.7783753871917725,4.12109375,0,"['A1', 'B2', 'F2']",6.1,90,0,0.10495953566425045,[10300|0|0]
10300,1.6722562313079834,1.1532634496688843,-0.02889862284064293,-0.376534640789032,0.9423514604568481,3.8207154273986816,4.12109375,0,"['A1', 'B2', 'F2']",6.1,90,0,0.10531149444648943,[10400|0|0]
10400,1.6720647811889648,1.153035044670105,-0.0285323616117239,-0.36864474415779114,0.9464293718338013,3.8089401721954346,4.12109375,0,"['A1', 'B2', 'F2']",6.1,90,0,0.10578369067619575,[10500|0|0]
10500,1.6721960306167603,1.153268814086914,-0.02861112914979458,-0.3731144666671753,0.945700466632843,3.7936196327209473,4.12109375,0,"['A1', 'B2', 'F2']",6.1,90,0,0.10606311665491927,[10600|0|0]
10600,1.6723768711090088,1.1531763076782227,-0.029013564810156822,-0.36515194177627563,0.9481011629104614,3.8111634254455566,4.12109375,0,"['A1', 'B2', 'F2']",6.1,90,0,0.10651391059899669,[10700|0|0]
10700,1.672355055809021,1.1527386903762817,-0.028872860595583916,-0.35429060459136963,0.9533006548881531,3.8097803592681885,4.12109375,0,"['A1', 'B2', 'F2']",6.1,90,0,0.10697410891089079,[10800|0|0]
10800,1.6720885038375854,1.153096079826355,-0.02901574969291687,-0.3678685128688812,0.9594904184341431,3.8373546600341797,4.12109375,0,"['A1', 'B2', 'F2']",6.1,90,0,0.10744229099794289,[10900|0|0]
10900,1.672214388847351,1.152862310409546,-0.02868657372891903,-0.3702540993690491,0.9568109512329102,3.8476860523223877,4.12109375,0,"['A1', 'B2', 'F2']",6.1,90,0,0.10786519996118776,[11000|0|0]
11000,1.6720912456512451,1.1528805494308472,-0.02876761183142662,-0.37478670477867126,0.9564172625541687,3.8407697677612305,4.12109375,0,"['A1', 'B2', 'F2']",6.1,90,0,0.10801373979659648,[11100|0|0]
11100,1.6722151041030884,1.152829885482788,-0.028782766312360764,-0.37945348024368286,0.954087495803833,3.8522794246673584,4.12109375,0,"['A1', 'B2', 'F2']",6.1,90,0,0.10814841499853925,[11200|0|0]
11200,1.672395944595337,1.1532835960388184,-0.028590582311153412,-0.3873520493507385,0.9513818025588989,3.8502883911132812,4.12109375,0,"['A1', 'B2', 'F2']",6.1,90,0,0.10867328759509012,[11300|0|0]
11300,1.672365665435791,1.1530523300170898,-0.02864956296980381,-0.3723394274711609,0.9592182636260986,3.845223903656006,4.12109375,0,"['A1', 'B2', 'F2']",6.1,90,0,0.10891386922033149,[11400|0|0]
11400,1.6724802255630493,1.1533957719802856,-0.028655916452407837,-0.37805232405662537,0.9580841064453125,3.84932541847229,4.12109375,0,"['A1', 'B2', 'F2']",6.1,90,0,0.10927596971961645,[11500|0|0]
11500,1.6722124814987183,1.152823805809021,-0.028802543878555298,-0.36229628324508667,0.9639233946800232,3.826148748397827,4.12109375,0,"['A1', 'B2', 'F2']",6.1,90,0,0.10992429971827013,[11600|0|0]
11600,1.6723127365112305,1.1531647443771362,-0.02890157513320446,-0.36784493923187256,0.9545137882232666,3.8090081214904785,4.12109375,0,"['A1', 'B2', 'F2']",6.1,90,0,0.11029321348076711,[11700|0|0]
11700,1.6719366312026978,1.152962565422058,-0.02882496267557144,-0.3634457588195801,0.9643828272819519,3.8126463890075684,4.12109375,0,"['A1', 'B2', 'F2']",6.1,90,0,0.11072703487448524,[11800|0|0]
11800,1.6725441217422485,1.1529825925827026,-0.029040342196822166,-0.36014047265052795,0.945554792881012,3.829981803894043,4.12109375,0,"['A1', 'B2', 'F2']",6.1,90,0,0.1113718869357996,[11900|0|0]
11900,1.6722197532653809,1.153137445449829,-0.028621578589081764,-0.3722515106201172,0.9495211243629456,3.8433024883270264,4.12109375,0,"['A1', 'B2', 'F2']",6.1,90,0,0.1119237540198067,[12000|0|0]
12000,1.6719216108322144,1.1529062986373901,-0.0288745928555727,-0.36646050214767456,0.9623907804489136,3.8203940391540527,4.12109375,0,"['A1', 'B2', 'F2']",6.1,90,0,0.11237799402069068,[12100|0|0]
12100,1.6720911264419556,1.15312659740448,-0.029195653274655342,-0.3696288466453552,0.9580627679824829,3.824162483215332,4.12109375,0,"['A1', 'B2', 'F2']",6.1,90,0,0.11280266669632305,[12200|0|0]
12200,1.6720190048217773,1.1531082391738892,-0.029102856293320656,-0.3670981228351593,0.9542784690856934,3.8022513389587402,4.12109375,0,"['A1', 'B2', 'F2']",6.1,90,0,0.1129216197646836,[12300|0|0]
12300,1.6720842123031616,1.1528414487838745,-0.029044093564152718,-0.36442995071411133,0.9516415596008301,3.8144772052764893,4.12109375,0,"['A1', 'B2', 'F2']",6.1,90,0,0.11320247949154366,[12400|0|0]
12400,1.6722983121871948,1.1531217098236084,-0.028812889009714127,-0.36087945103645325,0.9412130117416382,3.8197224140167236,4.12109375,0,"['A1', 'B2', 'F2']",6.1,90,0,0.11362419095300623,[12500|0|0]
12500,1.6723071336746216,1.1527047157287598,-0.028874916955828667,-0.3530629873275757,0.9510629177093506,3.837169647216797,4.12109375,0,"['A1', 'B2', 'F2']",6.1,90,0,0.11404586542446288,[12600|0|0]
12600,1.6722338199615479,1.1532385349273682,-0.028927013278007507,-0.3724833130836487,0.9508960843086243,3.8338370323181152,4.12109375,0,"['A1', 'B2', 'F2']",6.1,90,0,0.11458720807391157,[12700|0|0]
12700,1.6721141338348389,1.1530286073684692,-0.029283758252859116,-0.36968404054641724,0.9553801417350769,3.8353183269500732,4.12109375,0,"['A1', 'B2', 'F2']",6.1,90,0,0.11501809242729857,[12800|0|0]
12800,1.6723055839538574,1.1534391641616821,-0.02885182574391365,-0.3777737617492676,0.9457263946533203,3.8325302600860596,4.12109375,0,"['A1', 'B2', 'F2']",6.1,90,0,0.11564401232697376,[12900|0|0]
12900,1.6723500490188599,1.1532096862792969,-0.028855642303824425,-0.38013955950737,0.9379279017448425,3.835707664489746,4.12109375,0,"['A1', 'B2', 'F2']",6.1,90,0,0.11587778958557528,[13000|0|0]
13000,1.6722816228866577,1.1530240774154663,-0.02891639620065689,-0.37217411398887634,0.9366330504417419,3.84104585647583,4.12109375,0,"['A1', 'B2', 'F2']",6.1,90,0,0.11608472875992598,[13100|0|0]
13100,1.6720304489135742,1.1529227495193481,-0.029328210279345512,-0.3734888434410095,0.9457657933235168,3.806290864944458,4.12109375,0,"['A1', 'B2', 'F2']",6.1,90,0,0.116577624836896,[13200|0|0]
13200,1.6721596717834473,1.152849793434143,-0.02885662391781807,-0.3762756288051605,0.9411494135856628,3.7910330295562744,4.12109375,0,"['A1', 'B2', 'F2']",6.1,90,0,0.11707200812630349,[13300|0|0]
13300,1.6722511053085327,1.1530753374099731,-0.029160451143980026,-0.38032880425453186,0.9340549111366272,3.7796037197113037,4.12109375,0,"['A1', 'B2', 'F2']",6.1,90,0,0.11746129100275718,[13400|0|0]
13400,1.6720540523529053,1.153149962425232,-0.02890700288116932,-0.3788771331310272,0.9320257902145386,3.78360915184021,4.12109375,0,"['A1', 'B2', 'F2']",6.1,90,0,0.11779088891255889,[13500|0|0]
13500,1.6719266176223755,1.152657389640808,-0.02866789698600769,-0.3603876829147339,0.9433737397193909,3.7826409339904785,4.12109375,0,"['A1', 'B2', 'F2']",6.1,90,0,0.11835306254018765,[13600|0|0]
13600,1.6722819805145264,1.1531548500061035,-0.029171407222747803,-0.3735456168651581,0.9366649985313416,3.7857022285461426,4.12109375,0,"['A1', 'B2', 'F2']",6.1,90,0,0.11914506769083995,[13700|0|0]
13700,1.6723748445510864,1.1532931327819824,-0.02903793193399906,-0.3791223168373108,0.9390580058097839,3.8273308277130127,4.12109375,0,"['A1', 'B2', 'F2']",6.1,90,0,0.11935851910942873,[13800|0|0]
13800,1.6719646453857422,1.1530416011810303,-0.029114987701177597,-0.37572506070137024,0.9572368860244751,3.83587384223938,4.12109375,0,"['A1', 'B2', 'F2']",6.1,90,0,0.119845827115501,[13900|0|0]
13900,1.6721662282943726,1.1526165008544922,-0.02879137173295021,-0.3589172959327698,0.9462385773658752,3.8289783000946045,4.12109375,0,"['A1', 'B2', 'F2']",6.1,90,0,0.12041685535610423,[14000|0|0]
14000,1.6725859642028809,1.1530333757400513,-0.02884020283818245,-0.3689418137073517,0.9370447993278503,3.8476510047912598,4.12109375,0,"['A1', 'B2', 'F2']",6.1,90,0,0.12101044391726372,[14100|0|0]
14100,1.672005534172058,1.153014898300171,-0.028631480410695076,-0.36987218260765076,0.9542168378829956,3.8429369926452637,4.12109375,0,"['A1', 'B2', 'F2']",6.1,90,0,0.1216275383089103,[14200|0|0]
14200,1.6720917224884033,1.1528300046920776,-0.02880716882646084,-0.3580249845981598,0.9501364827156067,3.817124366760254,4.12109375,0,"['A1', 'B2', 'F2']",6.1,90,0,0.12189676032068208,[14300|0|0]
14300,1.6722087860107422,1.152604103088379,-0.028826169669628143,-0.3466239869594574,0.9481595754623413,3.804075002670288,4.12109375,0,"['A1', 'B2', 'F2']",6.1,90,0,0.12215190035058157,[14400|0|0]
14400,1.6724258661270142,1.1530687808990479,-0.02850992977619171,-0.3683721125125885,0.9425045847892761,3.8194527626037598,4.12109375,0,"['A1', 'B2', 'F2']",6.1,90,0,0.1227544423945996,[14500|0|0]
14500,1.6724039316177368,1.1530647277832031,-0.028463266789913177,-0.3765910565853119,0.942616879940033,3.819049596786499,4.12109375,0,"['A1', 'B2', 'F2']",6.1,90,0,0.12280616264917862,[14600|0|0]
14600,1.6720949411392212,1.152790904045105,-0.02882569283246994,-0.3682122826576233,0.9527044296264648,3.7999444007873535,4.12109375,0,"['A1', 'B2', 'F2']",6.1,90,0,0.12335553246240348,[14700|0|0]
14700,1.6718833446502686,1.1530460119247437,-0.028995919972658157,-0.37801554799079895,0.953873872756958,3.7909250259399414,4.12109375,0,"['A1', 'B2', 'F2']",6.1,90,0,0.12372813195736755,[14800|0|0]
14800,1.6720975637435913,1.1532295942306519,-0.029101461172103882,-0.387069970369339,0.9424742460250854,3.7717416286468506,4.12109375,0,"['A1', 'B2', 'F2']",6.1,90,0,0.12402934820488258,[14900|0|0]
14900,1.6722452640533447,1.153319001197815,-0.02861744351685047,-0.39343610405921936,0.9365968108177185,3.8030014038085938,4.12109375,0,"['A1', 'B2', 'F2']",6.1,90,0,0.12454323737374642,[15000|0|0]
15000,1.6720150709152222,1.1533455848693848,-0.02914651483297348,-0.3876156210899353,0.943810760974884,3.7981603145599365,4.12109375,0,"['A1', 'B2', 'F2']",6.1,90,0,0.12512082895088114,[15100|0|0]
15100,1.6723880767822266,1.1534178256988525,-0.029166076332330704,-0.3881860375404358,0.933238685131073,3.798844814300537,4.12109375,0,"['A1', 'B2', 'F2']",6.1,90,0,0.12550126917814292,[15200|0|0]
15200,1.6721004247665405,1.1526658535003662,-0.028666982427239418,-0.3725140690803528,0.9451254606246948,3.797820568084717,4.12109375,0,"['A1', 'B2', 'F2']",6.1,90,0,0.1264485286967142,[15300|0|0]
15300,1.6721287965774536,1.152666449546814,-0.028839588165283203,-0.37198323011398315,0.94940584897995,3.8116893768310547,4.12109375,0,"['A1', 'B2', 'F2']",6.1,90,0,0.12662345169614964,[15400|0|0]
15400,1.6722415685653687,1.1530953645706177,-0.028913741931319237,-0.37907323241233826,0.942027747631073,3.822328567504883,4.12109375,0,"['A1', 'B2', 'F2']",6.1,90,0,0.1270731008926575,[15500|0|0]
15500,1.6720857620239258,1.1529890298843384,-0.029071632772684097,-0.3717864751815796,0.9437551498413086,3.830031394958496,4.12109375,0,"['A1', 'B2', 'F2']",6.1,90,0,0.12731909329426658,[15600|0|0]
15600,1.6723506450653076,1.1531178951263428,-0.0288253091275692,-0.3762228488922119,0.931648850440979,3.8281192779541016,4.12109375,0,"['A1', 'B2', 'F2']",6.1,90,0,0.1277030784689169,[15700|0|0]
15700,1.6721357107162476,1.1530519723892212,-0.028484176844358444,-0.37611207365989685,0.93893963098526,3.839808702468872,4.12109375,0,"['A1', 'B2', 'F2']",6.1,90,0,0.12811162934252268,[15800|0|0]
15800,1.6723641157150269,1.1526362895965576,-0.02892121858894825,-0.3662015199661255,0.935538113117218,3.826911687850952,4.12109375,0,"['A1', 'B2', 'F2']",6.1,90,0,0.12875658400302065,[15900|0|0]
15900,1.6724199056625366,1.1530104875564575,-0.029001206159591675,-0.3745843470096588,0.9293215870857239,3.850703716278076,4.12109375,0,"['A1', 'B2', 'F2']",6.1,90,0,0.12914328109751946,[16000|0|0]
16000,1.6722583770751953,1.1529403924942017,-0.028901048004627228,-0.37026628851890564,0.933540403842926,3.832207679748535,4.12109375,0,"['A1', 'B2', 'F2']",6.1,90,0,0.12934585567215068,[16100|0|0]
16100,1.6719539165496826,1.1531908512115479,-0.028923016041517258,-0.3773013949394226,0.9366326332092285,3.832721710205078,4.12109375,0,"['A1', 'B2', 'F2']",6.1,90,0,0.1297407080183954,[16200|0|0]
16200,1.6721192598342896,1.1531645059585571,-0.028845589607954025,-0.37897682189941406,0.9348527193069458,3.8375611305236816,4.12109375,0,"['A1', 'B2', 'F2']",6.1,90,0,0.12992517299266987,[16300|0|0]
16300,1.6721785068511963,1.15325129032135,-0.0287174079567194,-0.38033413887023926,0.9354659914970398,3.849639892578125,4.12109375,0,"['A1', 'B2', 'F2']",6.1,90,0,0.1300909206030628,[16400|0|0]
16400,1.6721709966659546,1.1529477834701538,-0.029113756492733955,-0.37562599778175354,0.9372313618659973,3.8521125316619873,4.12109375,0,"['A1', 'B2', 'F2']",6.1,90,0,0.13059018503560965,[16500|0|0]
16500,1.6721768379211426,1.1529098749160767,-0.028869790956377983,-0.3698236346244812,0.9421438574790955,3.8565995693206787,4.12109375,0,"['A1', 'B2', 'F2']",6.1,90,0,0.1308371473033022,[16600|0|0]
16600,1.6720832586288452,1.1530154943466187,-0.02911541238427162,-0.37470322847366333,0.9432359337806702,3.847421407699585,4.12109375,0,"['A1', 'B2', 'F2']",6.1,90,0,0.1311204182582118,[16700|0|0]
16700,1.672099232673645,1.1530771255493164,-0.02908271551132202,-0.3723551034927368,0.9374985098838806,3.848377227783203,4.12109375,0,"['A1', 'B2', 'F2']",6.1,90,0,0.1311919910236601,[16800|0|0]
16800,1.6720672845840454,1.1527867317199707,-0.02883956953883171,-0.36103367805480957,0.9360068440437317,3.8539340496063232,4.12109375,0,"['A1', 'B2', 'F2']",6.1,90,0,0.1315720820923389,[16900|0|0]
16900,1.6723517179489136,1.1528124809265137,-0.028910286724567413,-0.3623313307762146,0.9255467057228088,3.872676134109497,4.12109375,0,"['A1', 'B2', 'F2']",6.1,90,0,0.13186630357531762,[17000|0|0]
17000,1.6721640825271606,1.1531939506530762,-0.02870934270322323,-0.371448814868927,0.9371164441108704,3.8717057704925537,4.12109375,0,"['A1', 'B2', 'F2']",6.1,90,0,0.13233652129456483,[17100|0|0]
17100,1.6722888946533203,1.1526916027069092,-0.02885368838906288,-0.3584153354167938,0.9391202330589294,3.8652615547180176,4.12109375,0,"['A1', 'B2', 'F2']",6.1,90,0,0.1328738919328353,[17200|0|0]
17200,1.6722877025604248,1.1533458232879639,-0.02885405533015728,-0.37615495920181274,0.9365946650505066,3.816232681274414,4.12109375,0,"['A1', 'B2', 'F2']",6.1,90,0,0.13352811370288487,[17300|0|0]
17300,1.6721166372299194,1.1533998250961304,-0.028741883113980293,-0.372490257024765,0.9428578019142151,3.8089981079101562,4.12109375,0,"['A1', 'B2', 'F2']",6.1,90,0,0.1337396843735087,[17400|0|0]
17400,1.6721432209014893,1.1531751155853271,-0.02902177907526493,-0.3638468086719513,0.9441652894020081,3.7885327339172363,4.12109375,0,"['A1', 'B2', 'F2']",6.1,90,0,0.1340996049272188,[17500|0|0]
17500,1.6722699403762817,1.1533596515655518,-0.028936797752976418,-0.3646989166736603,0.9417569041252136,3.8013975620269775,4.12109375,0,"['A1', 'B2', 'F2']",6.1,90,0,0.1343390484036951,[17600|0|0]
17600,1.671971082687378,1.1530101299285889,-0.028886431828141212,-0.3599877655506134,0.952011227607727,3.812103033065796,4.12109375,0,"['A1', 'B2', 'F2']",6.1,90,0,0.13480166921959796,[17700|0|0]
17700,1.6722480058670044,1.1530706882476807,-0.02877034991979599,-0.3607570230960846,0.9492031931877136,3.816281318664551,4.12109375,0,"['A1', 'B2', 'F2']",6.1,90,0,0.13510798403620128,[17800|0|0]
17800,1.6723401546478271,1.1534398794174194,-0.02857842482626438,-0.37235164642333984,0.9389511942863464,3.7782866954803467,4.12109375,0,"['A1', 'B2', 'F2']",6.1,90,0,0.13553416329326023,[17900|0|0]
17900,1.672204852104187,1.1532917022705078,-0.028919262811541557,-0.3641710579395294,0.9557192921638489,3.7248122692108154,4.12109375,0,"['A1', 'B2', 'F2']",6.1,90,0,0.13592968039452155,[18000|0|0]
18000,1.6725842952728271,1.1530543565750122,-0.029665177688002586,-0.34937524795532227,0.9399899244308472,3.7972118854522705,4.12109375,0,"['A1', 'B2', 'F2']",6.1,90,0,0.13679956492727507,[18100|0|0]
18100,1.6733591556549072,1.1532015800476074,-0.02875581383705139,-0.3214174807071686,0.9139651656150818,3.7234458923339844,4.12109375,0,"['A1', 'B2', 'F2']",6.1,90,0,0.13800331987576628,[18200|0|0]
18200,1.673546552658081,1.1528414487838745,-0.029377561062574387,-0.31815803050994873,0.9302628636360168,3.6040191650390625,4.12109375,0,"['A1', 'B2', 'F2']",6.1,90,0,0.1387458707335275,[18300|0|0]
18300,1.673702359199524,1.1532270908355713,-0.029843313619494438,-0.3230641186237335,0.9318979382514954,3.501321315765381,4.12109375,0,"['A1', 'B2', 'F2']",6.1,90,0,0.1393703072112183,[18400|0|0]
18400,1.6738873720169067,1.1529990434646606,-0.02958141453564167,-0.2780245542526245,0.9295263886451721,3.4294052124023438,4.12109375,0,"['A1', 'B2', 'F2']",6.1,90,0,0.13976378716763044,[18500|0|0]
18500,1.6734243631362915,1.1531434059143066,-0.029262354597449303,-0.2902432680130005,0.9376502633094788,3.373817205429077,4.12109375,0,"['A1', 'B2', 'F2']",6.1,90,0,0.14034431880721238,[18600|0|0]
18600,1.673192024230957,1.1535797119140625,-0.028608912602066994,-0.31086522340774536,0.9361506700515747,3.3124334812164307,4.12109375,0,"['A1', 'B2', 'F2']",6.1,90,0,0.14116366655614698,[18700|0|0]
18700,1.6702052354812622,1.1536040306091309,-0.027159910649061203,-0.29391586780548096,0.9721357822418213,3.253164052963257,4.12109375,0,"['A1', 'B2', 'F2']",6.1,90,0,0.14448347153446242,[18800|0|0]
18800,1.6665823459625244,1.154013752937317,-0.02545093186199665,-0.3153632581233978,0.9988622665405273,3.2048377990722656,4.12109375,0,"['A1', 'B2', 'F2']",6.1,90,0,0.14851010900831463,[18900|0|0]
18900,1.6627318859100342,1.1548047065734863,-0.02296667918562889,-0.3364092707633972,1.000190258026123,3.165682315826416,4.12109375,0,"['A1', 'B2', 'F2']",6.1,90,0,0.15316018015082772,[19000|0|0]
19000,1.6559830904006958,1.1559165716171265,-0.01893000677227974,-0.3514043092727661,1.0236021280288696,3.1284666061401367,4.12109375,0,"['A1', 'B2', 'F2']",6.1,90,0,0.16110229629671913,[19100|0|0]
19100,1.6494331359863281,1.156997561454773,-0.015492096543312073,-0.35836297273635864,1.0377109050750732,3.1096200942993164,4.12109375,0,"['A1', 'B2', 'F2']",6.1,90,0,0.16857823560906177,[19200|0|0]
19200,1.6406515836715698,1.1577413082122803,-0.009985077194869518,-0.3389073312282562,1.050988793373108,3.1098978519439697,4.12109375,0,"['A1', 'B2', 'F2']",6.1,90,0,0.17897035196716035,[19300|0|0]
19300,1.6270517110824585,1.1594429016113281,-0.00243194168433547,-0.3431295156478882,1.093974232673645,3.0976431369781494,4.12109375,0,"['A1', 'B2', 'F2']",6.1,90,0,0.1946196909492463,[19400|0|0]
19400,1.610538363456726,1.1614964008331299,0.006763959303498268,-0.3550148606300354,1.129799723625183,3.0866801738739014,4.12109375,0,"['A1', 'B2', 'F2']",6.1,90,0,0.21363211067531654,[19500|0|0]
19500,1.592047095298767,1.1641508340835571,0.017270779237151146,-0.37623822689056396,1.1615716218948364,3.0652148723602295,4.12109375,0,"['A1', 'B2', 'F2']",6.1,90,0,0.23506494247815415,[19600|0|0]
19600,1.5725891590118408,1.1671572923660278,0.028600038960576057,-0.3981764614582062,1.179634690284729,3.052561044692993,4.12109375,0,"['A1', 'B2', 'F2']",6.1,90,0,0.257780624326409,[19700|0|0]
19700,1.5514816045761108,1.170284390449524,0.04102271422743797,-0.3989512622356415,1.1943871974945068,3.063420534133911,4.12109375,0,"['A1', 'B2', 'F2']",6.1,90,0,0.28247132009358034,[19800|0|0]
19800,1.5271782875061035,1.1735457181930542,0.054484762251377106,-0.39070215821266174,1.225495457649231,3.066035509109497,4.12109375,0,"['A1', 'B2', 'F2']",6.1,90,0,0.31044477565872053,[19900|0|0]
19900,1.506029725074768,1.176496982574463,0.06704016029834747,-0.38950708508491516,1.2206717729568481,3.1312639713287354,4.12109375,0,"['A1', 'B2', 'F2']",6.1,90,0,0.335215921665293,[20000|0|0]
20000,1.4921398162841797,1.1783794164657593,0.07495216280221939,-0.39340126514434814,1.2130213975906372,3.0994017124176025,4.12109375,0,"['A1', 'B2', 'F2']",6.1,90,0,0.3513116635614356,[20100|0|0]
20101,1.4702837467193604,1.1817004680633545,0.08732449263334274,-0.4099055528640747,1.215108036994934,3.1418070793151855,4.12109375,0,"['A1', 'B2', 'F2']",6.1,90,0,0.37664527179212826,[20200|0|0]
20200,1.6717289686203003,1.1525517702102661,-0.029135020449757576,-0.34276074171066284,1.0028793811798096,3.3753886222839355,4.12109375,0,"['A1', 'B2', 'F2']",6.1,90,0,0.6111503723780267,[20300|0|0]
20300,1.671710729598999,1.1525261402130127,-0.029408343136310577,-0.35841116309165955,0.9900935888290405,3.5072836875915527,4.12109375,0,"['A1', 'B2', 'F2']",6.1,90,0,0.6114254993480638,[20400|0|0]
20400,1.6718083620071411,1.1524676084518433,-0.029110973700881004,-0.37523818016052246,0.9879027009010315,3.5846614837646484,4.12109375,0,"['A1', 'B2', 'F2']",6.1,90,0,0.6117439120288931,[20500|0|0]
20501,1.6716605424880981,1.1525367498397827,-0.029525713995099068,-0.39524757862091064,0.9844585657119751,3.676459789276123,4.12109375,0,"['A1', 'B2', 'F2']",6.1,90,0,0.6121896032374494,[20600|0|0]
20601,1.6716814041137695,1.1531047821044922,-0.02955731935799122,-0.41987669467926025,0.9810490608215332,3.7201545238494873,4.12109375,0,"['A1', 'B2', 'F2']",6.1,90,0,0.6127588964484929,[20700|0|0]
20700,1.6720291376113892,1.1532137393951416,-0.02958940714597702,-0.4264060854911804,0.9691694378852844,3.757439613342285,4.12109375,0,"['A1', 'B2', 'F2']",6.1,90,0,0.6131247104759581,[20800|0|0]
20801,1.6717915534973145,1.1529903411865234,-0.02955356054008007,-0.4209877550601959,0.9748891592025757,3.7632362842559814,4.12109375,0,"['A1', 'B2', 'F2']",6.1,90,0,0.6134527927065478,[20900|0|0]
20901,1.672023892402649,1.15302574634552,-0.02867758832871914,-0.43317753076553345,0.9624300599098206,3.7589163780212402,4.12109375,0,"['A1', 'B2', 'F2']",6.1,90,0,0.6143597448592506,[21000|0|0]
21001,1.6720536947250366,1.1529377698898315,-0.02941078133881092,-0.4271363914012909,0.9652731418609619,3.802288055419922,4.12109375,0,"['A1', 'B2', 'F2']",6.1,90,0,0.6150987983249908,[21100|0|0]
21102,1.6716870069503784,1.1526985168457031,-0.02949010767042637,-0.41964665055274963,0.9710578918457031,3.790196418762207,4.12109375,0,"['A1', 'B2', 'F2']",6.1,90,0,0.6155437641777212,[21200|0|0]
21201,1.6720161437988281,1.152642846107483,-0.029528049752116203,-0.41528555750846863,0.9631941914558411,3.8086161613464355,4.12109375,0,"['A1', 'B2', 'F2']",6.1,90,0,0.6158797253327143,[21300|0|0]
21301,1.672075867652893,1.1527223587036133,-0.029437730088829994,-0.4126080870628357,0.9624596238136292,3.812730550765991,4.12109375,0,"['A1', 'B2', 'F2']",6.1,90,0,0.6160140638352514,[21400|0|0]
21401,1.6721938848495483,1.152838110923767,-0.029278770089149475,-0.41240406036376953,0.9600223898887634,3.809466600418091,4.12109375,0,"['A1', 'B2', 'F2']",6.1,90,0,0.6162433996516328,[21500|0|0]
21501,1.6719852685928345,1.1526154279708862,-0.02858644351363182,-0.41115185618400574,0.9643936157226562,3.7847442626953125,4.12109375,0,"['A1', 'B2', 'F2']",6.1,90,0,0.6169999870737044,[21600|0|0]
21602,1.6718575954437256,1.1529929637908936,-0.029537029564380646,-0.4069775640964508,0.9679276943206787,3.8161439895629883,4.12109375,0,"['A1', 'B2', 'F2']",6.1,90,0,0.6180307380466703,[21700|0|0]
21702,1.671755313873291,1.1530826091766357,-0.029450999572873116,-0.40343719720840454,0.9757033586502075,3.8182263374328613,4.12109375,0,"['A1', 'B2', 'F2']",6.1,90,0,0.6181916696292581,[21800|0|0]
21801,1.6718112230300903,1.1532078981399536,-0.029514163732528687,-0.4034670889377594,0.9719281792640686,3.819457769393921,4.12109375,0,"['A1', 'B2', 'F2']",6.1,90,0,0.6183427089261588,[21900|0|0]
21902,1.6718624830245972,1.1533606052398682,-0.029574764892458916,-0.3977366089820862,0.9561582207679749,3.8070619106292725,4.12109375,0,"['A1', 'B2', 'F2']",6.1,90,0,0.6185148122264934,[22000|0|0]
22002,1.6717129945755005,1.1531881093978882,-0.0294368676841259,-0.3869022727012634,0.9607473611831665,3.808051824569702,4.12109375,0,"['A1', 'B2', 'F2']",6.1,90,0,0.6187814904070402,[22100|0|0]
22100,1.6719812154769897,1.1528176069259644,-0.029456384479999542,-0.3765159845352173,0.9524238109588623,3.8263792991638184,4.12109375,0,"['A1', 'B2', 'F2']",6.1,90,0,0.6192393063515185,[22200|0|0]
22200,1.6720802783966064,1.1529606580734253,-0.029663100838661194,-0.37476062774658203,0.9393941760063171,3.8413267135620117,4.12109375,0,"['A1', 'B2', 'F2']",6.1,90,0,0.6195095076575317,[22300|0|0]
22300,1.6719155311584473,1.1530424356460571,-0.029756689444184303,-0.37996044754981995,0.9413795471191406,3.837963342666626,4.12109375,0,"['A1', 'B2', 'F2']",6.1,90,0,0.6197158763832398,[22400|0|0]
22400,1.6720492839813232,1.1527655124664307,-0.029279176145792007,-0.3714532256126404,0.9286515712738037,3.8372111320495605,4.12109375,0,"['A1', 'B2', 'F2']",6.1,90,0,0.6202838510439274,[22500|0|0]
22500,1.671995759010315,1.1526615619659424,-0.029576662927865982,-0.37383806705474854,0.92464280128479,3.83240008354187,4.12109375,0,"['A1', 'B2', 'F2']",6.1,90,0,0.6206034899254513,[22600|0|0]
22600,1.6716394424438477,1.153337836265564,-0.029623452574014664,-0.3828018605709076,0.932088315486908,3.832303285598755,4.12109375,0,"['A1', 'B2', 'F2']",6.1,90,0,0.6213693213003991,[22700|0|0]
22700,1.6717116832733154,1.1530909538269043,-0.029166921973228455,-0.3707909882068634,0.9338657855987549,3.825564384460449,4.12109375,0,"['A1', 'B2', 'F2']",6.1,90,0,0.6218933345305899,[22800|0|0]
22800,1.6719070672988892,1.1526873111724854,-0.029297417029738426,-0.359584242105484,0.9345144629478455,3.825194835662842,4.12109375,0,"['A1', 'B2', 'F2']",6.1,90,0,0.6223603797850239,[22900|0|0]
22900,1.6719937324523926,1.1531294584274292,-0.029328573495149612,-0.3698253035545349,0.9337383508682251,3.840749740600586,4.12109375,0,"['A1', 'B2', 'F2']",6.1,90,0,0.6228120165519319,[23000|0|0]
23000,1.6717067956924438,1.1532801389694214,-0.029652098193764687,-0.3648584485054016,0.946658730506897,3.8482789993286133,4.12109375,0,"['A1', 'B2', 'F2']",6.1,90,0,0.6232699527489712,[23100|0|0]
23100,1.6721117496490479,1.1529743671417236,-0.029154447838664055,-0.3528133034706116,0.9417045712471008,3.8637523651123047,4.12109375,0,"['A1', 'B2', 'F2']",6.1,90,0,0.6239806847614167,[23200|0|0]
23200,1.6717010736465454,1.1527280807495117,-0.029218390583992004,-0.3547562062740326,0.950793981552124,3.8626928329467773,4.12109375,0,"['A1', 'B2', 'F2']",6.1,90,0,0.6244638001106866,[23300|0|0]
23300,1.672141194343567,1.153254508972168,-0.02974858507514,-0.35974806547164917,0.9383917450904846,3.863097906112671,4.12109375,0,"['A1', 'B2', 'F2']",6.1,90,0,0.6253309443316784,[23400|0|0]
23400,1.671900987625122,1.1530753374099731,-0.029032010585069656,-0.3609219789505005,0.9497789740562439,3.877271890640259,4.12109375,0,"['A1', 'B2', 'F2']",6.1,90,0,0.6261076558071342,[23500|0|0]
23500,1.6716618537902832,1.152955174446106,-0.02934654988348484,-0.35937222838401794,0.9506588578224182,3.8674821853637695,4.12109375,0,"['A1', 'B2', 'F2']",6.1,90,0,0.6265206438203956,[23600|0|0]
23600,1.6715866327285767,1.1531696319580078,-0.02962665632367134,-0.36703696846961975,0.9493165016174316,3.8532984256744385,4.12109375,0,"['A1', 'B2', 'F2']",6.1,90,0,0.6268813512508283,[23700|0|0]
23700,1.6719261407852173,1.1527698040008545,-0.029188401997089386,-0.35374537110328674,0.9315470457077026,3.849367618560791,4.12109375,0,"['A1', 'B2', 'F2']",6.1,90,0,0.6275648678714113,[23800|0|0]
23800,1.6718661785125732,1.1525365114212036,-0.029661571606993675,-0.3459571599960327,0.9345269203186035,3.843021869659424,4.12109375,0,"['A1', 'B2', 'F2']",6.1,90,0,0.628095820205993,[23900|0|0]
23900,1.6718144416809082,1.1526297330856323,-0.02918199822306633,-0.35043662786483765,0.9308023452758789,3.8314435482025146,4.12109375,0,"['A1', 'B2', 'F2']",6.1,90,0,0.6285871018045097,[24000|0|0]
24000,1.6718823909759521,1.1531990766525269,-0.029329899698495865,-0.3655519187450409,0.9306013584136963,3.8270511627197266,4.12109375,0,"['A1', 'B2', 'F2']",6.1,90,0,0.6291792538544896,[24100|0|0]
24100,1.6720415353775024,1.1531974077224731,-0.029125066474080086,-0.36658236384391785,0.9375976324081421,3.860205888748169,4.12109375,0,"['A1', 'B2', 'F2']",6.1,90,0,0.6294386500296674,[24200|0|0]
24200,1.6721446514129639,1.153014063835144,-0.02966662496328354,-0.3689441978931427,0.9265645146369934,3.854191541671753,4.12109375,0,"['A1', 'B2', 'F2']",6.1,90,0,0.6300196263588053,[24300|0|0]
24300,1.6716766357421875,1.1530182361602783,-0.02925056777894497,-0.3673084080219269,0.9433081150054932,3.8484766483306885,4.12109375,0,"['A1', 'B2', 'F2']",6.1,90,0,0.6306458528809432,[24400|0|0]
24400,1.6716538667678833,1.1531898975372314,-0.02968587726354599,-0.3690014183521271,0.9432723522186279,3.8202714920043945,4.12109375,0,"['A1', 'B2', 'F2']",6.1,90,0,0.631114340236068,[24500|0|0]
24500,1.671621322631836,1.1530451774597168,-0.029629845172166824,-0.36607590317726135,0.9485734105110168,3.8184566497802734,4.12109375,0,"['A1', 'B2', 'F2']",6.1,90,0,0.6312729044719197,[24600|0|0]
24600,1.6718473434448242,1.1528195142745972,-0.029287999495863914,-0.363608181476593,0.9416062235832214,3.806570529937744,4.12109375,0,"['A1', 'B2', 'F2']",6.1,90,0,0.6317407375056285,[24700|0|0]
24700,1.6719993352890015,1.1532809734344482,-0.029459649696946144,-0.3692897856235504,0.9367433190345764,3.8132030963897705,4.12109375,0,"['A1', 'B2', 'F2']",6.1,90,0,0.632256014002704,[24800|0|0]
24800,1.6718579530715942,1.1526659727096558,-0.029561074450612068,-0.3522568345069885,0.939945638179779,3.843296766281128,4.12109375,0,"['A1', 'B2', 'F2']",6.1,90,0,0.632895155460873,[24900|0|0]
24900,1.671730637550354,1.15291166305542,-0.029224906116724014,-0.3579036593437195,0.9485161900520325,3.8583719730377197,4.12109375,0,"['A1', 'B2', 'F2']",6.1,90,0,0.6333305657692713,[25000|0|0]
25000,1.672028660774231,1.153152346611023,-0.029534388333559036,-0.372053325176239,0.9346504211425781,3.8752293586730957,4.12109375,0,"['A1', 'B2', 'F2']",6.1,90,0,0.6338230347108755,[25100|0|0]
25100,1.6720521450042725,1.1530630588531494,-0.02955232374370098,-0.37045127153396606,0.940246045589447,3.8661110401153564,4.12109375,0,"['A1', 'B2', 'F2']",6.1,90,0,0.6339170851851098,[25200|0|0]
25200,1.6717807054519653,1.1531767845153809,-0.029520949348807335,-0.3716161549091339,0.9507530927658081,3.8598177433013916,4.12109375,0,"['A1', 'B2', 'F2']",6.1,90,0,0.6342130536115705,[25300|0|0]
25300,1.6718477010726929,1.1529250144958496,-0.029020290821790695,-0.3557142913341522,0.9490002989768982,3.8465404510498047,4.12109375,0,"['A1', 'B2', 'F2']",6.1,90,0,0.6347774431194513,[25400|0|0]
25400,1.6715164184570312,1.1532180309295654,-0.029700757935643196,-0.36293265223503113,0.9547954201698303,3.8739171028137207,4.12109375,0,"['A1', 'B2', 'F2']",6.1,90,0,0.6355890109200089,[25500|0|0]
25500,1.6719931364059448,1.1529734134674072,-0.029050033539533615,-0.3585440516471863,0.9381110668182373,3.877169370651245,4.12109375,0,"['A1', 'B2', 'F2']",6.1,90,0,0.636431946235025,[25600|0|0]
25600,1.672202229499817,1.1529775857925415,-0.02957763336598873,-0.3590088188648224,0.932105541229248,3.8600597381591797,4.12109375,0,"['A1', 'B2', 'F2']",6.1,90,0,0.6369994838171087,[25700|0|0]
25700,1.6722182035446167,1.1525228023529053,-0.029426654800772667,-0.343781441450119,0.9366374611854553,3.8643572330474854,4.12109375,0,"['A1', 'B2', 'F2']",6.1,90,0,0.6374789394190463,[25800|0|0]
25800,1.6720614433288574,1.153105616569519,-0.02944372221827507,-0.358214795589447,0.9503833055496216,3.843276262283325,4.12109375,0,"['A1', 'B2', 'F2']",6.1,90,0,0.6380827088063725,[25900|0|0]
25900,1.6716432571411133,1.1531517505645752,-0.02949502319097519,-0.3574464023113251,0.9567925930023193,3.8679654598236084,4.12109375,0,"['A1', 'B2', 'F2']",6.1,90,0,0.6385065481897713,[26000|0|0]
26000,1.671870231628418,1.1525909900665283,-0.02957111969590187,-0.34212344884872437,0.9456826448440552,3.851647138595581,4.12109375,0,"['A1', 'B2', 'F2']",6.1,90,0,0.6391162697919136,[26100|0|0]
26100,1.6716922521591187,1.1528630256652832,-0.029331643134355545,-0.3501721918582916,0.9478801488876343,3.8536171913146973,4.12109375,0,"['A1', 'B2', 'F2']",6.1,90,0,0.6395200383915001,[26200|0|0]
26200,1.6719257831573486,1.1527986526489258,-0.02912306785583496,-0.348909854888916,0.9487490653991699,3.8467912673950195,4.12109375,0,"['A1', 'B2', 'F2']",6.1,90,0,0.6398397011187286,[26300|0|0]
26300,1.6720227003097534,1.153024673461914,-0.029473844915628433,-0.36067280173301697,0.9515559673309326,3.849065065383911,4.12109375,0,"['A1', 'B2', 'F2']",6.1,90,0,0.6402680968330062,[26400|0|0]
26400,1.6720051765441895,1.1526620388031006,-0.029342232272028923,-0.3537123501300812,0.951154887676239,3.8577678203582764,4.12109375,0,"['A1', 'B2', 'F2']",6.1,90,0,0.6406542740799894,[26500|0|0]
26500,1.671744465827942,1.1527115106582642,-0.02939695678651333,-0.3556472659111023,0.9636009931564331,3.8766798973083496,4.12109375,0,"['A1', 'B2', 'F2']",6.1,90,0,0.6409252211495532,[26600|0|0]
26600,1.6716866493225098,1.1526780128479004,-0.029204756021499634,-0.3519458770751953,0.9577599167823792,3.850348949432373,4.12109375,0,"['A1', 'B2', 'F2']",6.1,90,0,0.6411287057575004,[26700|0|0]
26700,1.6720353364944458,1.152600884437561,-0.029461178928613663,-0.3524780571460724,0.9517940878868103,3.860499858856201,4.12109375,0,"['A1', 'B2', 'F2']",6.1,90,0,0.6415683467961296,[26800|0|0]
26800,1.6719155311584473,1.1530930995941162,-0.0295073501765728,-0.3634470999240875,0.9594221115112305,3.8706138134002686,4.12109375,0,"['A1', 'B2', 'F2']",6.1,90,0,0.6420770322225127,[26900|0|0]
26900,1.671952486038208,1.1530402898788452,-0.02964436076581478,-0.36146312952041626,0.9553067088127136,3.8325750827789307,4.12109375,0,"['A1', 'B2', 'F2']",6.1,90,0,0.6422284469864215,[27000|0|0]
27000,1.6721552610397339,1.1527010202407837,-0.02948545292019844,-0.3529522120952606,0.955602765083313,3.8529696464538574,4.12109375,0,"['A1', 'B2', 'F2']",6.1,90,0,0.6426544438079502,[27100|0|0]
27100,1.671941876411438,1.1529648303985596,-0.02933858148753643,-0.37871450185775757,0.9554594159126282,3.875208854675293,4.12109375,0,"['A1', 'B2', 'F2']",6.1,90,0,0.6430241734614417,[27200|0|0]
27200,1.6717760562896729,1.152931809425354,-0.029315654188394547,-0.38642576336860657,0.9581435918807983,3.8956029415130615,4.12109375,0,"['A1', 'B2', 'F2']",6.1,90,0,0.6431947969020927,[27300|0|0]
27300,1.6720311641693115,1.1529529094696045,-0.028999876230955124,-0.3960059881210327,0.9485160112380981,3.8831164836883545,4.12109375,0,"['A1', 'B2', 'F2']",6.1,90,0,0.6436012953160204,[27400|0|0]
27400,1.6721251010894775,1.1526482105255127,-0.029280561953783035,-0.3904874622821808,0.9494524598121643,3.903162956237793,4.12109375,0,"['A1', 'B2', 'F2']",6.1,90,0,0.6440260894620492,[27500|0|0]
27500,1.671812653541565,1.1525294780731201,-0.029181644320487976,-0.38266056776046753,0.9598063826560974,3.901862382888794,4.12109375,0,"['A1', 'B2', 'F2']",6.1,90,0,0.6443746659437923,[27600|0|0]
27600,1.6718659400939941,1.1524205207824707,-0.029297780245542526,-0.37691670656204224,0.9578498601913452,3.8931870460510254,4.12109375,0,"['A1', 'B2', 'F2']",6.1,90,0,0.6445425906321015,[27700|0|0]
27700,1.6719555854797363,1.1530009508132935,-0.029512526467442513,-0.39616525173187256,0.9516778588294983,3.860548973083496,4.12109375,0,"['A1', 'B2', 'F2']",6.1,90,0,0.6451679315436738,[27800|0|0]
27800,1.6721587181091309,1.1529067754745483,-0.029212478548288345,-0.3884662985801697,0.947901725769043,3.8328254222869873,4.12109375,0,"['A1', 'B2', 'F2']",6.1,90,0,0.6455423118494342,[27900|0|0]
27900,1.6723034381866455,1.1531988382339478,-0.02960699424147606,-0.38636887073516846,0.9467124938964844,3.8286871910095215,4.12109375,0,"['A1', 'B2', 'F2']",6.1,90,0,0.6460540609954376,[28000|0|0]
28000,1.6718075275421143,1.1530817747116089,-0.029588187113404274,-0.3768202066421509,0.9590438604354858,3.852358818054199,4.12109375,0,"['A1', 'B2', 'F2']",6.1,90,0,0.6465639481826546,[28100|0|0]
28100,1.672141671180725,1.1529982089996338,-0.029641572386026382,-0.36737287044525146,0.9484432339668274,3.860591411590576,4.12109375,0,"['A1', 'B2', 'F2']",6.1,90,0,0.6469124954345086,[28200|0|0]
28200,1.6722500324249268,1.1530046463012695,-0.029387345537543297,-0.36372998356819153,0.942661464214325,3.861281633377075,4.12109375,0,"['A1', 'B2', 'F2']",6.1,90,0,0.6471889278649268,[28300|0|0]
28300,1.6721251010894775,1.1529319286346436,-0.029255520552396774,-0.3622690439224243,0.9520000219345093,3.869335651397705,4.12109375,0,"['A1', 'B2', 'F2']",6.1,90,0,0.6473845640689523,[28400|0|0]
28400,1.6719403266906738,1.153147578239441,-0.029506122693419456,-0.3730830252170563,0.9484508037567139,3.8578999042510986,4.12109375,0,"['A1', 'B2', 'F2']",6.1,90,0,0.6477633090538533,[28500|0|0]
28500,1.6717143058776855,1.153036117553711,-0.029516449198126793,-0.3720119595527649,0.9574369788169861,3.855029821395874,4.12109375,0,"['A1', 'B2', 'F2']",6.1,90,0,0.64801553024461,[28600|0|0]
28600,1.671783685684204,1.1526578664779663,-0.0293148010969162,-0.3600919842720032,0.956188440322876,3.871255874633789,4.12109375,0,"['A1', 'B2', 'F2']",6.1,90,0,0.6484497529876536,[28700|0|0]
28700,1.672171711921692,1.152961015701294,-0.029028424993157387,-0.3685811460018158,0.9418964982032776,3.868900775909424,4.12109375,0,"['A1', 'B2', 'F2']",6.1,90,0,0.6490193801335896,[28800|0|0]
28800,1.6719486713409424,1.1529052257537842,-0.02904997020959854,-0.3647140860557556,0.946988582611084,3.8648810386657715,4.12109375,0,"['A1', 'B2', 'F2']",6.1,90,0,0.6492502996331034,[28900|0|0]
28900,1.6717545986175537,1.153060793876648,-0.029665330424904823,-0.364071249961853,0.9506978988647461,3.855759382247925,4.12109375,0,"['A1', 'B2', 'F2']",6.1,90,0,0.6499140268793399,[29000|0|0]
29000,1.6718497276306152,1.152736783027649,-0.0295332670211792,-0.35813775658607483,0.9436228275299072,3.8632495403289795,4.12109375,0,"['A1', 'B2', 'F2']",6.1,90,0,0.6502766193530604,[29100|0|0]
29100,1.6720640659332275,1.1529000997543335,-0.02956702746450901,-0.36073973774909973,0.9377838373184204,3.864015817642212,4.12109375,0,"['A1', 'B2', 'F2']",6.1,90,0,0.6505481944416004,[29200|0|0]
29200,1.6720277070999146,1.1531612873077393,-0.029251545667648315,-0.36572107672691345,0.936811089515686,3.8566417694091797,4.12109375,0,"['A1', 'B2', 'F2']",6.1,90,0,0.6509593752618783,[29300|0|0]
29300,1.6718822717666626,1.1526697874069214,-0.029314620420336723,-0.35814380645751953,0.9459270238876343,3.8722710609436035,4.12109375,0,"['A1', 'B2', 'F2']",6.1,90,0,0.6514758072642647,[29400|0|0]
29400,1.6718342304229736,1.1530710458755493,-0.02941385842859745,-0.36057958006858826,0.9410674571990967,3.8786721229553223,4.12109375,0,"['A1', 'B2', 'F2']",6.1,90,0,0.6518919376664617,[29500|0|0]
29500,1.6720153093338013,1.152807593345642,-0.029066039249300957,-0.3565216660499573,0.9362544417381287,3.854341745376587,4.12109375,0,"['A1', 'B2', 'F2']",6.1,90,0,0.6523643516681038,[29600|0|0]
29600,1.671985387802124,1.1527748107910156,-0.029458405449986458,-0.3500652611255646,0.9351359605789185,3.8881046772003174,4.12109375,0,"['A1', 'B2', 'F2']",6.1,90,0,0.6527592202910484,[29700|0|0]
29700,1.6717971563339233,1.1529357433319092,-0.029431721195578575,-0.36407631635665894,0.9403625726699829,3.8759605884552,4.12109375,0,"['A1', 'B2', 'F2']",6.1,90,0,0.653008303445382,[29800|0|0]
29800,1.6720869541168213,1.1528500318527222,-0.029089737683534622,-0.3665456771850586,0.9370233416557312,3.8517496585845947,4.12109375,0,"['A1', 'B2', 'F2']",6.1,90,0,0.6534646826026043,[29900|0|0]
29900,1.6717528104782104,1.1532450914382935,-0.029284389689564705,-0.37141746282577515,0.9542373418807983,3.848897695541382,4.12109375,0,"['A1', 'B2', 'F2']",6.1,90,0,0.6540175057667602,[30000|0|0]
30000,1.672013759613037,1.1528615951538086,-0.029276274144649506,-0.36301857233047485,0.9476410746574402,3.8476147651672363,4.12109375,0,"['A1', 'B2', 'F2']",6.1,90,0,0.6544814343315736,[30100|0|0]
30100,1.6719725131988525,1.1532907485961914,-0.029359852895140648,-0.3716018497943878,0.9484032988548279,3.8537039756774902,4.12109375,0,"['A1', 'B2', 'F2']",6.1,90,0,0.6549205918788453,[30200|0|0]
