time.ms,stateEstimate.x,stateEstimate.y,stateEstimate.z,stabilizer.roll,stabilizer.pitch,stabilizer.yaw,pm.vbat,drone_id,node_name,wind_speed,global_wind_direction,relative_wind_direction,travel_dist,waiting_time
0,1.7158122062683105,1.2041374444961548,-0.056384723633527756,-2.2001216411590576,-13.779826164245605,12.898452758789062,4.08984375,0,"['A1', 'F1', 'E2']",6.1,90,0,0.08676175424742592,[100|0|0]
100,1.7132649421691895,1.217081069946289,-0.05809957906603813,1.683703064918518,-0.8912125825881958,13.94713020324707,4.08984375,0,"['A1', 'F1', 'E2']",6.1,90,0,0.10006463827076632,[200|0|0]
201,1.7227553129196167,1.2013635635375977,-0.057289451360702515,7.600549697875977,5.940789699554443,12.238049507141113,4.08984375,0,"['A1', 'F1', 'E2']",6.1,90,0,0.11844298018691243,[300|0|0]
301,1.708568811416626,1.197221279144287,-0.052618350833654404,8.66476058959961,10.728778839111328,11.016063690185547,4.08984375,0,"['A1', 'F1', 'E2']",6.1,90,0,0.13394248098607403,[400|0|0]
401,1.6996417045593262,1.1942076683044434,-0.04879361763596535,8.417466163635254,11.34916877746582,10.303741455078125,4.08984375,0,"['A1', 'F1', 'E2']",6.1,90,0,0.1441112405549289,[500|0|0]
501,1.6956204175949097,1.19306218624115,-0.04637110233306885,7.563792705535889,10.53320598602295,9.966245651245117,4.08984375,0,"['A1', 'F1', 'E2']",6.1,90,0,0.14894357522879834,[600|0|0]
601,1.6926608085632324,1.190851092338562,-0.045666515827178955,6.754393100738525,9.41117000579834,9.751002311706543,4.08984375,0,"['A1', 'F1', 'E2']",6.1,90,0,0.15270451447461567,[700|0|0]
701,1.6915106773376465,1.1907540559768677,-0.04481116309762001,5.891658306121826,8.262887954711914,9.549447059631348,4.08984375,0,"['A1', 'F1', 'E2']",6.1,90,0,0.1541411237407429,[800|0|0]
801,1.6910780668258667,1.1907979249954224,-0.044342782348394394,5.11318302154541,7.212032318115234,9.416958808898926,4.08984375,0,"['A1', 'F1', 'E2']",6.1,90,0,0.15478023004796923,[900|0|0]
901,1.6912107467651367,1.1906393766403198,-0.04385459050536156,4.432406425476074,6.249143600463867,9.330779075622559,4.08984375,0,"['A1', 'F1', 'E2']",6.1,90,0,0.15531039306327132,[1000|0|0]
1001,1.6916307210922241,1.1909586191177368,-0.0443258211016655,3.828254222869873,5.410427093505859,9.273307800292969,4.08984375,0,"['A1', 'F1', 'E2']",6.1,90,0,0.15601774903425963,[1100|0|0]
1101,1.6920017004013062,1.191626787185669,-0.04375304654240608,3.2870118618011475,4.6745429039001465,9.250391006469727,4.08984375,0,"['A1', 'F1', 'E2']",6.1,90,0,0.15697281181256584,[1200|0|0]
1202,1.6927144527435303,1.192278265953064,-0.0438852421939373,2.8192780017852783,4.023606777191162,9.227152824401855,4.08984375,0,"['A1', 'F1', 'E2']",6.1,90,0,0.15794744824529153,[1300|0|0]
1301,1.6918842792510986,1.1922454833984375,-0.04328986257314682,2.361752510070801,3.4829041957855225,9.24413013458252,4.08984375,0,"['A1', 'F1', 'E2']",6.1,90,0,0.15896957329452796,[1400|0|0]
1402,1.6945637464523315,1.1940053701400757,-0.04332882910966873,2.0080406665802,2.9815151691436768,9.293291091918945,4.08984375,0,"['A1', 'F1', 'E2']",6.1,90,0,0.162175546503531,[1500|0|0]
1502,1.695096492767334,1.1938971281051636,-0.043473485857248306,1.7243210077285767,2.583409309387207,9.32615852355957,4.08984375,0,"['A1', 'F1', 'E2']",6.1,90,0,0.16273809476714124,[1600|0|0]
1600,1.6953688859939575,1.194469928741455,-0.04308215528726578,1.4658997058868408,2.235675811767578,9.34902572631836,4.08984375,0,"['A1', 'F1', 'E2']",6.1,90,0,0.1634833720671103,[1700|0|0]
1700,1.6957942247390747,1.1943556070327759,-0.04363289475440979,1.2627373933792114,1.9515271186828613,9.383177757263184,4.08984375,0,"['A1', 'F1', 'E2']",6.1,90,0,0.1641885645669593,[1800|0|0]
1802,1.6960606575012207,1.1948405504226685,-0.043463218957185745,1.0753417015075684,1.7164032459259033,9.418851852416992,4.08984375,0,"['A1', 'F1', 'E2']",6.1,90,0,0.16476731009334275,[1900|0|0]
1902,1.6968169212341309,1.194946050643921,-0.04333440586924553,0.9291780591011047,1.5002392530441284,9.473060607910156,4.08984375,0,"['A1', 'F1', 'E2']",6.1,90,0,0.16554168593363233,[2000|0|0]
2000,1.696830153465271,1.194995403289795,-0.043609682470560074,0.8142340183258057,1.3538519144058228,9.536921501159668,4.08984375,0,"['A1', 'F1', 'E2']",6.1,90,0,0.16582166447357244,[2100|0|0]
2100,1.6969428062438965,1.1950335502624512,-0.043590910732746124,0.7191778421401978,1.2361994981765747,9.55201244354248,4.08984375,0,"['A1', 'F1', 'E2']",6.1,90,0,0.1659420730205923,[2200|0|0]
2200,1.6971925497055054,1.1953530311584473,-0.043484605848789215,0.6324362754821777,1.1317881345748901,9.54569149017334,4.08984375,0,"['A1', 'F1', 'E2']",6.1,90,0,0.16636128724730218,[2300|0|0]
2300,1.6978646516799927,1.1955188512802124,-0.04355446621775627,0.5794700980186462,1.038102626800537,9.578031539916992,4.08984375,0,"['A1', 'F1', 'E2']",6.1,90,0,0.16705705865232265,[2400|0|0]
2400,1.6975914239883423,1.1956851482391357,-0.04330941662192345,0.5259328484535217,0.9837602972984314,9.59915542602539,4.08984375,0,"['A1', 'F1', 'E2']",6.1,90,0,0.16745999457086252,[2500|0|0]
2500,1.697623610496521,1.1962162256240845,-0.04379625618457794,0.4786171019077301,0.9255002737045288,9.623278617858887,4.08984375,0,"['A1', 'F1', 'E2']",6.1,90,0,0.16818116855810716,[2600|0|0]
2600,1.697530746459961,1.1957637071609497,-0.043410226702690125,0.4697277843952179,0.9083224534988403,9.634135246276855,4.08984375,0,"['A1', 'F1', 'E2']",6.1,90,0,0.16878317806770868,[2700|0|0]
2700,1.6980302333831787,1.196210503578186,-0.04353392496705055,0.4425235092639923,0.8697867393493652,9.654834747314453,4.08984375,0,"['A1', 'F1', 'E2']",6.1,90,0,0.16946465843098157,[2800|0|0]
2800,1.6976433992385864,1.1958165168762207,-0.04341154173016548,0.4368269741535187,0.8587033152580261,9.664447784423828,4.08984375,0,"['A1', 'F1', 'E2']",6.1,90,0,0.17003020580602493,[2900|0|0]
2900,1.6978901624679565,1.1959704160690308,-0.04372461140155792,0.42021000385284424,0.8397794961929321,9.683882713317871,4.08984375,0,"['A1', 'F1', 'E2']",6.1,90,0,0.1704575109336124,[3000|0|0]
3000,1.6977332830429077,1.1960843801498413,-0.04356342926621437,0.4065873920917511,0.8401807546615601,9.68423843383789,4.08984375,0,"['A1', 'F1', 'E2']",6.1,90,0,0.1707096589981946,[3100|0|0]
3100,1.6977777481079102,1.1958731412887573,-0.0432342104613781,0.3649570047855377,0.7918834090232849,9.6947021484375,4.08984375,0,"['A1', 'F1', 'E2']",6.1,90,0,0.17110333909661912,[3200|0|0]
3200,1.6983634233474731,1.1960121393203735,-0.04341493919491768,0.3757801353931427,0.7793792486190796,9.718870162963867,4.08984375,0,"['A1', 'F1', 'E2']",6.1,90,0,0.17173182840771134,[3300|0|0]
3300,1.6978933811187744,1.1960859298706055,-0.04352831467986107,0.3785795271396637,0.7993105053901672,9.733321189880371,4.08984375,0,"['A1', 'F1', 'E2']",6.1,90,0,0.1722209487841523,[3400|0|0]
3400,1.6980228424072266,1.1958023309707642,-0.043630536645650864,0.39786016941070557,0.8030138611793518,9.726703643798828,4.08984375,0,"['A1', 'F1', 'E2']",6.1,90,0,0.17254903092552673,[3500|0|0]
3500,1.6981276273727417,1.196150302886963,-0.04367662966251373,0.39168083667755127,0.8007474541664124,9.735547065734863,4.08984375,0,"['A1', 'F1', 'E2']",6.1,90,0,0.17291534896994243,[3600|0|0]
3600,1.6982074975967407,1.1960103511810303,-0.04350948706269264,0.39648687839508057,0.8052400946617126,9.749979972839355,4.08984375,0,"['A1', 'F1', 'E2']",6.1,90,0,0.17314751783381108,[3700|0|0]
3700,1.6980750560760498,1.1958222389221191,-0.04342437535524368,0.4020274877548218,0.8171485066413879,9.737759590148926,4.08984375,0,"['A1', 'F1', 'E2']",6.1,90,0,0.17339281557350805,[3800|0|0]
3800,1.6978132724761963,1.1957850456237793,-0.04340864345431328,0.40504616498947144,0.8174043893814087,9.721763610839844,4.08984375,0,"['A1', 'F1', 'E2']",6.1,90,0,0.17365769571111853,[3900|0|0]
3900,1.6980175971984863,1.1962716579437256,-0.04349371790885925,0.3957463800907135,0.8098697662353516,9.729666709899902,4.08984375,0,"['A1', 'F1', 'E2']",6.1,90,0,0.1741922776083791,[4000|0|0]
4000,1.6979478597640991,1.1960786581039429,-0.043418508023023605,0.4038679003715515,0.8125794529914856,9.728865623474121,4.08984375,0,"['A1', 'F1', 'E2']",6.1,90,0,0.1744108382975217,[4100|0|0]
4100,1.698082685470581,1.1957859992980957,-0.04347725585103035,0.4115047752857208,0.8194913864135742,9.731246948242188,4.08984375,0,"['A1', 'F1', 'E2']",6.1,90,0,0.17473837219662794,[4200|0|0]
4200,1.6981295347213745,1.196076512336731,-0.043399181216955185,0.36909762024879456,0.7794058918952942,9.736590385437012,4.08984375,0,"['A1', 'F1', 'E2']",6.1,90,0,0.17504281977241556,[4300|0|0]
4300,1.6978410482406616,1.1958783864974976,-0.04340387508273125,0.3887762129306793,0.805450975894928,9.729033470153809,4.08984375,0,"['A1', 'F1', 'E2']",6.1,90,0,0.1753928202439895,[4400|0|0]
4400,1.6982582807540894,1.1957588195800781,-0.04381116107106209,0.4090510606765747,0.8049355149269104,9.71613883972168,4.08984375,0,"['A1', 'F1', 'E2']",6.1,90,0,0.1759880186094888,[4500|0|0]
4500,1.698012113571167,1.1960591077804565,-0.04338189959526062,0.4030870497226715,0.8139194250106812,9.695207595825195,4.08984375,0,"['A1', 'F1', 'E2']",6.1,90,0,0.17656684215759452,[4600|0|0]
4600,1.698117971420288,1.1962506771087646,-0.04394429549574852,0.4067328870296478,0.8207576870918274,9.70891284942627,4.08984375,0,"['A1', 'F1', 'E2']",6.1,90,0,0.17717032690525147,[4700|0|0]
4700,1.6979081630706787,1.1960339546203613,-0.043451011180877686,0.4232730567455292,0.8403215408325195,9.728386878967285,4.08984375,0,"['A1', 'F1', 'E2']",6.1,90,0,0.17774852894246954,[4800|0|0]
4800,1.697875738143921,1.1958417892456055,-0.043630920350551605,0.4264896512031555,0.8519411087036133,9.720137596130371,4.08984375,0,"['A1', 'F1', 'E2']",6.1,90,0,0.1780137575541672,[4900|0|0]
4900,1.6978627443313599,1.1958045959472656,-0.04363322630524635,0.4282214045524597,0.8541180491447449,9.7169771194458,4.08984375,0,"['A1', 'F1', 'E2']",6.1,90,0,0.1780532227037719,[5000|0|0]
5000,1.697693943977356,1.19597589969635,-0.04328961670398712,0.41948679089546204,0.8530199527740479,9.690088272094727,4.08984375,0,"['A1', 'F1', 'E2']",6.1,90,0,0.17847263430594784,[5100|0|0]
5100,1.6976957321166992,1.1959925889968872,-0.04360733926296234,0.420373797416687,0.8478888869285583,9.676050186157227,4.08984375,0,"['A1', 'F1', 'E2']",6.1,90,0,0.1787907999148318,[5200|0|0]
5200,1.6978899240493774,1.195744276046753,-0.04345686733722687,0.42473307251930237,0.8414669036865234,9.688605308532715,4.08984375,0,"['A1', 'F1', 'E2']",6.1,90,0,0.17914010154431015,[5300|0|0]
5300,1.6978451013565063,1.196044683456421,-0.043611373752355576,0.4116833508014679,0.8444919586181641,9.716805458068848,4.08984375,0,"['A1', 'F1', 'E2']",6.1,90,0,0.1794808740753269,[5400|0|0]
5400,1.69794499874115,1.1956868171691895,-0.043779242783784866,0.4198586344718933,0.8487702012062073,9.720024108886719,4.08984375,0,"['A1', 'F1', 'E2']",6.1,90,0,0.17988858448567774,[5500|0|0]
5500,1.697839379310608,1.1960303783416748,-0.04341385141015053,0.41099682450294495,0.8500822186470032,9.698657989501953,4.08984375,0,"['A1', 'F1', 'E2']",6.1,90,0,0.18040112775143577,[5600|0|0]
5600,1.6979588270187378,1.1957275867462158,-0.0436328649520874,0.4161517918109894,0.8459962606430054,9.67121410369873,4.08984375,0,"['A1', 'F1', 'E2']",6.1,90,0,0.18079345087949453,[5700|0|0]
5700,1.6980822086334229,1.1957522630691528,-0.043678756803274155,0.4149012267589569,0.8395249843597412,9.680399894714355,4.08984375,0,"['A1', 'F1', 'E2']",6.1,90,0,0.18092738371998307,[5800|0|0]
5800,1.6981394290924072,1.1959270238876343,-0.043390173465013504,0.4027605652809143,0.836531400680542,9.702909469604492,4.08984375,0,"['A1', 'F1', 'E2']",6.1,90,0,0.18126957645474573,[5900|0|0]
5900,1.6979814767837524,1.1955687999725342,-0.044019486755132675,0.4161122143268585,0.8486075401306152,9.715017318725586,4.08984375,0,"['A1', 'F1', 'E2']",6.1,90,0,0.18201072996265055,[6000|0|0]
6000,1.6981168985366821,1.195932388305664,-0.04324772208929062,0.40778011083602905,0.8489741683006287,9.734228134155273,4.08984375,0,"['A1', 'F1', 'E2']",6.1,90,0,0.18287453331214454,[6100|0|0]
6100,1.6977323293685913,1.1956045627593994,-0.04334587603807449,0.4156191349029541,0.8626737594604492,9.692037582397461,4.08984375,0,"['A1', 'F1', 'E2']",6.1,90,0,0.18338931213017384,[6200|0|0]
6200,1.6979821920394897,1.1958836317062378,-0.0432116761803627,0.41065385937690735,0.8540090322494507,9.67651653289795,4.08984375,0,"['A1', 'F1', 'E2']",6.1,90,0,0.18378720713291682,[6300|0|0]
6300,1.698161005973816,1.1958385705947876,-0.04386788234114647,0.4158651530742645,0.8377552628517151,9.677704811096191,4.08984375,0,"['A1', 'F1', 'E2']",6.1,90,0,0.18446883126124922,[6400|0|0]
6400,1.6982418298721313,1.195816159248352,-0.04333792254328728,0.4198460876941681,0.8426440358161926,9.680362701416016,4.08984375,0,"['A1', 'F1', 'E2']",6.1,90,0,0.1850053870909025,[6500|0|0]
6500,1.6981534957885742,1.1959573030471802,-0.04340050742030144,0.38151073455810547,0.7966381311416626,9.689045906066895,4.08984375,0,"['A1', 'F1', 'E2']",6.1,90,0,0.18518326724464762,[6600|0|0]
6600,1.698121428489685,1.1956387758255005,-0.04371993616223335,0.39903882145881653,0.8070136308670044,9.674777030944824,4.08984375,0,"['A1', 'F1', 'E2']",6.1,90,0,0.18563550902045037,[6700|0|0]
6700,1.6978281736373901,1.1959017515182495,-0.043400492519140244,0.39427220821380615,0.820268988609314,9.66494083404541,4.08984375,0,"['A1', 'F1', 'E2']",6.1,90,0,0.1861426567942638,[6800|0|0]
6800,1.6983568668365479,1.1957510709762573,-0.04323386028409004,0.39927059412002563,0.8090112805366516,9.67699146270752,4.08984375,0,"['A1', 'F1', 'E2']",6.1,90,0,0.18671710211483705,[6900|0|0]
6900,1.6978394985198975,1.1960233449935913,-0.043909888714551926,0.3919486105442047,0.8233097195625305,9.707391738891602,4.08984375,0,"['A1', 'F1', 'E2']",6.1,90,0,0.1876108680542091,[7000|0|0]
7000,1.6979652643203735,1.1957285404205322,-0.0433947928249836,0.40172797441482544,0.8244791626930237,9.707879066467285,4.08984375,0,"['A1', 'F1', 'E2']",6.1,90,0,0.18821753975151836,[7100|0|0]
7100,1.6978379487991333,1.1957629919052124,-0.0437246710062027,0.3981377184391022,0.8284035325050354,9.713922500610352,4.08984375,0,"['A1', 'F1', 'E2']",6.1,90,0,0.18857280832765444,[7200|0|0]
7200,1.698034644126892,1.195879578590393,-0.04315139725804329,0.39986008405685425,0.8140897750854492,9.724654197692871,4.08984375,0,"['A1', 'F1', 'E2']",6.1,90,0,0.18918999897684827,[7300|0|0]
7300,1.6982814073562622,1.1958569288253784,-0.04304828494787216,0.4024534523487091,0.8096227049827576,9.699834823608398,4.08984375,0,"['A1', 'F1', 'E2']",6.1,90,0,0.1894583965396785,[7400|0|0]
7400,1.6981863975524902,1.1956326961517334,-0.04373005032539368,0.4017321467399597,0.8104926943778992,9.686585426330566,4.08984375,0,"['A1', 'F1', 'E2']",6.1,90,0,0.19018235177636778,[7500|0|0]
7500,1.6980012655258179,1.1958026885986328,-0.04373836889863014,0.3930950164794922,0.8110311031341553,9.704806327819824,4.08984375,0,"['A1', 'F1', 'E2']",6.1,90,0,0.1904338284113925,[7600|0|0]
7600,1.6979411840438843,1.1960694789886475,-0.04358424246311188,0.4005284309387207,0.8175702095031738,9.713748931884766,4.08984375,0,"['A1', 'F1', 'E2']",6.1,90,0,0.19074774218108265,[7700|0|0]
7700,1.6983585357666016,1.1957182884216309,-0.043616872280836105,0.421292245388031,0.8079460859298706,9.719378471374512,4.08984375,0,"['A1', 'F1', 'E2']",6.1,90,0,0.19129416873591068,[7800|0|0]
7800,1.6979933977127075,1.1959326267242432,-0.043208904564380646,0.3723304271697998,0.7825401425361633,9.714449882507324,4.08984375,0,"['A1', 'F1', 'E2']",6.1,90,0,0.19188213503089546,[7900|0|0]
7900,1.69826340675354,1.1960408687591553,-0.04332366958260536,0.37782084941864014,0.7871217727661133,9.700913429260254,4.08984375,0,"['A1', 'F1', 'E2']",6.1,90,0,0.19219485252266932,[8000|0|0]
8000,1.6979750394821167,1.1960461139678955,-0.04364113137125969,0.3842923045158386,0.8052362203598022,9.70166301727295,4.08984375,0,"['A1', 'F1', 'E2']",6.1,90,0,0.19262376414841345,[8100|0|0]
8100,1.6978739500045776,1.195641040802002,-0.043427981436252594,0.40458711981773376,0.812920331954956,9.716121673583984,4.08984375,0,"['A1', 'F1', 'E2']",6.1,90,0,0.19309252447842196,[8200|0|0]
8200,1.6978873014450073,1.1960015296936035,-0.04313301295042038,0.3972473442554474,0.8078836798667908,9.73201847076416,4.08984375,0,"['A1', 'F1', 'E2']",6.1,90,0,0.19355850399467114,[8300|0|0]
8300,1.6979483366012573,1.1956413984298706,-0.043580200523138046,0.4074026048183441,0.8104357123374939,9.735249519348145,4.08984375,0,"['A1', 'F1', 'E2']",6.1,90,0,0.19413590900210478,[8400|0|0]
8400,1.6978676319122314,1.1956347227096558,-0.043653454631567,0.4056705832481384,0.8165271282196045,9.715639114379883,4.08984375,0,"['A1', 'F1', 'E2']",6.1,90,0,0.19424510596393466,[8500|0|0]
8500,1.697913408279419,1.1956788301467896,-0.043368056416511536,0.4016045331954956,0.8176201581954956,9.707806587219238,4.08984375,0,"['A1', 'F1', 'E2']",6.1,90,0,0.19453749796615127,[8600|0|0]
8600,1.6979713439941406,1.195920467376709,-0.04346591606736183,0.3933301270008087,0.8156449198722839,9.733531951904297,4.08984375,0,"['A1', 'F1', 'E2']",6.1,90,0,0.19480455902506474,[8700|0|0]
8700,1.6979950666427612,1.195738673210144,-0.04368111863732338,0.39584484696388245,0.8126405477523804,9.727945327758789,4.08984375,0,"['A1', 'F1', 'E2']",6.1,90,0,0.1950872674069226,[8800|0|0]
8800,1.6980865001678467,1.1959881782531738,-0.04363463073968887,0.387273371219635,0.8036552667617798,9.713956832885742,4.08984375,0,"['A1', 'F1', 'E2']",6.1,90,0,0.19535703393678372,[8900|0|0]
8900,1.6980308294296265,1.1958861351013184,-0.04332892224192619,0.39629092812538147,0.8143211007118225,9.72397518157959,4.08984375,0,"['A1', 'F1', 'E2']",6.1,90,0,0.19568409619620675,[9000|0|0]
9000,1.6981229782104492,1.1955293416976929,-0.04355241358280182,0.4048801064491272,0.8088662028312683,9.724903106689453,4.08984375,0,"['A1', 'F1', 'E2']",6.1,90,0,0.19611507335351808,[9100|0|0]
9100,1.6983846426010132,1.1956970691680908,-0.043572768568992615,0.39957550168037415,0.8126255869865417,9.736608505249023,4.08984375,0,"['A1', 'F1', 'E2']",6.1,90,0,0.1964265457970474,[9200|0|0]
9200,1.6980572938919067,1.1955571174621582,-0.04358762502670288,0.40117451548576355,0.8265417814254761,9.742473602294922,4.08984375,0,"['A1', 'F1', 'E2']",6.1,90,0,0.1967828663994307,[9300|0|0]
9300,1.6980360746383667,1.1957637071609497,-0.043524663895368576,0.3938029706478119,0.8253177404403687,9.72549819946289,4.08984375,0,"['A1', 'F1', 'E2']",6.1,90,0,0.19699987714669098,[9400|0|0]
9400,1.6982145309448242,1.1954501867294312,-0.04359294846653938,0.3989224135875702,0.8220528960227966,9.725455284118652,4.08984375,0,"['A1', 'F1', 'E2']",6.1,90,0,0.197367034465771,[9500|0|0]
9500,1.6979998350143433,1.1951450109481812,-0.04333067312836647,0.41099274158477783,0.823883056640625,9.732705116271973,4.08984375,0,"['A1', 'F1', 'E2']",6.1,90,0,0.19782312102887098,[9600|0|0]
9600,1.6981655359268188,1.1961084604263306,-0.04346991702914238,0.3802017569541931,0.810437798500061,9.698369026184082,4.08984375,0,"['A1', 'F1', 'E2']",6.1,90,0,0.1988105827006562,[9700|0|0]
9700,1.6981879472732544,1.1961127519607544,-0.04368329048156738,0.38959553837776184,0.8160989880561829,9.709307670593262,4.08984375,0,"['A1', 'F1', 'E2']",6.1,90,0,0.19902517281206988,[9800|0|0]
9800,1.6979182958602905,1.196118712425232,-0.043499670922756195,0.39714759588241577,0.8305402398109436,9.729354858398438,4.08984375,0,"['A1', 'F1', 'E2']",6.1,90,0,0.1993514603448201,[9900|0|0]
9900,1.6981351375579834,1.1959469318389893,-0.04329504817724228,0.4026552140712738,0.8286898732185364,9.722308158874512,4.08984375,0,"['A1', 'F1', 'E2']",6.1,90,0,0.19969555242501064,[10000|0|0]
10000,1.6981194019317627,1.1960227489471436,-0.04353105649352074,0.3971242308616638,0.8267917633056641,9.72822380065918,4.08984375,0,"['A1', 'F1', 'E2']",6.1,90,0,0.19994393875550012,[10100|0|0]
10100,1.6982940435409546,1.1953938007354736,-0.04342291131615639,0.41459327936172485,0.8366649746894836,9.723618507385254,4.08984375,0,"['A1', 'F1', 'E2']",6.1,90,0,0.2006055813508725,[10200|0|0]
10200,1.6979502439498901,1.1960378885269165,-0.042974937707185745,0.362099826335907,0.8019360899925232,9.716536521911621,4.08984375,0,"['A1', 'F1', 'E2']",6.1,90,0,0.20146216035845793,[10300|0|0]
10300,1.697953224182129,1.1955976486206055,-0.04319507256150246,0.3701722323894501,0.8115037083625793,9.725767135620117,4.08984375,0,"['A1', 'F1', 'E2']",6.1,90,0,0.2019543792233727,[10400|0|0]
10400,1.6979104280471802,1.1957683563232422,-0.04332338646054268,0.3818129003047943,0.8126504421234131,9.7117338180542,4.08984375,0,"['A1', 'F1', 'E2']",6.1,90,0,0.20217217978717583,[10500|0|0]
10500,1.698074221611023,1.1952931880950928,-0.043512728065252304,0.4125509560108185,0.8172834515571594,9.70511531829834,4.08984375,0,"['A1', 'F1', 'E2']",6.1,90,0,0.20270926769420128,[10600|0|0]
10600,1.6980583667755127,1.1953980922698975,-0.04355546459555626,0.4217073619365692,0.8300566077232361,9.708288192749023,4.08984375,0,"['A1', 'F1', 'E2']",6.1,90,0,0.2028236472060158,[10700|0|0]
10700,1.6982511281967163,1.1956548690795898,-0.04349236935377121,0.4179700016975403,0.8301437497138977,9.702838897705078,4.08984375,0,"['A1', 'F1', 'E2']",6.1,90,0,0.2031508662534995,[10800|0|0]
10800,1.6981792449951172,1.1957181692123413,-0.043597783893346786,0.4144078195095062,0.8281445503234863,9.664583206176758,4.08984375,0,"['A1', 'F1', 'E2']",6.1,90,0,0.2032932963297911,[10900|0|0]
10900,1.6979578733444214,1.195478081703186,-0.04369426518678665,0.4221506714820862,0.8307055830955505,9.671489715576172,4.08984375,0,"['A1', 'F1', 'E2']",6.1,90,0,0.20363381954451806,[11000|0|0]
11000,1.6981269121170044,1.1960443258285522,-0.04370015487074852,0.4048699736595154,0.8234796524047852,9.70576000213623,4.08984375,0,"['A1', 'F1', 'E2']",6.1,90,0,0.20422478587564472,[11100|0|0]
11100,1.6984978914260864,1.195959448814392,-0.043818261474370956,0.42091354727745056,0.8144084811210632,9.716209411621094,4.08984375,0,"['A1', 'F1', 'E2']",6.1,90,0,0.20462325660872174,[11200|0|0]
11200,1.6982920169830322,1.1956679821014404,-0.043667688965797424,0.43372654914855957,0.8250274062156677,9.705161094665527,4.08984375,0,"['A1', 'F1', 'E2']",6.1,90,0,0.205010566835026,[11300|0|0]
11300,1.6979702711105347,1.195703148841858,-0.04349731653928757,0.3951074182987213,0.8014519810676575,9.709354400634766,4.08984375,0,"['A1', 'F1', 'E2']",6.1,90,0,0.2053763316089117,[11400|0|0]
11400,1.6980763673782349,1.1955806016921997,-0.04349832236766815,0.3953343331813812,0.804185688495636,9.682572364807129,4.08984375,0,"['A1', 'F1', 'E2']",6.1,90,0,0.20553842798024674,[11500|0|0]
11500,1.6978634595870972,1.1955959796905518,-0.04360076040029526,0.40143275260925293,0.8075463771820068,9.68233871459961,4.08984375,0,"['A1', 'F1', 'E2']",6.1,90,0,0.20577519740582564,[11600|0|0]
11600,1.6981045007705688,1.1958364248275757,-0.04341182857751846,0.4034862816333771,0.7953940629959106,9.69938850402832,4.08984375,0,"['A1', 'F1', 'E2']",6.1,90,0,0.20616456862934587,[11700|0|0]
11700,1.6977379322052002,1.1954952478408813,-0.043498992919921875,0.4031470715999603,0.8090300559997559,9.701591491699219,4.08984375,0,"['A1', 'F1', 'E2']",6.1,90,0,0.20667287156259817,[11800|0|0]
11800,1.6981548070907593,1.1951535940170288,-0.04369158297777176,0.41221579909324646,0.7955909371376038,9.721747398376465,4.08984375,0,"['A1', 'F1', 'E2']",6.1,90,0,0.20724523764819863,[11900|0|0]
11900,1.69805908203125,1.1953964233398438,-0.04350729286670685,0.40379586815834045,0.7998587489128113,9.729791641235352,4.08984375,0,"['A1', 'F1', 'E2']",6.1,90,0,0.2075647563676395,[12000|0|0]
12000,1.6982975006103516,1.1955546140670776,-0.043765876442193985,0.40679052472114563,0.7951849699020386,9.723358154296875,4.08984375,0,"['A1', 'F1', 'E2']",6.1,90,0,0.20795041579064807,[12100|0|0]
12100,1.6981295347213745,1.1955621242523193,-0.043694764375686646,0.40316444635391235,0.7970448732376099,9.736510276794434,4.08984375,0,"['A1', 'F1', 'E2']",6.1,90,0,0.2081329695327219,[12200|0|0]
12200,1.6982109546661377,1.195334553718567,-0.043392010033130646,0.40370064973831177,0.7944862246513367,9.761124610900879,4.08984375,0,"['A1', 'F1', 'E2']",6.1,90,0,0.20852036822551026,[12300|0|0]
12300,1.6981433629989624,1.1954429149627686,-0.04356003180146217,0.41311684250831604,0.8037258982658386,9.764853477478027,4.08984375,0,"['A1', 'F1', 'E2']",6.1,90,0,0.20873141823699976,[12400|0|0]
12400,1.6982766389846802,1.1956062316894531,-0.04347805678844452,0.4107861816883087,0.8041484355926514,9.756669998168945,4.08984375,0,"['A1', 'F1', 'E2']",6.1,90,0,0.20895759238305375,[12500|0|0]
12500,1.6978399753570557,1.1955959796905518,-0.0437486432492733,0.417656272649765,0.8142223358154297,9.780475616455078,4.08984375,0,"['A1', 'F1', 'E2']",6.1,90,0,0.20947139901979128,[12600|0|0]
12600,1.6983567476272583,1.1955674886703491,-0.04367513954639435,0.41953355073928833,0.8052152395248413,9.757563591003418,4.08984375,0,"['A1', 'F1', 'E2']",6.1,90,0,0.2099941495452042,[12700|0|0]
12700,1.6978676319122314,1.1952720880508423,-0.043290141969919205,0.4242697060108185,0.8226311206817627,9.751779556274414,4.08984375,0,"['A1', 'F1', 'E2']",6.1,90,0,0.21068314797958776,[12800|0|0]
12800,1.698181390762329,1.1956669092178345,-0.04368242248892784,0.40896472334861755,0.8121589422225952,9.721233367919922,4.08984375,0,"['A1', 'F1', 'E2']",6.1,90,0,0.21132206297824827,[12900|0|0]
12900,1.6981736421585083,1.1955711841583252,-0.04353552684187889,0.4098908007144928,0.8193366527557373,9.711773872375488,4.08984375,0,"['A1', 'F1', 'E2']",6.1,90,0,0.21149756699245068,[13000|0|0]
13000,1.6983715295791626,1.1954208612442017,-0.043679285794496536,0.4155726134777069,0.8202962875366211,9.716073989868164,4.08984375,0,"['A1', 'F1', 'E2']",6.1,90,0,0.21178466113419084,[13100|0|0]
13100,1.6981271505355835,1.1954801082611084,-0.043768275529146194,0.409864217042923,0.8305152058601379,9.722386360168457,4.08984375,0,"['A1', 'F1', 'E2']",6.1,90,0,0.21205140164259928,[13200|0|0]
13200,1.698028802871704,1.195476770401001,-0.04366728663444519,0.4061383903026581,0.8276322484016418,9.733969688415527,4.08984375,0,"['A1', 'F1', 'E2']",6.1,90,0,0.21219240576010498,[13300|0|0]
13300,1.698219895362854,1.1954281330108643,-0.043708495795726776,0.40619635581970215,0.8207496404647827,9.724870681762695,4.08984375,0,"['A1', 'F1', 'E2']",6.1,90,0,0.21239385086644097,[13400|0|0]
13400,1.6979550123214722,1.1959384679794312,-0.043327074497938156,0.3917604982852936,0.8209041953086853,9.720260620117188,4.08984375,0,"['A1', 'F1', 'E2']",6.1,90,0,0.21308384145489898,[13500|0|0]
13500,1.6981425285339355,1.1956695318222046,-0.043743934482336044,0.4053097069263458,0.8255159258842468,9.70966625213623,4.08984375,0,"['A1', 'F1', 'E2']",6.1,90,0,0.2136141821314387,[13600|0|0]
13600,1.6985450983047485,1.195602536201477,-0.043545011430978775,0.36127397418022156,0.7760786414146423,9.740801811218262,4.08984375,0,"['A1', 'F1', 'E2']",6.1,90,0,0.21406818787361648,[13700|0|0]
13700,1.6979435682296753,1.195304036140442,-0.043612029403448105,0.38076719641685486,0.8053167462348938,9.737043380737305,4.08984375,0,"['A1', 'F1', 'E2']",6.1,90,0,0.21474304498907834,[13800|0|0]
13800,1.6979408264160156,1.1957166194915771,-0.04330167546868324,0.3741883635520935,0.8005951046943665,9.7268648147583,4.08984375,0,"['A1', 'F1', 'E2']",6.1,90,0,0.21525933183183163,[13900|0|0]
13900,1.697954773902893,1.1954424381256104,-0.043566543608903885,0.3889614939689636,0.7986188530921936,9.708672523498535,4.08984375,0,"['A1', 'F1', 'E2']",6.1,90,0,0.2156408093351494,[14000|0|0]
14000,1.6980174779891968,1.1957064867019653,-0.043138034641742706,0.3877812325954437,0.8024523258209229,9.705008506774902,4.08984375,0,"['A1', 'F1', 'E2']",6.1,90,0,0.21614803057686924,[14100|0|0]
14100,1.698165774345398,1.1956897974014282,-0.043695393949747086,0.3927081227302551,0.7989609241485596,9.702516555786133,4.08984375,0,"['A1', 'F1', 'E2']",6.1,90,0,0.21672502255275286,[14200|0|0]
14200,1.6979258060455322,1.195544719696045,-0.04342135414481163,0.4033105969429016,0.8110219836235046,9.727156639099121,4.08984375,0,"['A1', 'F1', 'E2']",6.1,90,0,0.2171171069062137,[14300|0|0]
14300,1.6979610919952393,1.1955353021621704,-0.043317798525094986,0.417166143655777,0.8196617364883423,9.760530471801758,4.08984375,0,"['A1', 'F1', 'E2']",6.1,90,0,0.21722691380292744,[14400|0|0]
14400,1.6981967687606812,1.1957069635391235,-0.04344659298658371,0.42022454738616943,0.8209487199783325,9.730242729187012,4.08984375,0,"['A1', 'F1', 'E2']",6.1,90,0,0.21754566006473575,[14500|0|0]
14500,1.69789719581604,1.1953654289245605,-0.043423693627119064,0.43272507190704346,0.8311494588851929,9.742972373962402,4.08984375,0,"['A1', 'F1', 'E2']",6.1,90,0,0.2180005383152265,[14600|0|0]
14600,1.6961395740509033,1.1940213441848755,-0.04667973145842552,0.4799940288066864,0.8941636085510254,9.749430656433105,4.08984375,0,"['A1', 'F1', 'E2']",6.1,90,0,0.22193723495271783,[14700|0|0]
14700,1.696099042892456,1.1943110227584839,-0.04672053083777428,0.48070451617240906,0.8915806412696838,9.736089706420898,4.08984375,0,"['A1', 'F1', 'E2']",6.1,90,0,0.2222325670372737,[14800|0|0]
14800,1.6982227563858032,1.1952975988388062,-0.04369907081127167,0.4434327185153961,0.8280658721923828,9.750720977783203,4.08984375,0,"['A1', 'F1', 'E2']",6.1,90,0,0.2260552247587866,[14900|0|0]
14900,1.696420669555664,1.193655014038086,-0.046298522502183914,0.4678206443786621,0.8658967018127441,9.750240325927734,4.08984375,0,"['A1', 'F1', 'E2']",6.1,90,0,0.2296193166296991,[15000|0|0]
15000,1.696144461631775,1.193833827972412,-0.046128492802381516,0.46467891335487366,0.8817451596260071,9.741400718688965,4.0859375,0,"['A1', 'F1', 'E2']",6.1,90,0,0.22998968852272456,[15100|0|0]
15100,1.6962486505508423,1.1938059329986572,-0.04596028849482536,0.4701671004295349,0.8808738589286804,9.730489730834961,4.08984375,0,"['A1', 'F1', 'E2']",6.1,90,0,0.2301895038111728,[15200|0|0]
15200,1.6959552764892578,1.1940767765045166,-0.045992616564035416,0.44110822677612305,0.8708133697509766,9.720819473266602,4.08984375,0,"['A1', 'F1', 'E2']",6.1,90,0,0.2305900904419228,[15300|0|0]
15300,1.6961697340011597,1.1942073106765747,-0.04651019722223282,0.4525679349899292,0.8706634640693665,9.732882499694824,4.08984375,0,"['A1', 'F1', 'E2']",6.1,90,0,0.2311653477167365,[15400|0|0]
15400,1.6959413290023804,1.1935596466064453,-0.046487271785736084,0.4664795398712158,0.8846537470817566,9.73149585723877,4.08984375,0,"['A1', 'F1', 'E2']",6.1,90,0,0.231852489017229,[15500|0|0]
15500,1.6960617303848267,1.1935744285583496,-0.0464322529733181,0.46474260091781616,0.8851479887962341,9.704181671142578,4.08984375,0,"['A1', 'F1', 'E2']",6.1,90,0,0.2319856883742731,[15600|0|0]
15600,1.695974349975586,1.1937322616577148,-0.04602620378136635,0.460184782743454,0.8896344304084778,9.697747230529785,4.08984375,0,"['A1', 'F1', 'E2']",6.1,90,0,0.2324300109704338,[15700|0|0]
15700,1.6960551738739014,1.1937330961227417,-0.04637882485985756,0.46381235122680664,0.8883907198905945,9.699031829833984,4.08984375,0,"['A1', 'F1', 'E2']",6.1,90,0,0.2327917772262774,[15800|0|0]
15800,1.696104645729065,1.1937600374221802,-0.04630639776587486,0.4667506217956543,0.8898008465766907,9.726183891296387,4.08984375,0,"['A1', 'F1', 'E2']",6.1,90,0,0.23288353223710262,[15900|0|0]
15900,1.695834994316101,1.1936169862747192,-0.04624936357140541,0.47426319122314453,0.8961319923400879,9.747021675109863,4.0859375,0,"['A1', 'F1', 'E2']",6.1,90,0,0.23319406148635635,[16000|0|0]
16000,1.6963974237442017,1.193605661392212,-0.04641522094607353,0.48035192489624023,0.8768479228019714,9.719490051269531,4.08984375,0,"['A1', 'F1', 'E2']",6.1,90,0,0.23378054574299856,[16100|0|0]
16100,1.6961631774902344,1.193678855895996,-0.046385426074266434,0.47458744049072266,0.8744588494300842,9.714305877685547,4.08984375,0,"['A1', 'F1', 'E2']",6.1,90,0,0.23402776321258337,[16200|0|0]
16200,1.695921778678894,1.1938778162002563,-0.04634392261505127,0.47899100184440613,0.8936147689819336,9.69412899017334,4.0859375,0,"['A1', 'F1', 'E2']",6.1,90,0,0.23434332798551388,[16300|0|0]
16301,1.6980355978012085,1.1981940269470215,-0.04101409763097763,0.4190491735935211,0.7757300734519958,9.463227272033691,4.08984375,0,"['A1', 'F1', 'E2']",6.1,90,0,0.24152002227001623,[16400|0|0]
16401,1.6964218616485596,1.193642258644104,-0.04605097696185112,0.574200451374054,0.8717174530029297,9.327348709106445,4.08984375,0,"['A1', 'F1', 'E2']",6.1,90,0,0.2484980515367642,[16500|0|0]
16501,1.6975140571594238,1.196848750114441,-0.04425140470266342,0.4819068908691406,0.8233296871185303,9.311420440673828,4.08984375,0,"['A1', 'F1', 'E2']",6.1,90,0,0.25233379643174003,[16600|0|0]
16602,1.6966638565063477,1.1932388544082642,-0.04663601145148277,0.5791852474212646,0.8623961806297302,9.371932983398438,4.08984375,0,"['A1', 'F1', 'E2']",6.1,90,0,0.256742938922801,[16700|0|0]
16701,1.6986055374145508,1.195473074913025,-0.043726880103349686,0.4714919924736023,0.8281201720237732,9.465435028076172,4.0859375,0,"['A1', 'F1', 'E2']",6.1,90,0,0.26089322942032817,[16800|0|0]
16801,1.6964313983917236,1.1931401491165161,-0.04638545960187912,0.48027849197387695,0.8778038024902344,9.542550086975098,4.0859375,0,"['A1', 'F1', 'E2']",6.1,90,0,0.2650450324277693,[16900|0|0]
16901,1.6963130235671997,1.1933614015579224,-0.04618474468588829,0.45567309856414795,0.897881031036377,9.590001106262207,4.08984375,0,"['A1', 'F1', 'E2']",6.1,90,0,0.2653663604835168,[17000|0|0]
17002,1.6958893537521362,1.1935064792633057,-0.04620839282870293,0.4383363127708435,0.9120951890945435,9.646900177001953,4.08984375,0,"['A1', 'F1', 'E2']",6.1,90,0,0.265814805449431,[17100|0|0]
17102,1.6963061094284058,1.193902611732483,-0.04599545896053314,0.42302292585372925,0.9053570032119751,9.658122062683105,4.08984375,0,"['A1', 'F1', 'E2']",6.1,90,0,0.26642795066799924,[17200|0|0]
17201,1.6963541507720947,1.1936393976211548,-0.04633135348558426,0.4328812062740326,0.9060850739479065,9.639972686767578,4.08984375,0,"['A1', 'F1', 'E2']",6.1,90,0,0.2668573860776536,[17300|0|0]
17302,1.6960368156433105,1.1940503120422363,-0.04669451713562012,0.4159902334213257,0.9122260212898254,9.638025283813477,4.08984375,0,"['A1', 'F1', 'E2']",6.1,90,0,0.26749097907171254,[17400|0|0]
17402,1.69611394405365,1.1937636137008667,-0.04601651057600975,0.40317100286483765,0.8869083523750305,9.652016639709473,4.08984375,0,"['A1', 'F1', 'E2']",6.1,90,0,0.2682311396120687,[17500|0|0]
17500,1.69636070728302,1.1937603950500488,-0.04620027914643288,0.411199688911438,0.8801177740097046,9.665514945983887,4.08984375,0,"['A1', 'F1', 'E2']",6.1,90,0,0.2685388299410646,[17600|0|0]
17602,1.695862054824829,1.1938574314117432,-0.04654309153556824,0.40884706377983093,0.8927711248397827,9.690669059753418,4.0859375,0,"['A1', 'F1', 'E2']",6.1,90,0,0.2691516844618894,[17700|0|0]
17702,1.6962621212005615,1.1937729120254517,-0.046326763927936554,0.41575437784194946,0.8780022263526917,9.700515747070312,4.0859375,0,"['A1', 'F1', 'E2']",6.1,90,0,0.26961427960396767,[17800|0|0]
17802,1.6960434913635254,1.1937165260314941,-0.046319637447595596,0.42203569412231445,0.8791105151176453,9.68768310546875,4.0859375,0,"['A1', 'F1', 'E2']",6.1,90,0,0.26984017597994364,[17900|0|0]
17900,1.6958277225494385,1.1936416625976562,-0.04617348685860634,0.43038299679756165,0.8797077536582947,9.688092231750488,4.0859375,0,"['A1', 'F1', 'E2']",6.1,90,0,0.2701113230055965,[18000|0|0]
18000,1.6959372758865356,1.193878173828125,-0.04617322236299515,0.4254615306854248,0.8733519911766052,9.70545768737793,4.0859375,0,"['A1', 'F1', 'E2']",6.1,90,0,0.27037197519869083,[18100|0|0]
18100,1.6960654258728027,1.1935073137283325,-0.046173010021448135,0.4430921971797943,0.8695523738861084,9.731922149658203,4.08984375,0,"['A1', 'F1', 'E2']",6.1,90,0,0.27076435215735084,[18200|0|0]
18200,1.696291446685791,1.1939617395401,-0.04597724229097366,0.4423171877861023,0.8714547157287598,9.739593505859375,4.0859375,0,"['A1', 'F1', 'E2']",6.1,90,0,0.27130833122919057,[18300|0|0]
18300,1.6962746381759644,1.1938230991363525,-0.04625963419675827,0.4584660828113556,0.8720345497131348,9.72215461730957,4.0859375,0,"['A1', 'F1', 'E2']",6.1,90,0,0.2716233691253341,[18400|0|0]
18400,1.6960113048553467,1.1938713788986206,-0.046364039182662964,0.46670958399772644,0.885850191116333,9.740248680114746,4.08984375,0,"['A1', 'F1', 'E2']",6.1,90,0,0.27191072913346664,[18500|0|0]
18500,1.6964986324310303,1.1937456130981445,-0.04631210118532181,0.4501442313194275,0.8400912880897522,9.732739448547363,4.0859375,0,"['A1', 'F1', 'E2']",6.1,90,0,0.27241669628473125,[18600|0|0]
18600,1.6962265968322754,1.1935958862304688,-0.04653128609061241,0.46554070711135864,0.8586245179176331,9.744633674621582,4.08984375,0,"['A1', 'F1', 'E2']",6.1,90,0,0.2727967798605421,[18700|0|0]
18700,1.6959925889968872,1.193669080734253,-0.046137306839227676,0.47042590379714966,0.8687071800231934,9.746006965637207,4.08984375,0,"['A1', 'F1', 'E2']",6.1,90,0,0.27326082377325833,[18800|0|0]
18800,1.696076512336731,1.193569302558899,-0.04641133174300194,0.4785156548023224,0.8721827268600464,9.739352226257324,4.08984375,0,"['A1', 'F1', 'E2']",6.1,90,0,0.2735642845765526,[18900|0|0]
18900,1.6963016986846924,1.1937007904052734,-0.04629449546337128,0.46991288661956787,0.866717517375946,9.737523078918457,4.0859375,0,"['A1', 'F1', 'E2']",6.1,90,0,0.2738500268752945,[19000|0|0]
19000,1.696458101272583,1.1937696933746338,-0.046390287578105927,0.46088075637817383,0.8698535561561584,9.749871253967285,4.08984375,0,"['A1', 'F1', 'E2']",6.1,90,0,0.2740459490994828,[19100|0|0]
19100,1.6961575746536255,1.1935168504714966,-0.04623175784945488,0.4653720259666443,0.8765001893043518,9.742891311645508,4.08984375,0,"['A1', 'F1', 'E2']",6.1,90,0,0.2744694788590453,[19200|0|0]
19200,1.6962965726852417,1.1937518119812012,-0.046113017946481705,0.46164798736572266,0.8652826547622681,9.718450546264648,4.08984375,0,"['A1', 'F1', 'E2']",6.1,90,0,0.2747671809389741,[19300|0|0]
19300,1.6963330507278442,1.193994164466858,-0.04640943184494972,0.4595147669315338,0.8653197884559631,9.705897331237793,4.08984375,0,"['A1', 'F1', 'E2']",6.1,90,0,0.2751517931776004,[19400|0|0]
19400,1.6962785720825195,1.19403874874115,-0.04595596343278885,0.4368070363998413,0.8482229113578796,9.695823669433594,4.08984375,0,"['A1', 'F1', 'E2']",6.1,90,0,0.27561069325510995,[19500|0|0]
19500,1.696237325668335,1.193964958190918,-0.04611016809940338,0.4416438937187195,0.8552659749984741,9.693028450012207,4.0859375,0,"['A1', 'F1', 'E2']",6.1,90,0,0.2757865494213149,[19600|0|0]
19600,1.696153998374939,1.1940642595291138,-0.04636688157916069,0.44173505902290344,0.8661155104637146,9.708136558532715,4.08984375,0,"['A1', 'F1', 'E2']",6.1,90,0,0.2760741359374823,[19700|0|0]
19700,1.6987252235412598,1.196851134300232,-0.04289853200316429,0.41931408643722534,0.781944215297699,9.614002227783203,4.08984375,0,"['A1', 'F1', 'E2']",6.1,90,0,0.2812129411125333,[19800|0|0]
19800,1.6987228393554688,1.1981536149978638,-0.04057988151907921,0.46081286668777466,0.765689492225647,9.495855331420898,4.08984375,0,"['A1', 'F1', 'E2']",6.1,90,0,0.2838723774662356,[19900|0|0]
19900,1.6980031728744507,1.1978405714035034,-0.04016110673546791,0.519102931022644,0.8002158403396606,9.394216537475586,4.08984375,0,"['A1', 'F1', 'E2']",6.1,90,0,0.28476192142538526,[20000|0|0]
20000,1.6999129056930542,1.1967582702636719,-0.042539436370134354,0.5814386606216431,0.7876203656196594,9.318903923034668,4.08984375,0,"['A1', 'F1', 'E2']",6.1,90,0,0.28799841753180416,[20100|0|0]
20100,1.7004177570343018,1.1973307132720947,-0.04314785823225975,0.572704553604126,0.7840104699134827,9.242897033691406,4.08984375,0,"['A1', 'F1', 'E2']",6.1,90,0,0.28897450310026823,[20200|0|0]
20200,1.6966450214385986,1.1932923793792725,-0.04601277783513069,0.6022396087646484,0.9172613620758057,9.33887767791748,4.08984375,0,"['A1', 'F1', 'E2']",6.1,90,0,0.29519940782531556,[20300|0|0]
20300,1.6964106559753418,1.1931836605072021,-0.046590253710746765,0.563035786151886,0.9413872957229614,9.451090812683105,4.0859375,0,"['A1', 'F1', 'E2']",6.1,90,0,0.29583204148742215,[20400|0|0]
20400,1.696352243423462,1.193224310874939,-0.045982588082551956,0.5079428553581238,0.9519116878509521,9.515113830566406,4.08984375,0,"['A1', 'F1', 'E2']",6.1,90,0,0.29644386008333407,[20500|0|0]
20500,1.69621741771698,1.1932947635650635,-0.04623527079820633,0.43414759635925293,0.929774820804596,9.570711135864258,4.08984375,0,"['A1', 'F1', 'E2']",6.1,90,0,0.29673880093751437,[20600|0|0]
20600,1.6961790323257446,1.1935856342315674,-0.046515773981809616,0.40991851687431335,0.9385348558425903,9.642105102539062,4.08984375,0,"['A1', 'F1', 'E2']",6.1,90,0,0.2971447088321214,[20700|0|0]
20700,1.6960349082946777,1.1934971809387207,-0.04583858326077461,0.38136571645736694,0.9170442819595337,9.669797897338867,4.08984375,0,"['A1', 'F1', 'E2']",6.1,90,0,0.2978426937846829,[20800|0|0]
20800,1.6962544918060303,1.1934491395950317,-0.046230170875787735,0.38351738452911377,0.9158686399459839,9.68319034576416,4.08984375,0,"['A1', 'F1', 'E2']",6.1,90,0,0.29829420873392937,[20900|0|0]
20900,1.696047306060791,1.1936111450195312,-0.045926664024591446,0.3806489109992981,0.9154223203659058,9.670511245727539,4.08984375,0,"['A1', 'F1', 'E2']",6.1,90,0,0.2986958156304348,[21000|0|0]
21000,1.6959835290908813,1.1934494972229004,-0.04623521491885185,0.38602831959724426,0.913291335105896,9.700304985046387,4.0859375,0,"['A1', 'F1', 'E2']",6.1,90,0,0.2990499359015227,[21100|0|0]
21100,1.6962240934371948,1.1934648752212524,-0.046223752200603485,0.38726869225502014,0.9067513346672058,9.698573112487793,4.08984375,0,"['A1', 'F1', 'E2']",6.1,90,0,0.299291263648498,[21200|0|0]
21200,1.6961936950683594,1.1935489177703857,-0.04615022614598274,0.38914310932159424,0.8982552289962769,9.707003593444824,4.08984375,0,"['A1', 'F1', 'E2']",6.1,90,0,0.2994069930380271,[21300|0|0]
21300,1.69609534740448,1.1935354471206665,-0.046148523688316345,0.3990429937839508,0.8939058780670166,9.723276138305664,4.0859375,0,"['A1', 'F1', 'E2']",6.1,90,0,0.2995062735484836,[21400|0|0]
21400,1.6960163116455078,1.1937521696090698,-0.046596527099609375,0.4114934206008911,0.8958533406257629,9.744956016540527,4.08984375,0,"['A1', 'F1', 'E2']",6.1,90,0,0.30001018062792006,[21500|0|0]
21500,1.6961089372634888,1.1937661170959473,-0.04641058295965195,0.4187299311161041,0.8967596888542175,9.740894317626953,4.0859375,0,"['A1', 'F1', 'E2']",6.1,90,0,0.3002183854806038,[21600|0|0]
21600,1.696149468421936,1.193727731704712,-0.046428244560956955,0.432007372379303,0.9007160067558289,9.732441902160645,4.0859375,0,"['A1', 'F1', 'E2']",6.1,90,0,0.30027693584547055,[21700|0|0]
21700,1.6963236331939697,1.1938767433166504,-0.046129241585731506,0.4138473570346832,0.8656764030456543,9.731931686401367,4.08984375,0,"['A1', 'F1', 'E2']",6.1,90,0,0.3006536859051968,[21800|0|0]
21800,1.6959189176559448,1.1943316459655762,-0.04654891416430473,0.41580653190612793,0.8887197971343994,9.7390775680542,4.0859375,0,"['A1', 'F1', 'E2']",6.1,90,0,0.30139318313975877,[21900|0|0]
21900,1.6960505247116089,1.193758487701416,-0.046234507113695145,0.4417351484298706,0.8886170983314514,9.731831550598145,4.0859375,0,"['A1', 'F1', 'E2']",6.1,90,0,0.3020600284039308,[22000|0|0]
22000,1.696251392364502,1.1935031414031982,-0.04641185700893402,0.45452389121055603,0.8794621229171753,9.74970817565918,4.0859375,0,"['A1', 'F1', 'E2']",6.1,90,0,0.3024301669338538,[22100|0|0]
22100,1.6961477994918823,1.193415641784668,-0.04631327465176582,0.45593586564064026,0.8900889754295349,9.74044418334961,4.08984375,0,"['A1', 'F1', 'E2']",6.1,90,0,0.3025978158158822,[22200|0|0]
22200,1.6962602138519287,1.1936229467391968,-0.046365946531295776,0.4578113853931427,0.8738431930541992,9.716474533081055,4.0859375,0,"['A1', 'F1', 'E2']",6.1,90,0,0.3028394491319006,[22300|0|0]
22300,1.6961334943771362,1.1940973997116089,-0.046067673712968826,0.43013983964920044,0.8543767929077148,9.72898006439209,4.08984375,0,"['A1', 'F1', 'E2']",6.1,90,0,0.3034140186424692,[22400|0|0]
22400,1.6963001489639282,1.1932662725448608,-0.046257827430963516,0.46287932991981506,0.8637281060218811,9.722956657409668,4.08984375,0,"['A1', 'F1', 'E2']",6.1,90,0,0.3042827559762316,[22500|0|0]
22500,1.6961157321929932,1.1937624216079712,-0.04652419313788414,0.45467409491539,0.8717725872993469,9.741833686828613,4.0859375,0,"['A1', 'F1', 'E2']",6.1,90,0,0.30487531325451844,[22600|0|0]
22600,1.6963186264038086,1.1937839984893799,-0.04603032022714615,0.4604848325252533,0.8642195463180542,9.740431785583496,4.08984375,0,"['A1', 'F1', 'E2']",6.1,90,0,0.30540967462527285,[22700|0|0]
22700,1.6963117122650146,1.1936278343200684,-0.0457984060049057,0.462861031293869,0.8677506446838379,9.741945266723633,4.08984375,0,"['A1', 'F1', 'E2']",6.1,90,0,0.3056893516882748,[22800|0|0]
22800,1.6962854862213135,1.1934754848480225,-0.046235669404268265,0.4664938449859619,0.8720982074737549,9.763914108276367,4.0859375,0,"['A1', 'F1', 'E2']",6.1,90,0,0.3061531376814042,[22900|0|0]
22900,1.6961225271224976,1.1938689947128296,-0.046268392354249954,0.45284146070480347,0.8748184442520142,9.787150382995605,4.0859375,0,"['A1', 'F1', 'E2']",6.1,90,0,0.3065803103315621,[23000|0|0]
23000,1.696146011352539,1.1939548254013062,-0.046312589198350906,0.4609376788139343,0.8859174251556396,9.782102584838867,4.0859375,0,"['A1', 'F1', 'E2']",6.1,90,0,0.3066796671490105,[23100|0|0]
23100,1.696492314338684,1.193539023399353,-0.04636964574456215,0.47517549991607666,0.8778622150421143,9.763010025024414,4.0859375,0,"['A1', 'F1', 'E2']",6.1,90,0,0.3072237926055982,[23200|0|0]
23200,1.6964983940124512,1.1937031745910645,-0.04643635079264641,0.4714689254760742,0.880297064781189,9.735645294189453,4.08984375,0,"['A1', 'F1', 'E2']",6.1,90,0,0.30740108372103636,[23300|0|0]
23300,1.6964560747146606,1.1936242580413818,-0.04635006934404373,0.4737287163734436,0.8837291598320007,9.748372077941895,4.0859375,0,"['A1', 'F1', 'E2']",6.1,90,0,0.3075254349701345,[23400|0|0]
23400,1.6964761018753052,1.1935018301010132,-0.046311259269714355,0.45660826563835144,0.8554658889770508,9.759422302246094,4.0859375,0,"['C1', 'F1', 'J1']",6.1,90,0,0.30765541923693573,[23400|0|0]
23500,1.6957522630691528,1.1940209865570068,-0.047068994492292404,0.6325876712799072,1.0694043636322021,10.175660133361816,2.908203125,0,"['C1', 'F1', 'J1']",6.1,90,0,0.3088248758246838,[23400|0|0]
23600,1.695532202720642,1.194818139076233,-0.04048218950629234,-1.0191847085952759,1.8976017236709595,10.680849075317383,3.134765625,0,"['C1', 'F1', 'J1']",6.1,90,0,0.3154633906148677,[23400|0|0]
23700,1.6917420625686646,1.2014894485473633,-0.0030778897926211357,-2.4926891326904297,4.580124378204346,8.769966125488281,3.39453125,0,"['C1', 'F1', 'J1']",6.1,90,0,0.35364654356877356,[23400|0|0]
23800,1.6836220026016235,1.2127653360366821,0.06195586919784546,0.2544434070587158,1.2318893671035767,5.940959453582764,3.478515625,0,"['C1', 'F1', 'J1']",6.1,90,0,0.4201482038560943,[23400|0|0]
23900,1.6743662357330322,1.2242478132247925,0.13983169198036194,2.14082670211792,-1.0889414548873901,2.9650323390960693,3.494140625,0,"['C1', 'F1', 'J1']",6.1,90,0,0.49940828382549063,[23400|0|0]
24000,1.6707897186279297,1.2289308309555054,0.2240082025527954,3.3799965381622314,-2.6877312660217285,1.0556973218917847,3.53125,0,"['C1', 'F1', 'J1']",6.1,90,0,0.5837907883025459,[23400|0|0]
24100,1.6708605289459229,1.2345026731491089,0.30063727498054504,2.372640371322632,-1.9578016996383667,-0.3929562568664551,3.578125,0,"['C1', 'F1', 'J1']",6.1,90,0,0.660622195817109,[23400|0|0]
24200,1.674680471420288,1.2366876602172852,0.3679487705230713,1.9288908243179321,-0.8667219877243042,-0.9170411825180054,3.57421875,0,"['C1', 'F1', 'J1']",6.1,90,0,0.7280773925121531,[23400|0|0]
24300,1.6804423332214355,1.238011360168457,0.4239008128643036,2.1554057598114014,0.09223262220621109,-1.2796696424484253,3.5625,0,"['C1', 'F1', 'J1']",6.1,90,0,0.7843409000026331,[23400|0|0]
24400,1.6855329275131226,1.238724708557129,0.47041869163513184,1.7681021690368652,1.1778497695922852,-1.2185859680175781,3.5625,0,"['C1', 'F1', 'J1']",6.1,90,0,0.8311419262894962,[23400|0|0]
24500,1.689448595046997,1.236055612564087,0.5048648715019226,1.7487035989761353,1.8318960666656494,-1.3539092540740967,3.546875,0,"['C1', 'F1', 'J1']",6.1,90,0,0.8659125436707165,[23400|0|0]
24600,1.689724326133728,1.2343873977661133,0.5371822118759155,1.1406440734863281,1.6186537742614746,-1.4601879119873047,3.53125,0,"['C1', 'F1', 'J1']",6.1,90,0,0.8982740865432818,[23400|0|0]
24700,1.6876718997955322,1.2305574417114258,0.5604543089866638,0.9426876902580261,1.4476782083511353,-1.6080594062805176,3.53125,0,"['C1', 'F1', 'J1']",6.1,90,0,0.9219483662828357,[23400|0|0]
24800,1.6842777729034424,1.2252048254013062,0.5804579257965088,0.021003685891628265,0.7680755853652954,-0.8579337000846863,3.521484375,0,"['C1', 'F1', 'J1']",6.1,90,0,0.9429320571926371,[23400|0|0]
24900,1.680011510848999,1.2218017578125,0.5953990817070007,0.41068756580352783,0.12979835271835327,0.4216884970664978,3.515625,0,"['C1', 'F1', 'J1']",6.1,90,0,0.9588386596228481,[23400|0|0]
25000,1.6773309707641602,1.217178225517273,0.6078413128852844,1.015870451927185,-0.21416528522968292,1.9662203788757324,3.515625,0,"['C1', 'F1', 'J1']",6.1,90,0,0.9723801315784846,[23400|0|0]
25100,1.6757168769836426,1.2120028734207153,0.6187641024589539,1.1070207357406616,-0.28523287177085876,3.4492251873016357,3.515625,0,"['C1', 'F1', 'J1']",6.1,90,0,0.9845742654192422,[23400|0|0]
25200,1.6756170988082886,1.2038068771362305,0.627166211605072,1.0795632600784302,-0.5729662775993347,3.8661725521087646,3.505859375,0,"['C1', 'F1', 'J1']",6.1,90,0,0.9963122272901485,[23400|0|0]
25300,1.6767350435256958,1.1935439109802246,0.6334347724914551,-0.09735476970672607,-0.14564667642116547,4.003997325897217,3.505859375,0,"['C1', 'F1', 'J1']",6.1,90,0,1.0083900222170707,[23400|0|0]
25400,1.678348422050476,1.1839677095413208,0.6370280385017395,-1.2052056789398193,0.6053256988525391,3.885390043258667,3.494140625,0,"['C1', 'F1', 'J1']",6.1,90,0,1.0187446436434364,[23400|0|0]
25500,1.6789740324020386,1.1750526428222656,0.6414327025413513,-1.6337661743164062,0.8623458743095398,3.2282233238220215,3.5,0,"['C1', 'F1', 'J1']",6.1,90,0,1.028708120356865,[23400|0|0]
25600,1.6782646179199219,1.167671799659729,0.6444642543792725,-2.0137977600097656,0.9160561561584473,3.3053271770477295,3.5,0,"['C1', 'F1', 'J1']",6.1,90,0,1.036718764603329,[23400|0|0]
25700,1.6759374141693115,1.1639269590377808,0.6473758220672607,-1.5279923677444458,0.6679536700248718,3.165867328643799,3.5,0,"['C1', 'F1', 'J1']",6.1,90,0,1.0420024124892489,[23400|0|0]
25800,1.6719783544540405,1.161247730255127,0.6504888534545898,-1.0929299592971802,0.19395285844802856,2.6201584339141846,3.5,0,"['C1', 'F1', 'J1']",6.1,90,0,1.0477070934722117,[23400|0|0]
25900,1.667920708656311,1.1591787338256836,0.6525088548660278,-0.6581482887268066,-0.4414774477481842,1.4596209526062012,3.48828125,0,"['C1', 'F1', 'J1']",6.1,90,0,1.0526896270995034,[23400|0|0]
26000,1.664384365081787,1.1562035083770752,0.6542863845825195,-0.33628877997398376,-0.28936201333999634,0.14734835922718048,3.48828125,0,"['C1', 'F1', 'J1']",6.1,90,0,1.0576411222514888,[23400|0|0]
26100,1.6597745418548584,1.153689980506897,0.6558099389076233,-0.888598620891571,0.07947123795747757,-1.2644680738449097,3.494140625,0,"['C1', 'F1', 'J1']",6.1,90,0,1.0631082522407278,[23400|0|0]
26200,1.6546882390975952,1.1519430875778198,0.6579545140266418,-1.2934406995773315,0.2252294272184372,-2.5226659774780273,3.5,0,"['C1', 'F1', 'J1']",6.1,90,0,1.0688980115695184,[23400|0|0]
26300,1.6493185758590698,1.1503639221191406,0.6607129573822021,-1.899654746055603,-0.24152913689613342,-3.2113230228424072,3.5,0,"['C1', 'F1', 'J1']",6.1,90,0,1.0751378878973707,[23400|0|0]
26400,1.643439769744873,1.1509355306625366,0.6636103391647339,-2.1767373085021973,-0.3057301640510559,-3.279761791229248,3.5,0,"['C1', 'F1', 'J1']",6.1,90,245.14841414028783,1.0817167874139273,[23400|0|0]
26500,1.6376982927322388,1.1543177366256714,0.6678693890571594,1.1486517190933228,2.686546564102173,-4.472686290740967,3.224609375,0,"['C1', 'F1', 'J1']",6.1,90,245.14841414028783,1.0896252247722076,[23400|0|0]
26600,1.6216343641281128,1.1540071964263916,0.6873230338096619,11.038565635681152,16.02196502685547,-6.224013328552246,3.2578125,0,"['C1', 'F1', 'J1']",6.1,90,245.14841414028783,1.1148559705315066,[23400|0|0]
26700,1.5718969106674194,1.1346068382263184,0.7292276620864868,18.16672706604004,20.317842483520508,-6.778437614440918,3.298828125,0,"['C1', 'F1', 'J1']",6.1,90,245.14841414028783,1.1827248591776651,[23400|0|0]
26800,1.4819401502609253,1.0844835042953491,0.7900657653808594,13.152226448059082,13.273276329040527,-4.425899982452393,3.310546875,0,"['C1', 'F1', 'J1']",6.1,90,245.14841414028783,1.3023318914109063,[23400|0|0]
26900,1.365447759628296,1.0135291814804077,0.8741689324378967,1.9928683042526245,2.84023380279541,-3.799603223800659,3.39453125,0,"['C1', 'F1', 'J1']",6.1,90,245.14841414028783,1.4625765035214418,[23400|0|0]
27000,1.245076060295105,0.9415755867958069,0.9778236150741577,-3.874600887298584,-1.2956618070602417,-4.413674354553223,3.46875,0,"['C1', 'F1', 'J1']",6.1,90,245.14841414028783,1.6369638855788025,[23400|0|0]
27100,1.1323626041412354,0.8797553181648254,1.0890498161315918,-6.624858856201172,-2.978670835494995,-4.420835018157959,3.55859375,0,"['C1', 'F1', 'J1']",6.1,90,245.14841414028783,1.8069560519083887,[23400|0|0]
27200,1.029076099395752,0.8315212726593018,1.1937105655670166,-8.525874137878418,-5.131209850311279,-4.239287376403809,3.59375,0,"['C1', 'F1', 'J1']",6.1,90,245.14841414028783,1.9617090734645202,[23400|0|0]
27300,0.9362852573394775,0.7962563037872314,1.276838779449463,-8.205585479736328,-7.155674934387207,-2.524548292160034,3.59375,0,"['C1', 'F1', 'J1']",6.1,90,245.14841414028783,2.0911851652434517,[23400|0|0]
27400,0.8542332649230957,0.7743207216262817,1.3405827283859253,-7.9509358406066895,-9.176581382751465,-3.844458818435669,3.55859375,0,"['C1', 'F1', 'J1']",6.1,90,245.14841414028783,2.19737833946031,[23400|0|0]
27500,0.7859333753585815,0.7609789371490479,1.3831558227539062,-4.999208927154541,-10.992964744567871,-1.5769572257995605,3.53125,0,"['C1', 'F1', 'J1']",6.1,90,245.14841414028783,2.2789586464689675,[23400|0|0]
27600,0.7323471307754517,0.7531312704086304,1.4114062786102295,-3.711061477661133,-10.007421493530273,0.7092224955558777,3.521484375,0,"['C1', 'F1', 'J1']",6.1,90,245.14841414028783,2.340041866242337,[23400|0|0]
27700,0.6927347183227539,0.7512660622596741,1.4282430410385132,-2.2996015548706055,-9.866085052490234,0.8482189774513245,3.494140625,0,"['C1', 'F1', 'J1']",6.1,90,245.14841414028783,2.3831243312464196,[23400|0|0]
27800,0.6665100455284119,0.7528236508369446,1.4374300241470337,-0.8682168126106262,-8.179640769958496,1.044910192489624,3.484375,0,"['C1', 'F1', 'J1']",6.1,90,245.14841414028783,2.410955252969974,[23400|0|0]
27900,0.6490969657897949,0.752317488193512,1.44413161277771,-0.03997214511036873,-6.026670932769775,1.4050692319869995,3.494140625,0,"['C1', 'F1', 'J1']",6.1,90,245.14841414028783,2.42962026935839,[23400|0|0]
28000,0.6392700672149658,0.7536697387695312,1.450498104095459,-0.44806593656539917,-3.807788372039795,1.4864088296890259,3.484375,0,"['C1', 'F1', 'J1']",6.1,90,245.14841414028783,2.4414070725263106,[23400|0|0]
28100,0.6326448917388916,0.7547466158866882,1.4528249502182007,-0.8397548794746399,-2.6284680366516113,1.0998972654342651,3.48828125,0,"['C1', 'F1', 'J1']",6.1,90,245.14841414028783,2.448511073321155,[23400|0|0]
28200,0.6277108192443848,0.757310688495636,1.4519370794296265,-0.44045451283454895,-1.8616373538970947,0.4580097794532776,3.48828125,0,"['C1', 'F1', 'J1']",6.1,90,245.14841414028783,2.4541420460845598,[23400|0|0]
28300,0.6242241263389587,0.7616736888885498,1.4507123231887817,-0.16170215606689453,-1.671988844871521,-0.355178564786911,3.484375,0,"['C1', 'F1', 'J1']",6.1,90,245.14841414028783,2.459859810306247,[23400|0|0]
28400,0.6211711764335632,0.7668613195419312,1.4455692768096924,0.13407368957996368,-1.6274210214614868,-1.1343846321105957,3.478515625,0,"['C1', 'F1', 'J1']",6.1,90,245.14841414028783,2.46777706620575,[23400|0|0]
28500,0.6197984218597412,0.7708223462104797,1.4420663118362427,0.2623594105243683,-1.8948495388031006,-1.9186145067214966,3.478515625,0,"['C1', 'F1', 'J1']",6.1,90,245.14841414028783,2.4732401194723876,[23400|0|0]
28600,0.6195440292358398,0.7747020721435547,1.4373236894607544,0.265384316444397,-2.0111334323883057,-2.8432085514068604,3.484375,0,"['C1', 'F1', 'J1']",6.1,90,245.14841414028783,2.4793727743558254,[23400|0|0]
28700,0.6223999261856079,0.7769745588302612,1.4310976266860962,0.20266443490982056,-2.1230921745300293,-3.537630558013916,3.47265625,0,"['C1', 'F1', 'J1']",6.1,90,245.14841414028783,2.4865897128205026,[23400|0|0]
28800,0.627835214138031,0.7779853343963623,1.4240376949310303,0.2974095344543457,-1.7169387340545654,-3.962752103805542,3.46875,0,"['C1', 'F1', 'J1']",6.1,90,245.14841414028783,2.4955566888301153,[23400|0|0]
28900,0.6352111101150513,0.7781054973602295,1.4176994562149048,0.25699830055236816,-1.1645079851150513,-4.350420951843262,3.46875,0,"['C1', 'F1', 'J1']",6.1,90,245.14841414028783,2.5052825075938134,[23400|0|0]
29000,0.644116222858429,0.7781563997268677,1.4118504524230957,0.05854405090212822,-0.4103359878063202,-4.450684070587158,3.46875,0,"['C1', 'F1', 'J1']",6.1,90,245.14841414028783,2.5159368245301446,[23400|0|0]
29100,0.6529992818832397,0.7773948907852173,1.4072645902633667,-0.4437667429447174,-0.03634576126933098,-4.129316329956055,3.47265625,0,"['C1', 'F1', 'J1']",6.1,90,245.14841414028783,2.5259627292401703,[23400|0|0]
29200,0.6617224216461182,0.776964008808136,1.4022562503814697,-0.4164874851703644,0.3679758906364441,-3.4538064002990723,3.47265625,0,"['C1', 'F1', 'J1']",6.1,90,245.14841414028783,2.5360306135747006,[23400|0|0]
29300,0.6698791980743408,0.7765219211578369,1.3963911533355713,-0.15315845608711243,0.5057972073554993,-2.874490261077881,3.46875,0,"['C1', 'F1', 'J1']",6.1,90,245.14841414028783,2.5460868457989663,[23400|0|0]
29400,0.6756786704063416,0.7768669724464417,1.391209602355957,-0.09642117470502853,0.6831609010696411,-2.392876625061035,3.462890625,0,"['C1', 'F1', 'J1']",6.1,90,0,2.55387153656198,[23400|0|0]
29500,0.6806747317314148,0.7772077918052673,1.3845810890197754,0.15005765855312347,0.23722361028194427,-2.3170125484466553,3.81640625,0,"['C1', 'F1', 'J1']",6.1,90,0,2.5621790016174097,[23400|0|0]
29600,0.6871449947357178,0.7760814428329468,1.3495724201202393,1.0003242492675781,-0.22099176049232483,-2.4234845638275146,3.716796875,0,"['C1', 'F1', 'J1']",6.1,90,0,2.597798376450071,[23400|0|0]
29700,0.6908334493637085,0.7739655375480652,1.2776787281036377,0.4176872968673706,1.049355149269104,-2.0077598094940186,3.583984375,0,"['C1', 'F1', 'J1']",6.1,90,0,2.6698177120794373,[23400|0|0]
29800,0.6928490400314331,0.7725701928138733,1.1766496896743774,-0.24118413031101227,0.5313516855239868,-1.6992077827453613,3.48828125,0,"['C1', 'F1', 'J1']",6.1,90,0,2.7708764880398062,[23400|0|0]
29900,0.6930261254310608,0.771030843257904,1.059451699256897,-1.093894600868225,1.050445318222046,-3.018758773803711,3.453125,0,"['C1', 'F1', 'J1']",6.1,90,0,2.8880847211729357,[23400|0|0]
30000,0.6924104690551758,0.7702575325965881,0.9386906623840332,-0.7335076928138733,0.3163047730922699,-5.3108954429626465,3.462890625,0,"['C1', 'F1', 'J1']",6.1,90,0,3.0088498033314854,[23400|0|0]
30100,0.6918636560440063,0.7720051407814026,0.8168191909790039,-1.9144989252090454,-0.5816266536712646,-7.490625381469727,3.462890625,0,"['C1', 'F1', 'J1']",6.1,90,0,3.1307350308254835,[23400|0|0]
30200,0.6925439834594727,0.7751378417015076,0.6981838345527649,0.563657820224762,0.0022761858999729156,-9.410200119018555,3.47265625,0,"['C1', 'F1', 'J1']",6.1,90,0,3.249413691311806,[23400|0|0]
