time.ms,stateEstimate.x,stateEstimate.y,stateEstimate.z,stabilizer.roll,stabilizer.pitch,stabilizer.yaw,pm.vbat,drone_id,node_name,wind_speed,global_wind_direction,relative_wind_direction,travel_dist,waiting_time
0,0.6094970107078552,0.4609893560409546,0.043540243059396744,-0.5295000076293945,0.4084051251411438,9.543804168701172,4.1171875,0,F2,7.6,270,0,0.14664531543832043,[100|0|0|0]
100,0.5783883333206177,0.4611506462097168,0.05822352319955826,1.311077356338501,-0.809317946434021,8.610945701599121,4.1171875,0,F2,7.6,270,0,0.1810455267600002,[200|0|0|0]
200,0.6364171504974365,0.44947126507759094,0.01957257091999054,2.330226182937622,1.5146127939224243,9.29776382446289,4.11328125,0,F2,7.6,270,0,0.2517395694983211,[300|0|0|0]
300,0.6321902871131897,0.4467730224132538,0.01855502463877201,1.1161786317825317,7.571252346038818,9.699902534484863,4.11328125,0,F2,7.6,270,0,0.2568564325978341,[400|0|0|0]
400,0.6167605519294739,0.4542020559310913,0.030715741217136383,-0.8773902654647827,7.498980522155762,9.577265739440918,4.1171875,0,F2,7.6,270,0,0.2778600107346197,[500|0|0|0]
500,0.6071088314056396,0.46011367440223694,0.04110875353217125,-1.3055496215820312,6.110248565673828,9.319533348083496,4.1171875,0,F2,7.6,270,0,0.29322613083694415,[600|0|0|0]
600,0.6021961569786072,0.46342241764068604,0.04677709564566612,-1.2884657382965088,4.880563259124756,9.142136573791504,4.11328125,0,F2,7.6,270,0,0.3014244388428452,[700|0|0|0]
700,0.6003022789955139,0.4652211666107178,0.04940576106309891,-1.1558349132537842,3.823455572128296,9.087992668151855,4.11328125,0,F2,7.6,270,0,0.30513013089006696,[800|0|0|0]
800,0.6011009812355042,0.4647373557090759,0.04924038052558899,-0.938433051109314,2.960331916809082,9.081647872924805,4.1171875,0,F2,7.6,270,0,0.306078471007799,[900|0|0|0]
900,0.6028335690498352,0.46424856781959534,0.04829735681414604,-0.7885910868644714,2.3142383098602295,9.136146545410156,4.1171875,0,F2,7.6,270,0,0.30811072784580323,[1000|0|0|0]
1000,0.6045466065406799,0.46321091055870056,0.04698334261775017,-0.6697069406509399,1.8557546138763428,9.182519912719727,4.1171875,0,F2,7.6,270,0,0.31050611160304487,[1100|0|0|0]
1100,0.6059500575065613,0.46272096037864685,0.046111710369586945,-0.6125676035881042,1.528960943222046,9.21906566619873,4.1171875,0,F2,7.6,270,0,0.3122293262062229,[1200|0|0|0]
1200,0.6070525646209717,0.4618263244628906,0.045029569417238235,-0.5632596015930176,1.2986236810684204,9.279630661010742,4.11328125,0,F2,7.6,270,0,0.31401452210579156,[1300|0|0|0]
1300,0.607673704624176,0.4617387652397156,0.04450331628322601,-0.5594152212142944,1.1192163228988647,9.331754684448242,4.1171875,0,F2,7.6,270,0,0.3148333162693036,[1400|0|0|0]
1400,0.6086528301239014,0.46116819977760315,0.043551161885261536,-0.5340849161148071,0.9539862275123596,9.362710952758789,4.1171875,0,F2,7.6,270,0,0.3163134614271618,[1500|0|0|0]
1500,0.6086713075637817,0.4612358808517456,0.04355354979634285,-0.5453907251358032,0.8599309325218201,9.39852523803711,4.1171875,0,F2,7.6,270,0,0.31638366004325175,[1600|0|0|0]
1600,0.6087003946304321,0.46103140711784363,0.0438116081058979,-0.5365121364593506,0.7767618894577026,9.407185554504395,4.1171875,0,F2,7.6,270,0,0.31671418940114987,[1700|0|0|0]
1700,0.6088061332702637,0.4611871838569641,0.04398247227072716,-0.5406752824783325,0.6976078152656555,9.428715705871582,4.11328125,0,F2,7.6,270,0,0.31696843655497314,[1800|0|0|0]
1800,0.6093922257423401,0.4611036479473114,0.04346529021859169,-0.5340540409088135,0.6175435185432434,9.441099166870117,4.1171875,0,F2,7.6,270,0,0.317754540815919,[1900|0|0|0]
1900,0.6095508933067322,0.4606798589229584,0.04292936250567436,-0.5195531845092773,0.5822267532348633,9.472125053405762,4.1171875,0,F2,7.6,270,0,0.31845596155030387,[2000|0|0|0]
2000,0.609771192073822,0.46048882603645325,0.04302779585123062,-0.508815586566925,0.5399470329284668,9.489121437072754,4.1171875,0,F2,7.6,270,0,0.3187637183276869,[2100|0|0|0]
2100,0.6097161173820496,0.46088477969169617,0.04309557005763054,-0.5226314067840576,0.5190844535827637,9.511760711669922,4.1171875,0,F2,7.6,270,0,0.31916918825484203,[2200|0|0|0]
2200,0.6093957424163818,0.4608902633190155,0.043603017926216125,-0.5221654772758484,0.5009779334068298,9.513132095336914,4.11328125,0,F2,7.6,270,0,0.319769332844193,[2300|0|0|0]
2300,0.609303891658783,0.4608871638774872,0.043326180428266525,-0.516958475112915,0.4827856421470642,9.50372314453125,4.1171875,0,F2,7.6,270,0,0.3200610264651042,[2400|0|0|0]
2400,0.6097633838653564,0.4608135223388672,0.042834602296352386,-0.5172255039215088,0.43492773175239563,9.499673843383789,4.1171875,0,F2,7.6,270,0,0.3207379350437825,[2500|0|0|0]
2500,0.610027015209198,0.4604676067829132,0.04265874624252319,-0.5023088455200195,0.4096166491508484,9.497746467590332,4.1171875,0,F2,7.6,270,0,0.32120706659140535,[2600|0|0|0]
2600,0.6099185347557068,0.46064794063568115,0.04278580844402313,-0.5121634602546692,0.41325318813323975,9.50674057006836,4.1171875,0,F2,7.6,270,0,0.3214528980586625,[2700|0|0|0]
2700,0.6100829839706421,0.46081623435020447,0.0427110493183136,-0.5169376134872437,0.4061084985733032,9.503873825073242,4.11328125,0,F2,7.6,270,0,0.32169978921994163,[2800|0|0|0]
2800,0.6101503968238831,0.4603785574436188,0.04248400777578354,-0.4996880292892456,0.41161859035491943,9.505034446716309,4.1171875,0,F2,7.6,270,0,0.322197437116928,[2900|0|0|0]
2900,0.6099721789360046,0.46046215295791626,0.04284109175205231,-0.5070728063583374,0.41683438420295715,9.504681587219238,4.1171875,0,F2,7.6,270,0,0.32260518555859075,[3000|0|0|0]
3000,0.6098212599754333,0.4605022668838501,0.0432417169213295,-0.5044897794723511,0.4077119827270508,9.473666191101074,4.1171875,0,F2,7.6,270,0,0.3230351694954676,[3100|0|0|0]
3100,0.6099429130554199,0.46040797233581543,0.042970605194568634,-0.5034023523330688,0.39772847294807434,9.464537620544434,4.1171875,0,F2,7.6,270,0,0.32334692661574965,[3200|0|0|0]
3200,0.6097842454910278,0.4606821537017822,0.043041206896305084,-0.5082777738571167,0.400307834148407,9.469189643859863,4.11328125,0,F2,7.6,270,0,0.32367148079877867,[3300|0|0|0]
3300,0.6099044680595398,0.4607718288898468,0.04310591518878937,-0.5108994841575623,0.3936897814273834,9.505792617797852,4.1171875,0,F2,7.6,270,0,0.3238348278784901,[3400|0|0|0]
3400,0.6102632284164429,0.4605604410171509,0.042932622134685516,-0.501422643661499,0.3896276354789734,9.504131317138672,4.1171875,0,F2,7.6,270,0,0.32428585371922297,[3500|0|0|0]
3500,0.6102042198181152,0.46068933606147766,0.04285770282149315,-0.5065258145332336,0.3981100618839264,9.539403915405273,4.1171875,0,F2,7.6,270,0,0.3244461935165841,[3600|0|0|0]
3600,0.6100576519966125,0.46063634753227234,0.04281288757920265,-0.509992241859436,0.4211861491203308,9.55322265625,4.1171875,0,F2,7.6,270,0,0.32460836107335467,[3700|0|0|0]
3700,0.6100773215293884,0.46014437079429626,0.04268188774585724,-0.4912664592266083,0.4228602945804596,9.55616283416748,4.11328125,0,F2,7.6,270,0,0.3251178598050172,[3800|0|0|0]
3800,0.6099655628204346,0.4603530764579773,0.042880043387413025,-0.5094934701919556,0.4195496439933777,9.53947925567627,4.1171875,0,F2,7.6,270,0,0.32542658900894833,[3900|0|0|0]
3900,0.610014796257019,0.46068474650382996,0.04317127540707588,-0.5242450833320618,0.4046441614627838,9.51345157623291,4.11328125,0,F2,7.6,270,0,0.32587071178462046,[4000|0|0|0]
4000,0.609710693359375,0.4607687294483185,0.04325960949063301,-0.5246697068214417,0.4150553047657013,9.531956672668457,4.11328125,0,F2,7.6,270,0,0.3261983314080229,[4100|0|0|0]
4100,0.6096192598342896,0.46099406480789185,0.0432441346347332,-0.533841073513031,0.4096137583255768,9.543717384338379,4.1171875,0,F2,7.6,270,0,0.3264420024669296,[4200|0|0|0]
4200,0.6095783710479736,0.4608994722366333,0.043360091745853424,-0.5260717868804932,0.41052621603012085,9.544466018676758,4.11328125,0,F2,7.6,270,0,0.32659713369848226,[4300|0|0|0]
4300,0.6095728874206543,0.46097078919410706,0.04315456375479698,-0.533212423324585,0.40584608912467957,9.549935340881348,4.11328125,0,F2,7.6,270,0,0.32681475247915065,[4400|0|0|0]
4400,0.6098265647888184,0.4609701931476593,0.04318992421030998,-0.5252240300178528,0.39398232102394104,9.560956001281738,4.1171875,0,F2,7.6,270,0,0.3270708831571338,[4500|0|0|0]
4500,0.6100291609764099,0.4603588581085205,0.04257946088910103,-0.5031096935272217,0.4017588794231415,9.551308631896973,4.1171875,0,F2,7.6,270,0,0.32795826200060874,[4600|0|0|0]
4600,0.6102041602134705,0.4603060781955719,0.042568642646074295,-0.5000843405723572,0.39790743589401245,9.558727264404297,4.11328125,0,F2,7.6,270,0,0.32814136712496306,[4700|0|0|0]
4700,0.6098477244377136,0.46075600385665894,0.04289199411869049,-0.526228666305542,0.4077043831348419,9.547677993774414,4.11328125,0,F2,7.6,270,0,0.32880018101187425,[4800|0|0|0]
4800,0.6096639037132263,0.46063128113746643,0.04333353042602539,-0.5168478488922119,0.4055679738521576,9.524300575256348,4.1171875,0,F2,7.6,270,0,0.32929444827371623,[4900|0|0|0]
4900,0.6100922226905823,0.46053141355514526,0.04291953891515732,-0.5159623026847839,0.38640040159225464,9.54839038848877,4.11328125,0,F2,7.6,270,0,0.3298984512964179,[5000|0|0|0]
5000,0.6101894974708557,0.46041062474250793,0.04320424050092697,-0.5133017897605896,0.38927024602890015,9.435359001159668,4.1171875,0,F2,7.6,270,0,0.3302226538767213,[5100|0|0|0]
5100,0.6098632216453552,0.4603833854198456,0.04305073618888855,-0.5123775601387024,0.41758736968040466,9.45450496673584,4.1171875,0,F2,7.6,270,0,0.3305842634297194,[5200|0|0|0]
5200,0.6095673441886902,0.4608791470527649,0.043551865965127945,-0.527869462966919,0.41850513219833374,9.508138656616211,4.11328125,0,F2,7.6,270,0,0.3313487594196835,[5300|0|0|0]
5300,0.6095751523971558,0.4608420133590698,0.043154943734407425,-0.5257720947265625,0.4090902507305145,9.517107963562012,4.1171875,0,F2,7.6,270,0,0.33174749133032905,[5400|0|0|0]
5400,0.6100186705589294,0.4602951109409332,0.04236923158168793,-0.5070965886116028,0.3913121223449707,9.485254287719727,4.1171875,0,F2,7.6,270,0,0.3328025525615938,[5500|0|0|0]
5500,0.6096522212028503,0.4605942666530609,0.043386638164520264,-0.5109279751777649,0.3887866735458374,9.499469757080078,4.1171875,0,F2,7.6,270,0,0.33392455765314194,[5600|0|0|0]
5600,0.6097730994224548,0.4608401358127594,0.043327610939741135,-0.5167707800865173,0.3707079589366913,9.520179748535156,4.1171875,0,F2,7.6,270,0,0.33420482074548685,[5700|0|0|0]
5700,0.6099538207054138,0.46070438623428345,0.04289894551038742,-0.5089141130447388,0.3764064908027649,9.521415710449219,4.11328125,0,F2,7.6,270,0,0.3346894259254981,[5800|0|0|0]
5800,0.6100790500640869,0.4604271948337555,0.04277227073907852,-0.4934651255607605,0.37437525391578674,9.500528335571289,4.11328125,0,F2,7.6,270,0,0.3350189163843683,[5900|0|0|0]
5900,0.6097184419631958,0.46073389053344727,0.04324261099100113,-0.5090237259864807,0.39044806361198425,9.502973556518555,4.11328125,0,F2,7.6,270,0,0.3356862396997233,[6000|0|0|0]
6000,0.6101512908935547,0.46069303154945374,0.0430617481470108,-0.5044863820075989,0.35838863253593445,9.49924087524414,4.1171875,0,F2,7.6,270,0,0.33615713142976544,[6100|0|0|0]
6100,0.6102954149246216,0.46035993099212646,0.04258463904261589,-0.5010669231414795,0.3657873570919037,9.483663558959961,4.1171875,0,F2,7.6,270,0,0.3367565985390544,[6200|0|0|0]
6200,0.6100339293479919,0.460248202085495,0.04275429993867874,-0.5009869933128357,0.3785650134086609,9.474974632263184,4.11328125,0,F2,7.6,270,0,0.33708772219422756,[6300|0|0|0]
6300,0.6099128723144531,0.46040722727775574,0.043008122593164444,-0.5025634765625,0.3821898400783539,9.459613800048828,4.11328125,0,F2,7.6,270,0,0.3374107852795111,[6400|0|0|0]
6401,0.6099265813827515,0.46061211824417114,0.04302821308374405,-0.5127791166305542,0.37557461857795715,9.483670234680176,3.130859375,0,A/E1,7.6,270,0,0.33761711480838175,[6400|0|0|0]
6501,0.6091017127037048,0.46105900406837463,0.044030413031578064,-0.6320786476135254,0.3956998586654663,9.383052825927734,2.9765625,0,A/E1,7.6,270,0,0.33898989301806626,[6400|0|0|0]
6601,0.6086358428001404,0.4603270888328552,0.053720004856586456,3.3450841903686523,0.8559467196464539,8.172468185424805,3.23046875,0,A/E1,7.6,270,0,0.34871824973512294,[6400|0|0|0]
6701,0.6089248657226562,0.45354416966438293,0.10102909058332443,4.537923812866211,-1.7099961042404175,5.530057430267334,3.447265625,0,A/E1,7.6,270,0,0.396511984878922,[6400|0|0|0]
6801,0.6128577589988708,0.43963462114334106,0.17660832405090332,4.488119125366211,-3.0912461280822754,2.3161981105804443,3.484375,0,A/E1,7.6,270,0,0.47346108312658247,[6400|0|0|0]
6901,0.62101149559021,0.41889527440071106,0.26134079694747925,2.5344669818878174,-2.6731371879577637,-0.4553346335887909,3.447265625,0,A/E1,7.6,270,0,0.5610749854873435,[6400|0|0|0]
7001,0.6303661465644836,0.39658376574516296,0.351286381483078,-0.8161658644676208,-1.1110748052597046,-2.0613901615142822,3.416015625,0,A/E1,7.6,270,0,0.6542174628582381,[6400|0|0|0]
7101,0.6404163241386414,0.37641802430152893,0.4433085024356842,-2.264698028564453,0.211588054895401,-2.919102191925049,3.44140625,0,A/E1,7.6,270,0,0.748957812983513,[6400|0|0|0]
7202,0.6492711305618286,0.36252158880233765,0.5365092754364014,-2.401193618774414,0.6745821833610535,-3.552689552307129,3.42578125,0,A/E1,7.6,270,0,0.8436040099715933,[6400|0|0|0]
7302,0.6566946506500244,0.35395175218582153,0.6301270723342896,-2.1162185668945312,0.8818216323852539,-3.8835842609405518,3.416015625,0,A/E1,7.6,270,0,0.93790587976296,[6400|0|0|0]
7402,0.6626202464103699,0.3499966263771057,0.7258753776550293,-1.769728183746338,0.7715975046157837,-3.9566497802734375,3.431640625,0,A/E1,7.6,270,0,1.0339188667859216,[6400|0|0|0]
7502,0.6678648591041565,0.34845834970474243,0.8212717175483704,-0.5080452561378479,0.663856565952301,-3.8675196170806885,3.419921875,0,A/E1,7.6,270,0,1.1294716476061282,[6400|0|0|0]
7602,0.6723611354827881,0.3487364947795868,0.9181620478630066,0.004580290988087654,0.45246702432632446,-3.814663887023926,3.416015625,0,A/E1,7.6,270,0,1.2264666473454704,[6400|0|0|0]
7702,0.6761891841888428,0.3484964668750763,1.0163301229476929,0.5236052870750427,0.4478451907634735,-3.585190534591675,3.419921875,0,A/E1,7.6,270,0,1.3247096243775385,[6400|0|0|0]
7800,0.6792739629745483,0.34684890508651733,1.1163465976715088,0.7027888894081116,0.39528536796569824,-3.3194782733917236,3.447265625,0,A/E1,7.6,270,0,1.424787221951539,[6400|0|0|0]
7900,0.681020975112915,0.3433002829551697,1.217422604560852,0.3622778356075287,0.4379778802394867,-3.323728084564209,3.453125,0,A/E1,7.6,270,0,1.5259405903538679,[6400|0|0|0]
8000,0.7149353623390198,0.3013140559196472,1.2843000888824463,0.5203098058700562,-0.4184548556804657,-3.3264780044555664,3.41015625,0,A/E1,7.6,270,0,1.611880260069231,[6400|0|0|0]
8100,0.7149061560630798,0.2948991656303406,1.3933199644088745,-2.4009156227111816,3.496084690093994,-3.5303878784179688,3.447265625,0,A/E1,7.6,270,0,1.7210887072252468,[6400|0|0|0]
8200,0.7019127607345581,0.30122196674346924,1.4992647171020508,-2.422258138656616,3.111374616622925,-3.593684673309326,3.58984375,0,A/E1,7.6,270,0,1.828014367191869,[6400|0|0|0]
8300,0.6854593753814697,0.3095879554748535,1.5964195728302002,-1.1594538688659668,0.7032920122146606,-3.927708625793457,3.630859375,0,A/E1,7.6,270,0,1.9269070850662828,[6400|0|0|0]
8400,0.665535569190979,0.31716299057006836,1.6728935241699219,-0.503214955329895,-2.0399231910705566,-3.7504050731658936,3.62109375,0,A/E1,7.6,270,0,2.0062960291537317,[6400|0|0|0]
8500,0.6522716283798218,0.3276679217815399,1.7299690246582031,0.3260475993156433,-3.722801685333252,-3.0998222827911377,3.578125,0,A/E1,7.6,270,0,2.0658266805997507,[6400|0|0|0]
8600,0.6440261602401733,0.33757221698760986,1.7676116228103638,0.7623449563980103,-3.8762564659118652,-2.576815605163574,3.53125,0,A/E1,7.6,270,0,2.105614216386929,[6400|0|0|0]
8700,0.6418068408966064,0.3455132246017456,1.7910659313201904,1.380604863166809,-3.378504991531372,-2.3341500759124756,3.505859375,0,A/E1,7.6,270,0,2.1304756235866558,[6400|0|0|0]
8800,0.6450104117393494,0.3502647876739502,1.8043614625930786,1.6055008172988892,-2.805453062057495,-2.4921329021453857,3.494140625,0,A/E1,7.6,270,0,2.1449535851006933,[6400|0|0|0]
8900,0.6534649729728699,0.35107508301734924,1.8117940425872803,1.3524924516677856,-1.06931734085083,-2.5348119735717773,3.47265625,0,A/E1,7.6,270,0,2.156239834679942,[6400|0|0|0]
9000,0.6656856536865234,0.3469630181789398,1.8168537616729736,0.8933826684951782,-0.2162657380104065,-2.6206278800964355,3.478515625,0,A/E1,7.6,270,0,2.1700910032792504,[6400|0|0|0]
9100,0.6787746548652649,0.3390781283378601,1.8220080137252808,0.14960737526416779,1.497930884361267,-2.4358389377593994,3.48828125,0,A/E1,7.6,270,0,2.1862173715586173,[6400|0|0|0]
9200,0.6921538710594177,0.3262515068054199,1.8261994123458862,-0.48404330015182495,1.725294828414917,-2.4643795490264893,3.48828125,0,A/E1,7.6,270,0,2.2052198310916133,[6400|0|0|0]
9300,0.705442488193512,0.3104679584503174,1.8296411037445068,-1.4267321825027466,2.388582706451416,-2.2633888721466064,3.5,0,A/E1,7.6,270,0,2.2261375982692484,[6400|0|0|0]
9400,0.7158335447311401,0.2947246730327606,1.829445481300354,-2.0780529975891113,2.0458157062530518,-1.9299503564834595,3.48828125,0,A/E1,7.6,270,182.72631099390625,2.245001939229046,[6400|0|0|0]
9500,0.7340737581253052,0.2645973563194275,1.8271759748458862,-11.388010025024414,1.1442596912384033,1.1619343757629395,3.6796875,0,A/E1,7.6,270,182.72631099390625,2.2802937407778057,[6400|0|0|0]
9600,0.727084755897522,0.31174755096435547,1.8118616342544556,-14.634847640991211,-0.8953346610069275,11.31602668762207,3.630859375,0,A/E1,7.6,270,182.72631099390625,2.330358858723786,[6400|0|0|0]
9700,0.7283102869987488,0.34050047397613525,1.749346137046814,-14.913708686828613,-0.6681694984436035,10.454574584960938,3.42578125,0,A/E1,7.6,270,182.72631099390625,2.399180511561538,[6400|0|0|0]
9800,0.7196314930915833,0.3849762976169586,1.6728014945983887,-10.66091251373291,0.10245135426521301,6.34885311126709,3.3046875,0,A/E1,7.6,270,182.72631099390625,2.488132760772954,[6400|0|0|0]
9900,0.6805746555328369,0.4351532757282257,1.5868732929229736,-5.629939079284668,-0.22121548652648926,-0.26170283555984497,3.240234375,0,A/E1,7.6,270,182.72631099390625,2.5950290728498433,[6400|0|0|0]
10000,0.6627872586250305,0.5028887987136841,1.5381877422332764,-1.0012534856796265,-2.249622344970703,-4.967721939086914,3.330078125,0,A/E1,7.6,270,182.72631099390625,2.680321366809078,[6400|0|0|0]
10100,0.6417061686515808,0.5703516006469727,1.5101289749145508,3.4910449981689453,-3.8114144802093506,-6.93523645401001,3.419921875,0,A/E1,7.6,270,182.72631099390625,2.7563669874759196,[6400|0|0|0]
10200,0.6220704317092896,0.6241439580917358,1.4984372854232788,6.614378929138184,-5.168329238891602,-7.486203670501709,3.462890625,0,A/E1,7.6,270,182.72631099390625,2.8148124790718705,[6400|0|0|0]
10300,0.6043946146965027,0.6633396148681641,1.4922667741775513,7.344624996185303,-5.877823829650879,-7.242795467376709,3.494140625,0,A/E1,7.6,270,182.72631099390625,2.85824989642418,[6400|0|0|0]
10400,0.590465784072876,0.6863533854484558,1.4867430925369263,6.418634414672852,-6.226265907287598,-6.738653182983398,3.478515625,0,A/E1,7.6,270,182.72631099390625,2.8857118158350836,[6400|0|0|0]
10500,0.5819599628448486,0.6966263651847839,1.4798039197921753,4.513250350952148,-6.0918474197387695,-7.154045581817627,3.45703125,0,A/E1,7.6,270,182.72631099390625,2.9007462837607423,[6400|0|0|0]
10600,0.5795000791549683,0.6989740133285522,1.4729372262954712,2.1541175842285156,-5.490829944610596,-6.329582691192627,3.453125,0,A/E1,7.6,270,182.72631099390625,2.9084087872127715,[6400|0|0|0]
10700,0.5822926759719849,0.6974473595619202,1.4643927812576294,0.46437129378318787,-4.405954360961914,-4.52809476852417,3.431640625,0,A/E1,7.6,270,182.72631099390625,2.9175267261087217,[6400|0|0|0]
10800,0.5895473957061768,0.693393349647522,1.4563016891479492,-0.7893214225769043,-3.2916197776794434,-4.270243167877197,3.41015625,0,A/E1,7.6,270,182.72631099390625,2.929125507352242,[6400|0|0|0]
10900,0.6000980734825134,0.692118763923645,1.4477698802947998,-1.4174209833145142,-2.367899179458618,-4.4141130447387695,3.431640625,0,A/E1,7.6,270,182.72631099390625,2.9427539017042657,[6400|0|0|0]
11000,0.6117379665374756,0.6946278214454651,1.4382179975509644,-1.4074220657348633,-1.6056716442108154,-3.6799561977386475,3.416015625,0,A/E1,7.6,270,182.72631099390625,2.958018925252585,[6400|0|0|0]
11100,0.6245807409286499,0.698133111000061,1.4290183782577515,-0.6252852082252502,-0.8919354677200317,-3.0379154682159424,3.3984375,0,A/E1,7.6,270,182.72631099390625,2.974200918456891,[6400|0|0|0]
11200,0.6378293633460999,0.7023969888687134,1.4190036058425903,-0.17704558372497559,-0.3702269196510315,-2.560420036315918,3.3984375,0,A/E1,7.6,270,182.72631099390625,2.991347414220353,[6400|0|0|0]
11300,0.6505295038223267,0.7070131897926331,1.4104344844818115,0.32618334889411926,-0.2309473305940628,-2.1746714115142822,3.388671875,0,A/E1,7.6,270,182.72631099390625,3.0073484366871095,[6400|0|0|0]
11400,0.6620726585388184,0.711463212966919,1.4040621519088745,0.5468708872795105,0.035300128161907196,-1.8454604148864746,3.388671875,0,A/E1,7.6,270,182.72631099390625,3.021264389743967,[6400|0|0|0]
11500,0.6730530858039856,0.7144995927810669,1.3990991115570068,0.6569846868515015,0.07561762630939484,-1.6749677658081055,3.447265625,0,A/E1,7.6,270,182.72631099390625,3.033691020616237,[6400|0|0|0]
11600,0.6830291152000427,0.7153674364089966,1.3942183256149292,0.7812000513076782,0.27089887857437134,-1.6996878385543823,3.431640625,0,A/E1,7.6,270,182.72631099390625,3.0448308763821754,[6400|0|0|0]
11700,0.6925386786460876,0.7169028520584106,1.3882883787155151,0.5590060949325562,0.25766342878341675,-1.3281514644622803,3.37890625,0,A/E1,7.6,270,182.72631099390625,3.0561425326879816,[6400|0|0|0]
11800,0.7013731598854065,0.716762363910675,1.3821005821228027,0.3406617045402527,0.401263564825058,-1.0285046100616455,3.39453125,0,A/E1,7.6,270,182.72631099390625,3.066929405374739,[6400|0|0|0]
11900,0.7088049054145813,0.7161765098571777,1.3779367208480835,0.2629512846469879,0.5396355390548706,-0.935753345489502,3.416015625,0,A/E1,7.6,270,182.72631099390625,3.0754682464727754,[6400|0|0|0]
12000,0.7149968147277832,0.7148777842521667,1.3748838901519775,0.05771620199084282,0.6316537857055664,-1.1296731233596802,3.3984375,0,A/E1,7.6,270,182.72631099390625,3.0824929318322143,[6400|0|0|0]
12100,0.7208694815635681,0.7146714329719543,1.372694730758667,-0.10130546987056732,0.5207460522651672,-0.9802565574645996,3.431640625,0,A/E1,7.6,270,182.72631099390625,3.0887637543830677,[6400|0|0|0]
12200,0.7252113819122314,0.714497447013855,1.3685506582260132,0.04800627380609512,0.4117977023124695,-0.502225399017334,3.416015625,0,A/E1,7.6,270,182.72631099390625,3.0947683948308575,[6400|0|0|0]
12300,0.7286033034324646,0.7141989469528198,1.3627188205718994,-0.01749064214527607,0.5452122688293457,-0.021863430738449097,3.37890625,0,A/E1,7.6,270,182.72631099390625,3.101521509986828,[6400|0|0|0]
12400,0.731520414352417,0.7129386067390442,1.3570152521133423,0.06360010802745819,0.4393109083175659,-0.2409386783838272,3.388671875,0,A/E1,7.6,270,0,3.1080505747540985,[6400|0|0|0]
12500,0.7340753078460693,0.7141426205635071,1.3454740047454834,0.24233323335647583,0.07142222672700882,0.05331962928175926,3.822265625,0,A/E1,7.6,270,0,3.119932389466486,[6400|0|0|0]
12600,0.7360405921936035,0.7132249474525452,1.3027117252349854,0.3128749132156372,-0.1200721338391304,0.4832341969013214,3.7421875,0,A/E1,7.6,270,0,3.162749640842996,[6400|0|0|0]
12700,0.7376824617385864,0.7122422456741333,1.2181633710861206,0.019234927371144295,-0.09538238495588303,1.1802898645401,3.48828125,0,A/E1,7.6,270,0,3.2473196451451707,[6400|0|0|0]
12800,0.7392373085021973,0.7099927663803101,1.1020054817199707,-0.221761092543602,0.7086611390113831,1.5142017602920532,3.326171875,0,A/E1,7.6,270,0,3.3635097177312154,[6400|0|0|0]
12900,0.7406944632530212,0.7066012620925903,0.9724939465522766,0.15989096462726593,0.7597563862800598,1.0197142362594604,3.3515625,0,A/E1,7.6,270,0,3.493073846033745,[6400|0|0|0]
13000,0.7408088445663452,0.7033584713935852,0.8428600430488586,-0.19809618592262268,0.6739636659622192,0.023129617795348167,3.416015625,0,A/E1,7.6,270,0,3.622748352827239,[6400|0|0|0]
13100,0.7385666966438293,0.699211597442627,0.7156851291656494,-0.038910623639822006,1.6324301958084106,0.5094297528266907,3.42578125,0,A/E1,7.6,270,0,3.7500106116162186,[6400|0|0|0]
13200,0.7348620295524597,0.6953122019767761,0.5896982550621033,-1.8396683931350708,0.019180230796337128,2.214968681335449,3.3984375,0,A/E1,7.6,270,0,3.8761122463781827,[6400|0|0|0]
13300,0.7284144759178162,0.6942473649978638,0.4677359461784363,-0.5448787808418274,-0.2179732322692871,3.108949661254883,3.27734375,0,A/E1,7.6,270,0,3.998249503650066,[6400|0|0|0]
13400,0.7207819223403931,0.6939029693603516,0.3581058382987976,-0.020352963358163834,-0.5035141110420227,1.1296403408050537,3.267578125,0,A/E1,7.6,270,0,4.108145522850802,[6400|0|0|0]
13500,0.7129359245300293,0.6939338445663452,0.2643131911754608,1.8013854026794434,-0.11289883404970169,-2.7703490257263184,3.283203125,0,A/E1,7.6,270,0,4.202265771943765,[6400|0|0|0]
13600,0.7038901448249817,0.6900672316551208,0.18749389052391052,2.7530128955841064,1.0368435382843018,-4.935282230377197,3.310546875,0,A/E1,7.6,270,0,4.279712410208255,[6400|0|0|0]
13700,0.6936985850334167,0.6827601194381714,0.12818828225135803,-0.48726731538772583,-3.40869402885437,-3.760288715362549,3.26171875,0,A/E1,7.6,270,0,4.340329379387797,[6400|0|0|0]
13800,0.6897437572479248,0.6765655875205994,0.0870388075709343,-2.388671398162842,-4.2049689292907715,-2.338689088821411,3.2890625,0,A/E1,7.6,270,0,4.382130003246366,[6400|0|0|0]
13900,0.6959148645401001,0.6743957996368408,0.06280156224966049,-2.31522274017334,-3.3850512504577637,-2.158165454864502,3.357421875,0,A/E1,7.6,270,0,4.407234477059526,[6400|0|0|0]
14000,0.7090432047843933,0.6781063079833984,0.049987610429525375,-1.3795056343078613,-2.159027338027954,-1.9878989458084106,3.37890625,0,A/E1,7.6,270,0,4.425951275690931,[6400|0|0|0]
14100,0.7276735901832581,0.683086097240448,0.04626406729221344,-1.680258870124817,0.44452598690986633,-0.866032063961029,3.373046875,0,A/E1,7.6,270,0,4.4455919053817095,[6400|0|0|0]
14200,0.746371865272522,0.6916881799697876,0.04558694735169411,-1.9025592803955078,3.0680992603302,0.6227597594261169,3.37890625,0,A/E1,7.6,270,0,4.466185103530857,[6400|0|0|0]
14300,0.7617976069450378,0.7011300921440125,0.049443475902080536,-1.7984390258789062,2.951076030731201,0.0033816928043961525,3.3828125,0,A/E1,7.6,270,0,4.484677697294656,[6400|0|0|0]
14400,0.7726661562919617,0.7159927487373352,0.05647910758852959,1.004437804222107,4.596004009246826,-3.6646900177001953,3.42578125,0,A/E1,7.6,270,0,4.504388710438199,[6400|0|0|0]
14500,0.7761200070381165,0.7305803298950195,0.062233757227659225,4.093350887298584,2.974083423614502,-4.665318489074707,3.404296875,0,A/E1,7.6,270,0,4.5204461884929215,[6400|0|0|0]
14600,0.7728685140609741,0.7407307028770447,0.06621812283992767,4.734233379364014,2.171639919281006,-3.469376564025879,3.39453125,0,A/E1,7.6,270,0,4.531825004230372,[6400|0|0|0]
14700,0.7662820219993591,0.7456681728363037,0.06827531009912491,3.291511058807373,1.1803336143493652,-1.6268067359924316,3.39453125,0,A/E1,7.6,270,0,4.5403098440459315,[6400|0|0|0]
14800,0.7579771280288696,0.7440502047538757,0.07039043307304382,3.089256763458252,0.022676290944218636,-0.08306995779275894,3.37890625,0,A/E1,7.6,270,0,4.549031244723095,[6400|0|0|0]
14900,0.7501023411750793,0.7390022873878479,0.07318174093961716,1.7570620775222778,-0.7787850499153137,0.9093472361564636,3.37890625,0,A/E1,7.6,270,0,4.558792655345176,[6400|0|0|0]
15000,0.7447847127914429,0.7321372032165527,0.07624653726816177,1.1087709665298462,-1.8892325162887573,0.7700996398925781,3.419921875,0,A/E1,7.6,270,0,4.568001321309413,[6400|0|0|0]
15100,0.7423573732376099,0.724305272102356,0.08073221147060394,0.47906553745269775,-1.392284870147705,0.8710911273956299,3.3984375,0,A/E1,7.6,270,0,4.577347571645113,[6400|0|0|0]
15200,0.7406358122825623,0.7157373428344727,0.08502775430679321,-1.0052955150604248,0.10786248743534088,2.3588240146636963,3.41015625,0,A/E1,7.6,270,0,4.587085377985297,[6400|0|0|0]
15300,0.7385324835777283,0.7090341448783875,0.08590306341648102,-1.1363309621810913,0.06627751886844635,3.2698545455932617,3.388671875,0,A/E1,7.6,270,0,4.594165139317189,[6400|0|0|0]
15400,0.7362138628959656,0.7049586772918701,0.08560705184936523,-1.4950217008590698,-0.12800897657871246,3.823136806488037,3.373046875,0,F1,7.6,270,0,4.598863336925051,[6400|0|100|0]
15500,0.7323632836341858,0.7025852799415588,0.08553607016801834,-1.5042037963867188,-0.06894449144601822,3.6537928581237793,3.388671875,0,F1,7.6,270,0,4.603387164290546,[6400|0|200|0]
15600,0.7273744344711304,0.702269434928894,0.08574424684047699,-0.6007575988769531,-0.38574543595314026,3.12691068649292,3.388671875,0,F1,7.6,270,0,4.60839033444263,[6400|0|300|0]
15700,0.7236849069595337,0.7033860683441162,0.08676169812679291,-0.8441290259361267,-1.0616304874420166,4.393547058105469,3.373046875,0,F1,7.6,270,0,4.612377149031101,[6400|0|400|0]
15800,0.7205771207809448,0.7072341442108154,0.08766977488994598,-0.5594741106033325,-1.1047863960266113,4.021724224090576,3.3828125,0,F1,7.6,270,0,4.61740612767646,[6400|0|500|0]
15900,0.7190537452697754,0.7121292352676392,0.09099854528903961,0.08652207255363464,-0.29060763120651245,2.429356098175049,3.41015625,0,F1,7.6,270,0,4.62351868047971,[6400|0|600|0]
16000,0.7174273729324341,0.7176703810691833,0.09345666319131851,0.3440242409706116,0.1128590777516365,1.6618046760559082,3.404296875,0,F1,7.6,270,0,4.629794963407936,[6400|0|700|0]
16100,0.7144869565963745,0.7229553461074829,0.09384166449308395,-0.38590696454048157,1.6057113409042358,1.1597704887390137,3.3984375,0,F1,7.6,270,0,4.6358550896184845,[6400|0|800|0]
16200,0.7091172933578491,0.7294338345527649,0.09184928983449936,0.35447654128074646,0.4385853707790375,0.367424875497818,3.388671875,0,F1,7.6,270,0,4.6445022656090025,[6400|0|900|0]
16300,0.70278000831604,0.7350271344184875,0.09023158252239227,0.10263551771640778,-0.8294975161552429,-0.9433609247207642,3.3671875,0,F1,7.6,270,0,4.653108261311806,[6400|0|1000|0]
16400,0.696399986743927,0.7402810454368591,0.09018117934465408,1.0067397356033325,0.44363322854042053,-1.2921537160873413,3.3828125,0,F1,7.6,270,0,4.661373295899146,[6400|0|1100|0]
16500,0.6903889775276184,0.7426041960716248,0.09173540025949478,1.3652364015579224,-0.22654546797275543,-1.5569746494293213,3.3984375,0,F1,7.6,270,0,4.668002388093594,[6400|0|1200|0]
16600,0.6834253072738647,0.7416525483131409,0.09451258182525635,0.8540148735046387,0.10326086729764938,-0.7587832808494568,3.37890625,0,F1,7.6,270,0,4.6755595750244865,[6400|0|1300|0]
16700,0.6780624389648438,0.7383522987365723,0.095737524330616,0.5854635834693909,0.6971061825752258,0.21878179907798767,3.373046875,0,F1,7.6,270,0,4.68197459551619,[6400|0|1400|0]
16800,0.6722886562347412,0.7347241640090942,0.09767157584428787,-0.5825325846672058,0.223402202129364,1.1541454792022705,3.39453125,0,F1,7.6,270,0,4.689062647707921,[6400|0|1500|0]
16900,0.6669638156890869,0.7334151864051819,0.09966184943914413,-1.0206996202468872,-0.24216775596141815,1.696380615234375,3.37890625,0,F1,7.6,270,0,4.694896046218787,[6400|0|1600|0]
17000,0.6614802479743958,0.7342526912689209,0.1031213030219078,-0.4862619638442993,0.5223526358604431,1.4763352870941162,3.388671875,0,F1,7.6,270,0,4.7014335341438,[6400|0|1700|0]
17100,0.654082179069519,0.7377424836158752,0.10737115889787674,0.05243692174553871,0.9914882183074951,0.5262174606323242,3.41015625,0,F1,7.6,270,0,4.710651524657609,[6400|0|1800|0]
17200,0.6453259587287903,0.7418068051338196,0.10910612344741821,-0.7284189462661743,0.3580484092235565,-0.5080572962760925,3.388671875,0,F1,7.6,270,0,4.720459695029538,[6400|0|1900|0]
17300,0.6348081231117249,0.7467578053474426,0.11023682355880737,1.0084589719772339,0.6633760333061218,-1.1312172412872314,3.3828125,0,F1,7.6,270,0,4.732139410433811,[6400|0|2000|0]
17400,0.6224828362464905,0.7507103681564331,0.10589955002069473,-0.8089920282363892,-0.2997978627681732,-0.7402349710464478,3.984375,0,F1,7.6,270,0,4.7457903221547815,[6400|0|2100|0]
17500,0.6101498007774353,0.7540886402130127,0.05791647732257843,-6.14617919921875,-0.6285834908485413,-0.26931875944137573,3.990234375,0,F1,7.6,270,0,4.7954480682929415,[6400|0|2200|0]
17600,0.5972291827201843,0.7606750130653381,-0.052528198808431625,-0.8259915113449097,2.7918272018432617,-0.31802648305892944,3.990234375,0,F1,7.6,270,0,4.9068408380942845,[6400|0|2300|0]
17700,0.5845581293106079,0.7628268003463745,-0.047256793826818466,-1.661096453666687,1.3320446014404297,0.7491162419319153,3.990234375,0,F1,7.6,270,0,4.920732328060856,[6400|0|2400|0]
17800,0.5837222933769226,0.763364851474762,-0.04708155617117882,-1.6441737413406372,1.5554827451705933,0.7582368850708008,3.99609375,0,F1,7.6,270,0,4.92174169863738,[6400|0|2500|0]
17900,0.583847165107727,0.7631081342697144,-0.04703937843441963,-1.633090615272522,1.3648157119750977,0.7453593611717224,3.99609375,0,F1,7.6,270,0,4.9220302738164925,[6400|0|2600|0]
18000,0.584547221660614,0.7629098296165466,-0.047248754650354385,-1.5187065601348877,1.2752490043640137,0.745268702507019,4.0,0,F1,7.6,270,0,4.92278740148902,[6400|0|2700|0]
18100,0.5861824750900269,0.7647979259490967,-0.04615135118365288,-1.4645119905471802,1.1316794157028198,0.7665888071060181,4.0,0,F1,7.6,270,0,4.925515634600051,[6400|0|2800|0]
18200,0.5883462429046631,0.7667397856712341,-0.04367494583129883,-1.3360189199447632,0.9014538526535034,0.7548554539680481,4.0,0,F1,7.6,270,0,4.929334704356586,[6400|0|2900|0]
18300,0.5889706015586853,0.7703255414962769,-0.04649144411087036,-1.244163990020752,0.7807666063308716,3.9348392486572266,4.0078125,0,F1,7.6,270,0,4.933936892002099,[6400|0|3000|0]
18400,0.5856069922447205,0.7720159888267517,-0.03302802890539169,-10.862388610839844,4.323847770690918,-8.009966850280762,4.0078125,0,F1,7.6,270,0,4.947916699897389,[6400|0|3100|0]
18500,0.6346797347068787,0.7510891556739807,-0.007951144129037857,-8.380733489990234,21.38880729675293,-21.148279190063477,4.01171875,0,F1,7.6,270,0,5.006865122680766,[6400|0|3200|0]
18600,0.7058435082435608,0.755713701248169,-0.019989589229226112,-0.3673543632030487,19.18888282775879,-12.192111015319824,4.01171875,0,F1,7.6,270,0,5.079187963099117,[6400|0|3300|0]
18700,0.7103192806243896,0.8096480965614319,-0.07757675647735596,-2.443519115447998,20.52018928527832,-7.139523506164551,4.01171875,0,F1,7.6,270,0,5.158214752024622,[6400|0|3400|0]
18800,0.7002241015434265,0.8360452055931091,-0.12497776746749878,-3.068626880645752,0.3679376244544983,-2.607665777206421,4.015625,0,F1,7.6,270,0,5.213401488191881,[6400|0|3500|0]
18900,0.6901825666427612,0.8568206429481506,-0.1455259919166565,-2.137676239013672,0.06886336952447891,-3.1026906967163086,4.015625,0,F1,7.6,270,0,5.244299396672351,[6400|0|3600|0]
19000,0.6809316873550415,0.8810104727745056,-0.16521303355693817,-2.0206053256988525,0.3539797067642212,-5.530310153961182,4.015625,0,F1,7.6,270,0,5.276831015801594,[6400|0|3700|0]
19100,0.6683098673820496,0.9046198129653931,-0.18379093706607819,-3.2224371433258057,1.328737735748291,-10.362587928771973,4.015625,0,F1,7.6,270,0,5.30941705241967,[6400|0|3800|0]
19200,0.6577245593070984,0.91997891664505,-0.19962389767169952,-1.4547860622406006,0.28272560238838196,-7.124924182891846,4.015625,0,F1,7.6,270,0,5.333884039451654,[6400|0|3900|0]
19300,0.703379213809967,0.8330418467521667,-0.1182275265455246,-0.4315462112426758,-0.4387289583683014,-7.168480396270752,4.0234375,0,F1,7.6,270,0,5.461429211182482,[6400|0|4000|0]
19400,0.7049009799957275,0.831223726272583,-0.11548984050750732,-0.47657284140586853,-0.3639107346534729,-7.158430576324463,4.0234375,0,F1,7.6,270,0,5.4650508488293426,[6400|0|4100|0]
19500,0.7058849930763245,0.8300422430038452,-0.11378920078277588,-0.5489649176597595,-0.27366793155670166,-7.190482139587402,4.06640625,0,F1,7.6,270,0,5.467343524107359,[6400|0|4200|0]
19600,0.7063459157943726,0.829305112361908,-0.11318939924240112,-0.6345987915992737,-0.14807750284671783,-7.219092845916748,4.1328125,0,F1,7.6,270,0,5.468399731105599,[6400|0|4300|0]
19700,0.7065438628196716,0.8293436169624329,-0.11322958767414093,-0.7920082807540894,-0.05313039571046829,-7.208393573760986,4.1328125,0,F1,7.6,270,0,5.4686053539135075,[6400|0|4400|0]
19800,0.706409752368927,0.8293840289115906,-0.11341311782598495,-0.9188578128814697,0.04249044880270958,-7.201056957244873,4.13671875,0,F1,7.6,270,0,5.468836226292257,[6400|0|4500|0]
19900,0.706206202507019,0.8293511867523193,-0.11397551745176315,-1.0514811277389526,0.11770214885473251,-7.198756694793701,4.13671875,0,F1,7.6,270,0,5.469435229207763,[6400|0|4600|0]
20000,0.7059515714645386,0.8297896385192871,-0.11422702670097351,-1.1531550884246826,0.1799645572900772,-7.1828083992004395,4.13671875,0,F1,7.6,270,0,5.470001209615719,[6400|0|4700|0]
20100,0.7051117420196533,0.8310761451721191,-0.11533518880605698,-1.2122175693511963,0.26369351148605347,-7.2021403312683105,4.13671875,0,F1,7.6,270,0,5.471895526409559,[6400|0|4800|0]
20200,0.705026388168335,0.8312795162200928,-0.1155201643705368,-1.218302845954895,0.29545947909355164,-7.2207159996032715,4.14453125,0,F1,7.6,270,0,5.472183382315427,[6400|0|4900|0]
20300,0.704836905002594,0.8311977982521057,-0.11541657894849777,-1.1981662511825562,0.3330129086971283,-7.229676246643066,4.14453125,0,F1,7.6,270,0,5.472414275442328,[6400|0|5000|0]
20400,0.704967200756073,0.8310249447822571,-0.115585096180439,-1.2064927816390991,0.3420819938182831,-7.263920307159424,4.14453125,0,F1,7.6,270,0,5.47268859890628,[6400|0|5100|0]
20500,0.7049588561058044,0.8311342597007751,-0.1155431717634201,-1.235034465789795,0.3598833680152893,-7.288748741149902,4.14453125,0,F1,7.6,270,0,5.472805974548306,[6400|0|5200|0]
20600,0.704969048500061,0.8311448693275452,-0.1158720999956131,-1.2304743528366089,0.3837372362613678,-7.279902935028076,4.14453125,0,F1,7.6,270,0,5.473135231637849,[6400|0|5300|0]
20700,0.7043854594230652,0.8314770460128784,-0.11583267897367477,-1.2590709924697876,0.4224196672439575,-7.296384811401367,4.1484375,0,F1,7.6,270,0,5.473807891713994,[6400|0|5400|0]
20800,0.7045218348503113,0.8313509821891785,-0.11596637964248657,-1.2698795795440674,0.40833914279937744,-7.3147993087768555,4.1484375,0,F1,7.6,270,0,5.474036728366747,[6400|0|5500|0]
20900,0.7042970657348633,0.831852376461029,-0.11573125422000885,-1.2108886241912842,0.441110759973526,-7.312302589416504,4.1484375,0,F1,7.6,270,0,5.474634391595831,[6400|0|5600|0]
21000,0.7043649554252625,0.8315611481666565,-0.11581487953662872,-1.1577450037002563,0.44926926493644714,-7.3689141273498535,4.15234375,0,F1,7.6,270,0,5.474944901053152,[6400|0|5700|0]
21100,0.7044422030448914,0.8315610289573669,-0.11559196561574936,-1.1722285747528076,0.45587530732154846,-7.415572643280029,4.1484375,0,F1,7.6,270,0,5.475180820160201,[6400|0|5800|0]
21200,0.7045258283615112,0.8316266536712646,-0.11530208587646484,-1.186392903327942,0.45519259572029114,-7.433375358581543,4.15234375,0,F1,7.6,270,0,5.475489575823957,[6400|0|5900|0]
21300,0.7045335173606873,0.8315043449401855,-0.1152523010969162,-1.18568754196167,0.45910245180130005,-7.4360504150390625,4.15234375,0,F1,7.6,270,0,5.475621852317262,[6400|0|6000|0]
21400,0.7044237852096558,0.8316691517829895,-0.11537586152553558,-1.1900687217712402,0.4724261164665222,-7.4566802978515625,4.15234375,0,F1,7.6,270,0,5.47585523959182,[6400|0|6100|0]
21500,0.7041990756988525,0.8316765427589417,-0.11546654254198074,-1.1881554126739502,0.4755481481552124,-7.485339641571045,4.15234375,0,F1,7.6,270,0,5.4760976690403504,[6400|0|6200|0]
21600,0.7041606307029724,0.8318044543266296,-0.11575149744749069,-1.18932044506073,0.4721294939517975,-7.489302158355713,4.15234375,0,F1,7.6,270,0,5.476412373163346,[6400|0|6300|0]
21700,0.7043226361274719,0.8320813179016113,-0.11628683656454086,-1.2054784297943115,0.4594517946243286,-7.514101505279541,4.16015625,0,F1,7.6,270,0,5.477036462233081,[6400|0|6400|0]
21800,0.7044768929481506,0.8317655920982361,-0.11564592272043228,-1.1909255981445312,0.4718244671821594,-7.499303340911865,4.16015625,0,F1,7.6,270,0,5.4777673852832125,[6400|0|6500|0]
21900,0.7045615315437317,0.8316806554794312,-0.11529822647571564,-1.1899150609970093,0.4807349443435669,-7.490933418273926,4.16015625,0,F1,7.6,270,0,5.47813517679979,[6400|0|6600|0]
22000,0.7044178247451782,0.8316177725791931,-0.11559920012950897,-1.1883357763290405,0.4935291111469269,-7.511863708496094,4.16015625,0,F1,7.6,270,0,5.478474574860142,[6400|0|6700|0]
22100,0.7041457891464233,0.8320138454437256,-0.11589902639389038,-1.209204912185669,0.49616408348083496,-7.41813850402832,4.16015625,0,F1,7.6,270,0,5.479040942999978,[6400|0|6800|0]
22200,0.7039762735366821,0.832258403301239,-0.11605194956064224,-1.2154818773269653,0.4931677579879761,-7.394257545471191,4.1640625,0,F1,7.6,270,0,5.479375501787857,[6400|0|6900|0]
22300,0.7041690349578857,0.8316305875778198,-0.11559611558914185,-1.1909741163253784,0.4848872721195221,-7.415709495544434,4.1640625,0,F1,7.6,270,0,5.480174935435917,[6400|0|7000|0]
22400,0.7047052979469299,0.8317569494247437,-0.11563683301210403,-1.2178698778152466,0.45564061403274536,-7.4138898849487305,4.1640625,0,F1,7.6,270,0,5.480727387441352,[6400|0|7100|0]
22500,0.7050793766975403,0.8310609459877014,-0.11517985910177231,-1.1859248876571655,0.46206381916999817,-7.436161518096924,4.1640625,0,F1,7.6,270,0,5.481640174848559,[6400|0|7200|0]
22600,0.7048344612121582,0.8314242959022522,-0.11492893844842911,-1.2190728187561035,0.4897397458553314,-7.417621612548828,4.1640625,0,F1,7.6,270,0,5.482145118340108,[6400|0|7300|0]
22700,0.7050947546958923,0.8311542272567749,-0.11487066000699997,-1.2067524194717407,0.48164671659469604,-7.4177961349487305,4.1640625,0,F1,7.6,270,0,5.482524705151891,[6400|0|7400|0]
22800,0.7045774459838867,0.8312299251556396,-0.11514334380626678,-1.1972709894180298,0.5073620676994324,-7.427727222442627,4.171875,0,F1,7.6,270,0,5.483114361772131,[6400|0|7500|0]
22900,0.7048726677894592,0.8315346837043762,-0.11527100205421448,-1.2256673574447632,0.4847528040409088,-7.413643836975098,4.171875,0,F1,7.6,270,0,5.483557453541161,[6400|0|7600|0]
23000,0.7044955492019653,0.8318434953689575,-0.11564397066831589,-1.2202681303024292,0.4991912841796875,-7.415701389312744,4.171875,0,F1,7.6,270,0,5.48417120321352,[6400|0|7700|0]
23101,0.7040919661521912,0.8320470452308655,-0.11573237180709839,-1.2121304273605347,0.5074829459190369,-7.417537212371826,4.171875,0,F1,7.6,270,0,5.484631775233606,[6400|0|7800|0]
23201,0.7041159272193909,0.8320257663726807,-0.11598105728626251,-1.2011648416519165,0.4932212233543396,-7.40888786315918,4.171875,0,F1,7.6,270,0,5.484882516913615,[6400|0|7900|0]
23301,0.7043101191520691,0.8317559957504272,-0.11582968384027481,-1.1912850141525269,0.48458606004714966,-7.398888111114502,4.171875,0,F1,7.6,270,0,5.485247757403564,[6400|0|8000|0]
23401,0.704941987991333,0.8308704495429993,-0.11448995023965836,-1.1743860244750977,0.47047147154808044,-7.389505386352539,4.171875,0,F1,7.6,270,0,5.486973543148129,[6400|0|8100|0]
23501,0.7049212455749512,0.8310213685035706,-0.11498446762561798,-1.1807228326797485,0.46893444657325745,-7.385965347290039,4.17578125,0,F1,7.6,270,0,5.487490992880484,[6400|0|8200|0]
23601,0.7047796249389648,0.831314742565155,-0.11520892381668091,-1.1975607872009277,0.483733594417572,-7.374960422515869,4.171875,0,F1,7.6,270,0,5.487886600421178,[6400|0|8300|0]
23701,0.7047399282455444,0.8316119313240051,-0.11505480110645294,-1.2104651927947998,0.4882926940917969,-7.364847660064697,4.17578125,0,F1,7.6,270,0,5.488223721757886,[6400|0|8400|0]
23801,0.7047184109687805,0.8314105868339539,-0.11528272181749344,-1.1871622800827026,0.49843159317970276,-7.374755382537842,4.171875,0,F1,7.6,270,0,5.488528599516004,[6400|0|8500|0]
23901,0.7047742009162903,0.8315500617027283,-0.1150190532207489,-1.2018418312072754,0.4967910051345825,-7.364349842071533,4.17578125,0,F1,7.6,270,0,5.488832057727578,[6400|0|8600|0]
24001,0.704813539981842,0.831813633441925,-0.11560289561748505,-1.2002534866333008,0.49878188967704773,-7.3475823402404785,4.17578125,0,F1,7.6,270,0,5.489473843959908,[6400|0|8700|0]
24101,0.704422652721405,0.8320280909538269,-0.11587180942296982,-1.1936852931976318,0.5235645771026611,-7.358155727386475,4.17578125,0,F1,7.6,270,0,5.489994516130821,[6400|0|8800|0]
24201,0.7043853402137756,0.8320081830024719,-0.11548052728176117,-1.185390591621399,0.5175639986991882,-7.3579277992248535,4.17578125,0,F1,7.6,270,0,5.4903880771347096,[6400|0|8900|0]
24301,0.7041730880737305,0.8319216370582581,-0.11567892879247665,-1.175229549407959,0.5233633518218994,-7.349663734436035,4.17578125,0,F1,7.6,270,0,5.490691234405557,[6400|0|9000|0]
24402,0.704216480255127,0.8315718770027161,-0.11534085124731064,-1.1632996797561646,0.510594367980957,-7.342540264129639,4.17578125,0,F1,7.6,270,0,5.491179610699417,[6400|0|9100|0]
24502,0.7044527530670166,0.8316711187362671,-0.11597858369350433,-1.1731295585632324,0.48534291982650757,-7.342796325683594,4.17578125,0,F1,7.6,270,0,5.491866907168377,[6400|0|9200|0]
24602,0.7050496339797974,0.8310079574584961,-0.1144740954041481,-1.1681160926818848,0.4747397005558014,-7.332867622375488,4.17578125,0,F1,7.6,270,0,5.4936160597395345,[6400|0|9300|0]
24702,0.7048988938331604,0.8315536379814148,-0.11497404426336288,-1.194952130317688,0.4790782928466797,-7.3403801918029785,4.17578125,0,F1,7.6,270,0,5.494371333654569,[6400|0|9400|0]
24802,0.7041506171226501,0.832092821598053,-0.11601607501506805,-1.1905063390731812,0.5016259551048279,-7.326694011688232,4.17578125,0,F1,7.6,270,0,5.49576290294693,[6400|0|9500|0]
24902,0.7043136954307556,0.831915557384491,-0.11572003364562988,-1.178846836090088,0.4877200424671173,-7.338236331939697,4.17578125,0,F1,7.6,270,0,5.496144554133752,[6400|0|9600|0]
25002,0.7043570280075073,0.8317874670028687,-0.11542002856731415,-1.1771025657653809,0.4834943413734436,-7.339213848114014,4.17578125,0,F1,7.6,270,0,5.496473625410359,[6400|0|9700|0]
25102,0.7047774791717529,0.8314658403396606,-0.11496720463037491,-1.170661449432373,0.4716629981994629,-7.3373637199401855,4.17578125,0,F1,7.6,270,0,5.49717024037565,[6400|0|9800|0]
25202,0.7049981355667114,0.8315010070800781,-0.11542031168937683,-1.1707130670547485,0.47086724638938904,-7.3217244148254395,4.17578125,0,F1,7.6,270,0,5.49767544523626,[6400|0|9900|0]
25300,0.7043846845626831,0.8315445780754089,-0.11532790958881378,-1.16946542263031,0.5144214034080505,-7.3234992027282715,4.17578125,0,F1,7.6,270,0,5.49829734451602,[6400|0|10000|0]
25400,0.7046204805374146,0.8314743638038635,-0.11538444459438324,-1.1744753122329712,0.5035004019737244,-7.326473712921143,4.17578125,0,F1,7.6,270,0,5.498549784593035,[6400|0|10100|0]
25500,0.7044315934181213,0.8317992091178894,-0.11518590152263641,-1.1614171266555786,0.48847198486328125,-7.400461673736572,2.703125,0,A/E1,7.6,270,0,5.498974781267396,[6400|0|10100|0]
25600,0.7040992975234985,0.8324195742607117,-0.1147422045469284,-0.9786759614944458,0.3997262418270111,-7.827163219451904,2.935546875,0,A/E1,7.6,270,0,5.499806731072531,[6400|0|10100|0]
25700,0.7009717226028442,0.8320813775062561,-0.09993331879377365,4.648642063140869,4.888347148895264,-7.834310054779053,3.05078125,0,A/E1,7.6,270,0,5.514946057318405,[6400|0|10100|0]
25800,0.6859793066978455,0.8223447799682617,-0.051783379167318344,7.0744452476501465,2.975748300552368,-8.340312957763672,3.041015625,0,A/E1,7.6,270,0,5.566307429499419,[6400|0|10100|0]
25900,0.665442705154419,0.8034623265266418,0.023367656394839287,1.486781358718872,-3.4728589057922363,-5.983800411224365,3.16796875,0,A/E1,7.6,270,0,5.646469622564436,[6400|0|10100|0]
26000,0.6502697467803955,0.7820113301277161,0.11965382844209671,-2.3582794666290283,-5.512568473815918,-3.6214561462402344,3.251953125,0,A/E1,7.6,270,0,5.746276390069654,[6400|0|10100|0]
26100,0.6442620754241943,0.7656151652336121,0.22204017639160156,-3.801717758178711,-5.829239368438721,-2.0443942546844482,3.3046875,0,A/E1,7.6,270,0,5.85014116073226,[6400|0|10100|0]
26200,0.6466866731643677,0.755835771560669,0.32224076986312866,-3.835892915725708,-4.843900680541992,-0.8756841421127319,3.283203125,0,A/E1,7.6,270,0,5.950847040137876,[6400|0|10100|0]
26300,0.6559062004089355,0.7527669072151184,0.4195406138896942,-3.9287407398223877,-3.1753225326538086,-0.07201237976551056,3.26171875,0,A/E1,7.6,270,0,6.048630869366326,[6400|0|10100|0]
26400,0.6685921549797058,0.7561147212982178,0.5166558623313904,-2.4384312629699707,-0.9530530571937561,0.28455016016960144,3.251953125,0,A/E1,7.6,270,0,6.146628383530712,[6400|0|10100|0]
26500,0.6807366609573364,0.7647771835327148,0.6145199537277222,-0.5403614640235901,0.5928453207015991,0.08868926763534546,3.240234375,0,A/E1,7.6,270,0,6.245622866519585,[6400|0|10100|0]
26600,0.6903670430183411,0.7735741138458252,0.714484453201294,1.6668345928192139,1.9988428354263306,-0.8994989395141602,3.240234375,0,A/E1,7.6,270,0,6.346434727907898,[6400|0|10100|0]
26700,0.6928333640098572,0.7808458209037781,0.8108084797859192,2.098093271255493,1.8292573690414429,-2.3627243041992188,3.224609375,0,A/E1,7.6,270,0,6.443064322547664,[6400|0|10100|0]
26800,0.6893317103385925,0.7838358283042908,0.9082533717155457,2.3979718685150146,1.3388805389404297,-3.035012722015381,3.19921875,0,A/E1,7.6,270,0,6.540617942090278,[6400|0|10100|0]
26900,0.6820193529129028,0.7840871214866638,1.006792664527893,1.769971251487732,-0.7461603283882141,-2.896172046661377,3.171875,0,A/E1,7.6,270,0,6.639428497940056,[6400|0|10100|0]
27000,0.6769515872001648,0.7825719118118286,1.1064521074295044,0.7892071008682251,-2.0266635417938232,-2.532360792160034,3.177734375,0,A/E1,7.6,270,0,6.7392282107108725,[6400|0|10100|0]
27100,0.7047029733657837,0.7526724338531494,1.2450988292694092,0.5021712183952332,-2.683842420578003,-2.1329588890075684,3.431640625,0,A/E1,7.6,270,0,6.883751674872464,[6400|0|10100|0]
27200,0.7116181254386902,0.7516220211982727,1.3296360969543457,-3.4992103576660156,0.24504706263542175,-1.9705322980880737,3.484375,0,A/E1,7.6,270,0,6.968577804824098,[6400|0|10100|0]
27300,0.711251974105835,0.7572538256645203,1.3917357921600342,-2.9084858894348145,1.088400959968567,-1.883341908454895,3.2734375,0,A/E1,7.6,270,0,7.030933425524913,[6400|0|10100|0]
27400,0.709998607635498,0.7658966183662415,1.4310753345489502,-1.6621028184890747,0.9554188847541809,-1.7990553379058838,3.298828125,0,A/E1,7.6,270,0,7.071230675909564,[6400|0|10100|0]
27500,0.7076734900474548,0.7767989635467529,1.4559931755065918,0.7244194746017456,0.614418625831604,-2.099449396133423,3.2578125,0,A/E1,7.6,270,0,7.09852840658857,[6400|0|10100|0]
27600,0.7057691216468811,0.7837216258049011,1.472947120666504,2.400911569595337,-0.4879230856895447,-1.7450751066207886,3.236328125,0,A/E1,7.6,270,0,7.116939982518696,[6400|0|10100|0]
27700,0.7062182426452637,0.7855119705200195,1.485424518585205,3.2429304122924805,-1.0080161094665527,-1.9948885440826416,3.26171875,0,A/E1,7.6,270,0,7.129553170168602,[6400|0|10100|0]
27800,0.7094237804412842,0.7790470123291016,1.496452808380127,2.951784372329712,-1.1920796632766724,-2.859386920928955,3.283203125,0,A/E1,7.6,270,0,7.142732484747624,[6400|0|10100|0]
27900,0.7147752642631531,0.7660590410232544,1.504162311553955,1.7570732831954956,-0.7529966831207275,-2.9929285049438477,3.240234375,0,A/E1,7.6,270,0,7.158756286322921,[6400|0|10100|0]
28000,0.7217723727226257,0.7460793256759644,1.5080140829086304,0.2910498380661011,-0.23054726421833038,-2.232104778289795,3.236328125,0,A/E1,7.6,270,0,7.180273365463015,[6400|0|10100|0]
28100,0.7299844622612,0.7279070019721985,1.5116544961929321,-1.3018755912780762,0.6980859637260437,-3.522439479827881,3.240234375,0,A/E1,7.6,270,0,7.200544635089374,[6400|0|10100|0]
28200,0.7359702587127686,0.7085911631584167,1.5119835138320923,-2.640177011489868,1.1183444261550903,-4.128729820251465,3.19921875,0,A/E1,7.6,270,0,7.220769363538638,[6400|0|10100|0]
28300,0.7414546012878418,0.6926430463790894,1.5102299451828003,-3.5518696308135986,1.3314303159713745,-4.3166961669921875,3.1875,0,A/E1,7.6,270,0,7.237725054185014,[6400|0|10100|0]
28400,0.7451752424240112,0.6824866533279419,1.5069448947906494,-3.883802890777588,1.3396761417388916,-4.042631149291992,3.19921875,0,A/E1,7.6,270,0,7.249029347455826,[6400|0|10100|0]
28500,0.747643232345581,0.6766757965087891,1.5048354864120483,-3.729078531265259,0.6484110355377197,-3.847539186477661,3.6640625,0,A/E1,7.6,270,233.69550287742476,7.255685670384694,[6400|0|10100|0]
28600,0.74300616979599,0.6724789142608643,1.4633941650390625,-15.280494689941406,-14.811901092529297,-5.640985012054443,3.7734375,0,A/E1,7.6,270,233.69550287742476,7.29759628105587,[6400|0|10100|0]
28700,0.7557071447372437,0.6990920305252075,1.4013898372650146,-14.460890769958496,-14.059246063232422,-3.8968088626861572,3.642578125,0,A/E1,7.6,270,233.69550287742476,7.366255653209054,[6400|0|10100|0]
28800,0.7836338877677917,0.7374200224876404,1.2954638004302979,-13.189128875732422,-15.846772193908691,-3.6719086170196533,3.150390625,0,A/E1,7.6,270,233.69550287742476,7.482312808196053,[6400|0|10100|0]
28900,0.8272209763526917,0.7933953404426575,1.1600757837295532,-8.760866165161133,-10.422938346862793,2.152697801589966,2.80859375,0,A/E1,7.6,270,233.69550287742476,7.635162360297569,[6400|0|10100|0]
29000,0.8858267664909363,0.8526716828346252,1.034285306930542,-1.4368945360183716,-3.1298258304595947,5.738933563232422,3.087890625,0,A/E1,7.6,270,233.69550287742476,7.786064870079283,[6400|0|10100|0]
29100,0.9540176391601562,0.9006726145744324,0.9389913082122803,7.93301248550415,5.560189247131348,-3.2059383392333984,3.15625,0,A/E1,7.6,270,233.69550287742476,7.912694371993314,[6400|0|10100|0]
29200,1.008406162261963,0.9348686933517456,0.8647979497909546,7.79334020614624,5.815933704376221,-8.55877685546875,3.09375,0,A/E1,7.6,270,233.69550287742476,8.010837826603263,[6400|0|10100|0]
29300,1.04416823387146,0.9599644541740417,0.8092135190963745,3.4782230854034424,4.523247718811035,-10.05124568939209,3.087890625,0,A/E1,7.6,270,233.69550287742476,8.081536850024335,[6400|0|10100|0]
29400,1.0656075477600098,0.9865957498550415,0.7740652561187744,-1.0557113885879517,0.49425584077835083,-8.911572456359863,3.078125,0,A/E1,7.6,270,233.69550287742476,8.130570210912644,[6400|0|10100|0]
29500,1.0840132236480713,1.0209170579910278,0.7589373588562012,-3.1811070442199707,-2.892814874649048,-7.112409591674805,3.177734375,0,A/E1,7.6,270,233.69550287742476,8.17235028238995,[6400|0|10100|0]
29600,1.1064305305480957,1.062208890914917,0.7589393258094788,-0.10344665497541428,-2.858384609222412,-4.8788676261901855,3.24609375,0,A/E1,7.6,270,233.69550287742476,8.219334866231176,[6400|0|10100|0]
29700,1.133942723274231,1.1042922735214233,0.7637117505073547,2.5832114219665527,-2.1732795238494873,-1.971726894378662,3.24609375,0,A/E1,7.6,270,233.69550287742476,8.269839399470307,[6400|0|10100|0]
29800,1.1628572940826416,1.1412006616592407,0.7699257135391235,4.275121212005615,0.3744365870952606,-0.43895113468170166,3.24609375,0,A/E1,7.6,270,233.69550287742476,8.317135222293539,[6400|0|10100|0]
29900,1.189550518989563,1.172794222831726,0.7719044089317322,5.2033891677856445,1.8734561204910278,-0.07179645448923111,3.224609375,0,A/E1,7.6,270,233.69550287742476,8.358542909972854,[6400|0|10100|0]
30000,1.211276650428772,1.1957131624221802,0.7729929685592651,6.415474891662598,3.218064546585083,-0.03461717814207077,3.205078125,0,A/E1,7.6,270,233.69550287742476,8.39014176345407,[6400|0|10100|0]
30100,1.2265714406967163,1.2094415426254272,0.7725562453269958,6.197590351104736,3.515061616897583,-0.20316395163536072,3.208984375,0,A/E1,7.6,270,233.69550287742476,8.4106987515488,[6400|0|10100|0]
30200,1.2362005710601807,1.213181734085083,0.7721901535987854,5.468490123748779,3.423966407775879,-0.5739816427230835,3.205078125,0,A/E1,7.6,270,233.69550287742476,8.421035250320866,[6400|0|10100|0]
30300,1.2413514852523804,1.2086091041564941,0.7731276750564575,3.421706199645996,2.841853141784668,-0.7305814623832703,3.23046875,0,A/E1,7.6,270,233.69550287742476,8.427986495386524,[6400|0|10100|0]
30400,1.2429198026657104,1.2001725435256958,0.7721886038780212,1.8630751371383667,2.2285118103027344,-0.5077943205833435,3.21484375,0,A/E1,7.6,270,233.69550287742476,8.43661882007135,[6400|0|10100|0]
30500,1.2419350147247314,1.1907850503921509,0.7714101076126099,0.5567219257354736,1.590828537940979,-0.2297774702310562,3.208984375,0,A/E1,7.6,270,233.69550287742476,8.446089875506534,[6400|0|10100|0]
30600,1.239412546157837,1.1816686391830444,0.7692720890045166,-0.2855205535888672,0.96497642993927,-0.3979038894176483,3.208984375,0,A/E1,7.6,270,233.69550287742476,8.45578744863454,[6400|0|10100|0]
30700,1.2364803552627563,1.174546718597412,0.7651553750038147,-0.6194881200790405,0.8292833566665649,-0.44403642416000366,3.1875,0,A/E1,7.6,270,233.69550287742476,8.464520536887662,[6400|0|10100|0]
30800,1.2319443225860596,1.169519066810608,0.7606769800186157,-0.25646063685417175,0.582756519317627,-0.13251256942749023,3.15625,0,A/E1,7.6,270,233.69550287742476,8.472638966327946,[6400|0|10100|0]
30900,1.2274173498153687,1.1669018268585205,0.7561696171760559,0.17189350724220276,0.13505618274211884,0.27773812413215637,3.09375,0,A/E1,7.6,270,233.69550287742476,8.479542570258348,[6400|0|10100|0]
31000,1.2239575386047363,1.1639310121536255,0.7527535557746887,0.3671611547470093,0.08606578409671783,1.149040937423706,3.18359375,0,A/E1,7.6,270,233.69550287742476,8.485240421530708,[6400|0|10100|0]
31100,1.2214031219482422,1.1606613397598267,0.7507581114768982,0.6162986755371094,0.013111530803143978,1.2364228963851929,3.134765625,0,A/E1,7.6,270,233.69550287742476,8.489844506669293,[6400|0|10100|0]
31200,1.2195475101470947,1.15725576877594,0.7487580180168152,0.6346451640129089,0.18496470153331757,1.4156091213226318,3.150390625,0,A/E1,7.6,270,233.69550287742476,8.494208172872375,[6400|0|10100|0]
31300,1.2176897525787354,1.1532909870147705,0.7441848516464233,0.8064220547676086,0.23709818720817566,1.5263029336929321,3.162109375,0,A/E1,7.6,270,233.69550287742476,8.500539413528658,[6400|0|10100|0]
31400,1.21653151512146,1.1484973430633545,0.7399638891220093,0.7930930256843567,0.46191883087158203,1.932503581047058,3.171875,0,A/E1,7.6,270,233.69550287742476,8.507030720097669,[6400|0|10100|0]
31500,1.2143081426620483,1.1423022747039795,0.7360027432441711,0.21748510003089905,0.6354086995124817,2.5633163452148438,3.552734375,0,A/E1,7.6,270,233.69550287742476,8.514712707713912,[6400|0|10100|0]
31600,1.2123180627822876,1.1355361938476562,0.723342776298523,0.584542453289032,-0.4985043704509735,3.259840250015259,3.7578125,0,A/E1,7.6,270,233.69550287742476,8.529204603074666,[6400|0|10100|0]
31700,1.2105501890182495,1.1273901462554932,0.6749094724655151,-0.9994542598724365,0.2427154779434204,4.146805286407471,3.611328125,0,A/E1,7.6,270,233.69550287742476,8.57834998321563,[6400|0|10100|0]
31800,1.2068909406661987,1.1196837425231934,0.5879987478256226,-2.129112958908081,0.7604424357414246,4.881171226501465,3.146484375,0,A/E1,7.6,270,233.69550287742476,8.665678402498349,[6400|0|10100|0]
31900,1.2002604007720947,1.1143203973770142,0.4820612967014313,-1.607216477394104,2.869922161102295,4.174568176269531,2.9140625,0,A/E1,7.6,270,233.69550287742476,8.771958565657496,[6400|0|10100|0]
32000,1.1854568719863892,1.1120846271514893,0.3829898536205292,0.26343634724617004,3.8753244876861572,0.07272978872060776,3.072265625,0,A/E1,7.6,270,233.69550287742476,8.872154842869492,[6400|0|10100|0]
32100,1.1605627536773682,1.105561375617981,0.3000747561454773,4.434333324432373,3.7283174991607666,-3.6941356658935547,3.087890625,0,A/E1,7.6,270,233.69550287742476,8.958971795858238,[6400|0|10100|0]
