time.ms,stateEstimate.x,stateEstimate.y,stateEstimate.z,stabilizer.roll,stabilizer.pitch,stabilizer.yaw,pm.vbat,drone_id,node_name,wind_speed,global_wind_direction,relative_wind_direction,travel_dist,waiting_time
0,1.8627251386642456,-0.11198382079601288,-0.017483167350292206,-0.007370081264525652,0.5009881854057312,3.5247249603271484,4.13671875,1,B1,7.6,270,0,0.051615290500027076,[100|0|0|0]
100,1.8628426790237427,-0.11206252872943878,-0.01753978058695793,-0.003423125948756933,0.4901779294013977,3.525223970413208,4.13671875,1,B1,7.6,270,0,0.051767657601005754,[200|0|0|0]
200,1.862884759902954,-0.11209311336278915,-0.017601383849978447,-0.0037298754323273897,0.48894137144088745,3.5318124294281006,4.13671875,1,B1,7.6,270,0,0.051848287509892954,[300|0|0|0]
300,1.8628311157226562,-0.11174644529819489,-0.01781296730041504,-0.011174696497619152,0.48936140537261963,3.52840518951416,4.13671875,1,B1,7.6,270,0,0.052257950788193584,[400|0|0|0]
400,1.8627475500106812,-0.11178731173276901,-0.017803777009248734,-0.013701715506613255,0.4914470314979553,3.5456182956695557,4.13671875,1,B1,7.6,270,0,0.05235142674844234,[500|0|0|0]
500,1.8631987571716309,-0.11172588169574738,-0.01757919229567051,-0.0096152164041996,0.4830232560634613,3.543782949447632,4.13671875,1,B1,7.6,270,0,0.05285916668690867,[600|0|0|0]
600,1.8629634380340576,-0.11198493093252182,-0.017882434651255608,-0.0016592425527051091,0.4938448369503021,3.5196096897125244,4.13671875,1,B1,7.6,270,0,0.05332224068726114,[700|0|0|0]
700,1.8628791570663452,-0.11213373392820358,-0.017839282751083374,0.0002484791330061853,0.5001730918884277,3.521214008331299,4.13671875,1,B1,7.6,270,0,0.053498614436812704,[800|0|0|0]
800,1.8627315759658813,-0.11200612783432007,-0.01755400374531746,-0.005722543690353632,0.5064339637756348,3.522677183151245,4.13671875,1,B1,7.6,270,0,0.05384422636881321,[900|0|0|0]
900,1.862768530845642,-0.11203250288963318,-0.017646973952651024,-0.00362662342377007,0.5004914999008179,3.541452407836914,4.13671875,1,B1,7.6,270,0,0.05394769020854742,[1000|0|0|0]
1000,1.8627716302871704,-0.11200457066297531,-0.017575841397047043,-0.009283442981541157,0.5069429874420166,3.5504937171936035,4.13671875,1,B1,7.6,270,0,0.05402417325431972,[1100|0|0|0]
1100,1.8629367351531982,-0.11215990781784058,-0.017795313149690628,-0.009128367528319359,0.5054963827133179,3.5671353340148926,4.13671875,1,B1,7.6,270,0,0.0543396999547369,[1200|0|0|0]
1200,1.8628642559051514,-0.11208678036928177,-0.017733769491314888,-0.014238589443266392,0.5039845108985901,3.554903507232666,4.13671875,1,B1,7.6,270,0,0.05445965197437989,[1300|0|0|0]
1300,1.8626527786254883,-0.11176180839538574,-0.017622586339712143,-0.021309182047843933,0.5062158703804016,3.539959669113159,4.13671875,1,B1,7.6,270,0,0.05486300184339176,[1400|0|0|0]
1400,1.8630281686782837,-0.11137305200099945,-0.017727112397551537,-0.03362010791897774,0.4969729781150818,3.5311946868896484,4.13671875,1,B1,7.6,270,0,0.055413433421956634,[1500|0|0|0]
1500,1.8626176118850708,-0.11171738803386688,-0.017768388614058495,-0.024951592087745667,0.502141535282135,3.5311825275421143,4.13671875,1,B1,7.6,270,0,0.055950860542628135,[1600|0|0|0]
1600,1.8626645803451538,-0.1119675561785698,-0.017529791221022606,-0.0149326017126441,0.5006830096244812,3.538919687271118,4.13671875,1,B1,7.6,270,0,0.05629974283342288,[1700|0|0|0]
1700,1.8627536296844482,-0.1120729073882103,-0.017547814175486565,-0.012069759890437126,0.5052088499069214,3.536428451538086,4.13671875,1,B1,7.6,270,0,0.05643885965156182,[1800|0|0|0]
1800,1.8631528615951538,-0.1116868257522583,-0.01770201325416565,-0.024799510836601257,0.48985570669174194,3.5532476902008057,4.13671875,1,B1,7.6,270,0,0.05701524711153164,[1900|0|0|0]
1900,1.8628290891647339,-0.1117466390132904,-0.0178256593644619,-0.02310023456811905,0.49441227316856384,3.5573785305023193,4.13671875,1,B1,7.6,270,0,0.05736694950487964,[2000|0|0|0]
2000,1.8629348278045654,-0.11187227815389633,-0.01748608611524105,-0.02443661540746689,0.49095696210861206,3.5476491451263428,4.13671875,1,B1,7.6,270,0,0.057744144209497854,[2100|0|0|0]
2100,1.862978458404541,-0.11162252724170685,-0.017747607082128525,-0.034403007477521896,0.49046188592910767,3.5498135089874268,4.13671875,1,B1,7.6,270,0,0.058108386386511265,[2200|0|0|0]
2200,1.79292893409729,-0.0748295858502388,0.08126164972782135,8.360475540161133,-25.124059677124023,8.191327095031738,4.13671875,1,B1,7.6,270,0,0.1848502079213415,[2300|0|0|0]
2300,1.9315367937088013,-0.06266959011554718,-0.0870443806052208,4.766656398773193,-16.69205093383789,1.80425226688385,4.13671875,1,B1,7.6,270,0,0.4032235673057202,[2400|0|0|0]
2400,1.8820968866348267,0.02752435952425003,-0.22188100218772888,-0.32035142183303833,-8.649157524108887,3.489633321762085,4.13671875,1,B1,7.6,270,0,0.5728117965048424,[2500|0|0|0]
2500,1.8430287837982178,0.10092400759458542,-0.34821268916130066,-1.5917290449142456,-2.009575128555298,4.027357578277588,4.13671875,1,B1,7.6,270,0,0.7240517387479201,[2600|0|0|0]
2600,1.8218706846237183,0.12485058605670929,-0.38448622822761536,2.829453468322754,3.6516969203948975,3.78153920173645,4.13671875,1,B1,7.6,270,0,0.7723830531721894,[2700|0|0|0]
2700,1.8172029256820679,0.11814010888338089,-0.3723870813846588,4.135710716247559,5.254445552825928,3.691760540008545,4.13671875,1,B1,7.6,270,0,0.7869846911542291,[2800|0|0|0]
2800,1.8199774026870728,0.10172207653522491,-0.3409312069416046,4.031238555908203,5.402402400970459,3.9087698459625244,4.13671875,1,B1,7.6,270,0,0.8225757229714381,[2900|0|0|0]
2900,1.8240283727645874,0.08348128944635391,-0.30423876643180847,3.882155179977417,5.188271522521973,4.1029510498046875,4.13671875,1,B1,7.6,270,0,0.8637518308831309,[3000|0|0|0]
3000,1.8275858163833618,0.07047877460718155,-0.28001102805137634,3.5163443088531494,4.9008002281188965,4.251567363739014,4.13671875,1,B1,7.6,270,0,0.8914773444811568,[3100|0|0|0]
3100,1.8299918174743652,0.06203173100948334,-0.2645108103752136,3.031187057495117,4.535408020019531,4.34368896484375,4.13671875,1,B1,7.6,270,0,0.9092930155266087,[3200|0|0|0]
3200,1.8306572437286377,0.05925437808036804,-0.2587849795818329,2.4511396884918213,4.136478900909424,4.381259441375732,4.13671875,1,B1,7.6,270,0,0.9156915794019769,[3300|0|0|0]
3300,1.8308672904968262,0.05938298627734184,-0.2583266794681549,1.9232656955718994,3.7483761310577393,4.3634467124938965,4.13671875,1,B1,7.6,270,0,0.9162118665413072,[3400|0|0|0]
3400,1.8300613164901733,0.059812501072883606,-0.25892144441604614,1.5188041925430298,3.3712849617004395,4.3022685050964355,4.13671875,1,B1,7.6,270,0,0.9173017391954412,[3500|0|0|0]
3500,1.8294013738632202,0.06192391365766525,-0.2619221806526184,1.1198323965072632,2.98716139793396,4.234618663787842,4.13671875,1,B1,7.6,270,0,0.921029742056964,[3600|0|0|0]
3600,1.8289296627044678,0.06341198086738586,-0.26433438062667847,0.8321817517280579,2.6145265102386475,4.1668596267700195,4.13671875,1,B1,7.6,270,0,0.9239029918116481,[3700|0|0|0]
3700,1.8284776210784912,0.06421911716461182,-0.2654982805252075,0.6348012685775757,2.2723610401153564,4.080458164215088,4.13671875,1,B1,7.6,270,0,0.925389757969358,[3800|0|0|0]
3800,1.828728437423706,0.0647236555814743,-0.26626572012901306,0.48836734890937805,1.9445351362228394,4.017000198364258,4.13671875,1,B1,7.6,270,0,0.9263418248780394,[3900|0|0|0]
3900,1.8290536403656006,0.06591153144836426,-0.2680400311946869,0.35461845993995667,1.6687004566192627,3.9430270195007324,4.13671875,1,B1,7.6,270,0,0.9285016826942692,[4000|0|0|0]
4000,1.828588843345642,0.06687511503696442,-0.2689749002456665,0.2553355097770691,1.453647494316101,3.884300947189331,4.13671875,1,B1,7.6,270,0,0.9299224253678247,[4100|0|0|0]
4100,1.8286594152450562,0.06712666898965836,-0.26927950978279114,0.2170424461364746,1.2613787651062012,3.8406715393066406,4.13671875,1,B1,7.6,270,0,0.930323731677531,[4200|0|0|0]
4200,1.828787088394165,0.06762998551130295,-0.2702833414077759,0.17503008246421814,1.1013438701629639,3.7828168869018555,4.13671875,1,B1,7.6,270,0,0.9314539112585195,[4300|0|0|0]
4300,1.8288434743881226,0.06761622428894043,-0.2703563868999481,0.1456380933523178,0.962266743183136,3.742711305618286,4.13671875,1,B1,7.6,270,0,0.9315472086083327,[4400|0|0|0]
4400,1.8290905952453613,0.06788989901542664,-0.2705770432949066,0.11598116904497147,0.8521319031715393,3.6990044116973877,4.13671875,1,B1,7.6,270,0,0.931976924582711,[4500|0|0|0]
4500,1.8290873765945435,0.06709594279527664,-0.2697563171386719,0.13200730085372925,0.7710767984390259,3.648641586303711,4.13671875,1,B1,7.6,270,0,0.9331188388801763,[4600|0|0|0]
4600,1.8292242288589478,0.06725741922855377,-0.2697449028491974,0.10391923785209656,0.6967561841011047,3.646298885345459,4.13671875,1,B1,7.6,270,0,0.9333308140362222,[4700|0|0|0]
4700,1.8293293714523315,0.06767095625400543,-0.2702295780181885,0.07304328680038452,0.646956205368042,3.606051445007324,4.13671875,1,B1,7.6,270,0,0.9339765522616661,[4800|0|0|0]
4800,1.8291351795196533,0.0678616538643837,-0.2701115608215332,0.05486012622714043,0.6122264862060547,3.5847461223602295,4.13671875,1,B1,7.6,270,0,0.9342732071858248,[4900|0|0|0]
4900,1.8295778036117554,0.06754365563392639,-0.269646555185318,0.06246919929981232,0.5669840574264526,3.5743343830108643,4.13671875,1,B1,7.6,270,0,0.934989635272373,[5000|0|0|0]
5000,1.8296469449996948,0.06775318831205368,-0.2699262499809265,0.05099847540259361,0.5395188331604004,3.5703823566436768,4.13671875,1,B1,7.6,270,0,0.935345884698225,[5100|0|0|0]
5100,1.8295700550079346,0.0679534450173378,-0.27068352699279785,0.040958818048238754,0.5291566252708435,3.56066632270813,4.13671875,1,B1,7.6,270,0,0.9361329573070438,[5200|0|0|0]
5200,1.8292157649993896,0.06841499358415604,-0.27117499709129333,0.01686398684978485,0.527108371257782,3.550889492034912,4.13671875,1,B1,7.6,270,0,0.9368945945877765,[5300|0|0|0]
5300,1.8295975923538208,0.06799869239330292,-0.2708493173122406,0.04127201437950134,0.5185340046882629,3.535672426223755,4.13671875,1,B1,7.6,270,0,0.9375466422306534,[5400|0|0|0]
5400,1.8299962282180786,0.06740546226501465,-0.26958250999450684,0.044128499925136566,0.5039622783660889,3.5536630153656006,4.13671875,1,B1,7.6,270,0,0.9390011639106725,[5500|0|0|0]
5500,1.829923152923584,0.06787492334842682,-0.2702759802341461,0.015984809026122093,0.5034831166267395,3.547593593597412,4.13671875,1,B1,7.6,270,0,0.9398417795664685,[5600|0|0|0]
5600,1.829896330833435,0.06760908663272858,-0.27006709575653076,0.023623889312148094,0.5024378895759583,3.5471255779266357,4.13671875,1,B1,7.6,270,0,0.9401809274824607,[5700|0|0|0]
5700,1.8300304412841797,0.0678984746336937,-0.270310640335083,0.0020802414510399103,0.4972868859767914,3.5505006313323975,4.13671875,1,B1,7.6,270,0,0.9405822315938821,[5800|0|0|0]
5800,1.829543948173523,0.06767033785581589,-0.2700577676296234,0.013730415143072605,0.49707552790641785,3.544785737991333,4.13671875,1,B1,7.6,270,0,0.9411760889347506,[5900|0|0|0]
5900,1.8298532962799072,0.06813608855009079,-0.2707892954349518,-0.0014383529778569937,0.5028898119926453,3.5438613891601562,4.13671875,1,B1,7.6,270,0,0.9420968239075357,[6000|0|0|0]
6000,1.8297067880630493,0.0680457204580307,-0.27011948823928833,-0.0038649351336061954,0.49619096517562866,3.5357706546783447,4.13671875,1,B1,7.6,270,0,0.942788396556671,[6100|0|0|0]
6100,1.8301678895950317,0.06778696924448013,-0.2698231637477875,0.013213017955422401,0.4952028691768646,3.4842429161071777,4.13671875,1,B1,7.6,270,0,0.9433945112467864,[6200|0|0|0]
6200,1.8299182653427124,0.06742474436759949,-0.2697913348674774,0.013039657846093178,0.5071583986282349,3.473675012588501,4.13671875,1,B1,7.6,270,0,0.943835569300107,[6300|0|0|0]
6300,1.8298951387405396,0.06764235347509384,-0.2701195180416107,0.0005886588478460908,0.5107815265655518,3.46590256690979,4.13671875,1,B1,7.6,270,0,0.9442300217803588,[6400|0|0|0]
6400,1.830146074295044,0.06773900240659714,-0.2705208957195282,-0.00529817258939147,0.4925983250141144,3.4913229942321777,3.146484375,1,J1,7.6,270,0,0.9447131508612528,[6400|0|0|0]
6500,1.8292325735092163,0.06844702363014221,-0.27061089873313904,0.1138649582862854,0.45220017433166504,4.366361141204834,3.15625,1,J1,7.6,270,0,0.945872408503521,[6400|0|0|0]
6600,1.8264509439468384,0.0669826939702034,-0.26021668314933777,3.4927144050598145,4.6194233894348145,6.773476600646973,3.484375,1,J1,7.6,270,0,0.9567315724666356,[6400|0|0|0]
6700,1.8160920143127441,0.05862883850932121,-0.22075298428535461,2.023043155670166,4.572318077087402,9.142875671386719,3.59375,1,J1,7.6,270,0,0.9983786354153308,[6400|0|0|0]
6800,1.7981898784637451,0.04238331690430641,-0.15867406129837036,6.863766193389893,-3.681030750274658,9.725217819213867,3.552734375,1,J1,7.6,270,0,1.0649984231619076,[6400|0|0|0]
6900,1.792276382446289,0.016918247565627098,-0.0985042005777359,8.605509757995605,-6.955636501312256,11.234039306640625,3.568359375,1,J1,7.6,270,0,1.1306021679537468,[6400|0|0|0]
7000,1.800266981124878,-0.020755309611558914,-0.026243766769766808,5.006028175354004,-7.585162162780762,10.76456069946289,3.59375,1,J1,7.6,270,0,1.2124845034830956,[6400|0|0|0]
7100,1.8247921466827393,-0.06000722944736481,0.04756585508584976,0.5519880652427673,-5.231764316558838,6.264377593994141,3.58984375,1,J1,7.6,270,0,1.2996054380218511,[6400|0|0|0]
7200,1.8607821464538574,-0.0998610258102417,0.13270071148872375,-2.3685059547424316,-1.0208063125610352,2.108886241912842,3.615234375,1,J1,7.6,270,0,1.4002610337073207,[6400|0|0|0]
7300,1.9004735946655273,-0.13425679504871368,0.2274482101202011,-3.8520450592041016,2.429161548614502,-0.2305443286895752,3.630859375,1,J1,7.6,270,0,1.5085918626507369,[6400|0|0|0]
7401,1.9375672340393066,-0.1605609506368637,0.3299884498119354,-4.4515886306762695,5.186215877532959,-1.1284950971603394,3.65234375,1,J1,7.6,270,0,1.620762925939073,[6400|0|0|0]
7501,1.9672203063964844,-0.17982672154903412,0.4357307255268097,-3.5741636753082275,6.4348063468933105,-1.5477393865585327,3.65234375,1,J1,7.6,270,0,1.7322613721274425,[6400|0|0|0]
7601,1.9865918159484863,-0.191353902220726,0.5370118021965027,-2.6531519889831543,7.0622735023498535,-1.771672010421753,3.642578125,1,J1,7.6,270,0,1.8360206501122731,[6400|0|0|0]
7701,1.9948266744613647,-0.19621765613555908,0.6323664784431458,-2.388420581817627,6.373561859130859,-1.8435518741607666,3.673828125,1,J1,7.6,270,0,1.9318537512776497,[6400|0|0|0]
7800,1.993485927581787,-0.1955767124891281,0.7209932208061218,-1.5590527057647705,5.307855606079102,-1.795497179031372,3.705078125,1,J1,7.6,270,0,2.0204929518202217,[6400|0|0|0]
7900,1.9845682382583618,-0.19182907044887543,0.7977576851844788,-0.3278973400592804,3.142829418182373,-1.8848031759262085,3.716796875,1,J1,7.6,270,0,2.0978644775582285,[6400|0|0|0]
8001,1.971933364868164,-0.18623363971710205,0.8587645888328552,0.191034734249115,1.081383466720581,-1.8236106634140015,3.701171875,1,J1,7.6,270,0,2.1604167849770817,[6400|0|0|0]
8100,1.9582788944244385,-0.18101519346237183,0.9043801426887512,0.17861852049827576,0.0937056913971901,0.967707633972168,3.6796875,1,J1,7.6,270,0,2.2083172599015772,[6400|0|0|0]
8200,1.9452794790267944,-0.17682529985904694,0.937981128692627,0.7692186236381531,-0.9435880184173584,1.7632676362991333,3.658203125,1,J1,7.6,270,0,2.244587995619513,[6400|0|0|0]
8301,1.9342939853668213,-0.17271211743354797,0.9615631103515625,0.3854126036167145,-1.3187206983566284,1.7680487632751465,3.642578125,1,J1,7.6,270,0,2.270926355469381,[6400|0|0|0]
8400,1.9265942573547363,-0.16961848735809326,0.9794390797615051,0.42306095361709595,-1.3472096920013428,1.3256222009658813,3.63671875,1,J1,7.6,270,0,2.2906343904005717,[6400|0|0|0]
8500,1.921385407447815,-0.1655283272266388,0.9917755722999573,0.7049843668937683,-0.8052218556404114,5.840748310089111,3.63671875,1,J1,7.6,270,0,2.304636196548532,[6400|0|0|0]
8600,1.917403221130371,-0.16307103633880615,1.0021278858184814,0.4937709867954254,0.06539279222488403,10.486445426940918,3.626953125,1,J1,7.6,270,0,2.315996939550646,[6400|0|0|0]
8700,1.9140092134475708,-0.16121430695056915,1.0107682943344116,0.35562387108802795,0.6072850227355957,11.55129337310791,3.630859375,1,J1,7.6,270,0,2.325463902711777,[6400|0|0|0]
8800,1.9096335172653198,-0.16888545453548431,1.0247175693511963,0.3089357018470764,1.0042622089385986,0.9505801200866699,3.63671875,1,J1,7.6,270,0,2.3419737632757793,[6400|0|0|0]
8900,1.90487802028656,-0.1707618534564972,1.0330467224121094,-0.04306475818157196,0.7316417098045349,-4.689220905303955,3.642578125,1,J1,7.6,270,0,2.3517467062889095,[6400|0|0|0]
9000,1.8982090950012207,-0.16835153102874756,1.0350719690322876,-0.3436264991760254,1.185443639755249,-6.551131725311279,3.630859375,1,J1,7.6,270,0,2.359121382047185,[6400|0|0|0]
9100,1.8901764154434204,-0.16601017117500305,1.035530686378479,-0.010528882034122944,0.17509359121322632,-6.60809326171875,3.626953125,1,J1,7.6,270,0,2.367500900437088,[6400|0|0|0]
9200,1.881583333015442,-0.16407306492328644,1.0352669954299927,-0.030340038239955902,0.3137114644050598,-6.501641750335693,3.626953125,1,J1,7.6,270,0,2.3763135606007837,[6400|0|0|0]
9300,1.8719687461853027,-0.1619308590888977,1.0340360403060913,0.2136807143688202,-0.745612621307373,-5.273198127746582,3.62109375,1,J1,7.6,270,0,2.3862405226873555,[6400|0|0|0]
9400,1.8643550872802734,-0.1601550132036209,1.0319558382034302,0.010105193592607975,-0.8753712177276611,-4.599521636962891,3.62109375,1,J1,7.6,270,139.4748965062461,2.394330557997433,[6400|0|0|0]
9500,1.85565984249115,-0.15741904079914093,1.0304646492004395,-10.005460739135742,8.953397750854492,-2.3253531455993652,3.583984375,1,J1,7.6,270,139.4748965062461,2.4035672495903952,[6400|0|0|0]
9600,1.8339124917984009,-0.1374121457338333,1.0298454761505127,-16.555498123168945,15.452654838562012,0.3455829322338104,3.5625,1,J1,7.6,270,139.4748965062461,2.433124084461088,[6400|0|0|0]
9700,1.7897650003433228,-0.09103457629680634,1.0259686708450317,-17.241493225097656,15.492026329040527,-0.6906937956809998,3.546875,1,J1,7.6,270,139.4748965062461,2.4972716453503305,[6400|0|0|0]
9800,1.725070834159851,-0.017947755753993988,1.0254100561141968,-11.897382736206055,10.039712905883789,-3.3200199604034424,3.546875,1,J1,7.6,270,139.4748965062461,2.5948796907443934,[6400|0|0|0]
9900,1.649276852607727,0.07266798615455627,1.030824899673462,-4.68435525894165,2.6163618564605713,-4.358756065368652,3.578125,1,J1,7.6,270,139.4748965062461,2.7131389857360855,[6400|0|0|0]
10000,1.5757699012756348,0.16839498281478882,1.0431487560272217,2.0921382904052734,-3.447136402130127,-4.551220893859863,3.611328125,1,J1,7.6,270,139.4748965062461,2.8344600771388375,[6400|0|0|0]
10100,1.5111864805221558,0.2584511339664459,1.0563528537750244,7.811801433563232,-6.69613790512085,-1.100979208946228,3.626953125,1,J1,7.6,270,139.4748965062461,2.9460641845623754,[6400|0|0|0]
10200,1.461309552192688,0.3366696536540985,1.0643538236618042,10.119470596313477,-8.611348152160645,-4.17667818069458,3.62109375,1,J1,7.6,270,139.4748965062461,3.0391762692820277,[6400|0|0|0]
10300,1.425158977508545,0.3937605917453766,1.069471836090088,10.423983573913574,-7.964768409729004,-5.844909191131592,3.611328125,1,J1,7.6,270,139.4748965062461,3.1069437638008015,[6400|0|0|0]
10400,1.397885799407959,0.4351015090942383,1.0689337253570557,9.294243812561035,-5.63861083984375,-4.203732013702393,3.60546875,1,J1,7.6,270,139.4748965062461,3.156473424148039,[6400|0|0|0]
10500,1.3788343667984009,0.4597477316856384,1.0675348043441772,7.332005500793457,-4.124373435974121,-3.1076579093933105,3.599609375,1,J1,7.6,270,139.4748965062461,3.1876559569589196,[6400|0|0|0]
10600,1.3637239933013916,0.4734320640563965,1.0675551891326904,5.242591857910156,-1.935680627822876,0.21464860439300537,3.611328125,1,J1,7.6,270,139.4748965062461,3.208041852945903,[6400|0|0|0]
10700,1.3508365154266357,0.47958528995513916,1.0669900178909302,3.1633594036102295,-1.4271129369735718,-0.42170676589012146,3.611328125,1,J1,7.6,270,139.4748965062461,3.2223341128604788,[6400|0|0|0]
10800,1.337537407875061,0.4838033616542816,1.0642435550689697,1.646718144416809,-1.7143816947937012,-0.7547133564949036,3.611328125,1,J1,7.6,270,139.4748965062461,3.2365538684336195,[6400|0|0|0]
10900,1.325879454612732,0.4857756197452545,1.0600239038467407,1.2341554164886475,-1.9059972763061523,-1.160696268081665,3.599609375,1,J1,7.6,270,139.4748965062461,3.2491078770635875,[6400|0|0|0]
11000,1.3153067827224731,0.48638442158699036,1.0551913976669312,0.7622384428977966,-2.133206844329834,-1.1337696313858032,3.59375,1,J1,7.6,270,139.4748965062461,3.2607485448519693,[6400|0|0|0]
11100,1.3073867559432983,0.4877643585205078,1.0498905181884766,0.16396459937095642,-1.8071843385696411,-1.1369785070419312,3.58984375,1,J1,7.6,270,139.4748965062461,3.270378205976247,[6400|0|0|0]
11200,1.3016482591629028,0.48761600255966187,1.045366883277893,0.8304536938667297,-1.8157697916030884,-0.7367852926254272,3.59375,1,J1,7.6,270,139.4748965062461,3.277686805540731,[6400|0|0|0]
11300,1.2986860275268555,0.4863291382789612,1.043125867843628,0.35286620259284973,-1.5243703126907349,-0.6413334012031555,3.599609375,1,J1,7.6,270,139.4748965062461,3.281617834174455,[6400|0|0|0]
11400,1.2977033853530884,0.48430514335632324,1.04097318649292,0.5372292995452881,-1.3321248292922974,-0.6419669389724731,3.599609375,1,J1,7.6,270,139.4748965062461,3.284731702843204,[6400|0|0|0]
11500,1.298292636871338,0.48362359404563904,1.0376006364822388,0.2205018848180771,-1.3968050479888916,-0.49273642897605896,3.59375,1,J1,7.6,270,139.4748965062461,3.288222522287002,[6400|0|0|0]
11600,1.3008123636245728,0.48173725605010986,1.035064458847046,-0.014348017051815987,-1.3120925426483154,-0.39090341329574585,3.59375,1,J1,7.6,270,139.4748965062461,3.2922647359059978,[6400|0|0|0]
11700,1.3049978017807007,0.47932109236717224,1.0322325229644775,0.13492991030216217,-0.5128251314163208,-0.4903649687767029,3.59375,1,J1,7.6,270,139.4748965062461,3.297866128620716,[6400|0|0|0]
11800,1.3102259635925293,0.4766242802143097,1.0293614864349365,-0.06278233230113983,-0.25849923491477966,-0.6034080982208252,3.58984375,1,J1,7.6,270,139.4748965062461,3.3044120680087983,[6400|0|0|0]
11900,1.3154658079147339,0.4743833541870117,1.0262972116470337,-0.32302477955818176,-0.3035129904747009,-0.8112318515777588,3.58984375,1,J1,7.6,270,139.4748965062461,3.310882577877158,[6400|0|0|0]
12000,1.3205349445343018,0.4721512794494629,1.0228550434112549,0.21983420848846436,0.1735386699438095,-1.1150362491607666,3.58984375,1,J1,7.6,270,139.4748965062461,3.3174038374077437,[6400|0|0|0]
12100,1.3254451751708984,0.46964725852012634,1.0200167894363403,-0.03392452746629715,0.4684353172779083,-1.1220009326934814,3.58984375,1,J1,7.6,270,139.4748965062461,3.323603528637575,[6400|0|0|0]
12200,1.3295398950576782,0.4665965437889099,1.0180041790008545,0.1591472029685974,0.15506640076637268,-1.0816137790679932,3.58984375,1,J1,7.6,270,139.4748965062461,3.3290920796382926,[6400|0|0|0]
12300,1.3328555822372437,0.463811993598938,1.0156190395355225,-0.44828659296035767,0.24881047010421753,-1.3202950954437256,3.59375,1,J1,7.6,270,139.4748965062461,3.334035397502065,[6400|0|0|0]
12400,1.3356297016143799,0.4613448977470398,1.0133044719696045,-0.002595007885247469,0.023383527994155884,-1.5775055885314941,3.58984375,1,J1,7.6,270,0,3.3384102715891966,[6400|0|0|0]
12500,1.3388347625732422,0.45879438519477844,1.004753828048706,-0.30700668692588806,0.15061838924884796,-1.4104396104812622,3.900390625,1,J1,7.6,270,0,3.347891360212939,[6400|0|0|0]
12600,1.3413193225860596,0.4560249149799347,0.9613169431686401,0.3436160385608673,0.42539289593696594,-0.9982475638389587,3.806640625,1,J1,7.6,270,0,3.3914873000676127,[6400|0|0|0]
12700,1.3421258926391602,0.45421627163887024,0.875011682510376,-0.111398845911026,0.5480155944824219,-0.46268922090530396,3.658203125,1,J1,7.6,270,0,3.477815277938501,[6400|0|0|0]
12800,1.341241478919983,0.45287877321243286,0.7592678070068359,-0.21387086808681488,-0.002776829991489649,0.3513067960739136,3.578125,1,J1,7.6,270,0,3.593570259715729,[6400|0|0|0]
12900,1.340065598487854,0.45154422521591187,0.6324196457862854,-0.8821166157722473,-0.3460848331451416,0.8106959462165833,3.525390625,1,J1,7.6,270,0,3.720430890796378,[6400|0|0|0]
13000,1.3383134603500366,0.4529155194759369,0.5056294798851013,-1.6065173149108887,0.0553555004298687,1.7828173637390137,3.45703125,1,J1,7.6,270,0,3.8472405773556124,[6400|0|0|0]
13100,1.3369556665420532,0.4562528133392334,0.3959447145462036,-2.1288890838623047,1.144855260848999,3.0074567794799805,3.453125,1,J1,7.6,270,0,3.9569845014781078,[6400|0|0|0]
13200,1.3347327709197998,0.46261584758758545,0.3053102493286133,-3.4361050128936768,2.6579604148864746,5.548647880554199,3.484375,1,J1,7.6,270,0,4.047869240323921,[6400|0|0|0]
13300,1.3274590969085693,0.47288504242897034,0.23408497869968414,-2.1152608394622803,3.154170274734497,8.44239330291748,3.48828125,1,J1,7.6,270,0,4.120197670919892,[6400|0|0|0]
13400,1.3152376413345337,0.4839245676994324,0.1792227178812027,-0.42100533843040466,2.133965492248535,10.519700050354004,3.494140625,1,J1,7.6,270,0,4.1774785818471845,[6400|0|0|0]
13500,1.3014380931854248,0.4925488531589508,0.13845141232013702,1.5188555717468262,0.027257587760686874,11.750065803527832,3.494140625,1,J1,7.6,270,0,4.2213773880491825,[6400|0|0|0]
13600,1.2884865999221802,0.4967832863330841,0.10945183783769608,2.36212420463562,-1.1814866065979004,12.10364818572998,3.505859375,1,J1,7.6,270,0,4.253418719516784,[6400|0|0|0]
13700,1.2797578573226929,0.49716201424598694,0.09003705531358719,3.189568519592285,-3.2403459548950195,11.554142951965332,3.494140625,1,J1,7.6,270,0,4.274708814928936,[6400|0|0|0]
13800,1.2787690162658691,0.4928378462791443,0.07947591692209244,3.3186445236206055,-4.891300201416016,10.114426612854004,3.494140625,1,J1,7.6,270,0,4.286163677624117,[6400|0|0|0]
13900,1.287595272064209,0.4848365783691406,0.07691998034715652,2.6996421813964844,-5.157705783843994,8.208813667297363,3.48828125,1,J1,7.6,270,0,4.29834792529726,[6400|0|0|0]
14000,1.3058910369873047,0.4737275540828705,0.08435338735580444,1.90079927444458,-3.932455539703369,6.222285270690918,3.515625,1,J1,7.6,270,0,4.321006278601733,[6400|0|0|0]
14100,1.3322151899337769,0.4606742262840271,0.10066622495651245,0.7464954853057861,-1.719836711883545,4.216436386108398,3.546875,1,J1,7.6,270,0,4.35461370435201,[6400|0|0|0]
14200,1.3603448867797852,0.4470612406730652,0.12018607556819916,0.291424959897995,0.584979236125946,2.2643935680389404,3.578125,1,J1,7.6,270,0,4.3914595696532235,[6400|0|0|0]
14300,1.387117624282837,0.4333643913269043,0.1407998651266098,-0.5423876643180847,2.798795700073242,0.5231711864471436,3.59375,1,J1,7.6,270,0,4.4279192936699685,[6400|0|0|0]
14400,1.4093966484069824,0.42113038897514343,0.15867269039154053,-1.5080616474151611,4.107322692871094,-0.9878033399581909,3.60546875,1,J1,7.6,270,0,4.458991204013845,[6400|0|0|0]
14500,1.4243775606155396,0.4120675325393677,0.16992291808128357,-1.8656352758407593,4.93919563293457,-1.9515759944915771,3.58984375,1,J1,7.6,270,0,4.479802996835393,[6400|0|0|0]
14600,1.431510329246521,0.40576207637786865,0.1758241206407547,-1.6987109184265137,5.206525802612305,-2.687633514404297,3.578125,1,J1,7.6,270,0,4.491003860971504,[6400|0|0|0]
14700,1.431092381477356,0.40400394797325134,0.17569687962532043,-2.3171255588531494,4.007047176361084,-3.1090712547302246,3.57421875,1,J1,7.6,270,0,4.492815458636793,[6400|0|0|0]
14800,1.4242244958877563,0.4052053689956665,0.1730552464723587,-1.9491872787475586,3.154632091522217,-3.309256076812744,3.568359375,1,J1,7.6,270,0,4.500271294650263,[6400|0|0|0]
14900,1.4133821725845337,0.40956416726112366,0.170022651553154,-1.5377169847488403,1.3454619646072388,-3.5188584327697754,3.55859375,1,J1,7.6,270,0,4.512344062720368,[6400|0|0|0]
15000,1.4015986919403076,0.4160352647304535,0.16755208373069763,-1.1380834579467773,0.35802191495895386,-3.6215128898620605,3.55859375,1,J1,7.6,270,0,4.526012611433226,[6400|0|0|0]
15100,1.3907345533370972,0.42309898138046265,0.16741344332695007,-0.3655199706554413,-0.5692386031150818,-3.5281295776367188,3.5625,1,J1,7.6,270,0,4.5389719641046735,[6400|0|0|0]
15200,1.3814882040023804,0.42989465594291687,0.16877667605876923,-0.0018945492338389158,-0.892849326133728,-3.3727755546569824,3.568359375,1,J1,7.6,270,0,4.550527680104104,[6400|0|0|0]
15300,1.374529242515564,0.4370555281639099,0.16958265006542206,0.44831347465515137,-0.7741491794586182,-3.2500193119049072,3.568359375,1,J1,7.6,270,0,4.560545405895909,[6400|0|0|0]
15400,1.369766116142273,0.4420640766620636,0.1702045202255249,0.6872998476028442,-0.37338986992836,-3.084787607192993,3.568359375,1,B2,7.6,270,0,4.567485121553076,[6400|100|0|0]
15500,1.3653223514556885,0.44601568579673767,0.16920842230319977,0.5253989696502686,-0.09603884071111679,-3.171452045440674,3.5625,1,B2,7.6,270,0,4.573514588396324,[6400|200|0|0]
15600,1.3606927394866943,0.4489935636520386,0.16735053062438965,0.46015846729278564,-0.4354230761528015,-3.4416918754577637,3.568359375,1,B2,7.6,270,0,4.579324306547383,[6400|300|0|0]
15700,1.3564814329147339,0.45203906297683716,0.1633377969264984,0.23860672116279602,-0.3044738471508026,-3.520218849182129,3.55859375,1,B2,7.6,270,0,4.585890294737334,[6400|400|0|0]
15800,1.3517557382583618,0.4542533755302429,0.1591377556324005,0.07378201186656952,-0.14003406465053558,-3.342355489730835,3.552734375,1,B2,7.6,270,0,4.59258922875265,[6400|500|0|0]
15900,1.3474771976470947,0.455748587846756,0.15552662312984467,0.11282479017972946,-0.11571652442216873,-3.092283010482788,3.552734375,1,B2,7.6,270,0,4.598384213445014,[6400|600|0|0]
16000,1.3431657552719116,0.45619627833366394,0.1540205031633377,0.0334269180893898,0.47963958978652954,-2.2656919956207275,3.552734375,1,B2,7.6,270,0,4.602973043304586,[6400|700|0|0]
16100,1.3384147882461548,0.45632627606391907,0.15261231362819672,-0.6521377563476562,0.5825575590133667,-1.4657543897628784,3.552734375,1,B2,7.6,270,0,4.607930016661038,[6400|800|0|0]
16200,1.3318986892700195,0.45699045062065125,0.15156999230384827,-0.14523734152317047,0.7506526112556458,-1.1398669481277466,3.552734375,1,B2,7.6,270,0,4.614562294358164,[6400|900|0|0]
16300,1.3257302045822144,0.45707064867019653,0.15188248455524445,-0.2190781533718109,0.5580080151557922,-0.8170609474182129,3.552734375,1,B2,7.6,270,0,4.620739209970184,[6400|1000|0|0]
16400,1.3181251287460327,0.45700353384017944,0.1523822546005249,0.1106884777545929,0.848743200302124,-1.272374153137207,3.55859375,1,B2,7.6,270,0,4.628360984892907,[6400|1100|0|0]
16500,1.30925452709198,0.4561557173728943,0.15203063189983368,0.35227108001708984,0.7204200625419617,-1.9680572748184204,3.55859375,1,B2,7.6,270,0,4.637278944580566,[6400|1200|0|0]
16600,1.2990769147872925,0.45400723814964294,0.15094634890556335,0.12069321423768997,0.5240072011947632,-2.665548086166382,3.55859375,1,B2,7.6,270,0,4.647737215221974,[6400|1300|0|0]
16700,1.2880584001541138,0.45168355107307434,0.14937670528888702,0.32419127225875854,0.3414282500743866,-3.381629228591919,3.552734375,1,B2,7.6,270,0,4.659106954332207,[6400|1400|0|0]
16800,1.2756922245025635,0.45001304149627686,0.14715655148029327,-0.12424717843532562,0.4831725060939789,-3.6426868438720703,3.552734375,1,B2,7.6,270,0,4.671781416270489,[6400|1500|0|0]
16900,1.2629328966140747,0.447500616312027,0.14633560180664062,0.25516217947006226,0.5497145652770996,-3.6646387577056885,3.552734375,1,B2,7.6,270,0,4.684811638326889,[6400|1600|0|0]
17000,1.2501294612884521,0.44390663504600525,0.1467685103416443,0.027386818081140518,-0.18220831453800201,-3.427341938018799,3.55859375,1,B2,7.6,270,0,4.6981169781300505,[6400|1700|0|0]
17100,1.2366218566894531,0.4409926235675812,0.147281676530838,-0.2780304551124573,0.06234559789299965,-3.1922850608825684,3.55859375,1,B2,7.6,270,0,4.711944855206341,[6400|1800|0|0]
17200,1.223484754562378,0.43828484416007996,0.14644935727119446,0.040539372712373734,-0.10600940138101578,-3.127992630004883,3.552734375,1,B2,7.6,270,0,4.725383913096196,[6400|1900|0|0]
17300,1.211102843284607,0.4358119070529938,0.14323267340660095,-0.347658634185791,-0.536098837852478,-3.031689167022705,3.541015625,1,B2,7.6,270,0,4.7384136559912395,[6400|2000|0|0]
17400,1.1997405290603638,0.4334356188774109,0.133804053068161,-0.14125624299049377,-0.20196828246116638,-2.8322830200195312,4.015625,1,B2,7.6,270,0,4.753368515118303,[6400|2100|0|0]
17500,1.1892417669296265,0.43144235014915466,0.07641270756721497,-2.082010507583618,-0.22773975133895874,-2.3058764934539795,4.0234375,1,B2,7.6,270,0,4.811746281989859,[6400|2200|0|0]
17600,1.1764047145843506,0.4317767918109894,-0.043695759028196335,-7.588409900665283,0.16138651967048645,-1.0609781742095947,4.0234375,1,B2,7.6,270,0,4.932539268177144,[6400|2300|0|0]
17700,1.1525700092315674,0.4384644031524658,-0.20159777998924255,-8.394265174865723,2.711199998855591,0.4818321466445923,4.02734375,1,B2,7.6,270,0,5.092370008487921,[6400|2400|0|0]
17800,1.126083254814148,0.46809083223342896,-0.23555506765842438,-12.871718406677246,3.745213747024536,0.8483697175979614,4.02734375,1,B2,7.6,270,0,5.144642093251259,[6400|2500|0|0]
17900,1.1138876676559448,0.4833797514438629,-0.25437119603157043,-4.555962562561035,6.214606285095215,-2.28169584274292,4.0234375,1,B2,7.6,270,0,5.1717811809977405,[6400|2600|0|0]
18000,1.1167693138122559,0.4797617197036743,-0.24693749845027924,-3.040462017059326,5.51846170425415,-1.4391733407974243,4.02734375,1,B2,7.6,270,0,5.180536402181314,[6400|2700|0|0]
18100,1.1218541860580444,0.4698319137096405,-0.2344224900007248,-1.7763779163360596,5.106433868408203,-1.5062763690948486,4.02734375,1,B2,7.6,270,0,5.197301914679522,[6400|2800|0|0]
18200,1.1269810199737549,0.4601151645183563,-0.22263523936271667,-1.0101064443588257,4.856385707855225,-1.4771939516067505,4.03125,1,B2,7.6,270,0,5.213415229622414,[6400|2900|0|0]
18300,1.1313161849975586,0.4531260132789612,-0.21341757476329803,-0.6319066286087036,4.720276355743408,-1.4369044303894043,4.03125,1,B2,7.6,270,0,5.225768659571142,[6400|3000|0|0]
18400,1.1338386535644531,0.4485352635383606,-0.2072666734457016,-0.44418439269065857,4.719428539276123,-1.3764472007751465,4.03125,1,B2,7.6,270,0,5.233847732405979,[6400|3100|0|0]
18500,1.135393500328064,0.4462926983833313,-0.20421238243579865,-0.3832355737686157,4.752305507659912,-1.3140285015106201,4.0390625,1,B2,7.6,270,0,5.237943503457447,[6400|3200|0|0]
18600,1.1358710527420044,0.4446198046207428,-0.20190955698490143,-0.3560854494571686,4.827773094177246,-1.2695398330688477,4.0390625,1,B2,7.6,270,0,5.240829614145945,[6400|3300|0|0]
18700,1.1364803314208984,0.44387054443359375,-0.2009914219379425,-0.36495262384414673,4.867801189422607,-1.2409465312957764,4.0390625,1,B2,7.6,270,0,5.242162124296397,[6400|3400|0|0]
18800,1.136656403541565,0.4435080289840698,-0.2003817856311798,-0.37852099537849426,4.92006778717041,-1.2281017303466797,4.0390625,1,B2,7.6,270,0,5.242892928832058,[6400|3500|0|0]
18900,1.136494517326355,0.4436158537864685,-0.20050257444381714,-0.39058783650398254,4.960860252380371,-1.1996153593063354,4.04296875,1,B2,7.6,270,0,5.243121890121244,[6400|3600|0|0]
19000,1.136222243309021,0.4437909722328186,-0.20086190104484558,-0.39333054423332214,5.003371238708496,-1.1997684240341187,4.04296875,1,B2,7.6,270,0,5.243605537944535,[6400|3700|0|0]
19100,1.1362401247024536,0.44443005323410034,-0.20148856937885284,-0.4137032926082611,5.012365818023682,-1.1872681379318237,4.04296875,1,B2,7.6,270,0,5.244500779515999,[6400|3800|0|0]
19200,1.1360604763031006,0.44440630078315735,-0.20183129608631134,-0.38904860615730286,5.038261413574219,-1.1808462142944336,4.04296875,1,B2,7.6,270,0,5.244888464081492,[6400|3900|0|0]
19300,1.1359201669692993,0.44421204924583435,-0.20189552009105682,-0.37478193640708923,5.055886268615723,-1.1789096593856812,4.04296875,1,B2,7.6,270,0,5.245136546913807,[6400|4000|0|0]
19400,1.1357330083847046,0.44477152824401855,-0.20219114422798157,-0.38315489888191223,5.068451404571533,-1.1958452463150024,4.046875,1,B2,7.6,270,0,5.24579642471729,[6400|4100|0|0]
19500,1.1358541250228882,0.4447247087955475,-0.20196442306041718,-0.37973472476005554,5.07319974899292,-1.1822121143341064,4.046875,1,B2,7.6,270,0,5.246057698115519,[6400|4200|0|0]
19600,1.1358461380004883,0.4444929361343384,-0.20198772847652435,-0.3530586361885071,5.080711841583252,-1.1766548156738281,4.046875,1,B2,7.6,270,0,5.246290776431607,[6400|4300|0|0]
19700,1.1359797716140747,0.4447387754917145,-0.2024608850479126,-0.356052041053772,5.066679954528809,-1.1904301643371582,4.046875,1,B2,7.6,270,0,5.2468404782356455,[6400|4400|0|0]
19800,1.1375733613967896,0.4441949725151062,-0.20180241763591766,-0.3395389914512634,5.000955581665039,-1.175107479095459,4.0546875,1,B2,7.6,270,0,5.248648468668585,[6400|4500|0|0]
19900,1.1431227922439575,0.44983184337615967,-0.20179978013038635,-0.47171035408973694,5.136963844299316,1.6007623672485352,4.0546875,1,B2,7.6,270,0,5.256558620550068,[6400|4600|0|0]
20000,1.1439467668533325,0.45324742794036865,-0.184058278799057,-6.384542465209961,-1.0331001281738281,-3.756373405456543,4.0546875,1,B2,7.6,270,0,5.274644693135396,[6400|4700|0|0]
20100,1.1552985906600952,0.5013283491134644,-0.12304873764514923,-7.372467994689941,-3.1357269287109375,10.804948806762695,4.0546875,1,B2,7.6,270,0,5.353148215326464,[6400|4800|0|0]
20200,1.2017018795013428,0.580560028553009,-0.098408043384552,-5.389684677124023,3.8361423015594482,13.677331924438477,4.0546875,1,B2,7.6,270,0,5.4482170748743695,[6400|4900|0|0]
20300,1.244635820388794,0.643526017665863,-0.11112312227487564,1.9205690622329712,1.1207772493362427,13.228476524353027,4.0546875,1,B2,7.6,270,0,5.52548098816042,[6400|5000|0|0]
20400,1.2698231935501099,0.6705588698387146,-0.12909048795700073,2.5707480907440186,-0.7624844312667847,11.786385536193848,4.0546875,1,B2,7.6,270,0,5.56656632730861,[6400|5100|0|0]
20500,1.2869620323181152,0.5928617715835571,0.05612770467996597,2.5710902214050293,1.250826358795166,12.605978965759277,4.0546875,1,B2,7.6,270,0,5.768150944170344,[6400|5200|0|0]
20600,1.3055071830749512,0.5648016929626465,0.09381553530693054,2.271103620529175,-2.0324151515960693,17.31290054321289,4.05859375,1,B2,7.6,270,0,5.8186649343727845,[6400|5300|0|0]
20700,1.2987993955612183,0.5951724648475647,0.04193668067455292,-0.24010688066482544,-1.6435221433639526,13.312960624694824,4.05859375,1,B2,7.6,270,0,5.879152898102625,[6400|5400|0|0]
20800,1.3081587553024292,0.5919310450553894,0.03872452303767204,-0.2512163519859314,-1.7756799459457397,13.199061393737793,4.05859375,1,B2,7.6,270,0,5.889565504583169,[6400|5500|0|0]
20900,1.3184034824371338,0.5894100666046143,0.03553647920489311,-0.2695596218109131,-1.7674787044525146,13.075923919677734,4.05859375,1,B2,7.6,270,0,5.9005870013006545,[6400|5600|0|0]
21000,1.3446780443191528,0.5681251287460327,-0.016441985964775085,0.05791851505637169,-1.7186270952224731,9.373706817626953,4.05859375,1,B2,7.6,270,0,5.962596371746823,[6400|5700|0|0]
21100,1.3449419736862183,0.5693413615226746,-0.014230003580451012,-0.4336593449115753,-1.3473210334777832,6.124970436096191,4.05859375,1,B2,7.6,270,0,5.965134431428221,[6400|5800|0|0]
21200,1.3428916931152344,0.5716464519500732,-0.011631928384304047,-0.8645240068435669,-0.9625577926635742,4.124939918518066,4.06640625,1,B2,7.6,270,0,5.969167679129897,[6400|5900|0|0]
21300,1.3412643671035767,0.5733876824378967,-0.010517692193388939,-1.1531976461410522,-0.6527258157730103,2.790177583694458,4.15234375,1,B2,7.6,270,0,5.971798571725403,[6400|6000|0|0]
21400,1.3396974802017212,0.5765483975410461,-0.008098447695374489,-1.6823140382766724,-0.7324824333190918,1.8348734378814697,4.16015625,1,B2,7.6,270,0,5.976076187704854,[6400|6100|0|0]
21500,1.3388433456420898,0.5750378370285034,-0.00861714594066143,-1.6409783363342285,-0.5351535081863403,1.1759464740753174,4.16015625,1,B2,7.6,270,0,5.977887371510456,[6400|6200|0|0]
21600,1.3372609615325928,0.5772767663002014,-0.0072698406875133514,-1.571997880935669,-0.4491850733757019,0.6765444874763489,4.16015625,1,B2,7.6,270,0,5.980942199688736,[6400|6300|0|0]
21700,1.3367524147033691,0.5780574679374695,-0.007211791351437569,-1.4839454889297485,-0.43417659401893616,0.3152828812599182,4.1640625,1,B2,7.6,270,0,5.981875733110401,[6400|6400|0|0]
21801,1.336223840713501,0.5777796506881714,-0.006880659144371748,-1.3636656999588013,-0.4665519595146179,0.040950942784547806,4.1640625,1,B2,7.6,270,0,5.982558537200408,[6400|6500|0|0]
21901,1.3370808362960815,0.5758101940155029,-0.007751868572086096,-1.2433875799179077,-0.5245757699012756,-0.15819747745990753,4.1640625,1,B2,7.6,270,0,5.9848763393664735,[6400|6600|0|0]
22001,1.3368779420852661,0.5757611989974976,-0.008282754570245743,-1.0744739770889282,-0.5824467539787292,-0.3027839958667755,4.1640625,1,B2,7.6,270,0,5.985446783505381,[6400|6700|0|0]
22101,1.3370431661605835,0.5754435658454895,-0.008036138489842415,-0.9224814772605896,-0.6389868259429932,-0.4159237742424011,4.1640625,1,B2,7.6,270,0,5.9858815355098995,[6400|6800|0|0]
22201,1.3370232582092285,0.5754801034927368,-0.008107976987957954,-0.80670565366745,-0.7000875473022461,-0.47858449816703796,4.1640625,1,B2,7.6,270,0,5.985964554158437,[6400|6900|0|0]
22301,1.3366973400115967,0.5753339529037476,-0.008405586704611778,-0.7087976336479187,-0.751471996307373,-0.5273100137710571,4.1640625,1,B2,7.6,270,0,5.986429478033557,[6400|7000|0|0]
22401,1.337210774421692,0.5752432346343994,-0.007951650768518448,-0.6278346180915833,-0.8246920704841614,-0.5495714545249939,4.171875,1,B2,7.6,270,0,5.987120782982143,[6400|7100|0|0]
22501,1.3367891311645508,0.5750678777694702,-0.008597067557275295,-0.5775747299194336,-0.8993708491325378,-0.5754823684692383,4.171875,1,B2,7.6,270,0,5.987911413045814,[6400|7200|0|0]
22602,1.3376145362854004,0.5770987272262573,-0.007924649864435196,-0.6211830973625183,-1.0186227560043335,-0.5774340033531189,4.171875,1,B2,7.6,270,0,5.990204399893422,[6400|7300|0|0]
22702,1.3379104137420654,0.5763260722160339,-0.008215552195906639,-0.4669957458972931,-1.0227389335632324,-0.5573647022247314,4.171875,1,B2,7.6,270,0,5.991081419505883,[6400|7400|0|0]
22802,1.3374710083007812,0.5759312510490417,-0.008601922541856766,-0.39038413763046265,-1.03559148311615,-0.5394231081008911,4.171875,1,B2,7.6,270,0,5.99178728276457,[6400|7500|0|0]
22902,1.3380314111709595,0.5759857892990112,-0.00832992885261774,-0.3399844765663147,-1.062795877456665,-0.5382459759712219,4.171875,1,B2,7.6,270,0,5.992412587781821,[6400|7600|0|0]
23002,1.3376355171203613,0.5759637355804443,-0.008710629306733608,-0.3036925196647644,-1.0649750232696533,-0.5114703178405762,4.17578125,1,B2,7.6,270,0,5.992962270691839,[6400|7700|0|0]
23102,1.3374357223510742,0.5762295722961426,-0.007011479698121548,-0.7340563535690308,-1.3701988458633423,-0.5282184481620789,4.17578125,1,B2,7.6,270,0,5.99469365640903,[6400|7800|0|0]
23202,1.3379180431365967,0.5754322409629822,-0.007520249113440514,-0.6224541068077087,-1.3467355966567993,-0.5230122804641724,4.17578125,1,B2,7.6,270,0,5.995755361129256,[6400|7900|0|0]
23302,1.337913155555725,0.5753297209739685,-0.007555403746664524,-0.5608788728713989,-1.3299552202224731,-0.5067837834358215,4.17578125,1,B2,7.6,270,0,5.995863851151062,[6400|8000|0|0]
23402,1.3377678394317627,0.5749795436859131,-0.0077810874208807945,-0.516200602054596,-1.3186246156692505,-0.5065796971321106,4.17578125,1,B2,7.6,270,0,5.996305069951387,[6400|8100|0|0]
23502,1.3378527164459229,0.5747724175453186,-0.007956994697451591,-0.48583024740219116,-1.324110984802246,-0.4969358742237091,4.17578125,1,B2,7.6,270,0,5.996589760512525,[6400|8200|0|0]
23602,1.3378783464431763,0.5750672221183777,-0.008064876310527325,-0.4774658977985382,-1.3236660957336426,-0.48928335309028625,4.17578125,1,B2,7.6,270,0,5.99690472888474,[6400|8300|0|0]
23700,1.3376437425613403,0.5753346085548401,-0.008079337887465954,-0.4709134101867676,-1.3194667100906372,-0.47648438811302185,4.17578125,1,B2,7.6,270,0,5.997260739593826,[6400|8400|0|0]
23800,1.3376537561416626,0.5749219059944153,-0.008369529619812965,-0.4563782215118408,-1.3284207582473755,-0.474842369556427,4.17578125,1,B2,7.6,270,0,5.997765353224929,[6400|8500|0|0]
23900,1.338014841079712,0.5751895308494568,-0.007821861654520035,-0.46255767345428467,-1.341498613357544,-0.5078098773956299,4.1796875,1,B2,7.6,270,0,5.998473834414326,[6400|8600|0|0]
24000,1.3381457328796387,0.5750669836997986,-0.007848360575735569,-0.45330411195755005,-1.33673095703125,-0.515987753868103,4.1796875,1,B2,7.6,270,0,5.998655087441895,[6400|8700|0|0]
24100,1.3379865884780884,0.5752454400062561,-0.00818421971052885,-0.44774267077445984,-1.3313435316085815,-0.5035436749458313,4.1796875,1,B2,7.6,270,0,5.99906736762852,[6400|8800|0|0]
24200,1.3379408121109009,0.5751145482063293,-0.007891721092164516,-0.44220438599586487,-1.330483317375183,-0.5024076700210571,4.1796875,1,B2,7.6,270,0,5.999391070549152,[6400|8900|0|0]
24300,1.337693691253662,0.5752429366111755,-0.008129896596074104,-0.4511110186576843,-1.3247212171554565,-0.5048549175262451,4.1796875,1,B2,7.6,270,0,5.999757512729099,[6400|9000|0|0]
24400,1.3375834226608276,0.5751194357872009,-0.008162520825862885,-0.4436402916908264,-1.3233815431594849,-0.5093367695808411,4.1796875,1,B2,7.6,270,0,5.999926260933408,[6400|9100|0|0]
24500,1.3379101753234863,0.5747117400169373,-0.008115064352750778,-0.4347386360168457,-1.335218906402588,-0.5142020583152771,4.1796875,1,B2,7.6,270,0,6.000450889621611,[6400|9200|0|0]
24600,1.337843894958496,0.5750739574432373,-0.00802216213196516,-0.4506189227104187,-1.3390827178955078,-0.5274990797042847,4.1875,1,B2,7.6,270,0,6.000830659780162,[6400|9300|0|0]
24700,1.337864637374878,0.5753183364868164,-0.008127626031637192,-0.44362184405326843,-1.3340401649475098,-0.5124433040618896,4.1796875,1,B2,7.6,270,0,6.001097631686759,[6400|9400|0|0]
24800,1.3379546403884888,0.5749687552452087,-0.007957766763865948,-0.44685328006744385,-1.340600848197937,-0.4594816267490387,4.1796875,1,B2,7.6,270,0,6.001496580001445,[6400|9500|0|0]
24900,1.3378159999847412,0.5747488141059875,-0.007909441366791725,-0.45376744866371155,-1.3490171432495117,-0.48294365406036377,4.1875,1,B2,7.6,270,0,6.001761023965784,[6400|9600|0|0]
25000,1.3377461433410645,0.5752707123756409,-0.008109698072075844,-0.47595536708831787,-1.3453333377838135,-0.5071895122528076,4.1875,1,B2,7.6,270,0,6.002324371551689,[6400|9700|0|0]
25100,1.3378108739852905,0.575027346611023,-0.007817421108484268,-0.47548091411590576,-1.349137306213379,-0.5124444961547852,4.1875,1,B2,7.6,270,0,6.002710173022832,[6400|9800|0|0]
25200,1.3382322788238525,0.5749607682228088,-0.00798309687525034,-0.4769042730331421,-1.3503652811050415,-0.54717618227005,4.1875,1,B2,7.6,270,0,6.003167844498275,[6400|9900|0|0]
25300,1.337424635887146,0.5750554800033569,-0.008190082386136055,-0.48408588767051697,-1.3360486030578613,-0.5470492243766785,4.1875,1,B2,7.6,270,0,6.004006951426088,[6400|10000|0|0]
25400,1.3380444049835205,0.5750214457511902,-0.008116157725453377,-0.48707038164138794,-1.352806806564331,-0.55423903465271,4.1875,1,B2,7.6,270,0,6.004632040954554,[6400|10100|0|0]
25500,1.3378018140792847,0.5750586986541748,-0.008320160210132599,-0.47557079792022705,-1.370695948600769,-0.5463979244232178,3.0625,1,J1,7.6,270,0,6.004951188474291,[6400|10100|0|0]
25600,1.3386410474777222,0.5750356316566467,-0.007346119731664658,0.3706331253051758,-1.3697285652160645,-0.24777710437774658,3.298828125,1,J1,7.6,270,0,6.00623711212565,[6400|10100|0|0]
25700,1.3412835597991943,0.5688989758491516,0.009059213101863861,6.146147727966309,-2.247210741043091,-0.10124058276414871,3.419921875,1,J1,7.6,270,0,6.023950845815858,[6400|10100|0|0]
25800,1.346913456916809,0.5525029897689819,0.05367913842201233,3.809647560119629,-0.13871337473392487,0.5054447054862976,3.521484375,1,J1,7.6,270,0,6.071820061776345,[6400|10100|0|0]
25900,1.3544386625289917,0.5276440382003784,0.11766742169857025,1.3255574703216553,-0.5232127904891968,0.4927939176559448,3.55859375,1,J1,7.6,270,0,6.140878707790272,[6400|10100|0|0]
26000,1.3624719381332397,0.5007708072662354,0.1905597746372223,-0.56056147813797,-1.1781384944915771,0.4244806468486786,3.5625,1,J1,7.6,270,0,6.218981199265938,[6400|10100|0|0]
26100,1.3729772567749023,0.4758123457431793,0.26828357577323914,-2.201216220855713,-1.2782145738601685,0.5015145540237427,3.58984375,1,J1,7.6,270,0,6.30128718801762,[6400|10100|0|0]
26200,1.385865330696106,0.45528003573417664,0.3498818576335907,-2.9053938388824463,-0.9086519479751587,0.49232855439186096,3.578125,1,J1,7.6,270,0,6.386410379958862,[6400|10100|0|0]
26300,1.399246096611023,0.4397912919521332,0.432900995016098,-3.4028375148773193,0.27560052275657654,0.6611184477806091,3.578125,1,J1,7.6,270,0,6.47191548654409,[6400|10100|0|0]
26400,1.4121421575546265,0.4299886226654053,0.5169954299926758,-2.9794118404388428,0.8488267660140991,0.6528529524803162,3.583984375,1,J1,7.6,270,0,6.557555866663727,[6400|10100|0|0]
26500,1.4239683151245117,0.4251706898212433,0.602485179901123,-2.3382108211517334,1.2785300016403198,0.5967472195625305,3.58984375,1,J1,7.6,270,0,6.643994097899491,[6400|10100|0|0]
26600,1.4333735704421997,0.4229064881801605,0.6862881779670715,-1.5979106426239014,1.2270084619522095,0.5365433692932129,3.63671875,1,J1,7.6,270,0,6.72835361379132,[6400|10100|0|0]
26700,1.441212773323059,0.4222930073738098,0.7656435966491699,-0.2702540457248688,0.7706457376480103,0.33648940920829773,3.6796875,1,J1,7.6,270,0,6.808097653911684,[6400|10100|0|0]
26800,1.4477534294128418,0.4212171137332916,0.8338818550109863,0.1452774554491043,0.8751773834228516,0.041893184185028076,3.658203125,1,J1,7.6,270,0,6.876657099894455,[6400|10100|0|0]
26900,1.4535505771636963,0.41899627447128296,0.886972963809967,0.5561257600784302,0.47472891211509705,0.022173983976244926,3.6484375,1,J1,7.6,270,0,6.930109928468611,[6400|10100|0|0]
27000,1.4589380025863647,0.4155859649181366,0.9239429831504822,0.36558228731155396,0.5093459486961365,0.08380229026079178,3.642578125,1,J1,7.6,270,0,6.967625750383787,[6400|10100|0|0]
27100,1.462581753730774,0.4103511869907379,0.9496128559112549,-0.0712258517742157,1.6146687269210815,-0.12518033385276794,3.599609375,1,J1,7.6,270,0,6.994076122591109,[6400|10100|0|0]
27200,1.4654206037521362,0.404471755027771,0.9682377576828003,-0.5783544778823853,1.6239632368087769,-0.0943203940987587,3.599609375,1,J1,7.6,270,0,7.013812225439712,[6400|10100|0|0]
27300,1.4661027193069458,0.398588627576828,0.9814966320991516,-1.1823259592056274,0.8352635502815247,0.010317944921553135,3.611328125,1,J1,7.6,270,0,7.028333734349696,[6400|10100|0|0]
27400,1.4652721881866455,0.3926387131214142,0.9911819100379944,-1.5747870206832886,1.4860297441482544,0.08365234732627869,3.58984375,1,J1,7.6,270,0,7.0397309214026995,[6400|10100|0|0]
27500,1.4632116556167603,0.3903470039367676,0.9995483756065369,-1.7972168922424316,0.4856524169445038,0.11119603365659714,3.58984375,1,J1,7.6,270,0,7.048646944707299,[6400|10100|0|0]
27600,1.4600489139556885,0.38893023133277893,1.0062731504440308,-1.3968085050582886,0.6304230093955994,-0.08518848568201065,3.611328125,1,J1,7.6,270,0,7.056212179405646,[6400|10100|0|0]
27700,1.457032561302185,0.3888542950153351,1.0117520093917847,-1.0654380321502686,-0.004849693737924099,-0.3377765417098999,3.583984375,1,J1,7.6,270,0,7.062466941193596,[6400|10100|0|0]
27800,1.4544236660003662,0.38894006609916687,1.0159727334976196,-0.9964107871055603,-0.18851950764656067,-0.45248833298683167,3.583984375,1,J1,7.6,270,0,7.067429622258529,[6400|10100|0|0]
27900,1.450105905532837,0.38660967350006104,1.0145927667617798,-0.5526260137557983,0.2968713939189911,-0.6117199659347534,3.599609375,1,J1,7.6,270,0,7.072526493192048,[6400|10100|0|0]
28000,1.4491180181503296,0.39055734872817993,1.018696904182434,-0.7893441319465637,0.0515173077583313,-0.5062758326530457,3.59375,1,J1,7.6,270,0,7.078306113002627,[6400|10100|0|0]
28100,1.4461095333099365,0.3904942274093628,1.0183525085449219,-0.29257237911224365,-0.0690915584564209,-0.41551291942596436,3.583984375,1,J1,7.6,270,0,7.081334903799447,[6400|10100|0|0]
28200,1.442864179611206,0.38962557911872864,1.0168908834457397,-0.03168976306915283,0.24337828159332275,-0.25206270813941956,3.59375,1,J1,7.6,270,0,7.084998674863971,[6400|10100|0|0]
28300,1.441235899925232,0.3861900568008423,1.0133408308029175,-0.5459223389625549,0.08416338264942169,0.11187683790922165,3.578125,1,J1,7.6,270,0,7.090200307501831,[6400|10100|0|0]
28400,1.437083125114441,0.3849239647388458,1.0107702016830444,-0.8244647979736328,-0.17714403569698334,0.15821881592273712,3.57421875,1,J1,7.6,270,0,7.09524576702605,[6400|10100|0|0]
28500,1.433635950088501,0.3834131360054016,1.009164810180664,-1.2572098970413208,-0.5514708757400513,0.3059738576412201,3.46875,1,J1,7.6,270,94.25884612217035,7.0993375760388435,[6400|10100|0|0]
28600,1.4267425537109375,0.3846857249736786,1.013500690460205,-5.060728549957275,10.46135139465332,1.3465557098388672,3.416015625,1,J1,7.6,270,94.25884612217035,7.107580042544623,[6400|10100|0|0]
28700,1.3963325023651123,0.39582738280296326,1.030835509300232,-11.372013092041016,22.208356857299805,6.659128189086914,3.47265625,1,J1,7.6,270,94.25884612217035,7.14431427326009,[6400|10100|0|0]
28800,1.328344464302063,0.42263296246528625,1.054053544998169,-10.554877281188965,19.265583038330078,8.790340423583984,3.435546875,1,J1,7.6,270,94.25884612217035,7.2209953635129445,[6400|10100|0|0]
28900,1.2241976261138916,0.45633333921432495,1.083776831626892,-2.037017345428467,11.760462760925293,8.142894744873047,3.416015625,1,J1,7.6,270,94.25884612217035,7.334422666511974,[6400|10100|0|0]
29000,1.0999528169631958,0.484290212392807,1.1290197372436523,6.273268222808838,0.7659125328063965,6.558903217315674,3.419921875,1,J1,7.6,270,94.25884612217035,7.469571768867326,[6400|10100|0|0]
29100,0.9581577777862549,0.5068111419677734,1.1653494834899902,8.727605819702148,-6.651412487030029,4.517685413360596,3.45703125,1,J1,7.6,270,94.25884612217035,7.617669290340287,[6400|10100|0|0]
29200,0.8391156792640686,0.5288522839546204,1.231845498085022,8.35030746459961,-8.957605361938477,1.7729949951171875,3.525390625,1,J1,7.6,270,94.25884612217035,7.755794426060303,[6400|10100|0|0]
29300,0.7374946475028992,0.5356093645095825,1.3068004846572876,7.1394758224487305,-9.762431144714355,-0.19353418052196503,3.58984375,1,J1,7.6,270,94.25884612217035,7.8822489326857275,[6400|10100|0|0]
29400,0.6510109305381775,0.5286552906036377,1.3827582597732544,4.561106204986572,-9.823310852050781,-1.4199548959732056,3.642578125,1,J1,7.6,270,94.25884612217035,7.997563181781367,[6400|10100|0|0]
29500,0.5810613036155701,0.5065152645111084,1.4555655717849731,1.700171947479248,-8.879643440246582,-1.7892729043960571,3.6484375,1,J1,7.6,270,94.25884612217035,8.10092679116282,[6400|10100|0|0]
29600,0.5294488072395325,0.48027360439300537,1.5083686113357544,-0.8080025911331177,-9.081398963928223,-0.540523111820221,3.63671875,1,J1,7.6,270,94.25884612217035,8.179288998212659,[6400|10100|0|0]
29700,0.4880538284778595,0.4568754732608795,1.5435826778411865,-3.7813708782196045,-7.388548374176025,-0.5092162489891052,3.62109375,1,J1,7.6,270,94.25884612217035,8.238458646572308,[6400|10100|0|0]
29800,0.46104493737220764,0.4357728362083435,1.5638104677200317,-5.176652908325195,-6.615055561065674,0.18034014105796814,3.59375,1,J1,7.6,270,94.25884612217035,8.278257704007261,[6400|10100|0|0]
29900,0.5000439882278442,0.34449517726898193,1.6030315160751343,-5.458909034729004,-4.817368984222412,-5.528791904449463,3.552734375,1,J1,7.6,270,94.25884612217035,8.384985524294027,[6400|10100|0|0]
30000,0.5425061583518982,0.2897860109806061,1.6466798782348633,-8.82696533203125,-0.9780862331390381,0.952598512172699,3.65234375,1,J1,7.6,270,94.25884612217035,8.46684704325648,[6400|10100|0|0]
30100,0.5524243712425232,0.29122352600097656,1.6347545385360718,-12.672907829284668,4.178284645080566,3.631610631942749,3.62109375,1,J1,7.6,270,94.25884612217035,8.482424306280167,[6400|10100|0|0]
30200,0.5537164807319641,0.30370497703552246,1.6055281162261963,-10.871153831481934,6.812591075897217,6.282315254211426,3.552734375,1,J1,7.6,270,94.25884612217035,8.514230593833034,[6400|10100|0|0]
30300,0.538476824760437,0.3295634686946869,1.569202184677124,-7.004249095916748,6.179717540740967,4.1524834632873535,3.46875,1,J1,7.6,270,94.25884612217035,8.56135258453722,[6400|10100|0|0]
30400,0.439731240272522,0.38968223333358765,1.551408290863037,-3.590170383453369,4.231045722961426,6.437094688415527,3.47265625,1,J1,7.6,270,94.25884612217035,8.678320866454303,[6400|10100|0|0]
30500,0.38927245140075684,0.43105417490005493,1.5314834117889404,1.3366773128509521,-6.087069511413574,1.2054051160812378,3.509765625,1,J1,7.6,270,94.25884612217035,8.746546431527097,[6400|10100|0|0]
30600,0.34277263283729553,0.4698941707611084,1.5267130136489868,4.383789539337158,-9.444039344787598,-2.25421142578125,3.515625,1,J1,7.6,270,94.25884612217035,8.807320892473577,[6400|10100|0|0]
30700,0.3099030554294586,0.4894384741783142,1.5115277767181396,5.911985397338867,-10.7695894241333,-3.3163397312164307,3.552734375,1,J1,7.6,270,94.25884612217035,8.848466734738373,[6400|10100|0|0]
30800,0.2975962162017822,0.4925186038017273,1.5178918838500977,4.756470680236816,-9.796124458312988,-5.738504409790039,3.55859375,1,J1,7.6,270,94.25884612217035,8.862659949661706,[6400|10100|0|0]
30900,0.2981231212615967,0.4889788329601288,1.5234897136688232,0.7986804246902466,-7.636626720428467,-7.117039203643799,3.57421875,1,J1,7.6,270,94.25884612217035,8.869303992499656,[6400|10100|0|0]
31000,0.303400456905365,0.47829562425613403,1.5221920013427734,-1.427314043045044,-4.488558769226074,-7.114132881164551,3.57421875,1,J1,7.6,270,94.25884612217035,8.881290037593484,[6400|10100|0|0]
31100,0.31229040026664734,0.4685698449611664,1.5203956365585327,-3.040278434753418,-1.9789766073226929,-4.786444187164307,3.568359375,1,J1,7.6,270,94.25884612217035,8.894588488717554,[6400|10100|0|0]
31200,0.3218063414096832,0.45946669578552246,1.5153287649154663,-3.8414509296417236,-1.1438522338867188,-3.2557172775268555,3.55859375,1,J1,7.6,270,94.25884612217035,8.908698543607564,[6400|10100|0|0]
31300,0.3309961259365082,0.4538315236568451,1.5081689357757568,-3.224921941757202,-0.014383205212652683,-2.547821283340454,3.55859375,1,J1,7.6,270,94.25884612217035,8.92163958135108,[6400|10100|0|0]
31400,0.33912336826324463,0.45063862204551697,1.500002384185791,-2.981860399246216,-0.08297604322433472,-2.3070898056030273,3.55859375,1,J1,7.6,270,94.25884612217035,8.9335953018818,[6400|10100|0|0]
31500,0.3466424345970154,0.44984644651412964,1.4921936988830566,-2.439152956008911,-0.06932762265205383,-2.2755346298217773,3.794921875,1,J1,7.6,270,0,8.944464499955316,[6400|10100|0|0]
31600,0.35360050201416016,0.4492904245853424,1.47239351272583,-1.4849882125854492,-1.3390997648239136,-1.9340797662734985,3.822265625,1,J1,7.6,270,0,8.96545905244942,[6400|10100|0|0]
31700,0.3616476356983185,0.4499024450778961,1.4172492027282715,-2.037482976913452,-0.5507218837738037,-1.3312309980392456,3.720703125,1,J1,7.6,270,0,9.02119078357919,[6400|10100|0|0]
31800,0.36909690499305725,0.4509744644165039,1.3262916803359985,-2.5987775325775146,-0.4361344873905182,-0.2849178612232208,3.599609375,1,J1,7.6,270,0,9.112459133614832,[6400|10100|0|0]
31900,0.37675735354423523,0.4547414779663086,1.2129274606704712,-1.885445237159729,-0.07655845582485199,1.0061924457550049,3.55859375,1,J1,7.6,270,0,9.226144309268756,[6400|10100|0|0]
32000,0.38279083371162415,0.4611690938472748,1.0919134616851807,-2.1365816593170166,-0.2443852424621582,2.3844220638275146,3.55859375,1,J1,7.6,270,0,9.347478991364419,[6400|10100|0|0]
32100,0.38835519552230835,0.4684130847454071,0.9676356315612793,-0.9398938417434692,0.04173889011144638,3.8606784343719482,3.541015625,1,J1,7.6,270,0,9.47209205884451,[6400|10100|0|0]
