time.ms,stateEstimate.x,stateEstimate.y,stateEstimate.z,stabilizer.roll,stabilizer.pitch,stabilizer.yaw,pm.vbat,drone_id,node_name,wind_speed,global_wind_direction,relative_wind_direction,travel_dist,waiting_time
0,0.7935383915901184,-0.8067413568496704,0.008749174885451794,0.4115826487541199,-0.3209550976753235,7.874454498291016,4.15234375,2,G1,7.6,270,0,0.11524056350338457,[100|0|0|0]
100,0.7937107086181641,-0.8068768382072449,0.008727729320526123,0.41701626777648926,-0.31958162784576416,7.876253604888916,4.15234375,2,G1,7.6,270,0,0.11546080943106472,[200|0|0|0]
200,0.7937530875205994,-0.8069655895233154,0.008756624534726143,0.4134610891342163,-0.32329627871513367,7.869362831115723,4.15234375,2,G1,7.6,270,0,0.11556331650828157,[300|0|0|0]
300,0.7936241030693054,-0.8067193627357483,0.008480778895318508,0.40629932284355164,-0.3204115629196167,7.86972713470459,4.15234375,2,G1,7.6,270,0,0.11595492273444688,[400|0|0|0]
400,0.793604850769043,-0.8065720796585083,0.008510802872478962,0.4010350704193115,-0.3225514888763428,7.856473445892334,4.15234375,2,G1,7.6,270,0,0.11610646281202112,[500|0|0|0]
500,0.7939553260803223,-0.806548535823822,0.008797954767942429,0.40593358874320984,-0.3284781873226166,7.8306474685668945,4.15234375,2,G1,7.6,270,0,0.11656016256630397,[600|0|0|0]
600,0.793801486492157,-0.8066129684448242,0.008457056246697903,0.4128653407096863,-0.3186666667461395,7.813016414642334,4.15234375,2,G1,7.6,270,0,0.1169396753899645,[700|0|0|0]
700,0.7937878370285034,-0.8069786429405212,0.008401360362768173,0.4191078245639801,-0.3144145607948303,7.820723056793213,4.15234375,2,G1,7.6,270,0,0.11730981884343628,[800|0|0|0]
800,0.7935534119606018,-0.8067691326141357,0.008707159198820591,0.40414562821388245,-0.3050595819950104,7.801490306854248,4.15234375,2,G1,7.6,270,0,0.11774841047292076,[900|0|0|0]
900,0.7936814427375793,-0.806757926940918,0.00873497687280178,0.40370333194732666,-0.30773988366127014,7.794646263122559,4.15234375,2,G1,7.6,270,0,0.11787990674644765,[1000|0|0|0]
1000,0.7937055826187134,-0.806770920753479,0.008767770603299141,0.40633565187454224,-0.30636686086654663,7.7920074462890625,4.15234375,2,G1,7.6,270,0,0.11792265018788572,[1100|0|0|0]
1100,0.7939099669456482,-0.8068981170654297,0.008539601229131222,0.40854525566101074,-0.3098820447921753,7.792670726776123,4.15234375,2,G1,7.6,270,0,0.11825433244273008,[1200|0|0|0]
1200,0.7936172485351562,-0.80678391456604,0.00865895114839077,0.40570586919784546,-0.3016528785228729,7.788100719451904,4.16015625,2,G1,7.6,270,0,0.11859044355818898,[1300|0|0|0]
1300,0.793414831161499,-0.8066264986991882,0.008701271377503872,0.401811420917511,-0.2993280291557312,7.783449172973633,4.16015625,2,G1,7.6,270,0,0.11885033497799191,[1400|0|0|0]
1400,0.7937407493591309,-0.8062532544136047,0.00865260325372219,0.39619511365890503,-0.31367215514183044,7.810506343841553,4.15234375,2,G1,7.6,270,0,0.11934823311470337,[1500|0|0|0]
1500,0.7933816909790039,-0.8066180944442749,0.008547362871468067,0.39895108342170715,-0.3006778657436371,7.839040279388428,4.16015625,2,G1,7.6,270,0,0.11987082923636501,[1600|0|0|0]
1600,0.7935270667076111,-0.8066782355308533,0.008792350068688393,0.4064013361930847,-0.3074766993522644,7.833981513977051,4.15234375,2,G1,7.6,270,0,0.12016198173861214,[1700|0|0|0]
1700,0.7936234474182129,-0.806767463684082,0.008782584220170975,0.4059034585952759,-0.3127894699573517,7.820674419403076,4.15234375,2,G1,7.6,270,0,0.12029368700237175,[1800|0|0|0]
1800,0.7939905524253845,-0.8065829277038574,0.008643608540296555,0.4062039256095886,-0.32335954904556274,7.8203511238098145,4.15234375,2,G1,7.6,270,0,0.12072743099816247,[1900|0|0|0]
1900,0.7935716509819031,-0.8065850138664246,0.008484510704874992,0.4098510146141052,-0.316811203956604,7.824084758758545,4.15234375,2,G1,7.6,270,0,0.12117553242938192,[2000|0|0|0]
2000,0.7936038970947266,-0.8066174387931824,0.008754316717386246,0.4091671407222748,-0.3146159052848816,7.821192741394043,4.15234375,2,G1,7.6,270,0,0.12144918635691576,[2100|0|0|0]
2100,0.7935397624969482,-0.8065763711929321,0.008465166203677654,0.4071010649204254,-0.31214895844459534,7.831356048583984,4.15234375,2,G1,7.6,270,0,0.12174819775134822,[2200|0|0|0]
2200,0.7936525344848633,-0.8067511320114136,0.008931146934628487,0.4122437536716461,-0.3176182806491852,7.826493263244629,4.15234375,2,G1,7.6,270,0,0.12225848875318157,[2300|0|0|0]
2300,0.7935588955879211,-0.8067496418952942,0.008413726463913918,0.41368722915649414,-0.31139951944351196,7.844803810119629,4.15234375,2,G1,7.6,270,0,0.12278431610791037,[2400|0|0|0]
2400,0.7935971021652222,-0.806704580783844,0.008438303135335445,0.416490375995636,-0.31041350960731506,7.849344253540039,4.15234375,2,G1,7.6,270,0,0.12284830250562384,[2500|0|0|0]
2500,0.7936092615127563,-0.8066368103027344,0.00852566584944725,0.41682976484298706,-0.3227483928203583,7.840133190155029,4.15234375,2,G1,7.6,270,0,0.12295953618604154,[2600|0|0|0]
2600,0.7935587167739868,-0.8066082000732422,0.00851121824234724,0.4156610071659088,-0.32516980171203613,7.841487884521484,4.15234375,2,G1,7.6,270,0,0.12301938640909703,[2700|0|0|0]
2700,0.7935296893119812,-0.8064239025115967,0.008314546197652817,0.40875044465065,-0.32380470633506775,7.826175689697266,4.15234375,2,G1,7.6,270,0,0.12329047325485545,[2800|0|0|0]
2800,0.7935211062431335,-0.806668221950531,0.008564201183617115,0.4188530445098877,-0.31976231932640076,7.830681800842285,4.15234375,2,G1,7.6,270,0,0.12363989172793445,[2900|0|0|0]
2900,0.793621838092804,-0.8067932724952698,0.008648248389363289,0.420917272567749,-0.31913092732429504,7.809189796447754,4.15234375,2,G1,7.6,270,0,0.12382113321620693,[3000|0|0|0]
3000,0.7938224077224731,-0.806903064250946,0.008981098420917988,0.426845520734787,-0.31943973898887634,7.804520130157471,4.15234375,2,G1,7.6,270,0,0.12422495440122089,[3100|0|0|0]
3100,0.7937263250350952,-0.8067941665649414,0.008832492865622044,0.41851234436035156,-0.3175909221172333,7.806685447692871,4.15234375,2,G1,7.6,270,0,0.1244327384234549,[3200|0|0|0]
3200,0.793368399143219,-0.8067076802253723,0.00862397812306881,0.4160991907119751,-0.30925601720809937,7.776383399963379,4.15234375,2,G1,7.6,270,0,0.12485590414615641,[3300|0|0|0]
3300,0.7936198115348816,-0.806839644908905,0.008591786026954651,0.42142167687416077,-0.31375959515571594,7.797449588775635,4.15234375,2,G1,7.6,270,0,0.1251416648842462,[3400|0|0|0]
3400,0.7938717007637024,-0.8067564964294434,0.008955766446888447,0.42332130670547485,-0.3217129409313202,7.8075480461120605,4.15234375,2,G1,7.6,270,0,0.1255920464994659,[3500|0|0|0]
3500,0.7935726642608643,-0.8065887093544006,0.00862505380064249,0.4147476553916931,-0.30574965476989746,7.8266448974609375,4.15234375,2,G1,7.6,270,0,0.12606843519262315,[3600|0|0|0]
3600,0.793544590473175,-0.8068153262138367,0.00860914122313261,0.41884246468544006,-0.30440613627433777,7.760931015014648,4.15234375,2,G1,7.6,270,0,0.12629733811671737,[3700|0|0|0]
3700,0.793582022190094,-0.806890070438385,0.008790136314928532,0.4197320342063904,-0.30346453189849854,7.810438632965088,4.15234375,2,G1,7.6,270,0,0.12649670475331698,[3800|0|0|0]
3800,0.793681800365448,-0.8070120215415955,0.009011569432914257,0.413695365190506,-0.3070527911186218,7.767370223999023,4.15234375,2,G1,7.6,270,0,0.1267684774185946,[3900|0|0|0]
3900,0.793951153755188,-0.807070791721344,0.008690735325217247,0.41278406977653503,-0.3153167963027954,7.763131141662598,4.15234375,2,G1,7.6,270,0,0.12719149007473368,[4000|0|0|0]
4000,0.7933034896850586,-0.806756854057312,0.008684552274644375,0.39874255657196045,-0.2960888743400574,7.765961170196533,4.15234375,2,G1,7.6,270,0,0.12791125658878447,[4100|0|0|0]
4100,0.7935387492179871,-0.8066496253013611,0.008763696067035198,0.3943510949611664,-0.3036009967327118,7.75309944152832,4.15234375,2,G1,7.6,270,0,0.12818164296752885,[4200|0|0|0]
4200,0.793555498123169,-0.8068007826805115,0.008595997467637062,0.4018230736255646,-0.3050985336303711,7.7760162353515625,4.15234375,2,G1,7.6,270,0,0.12840803179087598,[4300|0|0|0]
4301,0.1487860232591629,-0.25319191813468933,-0.21320641040802002,3.307065486907959,-2.949925661087036,5.430171489715576,4.15234375,2,G1,7.6,270,0,1.006705679948697,[4400|0|0|0]
4401,0.8513494729995728,-0.8493013978004456,0.04810028895735741,-37.861473083496094,53.96105194091797,22.918527603149414,4.15234375,2,G1,7.6,270,0,1.964423333431054,[4500|0|0|0]
4501,0.8494962453842163,-0.8146130442619324,0.015497766435146332,-58.67439651489258,8.618062019348145,29.185577392578125,4.15234375,2,G1,7.6,270,0,2.0120640806818946,[4600|0|0|0]
4600,0.7935629487037659,-0.7978647351264954,-0.015022747218608856,-58.467124938964844,2.398073196411133,35.740562438964844,4.15234375,2,G1,7.6,270,0,2.077946865156509,[4700|0|0|0]
4700,0.7777379155158997,-0.7838011980056763,-0.024369709193706512,-51.83888244628906,10.637141227722168,35.13509750366211,4.15234375,2,G1,7.6,270,0,2.1010894762864063,[4800|0|0|0]
4801,0.7650519013404846,-0.7738684415817261,-0.03440583497285843,-42.87031173706055,16.883777618408203,28.612592697143555,4.15234375,2,G1,7.6,270,0,2.1200715316675107,[4900|0|0|0]
4901,0.7612525820732117,-0.7719821333885193,-0.033161040395498276,-34.203956604003906,17.344249725341797,22.83736801147461,4.15234375,2,G1,7.6,270,0,2.1244922215496733,[5000|0|0|0]
5000,0.7666139006614685,-0.7746454477310181,-0.020230844616889954,-27.057979583740234,15.865191459655762,18.613245010375977,4.15234375,2,G1,7.6,270,0,2.138740973886804,[5100|0|0|0]
5101,0.7975970506668091,-0.7698328495025635,0.007059912197291851,-21.678552627563477,12.391363143920898,15.118581771850586,4.15234375,2,G1,7.6,270,0,2.1803090156190383,[5200|0|0|0]
5201,0.7637447714805603,-0.7758466005325317,-0.02225610427558422,-17.557918548583984,11.641029357910156,13.58863353729248,4.15234375,2,G1,7.6,270,0,2.2254927608090083,[5300|0|0|0]
5301,0.7674673199653625,-0.7832340002059937,-0.014327394776046276,-13.556914329528809,9.556802749633789,12.135163307189941,4.15234375,2,G1,7.6,270,0,2.236951184587401,[5400|0|0|0]
5400,0.7706955671310425,-0.7858968377113342,-0.010810771957039833,-10.6410493850708,7.528738021850586,11.051688194274902,4.15234375,2,G1,7.6,270,0,2.2424173458907037,[5500|0|0|0]
5501,0.7746410369873047,-0.7891231179237366,-0.006664180662482977,-8.201020240783691,5.792145252227783,10.326706886291504,4.15234375,2,G1,7.6,270,0,2.248987721508559,[5600|0|0|0]
5601,0.778248131275177,-0.7919373512268066,-0.0031869295053184032,-6.215516567230225,4.362442493438721,9.808244705200195,4.15234375,2,G1,7.6,270,0,2.254734226002224,[5700|0|0|0]
5700,0.7813230156898499,-0.7946903109550476,-0.00035177147947251797,-4.613195419311523,3.220731735229492,9.418211936950684,4.15234375,2,G1,7.6,270,0,2.2597414030971983,[5800|0|0|0]
5800,0.7839835286140442,-0.7971979975700378,0.0020924785640090704,-3.3399577140808105,2.321476459503174,9.136917114257812,4.15234375,2,G1,7.6,270,0,2.2641392638787448,[5900|0|0|0]
5901,0.786055862903595,-0.7992511987686157,0.003781511215493083,-2.335536241531372,1.6132465600967407,8.899161338806152,4.15234375,2,G1,7.6,270,0,2.2675101741218793,[6000|0|0|0]
6000,0.7882153391838074,-0.8005035519599915,0.005440937355160713,-1.580896019935608,1.0697102546691895,8.708701133728027,4.15234375,2,G1,7.6,270,0,2.2705077433760854,[6100|0|0|0]
6100,0.7892671823501587,-0.8020562529563904,0.006107702385634184,-0.990890383720398,0.6802911758422852,8.565534591674805,4.15234375,2,G1,7.6,270,0,2.272498178011204,[6200|0|0|0]
6200,0.7901731133460999,-0.803343653678894,0.006761729717254639,-0.5445739030838013,0.37817060947418213,8.419121742248535,4.15234375,2,G1,7.6,270,0,2.274202837314472,[6300|0|0|0]
6300,0.7914664149284363,-0.8049497008323669,0.006955238990485668,-0.21930602192878723,0.1558772623538971,8.29976749420166,4.15234375,2,G1,7.6,270,0,2.2762739390215057,[6400|0|0|0]
6400,0.7922096252441406,-0.8053505420684814,0.007349223829805851,0.025669114664196968,-0.013254482299089432,8.183327674865723,4.15234375,2,G1,7.6,270,0,2.2772057433590964,[6500|0|0|0]
6500,0.7920310497283936,-0.8051307201385498,0.007731475401669741,0.20974600315093994,-0.12592542171478271,8.095529556274414,4.15234375,2,G1,7.6,270,0,2.277681481900625,[6600|0|0|0]
6600,0.7929325699806213,-0.8059726357460022,0.008231453597545624,0.338575154542923,-0.21463656425476074,8.040471076965332,4.15234375,2,G1,7.6,270,0,2.2790124735803885,[6700|0|0|0]
6700,0.7930282354354858,-0.8063073754310608,0.008449404500424862,0.4263228178024292,-0.26613473892211914,7.99767541885376,4.15234375,2,G1,7.6,270,0,2.279423210883386,[6800|0|0|0]
6800,0.7932372093200684,-0.8064411878585815,0.00855758786201477,0.48245155811309814,-0.3055730164051056,7.918004989624023,4.15234375,2,G1,7.6,270,0,2.2796939127302975,[6900|0|0|0]
6900,0.7935965657234192,-0.8068203926086426,0.0084058977663517,0.5191620588302612,-0.33545103669166565,7.889965057373047,4.15234375,2,G1,7.6,270,0,2.28023791930399,[7000|0|0|0]
7000,0.7934172749519348,-0.8067933917045593,0.0088198222219944,0.5322718024253845,-0.3419921398162842,7.864567279815674,4.15234375,2,G1,7.6,270,0,2.2806898127477795,[7100|0|0|0]
7100,0.793682873249054,-0.80696040391922,0.008697624318301678,0.5414257645606995,-0.3541836142539978,7.846511363983154,4.15234375,2,G1,7.6,270,0,2.2810265141926016,[7200|0|0|0]
7200,0.793468713760376,-0.8065463900566101,0.008460192009806633,0.5285301208496094,-0.34765300154685974,7.802894592285156,4.15234375,2,G1,7.6,270,0,2.281549625907383,[7300|0|0|0]
7300,0.7935385704040527,-0.8067490458488464,0.008659109473228455,0.5302895307540894,-0.3475882411003113,7.815350532531738,4.15234375,2,G1,7.6,270,0,2.2818420596230293,[7400|0|0|0]
7400,0.793811023235321,-0.8068320155143738,0.008946172893047333,0.5218373537063599,-0.3463820815086365,7.783188819885254,4.15234375,2,G1,7.6,270,0,2.282246435583816,[7500|0|0|0]
7500,0.7934167385101318,-0.8066969513893127,0.008652081713080406,0.5137404203414917,-0.34111496806144714,7.8224778175354,4.15234375,2,G1,7.6,270,0,2.2827565261488436,[7600|0|0|0]
7600,0.7935444712638855,-0.8068707585334778,0.008734487928450108,0.5023087859153748,-0.34412285685539246,7.826910495758057,4.15234375,2,G1,7.6,270,0,2.282987427348658,[7700|0|0|0]
7700,0.7936298847198486,-0.8068848252296448,0.008663728833198547,0.4851662516593933,-0.341164767742157,7.814301013946533,4.15234375,2,G1,7.6,270,0,2.283099231552342,[7800|0|0|0]
7800,0.7935919165611267,-0.806767463684082,0.008787175640463829,0.467833936214447,-0.3425397276878357,7.8171610832214355,4.15234375,2,G1,7.6,270,0,2.2832737435223547,[7900|0|0|0]
7900,0.7933986186981201,-0.806624174118042,0.008458278141915798,0.4537520706653595,-0.3335404396057129,7.806681156158447,4.15234375,2,G1,7.6,270,0,2.283681259814213,[8000|0|0|0]
8000,0.7934808731079102,-0.8068328499794006,0.008837243542075157,0.45110297203063965,-0.3258274793624878,7.793381214141846,4.15234375,2,G1,7.6,270,0,2.2841216303145435,[8100|0|0|0]
8100,0.7938262820243835,-0.8069407939910889,0.008834250271320343,0.44947680830955505,-0.3318668603897095,7.769709587097168,4.15234375,2,G1,7.6,270,0,2.2844835255879423,[8200|0|0|0]
8200,0.7933074235916138,-0.806454598903656,0.008313233032822609,0.4276489317417145,-0.30828312039375305,7.750380992889404,4.15234375,2,G1,7.6,270,0,2.2853650349180756,[8300|0|0|0]
8300,0.793221652507782,-0.8066571950912476,0.008420631289482117,0.42995426058769226,-0.3029768764972687,7.75576114654541,4.15234375,2,G1,7.6,270,0,2.285609853789043,[8400|0|0|0]
8400,0.7935684323310852,-0.8068843483924866,0.008725212886929512,0.4234825372695923,-0.3124399483203888,7.7886786460876465,4.15234375,2,G1,7.6,270,0,2.286124270757676,[8500|0|0|0]
8500,0.7937442064285278,-0.8068038821220398,0.008647375740110874,0.41882574558258057,-0.3169914484024048,7.788904190063477,4.15234375,2,G1,7.6,270,0,2.286332669355167,[8600|0|0|0]
8600,0.7935976386070251,-0.8068044781684875,0.008653377182781696,0.41181647777557373,-0.30888989567756653,7.803990364074707,4.15234375,2,G1,7.6,270,0,2.2864793612052665,[8700|0|0|0]
8700,0.7939593195915222,-0.806663990020752,0.008569376543164253,0.4081200659275055,-0.3185807466506958,7.812201976776123,4.15234375,2,G1,7.6,270,0,2.2868763576305113,[8800|0|0|0]
8800,0.7935531735420227,-0.8068623542785645,0.008742470294237137,0.411653995513916,-0.3112277686595917,7.7961320877075195,4.15234375,2,G1,7.6,270,0,2.287360366348369,[8900|0|0|0]
8900,0.7933695912361145,-0.8064609169960022,0.008251196704804897,0.4046662449836731,-0.3114943206310272,7.776833534240723,4.15234375,2,G1,7.6,270,0,2.2880208238371957,[9000|0|0|0]
9000,0.7936570644378662,-0.8066892623901367,0.008627033792436123,0.4100983440876007,-0.31956231594085693,7.788035869598389,4.15234375,2,G1,7.6,270,0,2.288546215098245,[9100|0|0|0]
9100,0.7935261726379395,-0.8065547943115234,0.008657814003527164,0.4088626205921173,-0.3188081681728363,7.786855697631836,4.15234375,2,G1,7.6,270,0,2.2887363775257876,[9200|0|0|0]
9200,0.7936834096908569,-0.8069043755531311,0.00880812294781208,0.4147114157676697,-0.3155808448791504,7.773818016052246,4.15234375,2,G1,7.6,270,0,2.289148109615897,[9300|0|0|0]
9300,0.7937265634536743,-0.8067019581794739,0.008873585611581802,0.4100596010684967,-0.3148222267627716,7.793830394744873,4.15234375,2,G1,7.6,270,0,2.289365181955801,[9400|0|0|0]
9400,0.7936489582061768,-0.8067088723182678,0.008823076263070107,0.4084569215774536,-0.3118372857570648,7.7648162841796875,4.15234375,2,G1,7.6,270,0,2.2894580343873336,[9500|0|0|0]
9500,0.7934892773628235,-0.8068104982376099,0.008803498931229115,0.41317927837371826,-0.30451738834381104,7.786741256713867,4.15234375,2,G1,7.6,270,0,2.2896483212001666,[9600|0|0|0]
9600,0.7935405373573303,-0.8068326115608215,0.008557218126952648,0.41572752594947815,-0.30477625131607056,7.806474685668945,4.15234375,2,G1,7.6,270,0,2.289900850051301,[9700|0|0|0]
9700,0.7935059070587158,-0.8069810271263123,0.008565148338675499,0.4145718216896057,-0.30289971828460693,7.790467262268066,4.15234375,2,G1,7.6,270,0,2.2900534584584094,[9800|0|0|0]
9800,0.793345034122467,-0.8065451383590698,0.008352873846888542,0.3951358199119568,-0.29966670274734497,7.7850141525268555,4.15234375,2,G1,7.6,270,0,2.2905642809118008,[9900|0|0|0]
9900,0.7934169769287109,-0.80668044090271,0.008566346950829029,0.40444815158843994,-0.30086448788642883,7.816389560699463,4.15234375,2,G1,7.6,270,0,2.2908270608801997,[10000|0|0|0]
10000,0.7935261130332947,-0.8066368699073792,0.008504414930939674,0.40637725591659546,-0.3121926486492157,7.832009315490723,4.15234375,2,G1,7.6,270,0,2.2909598942195593,[10100|0|0|0]
10100,0.7937269806861877,-0.8067520260810852,0.008513139560818672,0.4043261408805847,-0.31271860003471375,7.8123016357421875,4.15234375,2,G1,7.6,270,0,2.2911915941925587,[10200|0|0|0]
10200,0.7935740351676941,-0.8067131638526917,0.008533022366464138,0.4025539457798004,-0.30793917179107666,7.80562162399292,4.15234375,2,G1,7.6,270,0,2.2913506474238474,[10300|0|0|0]
10300,0.7936881184577942,-0.8067866563796997,0.008751184679567814,0.40777337551116943,-0.30389341711997986,7.788322448730469,4.15234375,2,G1,7.6,270,0,2.2916075733732275,[10400|0|0|0]
10400,0.793877363204956,-0.8068151473999023,0.008935424499213696,0.4079679846763611,-0.3087378442287445,7.806044101715088,4.15234375,2,G1,7.6,270,0,2.29187322281084,[10500|0|0|0]
10500,0.793662965297699,-0.8066567778587341,0.008403698913753033,0.40475937724113464,-0.29716193675994873,7.807096004486084,4.15234375,2,G1,7.6,270,0,2.292468016449373,[10600|0|0|0]
10600,0.793793261051178,-0.8068968057632446,0.00880491454154253,0.4104151725769043,-0.3016274869441986,7.828747749328613,4.15234375,2,G1,7.6,270,0,2.292953366177199,[10700|0|0|0]
10700,0.7937462329864502,-0.806800127029419,0.008390038274228573,0.40829458832740784,-0.3001483380794525,7.831281661987305,4.15234375,2,G1,7.6,270,0,2.2933819460806317,[10800|0|0|0]
10800,0.7936840653419495,-0.8070026636123657,0.009019719436764717,0.41189566254615784,-0.3032332956790924,7.807124137878418,4.15234375,2,G1,7.6,270,0,2.294046313636964,[10900|0|0|0]
10900,0.794018030166626,-0.8069587349891663,0.009017187170684338,0.40818387269973755,-0.3139715790748596,7.794550895690918,4.15234375,2,G1,7.6,270,0,2.294383164702613,[11000|0|0|0]
11000,0.7935454249382019,-0.8068522214889526,0.008562996983528137,0.4084347188472748,-0.2992910146713257,7.812102794647217,4.15234375,2,G1,7.6,270,0,2.2950472351459927,[11100|0|0|0]
11100,0.7935264706611633,-0.8069269061088562,0.00849717203527689,0.40971338748931885,-0.2938949167728424,7.818544387817383,4.15234375,2,G1,7.6,270,0,2.2951485760601416,[11200|0|0|0]
11200,0.7934759259223938,-0.8068130612373352,0.0084175830706954,0.403117835521698,-0.297711580991745,7.8115434646606445,4.15234375,2,G1,7.6,270,0,2.295296392935606,[11300|0|0|0]
11300,0.7937029600143433,-0.8067559003829956,0.008859094232320786,0.399556428194046,-0.30827006697654724,7.801821708679199,4.15234375,2,G1,7.6,270,0,2.2957961368180255,[11400|0|0|0]
11400,0.7934109568595886,-0.8065138459205627,0.008410154841840267,0.39820313453674316,-0.29605764150619507,7.806705951690674,4.15234375,2,G1,7.6,270,0,2.296383846594612,[11500|0|0|0]
11500,0.7935906052589417,-0.8067153096199036,0.008421002887189388,0.4010756313800812,-0.3037557899951935,7.77999210357666,4.15234375,2,G1,7.6,270,0,2.296653992572983,[11600|0|0|0]
11600,0.7934548854827881,-0.8065709471702576,0.00854820292443037,0.39722740650177,-0.2996005415916443,7.790839672088623,4.15234375,2,G1,7.6,270,0,2.296889450051057,[11700|0|0|0]
11700,0.7935253381729126,-0.8067881464958191,0.008820367977023125,0.40955376625061035,-0.30641165375709534,7.800113201141357,4.15234375,2,G1,7.6,270,0,2.297244714662893,[11800|0|0|0]
11800,0.7936525940895081,-0.8067209124565125,0.008541262708604336,0.4031243324279785,-0.3121480643749237,7.803420066833496,4.15234375,2,G1,7.6,270,0,2.2975587436985077,[11900|0|0|0]
11900,0.793667733669281,-0.8067806363105774,0.008680608123540878,0.4003157317638397,-0.31894651055336,7.775386810302734,4.15234375,2,G1,7.6,270,0,2.297711102781873,[12000|0|0|0]
12000,0.793369472026825,-0.8064873218536377,0.008177917450666428,0.3929203152656555,-0.3117148280143738,7.767314434051514,4.15234375,2,G1,7.6,270,0,2.2983650838906255,[12100|0|0|0]
12100,0.7939298748970032,-0.8068492412567139,0.008993849158287048,0.4068279266357422,-0.32386675477027893,7.779732704162598,4.15234375,2,G1,7.6,270,0,2.2994190201233873,[12200|0|0|0]
12200,0.7935782074928284,-0.8065513968467712,0.008756478317081928,0.396575391292572,-0.31740161776542664,7.762543678283691,4.15234375,2,G1,7.6,270,0,2.2999374081748964,[12300|0|0|0]
12300,0.7936334013938904,-0.8069229125976562,0.008653621189296246,0.4117978513240814,-0.3166111409664154,7.789523601531982,4.15234375,2,G1,7.6,270,0,2.300326830707124,[12400|0|0|0]
12400,0.7934786677360535,-0.806877613067627,0.008805000223219395,0.40960702300071716,-0.31919538974761963,7.783195495605469,4.15234375,2,G1,7.6,270,0,2.3005479871318553,[12500|0|0|0]
12500,0.7936083674430847,-0.8067951202392578,0.008808230049908161,0.4023083746433258,-0.3265618085861206,7.76431941986084,4.15234375,2,G1,7.6,270,0,2.3007017320911767,[12600|0|0|0]
12600,0.7935827970504761,-0.8068891167640686,0.008767778985202312,0.40505725145339966,-0.3226110339164734,7.7693867683410645,4.15234375,2,G1,7.6,270,0,2.300807209483496,[12700|0|0|0]
12700,0.7936061024665833,-0.8068065643310547,0.008526487275958061,0.40418559312820435,-0.3201468586921692,7.787508010864258,4.15234375,2,G1,7.6,270,0,2.3010632948902776,[12800|0|0|0]
12800,0.7935687303543091,-0.8067777156829834,0.008701706305146217,0.40298059582710266,-0.314441978931427,7.7890825271606445,4.15234375,2,G1,7.6,270,0,2.3012447628694392,[12900|0|0|0]
12900,0.793864905834198,-0.8068069219589233,0.00904332660138607,0.4066932499408722,-0.32236188650131226,7.801206111907959,4.15234375,2,G1,7.6,270,0,2.3016978383027222,[13000|0|0|0]
13000,0.793384850025177,-0.8067735433578491,0.008715195581316948,0.40415969491004944,-0.3080200254917145,7.8301873207092285,4.15234375,2,G1,7.6,270,0,2.3022802794389037,[13100|0|0|0]
13100,0.793493926525116,-0.8068472146987915,0.008925078436732292,0.4048297703266144,-0.3107440769672394,7.834552764892578,4.15234375,2,G1,7.6,270,0,2.302528021163917,[13200|0|0|0]
13200,0.793614387512207,-0.8067015409469604,0.008632034063339233,0.39793723821640015,-0.31249508261680603,7.810934543609619,4.15234375,2,G1,7.6,270,0,2.302876742680547,[13300|0|0|0]
13300,0.7935664653778076,-0.8065823912620544,0.008419610559940338,0.39681005477905273,-0.31363052129745483,7.8005571365356445,4.15234375,2,G1,7.6,270,0,2.3031249702438332,[13400|0|0|0]
13400,0.7935705780982971,-0.8068954944610596,0.00855134055018425,0.4060635566711426,-0.3140791356563568,7.813544750213623,4.15234375,2,G1,7.6,270,0,2.303464680882505,[13500|0|0|0]
13500,0.793757975101471,-0.8066982626914978,0.008869952522218227,0.40379664301872253,-0.31623575091362,7.833195209503174,4.15234375,2,G1,7.6,270,0,2.3038836457932628,[13600|0|0|0]
13600,0.7935302257537842,-0.8068992495536804,0.008918303065001965,0.40984049439430237,-0.3133454918861389,7.812213897705078,4.15234375,2,G1,7.6,270,0,2.304191222221373,[13700|0|0|0]
13700,0.7934916615486145,-0.8067675828933716,0.008577433414757252,0.4016914367675781,-0.316928505897522,7.827840328216553,4.15234375,2,G1,7.6,270,0,2.3045586666740667,[13800|0|0|0]
13800,0.7932544946670532,-0.806632399559021,0.008385798893868923,0.40117308497428894,-0.3128352463245392,7.830584526062012,4.15234375,2,G1,7.6,270,0,2.304892202958737,[13900|0|0|0]
13900,0.7939269542694092,-0.8071783185005188,0.008730140514671803,0.41916072368621826,-0.3258771300315857,7.830258846282959,4.15234375,2,G1,7.6,270,0,2.305824297674581,[14000|0|0|0]
14000,0.7935972809791565,-0.806817352771759,0.008823275566101074,0.4057822823524475,-0.3143095076084137,7.819555282592773,4.15234375,2,G1,7.6,270,0,2.3063219470224654,[14100|0|0|0]
14100,0.7936504483222961,-0.8066886067390442,0.008831142447888851,0.40957099199295044,-0.31180641055107117,7.818882465362549,4.15234375,2,G1,7.6,270,0,2.306461461162055,[14200|0|0|0]
14200,0.7934871315956116,-0.8067017197608948,0.008219528011977673,0.4081870913505554,-0.3071037828922272,7.797976970672607,4.15234375,2,G1,7.6,270,0,2.307094640854379,[14300|0|0|0]
14300,0.793552041053772,-0.8068467378616333,0.008917936123907566,0.4084542691707611,-0.3047387897968292,7.769288539886475,4.15234375,2,G1,7.6,270,0,2.3078108931689374,[14400|0|0|0]
14400,0.7936817407608032,-0.8068202137947083,0.008734517730772495,0.4074038863182068,-0.3154256045818329,7.792346477508545,4.15234375,2,G1,7.6,270,0,2.3080370962791514,[14500|0|0|0]
14500,0.7936331033706665,-0.8067894577980042,0.008547579869627953,0.40183934569358826,-0.31364884972572327,7.803802490234375,4.15234375,2,G1,7.6,270,0,2.3082326909901787,[14600|0|0|0]
14600,0.7935878038406372,-0.8070006966590881,0.00856900867074728,0.40831559896469116,-0.311000257730484,7.779743671417236,4.15234375,2,G1,7.6,270,0,2.308449792573246,[14700|0|0|0]
14700,0.7934582829475403,-0.8065467476844788,0.008394201286137104,0.397554486989975,-0.31014367938041687,7.780868053436279,4.15234375,2,G1,7.6,270,0,2.3089531840263042,[14800|0|0|0]
14800,0.7935248613357544,-0.8068737387657166,0.008621751330792904,0.405384361743927,-0.3059106767177582,7.767984867095947,4.15234375,2,G1,7.6,270,0,2.3093570836076474,[14900|0|0|0]
14900,0.7934864163398743,-0.8068094253540039,0.008916590362787247,0.39559206366539,-0.3047722578048706,7.765673637390137,4.15234375,2,G1,7.6,270,0,2.309661294533522,[15000|0|0|0]
15000,0.7935139536857605,-0.8067060112953186,0.008564078249037266,0.3998901844024658,-0.30833759903907776,7.7956438064575195,4.15234375,2,G1,7.6,270,0,2.3100296931807685,[15100|0|0|0]
15100,0.7935677170753479,-0.8067564964294434,0.008539004251360893,0.4040132462978363,-0.3135939836502075,7.774348735809326,4.15234375,2,G1,7.6,270,0,2.310107590267922,[15200|0|0|0]
15200,0.7935684323310852,-0.8068950176239014,0.00861772894859314,0.4095389246940613,-0.31675946712493896,7.74890661239624,4.15234375,2,G1,7.6,270,0,2.3102669207761717,[15300|0|0|0]
15300,0.7936338186264038,-0.8068962693214417,0.008623321540653706,0.4101635217666626,-0.3190070688724518,7.736814498901367,4.15234375,2,G1,7.6,270,0,2.310332557743257,[15400|0|0|0]
15400,0.793785572052002,-0.8067213296890259,0.008807576261460781,0.40299558639526367,-0.33487337827682495,7.778097629547119,4.15234375,2,G1,7.6,270,0,2.310628501621907,[15500|0|0|0]
15500,0.7936642169952393,-0.8066975474357605,0.008684069849550724,0.4015093445777893,-0.33121803402900696,7.766396999359131,4.15234375,2,G1,7.6,270,0,2.310803277132649,[15600|0|0|0]
15600,0.7934503555297852,-0.8066079616546631,0.008657723665237427,0.4029681980609894,-0.3158334493637085,7.767897605895996,4.15234375,2,G1,7.6,270,0,2.3110366362122003,[15700|0|0|0]
15700,0.7938594818115234,-0.8068881034851074,0.008957584388554096,0.41152819991111755,-0.32421761751174927,7.766575336456299,4.15234375,2,G1,7.6,270,0,2.311616101666703,[15800|0|0|0]
15800,0.7935189604759216,-0.8069442510604858,0.008546128869056702,0.40945830941200256,-0.3168679475784302,7.793308734893799,4.15234375,2,G1,7.6,270,0,2.3121531332996126,[15900|0|0|0]
15900,0.7936986088752747,-0.8070716261863708,0.008879176340997219,0.4137680232524872,-0.324127733707428,7.7630534172058105,4.15234375,2,G1,7.6,270,0,2.3125524058739906,[16000|0|0|0]
16000,0.793533980846405,-0.8067721724510193,0.008631158620119095,0.40355631709098816,-0.3209654986858368,7.79971981048584,4.15234375,2,G1,7.6,270,0,2.312974647176299,[16100|0|0|0]
16100,0.7936980724334717,-0.8068960905075073,0.008772434666752815,0.40861302614212036,-0.33456751704216003,7.779308319091797,4.15234375,2,G1,7.6,270,0,2.3132241279471457,[16200|0|0|0]
16200,0.7933529615402222,-0.8067650198936462,0.008542739786207676,0.4022136628627777,-0.3301334083080292,7.788544654846191,4.15234375,2,G1,7.6,270,0,2.313658916139955,[16300|0|0|0]
16300,0.7936001420021057,-0.8069156408309937,0.008858799003064632,0.40861204266548157,-0.3413955867290497,7.812255382537842,4.15234375,2,G1,7.6,270,0,2.314087493176279,[16400|0|0|0]
16400,0.793579638004303,-0.806721568107605,0.008576720021665096,0.40347233414649963,-0.34194856882095337,7.819961071014404,4.15234375,2,G1,7.6,270,0,2.3144304992806517,[16500|0|0|0]
16500,0.7936545610427856,-0.8068744540214539,0.008669218048453331,0.4035983979701996,-0.33767569065093994,7.821388244628906,4.15234375,2,G1,7.6,270,0,2.3146242606011174,[16600|0|0|0]
16600,0.7938063740730286,-0.8070928454399109,0.008957445621490479,0.4087029695510864,-0.33537518978118896,7.774827003479004,4.15234375,2,G1,7.6,270,0,2.315016455886232,[16700|0|0|0]
16700,0.7938084006309509,-0.806899905204773,0.008818987756967545,0.3990672826766968,-0.3340108394622803,7.759768962860107,4.15234375,2,G1,7.6,270,0,2.315253944036505,[16800|0|0|0]
16800,0.7936110496520996,-0.8068293929100037,0.008622673340141773,0.3983103334903717,-0.3233325183391571,7.736503601074219,4.15234375,2,G1,7.6,270,0,2.3155411003403206,[16900|0|0|0]
16900,0.7935046553611755,-0.8065142631530762,0.008261851966381073,0.3934757113456726,-0.31621623039245605,7.720093250274658,4.15234375,2,G1,7.6,270,0,2.3160318330298826,[17000|0|0|0]
17000,0.793890655040741,-0.806858479976654,0.00864910613745451,0.40625280141830444,-0.31926319003105164,7.745662689208984,4.15234375,2,G1,7.6,270,0,2.316677934235014,[17100|0|0|0]
17100,0.7936480641365051,-0.8065797090530396,0.008761984296143055,0.39508056640625,-0.30440080165863037,7.747706890106201,4.15234375,2,G1,7.6,270,0,2.3170643343558472,[17200|0|0|0]
17200,0.7936334013938904,-0.8066879510879517,0.00886316318064928,0.3999427855014801,-0.3019726574420929,7.750111103057861,4.15234375,2,G1,7.6,270,0,2.3172132252582314,[17300|0|0|0]
17300,0.7936472296714783,-0.8067013025283813,0.008614306338131428,0.4015531837940216,-0.299982488155365,7.760316848754883,4.15234375,2,G1,7.6,270,0,2.3174628233557613,[17400|0|0|0]
17400,0.7935699820518494,-0.8066575527191162,0.008532949723303318,0.4020426869392395,-0.29680195450782776,7.8164825439453125,4.15234375,2,G1,7.6,270,0,2.3175832398800646,[17500|0|0|0]
17500,0.793581485748291,-0.8066766262054443,0.008755889721214771,0.4027198851108551,-0.3002016544342041,7.827711582183838,4.15234375,2,G1,7.6,270,0,2.3178072898199917,[17600|0|0|0]
17600,0.793624222278595,-0.8067123293876648,0.008645417168736458,0.4034325182437897,-0.30570632219314575,7.817195415496826,4.15234375,2,G1,7.6,270,0,2.3179310044638064,[17700|0|0|0]
17700,0.7937538027763367,-0.8068301677703857,0.008749110624194145,0.40540528297424316,-0.3096935749053955,7.79214334487915,4.15234375,2,G1,7.6,270,0,2.3181345464067618,[17800|0|0|0]
17800,0.7935043573379517,-0.8066710829734802,0.008591067977249622,0.3996019661426544,-0.3041035234928131,7.8018412590026855,4.15234375,2,G1,7.6,270,0,2.3184699692407946,[17900|0|0|0]
17900,0.7936835885047913,-0.8069189786911011,0.008752752095460892,0.406859427690506,-0.3006093502044678,7.81845235824585,4.15234375,2,G1,7.6,270,0,2.3188159719171764,[18000|0|0|0]
18000,0.79358971118927,-0.8069968223571777,0.00879557617008686,0.4035607874393463,-0.2996305823326111,7.833477973937988,4.15234375,2,G1,7.6,270,0,2.3189452254977274,[18100|0|0|0]
18100,0.7936133146286011,-0.806911051273346,0.008961972780525684,0.39818501472473145,-0.3023809492588043,7.831233024597168,4.15234375,2,G1,7.6,270,0,2.3191339094481194,[18200|0|0|0]
18200,0.7935625910758972,-0.8070628046989441,0.008707378059625626,0.3965023458003998,-0.30601492524147034,7.8136396408081055,4.15234375,2,G1,7.6,270,0,2.319434609386413,[18300|0|0|0]
18300,0.7936594486236572,-0.8069056868553162,0.0086292065680027,0.38925355672836304,-0.31870773434638977,7.7753119468688965,4.15234375,2,G1,7.6,270,0,2.319635054350049,[18400|0|0|0]
18400,0.7936124205589294,-0.8069229125976562,0.008653721772134304,0.3829430341720581,-0.32039475440979004,7.7624030113220215,4.15234375,2,G1,7.6,270,0,2.319690815988339,[18500|0|0|0]
18500,0.7938475608825684,-0.8069827556610107,0.00883649755269289,0.386909157037735,-0.3194248676300049,7.788812637329102,4.15234375,2,G1,7.6,270,0,2.319994590822701,[18600|0|0|0]
18600,0.7932252287864685,-0.8066899180412292,0.008527896367013454,0.3771282732486725,-0.3054971694946289,7.8156561851501465,4.15234375,2,G1,7.6,270,0,2.32074843815552,[18700|0|0|0]
18700,0.7936726212501526,-0.8068362474441528,0.008800954557955265,0.38780879974365234,-0.31134283542633057,7.80527400970459,4.15234375,2,G1,7.6,270,0,2.321292619270923,[18800|0|0|0]
18800,0.7936537265777588,-0.8065328598022461,0.008842699229717255,0.3872319459915161,-0.3042522370815277,7.823864459991455,4.15234375,2,G1,7.6,270,0,2.3215994477042976,[18900|0|0|0]
18900,0.7936661839485168,-0.806911051273346,0.009029107168316841,0.39647766947746277,-0.3081425130367279,7.8370680809021,4.15234375,2,G1,7.6,270,0,2.3220212674459786,[19000|0|0|0]
19000,0.7933713793754578,-0.8067356944084167,0.008612317964434624,0.3961661159992218,-0.2994104027748108,7.826968669891357,4.15234375,2,G1,7.6,270,0,2.3225610572262143,[19100|0|0|0]
19100,0.7938252091407776,-0.8065256476402283,0.008389373309910297,0.39792460203170776,-0.3091203272342682,7.799513816833496,4.15234375,2,G1,7.6,270,0,2.3231085838645598,[19200|0|0|0]
19200,0.7936975955963135,-0.8068436980247498,0.008690723218023777,0.4102138578891754,-0.30387791991233826,7.778164386749268,4.15234375,2,G1,7.6,270,0,2.32356493135381,[19300|0|0|0]
19300,0.793590247631073,-0.8070045113563538,0.008704571053385735,0.4120127260684967,-0.29834210872650146,7.78805685043335,4.15234375,2,G1,7.6,270,0,2.323758777364362,[19400|0|0|0]
19400,0.7935324311256409,-0.8064677119255066,0.008814333006739616,0.4009799063205719,-0.2925902009010315,7.784364700317383,4.15234375,2,G1,7.6,270,0,2.324309725695571,[19500|0|0|0]
19500,0.7937315702438354,-0.8065257668495178,0.008648265153169632,0.40552768111228943,-0.2984418272972107,7.792128562927246,4.15234375,2,G1,7.6,270,0,2.3245754422637157,[19600|0|0|0]
19600,0.7935994863510132,-0.8066909909248352,0.0085946936160326,0.4058188796043396,-0.2957659363746643,7.805316925048828,4.15234375,2,G1,7.6,270,0,2.3247936510155998,[19700|0|0|0]
19700,0.7934675812721252,-0.8065909147262573,0.008475634269416332,0.4070793688297272,-0.2899840176105499,7.8170905113220215,4.15234375,2,G1,7.6,270,0,2.3249975856212335,[19800|0|0|0]
19800,0.7934348583221436,-0.8063792586326599,0.00855205487459898,0.3973461389541626,-0.29752570390701294,7.785611629486084,4.15234375,2,G1,7.6,270,0,2.325224982196205,[19900|0|0|0]
19900,0.7935973405838013,-0.8065683841705322,0.008832599967718124,0.40010374784469604,-0.3081568777561188,7.805968284606934,4.15234375,2,G1,7.6,270,0,2.3256003147203783,[20000|0|0|0]
20000,0.7936988472938538,-0.8066718578338623,0.0088725034147501,0.4014025926589966,-0.31498983502388,7.806585788726807,4.15234375,2,G1,7.6,270,0,2.3257506566515675,[20100|0|0|0]
20101,0.7935829758644104,-0.8064830303192139,0.00863971933722496,0.39308828115463257,-0.3115580677986145,7.78576135635376,4.15234375,2,G1,7.6,270,0,2.32607201384411,[20200|0|0|0]
20200,0.793539822101593,-0.8066626787185669,0.00867858249694109,0.3971077501773834,-0.3057909905910492,7.799227714538574,4.15234375,2,G1,7.6,270,0,2.326260815697434,[20300|0|0|0]
20300,0.7934730648994446,-0.8066288232803345,0.008656805381178856,0.4004991054534912,-0.3014027178287506,7.82752799987793,4.15234375,2,G1,7.6,270,0,2.32633877054018,[20400|0|0|0]
20400,0.7937027215957642,-0.8066607117652893,0.008831891231238842,0.4028414189815521,-0.30532413721084595,7.8071722984313965,4.15234375,2,G1,7.6,270,0,2.3266293116362893,[20500|0|0|0]
20501,0.793669581413269,-0.8064454793930054,0.008857625536620617,0.40285345911979675,-0.3098745048046112,7.798611164093018,4.15234375,2,G1,7.6,270,0,2.3268485956992038,[20600|0|0|0]
20601,0.7935972213745117,-0.8067219853401184,0.008428279310464859,0.40424996614456177,-0.31048402190208435,7.773738384246826,4.15234375,2,G1,7.6,270,0,2.3273643763656815,[20700|0|0|0]
20700,0.7934931516647339,-0.806804358959198,0.008754122070968151,0.4141554832458496,-0.3070518970489502,7.802770137786865,4.15234375,2,G1,7.6,270,0,2.327716213575462,[20800|0|0|0]
20801,0.7935852408409119,-0.8065916299819946,0.00842975452542305,0.41068822145462036,-0.3048087954521179,7.785827159881592,4.15234375,2,G1,7.6,270,0,2.3281148968315866,[20900|0|0|0]
20901,0.7938072085380554,-0.8067141771316528,0.008784154430031776,0.41623780131340027,-0.3091813623905182,7.821948528289795,4.15234375,2,G1,7.6,270,0,2.328550656805484,[21000|0|0|0]
21001,0.7935565710067749,-0.8065259456634521,0.008257981389760971,0.4074782431125641,-0.3059553802013397,7.838870048522949,4.15234375,2,G1,7.6,270,0,2.329163117682614,[21100|0|0|0]
21101,0.793690025806427,-0.8068023920059204,0.008702781982719898,0.41335758566856384,-0.3155564069747925,7.816850662231445,4.15234375,2,G1,7.6,270,0,2.329703562250827,[21200|0|0|0]
21201,0.7937231659889221,-0.8064701557159424,0.00893968716263771,0.40621712803840637,-0.32525086402893066,7.813759803771973,4.15234375,2,G1,7.6,270,0,2.330112956056772,[21300|0|0|0]
21301,0.793705403804779,-0.8066521883010864,0.008697434328496456,0.4102514088153839,-0.3310586214065552,7.822673320770264,4.15234375,2,G1,7.6,270,0,2.3304164981343978,[21400|0|0|0]
21402,0.7937082648277283,-0.8064761757850647,0.008300918154418468,0.407330721616745,-0.3319201171398163,7.8047356605529785,4.15234375,2,G1,7.6,270,0,2.330850334125936,[21500|0|0|0]
21502,0.793594241142273,-0.8065357208251953,0.00846802070736885,0.4119434654712677,-0.32520151138305664,7.8114471435546875,4.15234375,2,G1,7.6,270,0,2.331061213892276,[21600|0|0|0]
21602,0.7937315106391907,-0.8068203926086426,0.008643862791359425,0.4170626997947693,-0.3309970200061798,7.82298469543457,4.15234375,2,G1,7.6,270,0,2.3314228786231763,[21700|0|0|0]
21702,0.7937561273574829,-0.8066259026527405,0.008438818156719208,0.408884197473526,-0.33192625641822815,7.840416431427002,4.15234375,2,G1,7.6,270,0,2.331706560889032,[21800|0|0|0]
21802,0.7937911152839661,-0.8067413568496704,0.008844602853059769,0.40810680389404297,-0.3351757228374481,7.805904388427734,4.15234375,2,G1,7.6,270,0,2.3321298988702863,[21900|0|0|0]
21900,0.7937458157539368,-0.8065282702445984,0.008500154130160809,0.4034019410610199,-0.3416905105113983,7.819368362426758,4.15234375,2,G1,7.6,270,0,2.3325374560704297,[22000|0|0|0]
22002,0.7935086488723755,-0.8066569566726685,0.008466893807053566,0.4075385332107544,-0.3359009623527527,7.807890892028809,4.15234375,2,G1,7.6,270,0,2.332809328422044,[22100|0|0|0]
22102,0.7937580347061157,-0.8068027496337891,0.008860460482537746,0.41240474581718445,-0.34420859813690186,7.814034938812256,4.15234375,2,G1,7.6,270,0,2.333297532897274,[22200|0|0|0]
22200,0.7936389446258545,-0.8067206144332886,0.008779027499258518,0.41217678785324097,-0.34059658646583557,7.835907459259033,4.15234375,2,G1,7.6,270,0,2.333463544852095,[22300|0|0|0]
22300,0.7936536073684692,-0.8065046072006226,0.00856866780668497,0.40136778354644775,-0.3422054648399353,7.820407390594482,4.15234375,2,G1,7.6,270,0,2.333765414560487,[22400|0|0|0]
22400,0.7938286066055298,-0.8067467212677002,0.008867715485394001,0.4065949618816376,-0.3422645330429077,7.8040313720703125,4.15234375,2,G1,7.6,270,0,2.3341881124059864,[22500|0|0|0]
22500,0.7936373353004456,-0.8064003586769104,0.008397574536502361,0.39814555644989014,-0.3366989195346832,7.779367446899414,4.15234375,2,G1,7.6,270,0,2.3348025912650794,[22600|0|0|0]
22600,0.7936086654663086,-0.8064157366752625,0.00847403984516859,0.39932745695114136,-0.3342970907688141,7.819298267364502,4.15234375,2,G1,7.6,270,0,2.3348856899152017,[22700|0|0|0]
22700,0.7938262224197388,-0.8067874908447266,0.008685434237122536,0.4125775396823883,-0.3352135419845581,7.8267011642456055,4.15234375,2,G1,7.6,270,0,2.3353655021487363,[22800|0|0|0]
22800,0.7936365008354187,-0.8067208528518677,0.008562060073018074,0.4103753864765167,-0.32981815934181213,7.8227362632751465,4.15234375,2,G1,7.6,270,0,2.3356014175700586,[22900|0|0|0]
22900,0.7939643859863281,-0.8067833781242371,0.008930044248700142,0.40715616941452026,-0.3448617160320282,7.819270133972168,4.15234375,2,G1,7.6,270,0,2.33609823789515,[23000|0|0|0]
23000,0.7935864925384521,-0.8066403865814209,0.008503486402332783,0.39618805050849915,-0.327489972114563,7.800110816955566,4.15234375,2,G1,7.6,270,0,2.3366857765198907,[23100|0|0|0]
23100,0.793392539024353,-0.8064707517623901,0.008426982909440994,0.39013803005218506,-0.32334771752357483,7.829529762268066,4.15234375,2,G1,7.6,270,0,2.336954564023104,[23200|0|0|0]
23200,0.793451189994812,-0.8066996335983276,0.00854154210537672,0.3986305892467499,-0.32401904463768005,7.843332767486572,4.15234375,2,G1,7.6,270,0,2.337217148562884,[23300|0|0|0]
23300,0.7935400009155273,-0.8067196011543274,0.008854726329445839,0.3999083638191223,-0.3226872384548187,7.82644510269165,4.15234375,2,G1,7.6,270,0,2.337543293379088,[23400|0|0|0]
23400,0.7935585379600525,-0.8066413998603821,0.00880930945277214,0.400356650352478,-0.32224544882774353,7.835497856140137,4.15234375,2,G1,7.6,270,0,2.337635606742591,[23500|0|0|0]
23500,0.7937800884246826,-0.8068613409996033,0.008736290968954563,0.4072563052177429,-0.32849007844924927,7.820966720581055,4.15234375,2,G1,7.6,270,0,2.3379562161811274,[23600|0|0|0]
23600,0.7937374711036682,-0.8066093325614929,0.008701183833181858,0.40466752648353577,-0.3222147524356842,7.815937042236328,4.15234375,2,G1,7.6,270,0,2.3382142026147075,[23700|0|0|0]
23700,0.7934927344322205,-0.8063708543777466,0.008511939086019993,0.39841872453689575,-0.3122550845146179,7.83390998840332,4.15234375,2,G1,7.6,270,0,2.338604819379328,[23800|0|0|0]
23800,0.7934806942939758,-0.8066468238830566,0.008391744457185268,0.4085156321525574,-0.3076525926589966,7.8165788650512695,4.15234375,2,G1,7.6,270,0,2.338906068249186,[23900|0|0|0]
23900,0.7937710881233215,-0.8066620826721191,0.008736928924918175,0.40836361050605774,-0.3123040199279785,7.8176164627075195,4.15234375,2,G1,7.6,270,0,2.3393574148161718,[24000|0|0|0]
24000,0.7937752604484558,-0.806754469871521,0.00869379099458456,0.4053651988506317,-0.32123711705207825,7.810826301574707,4.15234375,2,G1,7.6,270,0,2.3394594622754434,[24100|0|0|0]
24100,0.7937132120132446,-0.8065500259399414,0.008559898473322392,0.39603742957115173,-0.32090064883232117,7.803854465484619,4.15234375,2,G1,7.6,270,0,2.3397116021904147,[24200|0|0|0]
24200,0.7937016487121582,-0.8065291047096252,0.008693354204297066,0.39752888679504395,-0.3220716416835785,7.8236236572265625,4.15234375,2,G1,7.6,270,0,2.339847181834683,[24300|0|0|0]
24300,0.7934485077857971,-0.8065254092216492,0.008440621197223663,0.40213316679000854,-0.3068031072616577,7.83275032043457,4.15234375,2,G1,7.6,270,0,2.3402049079283564,[24400|0|0|0]
24400,0.7934550046920776,-0.8065096139907837,0.008532564155757427,0.40517324209213257,-0.30555275082588196,7.827569484710693,4.15234375,2,G1,7.6,270,0,2.3402984237384277,[24500|0|0|0]
24500,0.7937510013580322,-0.8068246245384216,0.008674854412674904,0.40973079204559326,-0.31053438782691956,7.815983295440674,4.15234375,2,G1,7.6,270,0,2.3407534975660567,[24600|0|0|0]
24600,0.7937503457069397,-0.8066363334655762,0.008741723373532295,0.4021660387516022,-0.3099590837955475,7.832065582275391,4.15234375,2,G1,7.6,270,0,2.3409533110188514,[24700|0|0|0]
24700,0.7935537099838257,-0.8063781261444092,0.0085655702278018,0.3928752541542053,-0.3046415150165558,7.845611572265625,4.15234375,2,G1,7.6,270,0,2.341322589449117,[24800|0|0|0]
24800,0.7935793399810791,-0.8067228198051453,0.008604412898421288,0.39939984679222107,-0.30474409461021423,7.841198444366455,4.15234375,2,G1,7.6,270,0,2.3416704103363157,[24900|0|0|0]
24900,0.7937092185020447,-0.8068563342094421,0.008760076016187668,0.40733808279037476,-0.3075590431690216,7.8452301025390625,4.15234375,2,G1,7.6,270,0,2.34191315615522,[25000|0|0|0]
25000,0.7935394048690796,-0.8066913485527039,0.008542832918465137,0.40679606795310974,-0.3027234673500061,7.8564910888671875,4.15234375,2,G1,7.6,270,0,2.3422344838701443,[25100|0|0|0]
25100,0.7935351729393005,-0.8066458106040955,0.008877763524651527,0.4064759612083435,-0.29996010661125183,7.839705944061279,4.15234375,2,G1,7.6,270,0,2.342572522514316,[25200|0|0|0]
25200,0.7939087748527527,-0.8070997595787048,0.008621313609182835,0.4170807898044586,-0.3048269748687744,7.8178391456604,4.15234375,2,G1,7.6,270,0,2.343213938619842,[25300|0|0|0]
25300,0.7932217717170715,-0.8064584732055664,0.008344628848135471,0.3990362286567688,-0.2837441861629486,7.809672832489014,4.15234375,2,G1,7.6,270,0,2.344193620189437,[25400|0|0|0]
25400,0.7936500310897827,-0.8066343665122986,0.008592432364821434,0.4086623787879944,-0.29253140091896057,7.791451454162598,4.15234375,2,G1,7.6,270,0,2.344718740298126,[25500|0|0|0]
25500,0.7935231924057007,-0.8066864013671875,0.008498488925397396,0.4206051528453827,-0.2806148827075958,7.8877949714660645,3.162109375,2,E2,7.6,270,0,2.344884936109487,[25500|0|0|0]
25600,0.7937575578689575,-0.8064901828765869,0.009129844605922699,0.2458389550447464,0.11366845667362213,8.197513580322266,3.44140625,2,E2,7.6,270,0,2.3455863909275276,[25500|0|0|0]
25700,0.792149007320404,-0.8029069900512695,0.03138444572687149,-3.1837069988250732,4.485592842102051,7.752102851867676,3.552734375,2,E2,7.6,270,0,2.3681849301887983,[25500|0|0|0]
25800,0.781517744064331,-0.7879421710968018,0.0824919044971466,-4.752695083618164,7.22616720199585,6.440589904785156,3.578125,2,E2,7.6,270,0,2.4224890912330066,[25500|0|0|0]
25900,0.7625333070755005,-0.7643490433692932,0.14610201120376587,-1.1153939962387085,2.156848669052124,3.748910903930664,3.630859375,2,E2,7.6,270,0,2.4929397136502494,[25500|0|0|0]
26000,0.7402136921882629,-0.7367120981216431,0.21935343742370605,1.210464596748352,-0.7839738130569458,1.5672721862792969,3.673828125,2,E2,7.6,270,0,2.5743506305753865,[25500|0|0|0]
26100,0.7219154834747314,-0.7113196849822998,0.2986915409564972,3.864941358566284,-2.6844630241394043,0.018898462876677513,3.6796875,2,E2,7.6,270,0,2.6596391629777143,[25500|0|0|0]
26200,0.7093960046768188,-0.691982090473175,0.38059118390083313,4.81616735458374,-3.4664955139160156,-0.9683371186256409,3.6796875,2,E2,7.6,270,0,2.7447169592889753,[25500|0|0|0]
26300,0.7038312554359436,-0.6813086867332458,0.4648950695991516,5.1828765869140625,-3.158168077468872,-1.7866922616958618,3.6796875,2,E2,7.6,270,0,2.8298758292048243,[25500|0|0|0]
26400,0.7037034630775452,-0.679449200630188,0.5513075590133667,4.3302083015441895,-1.6625972986221313,-2.280451774597168,3.66796875,2,E2,7.6,270,0,2.916308417655108,[25500|0|0|0]
26500,0.7066218256950378,-0.6847807168960571,0.6387308835983276,2.3640975952148438,-0.6266502737998962,-2.4406607151031494,3.66796875,2,E2,7.6,270,0,3.0039427692961618,[25500|0|0|0]
26600,0.7102291584014893,-0.6922605633735657,0.7285192608833313,0.9509127736091614,0.8296721577644348,-2.5282158851623535,3.6640625,2,E2,7.6,270,0,3.0941143482335205,[25500|0|0|0]
26700,0.7120097279548645,-0.6995825171470642,0.820328950881958,-0.12893515825271606,1.1471501588821411,-2.297626495361328,3.642578125,2,E2,7.6,270,0,3.186232753629183,[25500|0|0|0]
26800,0.7127282023429871,-0.7053024172782898,0.911117672920227,-0.5106587409973145,1.5465114116668701,-1.9687297344207764,3.720703125,2,E2,7.6,270,0,3.277204317935287,[25500|0|0|0]
26900,0.7107022404670715,-0.7081277966499329,0.9961555600166321,-0.4202514886856079,0.8114326596260071,-1.7629109621047974,3.748046875,2,E2,7.6,270,0,3.3623132453867437,[25500|0|0|0]
27000,0.7093155980110168,-0.7111199498176575,1.0695812702178955,0.03473692759871483,0.32955503463745117,-1.6795189380645752,3.75390625,2,E2,7.6,270,0,3.435812977879046,[25500|0|0|0]
27100,0.7053409218788147,-0.7119289636611938,1.1259099245071411,0.44298121333122253,-0.08443533629179001,-1.966381311416626,3.736328125,2,E2,7.6,270,0,3.4922874840547733,[25500|0|0|0]
27200,0.7017076015472412,-0.7136101126670837,1.1693050861358643,0.421067476272583,-0.44458186626434326,0.9374247193336487,3.7109375,2,E2,7.6,270,0,3.5358669210795313,[25500|0|0|0]
27300,0.6987265348434448,-0.7152119278907776,1.200128436088562,0.6521260142326355,-0.44748181104660034,4.9675116539001465,3.701171875,2,E2,7.6,270,0,3.56687549203999,[25500|0|0|0]
27400,0.7038626074790955,-0.7091788053512573,1.2249799966812134,0.38052627444267273,-0.7839683890342712,7.076974391937256,3.6796875,2,E2,7.6,270,0,3.5929595460497827,[25500|0|0|0]
27500,0.7045056223869324,-0.7140762805938721,1.2398264408111572,0.5691260695457458,-0.07847701013088226,7.424383640289307,3.673828125,2,E2,7.6,270,0,3.6086061314672873,[25500|0|0|0]
27600,0.7036415934562683,-0.7165715098381042,1.2489224672317505,0.7307772040367126,0.5015206336975098,7.051508903503418,3.65234375,2,E2,7.6,270,0,3.6180776895027122,[25500|0|0|0]
27700,0.7016090154647827,-0.7216172814369202,1.2552860975265503,0.5739759802818298,0.4083750545978546,6.357833385467529,3.60546875,2,E2,7.6,270,0,3.6264494858958276,[25500|0|0|0]
27800,0.7004633545875549,-0.7281614542007446,1.2596228122711182,0.268314391374588,-0.18426074087619781,5.610718727111816,3.578125,2,E2,7.6,270,0,3.6343833267553447,[25500|0|0|0]
27900,0.7053377032279968,-0.7289453744888306,1.2647205591201782,0.012039797380566597,-0.4057655930519104,-0.262535035610199,3.5625,2,E2,7.6,270,0,3.641479863137535,[25500|0|0|0]
28000,0.7055760025978088,-0.7390427589416504,1.2662084102630615,0.19720348715782166,-0.020543090999126434,-5.0109100341796875,3.58984375,2,E2,7.6,270,0,3.6516890580323875,[25500|0|0|0]
28100,0.7060772776603699,-0.7466638088226318,1.2665152549743652,0.10654650628566742,0.26664379239082336,-6.629437446594238,3.568359375,2,E2,7.6,270,0,3.6593327372285342,[25500|0|0|0]
28200,0.7005316615104675,-0.7624350190162659,1.2639998197555542,-0.38785773515701294,0.6643425226211548,-6.653436660766602,3.57421875,2,E2,7.6,270,0,3.676238722671385,[25500|0|0|0]
28300,0.6912031173706055,-0.778443455696106,1.2608884572982788,-1.2494834661483765,0.612392783164978,-6.009260654449463,3.583984375,2,E2,7.6,270,0,3.6950262812419483,[25500|0|0|0]
28400,0.6859000325202942,-0.7815818786621094,1.260345220565796,-2.61152720451355,-0.7296487092971802,-5.040222644805908,3.60546875,2,E2,7.6,270,0,3.701212355424389,[25500|0|0|0]
28500,0.6874590516090393,-0.781538724899292,1.2620185613632202,-2.81017804145813,-1.7409677505493164,-3.8642334938049316,3.7421875,2,E2,7.6,270,208.07248693585296,3.7034998151924814,[25500|0|0|0]
28600,0.6961761116981506,-0.7737993001937866,1.2554808855056763,-15.146843910217285,-14.47935676574707,-5.868547439575195,3.736328125,2,E2,7.6,270,208.07248693585296,3.716864957802558,[25500|0|0|0]
28700,0.7228521108627319,-0.7504569292068481,1.2295511960983276,-16.020309448242188,-14.237505912780762,-6.6733784675598145,3.60546875,2,E2,7.6,270,208.07248693585296,3.760783336728495,[25500|0|0|0]
28800,0.7743648886680603,-0.7092406153678894,1.1873102188110352,-18.504478454589844,-14.340860366821289,-8.580180168151855,3.505859375,2,E2,7.6,270,208.07248693585296,3.839120115867532,[25500|0|0|0]
28900,0.8536467552185059,-0.6448238492012024,1.1404995918273926,-12.925298690795898,-9.435138702392578,-5.513980865478516,3.48828125,2,E2,7.6,270,208.07248693585296,3.951487232613037,[25500|0|0|0]
29000,0.974475622177124,-0.54078608751297,1.102218508720398,-8.80536937713623,-3.303546905517578,-4.803952693939209,3.5,2,E2,7.6,270,208.07248693585296,4.115465622260714,[25500|0|0|0]
29100,1.0738023519515991,-0.4450305700302124,1.073484182357788,-5.361294746398926,4.468318462371826,-0.6299826502799988,3.53125,2,E2,7.6,270,208.07248693585296,4.25639319191121,[25500|0|0|0]
29200,1.1614290475845337,-0.3579707443714142,1.0564374923706055,-2.9949679374694824,8.087010383605957,2.1024482250213623,3.541015625,2,E2,7.6,270,208.07248693585296,4.381086578547416,[25500|0|0|0]
29300,1.2314720153808594,-0.28557026386260986,1.0486043691635132,-1.046949863433838,9.716312408447266,2.962815999984741,3.568359375,2,E2,7.6,270,208.07248693585296,4.482127187882477,[25500|0|0|0]
29400,1.2967180013656616,-0.20979005098342896,1.0445934534072876,-0.73021000623703,8.906027793884277,2.47517466545105,3.578125,2,E2,7.6,270,208.07248693585296,4.582205990814699,[25500|0|0|0]
29500,1.3478326797485352,-0.1381305605173111,1.0406471490859985,-1.2387793064117432,8.3491849899292,1.8378400802612305,3.537109375,2,E2,7.6,270,208.07248693585296,4.670315957548573,[25500|0|0|0]
29600,1.3900437355041504,-0.07519110292196274,1.0354148149490356,-2.494593620300293,6.488147258758545,1.065266728401184,3.53125,2,E2,7.6,270,208.07248693585296,4.746279935004478,[25500|0|0|0]
29700,1.4255661964416504,-0.013003638945519924,1.0294532775878906,-3.1884360313415527,5.162792205810547,0.22569403052330017,3.552734375,2,E2,7.6,270,208.07248693585296,4.818145544544688,[25500|0|0|0]
29800,1.4566216468811035,0.049143239855766296,1.023563027381897,-2.258514642715454,4.2223310470581055,-0.4640337824821472,3.537109375,2,E2,7.6,270,208.07248693585296,4.8878690742475674,[25500|0|0|0]
29900,1.4855329990386963,0.1123967170715332,1.0179147720336914,-0.8938826322555542,3.9082305431365967,-0.9010822772979736,3.525390625,2,E2,7.6,270,208.07248693585296,4.957645656651296,[25500|0|0|0]
30000,1.5110307931900024,0.1743146777153015,1.012993574142456,1.3597676753997803,4.058013439178467,-1.3205128908157349,3.568359375,2,E2,7.6,270,208.07248693585296,5.024788709497814,[25500|0|0|0]
30100,1.5348377227783203,0.23740099370479584,1.0087370872497559,3.2490808963775635,4.125253200531006,-1.7158716917037964,3.55859375,2,E2,7.6,270,208.07248693585296,5.092351797365504,[25500|0|0|0]
30200,1.5533921718597412,0.2862507998943329,1.004366397857666,5.440756797790527,5.184562683105469,-1.7590670585632324,3.5625,2,E2,7.6,270,208.07248693585296,5.144789132073062,[25500|0|0|0]
30300,1.5658732652664185,0.32624053955078125,0.9997777342796326,5.891385555267334,5.206681728363037,-1.3403213024139404,3.568359375,2,E2,7.6,270,208.07248693585296,5.186931898995146,[25500|0|0|0]
30400,1.5719012022018433,0.3550718426704407,0.9963420629501343,5.249405860900879,4.895431995391846,-0.711722195148468,3.509765625,2,E2,7.6,270,208.07248693585296,5.216586306774758,[25500|0|0|0]
30500,1.571405291557312,0.37575817108154297,0.9955699443817139,4.023848533630371,4.191535472869873,0.19410660862922668,3.5625,2,E2,7.6,270,208.07248693585296,5.237292979070978,[25500|0|0|0]
30600,1.5654609203338623,0.38984131813049316,0.9968103170394897,2.775114059448242,3.433192491531372,1.0040079355239868,3.583984375,2,E2,7.6,270,208.07248693585296,5.252629507503928,[25500|0|0|0]
30700,1.5556037425994873,0.400092214345932,0.9982550144195557,1.8324514627456665,2.395519971847534,1.5409551858901978,3.537109375,2,E2,7.6,270,208.07248693585296,5.266923981143301,[25500|0|0|0]
30800,1.5424044132232666,0.4073740243911743,1.000408411026001,1.0667272806167603,1.4788968563079834,1.9402011632919312,3.57421875,2,E2,7.6,270,208.07248693585296,5.282151724589446,[25500|0|0|0]
30900,1.5283626317977905,0.4135672450065613,1.0016889572143555,0.9917887449264526,0.6875762939453125,2.3082242012023926,3.568359375,2,E2,7.6,270,208.07248693585296,5.29755196503342,[25500|0|0|0]
31000,1.5140224695205688,0.41925421357154846,1.0021424293518066,0.8121956586837769,0.016653504222631454,2.4210240840911865,3.578125,2,E2,7.6,270,208.07248693585296,5.312985289450915,[25500|0|0|0]
31100,1.5002388954162598,0.4233074188232422,1.0011640787124634,0.7432570457458496,-0.3864094018936157,2.350210666656494,3.55859375,2,E2,7.6,270,208.07248693585296,5.327385725481634,[25500|0|0|0]
31200,1.4868255853652954,0.4271848201751709,0.9987131953239441,0.7187700867652893,-0.6630092263221741,2.169814109802246,3.546875,2,E2,7.6,270,208.07248693585296,5.3415616895459,[25500|0|0|0]
31300,1.475386381149292,0.4304255545139313,0.9974743127822876,0.7121022939682007,-0.7453983426094055,1.9908894300460815,3.57421875,2,E2,7.6,270,208.07248693585296,5.353515458077283,[25500|0|0|0]
31400,1.463165283203125,0.4292410910129547,0.9937411546707153,0.9208713173866272,-0.8237223625183105,1.97584068775177,3.568359375,2,E2,7.6,270,208.07248693585296,5.366348799741906,[25500|0|0|0]
31500,1.4556010961532593,0.4340924620628357,0.9965724349021912,0.63626629114151,-1.06999671459198,1.7816535234451294,3.80078125,2,E2,7.6,270,0,5.37577052328583,[25500|0|0|0]
31600,1.4478914737701416,0.43449825048446655,0.9836422801017761,1.1868815422058105,-1.1561555862426758,1.4316942691802979,3.927734375,2,E2,7.6,270,0,5.390830132998438,[25500|0|0|0]
31700,1.4411839246749878,0.43382108211517334,0.9331397414207458,0.5663233399391174,-0.9010112881660461,1.2318109273910522,3.837890625,2,E2,7.6,270,0,5.4417806598366685,[25500|0|0|0]
31800,1.4373061656951904,0.4289810359477997,0.8487048149108887,0.9431376457214355,-1.007390022277832,1.606530785560608,3.701171875,2,E2,7.6,270,0,5.5264430474496615,[25500|0|0|0]
31900,1.4318181276321411,0.42484140396118164,0.7276864051818848,-0.08919085562229156,-1.3294405937194824,1.9657965898513794,3.60546875,2,E2,7.6,270,0,5.647656539306398,[25500|0|0|0]
32000,1.4257265329360962,0.4209849536418915,0.5951961874961853,-0.3483698070049286,-0.9683409333229065,2.998469114303589,3.5,2,E2,7.6,270,0,5.780342776412626,[25500|0|0|0]
32100,1.4197300672531128,0.41816166043281555,0.4645952880382538,-1.6476670503616333,-0.5334959626197815,4.833597183227539,3.3828125,2,E2,7.6,270,0,5.911111746449299,[25500|0|0|0]
32200,1.4130127429962158,0.4195869266986847,0.3489154577255249,-2.6897940635681152,0.1909392923116684,6.409937381744385,3.404296875,2,E2,7.6,270,0,6.026995209334573,[25500|0|0|0]
32300,1.403477668762207,0.4247388541698456,0.25446850061416626,-1.6525379419326782,0.4741615355014801,7.0891194343566895,3.388671875,2,E2,7.6,270,0,6.122061963275743,[25500|0|0|0]
32400,1.3918957710266113,0.4327652156352997,0.1823129951953888,-0.16605661809444427,-0.8367530107498169,7.200869083404541,3.435546875,2,E2,7.6,270,0,6.195580530969702,[25500|0|0|0]
32500,1.3806393146514893,0.4397464990615845,0.1346685290336609,1.2111459970474243,-1.9117742776870728,7.263560771942139,3.46875,2,E2,7.6,270,0,6.245031934228246,[25500|0|0|0]
