time.ms,stateEstimate.x,stateEstimate.y,stateEstimate.z,stabilizer.roll,stabilizer.pitch,stabilizer.yaw,pm.vbat,drone_id,node_name,wind_speed,global_wind_direction,relative_wind_direction,travel_dist,waiting_time
0,1.2941290140151978,-0.3177323341369629,0.001794103649444878,-0.20853383839130402,0.6285877227783203,-10.16440200805664,4.13671875,0,"['C1', 'F2', 'F1']",7.6,180,0,0.05470793322149969,[100|0|0]
100,1.2957903146743774,-0.3197801113128662,-0.005938998889178038,-0.045966483652591705,1.03241765499115,-8.382670402526855,4.1328125,0,"['C1', 'F2', 'F1']",7.6,180,0,0.062878256722757,[200|0|0]
200,1.2936756610870361,-0.3177182376384735,0.004714819137006998,-0.5757151246070862,0.8905735611915588,-9.348516464233398,4.13671875,0,"['C1', 'F2', 'F1']",7.6,180,0,0.07393388521591261,[300|0|0]
300,1.29351806640625,-0.31755271553993225,0.003532804548740387,-0.7665975093841553,0.884848952293396,-9.604516983032227,4.1328125,0,"['C1', 'F2', 'F1']",7.6,180,0,0.07513779224529349,[400|0|0]
400,1.293458342552185,-0.3174714744091034,0.002414141083136201,-0.7224159240722656,0.8371773958206177,-9.776893615722656,4.13671875,0,"['C1', 'F2', 'F1']",7.6,180,0,0.07626099080715167,[500|0|0]
500,1.2937320470809937,-0.3172141909599304,0.0016660179244354367,-0.6199095845222473,0.7918579578399658,-9.882015228271484,4.13671875,0,"['C1', 'F2', 'F1']",7.6,180,0,0.07709812711797152,[600|0|0]
600,1.2937252521514893,-0.3172624111175537,0.0017509829485788941,-0.5046912431716919,0.76414954662323,-9.941808700561523,4.13671875,0,"['C1', 'F2', 'F1']",7.6,180,0,0.07719605775666996,[700|0|0]
700,1.2937469482421875,-0.31778693199157715,0.0016437922604382038,-0.39956074953079224,0.7474007606506348,-9.97879695892334,4.13671875,0,"['C1', 'F2', 'F1']",7.6,180,0,0.07773185875635359,[800|0|0]
800,1.2938296794891357,-0.31744709610939026,0.0016479408368468285,-0.35622119903564453,0.7246758937835693,-10.03813362121582,4.13671875,0,"['C1', 'F2', 'F1']",7.6,180,0,0.0780816445432712,[900|0|0]
900,1.293712854385376,-0.3175840973854065,0.0016656088409945369,-0.3046906888484955,0.7100963592529297,-10.052655220031738,4.13671875,0,"['C1', 'F2', 'F1']",7.6,180,0,0.07826255781771263,[1000|0|0]
1000,1.2938346862792969,-0.31742891669273376,0.001374861691147089,-0.26705312728881836,0.698861300945282,-10.09194564819336,4.13671875,0,"['C1', 'F2', 'F1']",7.6,180,0,0.0786139236710609,[1100|0|0]
1100,1.2937977313995361,-0.31756579875946045,0.0015053616371005774,-0.23542265594005585,0.6891100406646729,-10.10934066772461,4.13671875,0,"['C1', 'F2', 'F1']",7.6,180,0,0.07880662187868973,[1200|0|0]
1200,1.29377019405365,-0.31773892045021057,0.0017087273299694061,-0.21511425077915192,0.6769104599952698,-10.088336944580078,4.13671875,0,"['C1', 'F2', 'F1']",7.6,180,0,0.0790751121583325,[1300|0|0]
1300,1.2938461303710938,-0.31799033284187317,0.001593587570823729,-0.2030719667673111,0.6714780330657959,-10.096940040588379,4.13671875,0,"['C1', 'F2', 'F1']",7.6,180,0,0.07936187282356497,[1400|0|0]
1400,1.2939566373825073,-0.31762146949768066,0.0016690012998878956,-0.20974278450012207,0.6647735834121704,-10.112171173095703,4.1328125,0,"['C1', 'F2', 'F1']",7.6,180,0,0.0797542491694267,[1500|0|0]
1500,1.293720006942749,-0.31786566972732544,0.0014979902189224958,-0.1957056224346161,0.660181999206543,-10.128942489624023,4.13671875,0,"['C1', 'F2', 'F1']",7.6,180,0,0.08013487038138384,[1600|0|0]
1600,1.293752670288086,-0.31758126616477966,0.0014466376742348075,-0.20167015492916107,0.6548753380775452,-10.140253067016602,4.13671875,0,"['C1', 'F2', 'F1']",7.6,180,0,0.08042571288921793,[1700|0|0]
1700,1.293776512145996,-0.3175071179866791,0.001216137781739235,-0.200515016913414,0.646755039691925,-10.154332160949707,4.13671875,0,"['C1', 'F2', 'F1']",7.6,180,0,0.08066901637654336,[1800|0|0]
1800,1.284838080406189,-0.3295457661151886,-0.0022567501291632652,0.043322090059518814,0.7339600920677185,-10.203681945800781,4.13671875,0,"['C1', 'F2', 'F1']",7.6,180,0,0.09606010344571915,[1900|0|0]
1900,1.2849535942077637,-0.32947027683258057,-0.0024130274541676044,0.04072008654475212,0.736411452293396,-10.21738052368164,4.13671875,0,"['C1', 'F2', 'F1']",7.6,180,0,0.0962685852733527,[2000|0|0]
2000,1.2847700119018555,-0.3292926549911499,-0.0026350251864641905,0.03297537565231323,0.7385099530220032,-10.224204063415527,4.13671875,0,"['C1', 'F2', 'F1']",7.6,180,0,0.09660701543563234,[2100|0|0]
2100,1.284740686416626,-0.3296201825141907,-0.0025653778575360775,0.04083474352955818,0.7300196290016174,-10.240604400634766,4.1328125,0,"['C1', 'F2', 'F1']",7.6,180,0,0.09694314786914626,[2200|0|0]
2200,1.2849026918411255,-0.3296205401420593,-0.002459293929859996,0.04514562711119652,0.7231225371360779,-10.224053382873535,4.1328125,0,"['C1', 'F2', 'F1']",7.6,180,0,0.09713679622358322,[2300|0|0]
2300,1.2846763134002686,-0.32916873693466187,-0.002901190659031272,0.03313757851719856,0.731243908405304,-10.237062454223633,4.1328125,0,"['C1', 'F2', 'F1']",7.6,180,0,0.09780809798579729,[2400|0|0]
2400,1.2846484184265137,-0.32934412360191345,-0.0025719073601067066,0.032130103558301926,0.7308297753334045,-10.239167213439941,4.1328125,0,"['C1', 'F2', 'F1']",7.6,180,0,0.09818221842571076,[2500|0|0]
2500,1.2849559783935547,-0.32954543828964233,-0.002364721614867449,0.0356399267911911,0.7218327522277832,-10.205470085144043,4.1328125,0,"['C1', 'F2', 'F1']",7.6,180,0,0.09860417419335944,[2600|0|0]
2600,1.2847687005996704,-0.3291884958744049,-0.0028126174584031105,0.029386907815933228,0.720335066318512,-10.218304634094238,4.1328125,0,"['C1', 'F2', 'F1']",7.6,180,0,0.09920674497470734,[2700|0|0]
2700,1.2848674058914185,-0.32947656512260437,-0.002447132021188736,0.035359419882297516,0.7129579186439514,-10.195008277893066,4.13671875,0,"['C1', 'F2', 'F1']",7.6,180,0,0.09968246151971398,[2800|0|0]
2800,1.2848979234695435,-0.3296363949775696,-0.002361839637160301,0.04684695228934288,0.7185705304145813,-10.177968978881836,4.1328125,0,"['C1', 'F2', 'F1']",7.6,180,0,0.099866177865982,[2900|0|0]
2900,1.2848070859909058,-0.32955053448677063,-0.0027419899124652147,0.04119531810283661,0.7270064949989319,-10.19552993774414,4.13671875,0,"['C1', 'F2', 'F1']",7.6,180,0,0.10026634995798729,[3000|0|0]
3000,1.2846485376358032,-0.3292478621006012,-0.0026817284524440765,0.031140470877289772,0.733872652053833,-10.200618743896484,4.1328125,0,"['C1', 'F2', 'F1']",7.6,180,0,0.10061330758914576,[3100|0|0]
3100,1.2848759889602661,-0.32942628860473633,-0.0025104631204158068,0.0318991094827652,0.7215302586555481,-10.206911087036133,4.1328125,0,"['C1', 'F2', 'F1']",7.6,180,0,0.10094931642285786,[3200|0|0]
3200,1.2849825620651245,-0.3293358087539673,-0.002524325158447027,0.026753975078463554,0.7208135724067688,-10.222206115722656,4.13671875,0,"['C1', 'F2', 'F1']",7.6,180,0,0.10108980338372159,[3300|0|0]
3300,1.2847720384597778,-0.3294813334941864,-0.0025418116711080074,0.029490336775779724,0.7233343720436096,-10.21530532836914,4.1328125,0,"['C1', 'F2', 'F1']",7.6,180,0,0.1013463251499502,[3400|0|0]
3401,1.2848008871078491,-0.3293299973011017,-0.0025470571126788855,0.027111273258924484,0.723285973072052,-10.221794128417969,4.1328125,0,"['C1', 'F2', 'F1']",7.6,180,0,0.10150047573376418,[3500|0|0]
3500,1.284834623336792,-0.3295319378376007,-0.0022636756766587496,0.031084802001714706,0.7237765192985535,-10.177611351013184,4.13671875,0,"['C1', 'F2', 'F1']",7.6,180,0,0.1018500800124932,[3600|0|0]
3601,1.2940659523010254,-0.3178420960903168,0.0017779907211661339,-0.20154891908168793,0.6256345510482788,-10.113383293151855,4.13671875,0,"['C1', 'F2', 'F1']",7.6,180,0,0.1172839681095912,[3700|0|0]
3701,1.2848470211029053,-0.32932671904563904,-0.002512208418920636,0.027887895703315735,0.7270381450653076,-10.170635223388672,4.13671875,0,"['C1', 'F2', 'F1']",7.6,180,0,0.13262316839914962,[3800|0|0]
3801,1.2847709655761719,-0.3292730152606964,-0.0025743981823325157,0.037385717034339905,0.7242799997329712,-10.180540084838867,4.1328125,0,"['C1', 'F2', 'F1']",7.6,180,0,0.1327351331540374,[3900|0|0]
3901,1.2848660945892334,-0.3293699324131012,-0.0028661342803388834,0.03281501680612564,0.7093456983566284,-10.189377784729004,4.13671875,0,"['C1', 'F2', 'F1']",7.6,180,0,0.1330569287637593,[4000|0|0]
4001,1.2847739458084106,-0.3295823931694031,-0.0025710707996040583,0.04044583812355995,0.7042380571365356,-10.178430557250977,4.13671875,0,"['C1', 'F2', 'F1']",7.6,180,0,0.1334320199905813,[4100|0|0]
4101,1.2848334312438965,-0.3292941451072693,-0.0026780941989272833,0.03315136209130287,0.7024959921836853,-10.191730499267578,4.1328125,0,"['C1', 'F2', 'F1']",7.6,180,0,0.1337451964110882,[4200|0|0]
4201,1.2849644422531128,-0.32958611845970154,-0.002471448853611946,0.035643067210912704,0.6976462006568909,-10.184442520141602,4.13671875,0,"['C1', 'F2', 'F1']",7.6,180,0,0.13412613554245553,[4300|0|0]
4301,1.2850667238235474,-0.32960376143455505,-0.0027108173817396164,0.040295716375112534,0.6964102387428284,-10.197742462158203,4.13671875,0,"['C1', 'F2', 'F1']",7.6,180,0,0.13438703798872664,[4400|0|0]
4401,1.2848314046859741,-0.32967862486839294,-0.0023233930114656687,0.04440319910645485,0.6990880370140076,-10.204833984375,4.13671875,0,"['C1', 'F2', 'F1']",7.6,180,0,0.13484646945577736,[4500|0|0]
4501,1.2850666046142578,-0.32958728075027466,-0.002340019214898348,0.03830751031637192,0.6994668245315552,-10.220698356628418,4.1328125,0,"['C1', 'F2', 'F1']",7.6,180,0,0.13509933144347033,[4600|0|0]
4600,1.2847843170166016,-0.3295738101005554,-0.0025159490760415792,0.040823109447956085,0.715577244758606,-10.209811210632324,4.1328125,0,"['C1', 'F2', 'F1']",7.6,180,0,0.13543222641525013,[4700|0|0]
4700,1.2848711013793945,-0.3293877840042114,-0.002696097129955888,0.039575256407260895,0.7177422046661377,-10.212010383605957,4.1328125,0,"['C1', 'F2', 'F1']",7.6,180,0,0.1357053391309473,[4800|0|0]
4802,1.2848410606384277,-0.32965317368507385,-0.0026949592866003513,0.042140450328588486,0.7180726528167725,-10.221135139465332,4.1328125,0,"['C1', 'F2', 'F1']",7.6,180,0,0.1359724260522175,[4900|0|0]
4902,1.2849788665771484,-0.3296675682067871,-0.002387789310887456,0.04389750584959984,0.7104907631874084,-10.195971488952637,4.1328125,0,"['C1', 'F2', 'F1']",7.6,180,0,0.1363093994532175,[5000|0|0]
5002,1.284987449645996,-0.3292267918586731,-0.0027952142991125584,0.028025077655911446,0.7140684127807617,-10.20178508758545,4.13671875,0,"['C1', 'F2', 'F1']",7.6,180,0,0.13690969319727767,[5100|0|0]
5102,1.2848528623580933,-0.32947900891304016,-0.002427496016025543,0.030168140307068825,0.7171565890312195,-10.187857627868652,4.1328125,0,"['C1', 'F2', 'F1']",7.6,180,0,0.13737546558406663,[5200|0|0]
5202,1.2847380638122559,-0.32955402135849,-0.0024125075433403254,0.03160965070128441,0.7214733362197876,-10.186578750610352,4.1328125,0,"['C1', 'F2', 'F1']",7.6,180,0,0.13751341567436084,[5300|0|0]
5302,1.284852385520935,-0.3294065296649933,-0.002378897275775671,0.030797358602285385,0.7203741669654846,-10.188263893127441,4.13671875,0,"['C1', 'F2', 'F1']",7.6,180,0,0.13770302818136296,[5400|0|0]
5402,1.2848140001296997,-0.3295804262161255,-0.002605572110041976,0.031116431578993797,0.7197244763374329,-10.178202629089355,4.1328125,0,"['C1', 'F2', 'F1']",7.6,180,0,0.13799129009221076,[5500|0|0]
5502,1.28490149974823,-0.3296580910682678,-0.0022988244891166687,0.031448423862457275,0.7200836539268494,-10.179527282714844,4.1328125,0,"['C1', 'F2', 'F1']",7.6,180,0,0.13831959195855417,[5600|0|0]
5600,1.2848085165023804,-0.329440712928772,-0.002747960388660431,0.021892838180065155,0.7205182313919067,-10.180073738098145,4.1328125,0,"['C1', 'F2', 'F1']",7.6,180,0,0.13882715692562578,[5700|0|0]
5700,1.284676432609558,-0.32936209440231323,-0.002795780310407281,0.034737423062324524,0.7358237504959106,-10.175511360168457,4.1328125,0,"['C1', 'F2', 'F1']",7.6,180,0,0.1389881344779786,[5800|0|0]
5800,1.2847654819488525,-0.329390287399292,-0.0027278896886855364,0.03021586500108242,0.7246745824813843,-10.187749862670898,4.1328125,0,"['C1', 'F2', 'F1']",7.6,180,0,0.139103606407144,[5900|0|0]
5900,1.2847371101379395,-0.3294413387775421,-0.0028455876745283604,0.0322398878633976,0.7213329076766968,-10.187237739562988,4.1328125,0,"['C1', 'F2', 'F1']",7.6,180,0,0.1392349990201296,[6000|0|0]
6000,1.284834384918213,-0.32943305373191833,-0.0027015868108719587,0.03569449484348297,0.7164855003356934,-10.20577335357666,4.1328125,0,"['C1', 'F2', 'F1']",7.6,180,0,0.13940897394243745,[6100|0|0]
6100,1.2847744226455688,-0.32936447858810425,-0.0024041959550231695,0.03365030139684677,0.7152114510536194,-10.217041015625,4.1328125,0,"['C1', 'F2', 'F1']",7.6,180,0,0.13972000343562457,[6200|0|0]
6200,1.284674048423767,-0.3290892541408539,-0.002830409910529852,0.02573651634156704,0.7234066128730774,-10.199960708618164,4.1328125,0,"['C1', 'F2', 'F1']",7.6,180,0,0.14023718987844305,[6300|0|0]
6300,1.2848484516143799,-0.32950639724731445,-0.0024466747418045998,0.038669828325510025,0.7159010171890259,-10.190916061401367,4.1328125,0,"['C1', 'F2', 'F1']",7.6,180,0,0.14083021392844447,[6400|0|0]
6400,1.2848995923995972,-0.32944318652153015,-0.0026953257620334625,0.03604831174015999,0.7098597288131714,-10.202605247497559,4.1328125,0,"['C1', 'F2', 'F1']",7.6,180,0,0.1410918210874208,[6500|0|0]
6500,1.2847785949707031,-0.32957223057746887,-0.0023257324937731028,0.039817001670598984,0.713112473487854,-10.206949234008789,4.1328125,0,"['C1', 'F2', 'F1']",7.6,180,0,0.14150156726509114,[6600|0|0]
6600,1.284963846206665,-0.3294141888618469,-0.002207928104326129,0.034216705709695816,0.7012912631034851,-10.2136812210083,4.1328125,0,"['C1', 'F2', 'F1']",7.6,180,0,0.14177207249327559,[6700|0|0]
6700,1.2848093509674072,-0.3293847441673279,-0.0023507243022322655,0.04611247777938843,0.7061571478843689,-10.206131935119629,4.13671875,0,"['C1', 'F2', 'F1']",7.6,180,0,0.14198450253617229,[6800|0|0]
6800,1.2847981452941895,-0.32923823595046997,-0.0028134281747043133,0.04436737298965454,0.7089225053787231,-10.21576976776123,4.1328125,0,"['C1', 'F2', 'F1']",7.6,180,0,0.14246997663261798,[6900|0|0]
6900,1.2847899198532104,-0.32931020855903625,-0.002721701515838504,0.04446053504943848,0.7110751271247864,-10.219426155090332,4.1328125,0,"['C1', 'F2', 'F1']",7.6,180,0,0.14258685902739932,[7000|0|0]
7000,1.284828782081604,-0.3295285999774933,-0.0022469835821539164,0.051791753619909286,0.7171028852462769,-10.208977699279785,4.1328125,0,"['C1', 'F2', 'F1']",7.6,180,0,0.1431108458602617,[7100|0|0]
7100,1.2847403287887573,-0.32945528626441956,-0.0024883048608899117,0.058399416506290436,0.7259413003921509,-10.215253829956055,4.1328125,0,"['C1', 'F2', 'F1']",7.6,180,0,0.14337811883890125,[7200|0|0]
7200,1.2848519086837769,-0.3294874131679535,-0.0026637879200279713,0.06275883316993713,0.7275619506835938,-10.239906311035156,4.1328125,0,"['C1', 'F2', 'F1']",7.6,180,0,0.14358853869287824,[7300|0|0]
7300,1.284833312034607,-0.329355925321579,-0.002522725146263838,0.055469952523708344,0.722576379776001,-10.224100112915039,4.1328125,0,"['C1', 'F2', 'F1']",7.6,180,0,0.14378227458332343,[7400|0|0]
7400,1.2849851846694946,-0.32963019609451294,-0.0024815956130623817,0.05851513519883156,0.7329592704772949,-10.214288711547852,4.1328125,0,"['C1', 'F2', 'F1']",7.6,180,0,0.14409847292711242,[7500|0|0]
7500,1.2847371101379395,-0.329304575920105,-0.0026609923224896193,0.04965822398662567,0.743593156337738,-10.210672378540039,4.1328125,0,"['C1', 'F2', 'F1']",7.6,180,0,0.14454540989195322,[7600|0|0]
7600,1.284761667251587,-0.3292835056781769,-0.0028901023324579,0.04589923843741417,0.7414692044258118,-10.204282760620117,4.1328125,0,"['C1', 'F2', 'F1']",7.6,180,0,0.14477679356379128,[7700|0|0]
7700,1.284713625907898,-0.32926318049430847,-0.002685875166207552,0.04747544974088669,0.7452079057693481,-10.235198974609375,4.1328125,0,"['C1', 'F2', 'F1']",7.6,180,0,0.14498757738489093,[7800|0|0]
7800,1.284910798072815,-0.32972875237464905,-0.0022551410365849733,0.05845114216208458,0.7399481534957886,-10.235918045043945,4.1328125,0,"['C1', 'F2', 'F1']",7.6,180,0,0.14565178061343143,[7900|0|0]
7900,1.2848683595657349,-0.3296206295490265,-0.0024792063049972057,0.04810958355665207,0.734756350517273,-10.211692810058594,4.1328125,0,"['C1', 'F2', 'F1']",7.6,180,0,0.14590416289651095,[8000|0|0]
8000,1.2848390340805054,-0.32936400175094604,-0.003023254219442606,0.049585893750190735,0.7316579222679138,-10.233665466308594,4.1328125,0,"['C1', 'F2', 'F1']",7.6,180,0,0.14650641362838593,[8100|0|0]
8100,1.284791111946106,-0.32918399572372437,-0.002801591530442238,0.04982973635196686,0.7314254641532898,-10.250184059143066,4.1328125,0,"['C1', 'F2', 'F1']",7.6,180,0,0.14679595300134995,[8200|0|0]
8200,1.2847574949264526,-0.32916074991226196,-0.002816681982949376,0.052508290857076645,0.7293135523796082,-10.247154235839844,4.1328125,0,"['C1', 'F2', 'F1']",7.6,180,0,0.14683952126408542,[8300|0|0]
8300,1.2848881483078003,-0.3295021653175354,-0.0024290955625474453,0.06160276010632515,0.7249689698219299,-10.236568450927734,4.1328125,0,"['C1', 'F2', 'F1']",7.6,180,0,0.14737230453925046,[8400|0|0]
8400,1.2847012281417847,-0.32947924733161926,-0.002432793378829956,0.06617129594087601,0.7244540452957153,-10.251174926757812,4.1328125,0,"['C1', 'F2', 'F1']",7.6,180,0,0.1475606607347605,[8500|0|0]
8500,1.284911870956421,-0.32960736751556396,-0.0025038630701601505,0.0675310268998146,0.7164469957351685,-10.240327835083008,4.1328125,0,"['C1', 'F2', 'F1']",7.6,180,0,0.1478172461550744,[8600|0|0]
8600,1.284920334815979,-0.32959064841270447,-0.002545970492064953,0.06669359654188156,0.7231207489967346,-10.215900421142578,4.1328125,0,"['C1', 'F2', 'F1']",7.6,180,0,0.1478633352025642,[8700|0|0]
8700,1.2850048542022705,-0.32970187067985535,-0.0023725349456071854,0.0671350434422493,0.7240830063819885,-10.21091365814209,4.1328125,0,"['C1', 'F2', 'F1']",7.6,180,0,0.1480860318755173,[8800|0|0]
8800,1.284632682800293,-0.3294577896595001,-0.0026525044813752174,0.0486246794462204,0.7235992550849915,-10.201715469360352,4.1328125,0,"['C1', 'F2', 'F1']",7.6,180,0,0.14861183605760958,[8900|0|0]
8900,1.2849998474121094,-0.329621821641922,-0.0028924429789185524,0.04827345162630081,0.7148395776748657,-10.238945960998535,4.1328125,0,"['C1', 'F2', 'F1']",7.6,180,0,0.14908011677046343,[9000|0|0]
9000,1.2847528457641602,-0.3294622600078583,-0.002786753000691533,0.05019078031182289,0.7287675142288208,-10.240283966064453,4.1328125,0,"['C1', 'F2', 'F1']",7.6,180,0,0.14939259093043886,[9100|0|0]
9100,1.284853458404541,-0.32925930619239807,-0.0026724410708993673,0.04502304643392563,0.7268651723861694,-10.240177154541016,4.1328125,0,"['C1', 'F2', 'F1']",7.6,180,0,0.14964632380553997,[9200|0|0]
9200,1.2846978902816772,-0.3294529914855957,-0.002409644890576601,0.052117813378572464,0.7313687801361084,-10.220832824707031,4.1328125,0,"['C1', 'F2', 'F1']",7.6,180,0,0.1500079552008096,[9300|0|0]
9300,1.284807562828064,-0.32930317521095276,-0.0025136652402579784,0.04584083706140518,0.7327292561531067,-10.22618579864502,4.1328125,0,"['C1', 'F2', 'F1']",7.6,180,0,0.1502207772314518,[9400|0|0]
9400,1.2848705053329468,-0.32946473360061646,-0.0025623743422329426,0.047731440514326096,0.7304602265357971,-10.224211692810059,4.1328125,0,"['C1', 'F2', 'F1']",7.6,180,0,0.1504008756734408,[9500|0|0]
9500,1.2848490476608276,-0.3294370472431183,-0.0023912759497761726,0.053548283874988556,0.7282415628433228,-10.211369514465332,4.1328125,0,"['C1', 'F2', 'F1']",7.6,180,0,0.15057552282052766,[9600|0|0]
9600,1.2849736213684082,-0.32939067482948303,-0.002616801066324115,0.050450269132852554,0.7238686680793762,-10.220041275024414,4.1328125,0,"['C1', 'F2', 'F1']",7.6,180,0,0.15083730629510292,[9700|0|0]
9700,1.2847394943237305,-0.32951435446739197,-0.0023392357397824526,0.059078399091959,0.7279850244522095,-10.208905220031738,4.1328125,0,"['C1', 'F2', 'F1']",7.6,180,0,0.15122091369385976,[9800|0|0]
9800,1.2849223613739014,-0.32942232489585876,-0.0025053969584405422,0.05679014325141907,0.7192932367324829,-10.216167449951172,4.1328125,0,"['C1', 'F2', 'F1']",7.6,180,0,0.15148457891845477,[9900|0|0]
9900,1.284790277481079,-0.32952117919921875,-0.00235292362049222,-0.09285937249660492,0.6691616773605347,-10.223626136779785,4.1328125,0,"['C1', 'F2', 'F1']",7.6,180,0,0.15170922630174907,[10000|0|0]
10000,1.2852391004562378,-0.3294665217399597,-0.0023009430151432753,-0.0738891139626503,0.6708099842071533,-10.202140808105469,4.1328125,0,"['C1', 'F2', 'F1']",7.6,180,0,0.1521643433023274,[10100|0|0]
10100,1.2850515842437744,-0.3293200433254242,-0.0025943573564291,-0.038548678159713745,0.6977145671844482,-10.209487915039062,4.1328125,0,"['C1', 'F2', 'F1']",7.6,180,0,0.15254211337993234,[10200|0|0]
10200,1.2850360870361328,-0.3294844925403595,-0.0024537392891943455,-0.0034384422469884157,0.714115560054779,-10.243075370788574,4.1328125,0,"['C1', 'F2', 'F1']",7.6,180,0,0.15275903997712678,[10300|0|0]
10300,1.2849146127700806,-0.329538494348526,-0.0024507809430360794,0.019229846075177193,0.7278302907943726,-10.228360176086426,4.1328125,0,"['C1', 'F2', 'F1']",7.6,180,0,0.15289200968950586,[10400|0|0]
10400,1.2851506471633911,-0.3296181559562683,-0.002300452906638384,0.03576257452368736,0.7300012111663818,-10.237224578857422,4.1328125,0,"['C1', 'F2', 'F1']",7.6,180,0,0.15318296797706743,[10500|0|0]
10500,1.2847059965133667,-0.3293018639087677,-0.0027472348883748055,0.03676249459385872,0.7428792715072632,-10.23324203491211,4.1328125,0,"['C1', 'F2', 'F1']",7.6,180,0,0.15388821190584923,[10600|0|0]
10600,1.2850714921951294,-0.3297119438648224,-0.002215784974396229,0.055483195930719376,0.7236782312393188,-10.229815483093262,4.1328125,0,"['C1', 'F2', 'F1']",7.6,180,0,0.15465253623152048,[10700|0|0]
10700,1.2847038507461548,-0.3295460045337677,-0.00261551421135664,0.056477971374988556,0.7306503653526306,-10.240082740783691,4.1328125,0,"['C1', 'F2', 'F1']",7.6,180,0,0.15522040906893741,[10800|0|0]
10800,1.2848610877990723,-0.3297167122364044,-0.002648946363478899,0.05680147185921669,0.7260835766792297,-10.222865104675293,4.1328125,0,"['C1', 'F2', 'F1']",7.6,180,0,0.155454892158616,[10900|0|0]
10900,1.2848896980285645,-0.32960188388824463,-0.0026720482856035233,0.04767310991883278,0.730233907699585,-10.225950241088867,4.1328125,0,"['C1', 'F2', 'F1']",7.6,180,0,0.15557546493157304,[11000|0|0]
11000,1.2847906351089478,-0.3292670249938965,-0.0029165069572627544,0.036215491592884064,0.7393385767936707,-10.24532413482666,4.1328125,0,"['C1', 'F2', 'F1']",7.6,180,0,0.15600173243363769,[11100|0|0]
11100,1.2849607467651367,-0.32954370975494385,-0.002430076478049159,0.044993966817855835,0.737049400806427,-10.250431060791016,4.1328125,0,"['C1', 'F2', 'F1']",7.6,180,0,0.15658663160757721,[11200|0|0]
11200,1.2848409414291382,-0.3297087550163269,-0.00246332841925323,0.04079252481460571,0.7347937226295471,-10.264451026916504,4.1328125,0,"['C1', 'F2', 'F1']",7.6,180,0,0.1567932688463135,[11300|0|0]
11300,1.2847959995269775,-0.32972806692123413,-0.0023748388048261404,0.036798056215047836,0.7325481176376343,-10.222386360168457,4.1328125,0,"['C1', 'F2', 'F1']",7.6,180,0,0.15689437837159387,[11400|0|0]
11400,1.2850583791732788,-0.32963141798973083,-0.0023224190808832645,0.034353744238615036,0.726272463798523,-10.212581634521484,4.1328125,0,"['C1', 'F2', 'F1']",7.6,180,0,0.15717886373538636,[11500|0|0]
11500,1.2849842309951782,-0.3296610713005066,-0.002357729710638523,0.034531138837337494,0.7286663055419922,-10.198060035705566,4.1328125,0,"['C1', 'F2', 'F1']",7.6,180,0,0.15726617989499794,[11600|0|0]
11600,1.2849130630493164,-0.32976940274238586,-0.002553545404225588,0.025081424042582512,0.7274337410926819,-10.186992645263672,4.1328125,0,"['C1', 'F2', 'F1']",7.6,180,0,0.15750100826567068,[11700|0|0]
11700,1.2848483324050903,-0.32951653003692627,-0.0024403652641922235,0.022964566946029663,0.7402486801147461,-10.18874740600586,4.1328125,0,"['C1', 'F2', 'F1']",7.6,180,0,0.157785515568857,[11800|0|0]
11800,1.2848495244979858,-0.3293869197368622,-0.002483951160684228,0.019332440569996834,0.7314110994338989,-10.185434341430664,4.1328125,0,"['C1', 'F2', 'F1']",7.6,180,0,0.1579222634439454,[11900|0|0]
11900,1.2848844528198242,-0.32931700348854065,-0.0029430119320750237,0.009614587761461735,0.7243456244468689,-10.194329261779785,4.1328125,0,"['C1', 'F2', 'F1']",7.6,180,0,0.15838792969919233,[12000|0|0]
12000,1.2850061655044556,-0.3296894133090973,-0.0024394593201577663,0.01275613997131586,0.724620521068573,-10.208322525024414,4.1328125,0,"['C1', 'F2', 'F1']",7.6,180,0,0.15902594873105258,[12100|0|0]
12100,1.284813642501831,-0.3294202983379364,-0.002559908665716648,0.005201946943998337,0.7318399548530579,-10.22570514678955,4.1328125,0,"['C1', 'F2', 'F1']",7.6,180,0,0.15937807941572527,[12200|0|0]
12200,1.2848708629608154,-0.3295898139476776,-0.0023244814947247505,0.01100819930434227,0.7308229804039001,-10.229585647583008,4.1328125,0,"['C1', 'F2', 'F1']",7.6,180,0,0.15967377465700175,[12300|0|0]
12300,1.284921646118164,-0.3297259509563446,-0.0023610438220202923,0.008341990411281586,0.7283793091773987,-10.245902061462402,4.1328125,0,"['C1', 'F2', 'F1']",7.6,180,0,0.1598236046205483,[12400|0|0]
12400,1.2850323915481567,-0.32963427901268005,-0.002091262023895979,-0.000759656133595854,0.7211297154426575,-10.212895393371582,4.1328125,0,"['C1', 'F2', 'F1']",7.6,180,0,0.1601293013887986,[12500|0|0]
12500,1.2849860191345215,-0.3295907974243164,-0.002251872792840004,-0.0019113777671009302,0.7262130379676819,-10.200629234313965,4.1328125,0,"['C1', 'F2', 'F1']",7.6,180,0,0.16030203490718395,[12600|0|0]
12600,1.284732460975647,-0.32976722717285156,-0.0024403883144259453,0.003286238992586732,0.7281128764152527,-10.188688278198242,4.1328125,0,"['C1', 'F2', 'F1']",7.6,180,0,0.16066391513319642,[12700|0|0]
12700,1.2852264642715454,-0.3298964202404022,-0.0025722221471369267,-0.0052014803513884544,0.710574209690094,-10.185163497924805,4.1328125,0,"['C1', 'F2', 'F1']",7.6,180,0,0.16119127674016923,[12800|0|0]
12800,1.2848775386810303,-0.3296312689781189,-0.0023636361584067345,-0.009347877465188503,0.7247952818870544,-10.194144248962402,4.1328125,0,"['C1', 'F2', 'F1']",7.6,180,0,0.1616766244241045,[12900|0|0]
12900,1.2849068641662598,-0.32951098680496216,-0.0026667132042348385,-0.00477920938283205,0.7260434627532959,-10.198013305664062,4.1328125,0,"['C1', 'F2', 'F1']",7.6,180,0,0.16200401330750028,[13000|0|0]
13000,1.284977912902832,-0.3296251595020294,-0.0023368378169834614,0.00404014065861702,0.7244019508361816,-10.193790435791016,4.1328125,0,"['C1', 'F2', 'F1']",7.6,180,0,0.16236024511242284,[13100|0|0]
13100,1.2848840951919556,-0.3295879065990448,-0.002721185330301523,0.003835140261799097,0.7341376543045044,-10.211884498596191,4.1328125,0,"['C1', 'F2', 'F1']",7.6,180,0,0.16275762723664164,[13200|0|0]
13200,1.2850905656814575,-0.329690545797348,-0.002205406781286001,0.006420007906854153,0.7340232133865356,-10.22680950164795,4.1328125,0,"['C1', 'F2', 'F1']",7.6,180,0,0.16332259836837146,[13300|0|0]
13300,1.2848700284957886,-0.3293042778968811,-0.0025892213452607393,-0.0025123958475887775,0.7399868965148926,-10.21812915802002,4.1328125,0,"['C1', 'F2', 'F1']",7.6,180,0,0.16391009573918516,[13400|0|0]
13400,1.2847115993499756,-0.32949721813201904,-0.0025755148380994797,0.002164172939956188,0.7371004819869995,-10.230701446533203,4.1328125,0,"['C1', 'F2', 'F1']",7.6,180,0,0.16416012293153967,[13500|0|0]
13500,1.2849079370498657,-0.3295702636241913,-0.0024511590600013733,0.007656394969671965,0.7300589084625244,-10.222256660461426,4.1328125,0,"['C1', 'F2', 'F1']",7.6,180,0,0.1644037383987646,[13600|0|0]
13600,1.284897804260254,-0.32946106791496277,-0.0025843698531389236,0.004909589421004057,0.7333847880363464,-10.225761413574219,4.1328125,0,"['C1', 'F2', 'F1']",7.6,180,0,0.16457628257208717,[13700|0|0]
13700,1.284833312034607,-0.32951536774635315,-0.0024169711396098137,0.010500275529921055,0.7227256894111633,-10.223211288452148,4.1328125,0,"['C1', 'F2', 'F1']",7.6,180,0,0.1647637126874612,[13800|0|0]
13800,1.2848292589187622,-0.3293519616127014,-0.0027868272736668587,-0.0031481662299484015,0.7168400287628174,-10.228131294250488,4.1328125,0,"['C1', 'F2', 'F1']",7.6,180,0,0.16516807830440047,[13900|0|0]
13900,1.2848646640777588,-0.3295934498310089,-0.00273324828594923,0.0026028978172689676,0.7154000401496887,-10.231735229492188,4.1328125,0,"['C1', 'F2', 'F1']",7.6,180,0,0.16541795986192273,[14000|0|0]
14000,1.2847628593444824,-0.3294006586074829,-0.0027304883114993572,0.003092678263783455,0.7244752645492554,-10.22293472290039,4.1328125,0,"['C1', 'F2', 'F1']",7.6,180,0,0.16563599719139888,[14100|0|0]
14100,1.2849665880203247,-0.3295789957046509,-0.0022717341780662537,0.003164916066452861,0.7111743688583374,-10.195815086364746,4.1328125,0,"['C1', 'F2', 'F1']",7.6,180,0,0.16616869302255274,[14200|0|0]
14200,1.284962773323059,-0.32965606451034546,-0.0027210386469960213,0.003324798308312893,0.7125846743583679,-10.208937644958496,4.1328125,0,"['C1', 'F2', 'F1']",7.6,180,0,0.16662457530837516,[14300|0|0]
14300,1.2850316762924194,-0.32958948612213135,-0.002573932521045208,0.002309230389073491,0.7083940505981445,-10.201010704040527,4.1328125,0,"['C1', 'F2', 'F1']",7.6,180,0,0.16680013302895763,[14400|0|0]
14400,1.2850465774536133,-0.3295367658138275,-0.002493251347914338,0.0031039544846862555,0.7069820761680603,-10.223747253417969,4.1328125,0,"['C1', 'F2', 'F1']",7.6,180,0,0.16689765701170214,[14500|0|0]
14500,1.2849732637405396,-0.3296153247356415,-0.002377486787736416,0.014062697067856789,0.7115092277526855,-10.21382999420166,4.1328125,0,"['C1', 'F2', 'F1']",7.6,180,0,0.16705560585821397,[14600|0|0]
14600,1.2848925590515137,-0.32980504631996155,-0.0023464043624699116,0.014003121294081211,0.7097276449203491,-10.190461158752441,4.1328125,0,"['C1', 'F2', 'F1']",7.6,180,0,0.1672641092000292,[14700|0|0]
14700,1.2849174737930298,-0.3298107385635376,-0.0023022659588605165,0.006700562778860331,0.7074741721153259,-10.20226001739502,4.1328125,0,"['C1', 'F2', 'F1']",7.6,180,0,0.16731511257888718,[14800|0|0]
14800,1.2849291563034058,-0.32975634932518005,-0.002513925079256296,9.924697951646522e-05,0.7074757814407349,-10.200613021850586,4.1328125,0,"['C1', 'F2', 'F1']",7.6,180,0,0.16753396013666316,[14900|0|0]
14900,1.2849056720733643,-0.32949501276016235,-0.002483423100784421,-2.8857917641289532e-05,0.7022550702095032,-10.195511817932129,4.1328125,0,"['C1', 'F2', 'F1']",7.6,180,0,0.1677981166810958,[15000|0|0]
15000,1.2850340604782104,-0.3295406997203827,-0.0026506297290325165,0.000483495881780982,0.7027900218963623,-10.207786560058594,4.1328125,0,"['C1', 'F2', 'F1']",7.6,180,0,0.1680138223540931,[15100|0|0]
15100,1.2847466468811035,-0.3294467031955719,-0.0026034072507172823,-0.0031459545716643333,0.7173022031784058,-10.224635124206543,4.1328125,0,"['C1', 'F2', 'F1']",7.6,180,0,0.16831988098399378,[15200|0|0]
15200,1.2849241495132446,-0.3294250965118408,-0.002632290357723832,-0.002647919813171029,0.7118180394172668,-10.229514122009277,4.1328125,0,"['C1', 'F2', 'F1']",7.6,180,0,0.16850101150894534,[15300|0|0]
15300,1.2850267887115479,-0.32952722907066345,-0.0024408099707216024,0.0013879520120099187,0.7071218490600586,-10.229802131652832,4.1328125,0,"['C1', 'F2', 'F1']",7.6,180,0,0.16874107525715926,[15400|0|0]
15400,1.2849440574645996,-0.3296402096748352,-0.002747727558016777,0.011387224309146404,0.7190607786178589,-10.23473072052002,4.1328125,0,"['C1', 'F2', 'F1']",7.6,180,0,0.16907842890176936,[15500|0|0]
15500,1.2848856449127197,-0.3295552134513855,-0.0026404415257275105,0.005633295048028231,0.7248515486717224,-10.2537841796875,4.1328125,0,"['C1', 'F2', 'F1']",7.6,180,0,0.169227246497981,[15600|0|0]
15600,1.2848538160324097,-0.32953011989593506,-0.0024151832330971956,0.006390544585883617,0.7237675786018372,-10.232686996459961,4.1328125,0,"['C1', 'F2', 'F1']",7.6,180,0,0.16945612214663253,[15700|0|0]
15700,1.2849409580230713,-0.32963669300079346,-0.002380870748311281,0.02069823257625103,0.7208132743835449,-10.21143913269043,4.1328125,0,"['C1', 'F2', 'F1']",7.6,180,0,0.16959799850064478,[15800|0|0]
15800,1.2848351001739502,-0.32965853810310364,-0.002818247303366661,0.015614181756973267,0.7181066870689392,-10.229866027832031,4.1328125,0,"['C1', 'F2', 'F1']",7.6,180,0,0.17004853300945358,[15900|0|0]
15900,1.284865140914917,-0.3296108841896057,-0.0023044031113386154,0.008738658390939236,0.7181049585342407,-10.209128379821777,4.1328125,0,"['C1', 'F2', 'F1']",7.6,180,0,0.17056545582310226,[16000|0|0]
16000,1.2847386598587036,-0.3295102119445801,-0.002668806118890643,0.007614747621119022,0.7307658195495605,-10.204748153686523,4.1328125,0,"['C1', 'F2', 'F1']",7.6,180,0,0.17096410593336478,[16100|0|0]
16100,1.2849475145339966,-0.3296701908111572,-0.002446784172207117,0.010249646380543709,0.7194317579269409,-10.21668529510498,4.1328125,0,"['C1', 'F2', 'F1']",7.6,180,0,0.17130835476481113,[16200|0|0]
16200,1.2850505113601685,-0.32955312728881836,-0.002564739203080535,0.007428590673953295,0.7271910309791565,-10.24560260772705,4.1328125,0,"['C1', 'F2', 'F1']",7.6,180,0,0.1715038684568437,[16300|0|0]
16300,1.2846393585205078,-0.32948723435401917,-0.002631774405017495,0.006705927662551403,0.7364327907562256,-10.218526840209961,4.1328125,0,"['C1', 'F2', 'F1']",7.6,180,0,0.1719256293544103,[16400|0|0]
16400,1.2849751710891724,-0.3297453820705414,-0.00229423469863832,0.005504834931343794,0.7223939895629883,-10.194483757019043,4.1328125,0,"['C1', 'F2', 'F1']",7.6,180,0,0.17246724118792325,[16500|0|0]
16500,1.2847740650177002,-0.32933324575424194,-0.00277577992528677,-0.0008658393635414541,0.736176609992981,-10.19825267791748,4.1328125,0,"['C1', 'F2', 'F1']",7.6,180,0,0.17313221171396462,[16600|0|0]
16600,1.2848643064498901,-0.3294476866722107,-0.00292096845805645,0.0047698249109089375,0.7437579035758972,-10.195103645324707,4.1328125,0,"['C1', 'F2', 'F1']",7.6,180,0,0.17333792984597304,[16700|0|0]
16700,1.284742832183838,-0.32941484451293945,-0.002630078699439764,-0.0001511259179096669,0.7445634603500366,-10.19952392578125,4.1328125,0,"['C1', 'F2', 'F1']",7.6,180,0,0.17365487062341672,[16800|0|0]
16800,1.2849304676055908,-0.32971981167793274,-0.0025120158679783344,-0.0025994449388235807,0.7272592782974243,-10.20600414276123,4.1328125,0,"['C1', 'F2', 'F1']",7.6,180,0,0.17403189960823504,[16900|0|0]
16900,1.2849522829055786,-0.3295973837375641,-0.0025559256318956614,-0.0018257275223731995,0.7314507365226746,-10.226571083068848,4.1328125,0,"['C1', 'F2', 'F1']",7.6,180,0,0.1741637805214247,[17000|0|0]
17000,1.284795880317688,-0.32933494448661804,-0.0025386845227330923,-0.003109679790213704,0.731249213218689,-10.220235824584961,4.1328125,0,"['C1', 'F2', 'F1']",7.6,180,0,0.17446977624979548,[17100|0|0]
17100,1.284907579421997,-0.3296557068824768,-0.0022910626139491796,0.005944271106272936,0.7246977686882019,-10.203932762145996,4.1328125,0,"['C1', 'F2', 'F1']",7.6,180,0,0.1748901116090151,[17200|0|0]
17200,1.2850123643875122,-0.32972007989883423,-0.0024328422732651234,0.005194723606109619,0.7254269123077393,-10.20174789428711,4.1328125,0,"['C1', 'F2', 'F1']",7.6,180,0,0.17507779550824118,[17300|0|0]
17300,1.284936785697937,-0.32953035831451416,-0.002406243234872818,-0.0022426098585128784,0.7253102660179138,-10.18409538269043,4.1328125,0,"['C1', 'F2', 'F1']",7.6,180,0,0.17528374192534577,[17400|0|0]
17400,1.2850011587142944,-0.3294438123703003,-0.0026344466023147106,-0.006266473326832056,0.7232131958007812,-10.185037612915039,4.1328125,0,"['C1', 'F2', 'F1']",7.6,180,0,0.17553615203331818,[17500|0|0]
17500,1.2850594520568848,-0.3297182023525238,-0.0022785726469010115,0.0001993187761399895,0.721726655960083,-10.195760726928711,4.1328125,0,"['C1', 'F2', 'F1']",7.6,180,0,0.1759892902553617,[17600|0|0]
17600,1.2848246097564697,-0.3295844793319702,-0.0026690224185585976,0.006243653129786253,0.7317874431610107,-10.20457649230957,4.1328125,0,"['C1', 'F2', 'F1']",7.6,180,0,0.17646414157575332,[17700|0|0]
17700,1.2848480939865112,-0.32953813672065735,-0.0025045068468898535,0.004303181078284979,0.740608274936676,-10.21504020690918,4.1328125,0,"['C1', 'F2', 'F1']",7.6,180,0,0.17663666554511825,[17800|0|0]
17800,1.2848730087280273,-0.32953664660453796,-0.0026253769174218178,0.0025786131154745817,0.7406024932861328,-10.25078010559082,4.1328125,0,"['C1', 'F2', 'F1']",7.6,180,0,0.1767600857166514,[17900|0|0]
17900,1.2848612070083618,-0.32946741580963135,-0.002559348940849304,0.00441907299682498,0.738162636756897,-10.253615379333496,4.1328125,0,"['C1', 'F2', 'F1']",7.6,180,0,0.17685648010051647,[18000|0|0]
18000,1.2846477031707764,-0.3295229971408844,-0.002670879475772381,0.011393239721655846,0.734779417514801,-10.226178169250488,4.1328125,0,"['C1', 'F2', 'F1']",7.6,180,0,0.17710368898641624,[18100|0|0]
18100,1.2857410907745361,-0.3293730616569519,-0.0025054183788597584,0.074094757437706,0.7481528520584106,-10.2250337600708,4.1328125,0,"['C1', 'F2', 'F1']",7.6,180,0,0.1782196434998213,[18200|0|0]
18200,1.2857861518859863,-0.3294314444065094,-0.0027700995560735464,0.1027948334813118,0.7657932639122009,-10.235547065734863,4.1328125,0,"['C1', 'F2', 'F1']",7.6,180,0,0.17849440735257907,[18300|0|0]
18300,1.2857561111450195,-0.32936280965805054,-0.0029108510352671146,0.12851032614707947,0.7830326557159424,-10.256692886352539,4.1328125,0,"['C1', 'F2', 'F1']",7.6,180,0,0.17865385688600274,[18400|0|0]
18400,1.2857846021652222,-0.32959672808647156,-0.0029753954149782658,0.15213479101657867,0.785144031047821,-10.261370658874512,4.1328125,0,"['C1', 'F2', 'F1']",7.6,180,0,0.17889818360648055,[18500|0|0]
18500,1.28574538230896,-0.3296207785606384,-0.002473004860803485,0.16629523038864136,0.7878361940383911,-10.239411354064941,4.1328125,0,"['C1', 'F2', 'F1']",7.6,180,0,0.1794026763134218,[18600|0|0]
18600,1.2858433723449707,-0.3298952281475067,-0.002788812853395939,0.20334261655807495,0.785902738571167,-10.24039363861084,4.1328125,0,"['C1', 'F2', 'F1']",7.6,180,0,0.17983239635144055,[18700|0|0]
18700,1.285801649093628,-0.3296014964580536,-0.002354548778384924,0.1588367521762848,0.7637065649032593,-10.231392860412598,4.1328125,0,"['C1', 'F2', 'F1']",7.6,180,0,0.1803583283070553,[18800|0|0]
18800,1.285851001739502,-0.32944583892822266,-0.002566603012382984,0.10869728773832321,0.73431795835495,-10.252593040466309,4.1328125,0,"['C1', 'F2', 'F1']",7.6,180,0,0.18062596976199893,[18900|0|0]
18900,1.2857111692428589,-0.3295275568962097,-0.002806983655318618,0.06713835150003433,0.7164186835289001,-10.236366271972656,4.1328125,0,"['C1', 'F2', 'F1']",7.6,180,0,0.18091582111512242,[19000|0|0]
19000,1.285710334777832,-0.32957547903060913,-0.002393657574430108,0.04950888082385063,0.7173970937728882,-10.214465141296387,4.1328125,0,"['C1', 'F2', 'F1']",7.6,180,0,0.18133191686905403,[19100|0|0]
19100,1.2858302593231201,-0.32958316802978516,-0.0023607532493770123,0.027615277096629143,0.7007461786270142,-10.246573448181152,4.1328125,0,"['C1', 'F2', 'F1']",7.6,180,0,0.1814565110578354,[19200|0|0]
19200,1.2858669757843018,-0.32922348380088806,-0.002778328023850918,0.010800852440297604,0.6906825304031372,-10.274748802185059,4.1328125,0,"['C1', 'F2', 'F1']",7.6,180,0,0.1820088601642128,[19300|0|0]
19300,1.2856544256210327,-0.3294149935245514,-0.002839446999132633,0.01921745575964451,0.6955345869064331,-10.265707015991211,4.1328125,0,"['C1', 'F2', 'F1']",7.6,180,0,0.18230141627046045,[19400|0|0]
19400,1.2859314680099487,-0.32954758405685425,-0.002421268494799733,0.014878912828862667,0.6869853734970093,-10.254939079284668,4.1328125,0,"['C1', 'F2', 'F1']",7.6,180,0,0.18282026691949035,[19500|0|0]
19500,1.285707950592041,-0.32942402362823486,-0.0025751206558197737,0.01582924649119377,0.6948522329330444,-10.239142417907715,4.1328125,0,"['C1', 'F2', 'F1']",7.6,180,0,0.18311842409797055,[19600|0|0]
19600,1.2936073541641235,-0.31768926978111267,0.0018803956918418407,-0.43173322081565857,0.49220260977745056,-10.161335945129395,4.1328125,0,"['C1', 'F2', 'F1']",7.6,180,0,0.19794935969123165,[19700|0|0]
19700,1.293726921081543,-0.3173234164714813,0.0022550150752067566,-0.4436052739620209,0.4999953806400299,-10.19089412689209,4.1328125,0,"['C1', 'F2', 'F1']",7.6,180,0,0.19848646729153357,[19800|0|0]
19800,1.29332435131073,-0.3171471655368805,0.0019492986612021923,-0.44273340702056885,0.5200205445289612,-10.17752456665039,4.1328125,0,"['C1', 'F2', 'F1']",7.6,180,0,0.19902180768615357,[19900|0|0]
19900,1.2935956716537476,-0.31765544414520264,0.0018841673154383898,-0.4255332052707672,0.5087076425552368,-10.171109199523926,4.1328125,0,"['C1', 'F2', 'F1']",7.6,180,0,0.1996016386653312,[20000|0|0]
20000,1.2932785749435425,-0.3173501789569855,0.0022863850463181734,-0.43233829736709595,0.5266967415809631,-10.164468765258789,4.1328125,0,"['C1', 'F2', 'F1']",7.6,180,0,0.20019789050960024,[20100|0|0]
20100,1.2933043241500854,-0.316932737827301,0.0018428124021738768,-0.4293019473552704,0.5301191806793213,-10.170278549194336,4.1328125,0,"['C1', 'F2', 'F1']",7.6,180,0,0.20080754353306768,[20200|0|0]
20200,1.2933428287506104,-0.3170831799507141,0.0022124454844743013,-0.43396446108818054,0.5141350626945496,-10.18288803100586,4.1328125,0,"['C1', 'F2', 'F1']",7.6,180,0,0.20120847251965948,[20300|0|0]
20300,1.2933663129806519,-0.31720370054244995,0.0022238658275455236,-0.4255872368812561,0.5112565159797668,-10.155242919921875,4.1328125,0,"['C1', 'F2', 'F1']",7.6,180,0,0.20133178977850374,[20400|0|0]
20400,1.2857609987258911,-0.32941457629203796,-0.0023338475730270147,0.02956387586891651,0.7138195037841797,-10.218175888061523,4.1328125,0,"['C1', 'F2', 'F1']",7.6,180,0,0.21642215236285878,[20500|0|0]
20501,1.2933309078216553,-0.3172953724861145,0.0021690393332391977,-0.4113613963127136,0.5222556591033936,-10.158382415771484,4.1328125,0,"['C1', 'F2', 'F1']",7.6,180,0,0.23140396183629244,[20600|0|0]
20601,1.2933745384216309,-0.3170697093009949,0.001923658768646419,-0.4158133864402771,0.5214403867721558,-10.196563720703125,4.1328125,0,"['C1', 'F2', 'F1']",7.6,180,0,0.23174017475075653,[20700|0|0]
20701,1.2936115264892578,-0.3170790374279022,0.0025070025585591793,-0.4130467474460602,0.5145854949951172,-10.202271461486816,4.1328125,0,"['C1', 'F2', 'F1']",7.6,180,0,0.2323698892379481,[20800|0|0]
20801,1.2933862209320068,-0.31728896498680115,0.0021422728896141052,-0.3995761275291443,0.5241774320602417,-10.167813301086426,4.1328125,0,"['C1', 'F2', 'F1']",7.6,180,0,0.23284723597306023,[20900|0|0]
20901,1.2937031984329224,-0.3172924816608429,0.0019686773885041475,-0.40649786591529846,0.5120695233345032,-10.151095390319824,4.1328125,0,"['C1', 'F2', 'F1']",7.6,180,0,0.2332086533233474,[21000|0|0]
21001,1.2936128377914429,-0.3170835077762604,0.0019931814167648554,-0.40723946690559387,0.525993287563324,-10.176520347595215,4.1328125,0,"['C1', 'F2', 'F1']",7.6,180,0,0.23343764148323146,[21100|0|0]
21101,1.2935829162597656,-0.31703969836235046,0.0021286506671458483,-0.41486838459968567,0.512578547000885,-10.169986724853516,4.1328125,0,"['C1', 'F2', 'F1']",7.6,180,0,0.23358312852940338,[21200|0|0]
21201,1.2935563325881958,-0.3170181214809418,0.002014287281781435,-0.4114459753036499,0.5188654065132141,-10.156579971313477,4.1328125,0,"['C1', 'F2', 'F1']",7.6,180,0,0.23370250707570658,[21300|0|0]
21301,1.2932597398757935,-0.3173527121543884,0.0020111948251724243,-0.3994278907775879,0.522978663444519,-10.13795280456543,4.1328125,0,"['C1', 'F2', 'F1']",7.6,180,0,0.2341496398513958,[21400|0|0]
21401,1.2936060428619385,-0.31731292605400085,0.0019316688412800431,-0.4022144377231598,0.5182958841323853,-10.149636268615723,4.1328125,0,"['C1', 'F2', 'F1']",7.6,180,0,0.23450717736566676,[21500|0|0]
21502,1.2929112911224365,-0.31665048003196716,0.002509561600163579,-0.40393897891044617,0.5252260565757751,-10.15852165222168,4.1328125,0,"['C1', 'F2', 'F1']",7.6,180,0,0.2356276570631264,[21600|0|0]
21602,1.292765498161316,-0.3169107437133789,0.0024046057369560003,-0.38523560762405396,0.5258790850639343,-10.159092903137207,4.1328125,0,"['C1', 'F2', 'F1']",7.6,180,0,0.23594389827580425,[21700|0|0]
21702,1.2928816080093384,-0.31652018427848816,0.002496170112863183,-0.40013399720191956,0.5232405662536621,-10.137351036071777,4.1328125,0,"['C1', 'F2', 'F1']",7.6,180,0,0.23636151317487425,[21800|0|0]
21802,1.2928032875061035,-0.31715840101242065,0.002405270002782345,-0.3758993446826935,0.5314989686012268,-10.149660110473633,4.1328125,0,"['C1', 'F2', 'F1']",7.6,180,0,0.23701091099648372,[21900|0|0]
21902,1.293243646621704,-0.3167744576931,0.002561553381383419,-0.3956322968006134,0.5256072282791138,-10.153735160827637,4.1328125,0,"['C1', 'F2', 'F1']",7.6,180,0,0.23761568625851953,[22000|0|0]
22002,1.2927093505859375,-0.31657788157463074,0.0021014553494751453,-0.39822307229042053,0.5454955101013184,-10.176631927490234,4.1328125,0,"['C1', 'F2', 'F1']",7.6,180,0,0.23834767302284945,[22100|0|0]
22102,1.292870283126831,-0.31648939847946167,0.0023417784832417965,-0.4019520878791809,0.5335462689399719,-10.182312965393066,4.1328125,0,"['C1', 'F2', 'F1']",7.6,180,0,0.23865013582960853,[22200|0|0]
22202,1.2930279970169067,-0.3168110251426697,0.0026202599983662367,-0.3934308886528015,0.5237171649932861,-10.173775672912598,4.1328125,0,"['C1', 'F2', 'F1']",7.6,180,0,0.23910386409176015,[22300|0|0]
22302,1.292743444442749,-0.31672266125679016,0.002391595859080553,-0.3905388414859772,0.5312885046005249,-10.156527519226074,4.1328125,0,"['C1', 'F2', 'F1']",7.6,180,0,0.2394794511420997,[22400|0|0]
22400,1.29304039478302,-0.31685304641723633,0.0026210674550384283,-0.3879688084125519,0.5244351625442505,-10.177699089050293,4.1328125,0,"['C1', 'F2', 'F1']",7.6,180,0,0.2398767382020489,[22500|0|0]
22500,1.2933107614517212,-0.3171839118003845,0.0023643006570637226,-0.3830114006996155,0.5315560102462769,-10.15766429901123,4.1328125,0,"['C1', 'F2', 'F1']",7.6,180,0,0.2403752351687925,[22600|0|0]
22600,1.2932002544403076,-0.3171519637107849,0.002038671402260661,-0.38211148977279663,0.5332300662994385,-10.143019676208496,4.1328125,0,"['C1', 'F2', 'F1']",7.6,180,0,0.2407205855583742,[22700|0|0]
22700,1.2934359312057495,-0.3171120882034302,0.002133355475962162,-0.3836672902107239,0.5311220288276672,-10.142034530639648,4.1328125,0,"['C1', 'F2', 'F1']",7.6,180,0,0.24097768216992063,[22800|0|0]
22800,1.2933845520019531,-0.3172469437122345,0.0018360356334596872,-0.3816821575164795,0.5342795848846436,-10.157533645629883,4.1328125,0,"['C1', 'F2', 'F1']",7.6,180,0,0.24130817410565178,[22900|0|0]
22900,1.2931462526321411,-0.3174133896827698,0.0020633733365684748,-0.37853649258613586,0.5381924510002136,-10.168740272521973,4.1328125,0,"['C1', 'F2', 'F1']",7.6,180,0,0.24167719074757327,[23000|0|0]
23000,1.2935811281204224,-0.31711575388908386,0.0020180349238216877,-0.3941759765148163,0.5245248079299927,-10.192575454711914,4.1328125,0,"['C1', 'F2', 'F1']",7.6,180,0,0.24220611354691293,[23100|0|0]
23100,1.2931890487670898,-0.317404180765152,0.0019857394509017467,-0.390527606010437,0.5355018377304077,-10.195921897888184,4.1328125,0,"['C1', 'F2', 'F1']",7.6,180,0,0.24269392424761474,[23200|0|0]
23200,1.2934354543685913,-0.31703346967697144,0.0021256350446492434,-0.4042830765247345,0.534927248954773,-10.17606258392334,4.1328125,0,"['C1', 'F2', 'F1']",7.6,180,0,0.24316052172778502,[23300|0|0]
23300,1.2933887243270874,-0.31727179884910583,0.002351530361920595,-0.3984301686286926,0.5334097743034363,-10.171156883239746,4.1328125,0,"['C1', 'F2', 'F1']",7.6,180,0,0.24349220408401512,[23400|0|0]
23400,1.2934012413024902,-0.31737178564071655,0.002414172515273094,-0.3865080773830414,0.5342065691947937,-10.159052848815918,4.1328125,0,"['E1B', 'F2', 'G1']",7.6,180,0,0.24361085513772504,[23400|0|0]
23500,1.293391227722168,-0.317190557718277,0.0022961213253438473,-0.38427966833114624,0.5558820366859436,-10.206990242004395,3.119140625,0,"['E1B', 'F2', 'G1']",7.6,180,0,0.2438273728393255,[23400|0|0]
23600,1.2932335138320923,-0.31697729229927063,0.004327418282628059,1.256629467010498,-0.47311970591545105,-8.696134567260742,3.478515625,0,"['E1B', 'F2', 'G1']",7.6,180,0,0.24587591454960112,[23400|0|0]
23700,1.2952884435653687,-0.31971269845962524,0.03013460524380207,3.6750240325927734,-3.7760143280029297,-2.2839982509613037,3.658203125,0,"['E1B', 'F2', 'G1']",7.6,180,0,0.27190889520721695,[23400|0|0]
23800,1.3019061088562012,-0.3257550895214081,0.07909421622753143,-0.6414501667022705,-0.07755845040082932,1.1200151443481445,3.6640625,0,"['E1B', 'F2', 'G1']",7.6,180,0,0.321681854646285,[23400|0|0]
23900,1.3076657056808472,-0.32786625623703003,0.14371806383132935,-3.1835925579071045,1.8990492820739746,2.2824106216430664,3.68359375,0,"['E1B', 'F2', 'G1']",7.6,180,0,0.3865961955857301,[23400|0|0]
24000,1.3089057207107544,-0.3228185474872589,0.21721214056015015,-3.266317844390869,2.8646931648254395,2.0658297538757324,3.689453125,0,"['E1B', 'F2', 'G1']",7.6,180,0,0.46027384698097146,[23400|0|0]
24100,1.3055870532989502,-0.3105943202972412,0.2961220443248749,-2.0158166885375977,2.5661418437957764,1.5913097858428955,3.689453125,0,"['E1B', 'F2', 'G1']",7.6,180,0,0.5401939207793699,[23400|0|0]
24200,1.297908067703247,-0.2954200804233551,0.3768312931060791,0.13505715131759644,1.1305335760116577,1.2547409534454346,3.689453125,0,"['E1B', 'F2', 'G1']",7.6,180,0,0.6226754775927301,[23400|0|0]
24300,1.287959098815918,-0.27976638078689575,0.45851340889930725,1.7274448871612549,0.2754586935043335,1.259252667427063,3.68359375,0,"['E1B', 'F2', 'G1']",7.6,180,0,0.7064369743241512,[23400|0|0]
24400,1.277550220489502,-0.26825815439224243,0.542445719242096,2.867192506790161,-0.31407779455184937,0.9606327414512634,3.6796875,0,"['E1B', 'F2', 'G1']",7.6,180,0,0.7917916270517145,[23400|0|0]
24500,1.2672497034072876,-0.2618615925312042,0.6279824376106262,3.271542549133301,-1.1648848056793213,0.3566109836101532,3.673828125,0,"['E1B', 'F2', 'G1']",7.6,180,0,0.8781834486846697,[23400|0|0]
24600,1.2575515508651733,-0.26080989837646484,0.7161598801612854,2.4084455966949463,-0.7861216068267822,0.012023046612739563,3.6796875,0,"['E1B', 'F2', 'G1']",7.6,180,0,0.9668988453083676,[23400|0|0]
24700,1.2490655183792114,-0.2646007537841797,0.8065098524093628,2.1338207721710205,-1.6213921308517456,-0.2261010706424713,3.673828125,0,"['E1B', 'F2', 'G1']",7.6,180,0,1.0577256079794182,[23400|0|0]
24800,1.2415690422058105,-0.2716120779514313,0.8989621996879578,0.407192200422287,-0.7744200229644775,-0.48011836409568787,3.673828125,0,"['E1B', 'F2', 'G1']",7.6,180,0,1.1507459946638359,[23400|0|0]
24900,1.2349023818969727,-0.2785835862159729,0.9931994080543518,-0.051584359258413315,-0.8292957544326782,-0.6362190246582031,3.68359375,0,"['E1B', 'F2', 'G1']",7.6,180,0,1.2454755978924317,[23400|0|0]
25000,1.2286596298217773,-0.28513431549072266,1.0888283252716064,-0.08510959148406982,-1.3908847570419312,3.3984789848327637,3.6796875,0,"['E1B', 'F2', 'G1']",7.6,180,0,1.3415316951254963,[23400|0|0]
25100,1.2236695289611816,-0.29053226113319397,1.1842082738876343,-0.11774082481861115,-1.8181490898132324,7.597473621368408,3.66796875,0,"['E1B', 'F2', 'G1']",7.6,180,0,1.4371945067178498,[23400|0|0]
25200,1.2205042839050293,-0.2954574227333069,1.2808153629302979,0.15520025789737701,-1.2415847778320312,8.992510795593262,3.66796875,0,"['E1B', 'F2', 'G1']",7.6,180,0,1.533978832134468,[23400|0|0]
25300,1.2186836004257202,-0.3025895655155182,1.3748884201049805,-0.1751748025417328,-0.6166530251502991,8.764098167419434,3.689453125,0,"['E1B', 'F2', 'G1']",7.6,180,0,1.6283394300299285,[23400|0|0]
25400,1.2187021970748901,-0.30839136242866516,1.4685534238815308,-1.3980261087417603,0.3628861904144287,7.6374831199646,3.7265625,0,"['E1B', 'F2', 'G1']",7.6,180,0,1.7221839510512325,[23400|0|0]
25500,1.217703104019165,-0.31541112065315247,1.5505801439285278,-0.8304131627082825,0.6156056523323059,1.371496319770813,3.748046875,0,"['E1B', 'F2', 'G1']",7.6,180,0,1.8045165569503092,[23400|0|0]
25600,1.2171274423599243,-0.3184656500816345,1.6223986148834229,-1.719812035560608,1.653083324432373,-1.1842705011367798,3.748046875,0,"['E1B', 'F2', 'G1']",7.6,180,0,1.8764022600259171,[23400|0|0]
25700,1.2121105194091797,-0.3232094943523407,1.6759556531906128,-1.0029200315475464,1.8543111085891724,-5.11545991897583,3.736328125,0,"['E1B', 'F2', 'G1']",7.6,180,0,1.9304025371233196,[23400|0|0]
25800,1.2059035301208496,-0.32180073857307434,1.7160972356796265,-0.43489688634872437,1.2231097221374512,0.14974068105220795,3.732421875,0,"['E1B', 'F2', 'G1']",7.6,180,0,1.9710455925398769,[23400|0|0]
25900,1.2000752687454224,-0.3201926648616791,1.7431758642196655,-0.19237332046031952,0.9392356872558594,2.8048465251922607,3.7265625,0,"['E1B', 'F2', 'G1']",7.6,180,0,1.9987909823430676,[23400|0|0]
26000,1.1849535703659058,-0.3163500726222992,1.7589528560638428,0.19388599693775177,-0.6600192189216614,4.335749626159668,3.705078125,0,"['E1B', 'F2', 'G1']",7.6,180,0,2.020979825229763,[23400|0|0]
26100,1.174225926399231,-0.3112775385379791,1.7683651447296143,0.42064616084098816,-1.3844528198242188,4.690903186798096,3.701171875,0,"['E1B', 'F2', 'G1']",7.6,180,0,2.0361259179615576,[23400|0|0]
26200,1.1661968231201172,-0.31289589405059814,1.7730275392532349,0.4236051142215729,-2.3978676795959473,4.0658159255981445,3.6953125,0,"['E1B', 'F2', 'G1']",7.6,180,0,2.0455505397961877,[23400|0|0]
26300,1.1603106260299683,-0.31630581617355347,1.7667485475540161,0.12830516695976257,-2.3465230464935303,1.3517128229141235,3.68359375,0,"['E1B', 'F2', 'G1']",7.6,180,0,2.0548080028302786,[23400|0|0]
26400,1.1525152921676636,-0.3151649236679077,1.7608698606491089,-0.43422871828079224,-3.4010448455810547,-0.5631300210952759,3.673828125,0,"['E1B', 'F2', 'G1']",7.6,180,49.2538364361192,2.06463794817398,[23400|0|0]
26500,1.149564504623413,-0.31611400842666626,1.7505930662155151,-0.7998077273368835,-2.634528160095215,-4.199070930480957,3.66796875,0,"['E1B', 'F2', 'G1']",7.6,180,49.2538364361192,2.075372025350941,[23400|0|0]
26600,1.1564490795135498,-0.3305434286594391,1.7428081035614014,-6.634767055511475,4.209693908691406,-7.2986602783203125,3.611328125,0,"['E1B', 'F2', 'G1']",7.6,180,49.2538364361192,2.093154353184996,[23400|0|0]
26700,1.1543108224868774,-0.3303818702697754,1.7372980117797852,-13.869797706604004,16.17648696899414,-11.564994812011719,3.62109375,0,"['E1B', 'F2', 'G1']",7.6,180,49.2538364361192,2.099066996897179,[23400|0|0]
26800,1.1430226564407349,-0.28570276498794556,1.7374882698059082,-16.80902671813965,17.56825065612793,-13.06124496459961,3.62109375,0,"['E1B', 'F2', 'G1']",7.6,180,49.2538364361192,2.1451504140836968,[23400|0|0]
26900,1.103806734085083,-0.18613745272159576,1.7418252229690552,-14.11883544921875,17.35870361328125,-14.391721725463867,3.63671875,0,"['E1B', 'F2', 'G1']",7.6,180,49.2538364361192,2.2522482625011118,[23400|0|0]
27000,1.1554030179977417,-0.08961453288793564,1.7369590997695923,-5.029625415802002,8.090459823608398,-8.880797386169434,3.6484375,0,"['E1B', 'F2', 'G1']",7.6,180,49.2538364361192,2.3618043199411423,[23400|0|0]
27100,1.1439640522003174,0.03062313422560692,1.7423269748687744,6.136543273925781,13.719474792480469,-8.714054107666016,3.6484375,0,"['E1B', 'F2', 'G1']",7.6,180,49.2538364361192,2.48270411569987,[23400|0|0]
27200,1.1134445667266846,0.14388366043567657,1.750363826751709,12.710251808166504,11.549942970275879,-7.049952507019043,3.658203125,0,"['E1B', 'F2', 'G1']",7.6,180,49.2538364361192,2.6002795246047317,[23400|0|0]
27300,1.0630606412887573,0.2421128749847412,1.7587881088256836,15.524986267089844,8.740814208984375,-5.845466613769531,3.658203125,0,"['E1B', 'F2', 'G1']",7.6,180,49.2538364361192,2.710997576709719,[23400|0|0]
27400,0.9974270462989807,0.3159623444080353,1.7638194561004639,16.222177505493164,4.1480712890625,-4.905311107635498,3.658203125,0,"['E1B', 'F2', 'G1']",7.6,180,49.2538364361192,2.809925971929613,[23400|0|0]
27500,0.9250140190124512,0.3676268458366394,1.773998737335205,14.285422325134277,-0.3538413345813751,-7.368735313415527,3.642578125,0,"['E1B', 'F2', 'G1']",7.6,180,49.2538364361192,2.8994607975290516,[23400|0|0]
27600,0.8460826277732849,0.4014193117618561,1.773655652999878,10.770197868347168,-5.961563587188721,-15.215888023376465,3.65234375,0,"['E1B', 'F2', 'G1']",7.6,180,49.2538364361192,2.9853223895427012,[23400|0|0]
27700,0.777548611164093,0.4122925102710724,1.7773693799972534,8.391389846801758,-8.2844877243042,-11.120489120483398,3.65234375,0,"['E1B', 'F2', 'G1']",7.6,180,49.2538364361192,3.0548128899483022,[23400|0|0]
27800,0.7232484221458435,0.4114856719970703,1.7858779430389404,5.594970703125,-8.468683242797852,-2.6455304622650146,3.642578125,0,"['E1B', 'F2', 'G1']",7.6,180,49.2538364361192,3.109781582496446,[23400|0|0]
27900,0.6758915781974792,0.4167669117450714,1.7823503017425537,2.560739278793335,-8.615645408630371,-0.6121772527694702,3.66796875,0,"['E1B', 'F2', 'G1']",7.6,180,49.2538364361192,3.1575623988890276,[23400|0|0]
28000,0.6327306032180786,0.4285426437854767,1.7778809070587158,2.589092254638672,-8.145227432250977,0.9723955988883972,3.642578125,0,"['E1B', 'F2', 'G1']",7.6,180,49.2538364361192,3.202523639030952,[23400|0|0]
28100,0.6055015325546265,0.4351797103881836,1.7779552936553955,2.548720598220825,-7.367008209228516,1.1670715808868408,3.658203125,0,"['E1B', 'F2', 'G1']",7.6,180,49.2538364361192,3.2305500279465758,[23400|0|0]
28200,0.5820956230163574,0.4466448426246643,1.7802801132202148,3.5117056369781494,-7.039855480194092,0.5170331597328186,3.658203125,0,"['E1B', 'F2', 'G1']",7.6,180,49.2538364361192,3.25671662200317,[23400|0|0]
28300,0.5715755224227905,0.4511830508708954,1.7863726615905762,3.3073878288269043,-6.290833950042725,-0.018409626558423042,3.642578125,0,"['E1B', 'F2', 'G1']",7.6,180,49.2538364361192,3.269693023516306,[23400|0|0]
28400,0.5615054965019226,0.45925772190093994,1.7741954326629639,3.035966157913208,-4.614892959594727,0.21087734401226044,3.66796875,0,"['E1B', 'F2', 'G1']",7.6,180,49.2538364361192,3.287438181691027,[23400|0|0]
28500,0.5533950924873352,0.4692867398262024,1.7769699096679688,4.255192756652832,-4.32012414932251,3.639484405517578,3.6484375,0,"['E1B', 'F2', 'G1']",7.6,180,49.2538364361192,3.300631269899493,[23400|0|0]
28600,0.5554081797599792,0.4675064980983734,1.7673357725143433,4.308043956756592,-3.8533260822296143,4.557039737701416,3.63671875,0,"['E1B', 'F2', 'G1']",7.6,180,49.2538364361192,3.310633188698986,[23400|0|0]
28700,0.5618677735328674,0.4615737199783325,1.7606979608535767,3.9941561222076416,-3.236658811569214,4.00417423248291,3.6484375,0,"['E1B', 'F2', 'G1']",7.6,180,49.2538364361192,3.3216324955669747,[23400|0|0]
28800,0.5713831186294556,0.45107850432395935,1.7513856887817383,2.9449799060821533,-1.789422631263733,6.302881240844727,3.642578125,0,"['E1B', 'F2', 'G1']",7.6,180,49.2538364361192,3.3385856591383822,[23400|0|0]
28900,0.5838937163352966,0.43525052070617676,1.7437185049057007,2.2298812866210938,-1.5525201559066772,4.017503261566162,3.63671875,0,"['E1B', 'F2', 'G1']",7.6,180,49.2538364361192,3.360168657747268,[23400|0|0]
29000,0.5972146987915039,0.4172894358634949,1.7385368347167969,0.60390704870224,-0.9902881383895874,2.7197885513305664,3.630859375,0,"['E1B', 'F2', 'G1']",7.6,180,49.2538364361192,3.3831229350887826,[23400|0|0]
29100,0.611852765083313,0.3992997109889984,1.7341465950012207,-0.954698383808136,0.28976473212242126,1.763930320739746,3.658203125,0,"['E1B', 'F2', 'G1']",7.6,180,49.2538364361192,3.4067275403721524,[23400|0|0]
29200,0.6248325705528259,0.3846958875656128,1.7298903465270996,-1.0152480602264404,0.07016311585903168,1.4659916162490845,3.6484375,0,"['E1B', 'F2', 'G1']",7.6,180,49.2538364361192,3.4267241065694094,[23400|0|0]
29300,0.6358304619789124,0.3706393539905548,1.7230186462402344,-1.6532155275344849,0.581181526184082,1.1836968660354614,3.642578125,0,"['E1B', 'F2', 'G1']",7.6,180,49.2538364361192,3.445848959949219,[23400|0|0]
29400,0.6448893547058105,0.35795339941978455,1.7127201557159424,-1.8966904878616333,0.8114374279975891,0.884355902671814,3.63671875,0,"['E1B', 'F2', 'G1']",7.6,180,49.2538364361192,3.4645319973866386,[23400|0|0]
