time.ms,stateEstimate.x,stateEstimate.y,stateEstimate.z,stabilizer.roll,stabilizer.pitch,stabilizer.yaw,pm.vbat,drone_id,node_name,wind_speed,global_wind_direction,relative_wind_direction,travel_dist,waiting_time
0,1.6876146793365479,1.1802538633346558,-0.03734874725341797,-0.10449732095003128,0.5742260813713074,-2.556903123855591,4.16015625,1,"['C1', 'F2', 'F1']",7.6,180,0,0.05656591673611834,[100|0|0]
101,1.6837772130966187,1.1767305135726929,-0.04217679798603058,-0.01884651556611061,0.6525203585624695,-2.5546860694885254,4.16015625,1,"['C1', 'F2', 'F1']",7.6,180,0,0.06366874818311195,[200|0|0]
201,1.6840355396270752,1.1766512393951416,-0.04180259630084038,-0.042645346373319626,0.6286017894744873,-2.5892446041107178,4.16015625,1,"['C1', 'F2', 'F1']",7.6,180,0,0.064130314963506,[300|0|0]
301,1.6837491989135742,1.1766483783721924,-0.0416627936065197,-0.01508265919983387,0.6552577614784241,-2.586669445037842,4.16015625,1,"['C1', 'F2', 'F1']",7.6,180,0,0.06444897462992126,[400|0|0]
401,1.6838648319244385,1.1770641803741455,-0.041983816772699356,0.01961098238825798,0.6810303330421448,-2.610774040222168,4.16015625,1,"['C1', 'F2', 'F1']",7.6,180,0,0.06498685767599519,[500|0|0]
501,1.684139370918274,1.176952838897705,-0.04250147566199303,0.04629289731383324,0.7058757543563843,-2.5926921367645264,4.16015625,1,"['C1', 'F2', 'F1']",7.6,180,0,0.06558329653218824,[600|0|0]
601,1.683746576309204,1.1767687797546387,-0.04159306362271309,0.02279393933713436,0.6943725943565369,-2.5920186042785645,4.16015625,1,"['C1', 'F2', 'F1']",7.6,180,0,0.0665899632129567,[700|0|0]
701,1.6838953495025635,1.1770610809326172,-0.04220888763666153,0.025564061477780342,0.695767879486084,-2.5760087966918945,4.16015625,1,"['C1', 'F2', 'F1']",7.6,180,0,0.06728768282559887,[800|0|0]
801,1.6837186813354492,1.1770350933074951,-0.04210403189063072,0.03972921893000603,0.7069609761238098,-2.576483964920044,4.16015625,1,"['C1', 'F2', 'F1']",7.6,180,0,0.06749476185738788,[900|0|0]
901,1.6836096048355103,1.1761878728866577,-0.041678108274936676,0.05859096720814705,0.715716540813446,-2.573864459991455,4.16015625,1,"['C1', 'F2', 'F1']",7.6,180,0,0.06844927275346437,[1000|0|0]
1001,1.6836210489273071,1.17672598361969,-0.042221296578645706,0.050497207790613174,0.7177095413208008,-2.5920841693878174,4.16015625,1,"['C1', 'F2', 'F1']",7.6,180,0,0.06921396070389109,[1100|0|0]
1101,1.6834172010421753,1.176205039024353,-0.04192432388663292,0.06592140346765518,0.7181282043457031,-2.583700656890869,4.16015625,1,"['C1', 'F2', 'F1']",7.6,180,0,0.06984730895839629,[1200|0|0]
1201,1.6833363771438599,1.1764570474624634,-0.04200096055865288,0.0549386702477932,0.7154061794281006,-2.6039798259735107,4.16015625,1,"['C1', 'F2', 'F1']",7.6,180,0,0.07012283379378507,[1300|0|0]
1300,1.683621883392334,1.1765114068984985,-0.042140115052461624,0.04677961394190788,0.704688549041748,-2.592581272125244,4.16015625,1,"['C1', 'F2', 'F1']",7.6,180,0,0.07044506467273834,[1400|0|0]
1400,1.6835854053497314,1.1762964725494385,-0.04192067310214043,0.03614005818963051,0.7059918642044067,-2.6021575927734375,4.16015625,1,"['C1', 'F2', 'F1']",7.6,180,0,0.07075439005410682,[1500|0|0]
1500,1.6835863590240479,1.1767748594284058,-0.042239900678396225,0.023855814710259438,0.7088009715080261,-2.5909523963928223,4.16015625,1,"['C1', 'F2', 'F1']",7.6,180,0,0.071329508442706,[1600|0|0]
1600,1.6833717823028564,1.176689863204956,-0.042239297181367874,0.01613558642566204,0.7089811563491821,-2.6095404624938965,4.16015625,1,"['C1', 'F2', 'F1']",7.6,180,0,0.07156030682113754,[1700|0|0]
1700,1.6835136413574219,1.1767951250076294,-0.04221954196691513,0.01837114430963993,0.7039928436279297,-2.6061816215515137,4.16015625,1,"['C1', 'F2', 'F1']",7.6,180,0,0.071738054695843,[1800|0|0]
1802,1.683663249015808,1.1763745546340942,-0.04183549806475639,0.02684088796377182,0.6920899152755737,-2.5786008834838867,4.16015625,1,"['C1', 'F2', 'F1']",7.6,180,0,0.07232691088314906,[1900|0|0]
1902,1.6838617324829102,1.176550030708313,-0.0418078750371933,0.019230345264077187,0.6900256276130676,-2.588042974472046,4.16015625,1,"['C1', 'F2', 'F1']",7.6,180,0,0.07259327636700127,[2000|0|0]
2000,1.6836199760437012,1.176871418952942,-0.04200735315680504,0.011189009062945843,0.7006214261054993,-2.5838398933410645,4.16015625,1,"['C1', 'F2', 'F1']",7.6,180,0,0.07304219517913604,[2100|0|0]
2100,1.6835026741027832,1.1761666536331177,-0.042385295033454895,0.03304603695869446,0.6991961002349854,-2.5699729919433594,4.16015625,1,"['C1', 'F2', 'F1']",7.6,180,0,0.0738504612018635,[2200|0|0]
2200,1.6844167709350586,1.1754454374313354,-0.04289187863469124,-0.046564746648073196,0.048942483961582184,-1.8965916633605957,4.16015625,1,"['C1', 'F2', 'F1']",7.6,180,0,0.07512024574009457,[2300|0|0]
2300,1.6842795610427856,1.1761561632156372,-0.0417323037981987,-0.13137264549732208,0.5043160319328308,-2.2095890045166016,4.16015625,1,"['C1', 'F2', 'F1']",7.6,180,0,0.07648720276079259,[2400|0|0]
2400,1.6839338541030884,1.1764308214187622,-0.04160585626959801,-0.22215020656585693,0.9289472103118896,-2.291973114013672,4.16015625,1,"['C1', 'F2', 'F1']",7.6,180,0,0.07694648414969042,[2500|0|0]
2500,1.6837036609649658,1.1764411926269531,-0.04183327779173851,-0.23248796164989471,1.074558973312378,-2.3855419158935547,4.16015625,1,"['C1', 'F2', 'F1']",7.6,180,0,0.07727023867325844,[2600|0|0]
2600,1.6834259033203125,1.1770390272140503,-0.04219761863350868,-0.2338355928659439,1.090870976448059,-2.4751508235931396,4.16015625,1,"['C1', 'F2', 'F1']",7.6,180,0,0.07802343171071617,[2700|0|0]
2700,1.6832889318466187,1.176641821861267,-0.04192565381526947,-0.17459894716739655,1.039766550064087,-2.549703598022461,4.16015625,1,"['C1', 'F2', 'F1']",7.6,180,0,0.07852392960206575,[2800|0|0]
2800,1.6832984685897827,1.1765379905700684,-0.041952699422836304,-0.13594362139701843,0.9676001071929932,-2.563983917236328,4.16015625,1,"['C1', 'F2', 'F1']",7.6,180,0,0.0786316484555262,[2900|0|0]
2900,1.6832668781280518,1.1767538785934448,-0.04239935055375099,-0.11464998871088028,0.9209877848625183,-2.579279899597168,4.16015625,1,"['C1', 'F2', 'F1']",7.6,180,0,0.079128742841591,[3000|0|0]
3000,1.6834102869033813,1.1768684387207031,-0.042185261845588684,-0.09978123754262924,0.8758376836776733,-2.595137357711792,4.16015625,1,"['C1', 'F2', 'F1']",7.6,180,0,0.07941074297379234,[3100|0|0]
3100,1.6836687326431274,1.1767929792404175,-0.04199261590838432,-0.08025884628295898,0.8409215807914734,-2.6262221336364746,4.16015625,1,"['C1', 'F2', 'F1']",7.6,180,0,0.0797418030751021,[3200|0|0]
3200,1.6836483478546143,1.1766529083251953,-0.04182126745581627,-0.0626879334449768,0.813231885433197,-2.6394970417022705,4.16015625,1,"['C1', 'F2', 'F1']",7.6,180,0,0.07996405449375082,[3300|0|0]
3300,1.6832720041275024,1.1766496896743774,-0.042085468769073486,-0.06058508902788162,0.8054763078689575,-2.6528091430664062,4.16015625,1,"['C1', 'F2', 'F1']",7.6,180,0,0.0804238884796374,[3400|0|0]
3400,1.683355689048767,1.1768271923065186,-0.04206012189388275,-0.057389821857213974,0.7802769541740417,-2.653076410293579,4.16015625,1,"['C1', 'F2', 'F1']",7.6,180,0,0.08062175918122312,[3500|0|0]
3500,1.6833746433258057,1.1764867305755615,-0.04172268882393837,-0.038842909038066864,0.7621936202049255,-2.6426379680633545,4.15234375,1,"['C1', 'F2', 'F1']",7.6,180,0,0.08110148257189362,[3600|0|0]
3600,1.6836861371994019,1.176358699798584,-0.04231194034218788,-0.03644938766956329,0.7456902861595154,-2.634186267852783,4.16015625,1,"['C1', 'F2', 'F1']",7.6,180,0,0.08178018550020673,[3700|0|0]
3700,1.6838934421539307,1.1768978834152222,-0.04225815087556839,-0.017494311556220055,0.7447423934936523,-2.6283204555511475,4.16015625,1,"['C1', 'F2', 'F1']",7.6,180,0,0.08236034722192097,[3800|0|0]
3800,1.6838268041610718,1.17693293094635,-0.04228625074028969,0.00045961097930558026,0.7440429329872131,-2.641735792160034,4.16015625,1,"['C1', 'F2', 'F1']",7.6,180,0,0.08244071235072556,[3900|0|0]
3900,1.684138536453247,1.1766160726547241,-0.042702771723270416,0.027491610497236252,0.7328941822052002,-2.6195414066314697,4.16015625,1,"['C1', 'F2', 'F1']",7.6,180,0,0.08304986416121309,[4000|0|0]
4000,1.683729887008667,1.176190972328186,-0.04249344766139984,0.06020179018378258,0.7385138273239136,-2.613537073135376,4.16015625,1,"['C1', 'F2', 'F1']",7.6,180,0,0.08367558072568648,[4100|0|0]
4100,1.6840943098068237,1.1769860982894897,-0.04207509011030197,-0.019877903163433075,0.6842295527458191,-2.61592698097229,4.16015625,1,"['C1', 'F2', 'F1']",7.6,180,0,0.08464514367398646,[4200|0|0]
4200,1.6838328838348389,1.1764496564865112,-0.04175035282969475,-0.04673692584037781,0.661711573600769,-2.6115472316741943,4.16015625,1,"['C1', 'F2', 'F1']",7.6,180,0,0.08532453137495494,[4300|0|0]
4300,1.683935284614563,1.1765365600585938,-0.04197728633880615,-0.02141803875565529,0.6668685078620911,-2.6240603923797607,4.16015625,1,"['C1', 'F2', 'F1']",7.6,180,0,0.08558823000613536,[4400|0|0]
4400,1.683919072151184,1.1759282350540161,-0.04181095212697983,0.018163135275244713,0.6939756870269775,-2.62927508354187,4.16015625,1,"['C1', 'F2', 'F1']",7.6,180,0,0.08621909387828773,[4500|0|0]
4500,1.6841591596603394,1.176679015159607,-0.04223708435893059,0.03982305899262428,0.7026656270027161,-2.634892702102661,4.16015625,1,"['C1', 'F2', 'F1']",7.6,180,0,0.08711514156569654,[4600|0|0]
4600,1.68384850025177,1.1765871047973633,-0.042367495596408844,0.06455634534358978,0.7220843434333801,-2.6290597915649414,4.16015625,1,"['C1', 'F2', 'F1']",7.6,180,0,0.08746437483112385,[4700|0|0]
4700,1.6840894222259521,1.1767851114273071,-0.042518287897109985,0.07239721715450287,0.7248287200927734,-2.6256556510925293,4.16015625,1,"['C1', 'F2', 'F1']",7.6,180,0,0.08781076816405085,[4800|0|0]
4800,1.6837745904922485,1.1763533353805542,-0.042432088404893875,0.09236712753772736,0.7353322505950928,-2.6455917358398438,4.16015625,1,"['C1', 'F2', 'F1']",7.6,180,0,0.08835204436670041,[4900|0|0]
4900,1.6839923858642578,1.1760778427124023,-0.04230663552880287,0.10050516575574875,0.7293695211410522,-2.62402606010437,4.16015625,1,"['C1', 'F2', 'F1']",7.6,180,0,0.08872496454367343,[5000|0|0]
5000,1.6841224431991577,1.1767688989639282,-0.042548127472400665,0.0782138779759407,0.729100227355957,-2.622863531112671,4.16015625,1,"['C1', 'F2', 'F1']",7.6,180,0,0.08946846438359063,[5100|0|0]
5100,1.683734655380249,1.1763296127319336,-0.04224788025021553,0.10395568609237671,0.7388482093811035,-2.6395421028137207,4.16015625,1,"['C1', 'F2', 'F1']",7.6,180,0,0.09012687168955244,[5200|0|0]
5200,1.6835952997207642,1.1761966943740845,-0.04206009581685066,0.09793173521757126,0.7388501167297363,-2.61877703666687,4.16015625,1,"['C1', 'F2', 'F1']",7.6,180,0,0.09039585176892252,[5300|0|0]
5300,1.6839487552642822,1.1765950918197632,-0.042021751403808594,0.07693830132484436,0.7244991064071655,-2.6042897701263428,4.15234375,1,"['C1', 'F2', 'F1']",7.6,180,0,0.09092981959564855,[5400|0|0]
5400,1.683717131614685,1.1762278079986572,-0.04238925501704216,0.07729128003120422,0.7291885018348694,-2.578488826751709,4.16015625,1,"['C1', 'F2', 'F1']",7.6,180,0,0.09149868322257387,[5500|0|0]
5500,1.683854579925537,1.1761454343795776,-0.04213203862309456,0.0763012170791626,0.7313657402992249,-2.5823869705200195,4.16015625,1,"['C1', 'F2', 'F1']",7.6,180,0,0.09180173061918331,[5600|0|0]
5600,1.68387770652771,1.176414132118225,-0.04264502599835396,0.06721769273281097,0.7286145091056824,-2.5895230770111084,4.16015625,1,"['C1', 'F2', 'F1']",7.6,180,0,0.09238129024653657,[5700|0|0]
5700,1.6837407350540161,1.1766331195831299,-0.042553916573524475,0.059848494827747345,0.7283492684364319,-2.5805084705352783,4.16015625,1,"['C1', 'F2', 'F1']",7.6,180,0,0.09265518369604578,[5800|0|0]
5800,1.68398916721344,1.176546573638916,-0.04237283021211624,0.0650666132569313,0.7135673761367798,-2.583735704421997,4.16015625,1,"['C1', 'F2', 'F1']",7.6,180,0,0.09297455966349469,[5900|0|0]
5900,1.6837552785873413,1.1764940023422241,-0.042662475258111954,0.07334541529417038,0.7157917022705078,-2.5701892375946045,4.15234375,1,"['C1', 'F2', 'F1']",7.6,180,0,0.09335054089085057,[6000|0|0]
6000,1.683830976486206,1.176513910293579,-0.04248763248324394,0.06622564792633057,0.7141212821006775,-2.567798614501953,4.16015625,1,"['C1', 'F2', 'F1']",7.6,180,0,0.09354210418154907,[6100|0|0]
6100,1.683768391609192,1.1766605377197266,-0.04210444912314415,0.06455553323030472,0.714271068572998,-2.589338541030884,4.16015625,1,"['C1', 'F2', 'F1']",7.6,180,0,0.09395712942943993,[6200|0|0]
6200,1.6836708784103394,1.176685094833374,-0.04243065416812897,0.06191416084766388,0.7185794115066528,-2.5789954662323,4.15234375,1,"['C1', 'F2', 'F1']",7.6,180,0,0.09429848204354255,[6300|0|0]
6300,1.6837633848190308,1.1762969493865967,-0.04227147996425629,0.06758295744657516,0.7163888812065125,-2.5977210998535156,4.16015625,1,"['C1', 'F2', 'F1']",7.6,180,0,0.09472807574773462,[6400|0|0]
6400,1.6838791370391846,1.1763349771499634,-0.042555760592222214,0.06054065749049187,0.7183029055595398,-2.5897440910339355,4.16015625,1,"['C1', 'F2', 'F1']",7.6,180,0,0.09503736551913664,[6500|0|0]
6500,1.68364679813385,1.1761720180511475,-0.04209006205201149,0.06508765369653702,0.7324402332305908,-2.5694823265075684,4.16015625,1,"['C1', 'F2', 'F1']",7.6,180,0,0.09558272060087084,[6600|0|0]
6600,1.6840838193893433,1.1763916015625,-0.04178992286324501,0.06372926384210587,0.7279238700866699,-2.58443021774292,4.16015625,1,"['C1', 'F2', 'F1']",7.6,180,0,0.09615655683956977,[6700|0|0]
6700,1.6837999820709229,1.1765830516815186,-0.042095206677913666,0.054281409829854965,0.7347124814987183,-2.5925450325012207,4.16015625,1,"['C1', 'F2', 'F1']",7.6,180,0,0.09661526696470213,[6800|0|0]
6800,1.6839720010757446,1.1766357421875,-0.0425807386636734,0.052783992141485214,0.7274410128593445,-2.6093032360076904,4.16015625,1,"['C1', 'F2', 'F1']",7.6,180,0,0.09713305856045881,[6900|0|0]
6900,1.6839529275894165,1.1765412092208862,-0.042411331087350845,0.05270715430378914,0.7267606258392334,-2.615199565887451,4.16015625,1,"['C1', 'F2', 'F1']",7.6,180,0,0.09732799241224703,[7000|0|0]
7000,1.6837056875228882,1.1762809753417969,-0.04211271181702614,0.05837728828191757,0.7407877445220947,-2.623444080352783,4.16015625,1,"['C1', 'F2', 'F1']",7.6,180,0,0.09779492151921304,[7100|0|0]
7100,1.6836795806884766,1.1765861511230469,-0.04237045347690582,0.045325279235839844,0.7369939684867859,-2.63759446144104,4.16015625,1,"['C1', 'F2', 'F1']",7.6,180,0,0.09819522713683797,[7200|0|0]
7200,1.6838006973266602,1.176435112953186,-0.042615022510290146,0.04865100234746933,0.7335764765739441,-2.61700701713562,4.16015625,1,"['C1', 'F2', 'F1']",7.6,180,0,0.09850714985305202,[7300|0|0]
7300,1.683513879776001,1.1760833263397217,-0.042709823697805405,0.07575615495443344,0.6692285537719727,-2.6545209884643555,4.16015625,1,"['C1', 'F2', 'F1']",7.6,180,0,0.09897083659421803,[7400|0|0]
7400,1.6839845180511475,1.1761810779571533,-0.042275190353393555,0.06360162049531937,0.683452308177948,-2.628443479537964,4.16015625,1,"['C1', 'F2', 'F1']",7.6,180,0,0.09961888127540752,[7500|0|0]
7500,1.684206247329712,1.1763759851455688,-0.042055051773786545,-0.007702263537794352,0.6683132648468018,-2.641287326812744,4.16015625,1,"['C1', 'F2', 'F1']",7.6,180,0,0.09998713890166956,[7600|0|0]
7600,1.6841723918914795,1.176427960395813,-0.04214740917086601,-0.059874653816223145,0.6534878015518188,-2.629892587661743,4.16015625,1,"['C1', 'F2', 'F1']",7.6,180,0,0.10009839314262758,[7700|0|0]
7700,1.6838749647140503,1.1765576601028442,-0.04204651713371277,-0.04535365477204323,0.6814266443252563,-2.6142208576202393,4.16015625,1,"['C1', 'F2', 'F1']",7.6,180,0,0.10043819329424383,[7800|0|0]
7800,1.683974266052246,1.176008701324463,-0.04177997261285782,-0.025205275043845177,0.6974223852157593,-2.5825228691101074,4.16015625,1,"['C1', 'F2', 'F1']",7.6,180,0,0.10105646708289026,[7900|0|0]
7900,1.6838433742523193,1.1764070987701416,-0.042217399924993515,0.005207153968513012,0.7233169674873352,-2.5781219005584717,4.16015625,1,"['C1', 'F2', 'F1']",7.6,180,0,0.10166243394783722,[8000|0|0]
8000,1.6839269399642944,1.1767717599868774,-0.04245724901556969,-0.050205882638692856,0.6789709329605103,-2.5773072242736816,4.15234375,1,"['C1', 'F2', 'F1']",7.6,180,0,0.10210683086215976,[8100|0|0]
8100,1.6838270425796509,1.177045226097107,-0.042240820825099945,-0.03204941004514694,0.6866953372955322,-2.579244613647461,4.16015625,1,"['C1', 'F2', 'F1']",7.6,180,0,0.10246960401790957,[8200|0|0]
8200,1.6843005418777466,1.1765283346176147,-0.042147111147642136,-0.0006031785160303116,0.6959476470947266,-2.6005771160125732,4.16015625,1,"['C1', 'F2', 'F1']",7.6,180,0,0.1031768238497285,[8300|0|0]
8300,1.684255599975586,1.1763408184051514,-0.04208759590983391,0.01609477400779724,0.7016472816467285,-2.6005802154541016,4.16015625,1,"['C1', 'F2', 'F1']",7.6,180,0,0.10337862614911529,[8400|0|0]
8400,1.6840827465057373,1.1762621402740479,-0.04203064367175102,0.03268265724182129,0.7159954309463501,-2.59574031829834,4.16015625,1,"['C1', 'F2', 'F1']",7.6,180,0,0.10357689901103871,[8500|0|0]
8500,1.684269905090332,1.175991415977478,-0.04203755781054497,0.042506925761699677,0.7038326263427734,-2.605703592300415,4.16015625,1,"['C1', 'F2', 'F1']",7.6,180,0,0.10390609163831944,[8600|0|0]
8600,1.6842325925827026,1.1759581565856934,-0.04200297221541405,0.045212794095277786,0.7071750164031982,-2.60270094871521,4.15234375,1,"['C1', 'F2', 'F1']",7.6,180,0,0.10396687464382295,[8700|0|0]
8700,1.684576153755188,1.1759912967681885,-0.042145464569330215,0.043504875153303146,0.695802628993988,-2.5898399353027344,4.16015625,1,"['C1', 'F2', 'F1']",7.6,180,0,0.10434028677787846,[8800|0|0]
8800,1.684008002281189,1.1761049032211304,-0.042121630162000656,0.04616601765155792,0.7061376571655273,-2.6004090309143066,4.16015625,1,"['C1', 'F2', 'F1']",7.6,180,0,0.10492017521760635,[8900|0|0]
8900,1.6843599081039429,1.1760982275009155,-0.042476095259189606,0.04384826868772507,0.6936785578727722,-2.59913969039917,4.16015625,1,"['C1', 'F2', 'F1']",7.6,180,0,0.10541970277285598,[9000|0|0]
9000,1.6842257976531982,1.176003098487854,-0.0424792617559433,0.04357106611132622,0.6934206485748291,-2.578549385070801,4.16015625,1,"['C1', 'F2', 'F1']",7.6,180,0,0.10558415692703482,[9100|0|0]
9100,1.68442964553833,1.176271677017212,-0.042050428688526154,0.030597515404224396,0.6847133636474609,-2.5856072902679443,4.16015625,1,"['C1', 'F2', 'F1']",7.6,180,0,0.10612967153400257,[9200|0|0]
9200,1.6841312646865845,1.1761980056762695,-0.041920892894268036,0.03357827290892601,0.6853697896003723,-2.602299451828003,4.15234375,1,"['C1', 'F2', 'F1']",7.6,180,0,0.10646319532799449,[9300|0|0]
9300,1.684183955192566,1.1762216091156006,-0.04200594872236252,0.03209662437438965,0.6822344064712524,-2.591693162918091,4.16015625,1,"['C1', 'F2', 'F1']",7.6,180,0,0.1065659956473601,[9400|0|0]
9400,1.684442400932312,1.1763825416564941,-0.04215696081519127,0.02912597917020321,0.6846190690994263,-2.5789291858673096,4.16015625,1,"['C1', 'F2', 'F1']",7.6,180,0,0.10690584581330369,[9500|0|0]
9500,1.6843732595443726,1.1761671304702759,-0.041844483464956284,0.03152824938297272,0.680232048034668,-2.5794732570648193,4.15234375,1,"['C1', 'F2', 'F1']",7.6,180,0,0.10729162373527958,[9600|0|0]
9600,1.6843721866607666,1.176322102546692,-0.042326681315898895,0.024252992123365402,0.6846825480461121,-2.59049391746521,4.16015625,1,"['C1', 'F2', 'F1']",7.6,180,0,0.10779811387635006,[9700|0|0]
9700,1.6841239929199219,1.1762052774429321,-0.04192093759775162,0.018190130591392517,0.6920285224914551,-2.626077890396118,4.16015625,1,"['C1', 'F2', 'F1']",7.6,180,0,0.10828788545849725,[9800|0|0]
9800,1.6842567920684814,1.1763249635696411,-0.04212372750043869,0.012355223298072815,0.6849926710128784,-2.615389108657837,4.16015625,1,"['C1', 'F2', 'F1']",7.6,180,0,0.10855822622016034,[9900|0|0]
9900,1.684058666229248,1.1759347915649414,-0.042150333523750305,0.03475577384233475,0.689327597618103,-2.6086843013763428,4.16015625,1,"['C1', 'F2', 'F1']",7.6,180,0,0.1089966277734192,[10000|0|0]
10000,1.684411644935608,1.1760294437408447,-0.04200803115963936,0.032805461436510086,0.6751323938369751,-2.619555950164795,4.16015625,1,"['C1', 'F2', 'F1']",7.6,180,0,0.10938880498384618,[10100|0|0]
10100,1.684519648551941,1.1763595342636108,-0.042080339044332504,0.028450317680835724,0.6769554018974304,-2.5886917114257812,4.15234375,1,"['C1', 'F2', 'F1']",7.6,180,0,0.10974356259764723,[10200|0|0]
10200,1.684471607208252,1.1763534545898438,-0.04215910658240318,0.03061489388346672,0.6793597936630249,-2.5993165969848633,4.16015625,1,"['C1', 'F2', 'F1']",7.6,180,0,0.10983602479635714,[10300|0|0]
10300,1.684194803237915,1.1760320663452148,-0.04190154746174812,0.0372297428548336,0.6926056146621704,-2.598562002182007,4.16015625,1,"['C1', 'F2', 'F1']",7.6,180,0,0.11033225815115358,[10400|0|0]
10400,1.6846463680267334,1.1759757995605469,-0.042053889483213425,0.031046083196997643,0.6813268065452576,-2.5784623622894287,4.16015625,1,"['C1', 'F2', 'F1']",7.6,180,0,0.1108121381372559,[10500|0|0]
10500,1.6839650869369507,1.1764261722564697,-0.042089976370334625,0.029575584456324577,0.6970621347427368,-2.5776572227478027,4.16015625,1,"['C1', 'F2', 'F1']",7.6,180,0,0.11162962315360205,[10600|0|0]
10600,1.6845117807388306,1.175992488861084,-0.04211537912487984,0.037863802164793015,0.6833126544952393,-2.5932223796844482,4.16015625,1,"['C1', 'F2', 'F1']",7.6,180,0,0.11232790726511087,[10700|0|0]
10700,1.683989405632019,1.1763253211975098,-0.04214722290635109,0.040834639221429825,0.7048589587211609,-2.5826289653778076,4.15234375,1,"['C1', 'F2', 'F1']",7.6,180,0,0.11294812266543997,[10800|0|0]
10800,1.6841366291046143,1.1760838031768799,-0.0421723909676075,0.03616999834775925,0.6986953616142273,-2.5808427333831787,4.16015625,1,"['C1', 'F2', 'F1']",7.6,180,0,0.11323209297459108,[10900|0|0]
10900,1.684017539024353,1.1762874126434326,-0.04212750867009163,-0.026629934087395668,0.6728249788284302,-2.56689453125,4.16015625,1,"['C1', 'F2', 'F1']",7.6,180,0,0.11347220478753833,[11000|0|0]
11000,1.6839293241500854,1.1765704154968262,-0.042143598198890686,-0.016780637204647064,0.6827080845832825,-2.55871319770813,4.15234375,1,"['C1', 'F2', 'F1']",7.6,180,0,0.11376907403823283,[11100|0|0]
11100,1.6842727661132812,1.1763876676559448,-0.04207846149802208,-0.002810399979352951,0.683398962020874,-2.5749459266662598,4.16015625,1,"['C1', 'F2', 'F1']",7.6,180,0,0.11416352548674155,[11200|0|0]
11200,1.6837923526763916,1.1762484312057495,-0.04207044839859009,0.009665178135037422,0.7028437256813049,-2.5811660289764404,4.16015625,1,"['C1', 'F2', 'F1']",7.6,180,0,0.11466377349440338,[11300|0|0]
11300,1.684049129486084,1.1759562492370605,-0.04199107736349106,0.03508478403091431,0.7191648483276367,-2.582190990447998,4.15234375,1,"['C1', 'F2', 'F1']",7.6,180,0,0.11506076769339808,[11400|0|0]
11400,1.6844395399093628,1.1759846210479736,-0.04185962304472923,-0.013978487811982632,0.6720182299613953,-2.5620834827423096,4.15234375,1,"['C1', 'F2', 'F1']",7.6,180,0,0.11547369080510335,[11500|0|0]
11500,1.684385895729065,1.175927758216858,-0.0419301763176918,0.015683595091104507,0.6877418756484985,-2.5957999229431152,4.16015625,1,"['C1', 'F2', 'F1']",7.6,180,0,0.11557899438513772,[11600|0|0]
11600,1.6841622591018677,1.1760960817337036,-0.04231414943933487,0.02839404158294201,0.7028298377990723,-2.6047158241271973,4.15234375,1,"['C1', 'F2', 'F1']",7.6,180,0,0.116054159099202,[11700|0|0]
11700,1.6838537454605103,1.1762422323226929,-0.041613589972257614,-0.006410923786461353,0.6869398355484009,-2.595294952392578,4.16015625,1,"['C1', 'F2', 'F1']",7.6,180,0,0.11683346919696609,[11800|0|0]
11800,1.684119701385498,1.1765145063400269,-0.04193077236413956,0.011156124994158745,0.6867953538894653,-2.6044161319732666,4.16015625,1,"['C1', 'F2', 'F1']",7.6,180,0,0.11732891885563107,[11900|0|0]
11900,1.6842772960662842,1.1766129732131958,-0.04229651018977165,0.023803453892469406,0.6917163133621216,-2.599517345428467,4.15234375,1,"['C1', 'F2', 'F1']",7.6,180,0,0.11773915776848777,[12000|0|0]
12000,1.6840664148330688,1.1761987209320068,-0.04197638854384422,0.037803590297698975,0.7050384283065796,-2.5973587036132812,4.15234375,1,"['C1', 'F2', 'F1']",7.6,180,0,0.1183035633984951,[12100|0|0]
12100,1.6838732957839966,1.1765224933624268,-0.042044710367918015,0.04063884913921356,0.7123324871063232,-2.598860025405884,4.16015625,1,"['C1', 'F2', 'F1']",7.6,180,0,0.11868669708986061,[12200|0|0]
12200,1.683899164199829,1.1763557195663452,-0.04196695238351822,0.04914558306336403,0.7115941643714905,-2.5800588130950928,4.16015625,1,"['C1', 'F2', 'F1']",7.6,180,0,0.11887251683621458,[12300|0|0]
12300,1.6839580535888672,1.1761188507080078,-0.042154762893915176,0.04959166795015335,0.7127618193626404,-2.55580997467041,4.15234375,1,"['C1', 'F2', 'F1']",7.6,180,0,0.11918049021819249,[12400|0|0]
12400,1.6839478015899658,1.176194667816162,-0.041662752628326416,0.05359073355793953,0.7171871066093445,-2.551219940185547,4.16015625,1,"['C1', 'F2', 'F1']",7.6,180,0,0.1196784133435995,[12500|0|0]
12500,1.684154748916626,1.1763707399368286,-0.04174480214715004,0.04887452721595764,0.70782470703125,-2.567769765853882,4.15234375,1,"['C1', 'F2', 'F1']",7.6,180,0,0.11996224553209646,[12600|0|0]
12600,1.6838035583496094,1.1759912967681885,-0.04187028482556343,0.05307357758283615,0.7090821266174316,-2.593012809753418,4.15234375,1,"['C1', 'F2', 'F1']",7.6,180,0,0.12049427733111877,[12700|0|0]
12700,1.684303879737854,1.1758366823196411,-0.04205924645066261,0.05658707395195961,0.691566526889801,-2.5929415225982666,4.16015625,1,"['C1', 'F2', 'F1']",7.6,180,0,0.12105099414871526,[12800|0|0]
12800,1.6839971542358398,1.1761987209320068,-0.04193061217665672,0.040657494217157364,0.694995641708374,-2.5888376235961914,4.15234375,1,"['C1', 'F2', 'F1']",7.6,180,0,0.12154262334524304,[12900|0|0]
12900,1.6839756965637207,1.1763272285461426,-0.04221583902835846,0.03377460688352585,0.6874650120735168,-2.5747883319854736,4.15234375,1,"['C1', 'F2', 'F1']",7.6,180,0,0.12185619789063108,[13000|0|0]
13000,1.6839320659637451,1.1759940385818481,-0.04174456372857094,0.04506629705429077,0.6907566785812378,-2.6193759441375732,4.16015625,1,"['C1', 'F2', 'F1']",7.6,180,0,0.12243500665849019,[13100|0|0]
13100,1.6838806867599487,1.1762014627456665,-0.04224273934960365,0.028332069516181946,0.6922227144241333,-2.5858876705169678,4.15234375,1,"['C1', 'F2', 'F1']",7.6,180,0,0.12297708004439825,[13200|0|0]
13200,1.684098720550537,1.1759166717529297,-0.04173721373081207,0.024489009752869606,0.6835695505142212,-2.590024471282959,4.15234375,1,"['C1', 'F2', 'F1']",7.6,180,0,0.12359691937409344,[13300|0|0]
13300,1.6838726997375488,1.1766005754470825,-0.0420687273144722,0.0009165351511910558,0.685198187828064,-2.584613561630249,4.16015625,1,"['C1', 'F2', 'F1']",7.6,180,0,0.12438983231189364,[13400|0|0]
13400,1.6837435960769653,1.1763778924942017,-0.04215459153056145,0.0073465644381940365,0.6873174905776978,-2.571650505065918,4.15234375,1,"['C1', 'F2', 'F1']",7.6,180,0,0.12466117732527038,[13500|0|0]
13500,1.6843390464782715,1.1759170293807983,-0.041960932314395905,0.017732972279191017,0.6766601204872131,-2.5869264602661133,4.15234375,1,"['C1', 'F2', 'F1']",7.6,180,0,0.12543864750586722,[13600|0|0]
13600,1.6842762231826782,1.1759368181228638,-0.04201352596282959,0.01737288013100624,0.6807928085327148,-2.5845086574554443,4.16015625,1,"['C1', 'F2', 'F1']",7.6,180,0,0.1255229354209992,[13700|0|0]
13700,1.6844940185546875,1.1758928298950195,-0.041992057114839554,0.013936059549450874,0.6677915453910828,-2.587965250015259,4.15234375,1,"['C1', 'F2', 'F1']",7.6,180,0,0.12574616333074967,[13800|0|0]
13800,1.6841696500778198,1.1760711669921875,-0.04223515838384628,0.003345257369801402,0.6741644740104675,-2.5644643306732178,4.16015625,1,"['C1', 'F2', 'F1']",7.6,180,0,0.12618901461053153,[13900|0|0]
13900,1.6842645406723022,1.1759434938430786,-0.04221392422914505,0.0036455094814300537,0.6753321886062622,-2.545715093612671,4.15234375,1,"['C1', 'F2', 'F1']",7.6,180,0,0.1263494999595528,[14000|0|0]
14000,1.684091329574585,1.1760106086730957,-0.04213697463274002,0.004532975144684315,0.6870557069778442,-2.5605804920196533,4.15234375,1,"['C1', 'F2', 'F1']",7.6,180,0,0.12655056642907855,[14100|0|0]
14100,1.6841001510620117,1.1762876510620117,-0.04178735241293907,0.005362983793020248,0.6696431040763855,-2.56842303276062,4.15234375,1,"['C1', 'F2', 'F1']",7.6,180,0,0.12699673455935598,[14200|0|0]
14200,1.6839147806167603,1.1762419939041138,-0.042320188134908676,0.006514570210129023,0.6739041209220886,-2.5786490440368652,4.16015625,1,"['C1', 'F2', 'F1']",7.6,180,0,0.12756273869772153,[14300|0|0]
14300,1.6844555139541626,1.1760510206222534,-0.04212167114019394,0.007872969843447208,0.6710466742515564,-2.591191291809082,4.15234375,1,"['C1', 'F2', 'F1']",7.6,180,0,0.128169593156182,[14400|0|0]
14400,1.684557557106018,1.1760870218276978,-0.04201256483793259,0.013008030131459236,0.6701505184173584,-2.5822386741638184,4.15234375,1,"['C1', 'F2', 'F1']",7.6,180,0,0.12832325862669244,[14500|0|0]
14500,1.6870405673980713,1.1805989742279053,-0.03726794570684433,-0.06312386691570282,0.6032351851463318,-2.587461471557617,4.15234375,1,"['C1', 'F2', 'F1']",7.6,180,0,0.13532571999904355,[14600|0|0]
14600,1.6869996786117554,1.1803356409072876,-0.03704597055912018,-0.05155280604958534,0.6012402176856995,-2.577303886413574,4.15234375,1,"['C1', 'F2', 'F1']",7.6,180,0,0.13567254747315868,[14700|0|0]
14700,1.687259316444397,1.1807935237884521,-0.03677653521299362,-0.060323845595121384,0.5987204909324646,-2.565652847290039,4.15234375,1,"['C1', 'F2', 'F1']",7.6,180,0,0.1362638713630403,[14800|0|0]
14800,1.6874666213989258,1.1809979677200317,-0.03706292808055878,-0.07685933262109756,0.5815572738647461,-2.5564708709716797,4.16015625,1,"['C1', 'F2', 'F1']",7.6,180,0,0.13667227501131501,[14900|0|0]
14900,1.687143087387085,1.1816030740737915,-0.036578841507434845,-0.16015301644802094,0.5421305894851685,-2.5406055450439453,4.15234375,1,"['C1', 'F2', 'F1']",7.6,180,0,0.13751201769003102,[15000|0|0]
15000,1.6873997449874878,1.1809704303741455,-0.037074558436870575,-0.13033826649188995,0.552772045135498,-2.5498476028442383,4.15234375,1,"['C1', 'F2', 'F1']",7.6,180,0,0.13835572762162807,[15100|0|0]
15100,1.6871955394744873,1.1811045408248901,-0.037015680223703384,-0.12242255359888077,0.5737842321395874,-2.5705649852752686,4.15234375,1,"['C1', 'F2', 'F1']",7.6,180,0,0.1386070285339314,[15200|0|0]
15200,1.68735671043396,1.1811593770980835,-0.0370410792529583,-0.0968182161450386,0.5774223208427429,-2.562525987625122,4.15234375,1,"['C1', 'F2', 'F1']",7.6,180,0,0.13877915699096904,[15300|0|0]
15300,1.687474250793457,1.1812442541122437,-0.036928463727235794,-0.08951310813426971,0.5898683667182922,-2.5780467987060547,4.15234375,1,"['C1', 'F2', 'F1']",7.6,180,0,0.13896273830885625,[15400|0|0]
15400,1.6871209144592285,1.181287407875061,-0.037381913512945175,-0.06916635483503342,0.6213463544845581,-2.5720880031585693,4.15234375,1,"['C1', 'F2', 'F1']",7.6,180,0,0.1395392151258153,[15500|0|0]
15500,1.6873148679733276,1.1817193031311035,-0.03672463819384575,-0.14708875119686127,0.5710150003433228,-2.550187826156616,4.15234375,1,"['C1', 'F2', 'F1']",7.6,180,0,0.1403492535958404,[15600|0|0]
15601,1.687246322631836,1.1816270351409912,-0.03677370771765709,-0.12354349344968796,0.5923994183540344,-2.5582900047302246,4.15234375,1,"['C1', 'F2', 'F1']",7.6,180,0,0.14047423225004443,[15700|0|0]
15701,1.687021255493164,1.1810725927352905,-0.03703086078166962,-0.08980569243431091,0.6007218956947327,-2.571422576904297,4.15234375,1,"['C1', 'F2', 'F1']",7.6,180,0,0.14112553041254772,[15800|0|0]
15801,1.6866832971572876,1.1812503337860107,-0.03712917119264603,-0.08052822947502136,0.6192080974578857,-2.5697309970855713,4.15234375,1,"['C1', 'F2', 'F1']",7.6,180,0,0.14151983062153303,[15900|0|0]
15901,1.6871097087860107,1.181296467781067,-0.03673703968524933,-0.07582733780145645,0.6141640543937683,-2.5767910480499268,4.15234375,1,"['C1', 'F2', 'F1']",7.6,180,0,0.14210096945322764,[16000|0|0]
16001,1.6867529153823853,1.1812824010849,-0.0371837317943573,-0.07681682705879211,0.6236931681632996,-2.593435287475586,4.15234375,1,"['C1', 'F2', 'F1']",7.6,180,0,0.14267283765933028,[16100|0|0]
16101,1.6871503591537476,1.1812256574630737,-0.03694865107536316,-0.07041779905557632,0.6180973649024963,-2.5957608222961426,4.15234375,1,"['C1', 'F2', 'F1']",7.6,180,0,0.1431380734430523,[16200|0|0]
16201,1.6871418952941895,1.1814100742340088,-0.03707284852862358,-0.07242816686630249,0.6178329586982727,-2.562316656112671,4.15234375,1,"['C1', 'F2', 'F1']",7.6,180,0,0.1433605733075851,[16300|0|0]
16301,1.6868280172348022,1.1807525157928467,-0.03734241798520088,-0.06496685743331909,0.627098798751831,-2.5698790550231934,4.15234375,1,"['C1', 'F2', 'F1']",7.6,180,0,0.1441374711333174,[16400|0|0]
16401,1.686971664428711,1.1807702779769897,-0.036940693855285645,-0.06749609112739563,0.6176714301109314,-2.5730373859405518,4.15234375,1,"['C1', 'F2', 'F1']",7.6,180,0,0.14456447498348685,[16500|0|0]
16501,1.6869210004806519,1.1806583404541016,-0.03741631656885147,-0.07025716453790665,0.6137086749076843,-2.575361728668213,4.15234375,1,"['C1', 'F2', 'F1']",7.6,180,0,0.14505571200400036,[16600|0|0]
16601,1.6869608163833618,1.1804393529891968,-0.0376640148460865,-0.07457465678453445,0.6060062646865845,-2.571665048599243,4.15234375,1,"['C1', 'F2', 'F1']",7.6,180,0,0.14538872139191492,[16700|0|0]
16702,1.68740975856781,1.1809873580932617,-0.037279196083545685,-0.09059679508209229,0.5933326482772827,-2.582141160964966,4.15234375,1,"['C1', 'F2', 'F1']",7.6,180,0,0.14619491253492123,[16800|0|0]
16802,1.6874662637710571,1.1806477308273315,-0.03712787851691246,-0.08335047215223312,0.5955696702003479,-2.5866122245788574,4.15234375,1,"['C1', 'F2', 'F1']",7.6,180,0,0.14657099300999138,[16900|0|0]
16900,1.6873552799224854,1.1806812286376953,-0.03724787384271622,-0.0828082337975502,0.59890216588974,-2.579113245010376,4.15234375,1,"['C1', 'F2', 'F1']",7.6,180,0,0.1467378414326921,[17000|0|0]
17000,1.687013030052185,1.1807196140289307,-0.03726623207330704,-0.0843038409948349,0.6101106405258179,-2.593580961227417,4.15234375,1,"['C1', 'F2', 'F1']",7.6,180,0,0.14708272610415676,[17100|0|0]
17100,1.6873109340667725,1.1804406642913818,-0.03704620152711868,-0.08499019593000412,0.5974318385124207,-2.565855026245117,4.15234375,1,"['C1', 'F2', 'F1']",7.6,180,0,0.14754637812803006,[17200|0|0]
17200,1.687585473060608,1.1805845499038696,-0.037031613290309906,-0.0941547229886055,0.5947449803352356,-2.5574536323547363,4.15234375,1,"['C1', 'F2', 'F1']",7.6,180,0,0.14785668047296216,[17300|0|0]
17300,1.6873106956481934,1.180627465248108,-0.03712238743901253,-0.09758991748094559,0.5991483926773071,-2.550032377243042,4.15234375,1,"['C1', 'F2', 'F1']",7.6,180,0,0.14814922841641248,[17400|0|0]
17400,1.6821467876434326,1.1776014566421509,-0.042765386402606964,0.06432252377271652,0.7023111581802368,-2.5763933658599854,4.15234375,1,"['C1', 'F2', 'F1']",7.6,180,0,0.1563751697770159,[17500|0|0]
17500,1.6863526105880737,1.1839584112167358,-0.030662618577480316,-0.11594223976135254,0.4658975303173065,-2.5304806232452393,4.15234375,1,"['C1', 'F2', 'F1']",7.6,180,0,0.17067820466944092,[17600|0|0]
17600,1.6903040409088135,1.1837406158447266,-0.03361883759498596,-0.005760046653449535,0.40461233258247375,-2.4315781593322754,4.15234375,1,"['C1', 'F2', 'F1']",7.6,180,0,0.17561788758266442,[17700|0|0]
17700,1.6881529092788696,1.1801458597183228,-0.03846311941742897,0.26247891783714294,0.6141282320022583,-2.4228355884552,4.15234375,1,"['C1', 'F2', 'F1']",7.6,180,0,0.1820223161499071,[17800|0|0]
17800,1.6879483461380005,1.180123209953308,-0.03838725760579109,0.17327772080898285,0.6416622400283813,-2.4704768657684326,4.15234375,1,"['C1', 'F2', 'F1']",7.6,180,0,0.18224166542599993,[17900|0|0]
17900,1.6875133514404297,1.1796492338180542,-0.03819380700588226,0.0898657813668251,0.6646608710289001,-2.4744315147399902,4.15234375,1,"['C1', 'F2', 'F1']",7.6,180,0,0.18291345177470764,[18000|0|0]
18000,1.6873878240585327,1.1802042722702026,-0.03802606090903282,-0.007327346131205559,0.665386974811554,-2.4840476512908936,4.15234375,1,"['C1', 'F2', 'F1']",7.6,180,0,0.18350671694305773,[18100|0|0]
18100,1.687206506729126,1.1803615093231201,-0.037498440593481064,-0.076335109770298,0.6732795834541321,-2.5248591899871826,4.15234375,1,"['C1', 'F2', 'F1']",7.6,180,0,0.1840863570573841,[18200|0|0]
18200,1.6874737739562988,1.1805565357208252,-0.037651702761650085,-0.10297209769487381,0.6749973297119141,-2.5377402305603027,4.15234375,1,"['C1', 'F2', 'F1']",7.6,180,0,0.18445098886992156,[18300|0|0]
18300,1.6872994899749756,1.1811646223068237,-0.03738390654325485,-0.15035958588123322,0.6776542067527771,-2.5312228202819824,4.15234375,1,"['C1', 'F2', 'F1']",7.6,180,0,0.18513790881926356,[18400|0|0]
18400,1.6872681379318237,1.1812506914138794,-0.03694969788193703,-0.24155516922473907,0.6316453218460083,-2.5489065647125244,4.15234375,1,"['C1', 'F2', 'F1']",7.6,180,0,0.18558167452699972,[18500|0|0]
18500,1.6872278451919556,1.1807612180709839,-0.036713697016239166,-0.2081829458475113,0.6392022967338562,-2.567519187927246,4.15234375,1,"['C1', 'F2', 'F1']",7.6,180,0,0.18612656356790763,[18600|0|0]
18600,1.6873704195022583,1.180793046951294,-0.03712644428014755,-0.18720152974128723,0.6385522484779358,-2.575882911682129,4.15234375,1,"['C1', 'F2', 'F1']",7.6,180,0,0.1865644000847081,[18700|0|0]
18700,1.6871397495269775,1.1805343627929688,-0.03687106445431709,-0.16224811971187592,0.637955367565155,-2.594670534133911,4.15234375,1,"['C1', 'F2', 'F1']",7.6,180,0,0.18699491720017,[18800|0|0]
18800,1.6875219345092773,1.1807299852371216,-0.037046194076538086,-0.16680166125297546,0.6290868520736694,-2.5771007537841797,4.15234375,1,"['C1', 'F2', 'F1']",7.6,180,0,0.18745860231523312,[18900|0|0]
18900,1.6874784231185913,1.1806994676589966,-0.037559352815151215,-0.13481608033180237,0.6422921419143677,-2.575714111328125,4.15234375,1,"['C1', 'F2', 'F1']",7.6,180,0,0.18797450584760042,[19000|0|0]
19000,1.6874289512634277,1.180427074432373,-0.03730286285281181,-0.10568932443857193,0.6452203392982483,-2.58534836769104,4.15234375,1,"['C1', 'F2', 'F1']",7.6,180,0,0.18835190833188553,[19100|0|0]
19100,1.6873630285263062,1.1810625791549683,-0.037229616194963455,-0.09219671040773392,0.6396740078926086,-2.5896503925323486,4.15234375,1,"['C1', 'F2', 'F1']",7.6,180,0,0.18899500796071173,[19200|0|0]
19200,1.6869879961013794,1.181188702583313,-0.037582140415906906,-0.07813127338886261,0.653365969657898,-2.5711581707000732,4.15234375,1,"['C1', 'F2', 'F1']",7.6,180,0,0.18952494169739553,[19300|0|0]
19300,1.6870650053024292,1.1812251806259155,-0.03757964074611664,-0.06630522757768631,0.645663857460022,-2.5639514923095703,4.15234375,1,"['C1', 'F2', 'F1']",7.6,180,0,0.18961019023396655,[19400|0|0]
19400,1.6871699094772339,1.1809488534927368,-0.03733464702963829,-0.05170999467372894,0.6412519812583923,-2.5662035942077637,4.15234375,1,"['C1', 'F2', 'F1']",7.6,180,0,0.18999409581029503,[19500|0|0]
19500,1.6870583295822144,1.1809366941452026,-0.037364885210990906,-0.045704133808612823,0.6331228613853455,-2.5969481468200684,4.15234375,1,"['C1', 'F2', 'F1']",7.6,180,0,0.19011033810172348,[19600|0|0]
19600,1.6872735023498535,1.180421233177185,-0.03747839853167534,-0.03474598750472069,0.6204504370689392,-2.602747678756714,4.15234375,1,"['C1', 'F2', 'F1']",7.6,180,0,0.19068032459582304,[19700|0|0]
19700,1.687752604484558,1.1804447174072266,-0.03717228025197983,-0.05571239814162254,0.6206879019737244,-2.580317258834839,4.15234375,1,"['C1', 'F2', 'F1']",7.6,180,0,0.19124935778088598,[19800|0|0]
19800,1.6871165037155151,1.1804940700531006,-0.037545546889305115,-0.05649077147245407,0.6443626284599304,-2.5848453044891357,4.15234375,1,"['C1', 'F2', 'F1']",7.6,180,0,0.19198853830996662,[19900|0|0]
19900,1.6875935792922974,1.180259346961975,-0.0378270223736763,-0.04552052542567253,0.6277602910995483,-2.581779956817627,4.15234375,1,"['C1', 'F2', 'F1']",7.6,180,0,0.1925901399088438,[20000|0|0]
20000,1.6872426271438599,1.1803287267684937,-0.037155795842409134,-0.04832598567008972,0.6376137137413025,-2.598206043243408,4.15234375,1,"['C1', 'F2', 'F1']",7.6,180,0,0.19335074889138504,[20100|0|0]
20100,1.6871206760406494,1.1809266805648804,-0.03746732324361801,-0.06659119576215744,0.6330676674842834,-2.584355354309082,4.15234375,1,"['C1', 'F2', 'F1']",7.6,180,0,0.19403592779932916,[20200|0|0]
20200,1.6872378587722778,1.1806893348693848,-0.03727874532341957,-0.050982702523469925,0.6274276375770569,-2.588906764984131,4.15234375,1,"['C1', 'F2', 'F1']",7.6,180,0,0.19436092995893514,[20300|0|0]
20300,1.6873445510864258,1.1804687976837158,-0.03725586459040642,-0.05109107866883278,0.6246173977851868,-2.585637331008911,4.15234375,1,"['C1', 'F2', 'F1']",7.6,180,0,0.19460698570079915,[20400|0|0]
20400,1.6875637769699097,1.180366039276123,-0.03735572472214699,-0.051944490522146225,0.6227756142616272,-2.56736159324646,4.15234375,1,"['C1', 'F2', 'F1']",7.6,180,0,0.19486888515523068,[20500|0|0]
20500,1.6873005628585815,1.180437684059143,-0.037475280463695526,-0.05698515102267265,0.6262880563735962,-2.5841472148895264,4.15234375,1,"['C1', 'F2', 'F1']",7.6,180,0,0.19516672440495017,[20600|0|0]
20600,1.6872732639312744,1.1807950735092163,-0.03750466927886009,-0.06561417132616043,0.6332127451896667,-2.5784168243408203,4.15234375,1,"['C1', 'F2', 'F1']",7.6,180,0,0.1955263577639598,[20700|0|0]
20700,1.6876904964447021,1.1806970834732056,-0.03682741895318031,-0.06476038694381714,0.614739716053009,-2.5800886154174805,4.15234375,1,"['C1', 'F2', 'F1']",7.6,180,0,0.19632782705286111,[20800|0|0]
20800,1.6874128580093384,1.1804072856903076,-0.037385307252407074,-0.0627327412366867,0.6239558458328247,-2.591191530227661,4.15234375,1,"['C1', 'F2', 'F1']",7.6,180,0,0.19701507170375185,[20900|0|0]
20900,1.6843831539154053,1.1770983934402466,-0.04155133292078972,0.023149533197283745,0.6797663569450378,-2.6314313411712646,4.15234375,1,"['C1', 'F2', 'F1']",7.6,180,0,0.20313746050951484,[21000|0|0]
21000,1.6872632503509521,1.1840261220932007,-0.03197600319981575,-0.1723189800977707,0.4510819911956787,-2.5787806510925293,4.15234375,1,"['C1', 'F2', 'F1']",7.6,180,0,0.21530197114629668,[21100|0|0]
21100,1.6877498626708984,1.1901147365570068,-0.026380110532045364,-0.1693423092365265,0.4452764689922333,-2.5534591674804688,4.15234375,1,"['C1', 'F2', 'F1']",7.6,180,0,0.22358581279060635,[21200|0|0]
21200,1.6886619329452515,1.1964714527130127,-0.020887671038508415,-0.16842830181121826,0.44131186604499817,-2.5276176929473877,4.15234375,1,"['C1', 'F2', 'F1']",7.6,180,0,0.23203605563111387,[21300|0|0]
21300,1.682789921760559,1.1784189939498901,-0.0490158312022686,0.36333832144737244,0.6337043642997742,-2.579829692840576,4.15234375,1,"['C1', 'F2', 'F1']",7.6,180,0,0.265970774974959,[21400|0|0]
21400,1.6812587976455688,1.176016092300415,-0.05465735122561455,0.36100292205810547,0.6220520734786987,-2.533128499984741,4.15234375,1,"['C1', 'F2', 'F1']",7.6,180,0,0.2722909826904038,[21500|0|0]
21500,1.6881009340286255,1.1800802946090698,-0.03725304454565048,0.10457412153482437,0.5106152296066284,-2.5607099533081055,4.15234375,1,"['C1', 'F2', 'F1']",7.6,180,0,0.291428444949028,[21600|0|0]
21600,1.688054084777832,1.1796488761901855,-0.03786476328969002,0.04303230717778206,0.5476052165031433,-2.6181955337524414,4.15234375,1,"['C1', 'F2', 'F1']",7.6,180,0,0.2921784559664549,[21700|0|0]
21700,1.6882880926132202,1.1803356409072876,-0.03733363747596741,0.02597430907189846,0.5354904532432556,-2.638453483581543,4.15234375,1,"['C1', 'F2', 'F1']",7.6,180,0,0.29307762228793377,[21800|0|0]
21800,1.6879611015319824,1.1799184083938599,-0.03760820999741554,-0.02685784175992012,0.5795508027076721,-2.6873888969421387,4.15234375,1,"['C1', 'F2', 'F1']",7.6,180,0,0.29367461157343616,[21900|0|0]
21900,1.6882961988449097,1.1805652379989624,-0.03729155287146568,-0.09446220844984055,0.5996060967445374,-2.722346305847168,4.15234375,1,"['C1', 'F2', 'F1']",7.6,180,0,0.29446893548884034,[22000|0|0]
22000,1.6875914335250854,1.180575966835022,-0.03796411678195,-0.1129864752292633,0.6253853440284729,-2.7829701900482178,4.15234375,1,"['C1', 'F2', 'F1']",7.6,180,0,0.29544317954329286,[22100|0|0]
22100,1.6873042583465576,1.1801295280456543,-0.03855837509036064,-0.11780097335577011,0.6322177052497864,-2.7680654525756836,4.15234375,1,"['C1', 'F2', 'F1']",7.6,180,0,0.2962399982886356,[22200|0|0]
22200,1.6869866847991943,1.179909586906433,-0.03871382400393486,-0.12942086160182953,0.6194407343864441,-2.7655253410339355,4.15234375,1,"['C1', 'F2', 'F1']",7.6,180,0,0.29665640125144715,[22300|0|0]
22300,1.6864556074142456,1.1802210807800293,-0.03815948963165283,-0.23906300961971283,0.5874639749526978,-2.7874958515167236,4.15234375,1,"['C1', 'F2', 'F1']",7.6,180,0,0.2974848686427096,[22400|0|0]
22400,1.687474250793457,1.1808912754058838,-0.0366959273815155,-0.25876253843307495,0.6360971927642822,-2.7710375785827637,4.15234375,1,"['C1', 'F2', 'F1']",7.6,180,0,0.29938981211445953,[22500|0|0]
22500,1.6871402263641357,1.1803414821624756,-0.0370461568236351,-0.2328370064496994,0.6600209474563599,-2.7480013370513916,4.15234375,1,"['C1', 'F2', 'F1']",7.6,180,0,0.3001222775348093,[22600|0|0]
22600,1.6870003938674927,1.1804600954055786,-0.03753990679979324,-0.2076132595539093,0.6768882274627686,-2.7106149196624756,4.15234375,1,"['C1', 'F2', 'F1']",7.6,180,0,0.3006489759945688,[22700|0|0]
22700,1.6871974468231201,1.1805856227874756,-0.037355903536081314,-0.17395365238189697,0.6753731966018677,-2.7385504245758057,4.15234375,1,"['C1', 'F2', 'F1']",7.6,180,0,0.30094637167709304,[22800|0|0]
22800,1.6871840953826904,1.180387258529663,-0.037588801234960556,-0.1526053249835968,0.6699417233467102,-2.694488525390625,4.15234375,1,"['C1', 'F2', 'F1']",7.6,180,0,0.3012525872512925,[22900|0|0]
22900,1.6870744228363037,1.1805742979049683,-0.037376224994659424,-0.1568344682455063,0.6538714170455933,-2.678225517272949,4.15234375,1,"['C1', 'F2', 'F1']",7.6,180,0,0.30155623252671443,[23000|0|0]
23000,1.6875133514404297,1.1809414625167847,-0.037469133734703064,-0.14062298834323883,0.6420571804046631,-2.684814453125,4.15234375,1,"['C1', 'F2', 'F1']",7.6,180,0,0.3021359740257179,[23100|0|0]
23100,1.6869186162948608,1.180463433265686,-0.03749329224228859,-0.10791221261024475,0.6634086966514587,-2.675823926925659,4.15234375,1,"['C1', 'F2', 'F1']",7.6,180,0,0.3028993910099208,[23200|0|0]
23200,1.6871623992919922,1.1809608936309814,-0.03737490251660347,-0.11181679368019104,0.657131016254425,-2.6533472537994385,4.15234375,1,"['C1', 'F2', 'F1']",7.6,180,0,0.3034658829267899,[23300|0|0]
23300,1.687313437461853,1.1806395053863525,-0.03724377974867821,-0.09233588725328445,0.6534388065338135,-2.668712615966797,4.15234375,1,"['C1', 'F2', 'F1']",7.6,180,0,0.30384442765705166,[23400|0|0]
23400,1.687334418296814,1.1806148290634155,-0.03709706291556358,-0.08372160792350769,0.6553705334663391,-2.663778066635132,4.15234375,1,"['C1', 'F2', 'F1']",7.6,180,0,0.3039946772675954,[23500|0|0]
23500,1.687377691268921,1.180695652961731,-0.03705554082989693,-0.07494068145751953,0.6513178944587708,-2.686946153640747,4.15234375,1,"['C1', 'F2', 'F1']",7.6,180,0,0.30409532087768554,[23600|0|0]
23600,1.687394380569458,1.1808428764343262,-0.03747738152742386,-0.07424191385507584,0.6454468369483948,-2.679905891418457,4.15234375,1,"['C1', 'F2', 'F1']",7.6,180,0,0.3045424258516295,[23700|0|0]
23700,1.6872915029525757,1.1805293560028076,-0.036946557462215424,-0.06127574294805527,0.64064621925354,-2.675685167312622,4.15234375,1,"['C1', 'F2', 'F1']",7.6,180,0,0.3051674482938181,[23800|0|0]
23800,1.687422275543213,1.1806447505950928,-0.037095338106155396,-0.06233786419034004,0.6256584525108337,-2.6806514263153076,4.15234375,1,"['C1', 'F2', 'F1']",7.6,180,0,0.30539669284097637,[23900|0|0]
23900,1.687089443206787,1.18065345287323,-0.03719653561711311,-0.05969928577542305,0.6298660039901733,-2.6776769161224365,4.15234375,1,"['C1', 'F2', 'F1']",7.6,180,0,0.3057446785160256,[24000|0|0]
24000,1.6871073246002197,1.1803878545761108,-0.037763938307762146,-0.05580820515751839,0.62034010887146,-2.666184186935425,4.15234375,1,"['C1', 'F2', 'F1']",7.6,180,0,0.3063714224932758,[24100|0|0]
24100,1.6872223615646362,1.1808775663375854,-0.03746658191084862,-0.067912757396698,0.6161865592002869,-2.658520460128784,4.15234375,1,"['C1', 'F2', 'F1']",7.6,180,0,0.3069557784971759,[24200|0|0]
24200,1.6872081756591797,1.1803659200668335,-0.0379154346883297,-0.05839309096336365,0.6099903583526611,-2.6275289058685303,4.15234375,1,"['C1', 'F2', 'F1']",7.6,180,0,0.3076365515593196,[24300|0|0]
24300,1.6870520114898682,1.1808289289474487,-0.03741220012307167,-0.07283369451761246,0.6177527904510498,-2.604198932647705,4.15234375,1,"['C1', 'F2', 'F1']",7.6,180,0,0.308337985447135,[24400|0|0]
24400,1.68730628490448,1.1804757118225098,-0.03740959241986275,-0.06779260188341141,0.6106436848640442,-2.609675884246826,4.15234375,1,"['C1', 'F2', 'F1']",7.6,180,0,0.3087732142454061,[24500|0|0]
24500,1.6876200437545776,1.180606484413147,-0.03741111606359482,-0.0703820213675499,0.5953496694564819,-2.6087868213653564,4.15234375,1,"['C1', 'F2', 'F1']",7.6,180,0,0.30911313836630194,[24600|0|0]
24600,1.6872512102127075,1.180787205696106,-0.0374433808028698,-0.07439128309488297,0.5997653007507324,-2.6217615604400635,4.15234375,1,"['C1', 'F2', 'F1']",7.6,180,0,0.3095251327559765,[24700|0|0]
24700,1.687280535697937,1.1807844638824463,-0.037529781460762024,-0.07272696495056152,0.59840327501297,-2.6134138107299805,4.15234375,1,"['C1', 'F2', 'F1']",7.6,180,0,0.30961641569693643,[24800|0|0]
24800,1.6871780157089233,1.1803550720214844,-0.03712921589612961,-0.06417941302061081,0.6060478687286377,-2.6012887954711914,4.15234375,1,"['C1', 'F2', 'F1']",7.6,180,0,0.3102125201256878,[24900|0|0]
24900,1.6872605085372925,1.1806981563568115,-0.03719150274991989,-0.07097899168729782,0.6092411279678345,-2.629077196121216,4.15234375,1,"['C1', 'F2', 'F1']",7.6,180,0,0.31057083783392214,[25000|0|0]
25000,1.687421202659607,1.1805423498153687,-0.03755582123994827,-0.06718732416629791,0.6058228015899658,-2.65450382232666,4.15234375,1,"['C1', 'F2', 'F1']",7.6,180,0,0.3109984196874653,[25100|0|0]
25100,1.687623381614685,1.1808490753173828,-0.03759065270423889,-0.07136719673871994,0.5977135300636292,-2.6633739471435547,4.16015625,1,"['C1', 'F2', 'F1']",7.6,180,0,0.31136743201024997,[25200|0|0]
25200,1.6873561143875122,1.180760383605957,-0.03744468465447426,-0.06968086212873459,0.6045091152191162,-2.6596086025238037,4.15234375,1,"['C1', 'F2', 'F1']",7.6,180,0,0.311684614389881,[25300|0|0]
25300,1.6873247623443604,1.1805050373077393,-0.037809208035469055,-0.06582337617874146,0.605157732963562,-2.653306722640991,4.15234375,1,"['C1', 'F2', 'F1']",7.6,180,0,0.31213077801223854,[25400|0|0]
25400,1.687299132347107,1.1808149814605713,-0.03745817393064499,-0.077627032995224,0.6122512221336365,-2.6587467193603516,4.15234375,1,"['C1', 'F2', 'F1']",7.6,180,0,0.31259976331838746,[25500|0|0]
25500,1.6874130964279175,1.1804097890853882,-0.03760616108775139,-0.06503966450691223,0.607166588306427,-2.6692607402801514,4.15234375,1,"['C1', 'F2', 'F1']",7.6,180,0,0.31304593466584263,[25600|0|0]
25600,1.6873594522476196,1.180903434753418,-0.03731195256114006,-0.08140332251787186,0.6119753122329712,-2.6718456745147705,4.15234375,1,"['C1', 'F2', 'F1']",7.6,180,0,0.3136231022331705,[25700|0|0]
25700,1.6873071193695068,1.180728554725647,-0.03740660846233368,-0.07597332447767258,0.6165534257888794,-2.668975591659546,4.15234375,1,"['C1', 'F2', 'F1']",7.6,180,0,0.3138287268763326,[25800|0|0]
25800,1.6872901916503906,1.180151343345642,-0.03692049905657768,-0.1567765325307846,0.5682141184806824,-2.6507389545440674,4.15234375,1,"['C1', 'F2', 'F1']",7.6,180,0,0.31458355260406456,[25900|0|0]
25900,1.6874665021896362,1.1802726984024048,-0.036916811019182205,-0.14604565501213074,0.5752549767494202,-2.659071922302246,4.15234375,1,"['C1', 'F2', 'F1']",7.6,180,0,0.31479762282074775,[26000|0|0]
26000,1.6876198053359985,1.1805152893066406,-0.03760597109794617,-0.13080860674381256,0.5786676406860352,-2.668508291244507,4.15234375,1,"['C1', 'F2', 'F1']",7.6,180,0,0.31554414396288943,[26100|0|0]
26100,1.6871304512023926,1.1798864603042603,-0.03727226331830025,-0.0850415751338005,0.6029852628707886,-2.680050849914551,4.15234375,1,"['C1', 'F2', 'F1']",7.6,180,0,0.31640800405833786,[26200|0|0]
26200,1.6871591806411743,1.1806161403656006,-0.03761855512857437,-0.10792073607444763,0.6062796711921692,-2.648592472076416,4.15234375,1,"['C1', 'F2', 'F1']",7.6,180,0,0.3172161973461306,[26300|0|0]
26300,1.6870976686477661,1.1803686618804932,-0.037294816225767136,-0.18108732998371124,0.5662825703620911,-2.6521999835968018,4.15234375,1,"['C1', 'F2', 'F1']",7.6,180,0,0.31762830922792357,[26400|0|0]
26400,1.6873103380203247,1.1804429292678833,-0.037333495914936066,-0.14536726474761963,0.5827574133872986,-2.657151937484741,4.15234375,1,"['C1', 'F2', 'F1']",7.6,180,0,0.31785686999710416,[26500|0|0]
26500,1.687508463859558,1.1803470849990845,-0.03710117191076279,-0.1241304874420166,0.592507541179657,-2.6994292736053467,4.15234375,1,"['C1', 'F2', 'F1']",7.6,180,0,0.3181768925196688,[26600|0|0]
26600,1.6870319843292236,1.180240511894226,-0.03752979636192322,-0.11096620559692383,0.6100636124610901,-2.6765501499176025,4.15234375,1,"['C1', 'F2', 'F1']",7.6,180,0,0.31882659205763964,[26700|0|0]
26700,1.6871771812438965,1.1803961992263794,-0.03752166032791138,-0.09633355587720871,0.6141674518585205,-2.670560121536255,4.15234375,1,"['C1', 'F2', 'F1']",7.6,180,0,0.319039634035834,[26800|0|0]
26800,1.6874349117279053,1.1800886392593384,-0.03735506162047386,-0.07608366757631302,0.619787335395813,-2.676567554473877,4.15234375,1,"['C1', 'F2', 'F1']",7.6,180,0,0.3194741144899784,[26900|0|0]
26900,1.6871811151504517,1.1797808408737183,-0.03733442351222038,-0.05890187993645668,0.6347417235374451,-2.6675899028778076,4.15234375,1,"['C1', 'F2', 'F1']",7.6,180,0,0.319873587243029,[27000|0|0]
27000,1.6876206398010254,1.1804834604263306,-0.03757859393954277,-0.07710904628038406,0.6247767806053162,-2.647590398788452,4.15234375,1,"['C1', 'F2', 'F1']",7.6,180,0,0.32073757529372987,[27100|0|0]
27100,1.6871750354766846,1.180019736289978,-0.03754691034555435,-0.05803864821791649,0.6417886018753052,-2.6708335876464844,4.15234375,1,"['C1', 'F2', 'F1']",7.6,180,0,0.3213814752383138,[27200|0|0]
27200,1.687099575996399,1.180086612701416,-0.037803880870342255,-0.051163580268621445,0.6515584588050842,-2.655693292617798,4.15234375,1,"['C1', 'F2', 'F1']",7.6,180,0,0.3216575195068317,[27300|0|0]
27300,1.6872992515563965,1.1805047988891602,-0.03771761804819107,-0.061144836246967316,0.6533061861991882,-2.6529619693756104,4.15234375,1,"['C1', 'F2', 'F1']",7.6,180,0,0.32212889121935356,[27400|0|0]
27400,1.6874724626541138,1.1803394556045532,-0.03720512613654137,-0.05373232066631317,0.6459643840789795,-2.6604156494140625,4.15234375,1,"['C1', 'F2', 'F1']",7.6,180,0,0.32269456643150574,[27500|0|0]
27500,1.68744695186615,1.1802760362625122,-0.03773273527622223,-0.060033757239580154,0.6429392695426941,-2.653212070465088,4.15234375,1,"['C1', 'F2', 'F1']",7.6,180,0,0.3232265854325971,[27600|0|0]
27600,1.6873929500579834,1.1803946495056152,-0.03766459599137306,-0.06746035814285278,0.6469813585281372,-2.643933057785034,4.15234375,1,"['C1', 'F2', 'F1']",7.6,180,0,0.32337365092434966,[27700|0|0]
27700,1.6871979236602783,1.1803627014160156,-0.03764982521533966,-0.06958648562431335,0.6486483216285706,-2.6441893577575684,4.15234375,1,"['C1', 'F2', 'F1']",7.6,180,0,0.32357182799682654,[27800|0|0]
27800,1.6871553659439087,1.1805760860443115,-0.037597477436065674,-0.0792684406042099,0.6496807932853699,-2.6350467205047607,4.15234375,1,"['C1', 'F2', 'F1']",7.6,180,0,0.3237956235481909,[27900|0|0]
27900,1.687199592590332,1.1806211471557617,-0.03750019147992134,-0.0826445072889328,0.6455619931221008,-2.6594960689544678,4.15234375,1,"['C1', 'F2', 'F1']",7.6,180,0,0.3239116022414147,[28000|0|0]
28000,1.6869546175003052,1.1801475286483765,-0.03761469945311546,-0.07042612880468369,0.6481109857559204,-2.6610021591186523,4.15234375,1,"['C1', 'F2', 'F1']",7.6,180,0,0.32445698225681363,[28100|0|0]
28100,1.687326431274414,1.179849624633789,-0.03737461566925049,-0.06432151794433594,0.6330732703208923,-2.633114814758301,4.15234375,1,"['C1', 'F2', 'F1']",7.6,180,0,0.32499049187040957,[28200|0|0]
28200,1.6831942796707153,1.1767199039459229,-0.04227476567029953,0.05796150863170624,0.7313684225082397,-2.662229299545288,4.15234375,1,"['C1', 'F2', 'F1']",7.6,180,0,0.3321236046897044,[28300|0|0]
28300,1.6834338903427124,1.1768779754638672,-0.04267621040344238,0.05577525496482849,0.7160547375679016,-2.6792798042297363,4.15234375,1,"['C1', 'F2', 'F1']",7.6,180,0,0.3326171203963321,[28400|0|0]
28400,1.6835201978683472,1.1768373250961304,-0.04202906787395477,0.06304046511650085,0.7192187905311584,-2.672412633895874,4.15234375,1,"['C1', 'F2', 'F1']",7.6,180,0,0.3332712571517969,[28500|0|0]
28500,1.683302640914917,1.176573395729065,-0.04225591570138931,0.06664875894784927,0.7264597415924072,-2.6869447231292725,4.15234375,1,"['C1', 'F2', 'F1']",7.6,180,0,0.3336816833639193,[28600|0|0]
28600,1.6834471225738525,1.1765875816345215,-0.042473532259464264,0.06748861074447632,0.722324013710022,-2.68228816986084,4.15234375,1,"['C1', 'F2', 'F1']",7.6,180,0,0.3339432806804781,[28700|0|0]
28700,1.6834789514541626,1.1768569946289062,-0.04275847226381302,0.06119326874613762,0.7132590413093567,-2.663907289505005,4.15234375,1,"['C1', 'F2', 'F1']",7.6,180,0,0.3343367107825845,[28800|0|0]
28800,1.6830415725708008,1.176758050918579,-0.04253082349896431,0.06553468108177185,0.7164947986602783,-2.6525564193725586,4.15234375,1,"['C1', 'F2', 'F1']",7.6,180,0,0.3348396164452701,[28900|0|0]
28900,1.6832410097122192,1.1765633821487427,-0.04280537739396095,0.06804478913545609,0.7060596942901611,-2.6499972343444824,4.15234375,1,"['C1', 'F2', 'F1']",7.6,180,0,0.3352308337053503,[29000|0|0]
29000,1.6834197044372559,1.176586627960205,-0.04226773977279663,0.06429467350244522,0.7000548243522644,-2.6645326614379883,4.15234375,1,"['C1', 'F2', 'F1']",7.6,180,0,0.3357978666710566,[29100|0|0]
29100,1.6835905313491821,1.1769118309020996,-0.042532965540885925,0.057371966540813446,0.69272780418396,-2.6437060832977295,4.15234375,1,"['C1', 'F2', 'F1']",7.6,180,0,0.33625094888800366,[29200|0|0]
29200,1.683396816253662,1.1771388053894043,-0.042519036680459976,0.06280014663934708,0.7042651772499084,-2.6281940937042236,4.15234375,1,"['C1', 'F2', 'F1']",7.6,180,0,0.3365496744631932,[29300|0|0]
29300,1.6831464767456055,1.1766955852508545,-0.042300496250391006,0.07207074761390686,0.711605966091156,-2.627058744430542,4.15234375,1,"['C1', 'F2', 'F1']",7.6,180,0,0.33710363644752506,[29400|0|0]
29401,1.6833420991897583,1.1765673160552979,-0.042520906776189804,0.07018289715051651,0.7097122073173523,-2.643395185470581,4.15234375,1,"['C1', 'F2', 'F1']",7.6,180,0,0.337425042619009,[29500|0|0]
29501,1.6831610202789307,1.1769187450408936,-0.04243450611829758,0.05775655061006546,0.715555727481842,-2.645784616470337,4.15234375,1,"['C1', 'F2', 'F1']",7.6,180,0,0.3378297115918097,[29600|0|0]
29601,1.6837369203567505,1.1767041683197021,-0.04229763522744179,0.06143374741077423,0.7097440958023071,-2.651510000228882,4.15234375,1,"['C1', 'F2', 'F1']",7.6,180,0,0.33845934458782706,[29700|0|0]
29701,1.6840530633926392,1.1765623092651367,-0.04210994020104408,0.005853785201907158,0.6567016839981079,-2.6632230281829834,4.15234375,1,"['C1', 'F2', 'F1']",7.6,180,0,0.33885342558640164,[29800|0|0]
29801,1.6838546991348267,1.176896572113037,-0.041811324656009674,-0.043960120528936386,0.6423512101173401,-2.659834384918213,4.15234375,1,"['C1', 'F2', 'F1']",7.6,180,0,0.3393435799233203,[29900|0|0]
