time.ms,stateEstimate.x,stateEstimate.y,stateEstimate.z,stabilizer.roll,stabilizer.pitch,stabilizer.yaw,pm.vbat,drone_id,node_name,wind_speed,global_wind_direction,relative_wind_direction,travel_dist,waiting_time
0,1.2349474430084229,1.0810983180999756,-0.03473625332117081,0.09857162088155746,1.0331368446350098,-3.473482370376587,4.0546875,2,"['A1', 'B2', 'F2']",6.1,180,0,0.06884926130641252,[100|0|0]
100,1.2344661951065063,1.0807780027389526,-0.03472882881760597,0.11253080517053604,1.04118812084198,-3.488219738006592,4.05859375,2,"['A1', 'B2', 'F2']",6.1,180,0,0.06942741059237548,[200|0|0]
200,1.2346587181091309,1.081051230430603,-0.03473364934325218,0.10504990071058273,1.0343337059020996,-3.5170371532440186,4.0546875,2,"['A1', 'B2', 'F2']",6.1,180,0,0.06976168849396586,[300|0|0]
300,1.2346845865249634,1.0809530019760132,-0.034744955599308014,0.10071182996034622,1.0333795547485352,-3.5383377075195312,4.0546875,2,"['A1', 'B2', 'F2']",6.1,180,0,0.06986389336495934,[400|0|0]
401,1.2348700761795044,1.081382155418396,-0.035035889595746994,0.09082280844449997,1.0345275402069092,-3.5060906410217285,4.05859375,2,"['A1', 'B2', 'F2']",6.1,180,0,0.0704145490462473,[500|0|0]
501,1.2346749305725098,1.0814348459243774,-0.03510752692818642,0.09225419908761978,1.0386745929718018,-3.488426446914673,4.0546875,2,"['A1', 'B2', 'F2']",6.1,180,0,0.07062900184932742,[600|0|0]
600,1.2347955703735352,1.0812677145004272,-0.034781601279973984,0.09147367626428604,1.0378222465515137,-3.5286996364593506,4.05859375,2,"['A1', 'B2', 'F2']",6.1,180,0,0.07101463691337861,[700|0|0]
701,1.2348201274871826,1.0812309980392456,-0.03480489179491997,0.09048795700073242,1.038597583770752,-3.5114214420318604,4.05859375,2,"['A1', 'B2', 'F2']",6.1,180,0,0.07106457285673454,[800|0|0]
801,1.2349439859390259,1.0812431573867798,-0.034804023802280426,0.0913408100605011,1.0392602682113647,-3.5030534267425537,4.0546875,2,"['A1', 'B2', 'F2']",6.1,180,0,0.07118902975383827,[900|0|0]
901,1.2348484992980957,1.081270456314087,-0.03493937477469444,0.08495474606752396,1.0454596281051636,-3.4941647052764893,4.05859375,2,"['A1', 'B2', 'F2']",6.1,180,0,0.07135690713695365,[1000|0|0]
1002,1.234857439994812,1.0812078714370728,-0.035138025879859924,0.07530821114778519,1.0472636222839355,-3.5074076652526855,4.05859375,2,"['A1', 'B2', 'F2']",6.1,180,0,0.0715653755145847,[1100|0|0]
1101,1.2351115942001343,1.0812655687332153,-0.03477267175912857,0.08287189900875092,1.044476866722107,-3.486199378967285,4.05859375,2,"['A1', 'B2', 'F2']",6.1,180,0,0.07201415939531186,[1200|0|0]
1201,1.234832525253296,1.081002116203308,-0.034828975796699524,0.08877689391374588,1.0564132928848267,-3.506089210510254,4.05859375,2,"['A1', 'B2', 'F2']",6.1,180,0,0.07240204708169903,[1300|0|0]
1301,1.2346876859664917,1.0814260244369507,-0.03506189584732056,0.07160249352455139,1.0510540008544922,-3.5196454524993896,4.0546875,2,"['A1', 'B2', 'F2']",6.1,180,0,0.07290695138900213,[1400|0|0]
1402,1.2345833778381348,1.0813846588134766,-0.034705616533756256,0.06807076930999756,1.0534725189208984,-3.5150327682495117,4.0546875,2,"['A1', 'B2', 'F2']",6.1,180,0,0.07328048351576043,[1500|0|0]
1502,1.2348960638046265,1.0812803506851196,-0.03485127165913582,0.07292979210615158,1.0408064126968384,-3.5068392753601074,4.05859375,2,"['A1', 'B2', 'F2']",6.1,180,0,0.07364085570507518,[1600|0|0]
1601,1.2350153923034668,1.0808935165405273,-0.034911345690488815,0.08202069997787476,1.046263575553894,-3.4990732669830322,4.0546875,2,"['A1', 'B2', 'F2']",6.1,180,0,0.07405010970359069,[1700|0|0]
1701,1.2349011898040771,1.0810445547103882,-0.03485017642378807,0.08361741900444031,1.0490443706512451,-3.5044853687286377,4.0546875,2,"['A1', 'B2', 'F2']",6.1,180,0,0.07424909819273129,[1800|0|0]
1802,1.2347899675369263,1.0813981294631958,-0.03469179570674896,0.07878518849611282,1.054375171661377,-3.512612819671631,4.0546875,2,"['A1', 'B2', 'F2']",6.1,180,0,0.07465217380606329,[1900|0|0]
1900,1.2349975109100342,1.0812602043151855,-0.034841421991586685,0.08186706900596619,1.0510833263397217,-3.505103588104248,4.0546875,2,"['A1', 'B2', 'F2']",6.1,180,0,0.07494283791339165,[2000|0|0]
2000,1.234656572341919,1.0812090635299683,-0.03488222509622574,0.07925279438495636,1.0591483116149902,-3.5218865871429443,4.05859375,2,"['A1', 'B2', 'F2']",6.1,180,0,0.075289996926654,[2100|0|0]
2102,1.2348053455352783,1.0808168649673462,-0.03492473438382149,0.09115828573703766,1.0398781299591064,-3.5079665184020996,4.0546875,2,"['A1', 'B2', 'F2']",6.1,180,0,0.07571161312074177,[2200|0|0]
2202,1.2349414825439453,1.080876350402832,-0.034949835389852524,0.09201667457818985,1.037343978881836,-3.5020179748535156,4.05859375,2,"['A1', 'B2', 'F2']",6.1,180,0,0.0758622844938274,[2300|0|0]
2300,1.23473060131073,1.0813406705856323,-0.03464551642537117,0.07627461850643158,1.0449751615524292,-3.5279593467712402,4.0546875,2,"['A1', 'B2', 'F2']",6.1,180,0,0.07645614824825354,[2400|0|0]
2400,1.2346159219741821,1.0811597108840942,-0.035084500908851624,0.08139488101005554,1.0455052852630615,-3.531008243560791,4.05859375,2,"['A1', 'B2', 'F2']",6.1,180,0,0.07694462049981796,[2500|0|0]
2500,1.234493613243103,1.0809884071350098,-0.03472990170121193,0.0864088162779808,1.0532677173614502,-3.4939215183258057,4.05859375,2,"['A1', 'B2', 'F2']",6.1,180,0,0.07735698562711084,[2600|0|0]
2600,1.234946370124817,1.0813177824020386,-0.0349925234913826,0.0750189870595932,1.039579153060913,-3.4946796894073486,4.0546875,2,"['A1', 'B2', 'F2']",6.1,180,0,0.07797540867417653,[2700|0|0]
2700,1.2350883483886719,1.0811418294906616,-0.03508572280406952,0.08885051310062408,1.0443252325057983,-3.4974405765533447,4.05859375,2,"['A1', 'B2', 'F2']",6.1,180,0,0.07821995594223449,[2800|0|0]
2800,1.234736442565918,1.0810776948928833,-0.03520143777132034,0.08449318259954453,1.0550329685211182,-3.483426570892334,4.0546875,2,"['A1', 'B2', 'F2']",6.1,180,0,0.07859590927493172,[2900|0|0]
2900,1.2349724769592285,1.0813355445861816,-0.03476222977042198,0.08484489470720291,1.0568671226501465,-3.4720511436462402,4.0546875,2,"['A1', 'B2', 'F2']",6.1,180,0,0.07915724907150119,[3000|0|0]
3000,1.2348154783248901,1.0812453031539917,-0.03466544672846794,0.08818452805280685,1.0501494407653809,-3.4639272689819336,4.05859375,2,"['A1', 'B2', 'F2']",6.1,180,0,0.07936257574896344,[3100|0|0]
3100,1.234939455986023,1.081034541130066,-0.03510770574212074,0.09608520567417145,1.0479532480239868,-3.4769551753997803,4.05859375,2,"['A1', 'B2', 'F2']",6.1,180,0,0.07986793119451281,[3200|0|0]
3200,1.2348765134811401,1.081114649772644,-0.03481614589691162,0.08981123566627502,1.0560407638549805,-3.473846435546875,4.0546875,2,"['A1', 'B2', 'F2']",6.1,180,0,0.08017677791519315,[3300|0|0]
3300,1.234876036643982,1.0812417268753052,-0.03507740795612335,0.0905115157365799,1.0512585639953613,-3.488513231277466,4.0546875,2,"['A1', 'B2', 'F2']",6.1,180,0,0.08046730619432958,[3400|0|0]
3400,1.2348002195358276,1.0811668634414673,-0.03483542427420616,0.09946860373020172,1.0472739934921265,-3.517225503921509,4.05859375,2,"['A1', 'B2', 'F2']",6.1,180,0,0.08073170904970199,[3500|0|0]
3500,1.234951138496399,1.0808980464935303,-0.0350407175719738,0.11262310296297073,1.0377947092056274,-3.5181777477264404,4.0546875,2,"['A1', 'B2', 'F2']",6.1,180,0,0.08110209320469029,[3600|0|0]
3600,1.2343453168869019,1.081146240234375,-0.0353279784321785,0.10734513401985168,1.0514241456985474,-3.512871265411377,4.05859375,2,"['A1', 'B2', 'F2']",6.1,180,0,0.08181703289258967,[3700|0|0]
3700,1.234902262687683,1.081289529800415,-0.034884486347436905,0.09704156219959259,1.04148530960083,-3.520172595977783,4.0546875,2,"['A1', 'B2', 'F2']",6.1,180,0,0.08254325996036685,[3800|0|0]
3800,1.2347086668014526,1.081355094909668,-0.03530130162835121,0.10713022947311401,1.0425564050674438,-3.504228115081787,4.0546875,2,"['A1', 'B2', 'F2']",6.1,180,0,0.08300749387674994,[3900|0|0]
3900,1.234916090965271,1.0809053182601929,-0.03497135639190674,0.1249164417386055,1.0483647584915161,-3.510263204574585,4.0546875,2,"['A1', 'B2', 'F2']",6.1,180,0,0.08360263056457988,[4000|0|0]
4000,1.2348229885101318,1.0809568166732788,-0.03530329093337059,0.1226436197757721,1.053421139717102,-3.514395236968994,4.05859375,2,"['A1', 'B2', 'F2']",6.1,180,0,0.08395120006054894,[4100|0|0]
4100,1.2347133159637451,1.0809553861618042,-0.034968093037605286,0.1290663480758667,1.0638097524642944,-3.5200695991516113,4.0546875,2,"['A1', 'B2', 'F2']",6.1,180,0,0.08430388652629368,[4200|0|0]
4200,1.2343957424163818,1.0808579921722412,-0.034943994134664536,0.13596855103969574,1.0698312520980835,-3.5077078342437744,4.05859375,2,"['A1', 'B2', 'F2']",6.1,180,0,0.08463693202515359,[4300|0|0]
4300,1.2542816400527954,1.082648754119873,-0.04895219951868057,-1.3016743659973145,-6.083977222442627,-2.2507503032684326,4.0546875,2,"['A1', 'B2', 'F2']",6.1,180,0,0.10902720818676728,[4400|0|0]
4400,1.264414668083191,1.081059217453003,-0.05424883961677551,2.1982359886169434,1.529291033744812,-1.8055654764175415,4.0546875,2,"['A1', 'B2', 'F2']",6.1,180,0,0.12057100653085026,[4500|0|0]
4500,1.2485531568527222,1.0805479288101196,-0.04632262885570526,4.590023994445801,9.150513648986816,-3.0470805168151855,4.05859375,2,"['A1', 'B2', 'F2']",6.1,180,0,0.13831005305594662,[4600|0|0]
4600,1.2375982999801636,1.0797394514083862,-0.041438452899456024,5.14691162109375,10.802865028381348,-4.187685012817383,4.05859375,2,"['A1', 'B2', 'F2']",6.1,180,0,0.150331604519005,[4700|0|0]
4700,1.2328743934631348,1.079958200454712,-0.03798622265458107,4.650418758392334,10.020977020263672,-4.77820348739624,4.0546875,2,"['A1', 'B2', 'F2']",6.1,180,0,0.1561866055941992,[4800|0|0]
4800,1.2298024892807007,1.0796841382980347,-0.03629845008254051,4.042263031005859,8.87834358215332,-5.136315822601318,4.0546875,2,"['A1', 'B2', 'F2']",6.1,180,0,0.15970232481318,[4900|0|0]
4900,1.229093313217163,1.0800584554672241,-0.034866612404584885,3.412468433380127,7.704018592834473,-5.296229362487793,4.0546875,2,"['A1', 'B2', 'F2']",6.1,180,0,0.16134342297241913,[5000|0|0]
5000,1.228523850440979,1.0800940990447998,-0.034554362297058105,2.866779327392578,6.685884952545166,-5.312310218811035,4.0546875,2,"['A1', 'B2', 'F2']",6.1,180,0,0.16199385240574157,[5100|0|0]
5100,1.2283520698547363,1.079845666885376,-0.034619662910699844,2.425428867340088,5.794522762298584,-5.266869068145752,4.0546875,2,"['A1', 'B2', 'F2']",6.1,180,0,0.16230286903601873,[5200|0|0]
5200,1.2303043603897095,1.0799839496612549,-0.03486449643969536,2.0873184204101562,5.022301197052002,-5.168183326721191,4.0546875,2,"['A1', 'B2', 'F2']",6.1,180,0,0.16427530507198312,[5300|0|0]
5300,1.2306865453720093,1.0805957317352295,-0.03493025526404381,1.7273300886154175,4.358169078826904,-5.039419174194336,4.0546875,2,"['A1', 'B2', 'F2']",6.1,180,0,0.16499964400488115,[5400|0|0]
5400,1.231099009513855,1.080234169960022,-0.034569673240184784,1.4529037475585938,3.792478561401367,-4.868719577789307,4.0546875,2,"['A1', 'B2', 'F2']",6.1,180,0,0.16565605316198517,[5500|0|0]
5500,1.2318552732467651,1.0804498195648193,-0.0347219817340374,1.1960798501968384,3.311537981033325,-4.722375392913818,4.0546875,2,"['A1', 'B2', 'F2']",6.1,180,0,0.16645707592262565,[5600|0|0]
5600,1.2322239875793457,1.0804122686386108,-0.03469414263963699,0.9918679594993591,2.900911808013916,-4.57112455368042,4.0546875,2,"['A1', 'B2', 'F2']",6.1,180,0,0.16682874156037883,[5700|0|0]
5700,1.2314157485961914,1.080361008644104,-0.03445970639586449,0.8027511835098267,2.600695848464966,-4.469134330749512,4.0546875,2,"['A1', 'B2', 'F2']",6.1,180,0,0.16767185376721805,[5800|0|0]
5800,1.2322098016738892,1.0807163715362549,-0.03484072908759117,0.6465933918952942,2.280900239944458,-4.373701572418213,4.0546875,2,"['A1', 'B2', 'F2']",6.1,180,0,0.1686215807632173,[5900|0|0]
5900,1.2323534488677979,1.0807498693466187,-0.03463805094361305,0.5269901752471924,2.045957326889038,-4.2585272789001465,4.0546875,2,"['A1', 'B2', 'F2']",6.1,180,0,0.16887224996687705,[6000|0|0]
6000,1.233091115951538,1.080937147140503,-0.03464839607477188,0.41521307826042175,1.8210439682006836,-4.1541266441345215,4.05859375,2,"['A1', 'B2', 'F2']",6.1,180,0,0.16963338906077163,[6100|0|0]
6100,1.2337071895599365,1.0811033248901367,-0.034682080149650574,0.33627817034721375,1.6562350988388062,-4.050675868988037,4.0546875,2,"['A1', 'B2', 'F2']",6.1,180,0,0.17027236977436075,[6200|0|0]
6200,1.2340991497039795,1.0811307430267334,-0.03496977314352989,0.2621915936470032,1.5113438367843628,-3.9489223957061768,4.0546875,2,"['A1', 'B2', 'F2']",6.1,180,0,0.170759352081493,[6300|0|0]
6300,1.234018087387085,1.0808230638504028,-0.035000044852495193,0.21535366773605347,1.3992938995361328,-3.87388277053833,4.0546875,2,"['A1', 'B2', 'F2']",6.1,180,0,0.17107896739891607,[6400|0|0]
6400,1.2344988584518433,1.0810320377349854,-0.03488146886229515,0.16414034366607666,1.3037339448928833,-3.824018716812134,4.0546875,2,"['A1', 'B2', 'F2']",6.1,180,0,0.17161643476220267,[6500|0|0]
6500,1.234060525894165,1.0811169147491455,-0.034857600927352905,0.13005885481834412,1.246573805809021,-3.7558765411376953,4.0546875,2,"['A1', 'B2', 'F2']",6.1,180,0,0.17206354684767106,[6600|0|0]
6600,1.2344952821731567,1.081073522567749,-0.03493262454867363,0.10344625264406204,1.184289813041687,-3.742244243621826,4.0546875,2,"['A1', 'B2', 'F2']",6.1,180,0,0.1725068576272435,[6700|0|0]
6700,1.2343131303787231,1.0811595916748047,-0.035084303468465805,0.08718515187501907,1.1551361083984375,-3.705690383911133,4.0546875,2,"['A1', 'B2', 'F2']",6.1,180,0,0.17275903546551255,[6800|0|0]
6800,1.2345705032348633,1.0813919305801392,-0.03490963578224182,0.06599824130535126,1.1218076944351196,-3.6872599124908447,4.0546875,2,"['A1', 'B2', 'F2']",6.1,180,0,0.17314727631166427,[6900|0|0]
6900,1.2346820831298828,1.080877423286438,-0.0350794717669487,0.07075804471969604,1.1001746654510498,-3.625823974609375,4.0546875,2,"['A1', 'B2', 'F2']",6.1,180,0,0.17370045990681657,[7000|0|0]
7000,1.2348823547363281,1.0811938047409058,-0.0349155031144619,0.05893157422542572,1.0634920597076416,-3.576554536819458,4.0546875,2,"['A1', 'B2', 'F2']",6.1,180,0,0.1741092283743843,[7100|0|0]
7100,1.2345986366271973,1.0810112953186035,-0.03479438275098801,0.06577501446008682,1.0651459693908691,-3.5552773475646973,4.0546875,2,"['A1', 'B2', 'F2']",6.1,180,0,0.17446766358069912,[7200|0|0]
7200,1.2347253561019897,1.0811970233917236,-0.03517550230026245,0.06347844749689102,1.052222728729248,-3.5343804359436035,4.0546875,2,"['A1', 'B2', 'F2']",6.1,180,0,0.1749101620024768,[7300|0|0]
7300,1.2347168922424316,1.081433892250061,-0.03483099490404129,0.05488045513629913,1.0466628074645996,-3.5385618209838867,4.0546875,2,"['A1', 'B2', 'F2']",6.1,180,0,0.1753283292405763,[7400|0|0]
7400,1.2345030307769775,1.0812791585922241,-0.03530377149581909,0.07645710557699203,1.0382806062698364,-3.531879425048828,4.0546875,2,"['A1', 'B2', 'F2']",6.1,180,0,0.1758698058670403,[7500|0|0]
7500,1.2348905801773071,1.081127643585205,-0.03484523296356201,0.08182346075773239,1.0235202312469482,-3.521536350250244,4.0546875,2,"['A1', 'B2', 'F2']",6.1,180,0,0.17648900609363286,[7600|0|0]
7600,1.23484468460083,1.080988883972168,-0.03493307903409004,0.0872223824262619,1.0326069593429565,-3.5297186374664307,4.0546875,2,"['A1', 'B2', 'F2']",6.1,180,0,0.1766595275475839,[7700|0|0]
7700,1.2349555492401123,1.0815845727920532,-0.03528584539890289,0.07036638259887695,1.0368348360061646,-3.5666308403015137,4.0546875,2,"['A1', 'B2', 'F2']",6.1,180,0,0.17736065538651397,[7800|0|0]
7800,1.234555959701538,1.081281304359436,-0.03515617176890373,0.08299019932746887,1.042446494102478,-3.551435947418213,4.0546875,2,"['A1', 'B2', 'F2']",6.1,180,0,0.1778787854781678,[7900|0|0]
7900,1.234518051147461,1.0810294151306152,-0.03494676575064659,0.08575563132762909,1.0391337871551514,-3.5502729415893555,4.05859375,2,"['A1', 'B2', 'F2']",6.1,180,0,0.17820853708551865,[8000|0|0]
8000,1.2352044582366943,1.0811219215393066,-0.035132572054862976,0.07249179482460022,1.033278226852417,-3.564537286758423,4.0546875,2,"['A1', 'B2', 'F2']",6.1,180,0,0.1789256396656879,[8100|0|0]
8100,1.2352073192596436,1.0811060667037964,-0.035159409046173096,0.0685979574918747,1.039637804031372,-3.4961490631103516,4.0546875,2,"['A1', 'B2', 'F2']",6.1,180,0,0.17895694118903666,[8200|0|0]
8200,1.2348281145095825,1.0811817646026611,-0.035034045577049255,0.07372800260782242,1.0464808940887451,-3.5142712593078613,4.05859375,2,"['A1', 'B2', 'F2']",6.1,180,0,0.17936344139045377,[8300|0|0]
8300,1.234683632850647,1.080938696861267,-0.03519701957702637,0.07425185292959213,1.043471097946167,-3.5095090866088867,4.0546875,2,"['A1', 'B2', 'F2']",6.1,180,0,0.1796898114279016,[8400|0|0]
8400,1.2348504066467285,1.081404685974121,-0.03497055545449257,0.07201603800058365,1.0397284030914307,-3.5140323638916016,4.0546875,2,"['A1', 'B2', 'F2']",6.1,180,0,0.1802340956837394,[8500|0|0]
8500,1.2349166870117188,1.0812995433807373,-0.034763310104608536,0.07392079383134842,1.0295941829681396,-3.492708921432495,4.0546875,2,"['A1', 'B2', 'F2']",6.1,180,0,0.18047575388611473,[8600|0|0]
8600,1.2346919775009155,1.0811033248901367,-0.03469039127230644,0.0767146423459053,1.0305869579315186,-3.513016700744629,4.0546875,2,"['A1', 'B2', 'F2']",6.1,180,0,0.1807828584552818,[8700|0|0]
8700,1.2349557876586914,1.0809954404830933,-0.03518807515501976,0.08567894995212555,1.0365550518035889,-3.5021185874938965,4.0546875,2,"['A1', 'B2', 'F2']",6.1,180,0,0.1813563774974604,[8800|0|0]
8800,1.235113501548767,1.0809600353240967,-0.03510618582367897,0.08722244203090668,1.0382851362228394,-3.5056467056274414,4.0546875,2,"['A1', 'B2', 'F2']",6.1,180,0,0.1815375764461158,[8900|0|0]
8900,1.2347675561904907,1.0813076496124268,-0.03472580760717392,0.08070208877325058,1.0500282049179077,-3.5174195766448975,4.0546875,2,"['A1', 'B2', 'F2']",6.1,180,0,0.18215822245790975,[9000|0|0]
9000,1.2348990440368652,1.0812244415283203,-0.03485364839434624,0.0923224464058876,1.0543291568756104,-3.5013887882232666,4.0546875,2,"['A1', 'B2', 'F2']",6.1,180,0,0.18235960742723395,[9100|0|0]
9100,1.234421968460083,1.0810738801956177,-0.03505998104810715,0.09801673889160156,1.0627888441085815,-3.4981842041015625,4.0546875,2,"['A1', 'B2', 'F2']",6.1,180,0,0.18290075711528275,[9200|0|0]
9200,1.2345852851867676,1.0811669826507568,-0.03485465049743652,0.09695273637771606,1.0619920492172241,-3.5071167945861816,4.0546875,2,"['A1', 'B2', 'F2']",6.1,180,0,0.183179147228984,[9300|0|0]
9300,1.234706163406372,1.0809297561645508,-0.03512122482061386,0.1025523915886879,1.0524178743362427,-3.514268159866333,4.0546875,2,"['A1', 'B2', 'F2']",6.1,180,0,0.18355590951413192,[9400|0|0]
9400,1.2348508834838867,1.0813192129135132,-0.03495866805315018,0.09399262070655823,1.0550400018692017,-3.5279994010925293,4.0546875,2,"['A1', 'B2', 'F2']",6.1,180,0,0.18400205429197478,[9500|0|0]
9500,1.2347023487091064,1.08112370967865,-0.03496408089995384,0.09794563055038452,1.0524864196777344,-3.5234336853027344,4.0546875,2,"['A1', 'B2', 'F2']",6.1,180,0,0.1842476421440187,[9600|0|0]
9600,1.2347009181976318,1.0808923244476318,-0.035088296979665756,0.1080104410648346,1.0495672225952148,-3.5387027263641357,4.0546875,2,"['A1', 'B2', 'F2']",6.1,180,0,0.18451026507895654,[9700|0|0]
9700,1.2352588176727295,1.081297755241394,-0.034761689603328705,0.0960521548986435,1.0331412553787231,-3.530304193496704,4.0546875,2,"['A1', 'B2', 'F2']",6.1,180,0,0.18527334982596874,[9800|0|0]
9800,1.234461784362793,1.080871820449829,-0.034997131675481796,0.11154891550540924,1.053368091583252,-3.5098445415496826,4.0546875,2,"['A1', 'B2', 'F2']",6.1,180,0,0.1862072210768131,[9900|0|0]
9900,1.2350497245788574,1.0813376903533936,-0.03490012511610985,0.09358250349760056,1.0380189418792725,-3.524843454360962,4.0546875,2,"['A1', 'B2', 'F2']",6.1,180,0,0.18696360638687287,[10000|0|0]
10000,1.2349809408187866,1.0812369585037231,-0.034986283630132675,0.08456677198410034,1.0330463647842407,-3.494511365890503,4.0546875,2,"['A1', 'B2', 'F2']",6.1,180,0,0.18711294292200786,[10100|0|0]
10100,1.2350319623947144,1.081160306930542,-0.034849755465984344,0.08694888651371002,1.0342785120010376,-3.493499994277954,4.0546875,2,"['A1', 'B2', 'F2']",6.1,180,0,0.1872776201957496,[10200|0|0]
10200,1.234808087348938,1.0811716318130493,-0.03502408787608147,0.09180068224668503,1.0432500839233398,-3.531403064727783,4.0546875,2,"['A1', 'B2', 'F2']",6.1,180,0,0.1875615921631961,[10300|0|0]
10300,1.2349697351455688,1.081233024597168,-0.03473343327641487,0.09561050683259964,1.0282816886901855,-3.5235838890075684,4.05859375,2,"['A1', 'B2', 'F2']",6.1,180,0,0.18789979207508964,[10400|0|0]
10400,1.2348382472991943,1.0813145637512207,-0.034576863050460815,0.09456801414489746,1.0378508567810059,-3.5099692344665527,4.0546875,2,"['A1', 'B2', 'F2']",6.1,180,0,0.18811991005037368,[10500|0|0]
10500,1.2348779439926147,1.0812188386917114,-0.03501783683896065,0.09789049625396729,1.037685751914978,-3.5246732234954834,4.0546875,2,"['A1', 'B2', 'F2']",6.1,180,0,0.1885728968014277,[10600|0|0]
10600,1.2347047328948975,1.0811289548873901,-0.035028520971536636,0.10046704113483429,1.040893793106079,-3.5315961837768555,4.0546875,2,"['A1', 'B2', 'F2']",6.1,180,0,0.18876833306556665,[10700|0|0]
10700,1.2346463203430176,1.0811357498168945,-0.03494860976934433,0.09755761176347733,1.0409828424453735,-3.5064196586608887,4.0546875,2,"['A1', 'B2', 'F2']",6.1,180,0,0.1888675499871068,[10800|0|0]
10800,1.2348917722702026,1.0811177492141724,-0.03502139076590538,0.10147243738174438,1.0314371585845947,-3.491875648498535,4.0546875,2,"['A1', 'B2', 'F2']",6.1,180,0,0.18912419710615871,[10900|0|0]
10900,1.234814167022705,1.0813013315200806,-0.03532645106315613,0.09236236661672592,1.0418782234191895,-3.4911608695983887,4.0546875,2,"['A1', 'B2', 'F2']",6.1,180,0,0.18948859636856252,[11000|0|0]
11000,1.2348520755767822,1.0815194845199585,-0.03514953702688217,0.08479533344507217,1.0405505895614624,-3.481619119644165,4.0546875,2,"['A1', 'B2', 'F2']",6.1,180,0,0.18977201543295075,[11100|0|0]
11100,1.2343966960906982,1.0811541080474854,-0.03505173698067665,0.09073710441589355,1.0515424013137817,-3.4698245525360107,4.0546875,2,"['A1', 'B2', 'F2']",6.1,180,0,0.19036399118585018,[11200|0|0]
11200,1.2347818613052368,1.0809695720672607,-0.03491988778114319,0.09355468302965164,1.0410676002502441,-3.4686856269836426,4.0546875,2,"['A1', 'B2', 'F2']",6.1,180,0,0.19081096991230773,[11300|0|0]
11300,1.234610915184021,1.0812090635299683,-0.03492831066250801,0.09383206814527512,1.0379676818847656,-3.480393886566162,4.0546875,2,"['A1', 'B2', 'F2']",6.1,180,0,0.19110533309274816,[11400|0|0]
11400,1.2348928451538086,1.0812324285507202,-0.03516733646392822,0.0935119017958641,1.029255747795105,-3.494189500808716,4.0546875,2,"['A1', 'B2', 'F2']",6.1,180,0,0.19147568936149995,[11500|0|0]
11500,1.2348997592926025,1.0812225341796875,-0.034864723682403564,0.08748843520879745,1.033379077911377,-3.508432388305664,4.0546875,2,"['A1', 'B2', 'F2']",6.1,180,0,0.19177854279046433,[11600|0|0]
11600,1.2348062992095947,1.0813170671463013,-0.03510301187634468,0.089327871799469,1.0310938358306885,-3.5140342712402344,4.0546875,2,"['A1', 'B2', 'F2']",6.1,180,0,0.1920514027037245,[11700|0|0]
11700,1.2344882488250732,1.0811760425567627,-0.03527449071407318,0.1010098084807396,1.0407565832138062,-3.5133535861968994,4.0546875,2,"['A1', 'B2', 'F2']",6.1,180,0,0.19243928022787035,[11800|0|0]
11800,1.2348673343658447,1.0811874866485596,-0.03486989438533783,0.10492858290672302,1.0274022817611694,-3.501399517059326,4.0546875,2,"['A1', 'B2', 'F2']",6.1,180,0,0.19299383861405273,[11900|0|0]
11900,1.2346140146255493,1.0809475183486938,-0.034985728561878204,0.10685867816209793,1.0367767810821533,-3.487689971923828,4.0546875,2,"['A1', 'B2', 'F2']",6.1,180,0,0.19336149773908373,[12000|0|0]
12000,1.2350186109542847,1.0811892747879028,-0.03481703996658325,0.09437263011932373,1.028823733329773,-3.4652976989746094,4.0546875,2,"['A1', 'B2', 'F2']",6.1,180,0,0.19386209758657444,[12100|0|0]
12100,1.2347830533981323,1.0811419486999512,-0.035061247646808624,0.09295609593391418,1.0446712970733643,-3.467780828475952,4.0546875,2,"['A1', 'B2', 'F2']",6.1,180,0,0.19420468262994664,[12200|0|0]
12200,1.23447585105896,1.0811587572097778,-0.03506280481815338,0.08906739205121994,1.050858497619629,-3.482454776763916,4.05859375,2,"['A1', 'B2', 'F2']",6.1,180,0,0.19451234840311318,[12300|0|0]
12300,1.2346079349517822,1.081297516822815,-0.03517666459083557,0.09470009058713913,1.0534864664077759,-3.530907154083252,4.0546875,2,"['A1', 'B2', 'F2']",6.1,180,0,0.19473520358655869,[12400|0|0]
12400,1.23482084274292,1.0813413858413696,-0.0348055399954319,0.10109582543373108,1.0554406642913818,-3.5286803245544434,4.0546875,2,"['A1', 'B2', 'F2']",6.1,180,0,0.19516530553218278,[12500|0|0]
12500,1.2347015142440796,1.0815428495407104,-0.034854065626859665,0.09227804839611053,1.054448127746582,-3.509648561477661,4.0546875,2,"['A1', 'B2', 'F2']",6.1,180,0,0.19540443238072355,[12600|0|0]
12600,1.234836220741272,1.081270456314087,-0.03487493842840195,0.09798417240381241,1.0529236793518066,-3.4922380447387695,4.0546875,2,"['A1', 'B2', 'F2']",6.1,180,0,0.19570902979394378,[12700|0|0]
12700,1.2348939180374146,1.0814344882965088,-0.03486618027091026,0.08938997983932495,1.0537205934524536,-3.4989702701568604,4.0546875,2,"['A1', 'B2', 'F2']",6.1,180,0,0.19588313371280278,[12800|0|0]
12800,1.234687089920044,1.0813179016113281,-0.03500741720199585,0.099367655813694,1.053900122642517,-3.495884418487549,4.0546875,2,"['A1', 'B2', 'F2']",6.1,180,0,0.19615939119414755,[12900|0|0]
12900,1.2347829341888428,1.0811365842819214,-0.0351049080491066,0.10082816332578659,1.0542813539505005,-3.5055105686187744,4.0546875,2,"['A1', 'B2', 'F2']",6.1,180,0,0.19638647391712563,[13000|0|0]
13000,1.2347934246063232,1.0812793970108032,-0.034786541014909744,0.09462768584489822,1.0569783449172974,-3.4853999614715576,4.0546875,2,"['A1', 'B2', 'F2']",6.1,180,0,0.196735562864033,[13100|0|0]
13100,1.235111951828003,1.081289291381836,-0.034882742911577225,0.09402978420257568,1.0479726791381836,-3.4831032752990723,4.0546875,2,"['A1', 'B2', 'F2']",6.1,180,0,0.19706844767061257,[13200|0|0]
13200,1.2346934080123901,1.081123948097229,-0.03482514247298241,0.1012745052576065,1.0594788789749146,-3.4776604175567627,4.0546875,2,"['A1', 'B2', 'F2']",6.1,180,0,0.19752213824565093,[13300|0|0]
13300,1.2345638275146484,1.0813416242599487,-0.035037845373153687,0.1010630875825882,1.0672637224197388,-3.4840896129608154,4.0546875,2,"['A1', 'B2', 'F2']",6.1,180,0,0.19785291995758894,[13400|0|0]
13400,1.2347182035446167,1.081027865409851,-0.03504668548703194,0.10618603229522705,1.0648266077041626,-3.4975273609161377,4.0546875,2,"['A1', 'B2', 'F2']",6.1,180,0,0.19820271235638678,[13500|0|0]
13500,1.2347664833068848,1.081356167793274,-0.03485887125134468,0.09222542494535446,1.0605167150497437,-3.4971201419830322,4.0546875,2,"['A1', 'B2', 'F2']",6.1,180,0,0.19858400958629094,[13600|0|0]
13600,1.234967589378357,1.0812844038009644,-0.034993283450603485,0.09184478223323822,1.046507477760315,-3.494196891784668,4.0546875,2,"['A1', 'B2', 'F2']",6.1,180,0,0.19883631963738832,[13700|0|0]
13700,1.2346725463867188,1.0809853076934814,-0.03497052565217018,0.09699173271656036,1.0515830516815186,-3.507244825363159,4.0546875,2,"['A1', 'B2', 'F2']",6.1,180,0,0.19925706512555874,[13800|0|0]
13800,1.2348389625549316,1.0812567472457886,-0.03477530926465988,0.08814845979213715,1.04512619972229,-3.521432638168335,4.0546875,2,"['A1', 'B2', 'F2']",6.1,180,0,0.19963053963546795,[13900|0|0]
13900,1.234602451324463,1.0808517932891846,-0.035063229501247406,0.10624672472476959,1.0515096187591553,-3.543158531188965,4.0546875,2,"['A1', 'B2', 'F2']",6.1,180,0,0.2001808334949137,[14000|0|0]
14000,1.2347595691680908,1.0816208124160767,-0.03506126254796982,0.10052458941936493,1.0452929735183716,-3.5283827781677246,4.0546875,2,"['A1', 'B2', 'F2']",6.1,180,0,0.20096574132594697,[14100|0|0]
14100,1.2346793413162231,1.08109712600708,-0.034976422786712646,0.10993826389312744,1.0435705184936523,-3.5150885581970215,4.0546875,2,"['A1', 'B2', 'F2']",6.1,180,0,0.20150228745469378,[14200|0|0]
14200,1.2346285581588745,1.0814024209976196,-0.03497057408094406,0.10429057478904724,1.0389759540557861,-3.479170799255371,4.0546875,2,"['A1', 'B2', 'F2']",6.1,180,0,0.201811832552665,[14300|0|0]
14300,1.2348796129226685,1.081092119216919,-0.03492577001452446,0.11789406090974808,1.0378494262695312,-3.4919939041137695,4.0546875,2,"['A1', 'B2', 'F2']",6.1,180,0,0.2022134830150043,[14400|0|0]
14400,1.2349872589111328,1.0814077854156494,-0.03460151329636574,0.11219172179698944,1.0442508459091187,-3.481574296951294,4.0546875,2,"['A1', 'B2', 'F2']",6.1,180,0,0.20267864452149906,[14500|0|0]
14500,1.2349152565002441,1.0814933776855469,-0.03497966378927231,0.11121537536382675,1.0473284721374512,-3.5064592361450195,4.0546875,2,"['A1', 'B2', 'F2']",6.1,180,0,0.2030729897752114,[14600|0|0]
14600,1.2344473600387573,1.0810227394104004,-0.03503813222050667,0.11786823719739914,1.0604360103607178,-3.5246191024780273,4.0546875,2,"['A1', 'B2', 'F2']",6.1,180,0,0.20373920748899252,[14700|0|0]
14700,1.2346607446670532,1.081559181213379,-0.03499305248260498,0.10263840854167938,1.0532968044281006,-3.5138044357299805,4.0546875,2,"['A1', 'B2', 'F2']",6.1,180,0,0.20431828864940538,[14800|0|0]
14800,1.2350454330444336,1.081321358680725,-0.03485764190554619,0.10878818482160568,1.0434749126434326,-3.5041542053222656,4.0546875,2,"['A1', 'B2', 'F2']",6.1,180,0,0.2047903911055617,[14900|0|0]
14900,1.2347880601882935,1.0816044807434082,-0.034672126173973083,0.10284436494112015,1.0428941249847412,-3.4950051307678223,4.0546875,2,"['A1', 'B2', 'F2']",6.1,180,0,0.2052156145481384,[15000|0|0]
15000,1.2348296642303467,1.0811803340911865,-0.034670766443014145,0.10990968346595764,1.0470020771026611,-3.492408275604248,4.0546875,2,"['A1', 'B2', 'F2']",6.1,180,0,0.20564179893050627,[15100|0|0]
15100,1.234769582748413,1.0813838243484497,-0.0350237600505352,0.0920482650399208,1.0578149557113647,-3.501340627670288,4.0546875,2,"['A1', 'B2', 'F2']",6.1,180,0,0.206053651520911,[15200|0|0]
15200,1.235034704208374,1.081251621246338,-0.03491536155343056,0.09722568094730377,1.059660792350769,-3.498096227645874,4.0546875,2,"['A1', 'B2', 'F2']",6.1,180,0,0.2063691151208942,[15300|0|0]
15300,1.234992265701294,1.0811896324157715,-0.0347919762134552,0.09648800641298294,1.0672482252120972,-3.5112922191619873,4.0546875,2,"['A1', 'B2', 'F2']",6.1,180,0,0.20651357128766812,[15400|0|0]
15400,1.2348068952560425,1.0808732509613037,-0.03468877822160721,0.10716548562049866,1.0695852041244507,-3.534245729446411,4.0546875,2,"['A1', 'B2', 'F2']",6.1,180,0,0.2068945033711493,[15500|0|0]
15500,1.2345147132873535,1.0814330577850342,-0.03495646268129349,0.09322547912597656,1.0750041007995605,-3.5433318614959717,4.0546875,2,"['A1', 'B2', 'F2']",6.1,180,0,0.20758036702573357,[15600|0|0]
15600,1.2348240613937378,1.081407904624939,-0.03504420071840286,0.09523081034421921,1.0621511936187744,-3.5185458660125732,4.0546875,2,"['A1', 'B2', 'F2']",6.1,180,0,0.2079028990327377,[15700|0|0]
15700,1.2349485158920288,1.0812668800354004,-0.034814510494470596,0.1010647863149643,1.0597467422485352,-3.5224697589874268,4.0546875,2,"['A1', 'B2', 'F2']",6.1,180,0,0.2081997735112121,[15800|0|0]
15800,1.2347098588943481,1.0812345743179321,-0.034764207899570465,0.1057741641998291,1.07456636428833,-3.533259153366089,4.0546875,2,"['A1', 'B2', 'F2']",6.1,180,0,0.20844580434866297,[15900|0|0]
15900,1.2348952293395996,1.0813382863998413,-0.034719791263341904,0.10218790918588638,1.0603032112121582,-3.5574002265930176,4.0546875,2,"['A1', 'B2', 'F2']",6.1,180,0,0.20866280949947863,[16000|0|0]
16000,1.2350959777832031,1.0810602903366089,-0.034642260521650314,0.10222992300987244,1.0507408380508423,-3.5382497310638428,4.0546875,2,"['A1', 'B2', 'F2']",6.1,180,0,0.20901436712589172,[16100|0|0]
16100,1.234984278678894,1.0812944173812866,-0.03457895293831825,0.09897927194833755,1.0522816181182861,-3.5128207206726074,4.0546875,2,"['A1', 'B2', 'F2']",6.1,180,0,0.20928138774880375,[16200|0|0]
16200,1.2347465753555298,1.0812435150146484,-0.0346011146903038,0.09798933565616608,1.0552515983581543,-3.5026156902313232,4.0546875,2,"['A1', 'B2', 'F2']",6.1,180,0,0.2095254882693252,[16300|0|0]
16301,1.235159158706665,1.0813825130462646,-0.03457465395331383,0.10015749931335449,1.037844181060791,-3.4984257221221924,4.0546875,2,"['A1', 'B2', 'F2']",6.1,180,0,0.20996165984683712,[16400|0|0]
16401,1.2347246408462524,1.0813618898391724,-0.0350579135119915,0.10439080744981766,1.049847960472107,-3.521620273590088,4.0546875,2,"['A1', 'B2', 'F2']",6.1,180,0,0.21061186818940253,[16500|0|0]
16500,1.234634518623352,1.0813016891479492,-0.03461483493447304,0.10506277531385422,1.0483697652816772,-3.52691650390625,4.0546875,2,"['A1', 'B2', 'F2']",6.1,180,0,0.2110680093563016,[16600|0|0]
16601,1.234697699546814,1.081084966659546,-0.034660011529922485,0.10673816502094269,1.0460201501846313,-3.526658773422241,4.0546875,2,"['A1', 'B2', 'F2']",6.1,180,0,0.21129822966566988,[16700|0|0]
16701,1.235029697418213,1.0810636281967163,-0.03469868749380112,0.10479461401700974,1.0387791395187378,-3.539565086364746,4.0546875,2,"['A1', 'B2', 'F2']",6.1,180,0,0.21163315315960737,[16800|0|0]
16801,1.2348554134368896,1.0812511444091797,-0.03458467870950699,0.09980269521474838,1.0465439558029175,-3.5472095012664795,4.0546875,2,"['A1', 'B2', 'F2']",6.1,180,0,0.21191339455372807,[16900|0|0]
16901,1.2348999977111816,1.0811331272125244,-0.0345039889216423,0.10362747311592102,1.0482120513916016,-3.54250431060791,4.0546875,2,"['A1', 'B2', 'F2']",6.1,180,0,0.212063149881133,[17000|0|0]
17001,1.234841227531433,1.081055998802185,-0.03460346534848213,0.10936630517244339,1.0422370433807373,-3.5278079509735107,4.0546875,2,"['A1', 'B2', 'F2']",6.1,180,0,0.21220206814921166,[17100|0|0]
17101,1.2349042892456055,1.081128716468811,-0.034519586712121964,0.11787080764770508,1.0380711555480957,-3.5394108295440674,4.0546875,2,"['A1', 'B2', 'F2']",6.1,180,0,0.21232974063830592,[17200|0|0]
17201,1.2351053953170776,1.0811601877212524,-0.03465160354971886,0.11186296492815018,1.0386574268341064,-3.51423978805542,4.0546875,2,"['A1', 'B2', 'F2']",6.1,180,0,0.21257235666647037,[17300|0|0]
17301,1.2348451614379883,1.0813391208648682,-0.034378740936517715,0.10170275717973709,1.044164776802063,-3.493587017059326,4.0546875,2,"['A1', 'B2', 'F2']",6.1,180,0,0.21298972071306885,[17400|0|0]
17401,1.2348707914352417,1.0813688039779663,-0.034918464720249176,0.09769544005393982,1.0471830368041992,-3.523545742034912,4.0546875,2,"['A1', 'B2', 'F2']",6.1,180,0,0.21353086740915764,[17500|0|0]
17501,1.234603762626648,1.0813565254211426,-0.03464116156101227,0.09633244574069977,1.04863703250885,-3.540372848510742,4.0546875,2,"['A1', 'B2', 'F2']",6.1,180,0,0.21391603255516572,[17600|0|0]
17601,1.2347017526626587,1.0811543464660645,-0.034549616277217865,0.10083173960447311,1.047479510307312,-3.524561643600464,4.0546875,2,"['A1', 'B2', 'F2']",6.1,180,0,0.21415864112059338,[17700|0|0]
17702,1.2352125644683838,1.0815128087997437,-0.034481972455978394,0.08790765702724457,1.0347003936767578,-3.528435230255127,4.0546875,2,"['A1', 'B2', 'F2']",6.1,180,0,0.21478633502058506,[17800|0|0]
17800,1.234959602355957,1.081478238105774,-0.035033319145441055,0.09056735783815384,1.0462749004364014,-3.5390169620513916,4.0546875,2,"['A1', 'B2', 'F2']",6.1,180,0,0.2153939271001799,[17900|0|0]
17902,1.2350624799728394,1.0810089111328125,-0.03452308475971222,0.09068000316619873,1.041619896888733,-3.5028789043426514,4.0546875,2,"['A1', 'B2', 'F2']",6.1,180,0,0.21609477711265376,[18000|0|0]
18002,1.2348648309707642,1.080934762954712,-0.03466402366757393,0.09432383626699448,1.046902060508728,-3.502755880355835,4.0546875,2,"['A1', 'B2', 'F2']",6.1,180,0,0.2163486015718499,[18100|0|0]
18102,1.2347707748413086,1.0811183452606201,-0.03473250940442085,0.08704958111047745,1.0493412017822266,-3.504225730895996,4.0546875,2,"['A1', 'B2', 'F2']",6.1,180,0,0.216565947643087,[18200|0|0]
18200,1.2348390817642212,1.0811156034469604,-0.0346711203455925,0.07918520271778107,1.049664855003357,-3.507265090942383,4.0546875,2,"['A1', 'B2', 'F2']",6.1,180,0,0.21665782783574986,[18300|0|0]
18300,1.2350032329559326,1.0811991691589355,-0.03484639897942543,0.08016881346702576,1.0460649728775024,-3.535027027130127,4.0546875,2,"['A1', 'B2', 'F2']",6.1,180,0,0.2169120943129672,[18400|0|0]
18402,1.234782099723816,1.0811235904693604,-0.03476811200380325,0.0900285542011261,1.0574300289154053,-3.529120445251465,4.0546875,2,"['A1', 'B2', 'F2']",6.1,180,0,0.21715855099316952,[18500|0|0]
18502,1.2348169088363647,1.08126962184906,-0.03508514165878296,0.09623739123344421,1.0549590587615967,-3.5291335582733154,4.0546875,2,"['A1', 'B2', 'F2']",6.1,180,0,0.21750932818785296,[18600|0|0]
18600,1.2349066734313965,1.0810861587524414,-0.034984175115823746,0.10478125512599945,1.0602704286575317,-3.57224702835083,4.0546875,2,"['A1', 'B2', 'F2']",6.1,180,0,0.21773716723880615,[18700|0|0]
18700,1.2354862689971924,1.0807820558547974,-0.03529026731848717,0.11123491078615189,1.0574084520339966,-3.5749499797821045,4.0546875,2,"['A1', 'B2', 'F2']",6.1,180,0,0.21845973351865675,[18800|0|0]
18800,1.2361165285110474,1.0804651975631714,-0.03587641939520836,0.10691884160041809,1.0521420240402222,-3.5686259269714355,4.0546875,2,"['A1', 'B2', 'F2']",6.1,180,0,0.2193769033441642,[18900|0|0]
18900,1.2369167804718018,1.0805332660675049,-0.03676687926054001,0.09215038269758224,1.0453901290893555,-3.568056583404541,4.0546875,2,"['A1', 'B2', 'F2']",6.1,180,0,0.22057605108057532,[19000|0|0]
19000,1.2384369373321533,1.0803426504135132,-0.03723569214344025,0.08320848643779755,1.0203310251235962,-3.5547823905944824,4.0546875,2,"['A1', 'B2', 'F2']",6.1,180,0,0.2221782360657733,[19100|0|0]
19100,1.2395647764205933,1.0802028179168701,-0.03831927478313446,0.07823982834815979,1.019378423690796,-3.590080738067627,4.0546875,2,"['A1', 'B2', 'F2']",6.1,180,0,0.22374849893344137,[19200|0|0]
19200,1.2416852712631226,1.079980731010437,-0.039415471255779266,0.07995270937681198,0.9983088374137878,-3.913011312484741,4.0546875,2,"['A1', 'B2', 'F2']",6.1,180,0,0.22614588661127766,[19300|0|0]
19300,1.2346084117889404,1.0812017917633057,-0.03500288724899292,0.08091051131486893,1.075863242149353,-4.037664413452148,4.0546875,2,"['A1', 'B2', 'F2']",6.1,180,0,0.23457463663702074,[19400|0|0]
19400,1.234331488609314,1.0815722942352295,-0.03480358421802521,0.07977540045976639,1.0831352472305298,-3.9889211654663086,4.0546875,2,"['A1', 'B2', 'F2']",6.1,180,0,0.23507830341899968,[19500|0|0]
19500,1.235033631324768,1.0810608863830566,-0.034737057983875275,0.09778893738985062,1.0639764070510864,-3.861679792404175,4.0546875,2,"['A1', 'B2', 'F2']",6.1,180,0,0.2359494911851899,[19600|0|0]
19600,1.234557867050171,1.0810917615890503,-0.034679073840379715,0.10458756238222122,1.0732533931732178,-3.7999460697174072,4.0546875,2,"['A1', 'B2', 'F2']",6.1,180,0,0.23642976931734358,[19700|0|0]
19700,1.2345936298370361,1.081173300743103,-0.03498532623052597,0.10336485505104065,1.0666788816452026,-3.757225275039673,4.0546875,2,"['A1', 'B2', 'F2']",6.1,180,0,0.23674870212694193,[19800|0|0]
19800,1.2347956895828247,1.081253170967102,-0.03507038578391075,0.0964839905500412,1.061369776725769,-3.6887340545654297,4.0546875,2,"['A1', 'B2', 'F2']",6.1,180,0,0.23698203133894039,[19900|0|0]
19900,1.2348753213882446,1.0811550617218018,-0.034447867423295975,0.09143029153347015,1.0573903322219849,-3.655907154083252,4.0546875,2,"['A1', 'B2', 'F2']",6.1,180,0,0.2376172444982423,[20000|0|0]
20000,1.2346069812774658,1.081064224243164,-0.03461870923638344,0.10356173664331436,1.0498013496398926,-3.649841070175171,4.0546875,2,"['A1', 'B2', 'F2']",6.1,180,0,0.23794806890435083,[20100|0|0]
20100,1.23479425907135,1.0813510417938232,-0.034517258405685425,0.09577681124210358,1.042831540107727,-3.6079835891723633,4.0546875,2,"['A1', 'B2', 'F2']",6.1,180,0,0.23830532168670193,[20200|0|0]
20200,1.234718918800354,1.0810827016830444,-0.03455597907304764,0.11230307072401047,1.037428855895996,-3.567603349685669,4.0546875,2,"['A1', 'B2', 'F2']",6.1,180,0,0.23858671440438936,[20300|0|0]
20300,1.2348201274871826,1.0815707445144653,-0.03483796492218971,0.09941695630550385,1.0358757972717285,-3.5527262687683105,4.0546875,2,"['A1', 'B2', 'F2']",6.1,180,0,0.2391593792476505,[20400|0|0]
20400,1.2349995374679565,1.0812474489212036,-0.034575220197439194,0.10206613689661026,1.0282785892486572,-3.507449150085449,4.0546875,2,"['A1', 'B2', 'F2']",6.1,180,0,0.239612968017582,[20500|0|0]
20500,1.2349048852920532,1.0811562538146973,-0.03474925830960274,0.1064942330121994,1.0366801023483276,-3.5075459480285645,4.0546875,2,"['A1', 'B2', 'F2']",6.1,180,0,0.23983106168172516,[20600|0|0]
20600,1.2349350452423096,1.0812941789627075,-0.03494591265916824,0.10841921716928482,1.0269417762756348,-3.493891716003418,4.0546875,2,"['A1', 'B2', 'F2']",6.1,180,0,0.2400731482411541,[20700|0|0]
20700,1.234634280204773,1.081309199333191,-0.034917548298835754,0.10155195742845535,1.0452053546905518,-3.4869935512542725,4.0546875,2,"['A1', 'B2', 'F2']",6.1,180,0,0.24037562097756343,[20800|0|0]
20800,1.234974980354309,1.0814374685287476,-0.03456370159983635,0.09917053580284119,1.0308665037155151,-3.484332323074341,4.0546875,2,"['A1', 'B2', 'F2']",6.1,180,0,0.2408832990889839,[20900|0|0]
20900,1.2348650693893433,1.0810887813568115,-0.0347721092402935,0.10996914654970169,1.0427236557006836,-3.5027523040771484,4.0546875,2,"['A1', 'B2', 'F2']",6.1,180,0,0.24130412792437114,[21000|0|0]
21000,1.2349376678466797,1.081074595451355,-0.03461286053061485,0.10969427973031998,1.040624737739563,-3.5068747997283936,4.0546875,2,"['A1', 'B2', 'F2']",6.1,180,0,0.24147971815033936,[21100|0|0]
21100,1.235058307647705,1.0813924074172974,-0.03499206155538559,0.10077600181102753,1.0377072095870972,-3.5171778202056885,4.0546875,2,"['A1', 'B2', 'F2']",6.1,180,0,0.24198898411668188,[21200|0|0]
21200,1.235055923461914,1.0813959836959839,-0.034529294818639755,0.09449546039104462,1.0454087257385254,-3.540161371231079,4.0546875,2,"['A1', 'B2', 'F2']",6.1,180,0,0.2424517708134975,[21300|0|0]
21300,1.234928011894226,1.0809565782546997,-0.03484901040792465,0.09378059953451157,1.0459314584732056,-3.519517421722412,4.0546875,2,"['A1', 'B2', 'F2']",6.1,180,0,0.24301003291055437,[21400|0|0]
21400,1.2348369359970093,1.0811704397201538,-0.034550245851278305,0.10118626058101654,1.0453095436096191,-3.5109896659851074,4.0546875,2,"['A1', 'B2', 'F2']",6.1,180,0,0.24338857195182767,[21500|0|0]
21500,1.2346347570419312,1.0812373161315918,-0.0346711240708828,0.09219875186681747,1.0485211610794067,-3.523127317428589,4.0546875,2,"['A1', 'B2', 'F2']",6.1,180,0,0.24363343993311157,[21600|0|0]
21600,1.2349495887756348,1.081142783164978,-0.0346156507730484,0.09011669456958771,1.0390040874481201,-3.51296329498291,4.0546875,2,"['A1', 'B2', 'F2']",6.1,180,0,0.24396680578183672,[21700|0|0]
21700,1.2347358465194702,1.081239938735962,-0.03476306423544884,0.09331820160150528,1.0428813695907593,-3.4976933002471924,4.0546875,2,"['A1', 'B2', 'F2']",6.1,180,0,0.24424403436250688,[21800|0|0]
21800,1.2347588539123535,1.0811508893966675,-0.03511286526918411,0.09615335613489151,1.047024130821228,-3.504197835922241,4.0546875,2,"['A1', 'B2', 'F2']",6.1,180,0,0.24460572468330402,[21900|0|0]
21900,1.2349483966827393,1.081373691558838,-0.03494226932525635,0.08817228674888611,1.0430736541748047,-3.5021424293518066,4.0546875,2,"['A1', 'B2', 'F2']",6.1,180,0,0.24494435463082478,[22000|0|0]
22000,1.2349164485931396,1.0808582305908203,-0.03464234620332718,0.1050219014286995,1.0403714179992676,-3.4777586460113525,4.0546875,2,"['A1', 'B2', 'F2']",6.1,180,0,0.2455415770090445,[22100|0|0]
22100,1.2350058555603027,1.0811362266540527,-0.03456514701247215,0.09557037800550461,1.04281485080719,-3.455552101135254,4.0546875,2,"['A1', 'B2', 'F2']",6.1,180,0,0.24584362854772407,[22200|0|0]
22200,1.2347012758255005,1.0809565782546997,-0.034688886255025864,0.09347900748252869,1.0549887418746948,-3.462085247039795,4.0546875,2,"['A1', 'B2', 'F2']",6.1,180,0,0.24621826672302136,[22300|0|0]
22300,1.234935998916626,1.0813761949539185,-0.03462602570652962,0.08228844404220581,1.04051673412323,-3.484830617904663,4.0546875,2,"['A1', 'B2', 'F2']",6.1,180,0,0.2467031631576628,[22400|0|0]
22400,1.2347850799560547,1.0814175605773926,-0.0345587357878685,0.08558250218629837,1.046172857284546,-3.5037784576416016,4.0546875,2,"['A1', 'B2', 'F2']",6.1,180,0,0.24687350276145106,[22500|0|0]
22500,1.2348774671554565,1.081106424331665,-0.034626346081495285,0.09188589453697205,1.044478416442871,-3.51720929145813,4.0546875,2,"['A1', 'B2', 'F2']",6.1,180,0,0.2472050330162138,[22600|0|0]
22600,1.234860897064209,1.0813653469085693,-0.034786731004714966,0.08964655548334122,1.0520224571228027,-3.540642499923706,4.0546875,2,"['A1', 'B2', 'F2']",6.1,180,0,0.2475100556257871,[22700|0|0]
22700,1.2348076105117798,1.0810143947601318,-0.03482934832572937,0.08718577772378922,1.0529935359954834,-3.539639949798584,4.0546875,2,"['A1', 'B2', 'F2']",6.1,180,0,0.24786757919593755,[22800|0|0]
22800,1.234791874885559,1.0812535285949707,-0.03452605754137039,0.08540775626897812,1.051226019859314,-3.5512630939483643,4.0546875,2,"['A1', 'B2', 'F2']",6.1,180,0,0.2482541253132048,[22900|0|0]
22900,1.2348625659942627,1.0815154314041138,-0.034870073199272156,0.0722811296582222,1.0433530807495117,-3.5395419597625732,4.0546875,2,"['A1', 'B2', 'F2']",6.1,180,0,0.2486922315642083,[23000|0|0]
23000,1.2349600791931152,1.0815330743789673,-0.03499622642993927,0.07271284610033035,1.0367262363433838,-3.5358614921569824,4.0546875,2,"['A1', 'B2', 'F2']",6.1,180,0,0.24885265206202542,[23100|0|0]
23100,1.2349473237991333,1.0812488794326782,-0.03472491353750229,0.0817207470536232,1.0367746353149414,-3.5151796340942383,4.0546875,2,"['A1', 'B2', 'F2']",6.1,180,0,0.24924576801587925,[23200|0|0]
23200,1.234872817993164,1.0814381837844849,-0.03473078832030296,0.08297967165708542,1.0406596660614014,-3.523355722427368,4.0546875,2,"['A1', 'B2', 'F2']",6.1,180,0,0.24944929139490243,[23300|0|0]
23300,1.2348389625549316,1.081100583076477,-0.03474036604166031,0.08493813127279282,1.0518276691436768,-3.517432689666748,4.0546875,2,"['A1', 'B2', 'F2']",6.1,180,0,0.24978872056496843,[23400|0|0]
23400,1.234874963760376,1.0809059143066406,-0.03477345034480095,0.08985983580350876,1.0523552894592285,-3.5094966888427734,4.0546875,2,"['A1', 'B2', 'F2']",6.1,180,0,0.2499894357558668,[23500|0|0]
23500,1.2346935272216797,1.081248164176941,-0.03484713286161423,0.08750156313180923,1.051986575126648,-3.5095374584198,4.0546875,2,"['A1', 'B2', 'F2']",6.1,180,0,0.250383749469271,[23600|0|0]
23600,1.2348796129226685,1.0814080238342285,-0.03463426232337952,0.07785347104072571,1.0480833053588867,-3.5033655166625977,4.0546875,2,"['A1', 'B2', 'F2']",6.1,180,0,0.25070855227743144,[23700|0|0]
23700,1.2350314855575562,1.0812797546386719,-0.034638483077287674,0.07504384964704514,1.0423038005828857,-3.498232841491699,4.0546875,2,"['A1', 'B2', 'F2']",6.1,180,0,0.25090738914151867,[23800|0|0]
23800,1.2351566553115845,1.0811166763305664,-0.034608203917741776,0.08213789761066437,1.0442613363265991,-3.5021462440490723,4.0546875,2,"['A1', 'B2', 'F2']",6.1,180,0,0.2511151843036396,[23900|0|0]
23900,1.2346972227096558,1.0813103914260864,-0.034654650837183,0.08589619398117065,1.0573854446411133,-3.5282211303710938,4.0546875,2,"['A1', 'B2', 'F2']",6.1,180,0,0.25161594489541267,[24000|0|0]
24000,1.2351164817810059,1.0813603401184082,-0.03485642373561859,0.07552607357501984,1.0447638034820557,-3.5281405448913574,4.0546875,2,"['A1', 'B2', 'F2']",6.1,180,0,0.2520839035937153,[24100|0|0]
24100,1.2350748777389526,1.0810844898223877,-0.034751977771520615,0.09237983822822571,1.0522109270095825,-3.545426845550537,4.0546875,2,"['A1', 'B2', 'F2']",6.1,180,0,0.25238178484781854,[24200|0|0]
24200,1.2349478006362915,1.0810303688049316,-0.03491557762026787,0.08815055340528488,1.0636218786239624,-3.5354199409484863,4.0546875,2,"['A1', 'B2', 'F2']",6.1,180,0,0.2525958936637541,[24300|0|0]
24300,1.2346137762069702,1.0811750888824463,-0.03457945957779884,0.07526349276304245,1.0761739015579224,-3.5272746086120605,4.0546875,2,"['A1', 'B2', 'F2']",6.1,180,0,0.25309136471103383,[24400|0|0]
24400,1.2350114583969116,1.0814790725708008,-0.03445545211434364,0.06700499355792999,1.0593268871307373,-3.540358066558838,4.0546875,2,"['A1', 'B2', 'F2']",6.1,180,0,0.2536070536269267,[24500|0|0]
24500,1.2348207235336304,1.0812571048736572,-0.03482842072844505,0.07553417980670929,1.058304786682129,-3.5704731941223145,4.0546875,2,"['A1', 'B2', 'F2']",6.1,180,0,0.25408113698853185,[24600|0|0]
24600,1.234790325164795,1.0813874006271362,-0.035111311823129654,0.07439225912094116,1.0605190992355347,-3.5605180263519287,4.0546875,2,"['A1', 'B2', 'F2']",6.1,180,0,0.25439407215059323,[24700|0|0]
24700,1.2346482276916504,1.081052541732788,-0.03506333753466606,0.08526990562677383,1.0698314905166626,-3.5461642742156982,4.0546875,2,"['A1', 'B2', 'F2']",6.1,180,0,0.25476098317979745,[24800|0|0]
24800,1.2349413633346558,1.0815640687942505,-0.0352303683757782,0.06819704174995422,1.0634562969207764,-3.5258584022521973,4.0546875,2,"['A1', 'B2', 'F2']",6.1,180,0,0.25537375372550863,[24900|0|0]
24900,1.2349470853805542,1.0813826322555542,-0.03476272150874138,0.08069807291030884,1.0685454607009888,-3.519575834274292,4.0546875,2,"['A1', 'B2', 'F2']",6.1,180,0,0.25587539657817643,[25000|0|0]
25000,1.2346702814102173,1.0811500549316406,-0.03485370799899101,0.09303070604801178,1.0783708095550537,-3.5226473808288574,4.0546875,2,"['A1', 'B2', 'F2']",6.1,180,0,0.25624821180184765,[25100|0|0]
25100,1.2348073720932007,1.081419825553894,-0.03480793163180351,0.09025954455137253,1.0592204332351685,-3.5069329738616943,4.0546875,2,"['A1', 'B2', 'F2']",6.1,180,0,0.256554260032989,[25200|0|0]
25200,1.2348326444625854,1.0811326503753662,-0.034807320684194565,0.0946374386548996,1.052473545074463,-3.5294649600982666,4.0546875,2,"['A1', 'B2', 'F2']",6.1,180,0,0.2568425457403589,[25300|0|0]
25300,1.2350884675979614,1.0812770128250122,-0.03492920100688934,0.0845734253525734,1.0520321130752563,-3.5537240505218506,4.0546875,2,"['A1', 'B2', 'F2']",6.1,180,0,0.2571605721646094,[25400|0|0]
25400,1.234818935394287,1.0814428329467773,-0.0347883366048336,0.08078409731388092,1.0560195446014404,-3.549764633178711,4.0546875,2,"['A1', 'B2', 'F2']",6.1,180,0,0.25750696313066695,[25500|0|0]
25500,1.234492301940918,1.0814096927642822,-0.03476390242576599,0.0916806310415268,1.0607675313949585,-3.5442049503326416,4.0546875,2,"['A1', 'B2', 'F2']",6.1,180,0,0.25783618146803955,[25600|0|0]
25600,1.2348031997680664,1.0810356140136719,-0.03459721431136131,0.0965615063905716,1.0470832586288452,-3.5320942401885986,4.0546875,2,"['A1', 'B2', 'F2']",6.1,180,0,0.2583503577977822,[25700|0|0]
25700,1.2346258163452148,1.0815032720565796,-0.03488229215145111,0.07995613664388657,1.0518865585327148,-3.5541982650756836,4.0546875,2,"['A1', 'B2', 'F2']",6.1,180,0,0.2589260645796678,[25800|0|0]
25800,1.2348744869232178,1.081074833869934,-0.034530751407146454,0.08844323456287384,1.0373427867889404,-3.5290591716766357,4.0546875,2,"['A1', 'B2', 'F2']",6.1,180,0,0.25953349954001065,[25900|0|0]
25900,1.2351195812225342,1.0813701152801514,-0.034753285348415375,0.07404424995183945,1.027704119682312,-3.526780128479004,4.0546875,2,"['A1', 'B2', 'F2']",6.1,180,0,0.2599771026078472,[26000|0|0]
26000,1.2348949909210205,1.08132004737854,-0.034688033163547516,0.07181083410978317,1.0328887701034546,-3.515338897705078,4.0546875,2,"['A1', 'B2', 'F2']",6.1,180,0,0.26021627920773893,[26100|0|0]
26100,1.2346824407577515,1.0813825130462646,-0.034805409610271454,0.07309142500162125,1.0303608179092407,-3.491182804107666,4.0546875,2,"['A1', 'B2', 'F2']",6.1,180,0,0.2604669917159939,[26200|0|0]
26200,1.234659194946289,1.0811198949813843,-0.034712061285972595,0.08347277343273163,1.0287206172943115,-3.494642734527588,4.0546875,2,"['A1', 'B2', 'F2']",6.1,180,0,0.2607466746175118,[26300|0|0]
26300,1.234947681427002,1.0810214281082153,-0.03492353856563568,0.08977872878313065,1.0161420106887817,-3.5018856525421143,4.0546875,2,"['A1', 'B2', 'F2']",6.1,180,0,0.26111767706289385,[26400|0|0]
26400,1.234959602355957,1.0814751386642456,-0.034991469234228134,0.06884830445051193,1.0208826065063477,-3.517237901687622,4.0546875,2,"['A1', 'B2', 'F2']",6.1,180,0,0.26157659966305197,[26500|0|0]
26500,1.2347571849822998,1.0814417600631714,-0.034908078610897064,0.07077477127313614,1.0271061658859253,-3.4948344230651855,4.0546875,2,"['A1', 'B2', 'F2']",6.1,180,0,0.26179805150934704,[26600|0|0]
26600,1.2350741624832153,1.0813149213790894,-0.03474029526114464,0.07828150689601898,1.025740623474121,-3.4973409175872803,4.0546875,2,"['A1', 'B2', 'F2']",6.1,180,0,0.2621784644958768,[26700|0|0]
26700,1.234940528869629,1.0810807943344116,-0.03465786203742027,0.0865449383854866,1.0325325727462769,-3.506695508956909,4.0546875,2,"['A1', 'B2', 'F2']",6.1,180,0,0.26246036634422704,[26800|0|0]
26800,1.2351127862930298,1.0813649892807007,-0.034978944808244705,0.07966508716344833,1.0345675945281982,-3.504585027694702,4.0546875,2,"['A1', 'B2', 'F2']",6.1,180,0,0.2629224632313982,[26900|0|0]
26900,1.2350202798843384,1.0811470746994019,-0.034747373312711716,0.08148249983787537,1.041961431503296,-3.511401653289795,4.0546875,2,"['A1', 'B2', 'F2']",6.1,180,0,0.26325362717559353,[27000|0|0]
27000,1.2349427938461304,1.0813583135604858,-0.03473888337612152,0.06639205664396286,1.0474159717559814,-3.5178799629211426,4.0546875,2,"['A1', 'B2', 'F2']",6.1,180,0,0.2634787893872822,[27100|0|0]
27100,1.2349618673324585,1.0813974142074585,-0.0348413921892643,0.05966273322701454,1.042676329612732,-3.4962401390075684,4.0546875,2,"['A1', 'B2', 'F2']",6.1,180,0,0.2635901478860433,[27200|0|0]
27200,1.234680414199829,1.0812456607818604,-0.03489504009485245,0.07738854736089706,1.0566805601119995,-3.5091683864593506,4.0546875,2,"['A1', 'B2', 'F2']",6.1,180,0,0.26391437476004,[27300|0|0]
27300,1.2349299192428589,1.0813652276992798,-0.0344945527613163,0.0740998238325119,1.051871418952942,-3.4917919635772705,4.0546875,2,"['A1', 'B2', 'F2']",6.1,180,0,0.2644011386849167,[27400|0|0]
27400,1.2348055839538574,1.0815043449401855,-0.03469153121113777,0.0694073811173439,1.059848666191101,-3.4919865131378174,4.0546875,2,"['A1', 'B2', 'F2']",6.1,180,0,0.2646724565437141,[27500|0|0]
27500,1.2350789308547974,1.08101224899292,-0.03477218747138977,0.0875275656580925,1.0558792352676392,-3.4860970973968506,4.0546875,2,"['A1', 'B2', 'F2']",6.1,180,0,0.26524112374154296,[27600|0|0]
27600,1.2349833250045776,1.0810686349868774,-0.03471650555729866,0.08281267434358597,1.0571309328079224,-3.5184848308563232,4.0546875,2,"['A1', 'B2', 'F2']",6.1,180,0,0.26536530238088024,[27700|0|0]
27700,1.2350101470947266,1.0810502767562866,-0.034941546618938446,0.08845414221286774,1.0600017309188843,-3.507782220840454,4.0546875,2,"['A1', 'B2', 'F2']",6.1,180,0,0.2655926785638334,[27800|0|0]
27800,1.2347360849380493,1.081333041191101,-0.03494584932923317,0.08709222078323364,1.0726838111877441,-3.5007736682891846,4.0546875,2,"['A1', 'B2', 'F2']",6.1,180,0,0.26598648600997227,[27900|0|0]
27900,1.2347863912582397,1.0810809135437012,-0.034835439175367355,0.0881347581744194,1.0671344995498657,-3.5261359214782715,4.0546875,2,"['A1', 'B2', 'F2']",6.1,180,0,0.26626628858056656,[28000|0|0]
28000,1.2347896099090576,1.0814228057861328,-0.03510470315814018,0.08085162937641144,1.0734546184539795,-3.5368893146514893,4.0546875,2,"['A1', 'B2', 'F2']",6.1,180,0,0.26670149400053134,[28100|0|0]
28100,1.2350804805755615,1.0811821222305298,-0.03470279276371002,0.09050440043210983,1.0634337663650513,-3.5074450969696045,4.0546875,2,"['A1', 'B2', 'F2']",6.1,180,0,0.2672529160564206,[28200|0|0]
28200,1.234612226486206,1.0813161134719849,-0.03489082306623459,0.08580759167671204,1.0693261623382568,-3.5029478073120117,4.0546875,2,"['A1', 'B2', 'F2']",6.1,180,0,0.2677749993253081,[28300|0|0]
28300,1.2348217964172363,1.081202745437622,-0.03472168371081352,0.09079141914844513,1.0621684789657593,-3.5052683353424072,4.0546875,2,"['A1', 'B2', 'F2']",6.1,180,0,0.2680671978686987,[28400|0|0]
28400,1.2347584962844849,1.0811411142349243,-0.03473168611526489,0.087893046438694,1.068961262702942,-3.5305609703063965,4.0546875,2,"['A1', 'B2', 'F2']",6.1,180,0,0.2681561099603799,[28500|0|0]
28500,1.2348169088363647,1.0811996459960938,-0.034961946308612823,0.08631707727909088,1.0698586702346802,-3.5215935707092285,4.0546875,2,"['A1', 'B2', 'F2']",6.1,180,0,0.26840076839559796,[28600|0|0]
28600,1.234879970550537,1.0811704397201538,-0.0347464345395565,0.08594047278165817,1.0609110593795776,-3.526623010635376,4.0546875,2,"['A1', 'B2', 'F2']",6.1,180,0,0.26862720847365484,[28700|0|0]
28700,1.234620213508606,1.0812932252883911,-0.03495476767420769,0.08333142846822739,1.072502851486206,-3.528186559677124,4.0546875,2,"['A1', 'B2', 'F2']",6.1,180,0,0.26898210664439365,[28800|0|0]
28800,1.2349236011505127,1.0811101198196411,-0.03483894467353821,0.08217623829841614,1.0596234798431396,-3.5413622856140137,4.0546875,2,"['A1', 'B2', 'F2']",6.1,180,0,0.26935491576637427,[28900|0|0]
28900,1.2347153425216675,1.0812290906906128,-0.034860748797655106,0.07553842663764954,1.0623365640640259,-3.536756992340088,4.0546875,2,"['A1', 'B2', 'F2']",6.1,180,0,0.2695957500339874,[29000|0|0]
29000,1.2346259355545044,1.0809643268585205,-0.03457801416516304,0.08440405130386353,1.0642074346542358,-3.5510942935943604,4.0546875,2,"['A1', 'B2', 'F2']",6.1,180,0,0.2699932828816515,[29100|0|0]
29100,1.234831690788269,1.0813606977462769,-0.03455784544348717,0.07891034334897995,1.0589468479156494,-3.5289499759674072,4.0546875,2,"['A1', 'B2', 'F2']",6.1,180,0,0.2704403308368155,[29200|0|0]
29200,1.2350358963012695,1.081158995628357,-0.034716688096523285,0.09362412244081497,1.055344820022583,-3.5254104137420654,4.0546875,2,"['A1', 'B2', 'F2']",6.1,180,0,0.27076837751693394,[29300|0|0]
29300,1.2349209785461426,1.0810601711273193,-0.034485869109630585,0.10182346403598785,1.0571341514587402,-3.5340352058410645,4.0546875,2,"['A1', 'B2', 'F2']",6.1,180,0,0.2710445111388617,[29400|0|0]
29400,1.2348605394363403,1.0814192295074463,-0.034775540232658386,0.08306780457496643,1.0569158792495728,-3.521073579788208,4.0546875,2,"['A1', 'B2', 'F2']",6.1,180,0,0.27150979080298776,[29500|0|0]
29500,1.2348886728286743,1.0813393592834473,-0.03463972732424736,0.09479957073926926,1.0503520965576172,-3.5383498668670654,4.0546875,2,"['A1', 'B2', 'F2']",6.1,180,0,0.27166984044071596,[29600|0|0]
29600,1.234596848487854,1.0810133218765259,-0.03455382212996483,0.09983695298433304,1.0660606622695923,-3.524193286895752,4.0546875,2,"['A1', 'B2', 'F2']",6.1,180,0,0.27211575695645845,[29700|0|0]
29700,1.2348862886428833,1.0811861753463745,-0.03508811444044113,0.10515780001878738,1.0580004453659058,-3.5110597610473633,4.0546875,2,"['A1', 'B2', 'F2']",6.1,180,0,0.272747518144263,[29800|0|0]
29800,1.235098123550415,1.0809948444366455,-0.03453965112566948,0.10057900100946426,1.0528823137283325,-3.4974911212921143,4.0546875,2,"['A1', 'B2', 'F2']",6.1,180,0,0.27336581706284285,[29900|0|0]
29900,1.234671711921692,1.081166386604309,-0.03474545478820801,0.09261111915111542,1.059106707572937,-3.4991772174835205,4.0546875,2,"['A1', 'B2', 'F2']",6.1,180,0,0.27386941287290417,[30000|0|0]
30000,1.2347332239151,1.081182837486267,-0.03445003181695938,0.08832665532827377,1.0543873310089111,-3.478386878967285,4.0546875,2,"['A1', 'B2', 'F2']",6.1,180,0,0.27417161990259015,[30100|0|0]
30100,1.234740138053894,1.0812705755233765,-0.035004258155822754,0.0894947201013565,1.0571644306182861,-3.498441696166992,4.0546875,2,"['A1', 'B2', 'F2']",6.1,180,0,0.2747327906459125,[30200|0|0]
