time.ms,stateEstimate.x,stateEstimate.y,stateEstimate.z,stabilizer.roll,stabilizer.pitch,stabilizer.yaw,pm.vbat,drone_id,node_name,wind_speed,global_wind_direction,relative_wind_direction,travel_dist,waiting_time
0,0.7607844471931458,0.7382651567459106,-0.02903810329735279,-1.1358174085617065,0.39774414896965027,4.4326300621032715,4.09765625,1,"['A1', 'B2', 'F2']",6.1,180,0,0.07078392384548836,[100|0|0]
100,0.7603322267532349,0.7380264401435852,-0.029143717139959335,-1.1294798851013184,0.4121065139770508,4.423267841339111,4.09765625,1,"['A1', 'B2', 'F2']",6.1,180,0,0.0713060763387785,[200|0|0]
200,0.7604042887687683,0.7381172180175781,-0.02901768870651722,-1.1362138986587524,0.4037471115589142,4.4194416999816895,4.09765625,1,"['A1', 'B2', 'F2']",6.1,180,0,0.07147729760651499,[300|0|0]
300,0.7605278491973877,0.7379781007766724,-0.02903648465871811,-1.1359020471572876,0.39443540573120117,4.429739952087402,4.09765625,1,"['A1', 'B2', 'F2']",6.1,180,0,0.07166431117302013,[400|0|0]
400,0.7605554461479187,0.7383856177330017,-0.029466520994901657,-1.1444132328033447,0.3895163834095001,4.435407638549805,4.09765625,1,"['A1', 'B2', 'F2']",6.1,180,0,0.07225740721230274,[500|0|0]
500,0.7604087591171265,0.7385283708572388,-0.029423542320728302,-1.1460497379302979,0.3928094208240509,4.4373297691345215,4.09765625,1,"['A1', 'B2', 'F2']",6.1,180,0,0.07246655478201318,[600|0|0]
600,0.7607452273368835,0.7383308410644531,-0.029207361862063408,-1.1427704095840454,0.38624265789985657,4.438579559326172,4.1015625,1,"['A1', 'B2', 'F2']",6.1,180,0,0.07291260732673521,[700|0|0]
700,0.7606344819068909,0.738258421421051,-0.029170887544751167,-1.1417104005813599,0.38956528902053833,4.433537006378174,4.09765625,1,"['A1', 'B2', 'F2']",6.1,180,0,0.07304986449717867,[800|0|0]
800,0.760800302028656,0.7382029294967651,-0.029214324429631233,-1.1377185583114624,0.3916894495487213,4.455938816070557,4.1015625,1,"['A1', 'B2', 'F2']",6.1,180,0,0.07323003782875478,[900|0|0]
900,0.7606855630874634,0.7381422519683838,-0.02928774058818817,-1.142162561416626,0.39859503507614136,4.43373441696167,4.09765625,1,"['A1', 'B2', 'F2']",6.1,180,0,0.07337915764438548,[1000|0|0]
1000,0.7607104778289795,0.7382854223251343,-0.02954322285950184,-1.146666407585144,0.3958444893360138,4.439332962036133,4.09765625,1,"['A1', 'B2', 'F2']",6.1,180,0,0.07367307886912515,[1100|0|0]
1100,0.760982096195221,0.7383097410202026,-0.02923925407230854,-1.1437770128250122,0.38823971152305603,4.453506946563721,4.09765625,1,"['A1', 'B2', 'F2']",6.1,180,0,0.0740814475253627,[1200|0|0]
1200,0.7606479525566101,0.738061249256134,-0.029216328635811806,-1.135959506034851,0.3986162543296814,4.4482808113098145,4.09765625,1,"['A1', 'B2', 'F2']",6.1,180,0,0.07449849153224038,[1300|0|0]
1300,0.7607682943344116,0.7383779287338257,-0.029621552675962448,-1.1409400701522827,0.40039247274398804,4.450512886047363,4.09765625,1,"['A1', 'B2', 'F2']",6.1,180,0,0.07502667195386872,[1400|0|0]
1400,0.7604869604110718,0.7383873462677002,-0.02915406972169876,-1.1404917240142822,0.406366765499115,4.455202579498291,4.09765625,1,"['A1', 'B2', 'F2']",6.1,180,0,0.07557236213968223,[1500|0|0]
1500,0.7607677578926086,0.7381877303123474,-0.029273631051182747,-1.1295735836029053,0.40208810567855835,4.447677135467529,4.09765625,1,"['A1', 'B2', 'F2']",6.1,180,0,0.0759370382518377,[1600|0|0]
1600,0.7608100175857544,0.7378658056259155,-0.029366033151745796,-1.120017409324646,0.3992573916912079,4.455678939819336,4.09765625,1,"['A1', 'B2', 'F2']",6.1,180,0,0.07627461718125644,[1700|0|0]
1700,0.7608985900878906,0.7381136417388916,-0.02924541011452675,-1.1340034008026123,0.4014650285243988,4.445696830749512,4.09765625,1,"['A1', 'B2', 'F2']",6.1,180,0,0.07656413012421014,[1800|0|0]
1800,0.7606843709945679,0.7383009791374207,-0.02929054945707321,-1.140262246131897,0.4124508798122406,4.457282066345215,4.09765625,1,"['A1', 'B2', 'F2']",6.1,180,0,0.07685226669092318,[1900|0|0]
1900,0.760761559009552,0.7381777763366699,-0.02928304858505726,-1.131547212600708,0.4140704274177551,4.467955589294434,4.09765625,1,"['A1', 'B2', 'F2']",6.1,180,0,0.07699784547664079,[2000|0|0]
2000,0.7604579329490662,0.7382881045341492,-0.029261844232678413,-1.1352155208587646,0.4207845628261566,4.464489936828613,4.09765625,1,"['A1', 'B2', 'F2']",6.1,180,0,0.07732159031493938,[2100|0|0]
2100,0.7606627345085144,0.7379338145256042,-0.02929186448454857,-1.1227411031723022,0.4159570336341858,4.450789451599121,4.09765625,1,"['A1', 'B2', 'F2']",6.1,180,0,0.0777319149479186,[2200|0|0]
2200,0.763145387172699,0.7405675053596497,-0.029104720801115036,-0.5182536244392395,-1.9048997163772583,3.8914060592651367,4.09765625,1,"['A1', 'B2', 'F2']",6.1,180,0,0.08135612719592045,[2300|0|0]
2300,0.7687400579452515,0.7383776903152466,-0.03271331265568733,0.7263911366462708,0.7992814183235168,4.527047634124756,4.09765625,1,"['A1', 'B2', 'F2']",6.1,180,0,0.08836451974734283,[2400|0|0]
2400,0.763599157333374,0.7379217147827148,-0.03150661662220955,1.161716341972351,3.802680253982544,4.438534259796143,4.09765625,1,"['A1', 'B2', 'F2']",6.1,180,0,0.09366479220304551,[2500|0|0]
2500,0.7605401873588562,0.738226056098938,-0.029735585674643517,0.9800894856452942,4.359396934509277,4.2545318603515625,4.09765625,1,"['A1', 'B2', 'F2']",6.1,180,0,0.09721253395788035,[2600|0|0]
2600,0.7597410082817078,0.7385289669036865,-0.029470304027199745,0.6792296767234802,3.9736406803131104,4.137035369873047,4.09765625,1,"['A1', 'B2', 'F2']",6.1,180,0,0.098107417472901,[2700|0|0]
2700,0.759579598903656,0.7384184002876282,-0.029268620535731316,0.38516709208488464,3.41940975189209,4.0865325927734375,4.09765625,1,"['A1', 'B2', 'F2']",6.1,180,0,0.09838840536345955,[2800|0|0]
2800,0.7591401934623718,0.7383288145065308,-0.02928205393254757,0.12168094515800476,2.9529995918273926,4.076395511627197,4.09765625,1,"['A1', 'B2', 'F2']",6.1,180,0,0.09883705133764745,[2900|0|0]
2900,0.7592305541038513,0.7385313510894775,-0.02895866334438324,-0.10177214443683624,2.519261121749878,4.072082042694092,4.09765625,1,"['A1', 'B2', 'F2']",6.1,180,0,0.09922918343971716,[3000|0|0]
3000,0.7592125535011292,0.7383921146392822,-0.028786398470401764,-0.27530330419540405,2.156977653503418,4.077997207641602,4.09765625,1,"['A1', 'B2', 'F2']",6.1,180,0,0.09945141304523633,[3100|0|0]
3100,0.7593017220497131,0.7376571297645569,-0.029234856367111206,-0.3930598199367523,1.8419982194900513,4.105809211730957,4.09765625,1,"['A1', 'B2', 'F2']",6.1,180,0,0.10031701588791457,[3200|0|0]
3200,0.7589616179466248,0.7377873659133911,-0.028826145455241203,-0.5129970908164978,1.6220054626464844,4.107076168060303,4.09765625,1,"['A1', 'B2', 'F2']",6.1,180,0,0.10086444338528965,[3300|0|0]
3300,0.7592159509658813,0.7378882169723511,-0.029288245365023613,-0.6306952834129333,1.3868980407714844,4.144340991973877,4.09765625,1,"['A1', 'B2', 'F2']",6.1,180,0,0.10140146530979406,[3400|0|0]
3400,0.7593960762023926,0.7379904985427856,-0.029027795419096947,-0.7350426912307739,1.1978650093078613,4.195362567901611,4.09765625,1,"['A1', 'B2', 'F2']",6.1,180,0,0.10173424270507804,[3500|0|0]
3500,0.7597213387489319,0.7376540899276733,-0.029253900051116943,-0.8011915683746338,1.0432188510894775,4.250725269317627,4.09765625,1,"['A1', 'B2', 'F2']",6.1,180,0,0.1022539443359432,[3600|0|0]
3600,0.7592796087265015,0.738000750541687,-0.029551664367318153,-0.8732841610908508,0.9356515407562256,4.287578582763672,4.09765625,1,"['A1', 'B2', 'F2']",6.1,180,0,0.1028895248438472,[3700|0|0]
3700,0.7601554989814758,0.738420844078064,-0.02909128926694393,-0.9362190961837769,0.8087576627731323,4.331722736358643,4.09765625,1,"['A1', 'B2', 'F2']",6.1,180,0,0.10396451672805346,[3800|0|0]
3800,0.7600876092910767,0.7383853197097778,-0.02952725440263748,-0.981900691986084,0.7198602557182312,4.336441516876221,4.09765625,1,"['A1', 'B2', 'F2']",6.1,180,0,0.10440716398077837,[3900|0|0]
3900,0.76038658618927,0.7381704449653625,-0.02912135235965252,-1.014222502708435,0.6375706791877747,4.3432416915893555,4.09765625,1,"['A1', 'B2', 'F2']",6.1,180,0,0.10495517384377376,[4000|0|0]
4000,0.7603533267974854,0.7382875680923462,-0.02957896515727043,-1.0525610446929932,0.5922034382820129,4.379485607147217,4.09765625,1,"['A1', 'B2', 'F2']",6.1,180,0,0.1054287068273768,[4100|0|0]
4100,0.7603241801261902,0.7382554411888123,-0.029192442074418068,-1.0844653844833374,0.5541326999664307,4.405428409576416,4.09765625,1,"['A1', 'B2', 'F2']",6.1,180,0,0.10581765638703199,[4200|0|0]
4200,0.7600781917572021,0.7380909323692322,-0.029114512726664543,-1.1006791591644287,0.5178402662277222,4.407649517059326,4.09765625,1,"['A1', 'B2', 'F2']",6.1,180,0,0.1061236734006739,[4300|0|0]
4300,0.7602982521057129,0.7383375763893127,-0.029248127713799477,-1.1208562850952148,0.4824635088443756,4.396964073181152,4.09765625,1,"['A1', 'B2', 'F2']",6.1,180,0,0.10648020221355617,[4400|0|0]
4400,0.760819137096405,0.7384511828422546,-0.028889210894703865,-1.1320992708206177,0.4452866017818451,4.408286094665527,4.09765625,1,"['A1', 'B2', 'F2']",6.1,180,0,0.10712289100504713,[4500|0|0]
4500,0.7606039643287659,0.7384388446807861,-0.029145680367946625,-1.1423817873001099,0.4322955012321472,4.418111324310303,4.09765625,1,"['A1', 'B2', 'F2']",6.1,180,0,0.10745789569287603,[4600|0|0]
4600,0.7602570652961731,0.7381654381752014,-0.029410962015390396,-1.1401833295822144,0.4364999830722809,4.429510593414307,4.09765625,1,"['A1', 'B2', 'F2']",6.1,180,0,0.10797312807596189,[4700|0|0]
4700,0.7609232068061829,0.7382965683937073,-0.02935243584215641,-1.1442487239837646,0.4055694043636322,4.419589996337891,4.09765625,1,"['A1', 'B2', 'F2']",6.1,180,0,0.10865457136671829,[4800|0|0]
4800,0.7604483962059021,0.7381756901741028,-0.029339352622628212,-1.146233320236206,0.41216328740119934,4.449240684509277,4.09765625,1,"['A1', 'B2', 'F2']",6.1,180,0,0.10914470177869753,[4900|0|0]
4900,0.7606757879257202,0.7383213043212891,-0.028956498950719833,-1.1503946781158447,0.40528935194015503,4.4241790771484375,4.09765625,1,"['A1', 'B2', 'F2']",6.1,180,0,0.10961319661132256,[5000|0|0]
5000,0.7605251669883728,0.7383631467819214,-0.029096504673361778,-1.1527878046035767,0.4112410545349121,4.431223392486572,4.09765625,1,"['A1', 'B2', 'F2']",6.1,180,0,0.10982305146747717,[5100|0|0]
5100,0.7601669430732727,0.7381817102432251,-0.029268894344568253,-1.1470264196395874,0.4161285161972046,4.436196327209473,4.09765625,1,"['A1', 'B2', 'F2']",6.1,180,0,0.11026004321758512,[5200|0|0]
5200,0.7606691122055054,0.7382181286811829,-0.029364731162786484,-1.1434911489486694,0.3987446427345276,4.438815116882324,4.09765625,1,"['A1', 'B2', 'F2']",6.1,180,0,0.11077257110533055,[5300|0|0]
5300,0.7607671618461609,0.7385196685791016,-0.029631992802023888,-1.1526471376419067,0.40018823742866516,4.427372455596924,4.09765625,1,"['A1', 'B2', 'F2']",6.1,180,0,0.11118726234695178,[5400|0|0]
5400,0.7604926228523254,0.7381635308265686,-0.029122818261384964,-1.139827847480774,0.40015557408332825,4.450100421905518,4.09765625,1,"['A1', 'B2', 'F2']",6.1,180,0,0.11186657410951023,[5500|0|0]
5500,0.7608200907707214,0.7382427453994751,-0.029384978115558624,-1.1372684240341187,0.3922511339187622,4.456614971160889,4.09765625,1,"['A1', 'B2', 'F2']",6.1,180,0,0.11229346750988053,[5600|0|0]
5600,0.7607797980308533,0.7381322979927063,-0.029317637905478477,-1.1431084871292114,0.39706575870513916,4.4488205909729,4.09765625,1,"['A1', 'B2', 'F2']",6.1,180,0,0.11242895492051959,[5700|0|0]
5700,0.7605855464935303,0.7379964590072632,-0.02925269305706024,-1.1426106691360474,0.4051399827003479,4.467162132263184,4.09765625,1,"['A1', 'B2', 'F2']",6.1,180,0,0.11267472660939898,[5800|0|0]
5800,0.7606936693191528,0.7382189631462097,-0.02966783381998539,-1.1491097211837769,0.40674665570259094,4.4554219245910645,4.09765625,1,"['A1', 'B2', 'F2']",6.1,180,0,0.11315798688121016,[5900|0|0]
5900,0.760269284248352,0.738457977771759,-0.029279056936502457,-1.1547889709472656,0.41524139046669006,4.454646110534668,4.09765625,1,"['A1', 'B2', 'F2']",6.1,180,0,0.11378118680473051,[6000|0|0]
6000,0.760648787021637,0.7384898066520691,-0.02929845079779625,-1.1505666971206665,0.41226863861083984,4.442868232727051,4.09765625,1,"['A1', 'B2', 'F2']",6.1,180,0,0.11416251547452681,[6100|0|0]
6100,0.760665237903595,0.7386389970779419,-0.029293153434991837,-1.1562217473983765,0.40474647283554077,4.456049919128418,4.09765625,1,"['A1', 'B2', 'F2']",6.1,180,0,0.1143127036123473,[6200|0|0]
6200,0.7608455419540405,0.738434910774231,-0.029478339478373528,-1.1533936262130737,0.3924705386161804,4.493215560913086,4.09765625,1,"['A1', 'B2', 'F2']",6.1,180,0,0.11464202813410787,[6300|0|0]
6300,0.7605645060539246,0.7382217049598694,-0.02945570833981037,-1.1483056545257568,0.4036215543746948,4.504422187805176,4.09765625,1,"['A1', 'B2', 'F2']",6.1,180,0,0.11499551089870076,[6400|0|0]
6400,0.7607316970825195,0.7383524179458618,-0.029273666441440582,-1.1517341136932373,0.4037829041481018,4.541733741760254,3.283203125,1,"['A/E1', 'B2', 'C1']",6.1,180,0,0.11527511414888177,[6400|0|0]
6500,0.7600266337394714,0.7398714423179626,-0.02789027988910675,-2.26780104637146,0.9439501166343689,5.643896102905273,3.53125,1,"['A/E1', 'B2', 'C1']",6.1,180,0,0.11744728074330416,[6400|0|0]
6600,0.7528849840164185,0.7485166788101196,-0.00684129586443305,-7.243498802185059,11.734017372131348,9.321134567260742,3.720703125,1,"['A/E1', 'B2', 'C1']",6.1,180,0,0.1412968720027592,[6400|0|0]
6700,0.7218537330627441,0.7664919495582581,0.03134644031524658,-5.461846351623535,15.51085376739502,11.386445999145508,3.716796875,1,"['A/E1', 'B2', 'C1']",6.1,180,0,0.19368343601250892,[6400|0|0]
6800,0.6703025102615356,0.78836590051651,0.07589096575975418,2.377631187438965,-1.666912317276001,9.486188888549805,3.658203125,1,"['A/E1', 'B2', 'C1']",6.1,180,0,0.2652391000084515,[6400|0|0]
6900,0.6238470673561096,0.8043552041053772,0.13449715077877045,8.399918556213379,-12.140822410583496,7.511781215667725,3.68359375,1,"['A/E1', 'B2', 'C1']",6.1,180,0,0.3417142654367095,[6400|0|0]
7000,0.6031160950660706,0.809553325176239,0.2063697725534439,7.951902389526367,-14.933199882507324,4.186841011047363,3.701171875,1,"['A/E1', 'B2', 'C1']",6.1,180,0,0.41669737977269167,[6400|0|0]
7100,0.6097667813301086,0.8043215274810791,0.2864148020744324,4.535832405090332,-11.57206916809082,1.3359578847885132,3.705078125,1,"['A/E1', 'B2', 'C1']",6.1,180,0,0.49718843571011656,[6400|0|0]
7200,0.6364873051643372,0.792010486125946,0.37278395891189575,2.581820487976074,-6.087799549102783,-0.4414729177951813,3.716796875,1,"['A/E1', 'B2', 'C1']",6.1,180,0,0.5884308566887256,[6400|0|0]
7300,0.671534538269043,0.7771791815757751,0.46432119607925415,0.17867834866046906,-0.032571226358413696,-0.8367419242858887,3.720703125,1,"['A/E1', 'B2', 'C1']",6.1,180,0,0.6875638074729564,[6400|0|0]
7400,0.7046116590499878,0.7614744901657104,0.5579431653022766,-1.4564367532730103,4.13876485824585,-0.5351540446281433,3.720703125,1,"['A/E1', 'B2', 'C1']",6.1,180,0,0.7880914473171263,[6400|0|0]
7500,0.7293463349342346,0.7484251856803894,0.651986300945282,-2.5355331897735596,6.313745498657227,-0.05966310575604439,3.716796875,1,"['A/E1', 'B2', 'C1']",6.1,180,0,0.8862046467360529,[6400|0|0]
7600,0.7412409782409668,0.7393912672996521,0.7448258996009827,-3.089437961578369,6.496529579162598,0.08690757304430008,3.705078125,1,"['A/E1', 'B2', 'C1']",6.1,180,0,0.9802380732356535,[6400|0|0]
7700,0.7430686354637146,0.7350104451179504,0.837074339389801,-2.5626752376556396,4.930957317352295,-1.1298208236694336,3.705078125,1,"['A/E1', 'B2', 'C1']",6.1,180,0,1.0726085586592065,[6400|0|0]
7800,0.7356916069984436,0.7349721789360046,0.9311405420303345,-1.8357077836990356,2.928297758102417,-0.613118588924408,3.7421875,1,"['A/E1', 'B2', 'C1']",6.1,180,0,1.1669635929313003,[6400|0|0]
7900,0.7233266830444336,0.7382112145423889,1.0233861207962036,-1.2344043254852295,0.5690621137619019,-0.7043954133987427,3.7734375,1,"['A/E1', 'B2', 'C1']",6.1,180,0,1.260090546590797,[6400|0|0]
8000,0.7107658386230469,0.7438901662826538,1.1049129962921143,-0.41958776116371155,-1.4945132732391357,-0.7046178579330444,3.7734375,1,"['A/E1', 'B2', 'C1']",6.1,180,0,1.3427746244629741,[6400|0|0]
8100,0.6993431448936462,0.7509812712669373,1.1714552640914917,-0.09951223433017731,-2.4092562198638916,-0.05176592245697975,3.76953125,1,"['A/E1', 'B2', 'C1']",6.1,180,0,1.4106615532918576,[6400|0|0]
8200,0.6911570429801941,0.7594102025032043,1.2212061882019043,-0.06422782689332962,-2.134903907775879,0.6594657301902771,3.748046875,1,"['A/E1', 'B2', 'C1']",6.1,180,0,1.4617811541917392,[6400|0|0]
8300,0.6857356429100037,0.7684902548789978,1.256149411201477,0.3006468415260315,-2.1418230533599854,0.6267993450164795,3.736328125,1,"['A/E1', 'B2', 'C1']",6.1,180,0,1.4982896157241852,[6400|0|0]
8400,0.6835532188415527,0.7786244750022888,1.280930519104004,0.5515521764755249,-0.8653654456138611,0.7434185147285461,3.732421875,1,"['A/E1', 'B2', 'C1']",6.1,180,0,1.5251516465706896,[6400|0|0]
8500,0.6831893920898438,0.7877969145774841,1.2996103763580322,1.0809860229492188,-0.5689088702201843,0.9193743467330933,3.732421875,1,"['A/E1', 'B2', 'C1']",6.1,180,0,1.5459651778591745,[6400|0|0]
8600,0.6829504370689392,0.7961610555648804,1.3134105205535889,1.354109287261963,0.33616361021995544,0.8577721118927002,3.7265625,1,"['A/E1', 'B2', 'C1']",6.1,180,0,1.5621039489950823,[6400|0|0]
8700,0.6827152967453003,0.8030687570571899,1.321958065032959,1.2834268808364868,0.6602761745452881,0.32046836614608765,3.7265625,1,"['A/E1', 'B2', 'C1']",6.1,180,0,1.5730963166884169,[6400|0|0]
8800,0.682159423828125,0.8082701563835144,1.326391339302063,1.916340947151184,0.0512244775891304,-0.04523404315114021,3.720703125,1,"['A/E1', 'B2', 'C1']",6.1,180,0,1.5799532453300928,[6400|0|0]
8900,0.6800025701522827,0.8116576075553894,1.3269070386886597,1.7718061208724976,0.4759501814842224,-0.4921835660934448,3.7109375,1,"['A/E1', 'B2', 'C1']",6.1,180,0,1.584002046273356,[6400|0|0]
9000,0.6778408885002136,0.8123000860214233,1.3249127864837646,1.2421761751174927,0.13274431228637695,-1.1114431619644165,3.7109375,1,"['A/E1', 'B2', 'C1']",6.1,180,0,1.5870124761431483,[6400|0|0]
9100,0.6750823259353638,0.8105099201202393,1.3211160898208618,0.9968274235725403,-0.530953049659729,-1.7749202251434326,3.7109375,1,"['A/E1', 'B2', 'C1']",6.1,180,0,1.592035350512277,[6400|0|0]
9200,0.6729325652122498,0.8081616163253784,1.316250205039978,0.6456552147865295,-0.26832133531570435,-2.348484992980957,3.701171875,1,"['A/E1', 'B2', 'C1']",6.1,180,0,1.5978502311284581,[6400|0|0]
9300,0.671751856803894,0.8048651814460754,1.309958815574646,0.28828081488609314,-0.44960516691207886,-2.8342573642730713,3.6953125,1,"['A/E1', 'B2', 'C1']",6.1,180,0,1.6050503795063416,[6400|0|0]
9400,0.6747708916664124,0.808696448802948,1.3147594928741455,0.720090389251709,-1.3803356885910034,-2.9550061225891113,3.6953125,1,"['A/E1', 'B2', 'C1']",6.1,180,205.11483488614456,1.6118943318436147,[6400|0|0]
9500,0.6834506988525391,0.7995315790176392,1.3089795112609863,9.27486801147461,-13.39550495147705,-2.6038169860839844,3.701171875,1,"['A/E1', 'B2', 'C1']",6.1,180,205.11483488614456,1.6257774899288078,[6400|0|0]
9600,0.7114966511726379,0.772382378578186,1.302788496017456,8.56828498840332,-15.57961654663086,-2.813688278198242,3.6953125,1,"['A/E1', 'B2', 'C1']",6.1,180,205.11483488614456,1.665299423026627,[6400|0|0]
9700,0.7631968855857849,0.7284982204437256,1.2947585582733154,6.317671298980713,-15.718181610107422,-2.741077184677124,3.68359375,1,"['A/E1', 'B2', 'C1']",6.1,180,205.11483488614456,1.7335871486712804,[6400|0|0]
9800,0.8364917635917664,0.6750792860984802,1.2878215312957764,2.5341544151306152,-11.867130279541016,-2.2027037143707275,3.689453125,1,"['A/E1', 'B2', 'C1']",6.1,180,205.11483488614456,1.8245478216667044,[6400|0|0]
9900,0.9251540303230286,0.621118426322937,1.2826974391937256,-1.8598164319992065,-5.30992317199707,-1.2492660284042358,3.701171875,1,"['A/E1', 'B2', 'C1']",6.1,180,205.11483488614456,1.9284661946789472,[6400|0|0]
10000,0.9979462027549744,0.6084772944450378,1.2602914571762085,-3.6006219387054443,0.11199295520782471,-0.44036296010017395,3.673828125,1,"['A/E1', 'B2', 'C1']",6.1,180,205.11483488614456,2.0056706415242287,[6400|0|0]
10100,1.0880012512207031,0.5731474757194519,1.2578638792037964,-4.080875396728516,4.895782470703125,0.16150982677936554,3.68359375,1,"['A/E1', 'B2', 'C1']",6.1,180,205.11483488614456,2.1024384098159468,[6400|0|0]
10200,1.1683485507965088,0.5450343489646912,1.2587735652923584,-3.861210823059082,7.928636074066162,0.43580034375190735,3.6953125,1,"['A/E1', 'B2', 'C1']",6.1,180,205.11483488614456,2.1875669242739897,[6400|0|0]
10300,1.2339879274368286,0.5241796970367432,1.261017084121704,-3.7917706966400146,9.402933120727539,0.5719819664955139,3.6953125,1,"['A/E1', 'B2', 'C1']",6.1,180,205.11483488614456,2.256476122858092,[6400|0|0]
10400,1.282821536064148,0.5094603896141052,1.2617164850234985,-3.313619375228882,9.327449798583984,0.17370732128620148,3.689453125,1,"['A/E1', 'B2', 'C1']",6.1,180,205.11483488614456,2.3074846368943756,[6400|0|0]
10501,1.3168460130691528,0.4996199309825897,1.2603682279586792,-2.442669153213501,8.164219856262207,-0.2538779079914093,3.689453125,1,"['A/E1', 'B2', 'C1']",6.1,180,205.11483488614456,2.3429292057118336,[6400|0|0]
10601,1.337462306022644,0.49299660325050354,1.2576791048049927,-1.6277930736541748,6.415613174438477,-0.6041630506515503,3.689453125,1,"['A/E1', 'B2', 'C1']",6.1,180,205.11483488614456,2.3647496408295505,[6400|0|0]
10701,1.3485139608383179,0.48921555280685425,1.2550746202468872,-1.0983104705810547,4.5145583152771,-0.6127768158912659,3.68359375,1,"['A/E1', 'B2', 'C1']",6.1,180,205.11483488614456,2.3767170447433337,[6400|0|0]
10801,1.352721095085144,0.4866667091846466,1.2519699335098267,-0.42540332674980164,2.8388864994049072,-0.5013328790664673,3.689453125,1,"['A/E1', 'B2', 'C1']",6.1,180,205.11483488614456,2.3825338877115225,[6400|0|0]
10901,1.3535526990890503,0.4844699501991272,1.2500684261322021,-0.2399243414402008,1.3839101791381836,-0.5994592308998108,3.68359375,1,"['A/E1', 'B2', 'C1']",6.1,180,205.11483488614456,2.38555598062322,[6400|0|0]
11001,1.3529611825942993,0.4824511408805847,1.2491239309310913,-0.07251712679862976,0.7442604899406433,-0.510155200958252,3.689453125,1,"['A/E1', 'B2', 'C1']",6.1,180,205.11483488614456,2.3878619628462907,[6400|0|0]
11101,1.3520768880844116,0.4809153974056244,1.248416781425476,-0.1886347234249115,0.2963294982910156,-0.3570879399776459,3.689453125,1,"['A/E1', 'B2', 'C1']",6.1,180,205.11483488614456,2.38976998413139,[6400|0|0]
11201,1.351434350013733,0.4784913957118988,1.246901512145996,-0.4139319956302643,0.21159319579601288,-0.37915337085723877,3.68359375,1,"['A/E1', 'B2', 'C1']",6.1,180,205.11483488614456,2.3926999466521046,[6400|0|0]
11300,1.3507546186447144,0.47851651906967163,1.2441602945327759,-0.5241751074790955,0.3318144977092743,-0.5575324892997742,3.68359375,1,"['A/E1', 'B2', 'C1']",6.1,180,205.11483488614456,2.3955242943502753,[6400|0|0]
11401,1.3502461910247803,0.47693106532096863,1.240657925605774,-0.7176050543785095,0.5644077658653259,-0.31101489067077637,3.68359375,1,"['A/E1', 'B2', 'C1']",6.1,180,205.11483488614456,2.399402277116459,[6400|0|0]
11500,1.3496932983398438,0.47707176208496094,1.2373449802398682,-0.6767588257789612,0.6125615835189819,0.15459461510181427,3.68359375,1,"['A/E1', 'B2', 'C1']",6.1,180,205.11483488614456,2.402763986934086,[6400|0|0]
11600,1.3482409715652466,0.47806239128112793,1.2336407899856567,-0.5341240763664246,0.5664922595024109,0.3881266117095947,3.6796875,1,"['A/E1', 'B2', 'C1']",6.1,180,205.11483488614456,2.4068641850639216,[6400|0|0]
11700,1.3461331129074097,0.479701429605484,1.2309178113937378,-0.3654133677482605,0.5333281755447388,0.4283038079738617,3.6796875,1,"['A/E1', 'B2', 'C1']",6.1,180,205.11483488614456,2.4106778613955178,[6400|0|0]
11800,1.3431897163391113,0.48252353072166443,1.2278879880905151,-0.014001674018800259,0.46490800380706787,0.3155706822872162,3.673828125,1,"['A/E1', 'B2', 'C1']",6.1,180,205.11483488614456,2.4157579861299086,[6400|0|0]
11900,1.3398536443710327,0.48435261845588684,1.2259975671768188,0.12807953357696533,0.2950124442577362,0.10704027861356735,3.6796875,1,"['A/E1', 'B2', 'C1']",6.1,180,205.11483488614456,2.4200063539749315,[6400|0|0]
12000,1.3367700576782227,0.4863436222076416,1.223571538925171,0.18113017082214355,-0.22267229855060577,-0.18908315896987915,3.6796875,1,"['A/E1', 'B2', 'C1']",6.1,180,205.11483488614456,2.424406151232689,[6400|0|0]
12102,1.333721399307251,0.487834095954895,1.2216238975524902,0.29242900013923645,-0.09606228023767471,-0.5434022545814514,3.673828125,1,"['A/E1', 'B2', 'C1']",6.1,180,205.11483488614456,2.428318840432041,[6400|0|0]
12202,1.3306516408920288,0.4884207248687744,1.219396710395813,0.21402421593666077,-0.04371223598718643,-0.8499710559844971,3.673828125,1,"['A/E1', 'B2', 'C1']",6.1,180,205.11483488614456,2.4321565367255604,[6400|0|0]
12300,1.3281804323196411,0.48885026574134827,1.2165166139602661,0.0910300686955452,-0.22711698710918427,-0.9335934519767761,3.6796875,1,"['A/E1', 'B2', 'C1']",6.1,180,205.11483488614456,2.435975742486907,[6400|0|0]
12400,1.3259068727493286,0.4893622100353241,1.2133393287658691,0.007338573224842548,-0.29654017090797424,-1.174010157585144,3.900390625,1,"['A/E1', 'B2', 'C1']",6.1,180,0,2.4399160852748416,[6400|0|0]
12500,1.3245569467544556,0.48949378728866577,1.192774772644043,0.8292603492736816,-2.096730947494507,-1.5384111404418945,3.86328125,1,"['A/E1', 'B2', 'C1']",6.1,180,0,2.4605253206137125,[6400|0|0]
12600,1.3231910467147827,0.4898827373981476,1.1329323053359985,-0.2331695705652237,-0.2739812135696411,-1.9144827127456665,3.78515625,1,"['A/E1', 'B2', 'C1']",6.1,180,0,2.5203846378385224,[6400|0|0]
12700,1.3214778900146484,0.4900272488594055,1.037202000617981,-0.3434435725212097,0.28985339403152466,-1.4565757513046265,3.701171875,1,"['A/E1', 'B2', 'C1']",6.1,180,0,2.616130379419264,[6400|0|0]
12800,1.3184072971343994,0.49038955569267273,0.9191191792488098,-0.266977459192276,0.8114384412765503,-0.8069554567337036,3.66796875,1,"['A/E1', 'B2', 'C1']",6.1,180,0,2.734253673097443,[6400|0|0]
12900,1.3149142265319824,0.49013301730155945,0.7925285696983337,-0.3083575367927551,0.255373477935791,-0.4434618055820465,3.6640625,1,"['A/E1', 'B2', 'C1']",6.1,180,0,2.860892726238805,[6400|0|0]
13000,1.3119159936904907,0.4895142614841461,0.6643955111503601,1.189357042312622,-0.5189383029937744,-0.30263152718544006,3.673828125,1,"['A/E1', 'B2', 'C1']",6.1,180,0,2.989062351937688,[6400|0|0]
13100,1.3108066320419312,0.48852407932281494,0.5384012460708618,-1.4311940670013428,-1.5378857851028442,-1.5361144542694092,3.6640625,1,"['A/E1', 'B2', 'C1']",6.1,180,0,3.11506539149191,[6400|0|0]
13200,1.31151282787323,0.4943404495716095,0.4145711362361908,-4.857619285583496,2.3150949478149414,0.2636411190032959,3.65234375,1,"['A/E1', 'B2', 'C1']",6.1,180,0,3.2390340366288553,[6400|0|0]
13300,1.3116110563278198,0.5145761966705322,0.29079797863960266,-4.316508769989014,-2.493999481201172,4.68376350402832,3.599609375,1,"['A/E1', 'B2', 'C1']",6.1,180,0,3.3644505014606736,[6400|0|0]
13400,1.3138073682785034,0.5454386472702026,0.17545185983181,-1.4093575477600098,5.840911388397217,14.203661918640137,3.65234375,1,"['A/E1', 'B2', 'C1']",6.1,180,0,3.4838742920855874,[6400|0|0]
13500,1.3047947883605957,0.5838976502418518,0.06922498345375061,-14.305371284484863,22.70084571838379,24.07634162902832,3.63671875,1,"['A/E1', 'B2', 'C1']",6.1,180,0,3.597207741567148,[6400|0|0]
13600,1.256688117980957,0.6201304793357849,-0.010681768879294395,22.811763763427734,-2.418064594268799,26.520137786865234,3.599609375,1,"['A/E1', 'B2', 'C1']",6.1,180,0,3.6972685166370023,[6400|0|0]
13700,1.2440855503082275,0.6277607679367065,0.024185599759221077,-4.247345924377441,-13.772563934326172,29.435306549072266,3.7265625,1,"['A/E1', 'B2', 'C1']",6.1,180,0,3.7351205893920474,[6400|0|0]
13800,1.239315152168274,0.6423069834709167,0.051122840493917465,-1.0743775367736816,-0.23617197573184967,26.651586532592773,3.689453125,1,"['A/E1', 'B2', 'C1']",6.1,180,0,3.7661038755828367,[6400|0|0]
13900,1.2367180585861206,0.6522113084793091,0.062037404626607895,19.3604793548584,-9.829686164855957,20.69458770751953,3.66796875,1,"['A/E1', 'B2', 'C1']",6.1,180,0,3.78106944470509,[6400|0|0]
14000,1.2458205223083496,0.6410983800888062,0.061111465096473694,15.226249694824219,-4.145163059234619,12.445366859436035,3.6484375,1,"['A/E1', 'B2', 'C1']",6.1,180,0,3.7954642141454253,[6400|0|0]
14100,1.2624191045761108,0.6072467565536499,0.05485662817955017,10.743693351745605,-3.274113893508911,6.81748104095459,3.615234375,1,"['A/E1', 'B2', 'C1']",6.1,180,0,3.833681596762801,[6400|0|0]
14200,1.2818278074264526,0.5535167455673218,0.05016551911830902,7.124234199523926,-1.7776033878326416,2.9860846996307373,3.626953125,1,"['A/E1', 'B2', 'C1']",6.1,180,0,3.891001910187871,[6400|0|0]
14300,1.2992422580718994,0.4884337782859802,0.05215946584939957,-1.290895700454712,-0.4057042598724365,-2.0239901542663574,3.658203125,1,"['A/E1', 'B2', 'C1']",6.1,180,0,3.958403924586502,[6400|0|0]
14400,1.312074065208435,0.4245204031467438,0.06200854107737541,-5.187707424163818,2.627401828765869,-4.987401962280273,3.673828125,1,"['A/E1', 'B2', 'C1']",6.1,180,0,4.024332515341381,[6400|0|0]
14500,1.318459391593933,0.3699777126312256,0.0709056630730629,-9.406370162963867,2.9890851974487305,-5.72421407699585,3.673828125,1,"['A/E1', 'B2', 'C1']",6.1,180,0,4.079963767902573,[6400|0|0]
14600,1.3177965879440308,0.33015957474708557,0.07646527141332626,-10.210010528564453,2.4073050022125244,-5.0386152267456055,3.66796875,1,"['A/E1', 'B2', 'C1']",6.1,180,0,4.12017362562597,[6400|0|0]
14700,1.3120498657226562,0.3058401346206665,0.0787663385272026,-10.412665367126465,1.973689079284668,-4.21333122253418,3.658203125,1,"['A/E1', 'B2', 'C1']",6.1,180,0,4.14526854332288,[6400|0|0]
14800,1.3023210763931274,0.2956145405769348,0.07636716961860657,-8.256701469421387,-0.49271029233932495,-3.29681396484375,3.658203125,1,"['A/E1', 'B2', 'C1']",6.1,180,0,4.159585251283075,[6400|0|0]
14900,1.2904263734817505,0.29737967252731323,0.07388687878847122,-7.070938587188721,-0.8712076544761658,-1.7624479532241821,3.658203125,1,"['A/E1', 'B2', 'C1']",6.1,180,0,4.1718633411489385,[6400|0|0]
15000,1.2795464992523193,0.30596545338630676,0.07083147764205933,-3.5924811363220215,-2.931678295135498,-2.0755741596221924,3.65234375,1,"['A/E1', 'B2', 'C1']",6.1,180,0,4.186055690227664,[6400|0|0]
15100,1.2718918323516846,0.3175606429576874,0.0688975378870964,-2.354721784591675,-4.002877712249756,-1.1628657579421997,3.658203125,1,"['A/E1', 'B2', 'C1']",6.1,180,0,4.2000836077328305,[6400|0|0]
15200,1.2701483964920044,0.3305419683456421,0.06840086728334427,0.9430974125862122,-5.278922080993652,-0.20123745501041412,3.658203125,1,"['A/E1', 'B2', 'C1']",6.1,180,0,4.213190898036833,[6400|0|0]
15300,1.2762259244918823,0.33917319774627686,0.06836054474115372,2.8691658973693848,-3.805886745452881,-0.4460675120353699,3.658203125,1,"['A/E1', 'B2', 'C1']",6.1,180,0,4.223747227581855,[6400|0|0]
15400,1.2895113229751587,0.341901570558548,0.06581561267375946,-1.9257538318634033,-1.1034127473831177,-1.00910222530365,3.6484375,1,"['F1', 'B2', 'B1']",6.1,180,0,4.237546593882154,[6400|100|0]
15500,1.3036788702011108,0.3460142910480499,0.06146502494812012,0.06932178884744644,-0.5912830233573914,-0.01713777333498001,3.6484375,1,"['F1', 'B2', 'B1']",6.1,180,0,4.252927149066634,[6400|200|0]
15600,1.3170353174209595,0.3526381254196167,0.05876162275671959,-5.265501499176025,2.953050374984741,-0.6807524561882019,3.658203125,1,"['F1', 'B2', 'B1']",6.1,180,0,4.268078988807306,[6400|300|0]
15700,1.3260698318481445,0.3643411695957184,0.05606749281287193,-0.5056973695755005,0.8843599557876587,-0.9874569177627563,3.63671875,1,"['F1', 'B2', 'B1']",6.1,180,0,4.283107030265764,[6400|400|0]
15800,1.3324618339538574,0.37868189811706543,0.05647021532058716,-1.239885687828064,1.7048550844192505,0.5268276333808899,3.658203125,1,"['F1', 'B2', 'B1']",6.1,180,0,4.298812964521982,[6400|500|0]
15900,1.3368468284606934,0.39133545756340027,0.05694040656089783,0.21408942341804504,-0.817746102809906,2.1766982078552246,3.6484375,1,"['F1', 'B2', 'B1']",6.1,180,0,4.312213032554995,[6400|600|0]
16000,1.341676115989685,0.4002503752708435,0.058488015085458755,1.6401082277297974,0.7255339026451111,2.020564556121826,3.658203125,1,"['F1', 'B2', 'B1']",6.1,180,0,4.322469389993845,[6400|700|0]
16100,1.3463507890701294,0.40731698274612427,0.06142287328839302,0.5943068861961365,-1.1994657516479492,0.2351626753807068,3.65234375,1,"['F1', 'B2', 'B1']",6.1,180,0,4.331436156539822,[6400|800|0]
16200,1.3508903980255127,0.41229259967803955,0.06492868810892105,1.0687057971954346,-0.7942889332771301,-2.178654670715332,3.65234375,1,"['F1', 'B2', 'B1']",6.1,180,0,4.339029281777614,[6400|900|0]
16300,1.3563663959503174,0.4159714877605438,0.0690477266907692,1.0365304946899414,-0.35382047295570374,-3.734510660171509,3.658203125,1,"['F1', 'B2', 'B1']",6.1,180,0,4.3468066367029605,[6400|1000|0]
16400,1.3618745803833008,0.4199170470237732,0.06948596984148026,1.5042181015014648,-0.46779733896255493,-3.9598052501678467,3.65234375,1,"['F1', 'B2', 'B1']",6.1,180,0,4.353596304640832,[6400|1100|0]
16500,1.3681541681289673,0.4218693971633911,0.06736685335636139,2.1200904846191406,-2.15673828125,-3.862459897994995,3.642578125,1,"['F1', 'B2', 'B1']",6.1,180,0,4.36050539633227,[6400|1200|0]
16600,1.3762410879135132,0.41999977827072144,0.06699594855308533,1.3878061771392822,0.75664222240448,-3.4380152225494385,3.65234375,1,"['F1', 'B2', 'B1']",6.1,180,0,4.3688139050299,[6400|1300|0]
16700,1.3830761909484863,0.41551798582077026,0.06705773621797562,1.9858477115631104,0.347839891910553,-3.022218704223633,3.6484375,1,"['F1', 'B2', 'B1']",6.1,180,0,4.376987577079761,[6400|1400|0]
16800,1.3874558210372925,0.40835171937942505,0.0673833042383194,0.995711088180542,-0.1846615970134735,-2.860649347305298,3.6484375,1,"['F1', 'B2', 'B1']",6.1,180,0,4.385392488082204,[6400|1500|0]
16900,1.3911041021347046,0.39714786410331726,0.06841397285461426,0.8542220592498779,-0.531156063079834,-2.258845567703247,3.65234375,1,"['F1', 'B2', 'B1']",6.1,180,0,4.397220362185792,[6400|1600|0]
17000,1.3938897848129272,0.38381683826446533,0.06930776685476303,0.7558989524841309,0.7508322596549988,-2.7478299140930176,3.65234375,1,"['F1', 'B2', 'B1']",6.1,180,0,4.410868627482693,[6400|1700|0]
17100,1.395851731300354,0.36964717507362366,0.06987655162811279,0.4715298116207123,-1.0923492908477783,-4.305597305297852,3.65234375,1,"['F1', 'B2', 'B1']",6.1,180,0,4.425184775885103,[6400|1800|0]
17200,1.3973541259765625,0.3546423017978668,0.07014404237270355,0.40523579716682434,-0.2188919633626938,-6.025852203369141,3.6484375,1,"['F1', 'B2', 'B1']",6.1,180,0,4.44026704902555,[6400|1900|0]
17300,1.398682951927185,0.33852577209472656,0.07061612606048584,0.43164196610450745,-1.5964105129241943,-7.077304363250732,3.86328125,1,"['F1', 'B2', 'B1']",6.1,180,0,4.456445156797707,[6400|2000|0]
17400,1.402801275253296,0.32059499621391296,0.05351678282022476,0.024874549359083176,-1.693050503730774,-7.297607421875,3.984375,1,"['F1', 'B2', 'B1']",6.1,180,0,4.4815621002812325,[6400|2100|0]
17500,1.4073808193206787,0.3015730381011963,-0.016638124361634254,-0.6433244347572327,0.6739944219589233,-6.874495506286621,3.984375,1,"['F1', 'B2', 'B1']",6.1,180,0,4.5543942231117684,[6400|2200|0]
17600,1.4113597869873047,0.2930493652820587,-0.007811342366039753,6.827856540679932,-6.015113830566406,-2.885847806930542,3.990234375,1,"['F1', 'B2', 'B1']",6.1,180,0,4.567293729397573,[6400|2300|0]
17700,1.408972144126892,0.2939051389694214,-0.013307864777743816,0.2534748613834381,0.29485249519348145,-3.264103889465332,3.990234375,1,"['F1', 'B2', 'B1']",6.1,180,0,4.573347236286578,[6400|2400|0]
17800,1.408725380897522,0.293025404214859,-0.011943545192480087,-0.6644706130027771,1.462418556213379,-2.39509654045105,3.99609375,1,"['F1', 'B2', 'B1']",6.1,180,0,4.574989245196568,[6400|2500|0]
17900,1.409074306488037,0.2923099398612976,-0.010808141902089119,-0.14952875673770905,1.1724486351013184,-2.4210307598114014,3.99609375,1,"['F1', 'B2', 'B1']",6.1,180,0,4.576375888243918,[6400|2600|0]
18000,1.409175992012024,0.2917797565460205,-0.010446499101817608,0.4395400583744049,0.7918172478675842,-2.4144840240478516,3.99609375,1,"['F1', 'B2', 'B1']",6.1,180,0,4.5770256726763066,[6400|2700|0]
18100,1.408981442451477,0.29183146357536316,-0.01032429188489914,0.5950193405151367,0.8078775405883789,-2.472805976867676,4.0,1,"['F1', 'B2', 'B1']",6.1,180,0,4.577261167373188,[6400|2800|0]
18200,1.4094598293304443,0.29222530126571655,-0.010141044855117798,0.6256996393203735,0.8000644445419312,-2.5198447704315186,4.0,1,"['F1', 'B2', 'B1']",6.1,180,0,4.577907341967423,[6400|2900|0]
18300,1.4095640182495117,0.2919793725013733,-0.01032781507819891,0.923754096031189,0.5730873942375183,-2.531226873397827,4.0,1,"['F1', 'B2', 'B1']",6.1,180,0,4.578233255152516,[6400|3000|0]
18400,1.4090787172317505,0.2916682958602905,-0.010366239584982395,0.9100539088249207,0.5935662984848022,-2.5341436862945557,4.0,1,"['F1', 'B2', 'B1']",6.1,180,0,4.578810976709314,[6400|3100|0]
18500,1.4090099334716797,0.2918175458908081,-0.010728256776928902,0.886466920375824,0.6574258804321289,-2.536803960800171,4.0,1,"['F1', 'B2', 'B1']",6.1,180,0,4.579208548368922,[6400|3200|0]
18600,1.4079954624176025,0.2920810580253601,-0.010367426089942455,1.713141918182373,-0.12500447034835815,-1.2719066143035889,4.0078125,1,"['F1', 'B2', 'B1']",6.1,180,0,4.580317055901277,[6400|3300|0]
18700,1.4078601598739624,0.29115521907806396,-0.010615721344947815,0.44677165150642395,1.191387414932251,-2.319437026977539,4.0078125,1,"['F1', 'B2', 'B1']",6.1,180,0,4.581285113269569,[6400|3400|0]
18800,1.406174659729004,0.29325076937675476,-0.00986242014914751,0.18458066880702972,1.543511986732483,1.910523772239685,4.0078125,1,"['F1', 'B2', 'B1']",6.1,180,0,4.584077908372077,[6400|3500|0]
18900,1.4006863832473755,0.3049430251121521,-0.0002954077208414674,-0.16124244034290314,16.4132022857666,9.483963966369629,4.0078125,1,"['F1', 'B2', 'B1']",6.1,180,0,4.600151419180985,[6400|3600|0]
19000,1.3884048461914062,0.35613253712654114,0.044397179037332535,4.04566764831543,7.45810079574585,-0.4162047803401947,4.01171875,1,"['F1', 'B2', 'B1']",6.1,180,0,4.669206684033604,[6400|3700|0]
19100,1.3905638456344604,0.43382909893989563,0.06451833993196487,-1.907839059829712,-4.412711143493652,-4.447555065155029,4.01171875,1,"['F1', 'B2', 'B1']",6.1,180,0,4.749495401248161,[6400|3800|0]
19200,1.3866002559661865,0.5054938197135925,0.05034201219677925,2.7354493141174316,-1.2160507440567017,-12.524941444396973,4.01171875,1,"['F1', 'B2', 'B1']",6.1,180,0,4.8226562549520775,[6400|3900|0]
19300,1.3933300971984863,0.5325746536254883,0.02894526906311512,2.3348581790924072,2.3169283866882324,-8.992472648620605,4.01171875,1,"['F1', 'B2', 'B1']",6.1,180,0,4.857819914390532,[6400|4000|0]
19400,1.397807240486145,0.5328529477119446,0.01313722599297762,3.0066752433776855,5.442804336547852,-3.301975727081299,4.01171875,1,"['F1', 'B2', 'B1']",6.1,180,0,4.874252092740468,[6400|4100|0]
19500,1.392091989517212,0.5293262600898743,0.008520734496414661,-1.5977904796600342,4.037267684936523,-5.718472957611084,4.01171875,1,"['F1', 'B2', 'B1']",6.1,180,0,4.882401547505014,[6400|4200|0]
19600,1.390973448753357,0.5268224477767944,0.0006840662681497633,0.9459574818611145,1.2245359420776367,-5.307163715362549,4.015625,1,"['F1', 'B2', 'B1']",6.1,180,0,4.890704172298381,[6400|4300|0]
19700,1.3919627666473389,0.5289872884750366,-0.0018854585941880941,0.027838552370667458,-2.1032724380493164,-2.051914691925049,4.015625,1,"['F1', 'B2', 'B1']",6.1,180,0,4.894206706118673,[6400|4400|0]
19800,1.391953706741333,0.5288940072059631,-0.001616980996914208,-0.17540355026721954,-1.6933848857879639,-2.099992036819458,4.015625,1,"['F1', 'B2', 'B1']",6.1,180,0,4.894491071547821,[6400|4500|0]
19900,1.3921607732772827,0.5287262201309204,-0.0007153284968808293,-0.16079001128673553,-1.6581932306289673,-2.196465253829956,4.015625,1,"['F1', 'B2', 'B1']",6.1,180,0,4.895431287631324,[6400|4600|0]
20000,1.3917790651321411,0.5287675261497498,-0.0011344996746629477,-0.14673590660095215,-1.5921317338943481,-2.2657294273376465,4.015625,1,"['F1', 'B2', 'B1']",6.1,180,0,4.8959997168455125,[6400|4700|0]
20100,1.3920063972473145,0.5289060473442078,-0.0008492335909977555,-0.12932232022285461,-1.5316716432571411,-2.335818290710449,4.015625,1,"['F1', 'B2', 'B1']",6.1,180,0,4.896389902378808,[6400|4800|0]
20200,1.3918116092681885,0.5285376310348511,-0.0007550568552687764,-0.1083240807056427,-1.438759446144104,-2.3610353469848633,4.015625,1,"['F1', 'B2', 'B1']",6.1,180,0,4.896817151944478,[6400|4900|0]
20300,1.3918721675872803,0.5290621519088745,-0.0007177715306170285,-0.018811574205756187,-1.2467374801635742,-2.414280414581299,4.0234375,1,"['F1', 'B2', 'B1']",6.1,180,0,4.897346471935346,[6400|5000|0]
20400,1.3921689987182617,0.5286375284194946,-0.0004236093664076179,-0.003780520288273692,-1.226698398590088,-2.457582473754883,4.0859375,1,"['F1', 'B2', 'B1']",6.1,180,0,4.897942244716618,[6400|5100|0]
20500,1.392008662223816,0.5286351442337036,-0.0006459899595938623,0.008970746770501137,-1.1912842988967896,-2.4654550552368164,4.0859375,1,"['F1', 'B2', 'B1']",6.1,180,0,4.898216410002566,[6400|5200|0]
20600,1.391979694366455,0.5287714600563049,-0.0007686708704568446,0.021089408546686172,-1.167121410369873,-2.4834256172180176,4.08984375,1,"['F1', 'B2', 'B1']",6.1,180,0,4.898402075686368,[6400|5300|0]
20700,1.3917540311813354,0.528663694858551,-0.000767003744840622,0.03312389925122261,-1.135542392730713,-2.5105578899383545,4.0859375,1,"['F1', 'B2', 'B1']",6.1,180,0,4.8986521556541245,[6400|5400|0]
20800,1.3920507431030273,0.5289149880409241,-0.0005719833425246179,0.031174609437584877,-1.12404203414917,-2.4957218170166016,4.08984375,1,"['F1', 'B2', 'B1']",6.1,180,0,4.899087148970511,[6400|5500|0]
20900,1.3919249773025513,0.5284677743911743,-0.0006913883844390512,0.038350414484739304,-1.1073716878890991,-2.487741708755493,4.08984375,1,"['F1', 'B2', 'B1']",6.1,180,0,4.899566809943623,[6400|5600|0]
21000,1.3920444250106812,0.5284024477005005,-0.0005206161877140403,0.03497559577226639,-1.1027321815490723,-2.489919662475586,4.08984375,1,"['F1', 'B2', 'B1']",6.1,180,0,4.899785209748262,[6400|5700|0]
21100,1.3920763731002808,0.528666615486145,-0.0007183486013673246,0.023767398670315742,-1.0955997705459595,-2.49609112739563,4.08984375,1,"['F1', 'B2', 'B1']",6.1,180,0,4.900116726575604,[6400|5800|0]
21200,1.3919572830200195,0.5287940502166748,-0.0003202639927621931,0.020149648189544678,-1.0805710554122925,-2.5161898136138916,4.09765625,1,"['F1', 'B2', 'B1']",6.1,180,0,4.9005513452744305,[6400|5900|0]
21300,1.3918720483779907,0.5282781720161438,-0.0006513364496640861,0.03404506295919418,-1.070923089981079,-2.5309252738952637,4.09765625,1,"['F1', 'B2', 'B1']",6.1,180,0,4.901170218632804,[6400|6000|0]
21400,1.3918993473052979,0.5286047458648682,-0.0003469745279289782,0.036578092724084854,-1.0627413988113403,-2.5240654945373535,4.09765625,1,"['F1', 'B2', 'B1']",6.1,180,0,4.901617467880433,[6400|6100|0]
21500,1.3916581869125366,0.5286269783973694,-0.0004797196597792208,0.043760500848293304,-1.0492990016937256,-2.5160107612609863,4.09765625,1,"['F1', 'B2', 'B1']",6.1,180,0,4.901893645161483,[6400|6200|0]
21600,1.392059564590454,0.5284302830696106,-0.0003591499989852309,0.050301894545555115,-1.0634193420410156,-2.538100481033325,4.09765625,1,"['F1', 'B2', 'B1']",6.1,180,0,4.902356603189166,[6400|6300|0]
21700,1.3917163610458374,0.5285447835922241,-0.0006248747813515365,0.04907327517867088,-1.050415277481079,-2.5202040672302246,4.09765625,1,"['F1', 'B2', 'B1']",6.1,180,0,4.902805500396419,[6400|6400|0]
21800,1.391798734664917,0.5285873413085938,-0.0009215815225616097,0.04841078817844391,-1.0501550436019897,-2.513359308242798,4.1015625,1,"['F1', 'B2', 'B1']",6.1,180,0,4.903116356412321,[6400|6500|0]
21900,1.39197838306427,0.5286917090415955,-0.0007940076175145805,0.046121787279844284,-1.0442529916763306,-2.524153709411621,4.09765625,1,"['F1', 'B2', 'B1']",6.1,180,0,4.90336016222097,[6400|6600|0]
22000,1.391953468322754,0.5282173752784729,-0.0003570819681044668,0.05780230090022087,-1.0346132516860962,-2.52166748046875,4.1015625,1,"['F1', 'B2', 'B1']",6.1,180,0,4.904005543725427,[6400|6700|0]
22100,1.3920438289642334,0.5285896062850952,-0.0004225430602673441,0.04450306296348572,-1.0327849388122559,-2.5362660884857178,4.1015625,1,"['F1', 'B2', 'B1']",6.1,180,0,4.904394138787679,[6400|6800|0]
22200,1.3917346000671387,0.5283987522125244,-0.0005113184452056885,0.05759117007255554,-1.0232329368591309,-2.5114495754241943,4.1015625,1,"['F1', 'B2', 'B1']",6.1,180,0,4.904768209445157,[6400|6900|0]
22300,1.3918126821517944,0.5287195444107056,-0.0005048676976002753,0.05056224763393402,-1.0286407470703125,-2.5095839500427246,4.1015625,1,"['F1', 'B2', 'B1']",6.1,180,0,4.9050984306717655,[6400|7000|0]
22400,1.3918873071670532,0.5287643074989319,-0.00042570699588395655,0.052119042724370956,-1.0359936952590942,-2.5313990116119385,4.1015625,1,"['F1', 'B2', 'B1']",6.1,180,0,4.905216070136514,[6400|7100|0]
22500,1.3920273780822754,0.5284284949302673,-0.0004414845898281783,0.06223786249756813,-1.03831148147583,-2.5240821838378906,4.1015625,1,"['F1', 'B2', 'B1']",6.1,180,0,4.905580266340551,[6400|7200|0]
22600,1.3919059038162231,0.5287952423095703,-0.0007446158560924232,0.0542612187564373,-1.0370169878005981,-2.520230770111084,4.10546875,1,"['F1', 'B2', 'B1']",6.1,180,0,4.906071334769719,[6400|7300|0]
22700,1.3918888568878174,0.5284143686294556,-0.0006761746481060982,0.058207862079143524,-1.0377082824707031,-2.510390043258667,4.10546875,1,"['F1', 'B2', 'B1']",6.1,180,0,4.906458684168742,[6400|7400|0]
22800,1.391855001449585,0.5286509990692139,-0.00044662744039669633,0.05223218724131584,-1.0311187505722046,-2.5125484466552734,4.10546875,1,"['F1', 'B2', 'B1']",6.1,180,0,4.906790093396563,[6400|7500|0]
22900,1.3919267654418945,0.528769850730896,-0.0007490655407309532,0.03998497501015663,-1.0496509075164795,-2.5304031372070312,4.10546875,1,"['F1', 'B2', 'B1']",6.1,180,0,4.907122876498013,[6400|7600|0]
23000,1.392082691192627,0.5288142561912537,-0.0008431561291217804,0.04479734227061272,-1.0525063276290894,-2.5486724376678467,4.10546875,1,"['F1', 'B2', 'B1']",6.1,180,0,4.907310327087435,[6400|7700|0]
23100,1.391960859298706,0.528702437877655,-0.0006406997563317418,0.04394155740737915,-1.0551549196243286,-2.559002637863159,4.10546875,1,"['F1', 'B2', 'B1']",6.1,180,0,4.907571736590927,[6400|7800|0]
23200,1.3918912410736084,0.5288527011871338,-0.0005812650197185576,0.04078954458236694,-1.046337604522705,-2.5463192462921143,4.10546875,1,"['F1', 'B2', 'B1']",6.1,180,0,4.9077476861500555,[6400|7900|0]
23300,1.3918399810791016,0.5285292863845825,-0.0005374524043872952,0.05181213095784187,-1.0360568761825562,-2.5343027114868164,4.10546875,1,"['F1', 'B2', 'B1']",6.1,180,0,4.9080780560439745,[6400|8000|0]
23400,1.3917853832244873,0.5282235145568848,-0.0005488964379765093,0.06482736021280289,-1.0314934253692627,-2.5278167724609375,4.10546875,1,"['F1', 'B2', 'B1']",6.1,180,0,4.908388874805067,[6400|8100|0]
23500,1.3917847871780396,0.5286543965339661,-0.0007096334593370557,0.04519375041127205,-1.035006046295166,-2.540170192718506,4.11328125,1,"['F1', 'B2', 'B1']",6.1,180,0,4.908848761773224,[6400|8200|0]
23600,1.391857624053955,0.5289127826690674,-0.000549254531506449,0.0451328381896019,-1.0385451316833496,-2.5615551471710205,4.11328125,1,"['F1', 'B2', 'B1']",6.1,180,0,4.90916147570927,[6400|8300|0]
23700,1.3919756412506104,0.5286355018615723,-0.00039842535625211895,0.06005202606320381,-1.03528892993927,-2.544489622116089,4.11328125,1,"['F1', 'B2', 'B1']",6.1,180,0,4.9094984655385225,[6400|8400|0]
23800,1.3921624422073364,0.5284006595611572,-0.00029601610731333494,0.06990864872932434,-1.0465221405029297,-2.5564262866973877,4.11328125,1,"['F1', 'B2', 'B1']",6.1,180,0,4.909815535180346,[6400|8500|0]
23900,1.391770362854004,0.5285021066665649,-0.0004079529899172485,0.06205466017127037,-1.0362962484359741,-2.546429395675659,4.11328125,1,"['F1', 'B2', 'B1']",6.1,180,0,4.91023571085812,[6400|8600|0]
24000,1.39206862449646,0.5286558270454407,-0.0005909954779781401,0.052052661776542664,-1.0519477128982544,-2.535195827484131,4.11328125,1,"['F1', 'B2', 'B1']",6.1,180,0,4.91061793397971,[6400|8700|0]
24100,1.3920842409133911,0.5283999443054199,-0.000544728129170835,0.06178940460085869,-1.0529866218566895,-2.5441839694976807,4.11328125,1,"['F1', 'B2', 'B1']",6.1,180,0,4.910878434491579,[6400|8800|0]
24200,1.3919527530670166,0.5283527970314026,-0.0006185824167914689,0.061191633343696594,-1.0474542379379272,-2.55410099029541,4.11328125,1,"['F1', 'B2', 'B1']",6.1,180,0,4.9110364420071955,[6400|8900|0]
24300,1.39192795753479,0.5291350483894348,-8.111928764265031e-07,0.04190469905734062,-1.035810112953186,-2.5863258838653564,4.1171875,1,"['F1', 'B2', 'B1']",6.1,180,0,4.912033524396298,[6400|9000|0]
24400,1.3922302722930908,0.5291003584861755,-1.5750734746688977e-05,0.04127076268196106,-1.0482980012893677,-2.5936391353607178,4.11328125,1,"['F1', 'B2', 'B1']",6.1,180,0,4.912338189445797,[6400|9100|0]
24500,1.392008662223816,0.5288007855415344,-0.00043393197120167315,0.05245159566402435,-1.0444037914276123,-2.589446544647217,4.1171875,1,"['F1', 'B2', 'B1']",6.1,180,0,4.912898305968039,[6400|9200|0]
24600,1.3919373750686646,0.5292434692382812,-0.0003114839782938361,0.04779347404837608,-1.0392968654632568,-2.5943822860717773,4.1171875,1,"['F1', 'B2', 'B1']",6.1,180,0,4.913363111545482,[6400|9300|0]
24700,1.3918498754501343,0.5288755893707275,-0.000572346558328718,0.05850030854344368,-1.0412873029708862,-2.5813798904418945,4.1171875,1,"['F1', 'B2', 'B1']",6.1,180,0,4.913822503606641,[6400|9400|0]
24800,1.3923105001449585,0.5292381644248962,-0.0005882137920707464,0.043737079948186874,-1.051511287689209,-2.573467254638672,4.1171875,1,"['F1', 'B2', 'B1']",6.1,180,0,4.914408922866637,[6400|9500|0]
24900,1.3921079635620117,0.5292208790779114,-2.848063741112128e-05,0.04004111886024475,-1.0363008975982666,-2.5900049209594727,4.1171875,1,"['F1', 'B2', 'B1']",6.1,180,0,4.915004423542604,[6400|9600|0]
25000,1.3917349576950073,0.5289911031723022,-0.00026122209965251386,0.04435430467128754,-1.033735752105713,-2.571974039077759,4.1171875,1,"['F1', 'B2', 'B1']",6.1,180,0,4.91550050713623,[6400|9700|0]
25100,1.3921161890029907,0.5292689800262451,-0.00033730012364685535,0.03898458182811737,-1.042819857597351,-2.5694446563720703,4.1171875,1,"['F1', 'B2', 'B1']",6.1,180,0,4.915978357240215,[6400|9800|0]
25200,1.3918111324310303,0.5289924740791321,-0.00041155098006129265,0.04452601447701454,-1.0463205575942993,-2.5438506603240967,4.1171875,1,"['F1', 'B2', 'B1']",6.1,180,0,4.91639672100605,[6400|9900|0]
25300,1.3922905921936035,0.5292277336120605,-0.00029904337134212255,0.03685910627245903,-1.0513935089111328,-2.5411417484283447,4.1171875,1,"['F1', 'B2', 'B1']",6.1,180,0,4.916942510959952,[6400|10000|0]
25400,1.3918901681900024,0.5292174220085144,-0.00021096931595820934,0.03026053123176098,-1.0462162494659424,-2.5534651279449463,4.1171875,1,"['F1', 'B2', 'B1']",6.1,180,0,4.91735263624698,[6400|10100|0]
25500,1.3919304609298706,0.5293457508087158,-0.0001599171810084954,0.023480447009205818,-1.0435622930526733,-2.551774740219116,4.12109375,1,"['F1', 'B2', 'B1']",6.1,180,0,4.917496504611571,[6400|10200|0]
25600,1.392169713973999,0.5290377140045166,0.00018015621753875166,0.026393599808216095,-1.0477100610733032,-2.575458526611328,4.12109375,1,"['F1', 'B2', 'B1']",6.1,180,0,4.918013977903892,[6400|10300|0]
25700,1.3920598030090332,0.529288649559021,-0.0003736690559890121,0.015304628759622574,-1.0420016050338745,-2.5639524459838867,4.12109375,1,"['F1', 'B2', 'B1']",6.1,180,0,4.91863185451482,[6400|10400|0]
25800,1.3919206857681274,0.5287405848503113,-1.9948125554947183e-05,0.032016899436712265,-1.039170265197754,-2.5664572715759277,4.12109375,1,"['F1', 'B2', 'B1']",6.1,180,0,4.919298823051018,[6400|10500|0]
25900,1.3923606872558594,0.5292693376541138,-0.00014372477016877383,0.014620143920183182,-1.0491045713424683,-2.576998233795166,4.12109375,1,"['F1', 'B2', 'B1']",6.1,180,0,4.919997751870346,[6400|10600|0]
26000,1.392162561416626,0.529106855392456,-0.00017052765178959817,0.021397005766630173,-1.0427511930465698,-2.569546699523926,4.12109375,1,"['F1', 'B2', 'B1']",6.1,180,0,4.92025538092148,[6400|10700|0]
26100,1.392071008682251,0.5292527079582214,-0.00029788754181936383,0.0171328354626894,-1.0416598320007324,-2.5749542713165283,4.12109375,1,"['F1', 'B2', 'B1']",6.1,180,0,4.92046956639181,[6400|10800|0]
26200,1.3920338153839111,0.5288849472999573,-1.657713801250793e-05,0.02964390069246292,-1.0415081977844238,-2.5672292709350586,4.12109375,1,"['F1', 'B2', 'B1']",6.1,180,0,4.920934073427815,[6400|10900|0]
26300,1.3922196626663208,0.5288664698600769,-0.00016342058370355517,0.03352273628115654,-1.0468839406967163,-2.566603899002075,4.12109375,1,"['F1', 'B2', 'B1']",6.1,180,0,4.921171652100481,[6400|11000|0]
26401,1.3920822143554688,0.5293202996253967,-0.00028961559291929007,0.020922118797898293,-1.0340356826782227,-2.5934321880340576,4.12109375,1,"['F1', 'B2', 'B1']",6.1,180,0,4.9216623441366885,[6400|11100|0]
26501,1.392187237739563,0.5290800929069519,-0.0005274360883049667,0.03277260810136795,-1.03263258934021,-2.588066816329956,4.12109375,1,"['F1', 'B2', 'B1']",6.1,180,0,4.922016304257067,[6400|11200|0]
26601,1.3923312425613403,0.5290891528129578,-0.0003357964160386473,0.03369911387562752,-1.03069269657135,-2.5896356105804443,4.12890625,1,"['F1', 'B2', 'B1']",6.1,180,0,4.922256190135306,[6400|11300|0]
26701,1.3920526504516602,0.5289258360862732,-0.00015917305427137762,0.044782109558582306,-1.0212359428405762,-2.6047816276550293,4.12109375,1,"['F1', 'B2', 'B1']",6.1,180,0,4.9226242685627,[6400|11400|0]
26801,1.3921595811843872,0.5292474627494812,-0.0002960589772555977,0.03675486147403717,-1.0244202613830566,-2.5926239490509033,4.12109375,1,"['F1', 'B2', 'B1']",6.1,180,0,4.922989803305233,[6400|11500|0]
26901,1.3922349214553833,0.5291376113891602,5.0207563617732376e-05,0.04054327681660652,-1.0257821083068848,-2.590338945388794,4.12109375,1,"['F1', 'B2', 'B1']",6.1,180,0,4.92336080734177,[6400|11600|0]
27001,1.392411708831787,0.5292405486106873,-0.00011584967433009297,0.03437532112002373,-1.0208431482315063,-2.59371280670166,4.12890625,1,"['F1', 'B2', 'B1']",6.1,180,0,4.923624293307822,[6400|11700|0]
27102,1.392231822013855,0.5293102860450745,-0.00010050511627923697,0.03896452859044075,-1.0152744054794312,-2.5603437423706055,4.12890625,1,"['F1', 'B2', 'B1']",6.1,180,0,4.923817834085134,[6400|11800|0]
27202,1.39167320728302,0.5290713906288147,-0.00039540891884826124,0.04762670397758484,-1.0051075220108032,-2.5692129135131836,4.12890625,1,"['F1', 'B2', 'B1']",6.1,180,0,4.924493178212365,[6400|11900|0]
27302,1.3924521207809448,0.5290042757987976,-3.529080277075991e-05,0.04752710089087486,-1.027040958404541,-2.5830698013305664,4.12890625,1,"['F1', 'B2', 'B1']",6.1,180,0,4.925353931193879,[6400|12000|0]
27402,1.39203941822052,0.5291029810905457,-0.000285184447420761,0.047084566205739975,-1.025111436843872,-2.5822882652282715,4.12890625,1,"['F1', 'B2', 'B1']",6.1,180,0,4.925846387254494,[6400|12100|0]
27500,1.3921740055084229,0.5290245413780212,4.244774390826933e-05,0.05301119014620781,-1.0397565364837646,-2.571000337600708,4.12890625,1,"['F1', 'B2', 'B1']",6.1,180,0,4.926209167324731,[6400|12200|0]
27600,1.3921576738357544,0.5290923118591309,0.00011630561493802816,0.05197374150156975,-1.0363527536392212,-2.584204912185669,4.12890625,1,"['F1', 'B2', 'B1']",6.1,180,0,4.926310727881814,[6400|12300|0]
27700,1.3920878171920776,0.5291928648948669,9.462411981076002e-05,0.046806205064058304,-1.0297691822052002,-2.5942344665527344,4.12890625,1,"['F1', 'B2', 'B1']",6.1,180,0,4.926435069953908,[6400|12400|0]
27800,1.3918927907943726,0.5291239023208618,-0.0002895141951739788,0.04448721185326576,-1.0217031240463257,-2.585441827774048,4.12890625,1,"['F1', 'B2', 'B1']",6.1,180,0,4.926871365011701,[6400|12500|0]
27900,1.392210841178894,0.529249370098114,0.00012763767153955996,0.04218429699540138,-1.0364364385604858,-2.6025445461273193,4.12890625,1,"['F1', 'B2', 'B1']",6.1,180,0,4.927410729350646,[6400|12600|0]
28000,1.3924134969711304,0.5292831659317017,-0.00047212070785462856,0.03731517121195793,-1.0364097356796265,-2.6153013706207275,4.12890625,1,"['F1', 'B2', 'B1']",6.1,180,0,4.9280447022539695,[6400|12700|0]
28100,1.3925336599349976,0.5290830135345459,1.0309622666682117e-05,0.04259210824966431,-1.0479322671890259,-2.599733829498291,4.12890625,1,"['F1', 'B2', 'B1']",6.1,180,0,4.928580649213826,[6400|12800|0]
28200,1.3918533325195312,0.5291131734848022,-0.0003654808388091624,0.04959660395979881,-1.0345189571380615,-2.592111587524414,4.12890625,1,"['F1', 'B2', 'B1']",6.1,180,0,4.929358449628952,[6400|12900|0]
28300,1.3919259309768677,0.5290085673332214,-0.00011869269656017423,0.05521136522293091,-1.0404003858566284,-2.5885934829711914,4.12890625,1,"['F1', 'B2', 'B1']",6.1,180,0,4.929636149773192,[6400|13000|0]
28400,1.3923102617263794,0.528921365737915,-0.0003063173498958349,0.050923001021146774,-1.0463193655014038,-2.601360321044922,4.1328125,1,"['F1', 'B2', 'B1']",6.1,180,0,4.930072632595058,[6400|13100|0]
28500,1.3921362161636353,0.5290022492408752,-0.00022345059551298618,0.04780755192041397,-1.0431065559387207,-2.587076425552368,4.1328125,1,"['F1', 'B2', 'B1']",6.1,180,0,4.930281680192375,[6400|13200|0]
28600,1.3918159008026123,0.528947651386261,-6.123473576735705e-05,0.03885067626833916,-1.0285508632659912,-2.583346366882324,4.1328125,1,"['F1', 'B2', 'B1']",6.1,180,0,4.930644856239753,[6400|13300|0]
28700,1.391845464706421,0.5289146304130554,-0.0004667299799621105,0.03629061207175255,-1.0288398265838623,-2.578761577606201,4.1328125,1,"['F1', 'B2', 'B1']",6.1,180,0,4.931052766526635,[6400|13400|0]
28800,1.3920018672943115,0.5288994908332825,-8.166329644154757e-05,0.034120239317417145,-1.0371168851852417,-2.5854268074035645,4.1328125,1,"['F1', 'B2', 'B1']",6.1,180,0,4.931468659935013,[6400|13500|0]
28900,1.3920457363128662,0.5292261242866516,-0.0001429234107490629,0.023581000044941902,-1.0292575359344482,-2.5761470794677734,4.12890625,1,"['F1', 'B2', 'B1']",6.1,180,0,4.931803871368669,[6400|13600|0]
29000,1.3919066190719604,0.5288150906562805,0.00017865044355858117,0.03023039549589157,-1.0243173837661743,-2.569352865219116,4.1328125,1,"['F1', 'B2', 'B1']",6.1,180,0,4.932343975058517,[6400|13700|0]
29100,1.3919841051101685,0.5293187499046326,-8.668340888107195e-05,0.018595578148961067,-1.0237981081008911,-2.5589439868927,4.1328125,1,"['F1', 'B2', 'B1']",6.1,180,0,4.932918499886369,[6400|13800|0]
29200,1.3922295570373535,0.5289728045463562,-4.3149542761966586e-05,0.01773798279464245,-1.0384052991867065,-2.57999587059021,4.1328125,1,"['F1', 'B2', 'B1']",6.1,180,0,4.933344903494434,[6400|13900|0]
29300,1.392225742340088,0.528864324092865,0.00018992538389284164,0.028017230331897736,-1.0397332906723022,-2.5691635608673096,4.1328125,1,"['F1', 'B2', 'B1']",6.1,180,0,4.9336020153030695,[6400|14000|0]
29400,1.3922779560089111,0.529262363910675,-0.0003602856886573136,0.017156636342406273,-1.0372997522354126,-2.5834264755249023,4.1328125,1,"['F1', 'B2', 'B1']",6.1,180,0,4.934283113084692,[6400|14100|0]
29500,1.3919956684112549,0.5291650891304016,-5.491936462931335e-05,0.02913089282810688,-1.0220290422439575,-2.589853525161743,4.1328125,1,"['F1', 'B2', 'B1']",6.1,180,0,4.934710193009902,[6400|14200|0]
29600,1.3923176527023315,0.5288286805152893,-9.490185766480863e-05,0.03976338356733322,-1.0337353944778442,-2.5795669555664062,4.1328125,1,"['F1', 'B2', 'B1']",6.1,180,0,4.935177572127719,[6400|14300|0]
