time.ms,stateEstimate.x,stateEstimate.y,stateEstimate.z,stabilizer.roll,stabilizer.pitch,stabilizer.yaw,pm.vbat,drone_id,node_name,wind_speed,global_wind_direction,relative_wind_direction,travel_dist,waiting_time,curr_node_role
0,0.9917019009590148,-0.2116447389125824,0.0,-0.1005799397826194,0.0151386549696326,-0.0856734067201614,4.10546875,1,G1,0,None,None,0.0,[6200|0|0],start
100,0.991386890411377,-0.2119416743516922,0.0,-0.0914069786667823,0.0173156354576349,-0.0867380425333976,4.10546875,1,G1,0,None,None,0.0004328998730912,[6300|0|0],start
200,0.9917036294937134,-0.211525097489357,0.0,-0.0993044674396514,0.0137687884271144,-0.1010637804865837,4.10546875,1,G1,0,None,None,0.0009562161527084,[6400|0|0],start
300,0.9917557835578918,-0.2118183821439743,0.0,-0.0934178158640861,0.0096074678003788,-0.1058261021971702,4.10546875,1,G1,0,None,None,0.0012541019278711,[6500|0|0],start
400,0.9917474389076232,-0.2118298113346099,0.0,-0.0957171916961669,0.0060852351598441,-0.0707076638936996,4.10546875,1,G1,0,None,None,0.0012682532382943,[6600|0|0],start
500,0.9915627837181092,-0.2115475833415985,0.0,-0.0958681777119636,0.0192263424396514,-0.0582283586263656,4.10546875,1,G1,0,None,None,0.0016055219428218,[6700|0|0],start
600,0.9919281601905824,-0.2117806822061538,0.0,-0.0939502790570259,0.0067065996117889,-0.0628762170672416,4.10546875,1,G1,0,None,None,0.0020389213513284,[6800|0|0],start
700,0.9916994571685792,-0.2118199914693832,0.0,-0.0975386574864387,0.0130019439384341,-0.0812458097934722,4.10546875,1,G1,0,None,None,0.0022709780048616,[6900|0|0],start
800,0.9917524456977844,-0.2118403017520904,0.0,-0.094909518957138,0.0148121127858757,-0.0566693358123302,4.1015625,1,G1,0,None,None,0.0023277256198861,[7000|0|0],start
900,0.9917742013931274,-0.2120525538921356,0.0,-0.094855673611164,0.0117437988519668,-0.0596011690795421,4.10546875,1,G1,0,None,None,0.0025410898184613,[7100|0|0],start
1000,0.991843044757843,-0.2119163870811462,0.0,-0.1012364774942398,0.0048290500417351,-0.0494270212948322,4.1015625,1,G1,0,None,None,0.0026936703194448,[7200|0|0],start
1100,0.9915661811828612,-0.2119259536266327,0.0,-0.1102214530110359,-0.0044345683418214,-0.0633978173136711,4.10546875,1,G1,0,None,None,0.0029706991229008,[7300|0|0],start
1200,0.9920076727867126,-0.2118627429008484,0.0,-0.0808565840125083,0.0185814946889877,-0.0835109651088714,4.10546875,1,G1,0,None,None,0.0034166928808453,[7400|0|0],start
1300,0.9914568662643432,-0.2119075208902359,0.0,-0.1048055365681648,0.0089658135548233,-0.0914839580655098,4.1015625,1,G1,0,None,None,0.003969316526212,[7500|0|0],start
1400,0.9916223287582396,-0.2116494327783584,0.0,-0.0805597379803657,0.0387800000607967,-0.086271658539772,4.10546875,1,G1,0,None,None,0.0042758900253585,[7600|0|0],start
1500,0.99198317527771,-0.2117414623498916,0.0,-0.1192052438855171,0.0006041607703082,-0.0903532579541206,4.1015625,1,G1,0,None,None,0.0046482871959311,[7700|0|0],start
1600,0.991978108882904,-0.2118103057146072,0.0,-0.0490349195897579,0.0636510327458381,-0.082862839102745,4.1015625,1,G1,0,None,None,0.0047173167346931,[7800|0|0],start
1700,0.9920051097869872,-0.2120772451162338,0.0,-0.0633736029267311,0.0345011167228221,-0.0895217880606651,4.10546875,1,G1,0,None,None,0.0049856182310774,[7900|0|0],start
1800,0.9921347498893738,-0.2116903364658355,0.0,-0.0912655964493751,0.0102207921445369,-0.1075498014688491,4.10546875,1,G1,0,None,None,0.0053936683014117,[8000|0|0],start
1900,0.9916958212852478,-0.2116327136754989,0.0,-0.0585377141833305,0.051625058054924,-0.0738970264792442,4.10546875,1,G1,0,None,None,0.0058363631234801,[8100|0|0],start
2000,0.9923807978630066,-0.2119290679693222,0.0,-0.0565151087939739,0.0242856312543153,-0.0814189910888671,4.10546875,1,G1,0,None,None,0.0065827000310129,[8200|0|0],start
2100,0.9922166466712952,-0.2117884010076522,0.0,-0.0495085418224334,0.0445773042738437,-0.111684150993824,4.10546875,1,G1,0,None,None,0.0067988777538378,[8300|0|0],start
2200,0.9918491840362548,-0.2117352932691574,0.0,-0.0431379899382591,0.0569783337414264,-0.1013565957546234,4.10546875,1,G1,0,None,None,0.0071701582677876,[8400|0|0],start
2300,0.9923015832901,-0.2119126468896865,0.0,-0.0352240577340126,0.0545565485954284,-0.0899938642978668,4.10546875,1,G1,0,None,None,0.0076560794461638,[8500|0|0],start
2400,0.9920254349708556,-0.2120184153318405,0.0,-0.0396966747939586,0.0571499355137348,-0.0649963244795799,4.10546875,1,G1,0,None,None,0.0079517902129228,[8600|0|0],start
2500,0.9919090270996094,-0.2122032642364502,0.0,-0.0387466438114643,0.063147559762001,-0.0554000288248062,4.10546875,1,G1,0,None,None,0.0081702390857134,[8700|0|0],start
2600,0.9919008016586304,-0.211878165602684,0.0,-0.0501276515424251,0.0658669248223304,-0.0595622546970844,4.10546875,1,G1,0,None,None,0.0084954417602964,[8800|0|0],start
2700,0.9924643635749816,-0.2120206654071808,0.0,-0.03154057264328,0.0743294954299926,-0.0581802763044834,4.10546875,1,G1,0,None,None,0.0090767405026338,[8900|0|0],start
2800,0.99204021692276,-0.2118444740772247,0.0,-0.0543487556278705,0.0637155324220657,-0.0726511105895042,4.1015625,1,G1,0,None,None,0.0095360266523732,[9000|0|0],start
2900,0.9922631978988647,-0.2116740942001342,0.0,-0.0572113282978534,0.0572614558041095,-0.0899651274085044,4.10546875,1,G1,0,None,None,0.0098166506324997,[9100|0|0],start
3000,0.9921472668647766,-0.2118732184171676,0.0,-0.0530700050294399,0.0631956458091735,-0.0745318606495857,4.1015625,1,G1,0,None,None,0.0100470643006574,[9200|0|0],start
3100,0.9921343922615052,-0.2118324935436248,0.0,-0.0482845045626163,0.0646327659487724,-0.0661372616887092,4.1015625,1,G1,0,None,None,0.0100897757831238,[9300|0|0],start
3200,0.9923144578933716,-0.2119834572076797,0.0,-0.0420581139624118,0.0582008995115757,-0.0530529804527759,4.10546875,1,G1,0,None,None,0.0103247516534686,[9400|0|0],start
3300,0.9920304417610168,-0.2118863612413406,0.0,-0.0446209833025932,0.0725921541452407,-0.0822136327624321,4.1015625,1,G1,0,None,None,0.0106249062638231,[9500|0|0],start
3400,0.9918392300605774,-0.2121318578720092,0.0,-0.0315839871764183,0.0846288502216339,-0.0656820610165596,4.1015625,1,G1,0,None,None,0.010936082275197,[9600|0|0],start
3500,0.9921740293502808,-0.2119864374399185,0.0,-0.0423655547201633,0.068274937570095,-0.0818787589669227,4.10546875,1,G1,0,None,None,0.0113010996260933,[9700|0|0],start
3600,0.9920471906661988,-0.2118569761514663,0.0,-0.049914177507162,0.0690247789025306,-0.0768131762742996,4.10546875,1,G1,0,None,None,0.0114823405623835,[9800|0|0],start
3700,0.992023229598999,-0.2119702845811844,0.0,-0.0526953786611557,0.0647206977009773,-0.0645959973335266,4.10546875,1,G1,0,None,None,0.0115981547799327,[9900|0|0],start
3800,0.9921654462814332,-0.2121738344430923,0.0,-0.0515157021582126,0.0643870383501052,-0.0646201372146606,4.10546875,1,G1,0,None,None,0.0118464653335652,[10000|0|0],start
3900,0.9917578101158142,-0.2118080109357834,0.0,-0.0699369460344314,0.059952937066555,-0.0774451941251754,4.10546875,1,G1,0,None,None,0.0123941824886922,[10100|0|0],start
4000,0.9919866323471068,-0.2117011249065399,0.0,-0.0728264451026916,0.0557045750319957,-0.0932035148143768,4.10546875,1,G1,0,None,None,0.0126467379019804,[10200|0|0],start
4100,0.9923597574234008,-0.2119526267051696,0.0,-0.0670789554715156,0.0431458763778209,-0.0846548900008201,4.1015625,1,G1,0,None,None,0.0130967106536813,[10300|0|0],start
4200,0.9920591115951538,-0.2120130509138107,0.0,-0.0748248100280761,0.0407050922513008,-0.0898017585277557,4.1015625,1,G1,0,None,None,0.01340336844183,[10400|0|0],start
4300,0.9918006658554076,-0.2118805795907974,0.0,-0.0691518187522888,0.0524663105607032,-0.0835051387548446,4.1015625,1,G1,0,None,None,0.0136937868500169,[10500|0|0],start
4400,0.9920810461044312,-0.2117201536893844,0.0,-0.0736510828137397,0.0454574413597583,-0.0978966206312179,4.10546875,1,G1,0,None,None,0.0140168186656121,[10600|0|0],start
4500,0.9922114610671996,-0.2119881808757782,0.0,-0.0636685714125633,0.0394907481968402,-0.1081762090325355,4.10546875,1,G1,0,None,None,0.0143148901925315,[10700|0|0],start
4600,0.9920448660850524,-0.2120364755392074,0.0,-0.0647084936499595,0.0391734614968299,-0.0824455022811889,4.1015625,1,G1,0,None,None,0.0144883441131916,[10800|0|0],start
4700,0.9921079874038696,-0.2119969874620437,0.0,-0.0690232962369918,0.0337694585323333,-0.0770744308829307,4.10546875,1,G1,0,None,None,0.0145627995302364,[10900|0|0],start
4800,0.992118775844574,-0.2118285149335861,0.0,-0.0743353962898254,0.0360972099006176,-0.081459492444992,4.1015625,1,G1,0,None,None,0.0147316171338734,[11000|0|0],start
4900,0.992361843585968,-0.2119864672422409,0.0,-0.0670040026307106,0.0264431200921535,-0.0867227837443351,4.1015625,1,G1,0,None,None,0.0150214979002512,[11100|0|0],start
5000,0.9919158816337584,-0.2122707217931747,0.0,-0.0584289692342281,0.0373893789947032,-0.0876790210604667,4.10546875,1,G1,0,None,None,0.0155503482690183,[11200|0|0],start
5100,0.9921354651451112,-0.2118427008390426,0.0,-0.065468430519104,0.024560485035181,-0.0793475732207298,4.10546875,1,G1,0,None,None,0.0160314084062508,[11300|0|0],start
5200,0.992020845413208,-0.2122800201177597,0.0,-0.0570195950567722,0.0196763630956411,-0.0749110803008079,4.1015625,1,G1,0,None,None,0.016483498922054,[11400|0|0],start
5300,0.9919685125350952,-0.2119593173265457,0.0,-0.0620502308011055,0.0252566393464803,-0.080736868083477,4.1015625,1,G1,0,None,None,0.0168084435487584,[11500|0|0],start
5400,0.9921621084213256,-0.211697980761528,0.0,-0.0684245303273201,0.0212505441159009,-0.0891682580113411,4.10546875,1,G1,0,None,None,0.0171336760308086,[11600|0|0],start
5500,0.9921442866325378,-0.2116349786520004,0.0,-0.0675050467252731,0.0211933199316263,-0.0753674134612083,4.1015625,1,G1,0,None,None,0.0171991503155357,[11700|0|0],start
5600,0.99225515127182,-0.2117770463228225,0.0,-0.0660204216837883,0.0245967917144298,-0.0793692022562027,4.10546875,1,G1,0,None,None,0.0173793562847375,[11800|0|0],start
5700,0.9918619394302368,-0.2119953632354736,0.0,-0.0625712573528289,0.0344645380973815,-0.0685492977499961,4.1015625,1,G1,0,None,None,0.0178291093577795,[11900|0|0],start
5800,0.9921591877937316,-0.2122500985860824,0.0,-0.0555202700197696,0.029837230220437,-0.0533082149922847,4.1015625,1,G1,0,None,None,0.0182205767107607,[12000|0|0],start
5900,0.9919715523719788,-0.2116495072841644,0.0,-0.0737530514597892,0.0363061614334583,-0.0685825869441032,4.1015625,1,G1,0,None,None,0.0188497960393226,[12100|0|0],start
6000,0.9924609661102296,-0.2118479609489441,0.0,-0.0710077807307243,0.0260523241013288,-0.0650582090020179,4.1015625,1,G1,0,None,None,0.0193779150261553,[12200|0|0],start
6100,0.9923784732818604,-0.2120575904846191,0.0,-0.067535825073719,0.0355350039899349,-0.0654485896229744,4.10546875,1,G1,0,None,None,0.0196031917647673,[12300|0|0],start
6200,0.9920207262039183,-0.212138831615448,0.0,-0.0717426389455795,0.0478124767541885,-0.0555275380611419,4.1015625,1,G1,0,None,None,0.0199700474490826,[12400|0|0],start
6300,0.9920395016670228,-0.2118759155273437,0.0,-0.0790062248706817,0.0408963374793529,-0.0770142897963523,4.1015625,1,G1,0,None,None,0.0202336330848802,[12500|0|0],start
6400,0.9919212460517884,-0.2121886163949966,0.0,-0.0737587958574295,0.03672781214118,-0.0723088234663009,4.1015625,1,G1,0,None,None,0.0205679476420944,[12600|0|0],start
6500,0.9919607043266296,-0.2118784487247467,0.0,-0.0781088471412658,0.0419289097189903,-0.0650684237480163,4.10546875,1,G1,0,None,None,0.0208806150998218,[12700|0|0],start
6600,0.9918930530548096,-0.2121440470218658,0.0,-0.071108654141426,0.0478115826845169,-0.075431227684021,4.1015625,1,G1,0,None,None,0.0211546938294077,[12800|0|0],start
6700,0.9921898245811462,-0.2118054181337356,0.0,-0.0795405656099319,0.0345387607812881,-0.0902055129408836,4.1015625,1,G1,0,None,None,0.0216049635960149,[12900|0|0],start
6800,0.9919756054878236,-0.2119040787220001,0.0,-0.0766632109880447,0.0485754236578941,-0.0938207507133483,4.1015625,1,G1,0,None,None,0.0218408104353422,[13000|0|0],start
6900,0.9919692873954772,-0.2118859887123108,0.0,-0.0712836310267448,0.05052500218153,-0.0813060328364372,4.1015625,1,G1,0,None,None,0.0218599720308253,[13100|0|0],start
7000,0.9922353625297546,-0.2119699269533157,0.0,-0.0648053735494613,0.0359279587864875,-0.0779434069991111,4.1015625,1,G1,0,None,None,0.0221389731157403,[13200|0|0],start
7100,0.9919741749763488,-0.2118855118751526,0.0,-0.0635600462555885,0.0447668693959713,-0.0696084275841713,4.1015625,1,G1,0,None,None,0.0224134632676136,[13300|0|0],start
7200,0.9919092655181884,-0.2118637710809707,0.0,-0.0626743957400322,0.0504090785980224,-0.0813566893339157,4.1015625,1,G1,0,None,None,0.0224819169007556,[13400|0|0],start
7300,0.9917616844177246,-0.2120188325643539,0.0,-0.0585300363600254,0.0546606630086898,-0.0630136579275131,4.1015625,1,G1,0,None,None,0.0226959828832074,[13500|0|0],start
7400,0.99200701713562,-0.2115688472986221,0.0,-0.0703714415431022,0.052661694586277,-0.072956271469593,4.1015625,1,G1,0,None,None,0.0232085010602955,[13600|0|0],start
7500,0.9918264746665956,-0.2117378860712051,0.0,-0.0549113079905509,0.0609274171292781,-0.0671431273221969,4.1015625,1,G1,0,None,None,0.0234558261292994,[13700|0|0],start
7600,0.992033839225769,-0.212133303284645,0.0,-0.0459524132311344,0.0524070002138614,-0.0519991554319858,4.1015625,1,G1,0,None,None,0.0239023178236071,[13800|0|0],start
7700,0.992146134376526,-0.2119877934455871,0.0,-0.0503433756530284,0.0501544773578643,-0.0550461001694202,4.1015625,1,G1,0,None,None,0.0240861202015737,[13900|0|0],start
7800,0.9923378825187684,-0.2119186222553253,0.0,-0.0448414050042629,0.0529706068336963,-0.0473020002245903,4.1015625,1,G1,0,None,None,0.0242899632873423,[14000|0|0],start
7900,0.9849806427955629,-0.2215631306171417,0.0,0.1296674013137817,0.1808637231588363,-0.0036062451545149,4.1015625,1,G1,0,None,None,0.0364203185123908,[14100|0|0],start
8000,0.9849148392677308,-0.2215774208307266,0.0,0.1273976117372512,0.179536372423172,-0.0114406226202845,4.1015625,1,G1,0,None,None,0.0364876558310146,[14200|0|0],start
8100,0.9850729703903198,-0.2213662564754486,0.0,0.1237272173166275,0.1790697872638702,0.0029701893217861,4.1015625,1,G1,0,None,None,0.0367514660599126,[14300|0|0],start
8200,0.9846497178077698,-0.2210909873247146,0.0,0.1138639971613884,0.188413068652153,0.0009853785159066,4.1015625,1,G1,0,None,None,0.0372563579829824,[14400|0|0],start
8300,0.985115110874176,-0.2213152945041656,0.0,0.1217582300305366,0.18347829580307,-0.0133913019672036,4.1015625,1,G1,0,None,None,0.0377729859119722,[14500|0|0],start
8400,0.9848663806915284,-0.2212830185890197,0.0,0.1193423792719841,0.1880620270967483,-0.0413502342998981,4.1015625,1,G1,0,None,None,0.0380238014586562,[14600|0|0],start
8500,0.9844051599502563,-0.2210993319749832,0.0,0.0197705309838056,0.1264680176973343,-0.0286600459367036,4.1015625,1,G1,0,None,None,0.0385202542201107,[14700|0|0],start
8600,0.9847294092178344,-0.2213004827499389,0.0,0.0435646884143352,0.1349433809518814,-0.0228595547378063,4.1015625,1,G1,0,None,None,0.0389018288809441,[14800|0|0],start
8700,0.9845196008682252,-0.2214428782463073,0.0,0.076417826116085,0.1581960767507553,-0.0280161574482917,4.1015625,1,G1,0,None,None,0.0391553954815676,[14900|0|0],start
8800,0.9845614433288574,-0.2214099019765854,0.0,0.0959165170788765,0.1752423644065857,-0.0382811874151229,4.1015625,1,G1,0,None,None,0.0392086704839282,[15000|0|0],start
8900,0.9843452572822572,-0.2210747301578521,0.0,0.0971535742282867,0.1934316754341125,-0.0532274022698402,4.10546875,1,G1,0,None,None,0.0396075145070972,[15100|0|0],start
9000,0.9843479990959167,-0.2217239886522293,0.0,0.1292389035224914,0.1912989020347595,-0.0225866567343473,4.10546875,1,G1,0,None,None,0.0402567787907777,[15200|0|0],start
9100,0.9842965602874756,-0.2213346809148788,0.0,0.1180152967572212,0.187786266207695,-0.036853402853012,4.1015625,1,G1,0,None,None,0.0406494701013192,[15300|0|0],start
9200,0.9843048453330994,-0.2215192168951034,0.0,0.1180027276277542,0.1856547594070434,-0.0499275922775268,4.1015625,1,G1,0,None,None,0.0408341919732739,[15400|0|0],start
9301,0.9844211339950562,-0.2212133258581161,0.0,0.1075827926397323,0.1814120262861251,-0.0374044366180896,4.1015625,1,G1,0,None,None,0.0411614416935318,[15500|0|0],start
9401,0.9841724634170532,-0.2214576750993728,0.0,0.1102291345596313,0.1905923634767532,-0.0318266302347183,4.1015625,1,G1,0,None,None,0.0415100727421592,[15600|0|0],start
9501,0.9843466877937316,-0.2215908020734787,0.0,0.1055458635091781,0.1850533187389373,-0.0359569601714611,4.1015625,1,G1,0,None,None,0.041729337250604,[15700|0|0],start
9601,0.9845329523086548,-0.2215211987495422,0.0,0.1045045778155326,0.1792282313108444,-0.0251097325235605,4.1015625,1,G1,0,None,None,0.0419281816425858,[15800|0|0],start
9701,0.9843980073928832,-0.2212281376123428,0.0,0.0934081003069877,0.1816537678241729,-0.0278642568737268,4.1015625,1,G1,0,None,None,0.0422508191488203,[15900|0|0],start
9801,0.9844805002212524,-0.2213773131370544,0.0,0.0946260318160057,0.1754065752029419,-0.0079266689717769,4.1015625,1,G1,0,None,None,0.0424212844059999,[16000|0|0],start
9901,0.9846420884132384,-0.2217781245708465,0.0,0.1025753766298294,0.1757099032402038,-0.0035816270392388,4.1015625,1,G1,0,None,None,0.0428534424202121,[16100|0|0],start
10001,0.9845819473266602,-0.2213858217000961,0.0,0.087030604481697,0.1719497442245483,-0.0085960617288947,4.1015625,1,G1,0,None,None,0.0432503284147922,[16200|0|0],start
10102,0.984342634677887,-0.2215503007173538,0.0,0.0876962319016456,0.1659324914216995,-0.0201240815222263,4.1015625,1,G1,0,None,None,0.0435407141771513,[16300|0|0],start
10202,0.9846358299255372,-0.2214739322662353,0.0,0.0846238657832145,0.1645050793886184,-0.0379162319004535,4.1015625,1,G1,0,None,None,0.0438436920535234,[16400|0|0],start
10302,0.9843643307685852,-0.2212267220020294,0.0,0.0763012394309043,0.1688641607761383,-0.0443632826209068,4.1015625,1,G1,0,None,None,0.0442108768938347,[16500|0|0],start
10402,0.984450340270996,-0.2213808000087738,0.0,0.0787211954593658,0.1695372611284256,-0.0339120812714099,4.1015625,1,G1,0,None,None,0.0443873355764413,[16600|0|0],start
10500,0.984217882156372,-0.2213900536298751,0.0,0.0781605243682861,0.1717712879180908,-0.0602280832827091,4.1015625,1,G1,0,None,None,0.0446199778008075,[16700|0|0],start
10600,0.984697163105011,-0.2213426977396011,0.0,0.0771311372518539,0.1592692583799362,-0.065948337316513,4.1015625,1,G1,0,None,None,0.0451015925930139,[16800|0|0],start
10700,0.9847057461738586,-0.2216795086860656,0.0,0.0935442745685577,0.1640124320983886,-0.052344724535942,4.10546875,1,G1,0,None,None,0.0454385128843724,[16900|0|0],start
10800,0.9845110177993774,-0.2214914858341217,0.0,0.0871443748474121,0.1606005281209945,-0.0647370144724845,4.1015625,1,G1,0,None,None,0.04570920040289,[17000|0|0],start
10900,0.9844956994056702,-0.2215282618999481,0.0,0.0743391513824462,0.152515023946762,-0.0585023127496242,4.1015625,1,G1,0,None,None,0.0457490392307271,[17100|0|0],start
11000,0.9841428399086,-0.2211538553237915,0.0,0.0662486255168914,0.1629916131496429,-0.0597260408103466,4.1015625,1,G1,0,None,None,0.0462635196569262,[17200|0|0],start
11100,0.9842305183410645,-0.2213446795940399,0.0,0.0765299126505851,0.1630977988243103,-0.0447759814560413,4.1015625,1,G1,0,None,None,0.0464735230131738,[17300|0|0],start
11200,0.9848020076751708,-0.2217933088541031,0.0,0.0915073901414871,0.1546915620565414,-0.0531127862632274,4.1015625,1,G1,0,None,None,0.0472000684501439,[17400|0|0],start
11300,0.9847235679626464,-0.2213010787963867,0.0,0.0854010879993438,0.1632398962974548,-0.0630995035171508,4.1015625,1,G1,0,None,None,0.0476985092372194,[17500|0|0],start
11400,0.9846587777137756,-0.221410796046257,0.0,0.0926868319511413,0.1641595363616943,-0.0448888503015041,4.1015625,1,G1,0,None,None,0.0478259284322719,[17600|0|0],start
11500,0.984531819820404,-0.2218313962221145,0.0,0.1003781482577323,0.1595036387443542,-0.0173683241009712,4.1015625,1,G1,0,None,None,0.0482652720502075,[17700|0|0],start
11600,0.9848783016204834,-0.2213602811098098,0.0,0.1300542950630188,0.1925136893987655,-0.0464952401816844,4.1015625,1,G1,0,None,None,0.04885007893015,[17800|0|0],start
11700,0.9850906133651732,-0.2215294986963272,0.0,0.1649810820817947,0.2019543349742889,-0.0358924195170402,4.1015625,1,G1,0,None,None,0.0491215763859761,[17900|0|0],start
11800,0.9851362705230712,-0.2212488502264022,0.0,0.1845329254865646,0.2204447388648986,-0.0246655493974685,4.1015625,1,G1,0,None,None,0.049405914458943,[18000|0|0],start
11900,0.9851964712142944,-0.221566841006279,0.0,0.2094379216432571,0.2366807162761688,-0.0240474734455347,4.1015625,1,G1,0,None,None,0.0497295535469878,[18100|0|0],start
12000,0.9848626852035522,-0.2210807651281356,0.0,0.2052734643220901,0.25274857878685,-0.0329871959984302,4.1015625,1,G1,0,None,None,0.0503191999327819,[18200|0|0],start
12100,0.9846905469894408,-0.2213687449693679,0.0,0.2192207723855972,0.2620435059070587,-0.0450372174382209,4.1015625,1,G1,0,None,None,0.0506547054524289,[18300|0|0],start
12200,0.9851330518722534,-0.2212999165058136,0.0,0.2193013876676559,0.2458243668079376,-0.0322640277445316,4.1015625,1,G1,0,None,None,0.0511025312318435,[18400|0|0],start
12300,0.9851040244102478,-0.2216266840696334,0.0,0.2210148274898529,0.2399167865514755,-0.0430634580552578,4.1015625,1,G1,0,None,None,0.0514305855479486,[18500|0|0],start
12400,0.9847501516342164,-0.2210942208766937,0.0,0.211880475282669,0.2493653297424316,-0.0564217828214168,4.1015625,1,G1,0,None,None,0.052069915660998,[18600|0|0],start
12500,0.9848687052726746,-0.2216018140316009,0.0,0.2245549410581588,0.2395577430725097,-0.067092165350914,4.1015625,1,G1,0,None,None,0.0525911697028052,[18700|0|0],start
12600,0.9849523305892944,-0.2217336297035217,0.0,0.2262985855340957,0.2362147122621536,-0.0663293376564979,4.1015625,1,G1,0,None,None,0.0527472740427311,[18800|0|0],start
12700,0.9851765632629396,-0.2218390703201294,0.0,0.2262941598892212,0.2272829115390777,-0.0606228671967983,4.1015625,1,G1,0,None,None,0.0529950602722933,[18900|0|0],start
12800,0.98484206199646,-0.2213067859411239,0.0,0.2121425718069076,0.2326028048992157,-0.0628300830721855,4.1015625,1,G1,0,None,None,0.0536237237414162,[19000|0|0],start
12900,0.985161066055298,-0.2216227799654007,0.0,0.220211312174797,0.2314462512731552,-0.0744025111198425,4.1015625,1,G1,0,None,None,0.0540727402365851,[19100|0|0],start
13000,0.984813928604126,-0.2216113060712814,0.0,0.2170644849538803,0.2397292256355285,-0.0605181939899921,4.1015625,1,G1,0,None,None,0.0544200672586442,[19200|0|0],start
13100,0.9847318530082704,-0.2217335999011993,0.0,0.2152693122625351,0.2393137812614441,-0.0471610464155674,4.1015625,1,G1,0,None,None,0.054567349926569,[19300|0|0],start
13200,0.9847853183746338,-0.22122223675251,0.0,0.2091140449047088,0.2473344802856445,-0.0398731492459774,4.1015625,1,G1,0,None,None,0.0550815005029937,[19400|0|0],start
13300,0.9849416613578796,-0.2217214703559875,0.0,0.2160087674856186,0.2484706044197082,-0.0443831011652946,4.1015625,1,G1,0,None,None,0.0556046422803843,[19500|0|0],start
13400,0.9849098920822144,-0.2218149304389953,0.0,0.2110581696033477,0.2514114379882812,-0.0321653708815574,4.1015625,1,G1,0,None,None,0.0557033543566066,[19600|0|0],start
13500,0.9850873947143556,-0.2219198793172836,0.0,0.2069643288850784,0.248973086476326,-0.0366296805441379,4.1015625,1,G1,0,None,None,0.0559095616587834,[19700|0|0],start
13600,0.98485666513443,-0.2213450521230697,0.0,0.1960934996604919,0.2556614875793457,-0.0428490340709686,4.1015625,1,G1,0,None,None,0.0565289665685641,[19800|0|0],start
13700,0.9848966002464294,-0.2209904491901397,0.0,0.0425564423203468,0.1356869488954544,-0.0677149966359138,4.1015625,1,G1,0,None,None,0.0568858111470755,[19900|0|0],start
13800,0.9852411150932312,-0.2211131006479263,0.0,0.0720768198370933,0.14666149020195,-0.0719367489218711,4.1015625,1,G1,0,None,None,0.0572515075508916,[20000|0|0],start
13900,0.9852056503295898,-0.2211974561214447,0.0,0.0951701924204826,0.1588481068611145,-0.0621970742940902,4.1015625,1,G1,0,None,None,0.0573430149023594,[20100|0|0],start
14000,0.9851734042167664,-0.2213822603225708,0.0,0.1228948682546615,0.1779568344354629,-0.0578409060835838,4.1015625,1,G1,0,None,None,0.0575306112897075,[20200|0|0],start
14100,0.9847761392593384,-0.2213818132877349,0.0,0.1333100944757461,0.2010518759489059,-0.0613230876624584,4.1015625,1,G1,0,None,None,0.0579278764986554,[20300|0|0],start
14200,0.9847869277000428,-0.2210367023944854,0.0,0.1298252195119857,0.201933205127716,-0.072996437549591,4.1015625,1,G1,0,None,None,0.0582731559783415,[20400|0|0],start
14300,0.9848065376281738,-0.2212336808443069,0.0,0.1336707323789596,0.1959990411996841,-0.0586853772401809,4.1015625,1,G1,0,None,None,0.0584711081416926,[20500|0|0],start
14400,0.9848624467849731,-0.2214500159025192,0.0,0.137328639626503,0.1927368938922882,-0.0459568686783313,4.1015625,1,G1,0,None,None,0.0586945509559108,[20600|0|0],start
14500,0.9850839972496032,-0.2217091768980026,0.0,0.1308603435754776,0.1815586388111114,-0.0280233602970838,4.1015625,1,G1,0,None,None,0.0590355040757935,[20700|0|0],start
14600,0.9851487278938292,-0.2213048636913299,0.0,0.1208745464682579,0.1751615405082702,-0.0247423332184553,4.1015625,1,G1,0,None,None,0.0594449661929568,[20800|0|0],start
14700,0.9852882027626038,-0.2213535159826278,0.0,0.1253546476364135,0.1756969988346099,-0.0217277389019727,4.1015625,1,G1,0,None,None,0.0595926830994645,[20900|0|0],start
14800,0.9850634932518004,-0.2213002890348434,0.0,0.1174583733081817,0.1853358745574951,-0.0187859497964382,4.1015625,1,G1,0,None,None,0.0598236105171003,[21000|0|0],start
14900,0.9846670031547546,-0.221274048089981,0.0,0.1199567392468452,0.1868733614683151,-0.0356341153383255,4.1015625,1,G1,0,None,None,0.0602209680189077,[21100|0|0],start
15000,0.98494553565979,-0.2213537395000457,0.0,0.1212893351912498,0.1714440733194351,-0.0104144103825092,4.1015625,1,G1,0,None,None,0.0605106766263038,[21200|0|0],start
15100,0.9845684766769408,-0.2211523503065109,0.0,0.1227372139692306,0.1808933019638061,-0.0345033705234527,4.1015625,1,G1,0,None,None,0.0609381471911617,[21300|0|0],start
15200,0.984736979007721,-0.2212430834770202,0.0,0.1240437552332878,0.1653711199760437,-0.0321469642221927,4.1015625,1,G1,0,None,None,0.0611295252037676,[21400|0|0],start
15300,0.9848880171775818,-0.2214868813753128,0.0,0.1310279667377472,0.1622814387083053,-0.0254439692944288,4.1015625,1,G1,0,None,None,0.0614163177140722,[21500|0|0],start
15400,0.9850943088531494,-0.2213933914899826,0.0,0.1285767406225204,0.1525444239377975,-0.0140517558902502,4.1015625,1,G1,0,None,None,0.0616428052723785,[21600|0|0],start
15500,0.9848039150238036,-0.2212993502616882,0.0,0.1233951672911644,0.1517694592475891,-0.0400801450014114,4.1015625,1,G1,0,None,None,0.0619480466993527,[21700|0|0],start
15600,0.9851383566856384,-0.2215950191020965,0.0,0.1250463128089904,0.1436541229486465,-0.0201747510582208,4.1015625,1,G1,0,None,None,0.0623944448269913,[21800|0|0],start
15700,0.98499858379364,-0.2214641124010086,0.0,0.1165197938680648,0.1509122550487518,-0.0075691174715757,4.1015625,1,G1,0,None,None,0.0625859468523783,[21900|0|0],start
15800,0.9847614765167236,-0.221494436264038,0.0,0.1166306734085083,0.1555655300617218,-0.0148394657298922,4.1015625,1,G1,0,None,None,0.062824985337639,[22000|0|0],start
15900,0.9854217767715454,-0.2215315997600555,0.0,0.1240452751517295,0.1558458358049392,-0.0216895751655101,4.1015625,1,G1,0,None,None,0.0634863305969052,[22100|0|0],start
16000,0.9856663942337036,-0.2212820053100586,0.0,0.12094247341156,0.1445437669754028,-0.0419660992920398,4.1015625,1,G1,0,None,None,0.0638358089113426,[22200|0|0],start
16100,0.9857701063156128,-0.2213844507932663,0.0,0.1333185732364654,0.1465716063976287,-0.017704889178276,4.1015625,1,G1,0,None,None,0.0639815870748775,[22300|0|0],start
16200,0.9854243993759156,-0.2212474644184112,0.0,0.1195780113339424,0.156223863363266,-0.0189932826906442,4.1015625,1,G1,0,None,None,0.0643534453207867,[22400|0|0],start
16300,0.9854549765586852,-0.2213108390569687,0.0,0.1201891079545021,0.1550217121839523,-0.0567961819469928,4.1015625,1,G1,0,None,None,0.0644238108586473,[22500|0|0],start
16400,0.9850271344184875,-0.2213372141122818,0.0,0.0127046601846814,0.0964333266019821,-0.0509579740464687,4.1015625,1,G1,0,None,None,0.0648524651954639,[22600|0|0],start
16500,0.9849054217338562,-0.2212763130664825,0.0,0.0423881858587265,0.1245473027229309,-0.0440729968249797,4.1015625,1,G1,0,None,None,0.0649885641116228,[22700|0|0],start
16600,0.9850295782089232,-0.2215820699930191,0.0,0.0643758550286293,0.1268808394670486,-0.0474058575928211,4.1015625,1,G1,0,None,None,0.0653185673364952,[22800|0|0],start
16700,0.9854004979133606,-0.2214309722185135,0.0,0.0715619623661041,0.1337791085243225,-0.0399776734411716,4.1015625,1,G1,0,None,None,0.0657190819611975,[22900|0|0],start
16800,0.9848938584327698,-0.2212174236774444,0.0,0.0812113359570503,0.1646066009998321,-0.0543613210320472,4.1015625,1,G1,0,None,None,0.066268887874849,[23000|0|0],start
16900,0.985238552093506,-0.221228152513504,0.0,0.0915477648377418,0.1708756238222122,-0.0703681334853172,4.1015625,1,G1,0,None,None,0.0666137484665015,[23100|0|0],start
17000,0.9848741292953492,-0.2212621867656707,0.0,0.0962915867567062,0.1880390346050262,-0.0648896545171737,4.1015625,1,G1,0,None,None,0.0669797570813413,[23200|0|0],start
17100,0.9850289821624756,-0.2211818248033523,0.0,0.0956945493817329,0.1866020113229751,-0.0453580357134342,4.1015625,1,G1,0,None,None,0.0671542204168731,[23300|0|0],start
17200,0.9851415753364564,-0.2215475440025329,0.0,0.1118883490562439,0.1853473633527755,-0.042645439505577,4.1015625,1,G1,0,None,None,0.0675368792145982,[23400|0|0],start
17300,0.9847105145454408,-0.221199944615364,0.0,0.1008155569434166,0.1877042800188064,-0.0647476688027381,4.1015625,1,G1,0,None,None,0.0680906289229604,[23500|0|0],start
17400,0.9848394393920898,-0.2211834639310836,0.0,0.0997899994254112,0.1891538500785827,-0.0624080225825309,4.1015625,1,G1,0,None,None,0.0682206028781892,[23600|0|0],start
17500,0.9850690960884094,-0.2215522676706314,0.0,0.1086448282003402,0.1870097517967224,-0.0511017516255378,4.1015625,1,G1,0,None,None,0.0686550662212562,[23700|0|0],start
17600,0.9852073788642884,-0.2215948551893234,0.0,0.114494651556015,0.1839242875576019,-0.0465792268514633,4.1015625,1,G1,0,None,None,0.0687997583870881,[23800|0|0],start
17700,0.9849358797073364,-0.221215933561325,0.0,0.1011414155364036,0.1864809542894363,-0.0521826855838298,4.1015625,1,G1,0,None,None,0.0692659057805064,[23900|0|0],start
17800,0.9852900505065918,-0.2215100526809692,0.0,0.10874043405056,0.1811404824256897,-0.0647726133465766,4.1015625,1,G1,0,None,None,0.0697262784682122,[24000|0|0],start
17900,0.984872817993164,-0.2212127447128296,0.0,0.1045350804924964,0.189262643456459,-0.0732114166021347,4.1015625,1,G1,0,None,None,0.0702386016066518,[24100|0|0],start
18000,0.9851057529449464,-0.2217413336038589,0.0,0.1137191727757453,0.1829466521739959,-0.0382813028991222,4.1015625,1,G1,0,None,None,0.0708162389561034,[24200|0|0],start
18100,0.9851056933403016,-0.2213034778833389,0.0,0.1001925095915794,0.1822151988744735,-0.0534990839660167,4.1015625,1,G1,0,None,None,0.0712540946806804,[24300|0|0],start
18200,0.9851638674736024,-0.2213262468576431,0.0,0.0987380445003509,0.1790848821401596,-0.0386637076735496,4.1015625,1,G1,0,None,None,0.0713165659218731,[24400|0|0],start
18300,0.985096037387848,-0.2218268811702728,0.0,0.1055670529603958,0.18379607796669,-0.0576780959963798,4.1015625,1,G1,0,None,None,0.0718217744288439,[24500|0|0],start
18400,0.985247015953064,-0.2214985936880111,0.0,0.0885756909847259,0.1811490058898925,-0.0695419907569885,4.1015625,1,G1,0,None,None,0.0721831152626344,[24600|0|0],start
18500,0.9847624897956848,-0.2213776260614395,0.0,0.1040117889642715,0.1978127062320709,-0.0620978735387325,4.1015625,1,G1,0,None,None,0.0726825136645771,[24700|0|0],start
18600,0.9850256443023682,-0.2215843498706817,0.0,0.1059969514608383,0.1878919452428817,-0.0486979857087135,4.1015625,1,G1,0,None,None,0.0730171553052846,[24800|0|0],start
18700,0.9850823283195496,-0.2217670381069183,0.0,0.1069528758525848,0.1820579469203949,-0.0443002022802829,4.1015625,1,G1,0,None,None,0.0732084353864824,[24900|0|0],start
18800,0.9848784804344176,-0.2215123921632766,0.0,0.0947055071592331,0.1849926263093948,-0.0339690409600734,4.1015625,1,G1,0,None,None,0.0735346232416916,[25000|0|0],start
18900,0.984916925430298,-0.2214510440826416,0.0,0.0889329835772514,0.1724433749914169,-0.023255493491888,4.1015625,1,G1,0,None,None,0.0736070221692102,[25100|0|0],start
19000,0.9849472641944884,-0.2212158739566803,0.0,0.0848009884357452,0.1663228273391723,-0.0112386159598827,4.1015625,1,G1,0,None,None,0.0738441411873366,[25200|0|0],start
19100,0.9850074648857116,-0.2214559912681579,0.0,0.0962174907326698,0.1672863364219665,-0.0220877677202224,4.1015625,1,G1,0,None,None,0.0740916900643185,[25300|0|0],start
19200,0.9850158095359802,-0.2216176837682724,0.0,0.1035170704126358,0.1653381139039993,-0.0524955503642559,4.1015625,1,G1,0,None,None,0.0742535977472164,[25400|0|0],start
19300,0.9849499464035034,-0.2214945703744888,0.0,0.099177785217762,0.1717208474874496,-0.0600999109447002,4.1015625,1,G1,0,None,None,0.0743932217421047,[25500|0|0],start
19400,0.9849129915237428,-0.2216113060712814,0.0,0.1075133308768272,0.1649320274591446,-0.0525347366929054,4.1015625,1,G1,0,None,None,0.074515667183195,[25600|0|0],start
19500,0.9850376844406128,-0.2212633341550827,0.0,0.1024844422936439,0.1626797914505005,-0.0433321632444858,4.1015625,1,G1,0,None,None,0.0748853058959681,[25700|0|0],start
19600,0.9852966070175172,-0.2216157168149948,0.0,0.1092117354273796,0.15395088493824,-0.0405742488801479,4.1015625,1,G1,0,None,None,0.0753225866294077,[25800|0|0],start
19700,0.9849857091903688,-0.2215731590986251,0.0,0.1015114411711692,0.1602220386266708,-0.0485675744712352,4.1015625,1,G1,0,None,None,0.0756363837265075,[25900|0|0],start
19800,0.9849135875701904,-0.2213578224182129,0.0,0.0912103801965713,0.1609259247779846,-0.0378660447895526,4.1015625,1,G1,0,None,None,0.0758634771302604,[26000|0|0],start
19900,0.9850403070449828,-0.2214907854795456,0.0,0.0937302857637405,0.1667904406785965,-0.0255447570234537,4.1015625,1,G1,0,None,None,0.0760471534786851,[26100|0|0],start
20000,0.9848322868347168,-0.2213531136512756,0.0,0.086678072810173,0.1681180149316787,-0.0211793016642332,4.1015625,1,G1,0,None,None,0.0762966047568504,[26200|0|0],start
20100,0.9851565957069396,-0.2212994545698166,0.0,0.0831661373376846,0.1522326022386551,-0.0330473408102989,4.1015625,1,G1,0,None,None,0.0766253227843838,[26300|0|0],start
20200,0.9850316047668456,-0.221636414527893,0.0,0.0896734595298767,0.1515834778547287,-0.0572200715541839,4.1015625,1,G1,0,None,None,0.0769847177599364,[26400|0|0],start
20300,0.985141396522522,-0.2213509678840637,0.0,0.0893097519874572,0.14759361743927,-0.0379375182092189,4.1015625,1,G1,0,None,None,0.0772905510741582,[26500|0|0],start
20400,0.984876036643982,-0.2211242765188217,0.0,0.0843462646007537,0.1531150043010711,-0.0414079502224922,4.1015625,1,G1,0,None,None,0.0776395565758541,[26600|0|0],start
20500,0.9847705960273744,-0.2212978154420852,0.0,0.0845585614442825,0.1657081842422485,-0.0440261326730251,4.1015625,1,G1,0,None,None,0.0778426168662067,[26700|0|0],start
20600,0.9851011037826538,-0.2215937376022339,0.0,0.0933820903301239,0.1634310930967331,-0.0479002818465232,4.1015625,1,G1,0,None,None,0.0782862443012994,[26800|0|0],start
20700,0.9848632216453552,-0.2211837768554687,0.0,0.0817129388451576,0.1731851398944854,-0.0424144864082336,4.1015625,1,G1,0,None,None,0.0787602229138274,[26900|0|0],start
20800,0.9848834872245787,-0.2215592116117477,0.0,0.0918382629752159,0.1723719537258148,-0.0400919057428836,4.1015625,1,G1,0,None,None,0.0791362042297509,[27000|0|0],start
20900,0.984801173210144,-0.2212851196527481,0.0,0.0841213688254356,0.1823910027742386,-0.0537312217056751,4.1015625,1,G1,0,None,None,0.0794223894826214,[27100|0|0],start
21000,0.98519629240036,-0.2214683294296264,0.0,0.1005110293626785,0.1802173107862472,-0.0349275879561901,4.1015625,1,G1,0,None,None,0.0798579178936588,[27200|0|0],start
21100,0.9855115413665771,-0.2214961051940918,0.0,0.0888812839984893,0.1774471402168274,-0.021354166790843,4.1015625,1,G1,0,None,None,0.0801743881194188,[27300|0|0],start
21200,0.9853674173355104,-0.2213724851608276,0.0,0.0862951204180717,0.1808525472879409,-0.0327615402638912,4.1015625,1,G1,0,None,None,0.0803642661038066,[27400|0|0],start
21300,0.985789954662323,-0.2214522808790207,0.0,0.0917259007692337,0.1634732782840728,-0.016662610694766,4.1015625,1,G1,0,None,None,0.0807942720911974,[27500|0|0],start
21400,0.9854838252067566,-0.2211040705442428,0.0,0.0856591686606407,0.1723681837320327,-0.0351900048553943,4.1015625,1,G1,0,None,None,0.0812579160071626,[27600|0|0],start
21500,0.9856213927268982,-0.2212310135364532,0.0,0.0920763984322547,0.1675064265727996,-0.0415633767843246,4.1015625,1,G1,0,None,None,0.0814451040032233,[27700|0|0],start
21600,0.9853169322013856,-0.2212593406438827,0.0,0.1031900271773338,0.1826193630695343,-0.0445807166397571,4.1015625,1,G1,0,None,None,0.0817508794708637,[27800|0|0],start
21700,0.9851077795028688,-0.221611201763153,0.0,0.1086673736572265,0.1683464050292968,-0.0371652655303478,4.1015625,1,G1,0,None,None,0.0821602095315129,[27900|0|0],start
21800,0.9849135279655457,-0.2214603126049041,0.0,0.1050143763422966,0.1762193739414215,-0.0534121096134185,4.1015625,1,G1,0,None,None,0.0824061794439604,[28000|0|0],start
21900,0.9850327968597412,-0.221395343542099,0.0,0.1076835170388221,0.1767065972089767,-0.0473668277263641,4.1015625,1,G1,0,None,None,0.0825419956736401,[28100|0|0],start
22000,0.9850096702575684,-0.2211585491895675,0.0,0.1005804389715194,0.1770263612270355,-0.0627617388963699,4.1015625,1,G1,0,None,None,0.082779916679688,[28200|0|0],start
22100,0.9915801882743835,-0.2118187248706817,0.0,-0.0992258712649345,0.0239280834794044,-0.1003817990422248,4.1015625,1,G1,0,None,None,0.0941993748681024,[28300|0|0],start
22200,0.9916284680366516,-0.2118067145347595,0.0,-0.1015208661556243,0.0220960490405559,-0.0899700298905372,4.1015625,1,G1,0,None,None,0.0942491260853099,[28400|0|0],start
22300,0.991744875907898,-0.211585134267807,0.0,-0.1122736185789108,0.0223064143210649,-0.0796994715929031,4.1015625,1,G1,0,None,None,0.0944994231232285,[28500|0|0],start
22400,0.9917834401130676,-0.2116488516330719,0.0,-0.1123367547988891,0.0116100907325744,-0.074118971824646,4.1015625,1,G1,0,None,None,0.0945739019830255,[28600|0|0],start
22500,0.9918391108512878,-0.2118060439825058,0.0,-0.1070000007748603,0.01390309818089,-0.0510803423821926,4.1015625,1,G1,0,None,None,0.0947406612880569,[28700|0|0],start
22600,0.9916412234306335,-0.2117136418819427,0.0,-0.1039187163114547,0.0208126753568649,-0.0579937994480133,4.1015625,1,G1,0,None,None,0.0949590590431774,[28800|0|0],start
22700,0.9915764927864076,-0.2117167711257934,0.0,-0.0984892547130584,0.0217678807675838,-0.0563128590583801,4.1015625,1,G1,0,None,None,0.0950238652810638,[28900|0|0],start
22800,0.9915316700935364,-0.2117587774991989,0.0,-0.0968338027596473,0.0231903232634067,-0.0743522047996521,4.1015625,1,G1,0,None,None,0.0950852949905121,[29000|0|0],start
22900,0.9918617606163024,-0.2118187844753265,0.0,-0.0852118134498596,0.0222512688487768,-0.0797467157244682,4.1015625,1,G1,0,None,None,0.0954207954978201,[29100|0|0],start
23001,0.9916144013404846,-0.2117273360490799,0.0,-0.0902630165219307,0.0281727109104394,-0.0785103738307952,4.1015625,1,G1,0,None,None,0.0956845177494336,[29200|0|0],start
23101,0.991890549659729,-0.2116736769676208,0.0,-0.0915276780724525,0.0181355159729719,-0.0549313351511955,4.1015625,1,G1,0,None,None,0.0959658310822931,[29300|0|0],start
23201,0.9917845726013184,-0.2118412107229232,0.0,-0.0871129557490348,0.0159234032034873,-0.0490630492568016,4.1015625,1,G1,0,None,None,0.0961640700695663,[29400|0|0],start
23301,0.9914202094078064,-0.2121459245681762,0.0,-0.0812045931816101,0.0254160109907388,-0.0629348456859588,4.1015625,1,G1,0,None,None,0.0966390554001556,[29500|0|0],start
23401,0.9917703866958618,-0.2118158191442489,0.0,-0.0981572940945625,0.0173397120088338,-0.0550742261111736,4.1015625,1,G1,0,None,None,0.0971202972561658,[29600|0|0],start
23501,0.9917673468589784,-0.2118394821882248,0.0,-0.0992026999592781,0.0135283367708325,-0.0563513338565826,4.1015625,1,G1,0,None,None,0.0971441547551647,[29700|0|0],start
23601,0.991747796535492,-0.212010845541954,0.0,-0.0982584655284881,0.0080292802304029,-0.0684761404991149,4.1015625,1,G1,0,None,None,0.0973166297218982,[29800|0|0],start
23701,0.9918057322502136,-0.2121332436800003,0.0,-0.0972295477986335,0.0021017007529735,-0.0782580226659774,4.1015625,1,G1,0,None,None,0.0974520470444146,[29900|0|0],start
23801,0.9916043281555176,-0.2118947356939315,0.0,-0.0908729285001754,0.016272647306323,-0.051821481436491,4.1015625,1,G1,0,None,None,0.0977642163394757,[30000|0|0],start
23901,0.991847813129425,-0.2117320746183395,0.0,-0.0913716480135917,0.0120528182014822,-0.0715492591261863,4.1015625,1,G1,0,None,None,0.0980570363490916,[30100|0|0],start
24001,0.9920719265937804,-0.2118304818868637,0.0,-0.0911341905593872,0.0116153098642826,-0.0747158080339431,4.1015625,1,G1,0,None,None,0.0983018032492308,[30200|0|0],start
24101,0.991582453250885,-0.2119823992252349,0.0,-0.0863174349069595,0.0260744374245405,-0.1001276820898056,4.1015625,1,G1,0,None,None,0.0988143098648983,[30300|0|0],start
24201,0.9911940097808838,-0.2118848115205764,0.0,-0.0894378721714019,0.0368418768048286,-0.1054203957319259,4.1015625,1,G1,0,None,None,0.0992148241461507,[30400|0|0],start
24302,0.991657018661499,-0.2114854305982589,0.0,-0.0978888198733329,0.0304017830640077,-0.0767219513654708,4.1015625,1,G1,0,None,None,0.099826283339098,[30500|0|0],start
24402,0.9916651248931884,-0.211808830499649,0.0,-0.0892859771847724,0.032104767858982,-0.0753850787878036,4.1015625,1,G1,0,None,None,0.1001497848185557,[30600|0|0],start
24502,0.9918602108955384,-0.2118157297372818,0.0,-0.0903181880712509,0.0283136144280433,-0.0513758137822151,4.1015625,1,G1,0,None,None,0.1003449927789284,[30700|0|0],start
24602,0.99189031124115,-0.211754024028778,0.0,-0.0967726707458496,0.0253425110131502,-0.0730868577957153,4.1015625,1,G1,0,None,None,0.1004136486254958,[30800|0|0],start
24702,0.991663694381714,-0.2121482491493225,0.0,-0.0964962989091873,0.0251331962645053,-0.0699428841471672,4.1015625,1,G1,0,None,None,0.1008683668312551,[30900|0|0],start
24802,0.9920297861099244,-0.2123202085494995,0.0,-0.0902430340647697,0.0197896994650363,-0.0649682208895683,4.1015625,1,G1,0,None,None,0.1012728333796536,[31000|0|0],start
24902,0.991548240184784,-0.2115232646465301,0.0,-0.1097494214773178,0.0292493663728237,-0.0754179134964943,4.1015625,1,G1,0,None,None,0.1022039649828652,[31100|0|0],start
25002,0.9917877912521362,-0.2123939394950866,0.0,-0.0858678072690963,0.0266651846468448,-0.0555410794913768,4.1015625,1,G1,0,None,None,0.1031069928926102,[31200|0|0],start
25100,0.9915997982025146,-0.2120296657085418,0.0,-0.0962272137403488,0.0312175974249839,-0.0632226541638374,4.1015625,1,G1,0,None,None,0.1035169157856885,[31300|0|0],start
25200,0.9913697838783264,-0.2118539810180664,0.0,-0.1038567647337913,0.033024676144123,-0.0625620707869529,4.1015625,1,G1,0,None,None,0.1038063491973728,[31400|0|0],start
25300,0.9917035698890686,-0.2116276025772094,0.0,-0.1108911335468292,0.0189668945968151,-0.079893834888935,4.1015625,1,G1,0,None,None,0.1042096608627781,[31500|0|0],start
25400,0.9919541478157043,-0.2119389176368713,0.0,-0.10074333101511,0.0124139226973056,-0.0610099472105503,4.1015625,1,G1,0,None,None,0.1046092936488322,[31600|0|0],start
25500,0.991683542728424,-0.2115421295166015,0.0,-0.1109049096703529,0.0145485969260334,-0.0520524270832538,4.1015625,1,G1,0,None,None,0.1050895726569611,[31700|0|0],start
25600,0.9918419122695924,-0.2120606750249862,0.0,-0.1008937731385231,0.0037742441054433,-0.0452354550361633,4.1015625,1,G1,0,None,None,0.1056317629887044,[31800|0|0],start
25700,0.991623044013977,-0.2119081765413284,0.0,-0.1036537736654281,0.0100361937656998,-0.051349364221096,4.1015625,1,G1,0,None,None,0.1058985196209256,[31900|0|0],start
25800,0.9914947152137756,-0.2117781490087509,0.0,-0.1009133979678154,0.0162661187350749,-0.0769014433026313,4.1015625,1,G1,0,None,None,0.1060812090847415,[32000|0|0],start
25900,0.991774082183838,-0.2118886411190033,0.0,-0.0977412834763526,0.0142812523990869,-0.0581422746181488,4.1015625,1,G1,0,None,None,0.1063816328028296,[32100|0|0],start
26000,0.9917101860046388,-0.2120293080806732,0.0,-0.0971518978476524,0.0180939100682735,-0.0619682632386684,4.1015625,1,G1,0,None,None,0.1065361317213426,[32200|0|0],start
26100,0.9915581345558168,-0.2122632414102554,0.0,-0.0857285484671592,0.0230268817394971,-0.0786463692784309,4.1015625,1,G1,0,None,None,0.1068151378965042,[32300|0|0],start
26200,0.9918565154075624,-0.212036520242691,0.0,-0.0925347432494163,0.0171230174601078,-0.0667213201522827,4.1015625,1,G1,0,None,None,0.1071898826369746,[32400|0|0],start
26300,0.9918780326843262,-0.212031289935112,0.0,-0.0984595492482185,0.0147692710161209,-0.0765664055943489,4.1015625,1,G1,0,None,None,0.10721202646945,[32500|0|0],start
26400,0.991374135017395,-0.2116292715072631,0.0,-0.1015549376606941,0.0328005999326705,-0.0777299627661705,4.1015625,1,G1,0,None,None,0.1078566439335857,[32600|0|0],start
26500,0.9916711449623108,-0.2117179036140442,0.0,-0.0990440994501113,0.0328117422759532,-0.0994833707809448,4.1015625,1,G1,0,None,None,0.1081665964424179,[32700|0|0],start
26600,0.9917417168617249,-0.2121006548404693,0.0,-0.0880942493677139,0.0289949178695678,-0.0653856322169303,4.1015625,1,G1,0,None,None,0.1085557993384976,[32800|0|0],start
26700,0.9914904236793518,-0.212081104516983,0.0,-0.0914232432842254,0.0339035168290138,-0.0880830362439155,4.1015625,1,G1,0,None,None,0.1088078518700373,[32900|0|0],start
26800,0.9918525218963624,-0.2116709351539611,0.0,-0.1050957515835762,0.0254651997238397,-0.0922732725739479,4.1015625,1,G1,0,None,None,0.1093549844180767,[33000|0|0],start
26900,0.9918169975280762,-0.2120059132575988,0.0,-0.100005991756916,0.0238000638782978,-0.0746659561991691,4.1015625,1,G1,0,None,None,0.1096918409315343,[33100|0|0],start
27000,0.9915834665298462,-0.2121089696884155,0.0,-0.1047713831067085,0.0209729801863431,-0.0868484899401664,4.1015625,1,G1,0,None,None,0.1099471003193479,[33200|0|0],start
27100,0.991693377494812,-0.2119415253400802,0.0,-0.108939029276371,0.013956238515675,-0.0649033188819885,4.1015625,1,G1,0,None,None,0.1101473951770182,[33300|0|0],start
27200,0.991671085357666,-0.2117899060249328,0.0,-0.1166277676820755,0.0080818682909011,-0.0534714199602603,4.1015625,1,G1,0,None,None,0.1103006445036213,[33400|0|0],start
27300,0.9917608499526978,-0.2121492773294448,0.0,-0.1082415282726287,0.0102959116920828,-0.0521838068962097,4.1015625,1,G1,0,None,None,0.1106710569993984,[33500|0|0],start
27400,0.9917927384376526,-0.2116947919130325,0.0,-0.1160891279578208,0.0090268393978476,-0.0663528740406036,4.1015625,1,G1,0,None,None,0.111126659753126,[33600|0|0],start
27500,0.9920564889907836,-0.2118315994739532,0.0,-0.1065160632133483,0.0044215903617441,-0.0565702319145202,4.1015625,1,G1,0,None,None,0.1114237803734168,[33700|0|0],start
27600,0.991709530353546,-0.2117223292589187,0.0,-0.1040822491049766,0.007034745067358,-0.0478900410234928,4.1015625,1,G1,0,None,None,0.1117875389140003,[33800|0|0],start
27700,0.9914013147354126,-0.2116065025329589,0.0,-0.1009856387972831,0.0143416756764054,-0.0503474250435829,4.1015625,1,G1,0,None,None,0.1121167997493694,[33900|0|0],start
27800,0.9914696216583252,-0.2121887654066085,0.0,-0.0810073614120483,0.0140461595728993,-0.0656288117170333,4.09765625,1,G1,0,None,None,0.1127030555721537,[34000|0|0],start
27900,0.9919981956481934,-0.2120735049247741,0.0,-0.0767184719443321,0.0096737863495945,-0.0437330082058906,4.1015625,1,G1,0,None,None,0.113244050434826,[34100|0|0],start
28000,0.9915525913238524,-0.2116518169641494,0.0,-0.0862064287066459,0.0202011354267597,-0.0726133808493614,4.1015625,1,G1,0,None,None,0.1138575518203233,[34200|0|0],start
28100,0.9916542172431946,-0.2120472490787506,0.0,-0.0682673379778862,0.0282030329108238,-0.0660816803574562,4.1015625,1,G1,0,None,None,0.1142658340569442,[34300|0|0],start
28200,0.9915712475776672,-0.2121408432722091,0.0,-0.0686106011271476,0.0328761599957942,-0.0917841047048568,4.1015625,1,G1,0,None,None,0.1143909093880325,[34400|0|0],start
28300,0.9914618730545044,-0.2120124846696853,0.0,-0.0786097943782806,0.0266891662031412,-0.0880000218749046,4.1015625,1,G1,0,None,None,0.1145595472164073,[34500|0|0],start
28400,0.991747498512268,-0.2122340351343155,0.0,-0.073379248380661,0.0174618754535913,-0.0676441863179206,4.1015625,1,G1,0,None,None,0.1149210254460429,[34600|0|0],start
28500,0.9915513396263124,-0.2120828777551651,0.0,-0.0791643038392067,0.0277401953935623,-0.0542341917753219,4.1015625,1,G1,0,None,None,0.1151686680550806,[34700|0|0],start
28600,0.9918042421340942,-0.2119101583957672,0.0,-0.0863723829388618,0.0190572030842304,-0.0674884095788002,4.1015625,1,G1,0,None,None,0.1154749222886075,[34800|0|0],start
28700,0.9917592406272888,-0.2117760926485061,0.0,-0.0916250273585319,0.0238663926720619,-0.0630789175629615,4.1015625,1,G1,0,None,None,0.1156163392614341,[34900|0|0],start
28800,0.9917620420455932,-0.2115999907255172,0.0,-0.0915919840335846,0.0269489102065563,-0.0651771798729896,4.09765625,1,G1,0,None,None,0.1157924634654065,[35000|0|0],start
28900,0.9915987849235536,-0.2117615342140197,0.0,-0.1015796661376953,0.0184788405895233,-0.0906067863106727,4.1015625,1,G1,0,None,None,0.1160221353761274,[35100|0|0],start
29000,0.9918196797370912,-0.2121530175209045,0.0,-0.0876929759979248,0.0186108499765396,-0.0775404348969459,4.1015625,1,G1,0,None,None,0.1164716392117254,[35200|0|0],start
29100,0.9917868971824646,-0.2118199169635772,0.0,-0.096490778028965,0.0301307868212461,-0.0803458765149116,4.1015625,1,G1,0,None,None,0.1168063490520044,[35300|0|0],start
29200,0.9918938279151917,-0.2118565738201141,0.0,-0.0967210233211517,0.0315581709146499,-0.0995784327387809,4.1015625,1,G1,0,None,None,0.1169193884554561,[35400|0|0],start
29300,0.991813600063324,-0.2119044810533523,0.0,-0.1024337112903595,0.0335411839187145,-0.0851228833198547,4.1015625,1,G1,0,None,None,0.1170128315462218,[35500|0|0],start
29400,0.9917890429496764,-0.2119328826665878,0.0,-0.1032055169343948,0.0317860543727874,-0.0642383024096489,4.1015625,1,G1,0,None,None,0.1170503775641874,[35600|0|0],start
29500,0.99150949716568,-0.2121072709560394,0.0,-0.0942299738526344,0.035977866500616,-0.056855272501707,4.1015625,1,G1,0,None,None,0.1173798576407444,[35700|0|0],start
29600,0.9919005036354064,-0.2117245644330978,0.0,-0.0940091609954834,0.0375041700899601,-0.0654988288879394,4.1015625,1,G1,0,None,None,0.1179269868229947,[35800|0|0],start
29700,0.9919081926345824,-0.2119683772325515,0.0,-0.0864477008581161,0.0346149019896984,-0.0432934425771236,4.1015625,1,G1,0,None,None,0.1181709208343293,[35900|0|0],start
29800,0.9916660785675048,-0.211691677570343,0.0,-0.0970618352293968,0.0364156253635883,-0.0287476684898138,4.1015625,1,G1,0,None,None,0.1185385917803438,[36000|0|0],start
29900,0.991681694984436,-0.2119355350732803,0.0,-0.0973101034760475,0.0231474190950393,-0.0215339176356792,4.1015625,1,G1,0,None,None,0.1187829488023763,[36100|0|0],start
30000,0.992255449295044,-0.2122165560722351,0.0,-0.0955754667520523,0.0132071962580084,-0.0198749806731939,4.1015625,1,G1,0,None,None,0.1194218281421539,[36200|0|0],start
30100,0.9922040104866028,-0.2121220231056213,0.0,-0.102507896721363,0.0109185511246323,-0.0291467830538749,4.1015625,1,G1,0,None,None,0.1195294498536746,[36300|0|0],start
30200,0.9923444986343384,-0.2122023999691009,0.0,-0.0974233001470565,0.011184349656105,-0.0397517904639244,4.1015625,1,G1,0,None,None,0.1196913058385408,[36400|0|0],start
30300,0.9919685125350952,-0.212191566824913,0.0,-0.0970725938677787,0.0213151052594184,-0.0509269498288631,4.1015625,1,G1,0,None,None,0.1200674479710347,[36500|0|0],start
30400,0.9919187426567078,-0.2120518982410431,0.0,-0.1058500632643699,0.0177929308265447,-0.0526483170688152,4.1015625,1,G1,0,None,None,0.1202157191891282,[36600|0|0],start
30500,0.9919984340667723,-0.2125591784715652,0.0,-0.0997232496738433,0.0094151888042688,-0.0767857208847999,4.1015625,1,G1,0,None,None,0.120729220847467,[36700|0|0],start
30600,0.992010235786438,-0.2118374109268188,0.0,-0.1148458197712898,0.0154422782361507,-0.0733575969934463,4.1015625,1,G1,0,None,None,0.1214510848715299,[36800|0|0],start
30700,0.992334008216858,-0.2123520076274871,0.0,-0.1056816205382347,0.0038205427117645,-0.0619549080729484,4.1015625,1,G1,0,None,None,0.1220590637782683,[36900|0|0],start
30800,0.9917539954185486,-0.2120416760444641,0.0,-0.1158054769039154,0.0236748717725276,-0.0607558153569698,4.1015625,1,G1,0,None,None,0.1227168787504484,[37000|0|0],start
30900,0.9919283986091614,-0.2122367322444915,0.0,-0.1048492640256881,0.0288669727742671,-0.0670571774244308,4.1015625,1,G1,0,None,None,0.1229785338556251,[37100|0|0],start
31000,0.9920569062232972,-0.2120934426784515,0.0,-0.1025471612811088,0.0251969099044799,-0.0709386616945266,4.1015625,1,G1,0,None,None,0.1231710075073981,[37200|0|0],start
31100,0.9921175241470336,-0.2120202481746673,0.0,-0.1079709455370903,0.0185649022459983,-0.0556903332471847,4.1015625,1,G1,0,None,None,0.1232660441743342,[37300|0|0],start
31200,0.9920923113822936,-0.2123313844203949,0.0,-0.0972818508744239,0.017576927319169,-0.0828287526965141,4.1015625,1,G1,0,None,None,0.1235782003001932,[37400|0|0],start
31300,0.9920415282249452,-0.2122018188238144,0.0,-0.1035908460617065,0.0205728281289339,-0.0834574401378631,4.09765625,1,G1,0,None,None,0.1237173626977276,[37500|0|0],start
31400,0.9922524690628052,-0.2122315615415573,0.0,-0.1003477200865745,0.0069523816928267,-0.0644360333681106,4.1015625,1,G1,0,None,None,0.1239303900817321,[37600|0|0],start
31500,0.9919121265411376,-0.2122223824262619,0.0,-0.1039810553193092,0.016086159273982,-0.068070538341999,4.1015625,1,G1,0,None,None,0.1242708563623131,[37700|0|0],start
31600,0.9924336671829224,-0.2120938003063202,0.0,-0.1234729886054992,-0.0136606339365243,-0.0585131607949733,4.1015625,1,G1,0,None,None,0.1248080136973668,[37800|0|0],start
31700,0.992239236831665,-0.2120707780122757,0.0,-0.1226652264595031,-0.0048974188975989,-0.0566212311387062,4.1015625,1,G1,0,None,None,0.1250038023270498,[37900|0|0],start
31800,0.992346465587616,-0.2122242450714111,0.0,-0.1130427494645118,-0.0022546569816768,-0.0769420936703682,4.1015625,1,G1,0,None,None,0.125191019164814,[38000|0|0],start
31900,0.9922771453857422,-0.2121158242225647,0.0,-0.1196283176541328,0.0001366132491966,-0.0584728866815567,4.1015625,1,G1,0,None,None,0.1253197062692666,[38100|0|0],start
32000,0.9922218918800354,-0.2119570672512054,0.0,-0.1217388287186622,0.0050675482489168,-0.0456331111490726,4.1015625,1,G1,0,None,None,0.1254878036394069,[38200|0|0],start
32100,0.9921497702598572,-0.211978793144226,0.0,-0.1138934940099716,0.0132252108305692,-0.0524580925703048,4.1015625,1,G1,0,None,None,0.1255631265610488,[38300|0|0],start
32200,0.9920377731323242,-0.2121084630489349,0.0,-0.111745573580265,0.0085877934470772,-0.0539343953132629,4.1015625,1,G1,0,None,None,0.1257344672764753,[38400|0|0],start
32300,0.9918607473373412,-0.2123008072376251,0.0,-0.1022205725312233,0.008799972012639,-0.0306710228323936,4.09765625,1,G1,0,None,None,0.1259958758054338,[38500|0|0],start
32400,0.9920875430107116,-0.2120632529258728,0.0,-0.1110404729843139,4.186993101029657e-05,-0.0578458495438098,4.1015625,1,G1,0,None,None,0.1263243089470191,[38600|0|0],start
32500,0.9922319650650024,-0.2122695744037628,0.0,-0.1060230582952499,-0.0059926873072981,-0.0566928163170814,4.1015625,1,G1,0,None,None,0.1265761546974385,[38700|0|0],start
32600,0.991991639137268,-0.2120386511087417,0.0,-0.1060226485133171,0.000629280693829,-0.0433208346366882,4.1015625,1,G1,0,None,None,0.1269094445408554,[38800|0|0],start
32700,0.992182433605194,-0.2123928517103195,0.0,-0.0899940803647041,-0.0072012427262961,-0.0535001568496227,4.1015625,1,G1,0,None,None,0.1273117635624654,[38900|0|0],start
32800,0.9919776320457458,-0.211985558271408,0.0,-0.1053601205348968,0.0041640717536211,-0.0586001574993133,4.09765625,1,G1,0,None,None,0.1277676491008769,[39000|0|0],start
32900,0.9923464059829712,-0.2121091485023498,0.0,-0.0954025313258171,-0.0051382360979914,-0.0550317727029323,4.1015625,1,G1,0,None,None,0.128156581951072,[39100|0|0],start
33000,0.9921832084655762,-0.211944118142128,0.0,-0.1009877324104309,0.0045673106797039,-0.0716764479875564,4.1015625,1,G1,0,None,None,0.1283886777275929,[39200|0|0],start
33100,0.9917952418327332,-0.2122483849525451,0.0,-0.0927380472421646,0.0214246045798063,-0.0841619595885276,4.1015625,1,G1,0,None,None,0.1288817257983943,[39300|0|0],start
33200,0.992074489593506,-0.2121207565069198,0.0,-0.0951423645019531,0.0086572328582406,-0.0696716532111167,4.1015625,1,G1,0,None,None,0.1291887572821697,[39400|0|0],start
33300,0.9922035932540894,-0.2122627049684524,0.0,-0.0905654802918434,0.0111338766291737,-0.0425269491970539,4.1015625,1,G1,0,None,None,0.1293806351623631,[39500|0|0],start
33400,0.9919989705085754,-0.2120774239301681,0.0,-0.0976267009973526,0.0237905215471982,-0.0545015707612037,4.1015625,1,G1,0,None,None,0.1296566777879291,[39600|0|0],start
33500,0.991744577884674,-0.2121736407279968,0.0,-0.0958505272865295,0.0283654537051916,-0.0618372932076454,4.1015625,1,G1,0,None,None,0.129928658080009,[39700|0|0],start
33600,0.99188494682312,-0.2121827900409698,0.0,-0.0946060791611671,0.0216061081737279,-0.0769116580486297,4.1015625,1,G1,0,None,None,0.1300693248806706,[39800|0|0],start
33700,0.991849720478058,-0.2121885269880294,0.0,-0.092715784907341,0.0263671316206455,-0.0727583020925521,4.1015625,1,G1,0,None,None,0.1301050153268431,[39900|0|0],start
33800,0.9917051196098328,-0.2120510637760162,0.0,-0.0987164974212646,0.0285286121070384,-0.0913783013820648,4.09765625,1,G1,0,None,None,0.1303045285989542,[40000|0|0],start
33900,0.9919658303260804,-0.2122590094804763,0.0,-0.0950068160891532,0.0216119680553674,-0.1012975424528122,4.1015625,1,G1,0,None,None,0.1306380124719822,[40100|0|0],start
34000,0.9919475317001344,-0.2119705975055694,0.0,-0.1013509109616279,0.0263146199285984,-0.0997711345553398,4.1015625,1,G1,0,None,None,0.1309270043524585,[40200|0|0],start
34100,0.9922086596488952,-0.2120479494333267,0.0,-0.0980875864624977,0.0193874277174472,-0.0889884158968925,4.1015625,1,G1,0,None,None,0.1311993481174904,[40300|0|0],start
34200,0.9920120239257812,-0.2122146189212799,0.0,-0.083577811717987,0.0295427702367305,-0.0783358290791511,4.1015625,1,G1,0,None,None,0.1314571160864452,[40400|0|0],start
34300,0.9920746088027954,-0.2120181173086166,0.0,-0.0895434319972992,0.0250143520534038,-0.0782613530755043,4.09765625,1,G1,0,None,None,0.1316633435109313,[40500|0|0],start
34400,0.99206805229187,-0.2122306078672409,0.0,-0.084308847784996,0.0189345721155405,-0.0518240630626678,4.1015625,1,G1,0,None,None,0.1318759351978336,[40600|0|0],start
34500,0.99195396900177,-0.2122166156768798,0.0,-0.0902824997901916,0.0113877588883042,-0.0753445327281951,4.1015625,1,G1,0,None,None,0.1319908733484675,[40700|0|0],start
34600,0.9921206831932068,-0.2121473252773285,0.0,-0.0994476675987243,0.0038510388694703,-0.0844586491584777,4.1015625,1,G1,0,None,None,0.1321714135963249,[40800|0|0],start
34700,0.99169921875,-0.2119682729244232,0.0,-0.1020442023873329,0.019295934587717,-0.0845344960689544,4.1015625,1,G1,0,None,None,0.1326293350109459,[40900|0|0],start
34800,0.9923123717308044,-0.2121700793504715,0.0,-0.0850599706172943,0.0173534993082284,-0.0783566311001777,4.09765625,1,G1,0,None,None,0.133274844431066,[41000|0|0],start
34900,0.992058515548706,-0.2118609696626663,0.0,-0.1137825399637222,0.0159020386636257,-0.0569823756814003,4.1015625,1,G1,0,None,None,0.1336748341312892,[41100|0|0],start
