time.ms,stateEstimate.x,stateEstimate.y,stateEstimate.z,stabilizer.roll,stabilizer.pitch,stabilizer.yaw,pm.vbat,drone_id,node_name,wind_speed,global_wind_direction,relative_wind_direction,travel_dist,waiting_time,curr_node_role
0,1.697417378425598,1.165048360824585,0.0,-0.3673423230648041,0.7636241912841797,-11.309514045715332,4.1484375,0,C1,0,None,None,0.0,[6200|0|0],start
100,1.6968330144882202,1.164923071861267,0.0,-0.35176882147789,0.7811732292175293,-11.321598052978516,4.1484375,0,C1,0,None,None,0.0005976441546914,[6300|0|0],start
200,1.6973190307617188,1.165381908416748,0.0,-0.3613055348396301,0.7672897577285767,-11.312875747680664,4.1484375,0,C1,0,None,None,0.0012660323672977,[6400|0|0],start
300,1.6973204612731934,1.16506826877594,0.0,-0.3460777401924133,0.7624275088310242,-11.281219482421877,4.1484375,0,C1,0,None,None,0.0015796752703727,[6500|0|0],start
400,1.6970617771148682,1.1652451753616333,0.0,-0.4083410501480102,0.7411696314811707,-11.262977600097656,4.1484375,0,C1,0,None,None,0.0018930654964968,[6600|0|0],start
500,1.696854591369629,1.1652767658233645,0.0,-0.4021827578544616,0.7468926310539246,-11.296631813049316,4.1484375,0,C1,0,None,None,0.002102645768237,[6700|0|0],start
600,1.6973291635513306,1.1652227640151978,0.0,-0.396387904882431,0.7394461035728455,-11.26911163330078,4.1484375,0,C1,0,None,None,0.002580280514597,[6800|0|0],start
700,1.6968727111816406,1.165125846862793,0.0,-0.3901433944702148,0.7583866715431213,-11.297126770019531,4.1484375,0,C1,0,None,None,0.0030469085251427,[6900|0|0],start
800,1.6969648599624634,1.1651116609573364,0.0,-0.3903982639312744,0.7553252577781677,-11.280640602111816,4.1484375,0,C1,0,None,None,0.0031401428413612,[7000|0|0],start
900,1.6970839500427246,1.1650229692459106,0.0,-0.3865306079387665,0.744475245475769,-11.304936408996582,4.1484375,0,C1,0,None,None,0.0032886307765353,[7100|0|0],start
1000,1.6972655057907104,1.1651277542114258,0.0,-0.3799988031387329,0.7381120920181274,-11.298527717590332,4.1484375,0,C1,0,None,None,0.0034982551516082,[7200|0|0],start
1100,1.6969101428985596,1.1650371551513672,0.0,-0.3638249337673187,0.7516761422157288,-11.301969528198242,4.1484375,0,C1,0,None,None,0.0038649852632726,[7300|0|0],start
1200,1.6973294019699097,1.165249586105347,0.0,-0.3695947825908661,0.7489192485809326,-11.279521942138672,4.15234375,0,C1,0,None,None,0.0043349906665586,[7400|0|0],start
1300,1.6965599060058594,1.164789795875549,0.0,-0.351289838552475,0.7653748989105225,-11.278377532958984,4.15234375,0,C1,0,None,None,0.0052313896257878,[7500|0|0],start
1400,1.6969003677368164,1.165143609046936,0.0,-0.3652144074440002,0.7595404982566833,-11.297122955322266,4.1484375,0,C1,0,None,None,0.0057224068866791,[7600|0|0],start
1500,1.696900486946106,1.164944052696228,0.0,-0.3539531230926513,0.7627273201942444,-11.292720794677734,4.1484375,0,C1,0,None,None,0.0059219632729932,[7700|0|0],start
1600,1.6968764066696167,1.165026068687439,0.0,-0.3529524505138397,0.7614731788635254,-11.281906127929688,4.1484375,0,C1,0,None,None,0.0060074412381662,[7800|0|0],start
1700,1.6970057487487793,1.1646220684051514,0.0,-0.3361818492412567,0.7592290639877319,-11.276525497436523,4.1484375,0,C1,0,None,None,0.0064316411928226,[7900|0|0],start
1800,1.697155237197876,1.1646528244018557,0.0,-0.3537219166755676,0.7688444256782532,-11.282657623291016,4.1484375,0,C1,0,None,None,0.0065842607451304,[8000|0|0],start
1900,1.696826696395874,1.165187120437622,0.0,-0.3685319125652313,0.7802081108093262,-11.26857566833496,4.1484375,0,C1,0,None,None,0.0072114858342457,[8100|0|0],start
2000,1.6973981857299805,1.16493558883667,0.0,-0.3554899990558624,0.7702466249465942,-11.272143363952637,4.1484375,0,C1,0,None,None,0.0078358801049393,[8200|0|0],start
2100,1.697433352470398,1.1652007102966309,0.0,-0.3543764352798462,0.7791560888290405,-11.269129753112791,4.15234375,0,C1,0,None,None,0.0081033237217325,[8300|0|0],start
2200,1.6968530416488647,1.165226697921753,0.0,-0.3422115743160248,0.7950016856193542,-11.258770942687988,4.1484375,0,C1,0,None,None,0.0086842161440002,[8400|0|0],start
2300,1.6973702907562256,1.165111064910889,0.0,-0.3378454148769378,0.7819226980209351,-11.231678009033203,4.1484375,0,C1,0,None,None,0.0092142327779533,[8500|0|0],start
2400,1.6972815990447998,1.1646941900253296,0.0,-0.3283931016921997,0.779630184173584,-11.265264511108398,4.1484375,0,C1,0,None,None,0.009640437998341,[8600|0|0],start
2500,1.6970237493515017,1.1646316051483154,0.0,-0.3342234492301941,0.791040301322937,-11.30057430267334,4.1484375,0,C1,0,None,None,0.0099057742588951,[8700|0|0],start
2600,1.696989893913269,1.1649171113967896,0.0,-0.3462065160274505,0.8014726042747498,-11.285195350646973,4.1484375,0,C1,0,None,None,0.0101932807955437,[8800|0|0],start
2700,1.6976194381713867,1.1649703979492188,0.0,-0.3538287580013275,0.7888166308403015,-11.273942947387695,4.1484375,0,C1,0,None,None,0.0108250761972354,[8900|0|0],start
2800,1.6970003843307495,1.1649833917617798,0.0,-0.3497684895992279,0.8000730276107788,-11.302813529968262,4.1484375,0,C1,0,None,None,0.01144426639158,[9000|0|0],start
2900,1.6972987651824951,1.1652923822402954,0.0,-0.3560851514339447,0.7903074026107788,-11.315654754638672,4.1484375,0,C1,0,None,None,0.0118738082969883,[9100|0|0],start
3000,1.697309970855713,1.1650875806808472,0.0,-0.3485127687454223,0.7875564098358154,-11.313712120056152,4.1484375,0,C1,0,None,None,0.0120789161853414,[9200|0|0],start
3100,1.697379469871521,1.1650722026824951,0.0,-0.3483210802078247,0.7830988764762878,-11.30049991607666,4.1484375,0,C1,0,None,None,0.0121500962108515,[9300|0|0],start
3200,1.697394609451294,1.1650573015213013,0.0,-0.3442762792110443,0.7788122892379761,-11.291335105895996,4.1484375,0,C1,0,None,None,0.012171338891488,[9400|0|0],start
3300,1.6969248056411743,1.165165662765503,0.0,-0.4176789224147796,0.7548840045928955,-11.311670303344728,4.1484375,0,C1,0,None,None,0.0126534776466694,[9500|0|0],start
3400,1.6968244314193726,1.164815068244934,0.0,-0.3913622200489044,0.7586773633956909,-11.302083015441896,4.1484375,0,C1,0,None,None,0.0130181576464709,[9600|0|0],start
3500,1.696971774101257,1.165067195892334,0.0,-0.3858263492584228,0.756446361541748,-11.301983833312988,4.1484375,0,C1,0,None,None,0.0133101819887582,[9700|0|0],start
3600,1.6970008611679075,1.165225386619568,0.0,-0.3904726207256317,0.7625998258590698,-11.28112506866455,4.1484375,0,C1,0,None,None,0.0134710246560738,[9800|0|0],start
3700,1.6969252824783323,1.1651469469070437,0.0,-0.3890143632888794,0.771579921245575,-11.285164833068848,4.1484375,0,C1,0,None,None,0.0135799509009315,[9900|0|0],start
3800,1.6971460580825806,1.164847731590271,0.0,-0.3846699595451355,0.7677924036979675,-11.30869197845459,4.1484375,0,C1,0,None,None,0.0139517998934306,[10000|0|0],start
3900,1.6966426372528076,1.1650686264038086,0.0,-0.3809165060520172,0.7802724838256836,-11.299622535705566,4.1484375,0,C1,0,None,None,0.0145015517015196,[10100|0|0],start
4000,1.6969711780548096,1.1652915477752686,0.0,-0.3981748223304748,0.7733993530273438,-11.32791233062744,4.1484375,0,C1,0,None,None,0.014898581922578,[10200|0|0],start
4100,1.6971935033798218,1.1653698682785034,0.0,-0.4042388200759887,0.7681950926780701,-11.316984176635742,4.1484375,0,C1,0,None,None,0.0151342992349857,[10300|0|0],start
4200,1.697040557861328,1.1648880243301392,0.0,-0.3883601427078247,0.7667887806892395,-11.318809509277344,4.1484375,0,C1,0,None,None,0.0156398345178322,[10400|0|0],start
4300,1.696691870689392,1.1650331020355225,0.0,-0.3873390257358551,0.7715590596199036,-11.33776569366455,4.1484375,0,C1,0,None,None,0.0160174987661691,[10500|0|0],start
4400,1.6971112489700315,1.1648728847503662,0.0,-0.3949763476848602,0.7650328874588013,-11.368999481201172,4.1484375,0,C1,0,None,None,0.0164664394312184,[10600|0|0],start
4500,1.697064757347107,1.1644618511199951,0.0,-0.3696466982364654,0.7694233059883118,-11.317620277404783,4.1484375,0,C1,0,None,None,0.0168800940169517,[10700|0|0],start
4600,1.6970834732055664,1.164344310760498,0.0,-0.3592097163200378,0.780368447303772,-11.322261810302734,4.1484375,0,C1,0,None,None,0.0169991151052872,[10800|0|0],start
4700,1.6972436904907229,1.1644747257232666,0.0,-0.3622587919235229,0.7731968760490417,-11.282638549804688,4.1484375,0,C1,0,None,None,0.0172057007799523,[10900|0|0],start
4800,1.6972448825836182,1.1647236347198486,0.0,-0.3603870868682861,0.7729752063751221,-11.266327857971191,4.1484375,0,C1,0,None,None,0.0174546126311466,[11000|0|0],start
4900,1.6973479986190796,1.164620876312256,0.0,-0.362321138381958,0.7644444704055786,-11.274789810180664,4.1484375,0,C1,0,None,None,0.0176001880655448,[11100|0|0],start
5000,1.6969997882843018,1.1642216444015503,0.0,-0.3439508974552154,0.7700876593589783,-11.272665023803713,4.1484375,0,C1,0,None,None,0.0181299394749548,[11200|0|0],start
5100,1.6972923278808594,1.1647096872329712,0.0,-0.3652025461196899,0.7665574550628662,-11.280303955078123,4.1484375,0,C1,0,None,None,0.0186989431839545,[11300|0|0],start
5200,1.6969351768493652,1.164156794548035,0.0,-0.3546026349067688,0.772527277469635,-11.286462783813477,4.1484375,0,C1,0,None,None,0.0193571583314203,[11400|0|0],start
5300,1.6971219778060913,1.164433836936951,0.0,-0.3647856414318084,0.7720581889152527,-11.281152725219728,4.1484375,0,C1,0,None,None,0.0196912946549322,[11500|0|0],start
5400,1.6970736980438232,1.164810061454773,0.0,-0.3773858845233917,0.7812790274620056,-11.309921264648438,4.1484375,0,C1,0,None,None,0.0200706043216362,[11600|0|0],start
5500,1.697213888168335,1.164847731590271,0.0,-0.385552316904068,0.7742728590965271,-11.30336570739746,4.1484375,0,C1,0,None,None,0.0202157673683081,[11700|0|0],start
5600,1.6972633600234983,1.1646734476089478,0.0,-0.3754765689373016,0.7637057304382324,-11.280485153198242,4.1484375,0,C1,0,None,None,0.020396936821029,[11800|0|0],start
5700,1.6968762874603271,1.1649295091629028,0.0,-0.3845953643321991,0.760278046131134,-11.283284187316896,4.1484375,0,C1,0,None,None,0.0208610409996072,[11900|0|0],start
5800,1.6973280906677246,1.164668083190918,0.0,-0.3675630986690521,0.756313681602478,-11.2937593460083,4.1484375,0,C1,0,None,None,0.0213830272801193,[12000|0|0],start
5900,1.6968344449996948,1.165481686592102,0.0,-0.4462248980998993,0.7441694140434265,-11.289230346679688,4.1484375,0,C1,0,None,None,0.0223346766588208,[12100|0|0],start
6000,1.697539448738098,1.1652742624282837,0.0,-0.4251675307750702,0.7362974286079407,-11.283750534057615,4.1484375,0,C1,0,None,None,0.0230695610408144,[12200|0|0],start
6100,1.697161316871643,1.1650432348251345,0.0,-0.4076121747493744,0.7545188069343567,-11.274500846862791,4.1484375,0,C1,0,None,None,0.0235126834413376,[12300|0|0],start
6200,1.6970423460006714,1.1643890142440796,0.0,-0.3920847177505493,0.7654505968093872,-11.276751518249512,4.1484375,0,C1,0,None,None,0.0241776335423344,[12400|0|0],start
6300,1.6970257759094238,1.164616346359253,0.0,-0.3906112015247345,0.7658243775367737,-11.291544914245604,4.1484375,0,C1,0,None,None,0.0244055687491655,[12500|0|0],start
6400,1.6969200372695925,1.1643149852752686,0.0,-0.3612763285636902,0.767599880695343,-11.270029067993164,4.1484375,0,C1,0,None,None,0.0247249418270753,[12600|0|0],start
6500,1.6970323324203491,1.1646316051483154,0.0,-0.3648498356342315,0.7668917179107666,-11.277613639831545,4.1484375,0,C1,0,None,None,0.0250608857880147,[12700|0|0],start
6600,1.6970499753952026,1.1642996072769165,0.0,-0.3499370813369751,0.772270679473877,-11.292799949645996,4.1484375,0,C1,0,None,None,0.0253933521189042,[12800|0|0],start
6700,1.6973800659179688,1.1645978689193726,0.0,-0.3550449311733246,0.767759382724762,-11.313255310058594,4.1484375,0,C1,0,None,None,0.025838233856651,[12900|0|0],start
6800,1.6968492269515991,1.1645143032073977,0.0,-0.3408229351043701,0.7773594260215759,-11.329172134399414,4.1484375,0,C1,0,None,None,0.0263756101088563,[13000|0|0],start
6900,1.6969863176345823,1.1646140813827517,0.0,-0.3461623191833496,0.767866849899292,-11.321084022521973,4.1484375,0,C1,0,None,None,0.0265451670008948,[13100|0|0],start
7000,1.6972203254699707,1.165124773979187,0.0,-0.3666296601295471,0.7661901712417603,-11.300215721130373,4.1484375,0,C1,0,None,None,0.0271069201451469,[13200|0|0],start
7100,1.6971043348312378,1.1650463342666626,0.0,-0.3551866114139557,0.7783419489860535,-11.327054977416992,4.1484375,0,C1,0,None,None,0.0272469437744906,[13300|0|0],start
7200,1.6970504522323608,1.164907932281494,0.0,-0.3484067320823669,0.7805132269859314,-11.336159706115724,4.1484375,0,C1,0,None,None,0.0273954646281117,[13400|0|0],start
7300,1.696715235710144,1.164926528930664,0.0,-0.3470551669597626,0.7956910133361816,-11.333569526672363,4.1484375,0,C1,0,None,None,0.0277311965928209,[13500|0|0],start
7400,1.6969462633132937,1.1656115055084229,0.0,-0.4230497479438782,0.7648226618766785,-11.3419771194458,4.1484375,0,C1,0,None,None,0.0284540843195774,[13600|0|0],start
7500,1.6970062255859375,1.1646822690963743,0.0,-0.4018859267234802,0.7716320157051086,-11.344592094421388,4.1484375,0,C1,0,None,None,0.0293852533609536,[13700|0|0],start
7600,1.6971569061279297,1.164389967918396,0.0,-0.3883391618728637,0.7689535021781921,-11.353328704833984,4.1484375,0,C1,0,None,None,0.0297141068304238,[13800|0|0],start
7700,1.697158932685852,1.1644973754882812,0.0,-0.3780516982078552,0.7680044770240784,-11.340314865112305,4.1484375,0,C1,0,None,None,0.0298215335170788,[13900|0|0],start
7800,1.6974037885665894,1.1646648645401,0.0,-0.3812540471553802,0.7589278817176819,-11.334310531616213,4.1484375,0,C1,0,None,None,0.0301181932292252,[14000|0|0],start
7900,1.696917176246643,1.1646326780319214,0.0,-0.3744029998779297,0.7751340270042419,-11.32575798034668,4.1484375,0,C1,0,None,None,0.0306058688603903,[14100|0|0],start
8000,1.6971510648727417,1.1643794775009155,0.0,-0.3685405850410461,0.7648701071739197,-11.318558692932127,4.1484375,0,C1,0,None,None,0.0309505635054313,[14200|0|0],start
8100,1.6972101926803589,1.164687156677246,0.0,-0.3865149319171905,0.7666295170783997,-11.318416595458984,4.1484375,0,C1,0,None,None,0.0312638725751709,[14300|0|0],start
8200,1.697269320487976,1.1646424531936646,0.0,-0.3877492249011993,0.7620440721511841,-11.307754516601562,4.1484375,0,C1,0,None,None,0.0313379974635549,[14400|0|0],start
8300,1.6970747709274292,1.1643699407577517,0.0,-0.3734015524387359,0.7683683037757874,-11.304195404052734,4.1484375,0,C1,0,None,None,0.031672829599462,[14500|0|0],start
8400,1.6971943378448486,1.164911150932312,0.0,-0.3704493343830108,0.756159782409668,-11.309934616088867,4.1484375,0,C1,0,None,None,0.0322270900984955,[14600|0|0],start
8500,1.6969712972640991,1.1646112203598022,0.0,-0.3467568159103393,0.7482597231864929,-11.302553176879885,4.1484375,0,C1,0,None,None,0.0326008620195745,[14700|0|0],start
8600,1.696994662284851,1.164468765258789,0.0,-0.3272339403629303,0.7187179327011108,-11.319180488586426,4.1484375,0,C1,0,None,None,0.032745220531618,[14800|0|0],start
8700,1.6971423625946045,1.1642078161239624,0.0,-0.3163464963436126,0.691667914390564,-11.312044143676758,4.1484375,0,C1,0,None,None,0.0330450702147395,[14900|0|0],start
8800,1.6967312097549438,1.16429603099823,0.0,-0.3131361901760101,0.6758916974067688,-11.312166213989258,4.1484375,0,C1,0,None,None,0.0334655800500621,[15000|0|0],start
8900,1.696835160255432,1.164435863494873,0.0,-0.3101337254047394,0.6688310503959656,-11.338836669921877,4.1484375,0,C1,0,None,None,0.0336398179152613,[15100|0|0],start
9000,1.696811318397522,1.164409041404724,0.0,-0.3130310475826263,0.6706675291061401,-11.348504066467283,4.1484375,0,C1,0,None,None,0.0336757046636312,[15200|0|0],start
9100,1.6971958875656128,1.1645689010620115,0.0,-0.3162564933300018,0.6504619121551514,-11.420251846313477,4.1484375,0,C1,0,None,None,0.0340921762173707,[15300|0|0],start
9200,1.6971513032913208,1.1643600463867188,0.0,-0.3129951357841491,0.6413219571113586,-11.382018089294434,4.1484375,0,C1,0,None,None,0.034305736590347,[15400|0|0],start
9300,1.697839617729187,1.1650880575180054,0.0,-0.3198941051959991,0.6019658446311951,-11.19479274749756,4.1484375,0,C1,0,None,None,0.0353076232968424,[15500|0|0],start
9400,1.6969943046569824,1.164461970329285,0.0,-0.2852736115455627,0.6558950543403625,-11.348872184753418,4.1484375,0,C1,0,None,None,0.0363595450419926,[15600|0|0],start
9500,1.6944220066070557,1.1638069152832031,0.0,-0.21848064661026,0.7137160301208496,-11.26874542236328,4.1484375,0,C1,0,None,None,0.0390139403349086,[15700|0|0],start
9600,1.6920130252838137,1.166874647140503,0.0,-0.2439914792776107,0.7641947865486145,-11.157461166381836,4.1484375,0,C1,0,None,None,0.0429144748834058,[15800|0|0],start
9700,1.6955194473266602,1.1676297187805176,0.0,-0.2602262198925018,0.6315273642539978,-11.22080898284912,4.1484375,0,C1,0,None,None,0.0465012741144911,[15900|0|0],start
9800,1.6943262815475464,1.168649673461914,0.0,-0.222846508026123,0.680341362953186,-11.209449768066406,4.1484375,0,C1,0,None,None,0.0480709722155764,[16000|0|0],start
9900,1.694027543067932,1.1706323623657229,0.0,-0.2249958664178848,0.6728284358978271,-11.097661972045898,4.1484375,0,C1,0,None,None,0.0500760407850994,[16100|0|0],start
10000,1.6940042972564695,1.172309637069702,0.0,-0.2268960922956466,0.6686233282089233,-10.988348960876465,4.1484375,0,C1,0,None,None,0.0517534765663913,[16200|0|0],start
10100,1.6942555904388428,1.1737191677093506,0.0,-0.2277550995349884,0.6616964340209961,-10.87857437133789,4.1484375,0,C1,0,None,None,0.0531852324420963,[16300|0|0],start
10200,1.6947654485702517,1.174923539161682,0.0,-0.227371484041214,0.652633547782898,-10.772388458251951,4.1484375,0,C1,0,None,None,0.0544930802579198,[16400|0|0],start
10300,1.695462942123413,1.1759299039840698,0.0,-0.2276581376791,0.6461461782455444,-10.66928482055664,4.1484375,0,C1,0,None,None,0.0557175260151674,[16500|0|0],start
10400,1.6964397430419922,1.1766881942749023,0.0,-0.2284964919090271,0.6459503173828125,-10.562041282653809,4.1484375,0,C1,0,None,None,0.0569541117176999,[16600|0|0],start
10500,1.6976929903030396,1.1772364377975464,0.0,-0.2295513302087783,0.640006959438324,-10.456177711486816,4.1484375,0,C1,0,None,None,0.0583220297186941,[16700|0|0],start
10600,1.6992709636688232,1.1775213479995728,0.0,-0.2262616902589798,0.6303585767745972,-10.352112770080566,4.1484375,0,C1,0,None,None,0.0599255177187556,[16800|0|0],start
10700,1.7012107372283936,1.1775506734848022,0.0,-0.2282884418964386,0.6276565194129944,-10.24774169921875,4.1484375,0,C1,0,None,None,0.0618655129369178,[16900|0|0],start
10800,1.6761833429336548,1.1690236330032349,0.0,-0.1580154746770858,0.7610935568809509,-10.58067512512207,4.1484375,0,C1,0,None,None,0.0883056506929623,[17000|0|0],start
10900,1.6747519969940186,1.1672520637512207,0.0,-0.1592234075069427,0.755365788936615,-10.476991653442385,4.1484375,0,C1,0,None,None,0.0905831951631308,[17100|0|0],start
11001,1.697321534156799,1.1637206077575684,0.0,-0.2121692299842834,0.8231174945831299,-11.046202659606934,4.1484375,0,C1,0,None,None,0.1134273451621401,[17200|0|0],start
11101,1.6972955465316772,1.16408109664917,0.0,-0.2890468239784241,0.9017584323883056,-11.268842697143556,4.1484375,0,C1,0,None,None,0.1137887695631254,[17300|0|0],start
11201,1.6948059797286987,1.1608434915542605,0.0,-0.3274795711040497,0.9449347257614136,-11.309331893920898,4.1484375,0,C1,0,None,None,0.1178728887603424,[17400|0|0],start
11301,1.6944626569747925,1.1620270013809204,0.0,-0.4046596884727478,0.9669767022132874,-11.381146430969238,4.1484375,0,C1,0,None,None,0.119105189869305,[17500|0|0],start
11400,1.6968986988067627,1.164275050163269,0.0,-0.5529316663742065,0.9226782321929932,-11.435995101928713,4.1484375,0,C1,0,None,None,0.1224200085875651,[17600|0|0],start
11500,1.6945679187774658,1.161604881286621,0.0,-0.4678404033184051,0.93771630525589,-11.401799201965332,4.1484375,0,C1,0,None,None,0.1259643473657844,[17700|0|0],start
11600,1.6970040798187256,1.1644821166992188,0.0,-0.5988619327545166,0.8977336287498474,-11.440025329589844,4.1484375,0,C1,0,None,None,0.1297344089353689,[17800|0|0],start
11701,1.6944949626922607,1.162152647972107,0.0,-0.4922936558723449,0.9263870716094972,-11.425966262817385,4.1484375,0,C1,0,None,None,0.1331581632058899,[17900|0|0],start
11801,1.6942404508590698,1.1629114151000977,0.0,-0.4867640137672424,0.9219690561294556,-11.422470092773438,4.1484375,0,C1,0,None,None,0.133958478036287,[18000|0|0],start
11900,1.694724440574646,1.162328600883484,0.0,-0.4656632840633392,0.8971465826034546,-11.438210487365724,4.1484375,0,C1,0,None,None,0.1347160520959474,[18100|0|0],start
12001,1.6944924592971802,1.1628278493881226,0.0,-0.4521071016788482,0.876896321773529,-11.466976165771484,4.1484375,0,C1,0,None,None,0.1352665649318363,[18200|0|0],start
12101,1.693917989730835,1.163069248199463,0.0,-0.4266241192817688,0.875933051109314,-11.44021701812744,4.1484375,0,C1,0,None,None,0.1358896930637428,[18300|0|0],start
12202,1.6947931051254272,1.1626074314117432,0.0,-0.4130142331123352,0.850729763507843,-11.41856575012207,4.1484375,0,C1,0,None,None,0.1368791887430018,[18400|0|0],start
12301,1.6949403285980225,1.1624526977539062,0.0,-0.3951200246810913,0.8626669049263,-11.466602325439451,4.1484375,0,C1,0,None,None,0.1370927707079487,[18500|0|0],start
12401,1.6941367387771606,1.163676142692566,0.0,-0.3813546895980835,0.8666396737098694,-11.453709602355955,4.1484375,0,C1,0,None,None,0.1385565241428293,[18600|0|0],start
12501,1.6940170526504517,1.163203239440918,0.0,-0.3426617085933685,0.8525946736335754,-11.453441619873049,4.1484375,0,C1,0,None,None,0.1390443378924775,[18700|0|0],start
12602,1.694682240486145,1.162625789642334,0.0,-0.3148630857467651,0.8371146321296692,-11.434160232543944,4.1484375,0,C1,0,None,None,0.1399252028802248,[18800|0|0],start
12702,1.694836139678955,1.162373661994934,0.0,-0.3073117733001709,0.8378517031669617,-11.425344467163086,4.1484375,0,C1,0,None,None,0.1402205895964647,[18900|0|0],start
12802,1.6941646337509155,1.1633883714675903,0.0,-0.3183400332927704,0.8500734567642212,-11.42003059387207,4.1484375,0,C1,0,None,None,0.1414373704005911,[19000|0|0],start
12902,1.6975197792053225,1.1646243333816528,0.0,-0.3946312367916107,0.7742980122566223,-11.43613338470459,4.1484375,0,C1,0,None,None,0.145012926703216,[19100|0|0],start
13000,1.694530010223389,1.1621065139770508,0.0,-0.2857784926891327,0.839383065700531,-11.424344062805176,4.1484375,0,C1,0,None,None,0.1489216519582734,[19200|0|0],start
13100,1.6942135095596311,1.1625678539276123,0.0,-0.2935860753059387,0.8403615355491638,-11.410865783691406,4.1484375,0,C1,0,None,None,0.1494811224401964,[19300|0|0],start
13201,1.6944400072097778,1.1632288694381714,0.0,-0.3010048270225525,0.8291976451873779,-11.452842712402344,4.1484375,0,C1,0,None,None,0.1501798660918468,[19400|0|0],start
13302,1.6947160959243774,1.1621865034103394,0.0,-0.2566695511341095,0.8165780901908875,-11.421128273010254,4.1484375,0,C1,0,None,None,0.1512581758406238,[19500|0|0],start
13402,1.694663643836975,1.162127137184143,0.0,-0.3068386912345886,0.8012760281562805,-11.41179370880127,4.1484375,0,C1,0,None,None,0.1513373943377419,[19600|0|0],start
13500,1.694858193397522,1.1618807315826416,0.0,-0.2932764887809753,0.8009932041168213,-11.42454719543457,4.1484375,0,C1,0,None,None,0.1516513453720774,[19700|0|0],start
13600,1.694941520690918,1.1624271869659424,0.0,-0.3038383424282074,0.7963641881942749,-11.410699844360352,4.1484375,0,C1,0,None,None,0.1522041174080588,[19800|0|0],start
13700,1.6945983171463013,1.1624025106430054,0.0,-0.3119484782218933,0.8119838237762451,-11.420684814453123,4.1484375,0,C1,0,None,None,0.1525482069225041,[19900|0|0],start
13800,1.694841742515564,1.1626062393188477,0.0,-0.3517173826694488,0.7926204800605774,-11.401874542236328,4.1484375,0,C1,0,None,None,0.1528656361016309,[20000|0|0],start
13900,1.6944446563720703,1.1630356311798096,0.0,-0.3284964859485626,0.8141202330589294,-11.436637878417969,4.1484375,0,C1,0,None,None,0.1534504905926071,[20100|0|0],start
14000,1.6944986581802368,1.1628457307815552,0.0,-0.3055672645568847,0.8187649846076965,-11.427335739135742,4.1484375,0,C1,0,None,None,0.1536479199636298,[20200|0|0],start
14100,1.694138526916504,1.162784457206726,0.0,-0.2879641354084015,0.8292372226715088,-11.416274070739746,4.1484375,0,C1,0,None,None,0.1540132266540834,[20300|0|0],start
14200,1.6956850290298462,1.1699281930923462,0.0,-0.3950985074043274,0.7589383721351624,-11.337928771972656,4.1484375,0,C1,0,None,None,0.1613224421516638,[20400|0|0],start
14300,1.694234848022461,1.1750892400741575,0.0,-0.3938390910625458,0.7529538869857788,-11.223310470581056,4.1484375,0,C1,0,None,None,0.1666833591350394,[20500|0|0],start
14400,1.6928834915161133,1.180305004119873,0.0,-0.3938702940940857,0.743171215057373,-11.111196517944336,4.1484375,0,C1,0,None,None,0.1720713419661022,[20600|0|0],start
14500,1.6916978359222412,1.1855850219726562,0.0,-0.3890677094459533,0.7398676872253418,-11.001033782958984,4.1484375,0,C1,0,None,None,0.1774828452427333,[20700|0|0],start
14600,1.6907141208648682,1.190932273864746,0.0,-0.3851310014724731,0.7334331274032593,-10.88798713684082,4.1484375,0,C1,0,None,None,0.182919829527386,[20800|0|0],start
14700,1.68900465965271,1.1677316427230835,0.0,-0.0716929733753204,0.6742591857910156,-11.001630783081056,4.1484375,0,C1,0,None,None,0.2061833534007668,[20900|0|0],start
14800,1.6882450580596924,1.1662776470184326,0.0,-0.0698345676064491,0.6625974178314209,-10.888934135437012,4.1484375,0,C1,0,None,None,0.2078238100717149,[21000|0|0],start
14900,1.6877424716949463,1.1643122434616089,0.0,-0.0717591270804405,0.6577538251876831,-10.7804594039917,4.1484375,0,C1,0,None,None,0.2098524559735923,[21100|0|0],start
15000,1.6827033758163452,1.1690996885299685,0.0,-0.2196152061223983,0.7231761813163757,-10.851177215576172,4.1484375,0,C1,0,None,None,0.2168031478496788,[21200|0|0],start
15100,1.6949493885040283,1.160823941230774,0.0,-0.1028507277369499,0.7209810018539429,-11.046056747436523,4.1484375,0,C1,0,None,None,0.23158329737893,[21300|0|0],start
15200,1.6947396993637085,1.161603927612305,0.0,-0.1721041351556778,0.762627124786377,-11.184648513793944,4.1484375,0,C1,0,None,None,0.2323909781889916,[21400|0|0],start
15300,1.6945785284042358,1.1616759300231934,0.0,-0.2515544593334198,0.792265772819519,-11.254584312438965,4.1484375,0,C1,0,None,None,0.2325675013471072,[21500|0|0],start
15400,1.694807767868042,1.1620818376541138,0.0,-0.324218213558197,0.8017927408218384,-11.337093353271484,4.1484375,0,C1,0,None,None,0.2330336684165206,[21600|0|0],start
15500,1.6944663524627686,1.1623387336730957,0.0,-0.3768593370914459,0.8169984221458435,-11.4087553024292,4.1484375,0,C1,0,None,None,0.2334609388736398,[21700|0|0],start
15600,1.6947331428527832,1.162376046180725,0.0,-0.3990732431411743,0.796561062335968,-11.416275024414062,4.1484375,0,C1,0,None,None,0.2337303258358888,[21800|0|0],start
15700,1.6945016384124756,1.162872552871704,0.0,-0.416385680437088,0.7803625464439392,-11.404253959655762,4.1484375,0,C1,0,None,None,0.2342781517206999,[21900|0|0],start
15800,1.6942908763885498,1.1627674102783203,0.0,-0.4289250671863556,0.788345992565155,-11.385397911071776,4.1484375,0,C1,0,None,None,0.2345136842994926,[22000|0|0],start
15900,1.6942989826202393,1.16288959980011,0.0,-0.4453614950180053,0.8208823204040527,-11.412670135498049,4.1484375,0,C1,0,None,None,0.2346361424157096,[22100|0|0],start
16000,1.694868087768555,1.1626654863357544,0.0,-0.4374343454837799,0.8484864234924316,-11.42715835571289,4.1484375,0,C1,0,None,None,0.2352477857061534,[22200|0|0],start
16100,1.6948059797286987,1.1629735231399536,0.0,-0.4104507565498352,0.8524057269096375,-11.408472061157228,4.1484375,0,C1,0,None,None,0.2355620214160211,[22300|0|0],start
16200,1.6945663690567017,1.1630107164382937,0.0,-0.3865017890930176,0.8495009541511536,-11.37534523010254,4.1484375,0,C1,0,None,None,0.2358045015504163,[22400|0|0],start
16300,1.6945854425430298,1.1628992557525637,0.0,-0.3692140281200409,0.8445354104042053,-11.384929656982422,4.1484375,0,C1,0,None,None,0.2359175824168089,[22500|0|0],start
16400,1.6944435834884644,1.1628440618515017,0.0,-0.3499559164047241,0.843407154083252,-11.397709846496582,4.1484375,0,C1,0,None,None,0.2360698005434451,[22600|0|0],start
16500,1.6943929195404053,1.1629188060760498,0.0,-0.3695358633995056,0.8152236938476562,-11.418831825256348,4.1484375,0,C1,0,None,None,0.2361600974688426,[22700|0|0],start
16600,1.6945666074752808,1.1626460552215576,0.0,-0.3399520218372345,0.8067373037338257,-11.436469078063965,4.1484375,0,C1,0,None,None,0.2364834556716882,[22800|0|0],start
16700,1.6948918104171753,1.1627695560455322,0.0,-0.3367059230804443,0.798380970954895,-11.357398986816406,4.1484375,0,C1,0,None,None,0.2368313197355684,[22900|0|0],start
16800,1.694393515586853,1.1629667282104492,0.0,-0.3264921009540558,0.8140666484832764,-11.360791206359863,4.1484375,0,C1,0,None,None,0.2373672064778414,[23000|0|0],start
16900,1.6947747468948364,1.1631931066513062,0.0,-0.3563261032104492,0.7936280965805054,-11.36382007598877,4.1484375,0,C1,0,None,None,0.2378105849940908,[23100|0|0],start
17000,1.6942801475524902,1.1631786823272705,0.0,-0.342716634273529,0.8120207786560059,-11.348665237426758,4.1484375,0,C1,0,None,None,0.2383053946247298,[23200|0|0],start
17100,1.6945284605026243,1.163190245628357,0.0,-0.3340249955654144,0.8046901822090149,-11.320819854736328,4.1484375,0,C1,0,None,None,0.2385539766657873,[23300|0|0],start
17200,1.6944587230682373,1.162787914276123,0.0,-0.3119696080684662,0.7986903786659241,-11.333622932434082,4.1484375,0,C1,0,None,None,0.2389623072019283,[23400|0|0],start
17300,1.6943460702896118,1.1628230810165403,0.0,-0.317752480506897,0.806480348110199,-11.34558391571045,4.1484375,0,C1,0,None,None,0.2390803213882096,[23500|0|0],start
17400,1.694398283958435,1.1633460521697998,0.0,-0.322999358177185,0.7995091080665588,-11.330351829528809,4.1484375,0,C1,0,None,None,0.2396058925959003,[23600|0|0],start
17500,1.6946393251419067,1.1625620126724243,0.0,-0.3080464601516723,0.7947007417678833,-11.361236572265623,4.1484375,0,C1,0,None,None,0.2404261479132097,[23700|0|0],start
17600,1.6947540044784546,1.1624358892440796,0.0,-0.3013992309570312,0.7907992601394653,-11.32816219329834,4.1484375,0,C1,0,None,None,0.2405966133625197,[23800|0|0],start
17700,1.6946063041687012,1.1627227067947388,0.0,-0.3020320236682892,0.7961203455924988,-11.354490280151367,4.1484375,0,C1,0,None,None,0.240919227201137,[23900|0|0],start
17800,1.6949609518051147,1.1625087261199951,0.0,-0.2946395576000213,0.7830227017402649,-11.336296081542969,4.1484375,0,C1,0,None,None,0.2413334284507458,[24000|0|0],start
17900,1.6943446397781372,1.1629397869110107,0.0,-0.294888287782669,0.7974586486816406,-11.347332954406738,4.1484375,0,C1,0,None,None,0.2420855281250897,[24100|0|0],start
18000,1.694599986076355,1.1623674631118774,0.0,-0.2919913232326507,0.7987123131752014,-11.338708877563477,4.1484375,0,C1,0,None,None,0.2427122308162184,[24200|0|0],start
18100,1.6946959495544434,1.1626193523406982,0.0,-0.2984946072101593,0.7923921346664429,-11.316749572753906,4.1484375,0,C1,0,None,None,0.2429817807609832,[24300|0|0],start
18200,1.6947904825210571,1.162717580795288,0.0,-0.2996899485588074,0.7894174456596375,-11.29450798034668,4.1484375,0,C1,0,None,None,0.2431181087150789,[24400|0|0],start
18300,1.694614052772522,1.1622238159179688,0.0,-0.284302681684494,0.7966949939727783,-11.284300804138184,4.1484375,0,C1,0,None,None,0.2436424475466014,[24500|0|0],start
18400,1.6947890520095823,1.162553071975708,0.0,-0.3007709681987762,0.7938885688781738,-11.285968780517578,4.1484375,0,C1,0,None,None,0.2440153205605481,[24600|0|0],start
18500,1.6944525241851809,1.1627089977264404,0.0,-0.3013428747653961,0.8107877969741821,-11.326482772827148,4.1484375,0,C1,0,None,None,0.2443862165248532,[24700|0|0],start
18600,1.6945252418518066,1.162420630455017,0.0,-0.2904925048351288,0.8083943128585815,-11.29605770111084,4.1484375,0,C1,0,None,None,0.244683611115032,[24800|0|0],start
18700,1.6946486234664917,1.1621663570404053,0.0,-0.2857439517974853,0.7974038124084473,-11.329310417175291,4.1484375,0,C1,0,None,None,0.2449662380638898,[24900|0|0],start
18800,1.694385051727295,1.162625432014465,0.0,-0.3024718165397644,0.8085716962814331,-11.31054401397705,4.1484375,0,C1,0,None,None,0.2454955960651623,[25000|0|0],start
18900,1.6944626569747925,1.162495732307434,0.0,-0.3021247684955597,0.802520751953125,-11.310551643371582,4.1484375,0,C1,0,None,None,0.2456467403288414,[25100|0|0],start
19000,1.6945712566375732,1.1627196073532104,0.0,-0.3072912395000458,0.8031477928161621,-11.34660530090332,4.1484375,0,C1,0,None,None,0.2458955654137453,[25200|0|0],start
19100,1.6946499347686768,1.1625218391418457,0.0,-0.3007057309150696,0.8012492060661316,-11.36032009124756,4.1484375,0,C1,0,None,None,0.2461084092854926,[25300|0|0],start
19200,1.694624423980713,1.162364482879639,0.0,-0.2937009334564209,0.800560474395752,-11.382572174072266,4.1484375,0,C1,0,None,None,0.2462678200553867,[25400|0|0],start
19300,1.694677472114563,1.162556529045105,0.0,-0.3015104532241821,0.7958126664161682,-11.330102920532228,4.1484375,0,C1,0,None,None,0.2464670581897265,[25500|0|0],start
19400,1.6945054531097412,1.1623923778533936,0.0,-0.2968168556690216,0.7981631755828857,-11.330634117126465,4.1484375,0,C1,0,None,None,0.2467048315098449,[25600|0|0],start
19500,1.694740653038025,1.1626840829849243,0.0,-0.3014155328273773,0.7890539765357971,-11.36349105834961,4.1484375,0,C1,0,None,None,0.2470795459211318,[25700|0|0],start
19600,1.6947925090789795,1.1622848510742188,0.0,-0.2930364608764648,0.7879151701927185,-11.367104530334473,4.1484375,0,C1,0,None,None,0.2474821315238415,[25800|0|0],start
19700,1.6945087909698486,1.1624659299850464,0.0,-0.2986101508140564,0.8006300330162048,-11.335782051086426,4.1484375,0,C1,0,None,None,0.2478187106934217,[25900|0|0],start
19800,1.6944926977157593,1.1625351905822754,0.0,-0.2989549934864044,0.7964161038398743,-11.331725120544434,4.1484375,0,C1,0,None,None,0.2478898164115863,[26000|0|0],start
19900,1.694596290588379,1.1625460386276243,0.0,-0.2977988123893738,0.791191816329956,-11.343703269958496,4.1484375,0,C1,0,None,None,0.2479939757287186,[26100|0|0],start
20000,1.69450581073761,1.162757158279419,0.0,-0.3049276173114776,0.7933632731437683,-11.378384590148926,4.1484375,0,C1,0,None,None,0.2482236670667552,[26200|0|0],start
20100,1.6948463916778564,1.1625995635986328,0.0,-0.2990815639495849,0.7875992059707642,-11.358952522277832,4.1484375,0,C1,0,None,None,0.2485989422461519,[26300|0|0],start
20200,1.6946321725845337,1.1624138355255127,0.0,-0.2906408905982971,0.7911661863327026,-11.353888511657717,4.1484375,0,C1,0,None,None,0.2488824642683811,[26400|0|0],start
20300,1.6947574615478516,1.162702560424805,0.0,-0.294687420129776,0.7873387336730957,-11.32274341583252,4.1484375,0,C1,0,None,None,0.2491972012884479,[26500|0|0],start
20400,1.694499969482422,1.1628806591033936,0.0,-0.2968577146530151,0.8009349703788757,-11.32026195526123,4.1484375,0,C1,0,None,None,0.2495102848285361,[26600|0|0],start
20500,1.6944562196731567,1.1627687215805054,0.0,-0.2961889505386352,0.8056694269180298,-11.310153007507324,4.1484375,0,C1,0,None,None,0.2496304682501928,[26700|0|0],start
20600,1.6946403980255127,1.162323832511902,0.0,-0.2819441556930542,0.7941681742668152,-11.313206672668455,4.1484375,0,C1,0,None,None,0.2501119741679542,[26800|0|0],start
20700,1.6945481300354004,1.1628998517990112,0.0,-0.2973072826862335,0.8021243214607239,-11.31912326812744,4.1484375,0,C1,0,None,None,0.2506953364920043,[26900|0|0],start
20800,1.6945866346359253,1.1624244451522827,0.0,-0.285159707069397,0.802253007888794,-11.32351016998291,4.1484375,0,C1,0,None,None,0.2511722998910353,[27000|0|0],start
20900,1.6944348812103271,1.162679672241211,0.0,-0.2876031994819641,0.8090460300445557,-11.318839073181152,4.1484375,0,C1,0,None,None,0.2514692341751851,[27100|0|0],start
21000,1.6949138641357422,1.1624627113342283,0.0,-0.2819515764713287,0.7893571853637695,-11.334430694580078,4.1484375,0,C1,0,None,None,0.2519950636893795,[27200|0|0],start
21100,1.694485425949097,1.1625235080718994,0.0,-0.2840873897075653,0.8048002123832703,-11.33877944946289,4.1484375,0,C1,0,None,None,0.2524277940015687,[27300|0|0],start
21200,1.69433856010437,1.1625597476959229,0.0,-0.284079760313034,0.8097700476646423,-11.353461265563965,4.1484375,0,C1,0,None,None,0.2525790649065595,[27400|0|0],start
21300,1.6948487758636477,1.1625380516052246,0.0,-0.2878268957138061,0.7977638840675354,-11.360309600830078,4.1484375,0,C1,0,None,None,0.2530897417528792,[27500|0|0],start
21400,1.694631814956665,1.1628152132034302,0.0,-0.2919766306877136,0.8121283650398254,-11.359923362731934,4.1484375,0,C1,0,None,None,0.2534417226993501,[27600|0|0],start
21500,1.6946913003921509,1.1628111600875854,0.0,-0.2950244545936584,0.8121315240859985,-11.377891540527344,4.1484375,0,C1,0,None,None,0.2535013460570465,[27700|0|0],start
21600,1.694416046142578,1.162665843963623,0.0,-0.2845445871353149,0.8111782073974609,-11.392142295837402,4.1484375,0,C1,0,None,None,0.2538126042742737,[27800|0|0],start
21700,1.6947245597839355,1.162510871887207,0.0,-0.2899228036403656,0.7966395616531372,-11.363730430603027,4.1484375,0,C1,0,None,None,0.2541578534761156,[27900|0|0],start
21800,1.694427490234375,1.1624232530593872,0.0,-0.2827892005443573,0.8065147399902344,-11.36879539489746,4.1484375,0,C1,0,None,None,0.2544675749255901,[28000|0|0],start
21900,1.6946125030517578,1.1624447107315063,0.0,-0.2840417027473449,0.8052196502685547,-11.363028526306152,4.1484375,0,C1,0,None,None,0.2546538279102339,[28100|0|0],start
22000,1.6947523355484009,1.1630429029464722,0.0,-0.2861142456531524,0.7997189164161682,-11.369168281555176,4.1484375,0,C1,0,None,None,0.2552681462748976,[28200|0|0],start
22100,1.6947028636932373,1.1626681089401243,0.0,-0.2635380923748016,0.8101649880409241,-11.374361991882324,4.1484375,0,C1,0,None,None,0.2556461912611725,[28300|0|0],start
22200,1.6945405006408691,1.1626065969467163,0.0,-0.2570350170135498,0.821854829788208,-11.368103981018066,4.1484375,0,C1,0,None,None,0.2558198158161966,[28400|0|0],start
22300,1.6945717334747314,1.1629557609558103,0.0,-0.2606137692928314,0.8200479745864868,-11.395191192626951,4.1484375,0,C1,0,None,None,0.2561703739357113,[28500|0|0],start
22400,1.6946163177490234,1.162806272506714,0.0,-0.2552369832992553,0.8200973868370056,-11.351365089416504,4.1484375,0,C1,0,None,None,0.2563263693007942,[28600|0|0],start
22500,1.6948648691177368,1.16266131401062,0.0,-0.2957853376865387,0.8081645965576172,-11.372172355651855,4.1484375,0,C1,0,None,None,0.2566141031161152,[28700|0|0],start
22600,1.6947824954986572,1.1626251935958862,0.0,-0.2879129350185394,0.8137293457984924,-11.370356559753418,4.1484375,0,C1,0,None,None,0.2567040480852953,[28800|0|0],start
22700,1.6946370601654053,1.1624950170516968,0.0,-0.2766074538230896,0.8163700699806213,-11.384631156921388,4.1484375,0,C1,0,None,None,0.2568992335581543,[28900|0|0],start
22800,1.6949005126953125,1.1625425815582275,0.0,-0.2738845348358154,0.805387020111084,-11.382238388061523,4.1484375,0,C1,0,None,None,0.2571669453767131,[29000|0|0],start
22900,1.6949142217636108,1.1624008417129517,0.0,-0.2724221348762512,0.8081212639808655,-11.363767623901367,4.1484375,0,C1,0,None,None,0.2573093466488016,[29100|0|0],start
23000,1.6945521831512451,1.1627848148345947,0.0,-0.2843976318836212,0.8195654153823853,-11.382600784301758,4.1484375,0,C1,0,None,None,0.2578370845714375,[29200|0|0],start
23100,1.6949342489242554,1.162513256072998,0.0,-0.2788780331611633,0.8076344132423401,-11.335854530334473,4.1484375,0,C1,0,None,None,0.2583058258816565,[29300|0|0],start
23200,1.6951314210891724,1.16261088848114,0.0,-0.2811595499515533,0.8001067638397217,-11.365448951721191,4.1484375,0,C1,0,None,None,0.2585258462210291,[29400|0|0],start
23300,1.694612741470337,1.1622039079666138,0.0,-0.300613671541214,0.7978499531745911,-11.343912124633787,4.1484375,0,C1,0,None,None,0.2591851349940256,[29500|0|0],start
23400,1.6945345401763916,1.1627130508422852,0.0,-0.3138284683227539,0.8105463981628418,-11.361993789672852,4.14453125,0,C1,0,None,None,0.2597002484865898,[29600|0|0],start
23500,1.6945013999938965,1.1625370979309082,0.0,-0.3046480715274811,0.8178527355194092,-11.342930793762209,4.1484375,0,C1,0,None,None,0.2598792951249772,[29700|0|0],start
23600,1.6947437524795532,1.1626371145248413,0.0,-0.3046753108501434,0.8160630464553833,-11.36374282836914,4.1484375,0,C1,0,None,None,0.2601414745413431,[29800|0|0],start
23700,1.694748044013977,1.1625174283981323,0.0,-0.2999185919761657,0.8195092082023621,-11.369878768920898,4.1484375,0,C1,0,None,None,0.2602612375831979,[29900|0|0],start
23800,1.6946467161178589,1.162397384643555,0.0,-0.2989456355571747,0.8211473226547241,-11.348872184753418,4.1484375,0,C1,0,None,None,0.2604183294211297,[30000|0|0],start
23900,1.694622278213501,1.1626023054122925,0.0,-0.3049377799034118,0.8216670155525208,-11.358963966369627,4.1484375,0,C1,0,None,None,0.2606247022212498,[30100|0|0],start
24000,1.6947139501571655,1.1623982191085815,0.0,-0.3019224405288696,0.818083643913269,-11.36020278930664,4.1484375,0,C1,0,None,None,0.2608484318898627,[30200|0|0],start
24100,1.6945327520370483,1.1627498865127563,0.0,-0.3067578375339508,0.8218359351158142,-11.359599113464355,4.1484375,0,C1,0,None,None,0.2612440361389463,[30300|0|0],start
24200,1.6945866346359253,1.1626954078674316,0.0,-0.301689863204956,0.8166882395744324,-11.389691352844238,4.1484375,0,C1,0,None,None,0.2613206602686846,[30400|0|0],start
24300,1.6946324110031128,1.162752389907837,0.0,-0.3044950067996979,0.8145780563354492,-11.393943786621094,4.1484375,0,C1,0,None,None,0.2613937521883586,[30500|0|0],start
24400,1.6947660446166992,1.1623713970184326,0.0,-0.2957354187965393,0.8181341290473938,-11.427056312561035,4.14453125,0,C1,0,None,None,0.2617975015220507,[30600|0|0],start
24500,1.6947659254074097,1.1624499559402466,0.0,-0.2937475144863128,0.8203149437904358,-11.429941177368164,4.1484375,0,C1,0,None,None,0.2618760605343117,[30700|0|0],start
24600,1.694946527481079,1.162272810935974,0.0,-0.2836069166660309,0.8134186267852783,-11.40690803527832,4.1484375,0,C1,0,None,None,0.262129037730028,[30800|0|0],start
24700,1.6947532892227173,1.162326693534851,0.0,-0.2812778055667877,0.8117314577102661,-11.400651931762695,4.1484375,0,C1,0,None,None,0.2623296476972691,[30900|0|0],start
24800,1.6948633193969729,1.1623857021331787,0.0,-0.3206580281257629,0.7859185338020325,-11.355472564697266,4.1484375,0,C1,0,None,None,0.2624545022283174,[31000|0|0],start
24900,1.694506287574768,1.1630165576934814,0.0,-0.3471775352954864,0.7892347574234009,-11.37503433227539,4.1484375,0,C1,0,None,None,0.2631793818459311,[31100|0|0],start
25000,1.6945879459381104,1.1623380184173584,0.0,-0.3154012560844421,0.7900320887565613,-11.362418174743652,4.1484375,0,C1,0,None,None,0.2638628170202859,[31200|0|0],start
25100,1.6946558952331543,1.1623671054840088,0.0,-0.3072291910648346,0.7930647730827332,-11.361405372619627,4.1484375,0,C1,0,None,None,0.2639367302406412,[31300|0|0],start
25200,1.6945399045944214,1.1625328063964844,0.0,-0.299628883600235,0.7992045283317566,-11.377901077270508,4.1484375,0,C1,0,None,None,0.2641389939810123,[31400|0|0],start
25300,1.6948199272155762,1.162816882133484,0.0,-0.3057904541492462,0.8023462891578674,-11.362489700317385,4.1484375,0,C1,0,None,None,0.264537882051416,[31500|0|0],start
25400,1.6949912309646606,1.1625968217849731,0.0,-0.2904609739780426,0.8097562193870544,-11.323895454406738,4.1484375,0,C1,0,None,None,0.264816757527995,[31600|0|0],start
25500,1.6947122812271118,1.1629226207733154,0.0,-0.3218955993652344,0.805838942527771,-11.339447975158691,4.1484375,0,C1,0,None,None,0.26524566070691,[31700|0|0],start
25600,1.6949256658554075,1.1622185707092283,0.0,-0.2903174161911011,0.8016419410705566,-11.353172302246094,4.1484375,0,C1,0,None,None,0.2659813369212421,[31800|0|0],start
25700,1.6949224472045898,1.162483811378479,0.0,-0.2871306240558624,0.8081139326095581,-11.390353202819824,4.1484375,0,C1,0,None,None,0.2662465971186665,[31900|0|0],start
25800,1.6948877573013306,1.162457823753357,0.0,-0.2798273861408233,0.7991939187049866,-11.376479148864746,4.1484375,0,C1,0,None,None,0.2662899416229043,[32000|0|0],start
25900,1.6948223114013672,1.1623048782348633,0.0,-0.2731249630451202,0.8021119236946106,-11.360044479370115,4.14453125,0,C1,0,None,None,0.2664563011656102,[32100|0|0],start
26000,1.6947368383407593,1.1622745990753174,0.0,-0.272853285074234,0.8010077476501465,-11.361003875732422,4.1484375,0,C1,0,None,None,0.266546979010713,[32200|0|0],start
26100,1.694673776626587,1.1622992753982544,0.0,-0.2714550197124481,0.8042643666267395,-11.36997890472412,4.1484375,0,C1,0,None,None,0.2666146968127155,[32300|0|0],start
26200,1.6947040557861328,1.1624447107315063,0.0,-0.2779840528964996,0.8052138686180115,-11.358111381530762,4.1484375,0,C1,0,None,None,0.2667632507209809,[32400|0|0],start
26300,1.6948620080947876,1.162399172782898,0.0,-0.2779043316841125,0.7949898838996887,-11.366607666015623,4.1484375,0,C1,0,None,None,0.2669276363546988,[32500|0|0],start
26400,1.6947963237762451,1.162838578224182,0.0,-0.2852977514266968,0.797367513179779,-11.383573532104492,4.14453125,0,C1,0,None,None,0.2673719240672594,[32600|0|0],start
26500,1.6947847604751587,1.162814974784851,0.0,-0.3126781582832336,0.7853347063064575,-11.360180854797363,4.1484375,0,C1,0,None,None,0.2673982077557422,[32700|0|0],start
26600,1.6947258710861206,1.1624165773391724,0.0,-0.2923881411552429,0.785547137260437,-11.380483627319336,4.1484375,0,C1,0,None,None,0.2678009340708305,[32800|0|0],start
26700,1.6947340965270996,1.1624090671539309,0.0,-0.2854324281215668,0.7897423505783081,-11.386187553405762,4.1484375,0,C1,0,None,None,0.2678120723275011,[32900|0|0],start
26800,1.6949093341827393,1.162622094154358,0.0,-0.2960745692253113,0.7885537147521973,-11.361469268798828,4.14453125,0,C1,0,None,None,0.2680879142004374,[33000|0|0],start
26900,1.6948763132095337,1.1620516777038574,0.0,-0.2892991006374359,0.7892340421676636,-11.35464859008789,4.14453125,0,C1,0,None,None,0.2686592856310086,[33100|0|0],start
27000,1.6949104070663452,1.1624454259872437,0.0,-0.292371928691864,0.7878885269165039,-11.339962005615234,4.1484375,0,C1,0,None,None,0.269054507216631,[33200|0|0],start
27100,1.6947535276412964,1.1623952388763428,0.0,-0.2815590500831604,0.8025310039520264,-11.3463773727417,4.1484375,0,C1,0,None,None,0.2692192187830258,[33300|0|0],start
27200,1.694986343383789,1.1624256372451782,0.0,-0.2806519567966461,0.7972270250320435,-11.32936191558838,4.1484375,0,C1,0,None,None,0.2694540106712594,[33400|0|0],start
27300,1.6946656703948977,1.1624799966812134,0.0,-0.2777242958545685,0.8085730671882629,-11.340349197387695,4.1484375,0,C1,0,None,None,0.2697792584446424,[33500|0|0],start
27400,1.6947929859161377,1.1623386144638062,0.0,-0.2726390957832336,0.8063222765922546,-11.368765830993652,4.14453125,0,C1,0,None,None,0.2699695166201503,[33600|0|0],start
27500,1.6946486234664917,1.1624538898468018,0.0,-0.2727227210998535,0.8073723912239075,-11.37680721282959,4.1484375,0,C1,0,None,None,0.2701542567911814,[33700|0|0],start
27600,1.6947308778762815,1.1625632047653198,0.0,-0.2721837759017944,0.804085910320282,-11.369248390197754,4.1484375,0,C1,0,None,None,0.2702910615401504,[33800|0|0],start
27700,1.694735050201416,1.1625021696090698,0.0,-0.2692830562591553,0.809002697467804,-11.390015602111816,4.1484375,0,C1,0,None,None,0.2703522391389549,[33900|0|0],start
27800,1.6949797868728638,1.1622604131698608,0.0,-0.2616354823112488,0.8011305928230286,-11.400049209594728,4.1484375,0,C1,0,None,None,0.270696248171177,[34000|0|0],start
27900,1.6947619915008545,1.1623711585998535,0.0,-0.2671369314193725,0.8132772445678711,-11.3723726272583,4.14453125,0,C1,0,None,None,0.2709405827252886,[34100|0|0],start
28000,1.696634292602539,1.1655274629592896,0.0,-0.3553234934806824,0.7743107080459595,-11.383079528808594,4.1484375,0,C1,0,None,None,0.2746104285837361,[34200|0|0],start
28100,1.6965978145599363,1.165246605873108,0.0,-0.3488688170909881,0.7715301513671875,-11.38843059539795,4.1484375,0,C1,0,None,None,0.2748936446681144,[34300|0|0],start
28200,1.696589708328247,1.1651281118392944,0.0,-0.3485245406627655,0.7803200483322144,-11.354573249816896,4.1484375,0,C1,0,None,None,0.2750124156538036,[34400|0|0],start
28300,1.6964761018753052,1.165120244026184,0.0,-0.3464442193508148,0.7803550958633423,-11.378629684448242,4.1484375,0,C1,0,None,None,0.2751262942234872,[34500|0|0],start
28400,1.6947120428085327,1.1622906923294067,0.0,-0.264814168214798,0.8192958831787109,-11.376129150390623,4.14453125,0,C1,0,None,None,0.2784607007967469,[34600|0|0],start
28500,1.6965298652648926,1.1651039123535156,0.0,-0.348672479391098,0.7755818367004395,-11.359553337097168,4.1484375,0,C1,0,None,None,0.2818101314031177,[34700|0|0],start
28600,1.6968225240707395,1.1652846336364746,0.0,-0.3623381853103637,0.7717344760894775,-11.338300704956056,4.1484375,0,C1,0,None,None,0.2821540926781969,[34800|0|0],start
28700,1.6966474056243896,1.1654558181762695,0.0,-0.3614678382873535,0.7807374596595764,-11.32884120941162,4.1484375,0,C1,0,None,None,0.2823989816671629,[34900|0|0],start
28800,1.6968896389007568,1.1655060052871704,0.0,-0.3597337901592254,0.7775668501853943,-11.341904640197754,4.1484375,0,C1,0,None,None,0.2826463593263809,[35000|0|0],start
28900,1.6967310905456543,1.1652642488479614,0.0,-0.3454375565052032,0.7818300724029541,-11.399181365966797,4.14453125,0,C1,0,None,None,0.2829354678817796,[35100|0|0],start
29000,1.6969225406646729,1.164987325668335,0.0,-0.3380266427993774,0.7706621289253235,-11.377113342285156,4.1484375,0,C1,0,None,None,0.2832721273469468,[35200|0|0],start
29100,1.6966272592544556,1.1656211614608765,0.0,-0.4055671393871307,0.7549915313720703,-11.344367027282717,4.1484375,0,C1,0,None,None,0.2839713690241419,[35300|0|0],start
29200,1.696833848953247,1.1655868291854858,0.0,-0.3971978724002838,0.7503917813301086,-11.351825714111328,4.1484375,0,C1,0,None,None,0.284180792061987,[35400|0|0],start
29300,1.6966841220855713,1.16495680809021,0.0,-0.3863478004932403,0.7595116496086121,-11.328059196472168,4.1484375,0,C1,0,None,None,0.2848283603714313,[35500|0|0],start
29400,1.6967514753341677,1.1649898290634155,0.0,-0.3799102306365967,0.7569859027862549,-11.339487075805664,4.14453125,0,C1,0,None,None,0.284903372668876,[35600|0|0],start
29500,1.6964401006698608,1.1647793054580688,0.0,-0.3720038831233978,0.7612887620925903,-11.353076934814451,4.1484375,0,C1,0,None,None,0.2852792374982767,[35700|0|0],start
29601,1.696884036064148,1.1653454303741455,0.0,-0.3927277326583862,0.7518547773361206,-11.36129379272461,4.1484375,0,C1,0,None,None,0.2859986650866438,[35800|0|0],start
29701,1.6970406770706177,1.1650735139846802,0.0,-0.3854906857013702,0.7403220534324646,-11.325831413269045,4.1484375,0,C1,0,None,None,0.2863124722372438,[35900|0|0],start
29801,1.696688175201416,1.165238618850708,0.0,-0.3877785801887512,0.7499285936355591,-11.324698448181152,4.1484375,0,C1,0,None,None,0.2867017243208307,[36000|0|0],start
29901,1.6969112157821655,1.164967060089111,0.0,-0.3706951439380646,0.7371681332588196,-11.310312271118164,4.14453125,0,C1,0,None,None,0.2870531375557282,[36100|0|0],start
30001,1.6971204280853271,1.165495991706848,0.0,-0.3786518275737762,0.7412660121917725,-11.296571731567385,4.1484375,0,C1,0,None,None,0.2876219419544769,[36200|0|0],start
30101,1.6969212293624878,1.1653563976287842,0.0,-0.361291229724884,0.7545107007026672,-11.298714637756348,4.1484375,0,C1,0,None,None,0.2878651838871515,[36300|0|0],start
30201,1.6969953775405884,1.1653313636779783,0.0,-0.3545301556587219,0.7593998312950134,-11.303515434265137,4.1484375,0,C1,0,None,None,0.2879434440367079,[36400|0|0],start
30302,1.696666240692139,1.1653149127960205,0.0,-0.3510936498641968,0.7695672512054443,-11.290960311889648,4.1484375,0,C1,0,None,None,0.2882729917518031,[36500|0|0],start
30401,1.6966557502746582,1.1653369665145874,0.0,-0.3476592600345611,0.7675880193710327,-11.324385643005373,4.14453125,0,C1,0,None,None,0.2882974133684888,[36600|0|0],start
30501,1.6967288255691528,1.1648839712142944,0.0,-0.3376693725585937,0.7659663558006287,-11.317968368530272,4.1484375,0,C1,0,None,None,0.2887562649139292,[36700|0|0],start
30602,1.6967915296554563,1.1655542850494385,0.0,-0.3589393496513366,0.7695316076278687,-11.31143569946289,4.1484375,0,C1,0,None,None,0.2894295051682401,[36800|0|0],start
30701,1.6968867778778076,1.165162205696106,0.0,-0.3493539690971374,0.7691369652748108,-11.312125205993652,4.1484375,0,C1,0,None,None,0.2898329880590431,[36900|0|0],start
30802,1.696472406387329,1.1652400493621826,0.0,-0.3556528687477112,0.7776246070861816,-11.351211547851562,4.1484375,0,C1,0,None,None,0.2902546079927152,[37000|0|0],start
30902,1.6966121196746826,1.1654337644577026,0.0,-0.4139149487018585,0.7451444864273071,-11.365513801574709,4.1484375,0,C1,0,None,None,0.2904934496576219,[37100|0|0],start
31000,1.696906805038452,1.1651813983917236,0.0,-0.4063514769077301,0.7368674874305725,-11.40476417541504,4.14453125,0,C1,0,None,None,0.2908814291607888,[37200|0|0],start
31100,1.6966887712478638,1.1651277542114258,0.0,-0.3985965251922607,0.7476774454116821,-11.395442008972168,4.1484375,0,C1,0,None,None,0.2911059651978031,[37300|0|0],start
31200,1.6968055963516235,1.1648567914962769,0.0,-0.3880454897880554,0.7467014193534851,-11.389534950256348,4.1484375,0,C1,0,None,None,0.2914010395915911,[37400|0|0],start
31302,1.6966745853424072,1.1654119491577148,0.0,-0.3918753862380981,0.7460536956787109,-11.34521770477295,4.1484375,0,C1,0,None,None,0.291971446388175,[37500|0|0],start
31402,1.6971176862716677,1.1650285720825195,0.0,-0.3906186521053314,0.7396164536476135,-11.384967803955078,4.14453125,0,C1,0,None,None,0.2925573784792033,[37600|0|0],start
31500,1.696745991706848,1.1649441719055176,0.0,-0.3824727535247803,0.7546080946922302,-11.377445220947266,4.1484375,0,C1,0,None,None,0.2929385349292268,[37700|0|0],start
31600,1.6972423791885376,1.1651766300201416,0.0,-0.3901330828666687,0.7451612949371338,-11.381180763244627,4.1484375,0,C1,0,None,None,0.293486656546236,[37800|0|0],start
31700,1.696885108947754,1.1651296615600586,0.0,-0.3855841755867004,0.7562980055809021,-11.370776176452637,4.1484375,0,C1,0,None,None,0.2938470009109654,[37900|0|0],start
31800,1.6970893144607544,1.1649361848831177,0.0,-0.3791611194610595,0.75095134973526,-11.380340576171877,4.1484375,0,C1,0,None,None,0.29412830700059,[38000|0|0],start
31900,1.6969091892242432,1.1651614904403689,0.0,-0.3778402507305145,0.7549534440040588,-11.38405990600586,4.14453125,0,C1,0,None,None,0.2944167644410496,[38100|0|0],start
32000,1.6967835426330566,1.1655738353729248,0.0,-0.3818297982215881,0.7571119070053101,-11.352678298950195,4.14453125,0,C1,0,None,None,0.2948478275562443,[38200|0|0],start
32100,1.6967895030975342,1.1655595302581787,0.0,-0.3720706701278686,0.7650740742683411,-11.341282844543455,4.1484375,0,C1,0,None,None,0.2948633247638859,[38300|0|0],start
32200,1.6966679096221924,1.1653202772140503,0.0,-0.3515056371688843,0.7707276940345764,-11.358691215515137,4.1484375,0,C1,0,None,None,0.2951317032137853,[38400|0|0],start
32300,1.6966865062713623,1.1651653051376345,0.0,-0.3414652049541473,0.7770744562149048,-11.372962951660156,4.1484375,0,C1,0,None,None,0.2952877871009389,[38500|0|0],start
32400,1.6968016624450684,1.1652323007583618,0.0,-0.4000913500785827,0.7514333724975586,-11.383920669555664,4.14453125,0,C1,0,None,None,0.2954210138157496,[38600|0|0],start
32500,1.6968567371368408,1.16500723361969,0.0,-0.3855484127998352,0.7550140023231506,-11.374998092651367,4.14453125,0,C1,0,None,None,0.2956527214733351,[38700|0|0],start
32600,1.6967910528182983,1.1652967929840088,0.0,-0.3843235671520233,0.7596153020858765,-11.348740577697754,4.1484375,0,C1,0,None,None,0.2959496373792195,[38800|0|0],start
32700,1.6968905925750732,1.1648496389389038,0.0,-0.3712372779846191,0.75739586353302,-11.324049949645996,4.1484375,0,C1,0,None,None,0.296407736607807,[38900|0|0],start
32800,1.6966705322265625,1.1652534008026123,0.0,-0.3822335302829742,0.7642940878868103,-11.36605739593506,4.1484375,0,C1,0,None,None,0.2968675737524268,[39000|0|0],start
32900,1.6970672607421875,1.1652625799179075,0.0,-0.3790736794471741,0.762458324432373,-11.341388702392578,4.14453125,0,C1,0,None,None,0.2972644084425279,[39100|0|0],start
33000,1.6968021392822266,1.1652040481567385,0.0,-0.3749483227729797,0.7711286544799805,-11.316939353942873,4.1484375,0,C1,0,None,None,0.2975359141617998,[39200|0|0],start
33100,1.6966917514801023,1.1650053262710571,0.0,-0.3667480647563934,0.7760788798332214,-11.332975387573242,4.14453125,0,C1,0,None,None,0.2977632374001776,[39300|0|0],start
33200,1.6968010663986206,1.1650267839431765,0.0,-0.3678764104843139,0.7738050818443298,-11.33348274230957,4.14453125,0,C1,0,None,None,0.297874638401535,[39400|0|0],start
33300,1.6969051361083984,1.1648056507110596,0.0,-0.3276854455471039,0.7917271256446838,-11.294835090637209,4.1484375,0,C1,0,None,None,0.29811903645971,[39500|0|0],start
33400,1.6966190338134766,1.164946675300598,0.0,-0.343009352684021,0.7971897721290588,-11.342026710510254,4.14453125,0,C1,0,None,None,0.2984380073957121,[39600|0|0],start
33500,1.6963832378387451,1.1648141145706177,0.0,-0.3407735526561737,0.7944453954696655,-11.364951133728027,4.14453125,0,C1,0,None,None,0.2987085107946416,[39700|0|0],start
33600,1.6966348886489868,1.1648907661437988,0.0,-0.3456650376319885,0.7850136756896973,-11.375985145568848,4.1484375,0,C1,0,None,None,0.2989715765544175,[39800|0|0],start
33700,1.6965787410736084,1.164959192276001,0.0,-0.347026377916336,0.7838320732116699,-11.346688270568848,4.1484375,0,C1,0,None,None,0.2990600903148676,[39900|0|0],start
33800,1.6963690519332886,1.1649469137191772,0.0,-0.3506815731525421,0.7899360656738281,-11.35951042175293,4.1484375,0,C1,0,None,None,0.2992701386391307,[40000|0|0],start
33900,1.6965352296829224,1.1647793054580688,0.0,-0.3508823812007904,0.7867245674133301,-11.3722562789917,4.14453125,0,C1,0,None,None,0.299506163158334,[40100|0|0],start
34000,1.6966768503189087,1.1651381254196167,0.0,-0.3654631674289703,0.7880144119262695,-11.380681037902832,4.14453125,0,C1,0,None,None,0.2998919197776452,[40200|0|0],start
34100,1.6967724561691284,1.1651071310043335,0.0,-0.3648067712783813,0.7802808880805969,-11.351698875427246,4.14453125,0,C1,0,None,None,0.2999924241674746,[40300|0|0],start
34200,1.696707844734192,1.164982557296753,0.0,-0.3595747947692871,0.7799380421638489,-11.368522644042969,4.1484375,0,C1,0,None,None,0.3001327567942758,[40400|0|0],start
34300,1.6967952251434326,1.1651909351348877,0.0,-0.3655416667461395,0.7771264910697937,-11.353404998779297,4.14453125,0,C1,0,None,None,0.3003587140011642,[40500|0|0],start
34400,1.6966301202774048,1.1648571491241455,0.0,-0.3580535054206848,0.7754260301589966,-11.376405715942385,4.14453125,0,C1,0,None,None,0.3007311018604631,[40600|0|0],start
34500,1.696522831916809,1.1648759841918943,0.0,-0.3610763847827911,0.7791092991828918,-11.330427169799805,4.14453125,0,C1,0,None,None,0.3008400309754711,[40700|0|0],start
34600,1.696591019630432,1.1650651693344116,0.0,-0.3713869452476501,0.781011700630188,-11.323538780212402,4.1484375,0,C1,0,None,None,0.3010411294151428,[40800|0|0],start
34700,1.6962627172470093,1.1651630401611328,0.0,-0.367649108171463,0.7843204736709595,-11.341814994812012,4.14453125,0,C1,0,None,None,0.3013837095571302,[40900|0|0],start
34800,1.696941614151001,1.1651530265808103,0.0,-0.368345558643341,0.7667240500450134,-11.316632270812988,4.14453125,0,C1,0,None,None,0.3020626803061617,[41000|0|0],start
34900,1.6966313123703003,1.1649653911590576,0.0,-0.364948958158493,0.7736411094665527,-11.313793182373049,4.14453125,0,C1,0,None,None,0.3024253016604726,[41100|0|0],start
35000,1.6969120502471924,1.165068745613098,0.0,-0.3772329092025757,0.7667059898376465,-11.3397216796875,4.1484375,0,C1,0,None,None,0.3027244603118466,[41200|0|0],start
35100,1.6964664459228516,1.1648513078689575,0.0,-0.3669386804103851,0.7726919651031494,-11.356197357177734,4.14453125,0,C1,0,None,None,0.3032202852672977,[41300|0|0],start
