time.ms,stateEstimate.x,stateEstimate.y,stateEstimate.z,stabilizer.roll,stabilizer.pitch,stabilizer.yaw,pm.vbat,drone_id,node_name,wind_speed,global_wind_direction,relative_wind_direction,travel_dist,waiting_time,curr_node_role
0,1.2810224294662476,-0.3254270851612091,0.0,0.0093736425042152,0.7864952683448792,4.003189563751221,4.04296875,0,C1,6.1,90,270.0,0.0,[6200|0|0],start
100,1.2808821201324463,-0.325307160615921,0.0,0.0022126249969005,0.7874845266342163,4.011030197143555,4.04296875,0,C1,6.1,90,270.0,0.0001845768287578,[6300|0|0],start
200,1.28098464012146,-0.3253783881664276,0.0,0.0009267100831493,0.7758212685585022,4.016465663909912,4.04296875,0,C1,6.1,90,270.0,0.0003094115679074,[6400|0|0],start
300,1.2808527946472168,-0.3255819678306579,0.0,-0.0009797402890399,0.7723130583763123,4.025132179260254,4.04296875,0,C1,6.1,90,270.0,0.0005519562210468,[6500|0|0],start
400,1.2808688879013062,-0.3257032930850982,0.0,0.0008207171922549,0.7777894139289856,4.019256114959717,4.04296875,0,C1,6.1,90,270.0,0.0006743441705851,[6600|0|0],start
500,1.2810146808624268,-0.3258573710918426,0.0,0.0019073822768405,0.7750726938247681,4.010430335998535,4.04296875,0,C1,6.1,90,270.0,0.0008864658801639,[6700|0|0],start
600,1.2811514139175415,-0.3256702721118927,0.0,-0.0069791725836694,0.7695382833480835,4.024540901184082,4.04296875,0,C1,6.1,90,270.0,0.0011182027064546,[6800|0|0],start
700,1.2812137603759766,-0.3256273567676544,0.0,-0.0068119629286229,0.7727839350700378,4.032268524169922,4.04296875,0,C1,6.1,90,270.0,0.0011938915936871,[6900|0|0],start
800,1.2810003757476809,-0.3257991969585418,0.0,-0.0051597245037555,0.7826548218727112,4.058117389678955,4.04296875,0,C1,6.1,90,270.0,0.0014678661377548,[7000|0|0],start
900,1.2810691595077517,-0.3257660269737243,0.0,-0.0016085136448964,0.7784509062767029,4.043829917907715,4.04296875,0,C1,6.1,90,270.0,0.0015442300922246,[7100|0|0],start
1000,1.2809550762176514,-0.3256822824478149,0.0,0.0079413121566176,0.787090539932251,4.03022050857544,4.04296875,0,C1,6.1,90,270.0,0.0016857509129539,[7200|0|0],start
1100,1.280946135520935,-0.3257051706314087,0.0,0.0036725678946822,0.7889055609703064,4.027640342712402,4.04296875,0,C1,6.1,90,270.0,0.0017103233569919,[7300|0|0],start
1200,1.2808715105056765,-0.3255479037761688,0.0,0.0011947675375267,0.78680020570755,4.047759056091309,4.04296875,0,C1,6.1,90,270.0,0.0018843973546462,[7400|0|0],start
1300,1.2808867692947388,-0.3254666030406952,0.0,-0.0052078515291213,0.7870010733604431,4.0456318855285645,4.04296875,0,C1,6.1,90,270.0,0.0019671176075001,[7500|0|0],start
1400,1.2809584140777588,-0.3254047632217407,0.0,-0.0091416640207171,0.7851176857948303,4.057195663452148,4.04296875,0,C1,6.1,90,270.0,0.0020617597658773,[7600|0|0],start
1500,1.2808027267456057,-0.3255229890346527,0.0,-0.001490490976721,0.7902753353118896,4.07265567779541,4.04296875,0,C1,6.1,90,270.0,0.0022572486101413,[7700|0|0],start
1600,1.281020164489746,-0.3258392214775085,0.0,0.0050634783692657,0.7828649282455444,4.045102596282959,4.04296875,0,C1,6.1,90,270.0,0.0026410221507761,[7800|0|0],start
1700,1.2808362245559692,-0.3253491818904876,0.0,-0.0082166800275444,0.7837132811546326,4.04939079284668,4.04296875,0,C1,6.1,90,270.0,0.0031644461625347,[7900|0|0],start
1800,1.2808915376663208,-0.3256082534790039,0.0,0.0027895949315279,0.7863513231277466,4.035586833953857,4.04296875,0,C1,6.1,90,270.0,0.0034293567666129,[8000|0|0],start
1900,1.2811543941497805,-0.3257491290569305,0.0,0.0059922914952039,0.7775023579597473,4.006688594818115,4.04296875,0,C1,6.1,90,270.0,0.0037275839608004,[8100|0|0],start
2000,1.2812553644180298,-0.3260330557823181,0.0,0.0225964318960905,0.7912247776985168,4.005273342132568,4.04296875,0,C1,6.1,90,270.0,0.0040289299089392,[8200|0|0],start
2100,1.2809925079345703,-0.325596809387207,0.0,0.0043544895015656,0.7991863489151001,4.002253532409668,4.04296875,0,C1,6.1,90,270.0,0.0045382475388561,[8300|0|0],start
2200,1.2810064554214478,-0.325792908668518,0.0,0.011850175447762,0.8059439659118652,4.000372886657715,4.04296875,0,C1,6.1,90,270.0,0.0047348421993149,[8400|0|0],start
2300,1.2807753086090088,-0.3257878422737121,0.0,0.0048181754536926,0.8048624396324158,3.991109371185303,4.04296875,0,C1,6.1,90,270.0,0.0049660445290113,[8500|0|0],start
2400,1.2810331583023071,-0.3254658877849579,0.0,-0.0068035339936614,0.7889597415924072,3.993006467819214,4.04296875,0,C1,6.1,90,270.0,0.0053785262342577,[8600|0|0],start
2500,1.2811683416366575,-0.325306236743927,0.0,-0.0114742871373891,0.7829922437667847,4.000146865844727,4.04296875,0,C1,6.1,90,270.0,0.0055877222877299,[8700|0|0],start
2600,1.2809596061706543,-0.3254875242710113,0.0,-0.009619653224945,0.7771602869033813,4.003724575042725,4.04296875,0,C1,6.1,90,270.0,0.0058641922901604,[8800|0|0],start
2700,1.2811521291732788,-0.3256174623966217,0.0,-0.0067832344211637,0.7773110270500183,4.01255989074707,4.04296875,0,C1,6.1,90,270.0,0.0060964615800519,[8900|0|0],start
2800,1.2808383703231812,-0.3256429731845855,0.0,-0.0123092290014028,0.792568564414978,4.038999080657959,4.04296875,0,C1,6.1,90,270.0,0.0064112558244674,[9000|0|0],start
2900,1.2813135385513306,-0.3255205154418945,0.0,-0.0117900129407644,0.7811556458473206,4.02448034286499,4.04296875,0,C1,6.1,90,270.0,0.0069019499693149,[9100|0|0],start
3000,1.2809609174728394,-0.325461596250534,0.0,-0.0033161616884171,0.7906451225280762,4.016068935394287,4.04296875,0,C1,6.1,90,270.0,0.0072594595441613,[9200|0|0],start
3100,1.2810598611831665,-0.3255490660667419,0.0,-0.0089668985456228,0.7760627269744873,4.003642559051514,4.04296875,0,C1,6.1,90,270.0,0.0073915232657534,[9300|0|0],start
3200,1.2810815572738647,-0.3257411420345306,0.0,-0.0105939079076051,0.7713948488235474,3.9911649227142334,4.04296875,0,C1,6.1,90,270.0,0.0075848206991392,[9400|0|0],start
3300,1.2808343172073364,-0.325425922870636,0.0,-0.0231175869703292,0.7613094449043274,3.99689531326294,4.04296875,0,C1,6.1,90,270.0,0.0079854336941648,[9500|0|0],start
3400,1.280957818031311,-0.3256056010723114,0.0,-0.0184501186013221,0.756747305393219,3.976412534713745,4.04296875,0,C1,6.1,90,270.0,0.0082034628428576,[9600|0|0],start
3500,1.280962586402893,-0.3256482779979706,0.0,-0.0068004713393747,0.7682369351387024,3.958320140838623,4.04296875,0,C1,6.1,90,270.0,0.0082464053317382,[9700|0|0],start
3600,1.2811787128448486,-0.3258109092712402,0.0,-0.0066062132827937,0.7595180869102478,3.977286338806152,4.04296875,0,C1,6.1,90,270.0,0.0085168855897196,[9800|0|0],start
3700,1.2811462879180908,-0.3257874250411987,0.0,-0.0079514477401971,0.7559450268745422,3.9855637550354,4.04296875,0,C1,6.1,90,270.0,0.0085569216351773,[9900|0|0],start
3800,1.280969738960266,-0.3258964717388153,0.0,-0.0098419599235057,0.7544337511062622,4.015632152557373,4.04296875,0,C1,6.1,90,270.0,0.0087644323981998,[10000|0|0],start
3900,1.2808010578155518,-0.325458824634552,0.0,-0.0215944796800613,0.7506217360496521,4.037057399749756,4.04296875,0,C1,6.1,90,270.0,0.0092334615193129,[10100|0|0],start
4000,1.2810957431793213,-0.3258993029594421,0.0,-0.01148571819067,0.7401312589645386,4.003840446472168,4.04296875,0,C1,6.1,90,270.0,0.0097634243654804,[10200|0|0],start
4100,1.2810124158859253,-0.325800210237503,0.0,-0.0132624143734574,0.7474750876426697,4.025925159454346,4.04296875,0,C1,6.1,90,270.0,0.0098928956185291,[10300|0|0],start
4200,1.280913233757019,-0.3255277872085571,0.0,-0.0181104149669408,0.7485312819480896,4.044203281402588,4.04296875,0,C1,6.1,90,270.0,0.0101828118157214,[10400|0|0],start
4300,1.2811201810836792,-0.3259330689907074,0.0,-0.007230456918478,0.7441454529762268,4.031605243682861,4.04296875,0,C1,6.1,90,270.0,0.0106378728214719,[10500|0|0],start
4400,1.2810252904891968,-0.3258623480796814,0.0,-0.0079548032954335,0.7531954646110535,4.021033763885498,4.04296875,0,C1,6.1,90,270.0,0.0107562183840316,[10600|0|0],start
4500,1.2810226678848269,-0.3254925310611725,0.0,-0.0066684116609394,0.7572592496871948,4.015303611755371,4.04296875,0,C1,6.1,90,270.0,0.0111260447016897,[10700|0|0],start
4600,1.281113624572754,-0.3257662355899811,0.0,-0.0011588698253035,0.7549001574516296,3.9946448802948,4.04296875,0,C1,6.1,90,270.0,0.0114144667677127,[10800|0|0],start
4700,1.2811781167984009,-0.3257025480270386,0.0,-0.0079577732831239,0.7494720816612244,4.008376121520996,4.04296875,0,C1,6.1,90,270.0,0.0115051053513427,[10900|0|0],start
4800,1.2808935642242432,-0.3256995379924774,0.0,-0.0067510968074202,0.7558275461196899,4.01275634765625,4.04296875,0,C1,6.1,90,270.0,0.0117896738453259,[11000|0|0],start
4900,1.281322360038757,-0.3259838223457336,0.0,0.0066043976694345,0.7530009150505066,4.001108646392822,4.04296875,0,C1,6.1,90,270.0,0.0123041477941814,[11100|0|0],start
5000,1.2810481786727903,-0.3257494568824768,0.0,0.0075079123489558,0.7725889086723328,4.013094425201416,4.04296875,0,C1,6.1,90,270.0,0.0126648451629145,[11200|0|0],start
5100,1.280634880065918,-0.3255332112312317,0.0,0.0018282404635101,0.7789900302886963,4.053325176239014,4.04296875,0,C1,6.1,90,270.0,0.013131297647231,[11300|0|0],start
5200,1.2820112705230713,-0.3252975642681122,0.0,-0.1823396980762481,0.5986766815185547,4.0489821434021,4.04296875,0,C1,6.1,90,270.0,0.0145277145555252,[11400|0|0],start
5300,1.2813166379928589,-0.3251229226589203,0.0,-0.2963259816169739,0.5236316323280334,4.029435157775879,4.0390625,0,C1,6.1,90,270.0,0.0152439645423947,[11500|0|0],start
5400,1.2812899351119995,-0.3252632319927215,0.0,-0.2188638299703598,0.5882297158241272,4.016340255737305,4.04296875,0,C1,6.1,90,270.0,0.0153867922462827,[11600|0|0],start
5500,1.2812070846557615,-0.3249585032463074,0.0,-0.1738320887088775,0.6382145881652832,4.038953304290772,4.04296875,0,C1,6.1,90,270.0,0.0157025830108563,[11700|0|0],start
5600,1.2812659740447998,-0.3251479864120483,0.0,-0.1381107568740844,0.6587998867034912,4.057459831237793,4.04296875,0,C1,6.1,90,270.0,0.0159010063719822,[11800|0|0],start
5700,1.2811346054077148,-0.3253665864467621,0.0,-0.1031242609024047,0.695088267326355,4.055877685546875,4.04296875,0,C1,6.1,90,270.0,0.0161560430242235,[11900|0|0],start
5800,1.2810219526290894,-0.3254873752593994,0.0,-0.0808511227369308,0.7128530740737915,4.060405254364014,4.04296875,0,C1,6.1,90,270.0,0.0163212113801225,[12000|0|0],start
5900,1.2811919450759888,-0.3253383636474609,0.0,-0.0754626765847206,0.7255212664604187,4.04274320602417,4.04296875,0,C1,6.1,90,270.0,0.0165472686571462,[12100|0|0],start
6000,1.2811661958694458,-0.3254112899303436,0.0,-0.0718866735696792,0.723188579082489,4.045542240142822,4.04296875,0,C1,6.1,90,270.0,0.0166246072915579,[12200|0|0],start
6100,1.2810888290405271,-0.3255491554737091,0.0,-0.0664549320936203,0.7216190695762634,4.044912338256836,4.04296875,0,C1,6.1,90,270.0,0.0167826975640747,[12300|0|0],start
6200,1.2812023162841797,-0.3253720700740814,0.0,-0.0729238986968994,0.7164661288261414,4.053610324859619,4.04296875,0,C1,6.1,90,270.0,0.0169930272891093,[12400|0|0],start
6300,1.28120756149292,-0.32557412981987,0.0,-0.0721712186932563,0.7179566621780396,4.050271511077881,4.04296875,0,C1,6.1,90,270.0,0.0171951551028383,[12500|0|0],start
6400,1.2812036275863647,-0.3253669738769531,0.0,-0.0854271426796913,0.7132625579833984,4.048178672790527,4.04296875,0,C1,6.1,90,270.0,0.0174023483949753,[12600|0|0],start
6500,1.281194806098938,-0.3254068493843078,0.0,-0.083840787410736,0.7124515771865845,4.050051212310791,4.04296875,0,C1,6.1,90,270.0,0.0174431880170012,[12700|0|0],start
6600,1.281060814857483,-0.3253239691257477,0.0,-0.0962406992912292,0.7011551260948181,4.062192916870117,4.04296875,0,C1,6.1,90,270.0,0.0176007405163329,[12800|0|0],start
6700,1.2809804677963257,-0.3254092931747436,0.0,-0.0950943529605865,0.7009338736534119,4.059814453125,4.04296875,0,C1,6.1,90,270.0,0.0177179405315788,[12900|0|0],start
6800,1.2811323404312134,-0.3256308138370514,0.0,-0.0900641158223152,0.7010436654090881,4.050827026367188,4.0390625,0,C1,6.1,90,270.0,0.0179865232954655,[13000|0|0],start
6900,1.2811344861984253,-0.3252911269664764,0.0,-0.0951302498579025,0.701206624507904,4.014798641204834,4.04296875,0,C1,6.1,90,270.0,0.0183262169432689,[13100|0|0],start
7000,1.281022310256958,-0.3255464136600494,0.0,-0.0853982642292976,0.7071444988250732,4.035887718200684,4.04296875,0,C1,6.1,90,270.0,0.0186050623085872,[13200|0|0],start
7100,1.281391143798828,-0.3257601261138916,0.0,-0.0778796598315239,0.6983612179756165,4.004383087158203,4.04296875,0,C1,6.1,90,270.0,0.0190313382691287,[13300|0|0],start
7200,1.2811051607131958,-0.325713038444519,0.0,-0.0744674429297447,0.7090415954589844,4.020683288574219,4.04296875,0,C1,6.1,90,270.0,0.0193211719695064,[13400|0|0],start
7300,1.2809562683105469,-0.3252193629741668,0.0,-0.0967956706881523,0.7063326239585876,4.012031078338623,4.04296875,0,C1,6.1,90,270.0,0.0198368117833241,[13500|0|0],start
7400,1.2812029123306274,-0.3256596624851227,0.0,-0.0893279612064361,0.6913570165634155,3.985367774963379,4.04296875,0,C1,6.1,90,270.0,0.0203414868589812,[13600|0|0],start
7500,1.281076192855835,-0.325547844171524,0.0,-0.0946233496069908,0.6900960206985474,3.999125003814697,4.04296875,0,C1,6.1,90,270.0,0.0205104873339738,[13700|0|0],start
7600,1.2812228202819824,-0.3256300091743469,0.0,-0.1080997064709663,0.6663442254066467,4.017680644989014,4.04296875,0,C1,6.1,90,270.0,0.0206785667490951,[13800|0|0],start
7700,1.2812331914901731,-0.3254622220993042,0.0,-0.1112553179264068,0.6763442158699036,4.032491683959961,4.04296875,0,C1,6.1,90,270.0,0.0208466740496824,[13900|0|0],start
7800,1.2812411785125732,-0.3255690038204193,0.0,-0.107530765235424,0.6770168542861938,4.01005220413208,4.04296875,0,C1,6.1,90,270.0,0.0209537540594467,[14000|0|0],start
7900,1.2811627388000488,-0.3257536888122558,0.0,-0.1001101657748222,0.6839845180511475,3.9889302253723145,4.04296875,0,C1,6.1,90,270.0,0.0211544063325725,[14100|0|0],start
8000,1.280957818031311,-0.3254123330116272,0.0,-0.1119821742177009,0.6875409483909607,3.99881649017334,4.04296875,0,C1,6.1,90,270.0,0.0215525473931062,[14200|0|0],start
8100,1.2811312675476074,-0.3255900144577026,0.0,-0.1066755205392837,0.6776993274688721,3.992619276046753,4.04296875,0,C1,6.1,90,270.0,0.0218008525098132,[14300|0|0],start
8200,1.2811877727508545,-0.3253737390041351,0.0,-0.111261636018753,0.6737188696861267,3.9990179538726807,4.04296875,0,C1,6.1,90,270.0,0.0220243875401996,[14400|0|0],start
8300,1.2812914848327637,-0.3255579769611358,0.0,-0.1142526865005493,0.6728417277336121,4.011821269989014,4.04296875,0,C1,6.1,90,270.0,0.0222358108613676,[14500|0|0],start
8400,1.2810955047607422,-0.3256315290927887,0.0,-0.1102836802601814,0.670444905757904,3.977627038955689,4.04296875,0,C1,6.1,90,270.0,0.0224451386060654,[14600|0|0],start
8500,1.2810964584350586,-0.3252627253532409,0.0,-0.1163985058665275,0.6715388298034668,3.99263334274292,4.04296875,0,C1,6.1,90,270.0,0.0228139435786445,[14700|0|0],start
8600,1.2812118530273438,-0.3253499865531921,0.0,-0.1144795417785644,0.670569658279419,4.029548168182373,4.04296875,0,C1,6.1,90,270.0,0.0229586171040235,[14800|0|0],start
8700,1.2812566757202148,-0.3256538808345794,0.0,-0.1058276817202568,0.6683272123336792,4.016786098480225,4.04296875,0,C1,6.1,90,270.0,0.0232657991478609,[14900|0|0],start
8800,1.2811890840530396,-0.3255766332149505,0.0,-0.1126018911600112,0.6736695170402527,4.011678695678711,4.04296875,0,C1,6.1,90,270.0,0.0233684433304037,[15000|0|0],start
8900,1.2811051607131958,-0.3255174160003662,0.0,-0.1177704110741615,0.6710545420646667,3.991881132125856,4.04296875,0,C1,6.1,90,270.0,0.0234711555763807,[15100|0|0],start
9000,1.2812817096710205,-0.3255560994148254,0.0,-0.1169316470623016,0.6688941717147827,3.995150327682495,4.04296875,0,C1,6.1,90,270.0,0.0236518927918711,[15200|0|0],start
9100,1.2813657522201538,-0.3255831003189087,0.0,-0.1151194274425506,0.6704973578453064,3.978809118270874,4.04296875,0,C1,6.1,90,270.0,0.0237401662243757,[15300|0|0],start
9200,1.2810648679733276,-0.3255676627159118,0.0,-0.1143398955464363,0.6884166598320007,3.995117425918579,4.04296875,0,C1,6.1,90,270.0,0.0240414462429206,[15400|0|0],start
9300,1.2811483144760132,-0.3256056308746338,0.0,-0.1126299351453781,0.6849355101585388,3.9955484867095934,4.04296875,0,C1,6.1,90,270.0,0.0241331244839988,[15500|0|0],start
9400,1.2809288501739502,-0.3252523243427276,0.0,-0.1156031191349029,0.6887809634208679,4.000918388366699,4.04296875,0,C1,6.1,90,270.0,0.0245490452521357,[15600|0|0],start
9500,1.281165361404419,-0.3256239891052246,0.0,-0.1108918339014053,0.6743901968002319,3.989911556243897,4.04296875,0,C1,6.1,90,270.0,0.0249895815818745,[15700|0|0],start
9600,1.281397819519043,-0.3256924152374267,0.0,-0.1034868061542511,0.6673809289932251,3.988935708999634,4.04296875,0,C1,6.1,90,270.0,0.0252319014337701,[15800|0|0],start
9700,1.281208634376526,-0.3253668248653412,0.0,-0.1119707152247428,0.6751256585121155,3.988945960998535,4.04296875,0,C1,6.1,90,270.0,0.0256084649855697,[15900|0|0],start
9800,1.2812858819961548,-0.3255911469459533,0.0,-0.0941669717431068,0.6834545731544495,3.989388942718506,4.04296875,0,C1,6.1,90,270.0,0.0258457150447656,[16000|0|0],start
9900,1.2811658382415771,-0.3254400193691253,0.0,-0.0973759591579437,0.6817429065704346,3.989755630493164,4.04296875,0,C1,6.1,90,270.0,0.0260387177584537,[16100|0|0],start
10000,1.281220316886902,-0.3253530859947204,0.0,-0.1080797165632247,0.6772781014442444,3.9914393424987793,4.04296875,0,C1,6.1,90,270.0,0.0261413108107617,[16200|0|0],start
10100,1.2894474267959597,-0.3132192492485046,0.0016303905285894,-0.3443470597267151,0.4780429303646087,4.085280418395996,4.04296875,0,C1,6.1,90,270.0,0.0408916838540188,[16300|0|0],start
10200,1.289719820022583,-0.3134530782699585,0.0019811894744634,-0.3392547070980072,0.4641971886157989,4.0825605392456055,4.04296875,0,C1,6.1,90,270.0,0.0413936141097423,[16400|0|0],start
10300,1.289584040641785,-0.3134061396121979,0.0013909399276599,-0.3445135354995727,0.461243987083435,4.084313869476318,4.04296875,0,C1,6.1,90,270.0,0.0420010956364935,[16500|0|0],start
10400,1.2896461486816406,-0.3135099112987518,0.0015733351465314,-0.3412213027477264,0.4587326049804687,4.12250280380249,4.04296875,0,C1,6.1,90,270.0,0.0422199425862373,[16600|0|0],start
10500,1.289406657218933,-0.3134720027446747,0.0015883756568655,-0.3404302895069122,0.4674889743328094,4.104732036590576,4.04296875,0,C1,6.1,90,270.0,0.0424628817476195,[16700|0|0],start
10600,1.2896960973739624,-0.313576728105545,0.0018388843163847,-0.3418459296226501,0.4682293534278869,4.098812580108643,4.04296875,0,C1,6.1,90,270.0,0.0428597414117918,[16800|0|0],start
10700,1.2894915342330933,-0.3136005401611328,0.0015527256764471,-0.343650609254837,0.4804425239562988,4.120098114013672,4.04296875,0,C1,6.1,90,270.0,0.0432123032642439,[16900|0|0],start
10800,1.2897214889526367,-0.3135697543621063,0.0019257143139839,-0.3526973724365234,0.4715045690536499,4.090324878692627,4.04296875,0,C1,6.1,90,270.0,0.043651561118122,[17000|0|0],start
10900,1.2896264791488647,-0.3138017654418945,0.0017427299171686,-0.3523691892623901,0.462950199842453,4.081702709197998,4.04296875,0,C1,6.1,90,270.0,0.0439619468353113,[17100|0|0],start
11000,1.2894989252090454,-0.3132676482200622,0.0013635221403092,-0.3620739579200744,0.4775100648403168,4.093005657196045,4.04296875,0,C1,6.1,90,270.0,0.044629292137424,[17200|0|0],start
11100,1.2895807027816772,-0.3132147490978241,0.0015130190877243,-0.3606903254985809,0.4718239605426788,4.081644058227539,4.04296875,0,C1,6.1,90,270.0,0.0448077164233426,[17300|0|0],start
11200,1.2895208597183228,-0.3133456110954284,0.0015302742831408,-0.3616404831409454,0.4739679992198944,4.098174095153809,4.0390625,0,C1,6.1,90,270.0,0.0449526432890974,[17400|0|0],start
11301,1.2896358966827393,-0.3135394752025604,0.001730122952722,-0.357537180185318,0.4703810811042785,4.0886430740356445,4.04296875,0,C1,6.1,90,270.0,0.0452539011287458,[17500|0|0],start
11401,1.289499044418335,-0.3133483827114105,0.0018792280461639,-0.3596611618995666,0.4822396636009216,4.075793266296387,4.04296875,0,C1,6.1,90,270.0,0.0455322484142306,[17600|0|0],start
11501,1.2895721197128296,-0.3134611546993255,0.0019040012266486,-0.3544315695762634,0.4801237881183624,4.066819667816162,4.04296875,0,C1,6.1,90,270.0,0.0456688911249586,[17700|0|0],start
11601,1.2898844480514526,-0.3134849071502685,0.0017680812161415,-0.3545876145362854,0.470183789730072,4.080976963043213,4.04296875,0,C1,6.1,90,270.0,0.0460103401245019,[17800|0|0],start
11701,1.2896255254745483,-0.3135822415351867,0.0016665053553879,-0.3543561100959778,0.4821784198284149,4.0771660804748535,4.04296875,0,C1,6.1,90,270.0,0.0463050137385327,[17900|0|0],start
11801,1.2891982793807983,-0.3135826289653778,0.001642714254558,-0.3524917662143707,0.4910659790039062,4.081222057342529,4.04296875,0,C1,6.1,90,270.0,0.0467329218959748,[18000|0|0],start
11901,1.2893296480178833,-0.3131478428840637,0.0013993759639561,-0.3594189286231994,0.4899812042713165,4.068149566650391,4.04296875,0,C1,6.1,90,270.0,0.047248198694392,[18100|0|0],start
12001,1.289849042892456,-0.3135674297809601,0.0019137051422148,-0.3427636623382568,0.4805948138236999,4.061899185180664,4.04296875,0,C1,6.1,90,270.0,0.0480910264961332,[18200|0|0],start
12101,1.2892435789108276,-0.3134773969650268,0.0014330690028145,-0.3487490117549896,0.4897217750549316,4.101027011871338,4.04296875,0,C1,6.1,90,270.0,0.0488692961405957,[18300|0|0],start
12201,1.2894794940948486,-0.313653826713562,0.001635432941839,-0.3488765060901642,0.4895203709602356,4.117280006408691,4.04296875,0,C1,6.1,90,270.0,0.0492266959084151,[18400|0|0],start
12301,1.2896627187728882,-0.3138648569583893,0.001767631038092,-0.3478769063949585,0.4879617094993591,4.117689609527588,4.04296875,0,C1,6.1,90,270.0,0.0495358582986366,[18500|0|0],start
12401,1.2896026372909546,-0.3135099709033966,0.0019340065773576,-0.3594302833080292,0.4891591370105743,4.116644859313965,4.04296875,0,C1,6.1,90,270.0,0.0499323866287286,[18600|0|0],start
12501,1.2894352674484253,-0.3135327398777008,0.0014869960723444,-0.3579012453556061,0.4952832460403442,4.094476222991943,4.04296875,0,C1,6.1,90,270.0,0.0504102458987771,[18700|0|0],start
12601,1.2893846035003662,-0.3133440613746643,0.0015361802652478,-0.3583640158176422,0.4926443994045257,4.098451137542725,4.04296875,0,C1,6.1,90,270.0,0.0506117043261823,[18800|0|0],start
12702,1.2896990776062012,-0.3134053647518158,0.0018534902483224,-0.3567439615726471,0.4827945232391357,4.089379787445068,4.04296875,0,C1,6.1,90,270.0,0.0510626341351878,[18900|0|0],start
12802,1.289570689201355,-0.3136535584926605,0.0014515579678118,-0.3511422574520111,0.4856110513210296,4.113650321960449,4.04296875,0,C1,6.1,90,270.0,0.0515521576520998,[19000|0|0],start
12901,1.2890993356704712,-0.3132969439029693,0.0012385826557874,-0.3496439158916473,0.4923387765884399,4.103957653045654,4.04296875,0,C1,6.1,90,270.0,0.0521804144468813,[19100|0|0],start
13000,1.28961980342865,-0.3135255575180053,0.0015778198139742,-0.34174245595932,0.4848658740520477,4.093316078186035,4.04296875,0,C1,6.1,90,270.0,0.052842405928532,[19200|0|0],start
13100,1.2894572019577026,-0.3136084973812103,0.0016836678842082,-0.343707799911499,0.4870879650115967,4.100089073181152,4.04296875,0,C1,6.1,90,270.0,0.0530534084717274,[19300|0|0],start
13200,1.2893261909484863,-0.313657134771347,0.0013969453284516,-0.3469254672527313,0.4932057857513428,4.093047142028809,4.04296875,0,C1,6.1,90,270.0,0.0533723744640131,[19400|0|0],start
13300,1.289379000663757,-0.3137713372707367,0.0018389543984085,-0.3462616503238678,0.496134877204895,4.091292381286621,4.04296875,0,C1,6.1,90,270.0,0.0538319428428404,[19500|0|0],start
13402,1.289324402809143,-0.3134981989860534,0.0016921877395361,-0.3583954572677612,0.4878948926925659,4.105686187744141,4.04296875,0,C1,6.1,90,270.0,0.0541467855026639,[19600|0|0],start
13502,1.2896738052368164,-0.3132920861244201,0.0016201839316636,-0.362145721912384,0.4803974330425262,4.09571647644043,4.04296875,0,C1,6.1,90,270.0,0.0545587917120138,[19700|0|0],start
13600,1.289660096168518,-0.3135357797145843,0.0019052987918257,-0.3546101748943329,0.4688648879528045,4.080732345581055,4.04296875,0,C1,6.1,90,270.0,0.0549341115595118,[19800|0|0],start
13700,1.2896398305892944,-0.3132567107677459,0.0014763647923246,-0.3583303391933441,0.4755510985851288,4.067394733428955,4.04296875,0,C1,6.1,90,270.0,0.0554462390306738,[19900|0|0],start
13800,1.289313554763794,-0.3131080567836761,0.0014478056691586,-0.3615029752254486,0.4878529608249664,4.073225975036621,4.04296875,0,C1,6.1,90,270.0,0.0558059188115927,[20000|0|0],start
13900,1.2893441915512085,-0.3136071860790252,0.0017320921178907,-0.3392893970012665,0.4975805282592773,4.061138153076172,4.04296875,0,C1,6.1,90,270.0,0.0563811469847132,[20100|0|0],start
14000,1.289561748504639,-0.3137321174144745,0.0016245467122644,-0.3386669456958771,0.478672057390213,4.068446636199951,4.04296875,0,C1,6.1,90,270.0,0.0566541028068427,[20200|0|0],start
14100,1.2896407842636108,-0.3133613467216491,0.0018836625386029,-0.3495649695396423,0.4772209823131561,4.073755741119385,4.04296875,0,C1,6.1,90,270.0,0.0571132961967271,[20300|0|0],start
14200,1.2894160747528076,-0.3137005269527435,0.0016276800306513,-0.3432064354419708,0.4808539748191833,4.073836803436279,4.04296875,0,C1,6.1,90,270.0,0.0575939880291809,[20400|0|0],start
14300,1.2894315719604492,-0.3133875727653503,0.0016391698736697,-0.3491962552070617,0.473069429397583,4.077183246612549,4.04296875,0,C1,6.1,90,270.0,0.057907536276416,[20500|0|0],start
14400,1.2896759510040283,-0.3135571181774139,0.0018444522283971,-0.3482201695442199,0.4613319635391235,4.05791711807251,4.04296875,0,C1,6.1,90,270.0,0.058268933023572,[20600|0|0],start
14500,1.289609432220459,-0.3134644627571106,0.0017364459345117,-0.3488329648971557,0.4648564159870147,4.064917087554932,4.04296875,0,C1,6.1,90,270.0,0.0584260162339987,[20700|0|0],start
14600,1.2896090745925903,-0.3137803077697754,0.00159497349523,-0.341991662979126,0.4564547538757324,4.047481060028076,4.04296875,0,C1,6.1,90,270.0,0.0587720980899219,[20800|0|0],start
14700,1.2897526025772097,-0.3134793937206268,0.0017295983852818,-0.3483380377292633,0.448844850063324,4.066054344177246,4.04296875,0,C1,6.1,90,270.0,0.0591316442043014,[20900|0|0],start
14800,1.289833426475525,-0.3135968744754791,0.0017187278717756,-0.3413209617137909,0.4498893916606903,4.073833465576172,4.04296875,0,C1,6.1,90,270.0,0.0592746560861974,[21000|0|0],start
14900,1.2895569801330566,-0.3134644627571106,0.0017977312672883,-0.3346368968486786,0.4561617374420166,4.079771041870117,4.04296875,0,C1,6.1,90,270.0,0.0595911951516031,[21100|0|0],start
15000,1.289609432220459,-0.3135892748832702,0.0017079378012567,-0.3348675072193146,0.4551850855350494,4.071134567260742,4.04296875,0,C1,6.1,90,270.0,0.0597536517761258,[21200|0|0],start
15100,1.2894484996795654,-0.3138095140457153,0.0015696645714342,-0.3288381993770599,0.4597216546535492,4.055826663970947,4.04296875,0,C1,6.1,90,270.0,0.0600594688088079,[21300|0|0],start
15200,1.289451241493225,-0.3134559988975525,0.0017626247135922,-0.3386692404747009,0.4582400321960449,4.077185153961182,4.04296875,0,C1,6.1,90,270.0,0.0604622269173351,[21400|0|0],start
15300,1.2892286777496338,-0.313777357339859,0.0017831914592534,-0.332223892211914,0.4712757766246795,4.06596565246582,4.04296875,0,C1,6.1,90,270.0,0.0608536714976145,[21500|0|0],start
15400,1.2894256114959717,-0.3136156499385834,0.0016164013650268,-0.3407037854194641,0.4664113521575928,4.084446430206299,4.0390625,0,C1,6.1,90,270.0,0.0611582221824046,[21600|0|0],start
15500,1.2896971702575684,-0.3135673105716705,0.0016092737205326,-0.3460017740726471,0.4630439579486847,4.0880889892578125,4.04296875,0,C1,6.1,90,270.0,0.0614341418422868,[21700|0|0],start
15600,1.289356350898743,-0.3132990002632141,0.0015296976780518,-0.3524518609046936,0.475648432970047,4.11689043045044,4.04296875,0,C1,6.1,90,270.0,0.0618751413927526,[21800|0|0],start
15700,1.2894437313079834,-0.3135553002357483,0.001977214589715,-0.3526386618614197,0.4709931313991546,4.109748840332031,4.04296875,0,C1,6.1,90,270.0,0.0623982058228801,[21900|0|0],start
15800,1.2894529104232788,-0.3137095868587494,0.0018687804695218,-0.3496128618717193,0.4827343821525574,4.111713409423828,4.04296875,0,C1,6.1,90,270.0,0.0625870088329641,[22000|0|0],start
15900,1.2892929315567017,-0.3139184415340423,0.0017338582547381,-0.3405923247337341,0.4911536574363708,4.09827184677124,4.04296875,0,C1,6.1,90,270.0,0.062882673367843,[22100|0|0],start
16000,1.289591908454895,-0.3136620223522186,0.0018762715626507,-0.3432438373565674,0.4877183139324188,4.091109752655029,4.04296875,0,C1,6.1,90,270.0,0.0633015045184647,[22200|0|0],start
16100,1.2893013954162598,-0.3135036528110504,0.0014484117273241,-0.3536119759082794,0.4846073389053345,4.109192371368408,4.04296875,0,C1,6.1,90,270.0,0.0638423767546467,[22300|0|0],start
16200,1.289549469947815,-0.3134865462779999,0.0019157968927174,-0.353477269411087,0.4757859408855438,4.10791015625,4.04296875,0,C1,6.1,90,270.0,0.0643717938865088,[22400|0|0],start
16300,1.289310097694397,-0.3134975135326385,0.0015837581595405,-0.351744145154953,0.4790522158145904,4.117229461669922,4.04296875,0,C1,6.1,90,270.0,0.0647812680330803,[22500|0|0],start
16400,1.2893975973129272,-0.3133795261383056,0.0016555461334064,-0.356062650680542,0.4796261489391327,4.118407249450684,4.04296875,0,C1,6.1,90,270.0,0.0649447633591791,[22600|0|0],start
16500,1.2895631790161133,-0.3138711452484131,0.0017277849838137,-0.3434131443500519,0.4800089001655578,4.097011089324951,4.04296875,0,C1,6.1,90,270.0,0.0654685238973653,[22700|0|0],start
16600,1.289421319961548,-0.3133417665958404,0.0012994995340704,-0.3578181564807892,0.4887241721153259,4.09311580657959,4.0390625,0,C1,6.1,90,270.0,0.0661640770410025,[22800|0|0],start
16700,1.289639949798584,-0.3134154081344604,0.0017489783931523,-0.3547311723232269,0.4775383472442627,4.079512119293213,4.04296875,0,C1,6.1,90,270.0,0.06666930305638,[22900|0|0],start
16800,1.2892957925796509,-0.3135285079479217,0.001584219164215,-0.3440143465995788,0.491571843624115,4.084872722625732,4.04296875,0,C1,6.1,90,270.0,0.0670672746165056,[23000|0|0],start
16900,1.2895944118499756,-0.3134289085865021,0.0019664755091071,-0.3420703709125519,0.4867986440658569,4.07860803604126,4.04296875,0,C1,6.1,90,270.0,0.0675624648977256,[23100|0|0],start
17000,1.2895681858062744,-0.3134534060955047,0.0019572416786104,-0.3406137824058532,0.4873733520507812,4.068100929260254,4.04296875,0,C1,6.1,90,270.0,0.0675995215697455,[23200|0|0],start
17100,1.289697766304016,-0.3135659396648407,0.0017527161398902,-0.3399789035320282,0.4857712984085083,4.063716411590576,4.04296875,0,C1,6.1,90,270.0,0.0678665152131365,[23300|0|0],start
17200,1.2895318269729614,-0.3136566281318664,0.0017565772868692,-0.3397762775421142,0.4864386916160583,4.06291389465332,4.04296875,0,C1,6.1,90,270.0,0.0680556584606984,[23400|0|0],start
17300,1.289438247680664,-0.313472032546997,0.0015372883062809,-0.3424795866012573,0.4914956986904144,4.04813814163208,4.04296875,0,C1,6.1,90,270.0,0.0683571883446363,[23500|0|0],start
17400,1.2893518209457395,-0.3133913576602936,0.001602686359547,-0.3514879047870636,0.4879537522792816,4.067206382751465,4.04296875,0,C1,6.1,90,270.0,0.0684922991259431,[23600|0|0],start
17500,1.2896595001220703,-0.313649833202362,0.0018091588281095,-0.3405756652355194,0.4822479784488678,4.067506313323975,4.04296875,0,C1,6.1,90,270.0,0.0689440811106099,[23700|0|0],start
17600,1.2894943952560425,-0.3136386275291443,0.0017402531811967,-0.3454503715038299,0.4881459772586822,4.058395385742188,4.04296875,0,C1,6.1,90,270.0,0.0691233383896108,[23800|0|0],start
17700,1.2895050048828125,-0.3133836984634399,0.0020888394210487,-0.3461630642414093,0.4951638281345367,4.052595138549805,4.04296875,0,C1,6.1,90,270.0,0.0695553265368269,[23900|0|0],start
17800,1.2894996404647827,-0.3134686648845672,0.001606207108125,-0.3353581130504608,0.5065065026283264,4.078754425048828,4.0390625,0,C1,6.1,90,270.0,0.0700454102227195,[24000|0|0],start
17900,1.2894837856292725,-0.3140120208263397,0.0018850164487957,-0.3276309967041015,0.4970448315143585,4.08457088470459,4.0390625,0,C1,6.1,90,270.0,0.0706563289601256,[24100|0|0],start
18000,1.2896041870117188,-0.3135893642902374,0.0017769648693501,-0.341617226600647,0.4911487996578216,4.091923713684082,4.04296875,0,C1,6.1,90,270.0,0.0711088885520311,[24200|0|0],start
18100,1.2894206047058103,-0.3134322464466095,0.0013415426947176,-0.3477357029914856,0.4891757071018219,4.113250255584717,4.0390625,0,C1,6.1,90,270.0,0.0716068654089136,[24300|0|0],start
18200,1.289676070213318,-0.3133944869041443,0.0017887817230075,-0.3522820472717285,0.4835041463375091,4.094753742218018,4.04296875,0,C1,6.1,90,270.0,0.0721233062641905,[24400|0|0],start
18300,1.2894245386123655,-0.3136500418186188,0.0017297319136559,-0.3467029631137848,0.4856503307819366,4.114535808563232,4.04296875,0,C1,6.1,90,270.0,0.072486711465824,[24500|0|0],start
18400,1.2894108295440674,-0.3134878873825073,0.0018026350298896,-0.3482539355754852,0.4818569719791412,4.124982833862305,4.04296875,0,C1,6.1,90,270.0,0.0726650282178716,[24600|0|0],start
18500,1.2894315719604492,-0.3135615885257721,0.0018263584934175,-0.3456975221633911,0.4823978245258331,4.117832183837891,4.04296875,0,C1,6.1,90,270.0,0.072745183748421,[24700|0|0],start
18600,1.289554476737976,-0.3136117458343506,0.0017066423315554,-0.3469050526618957,0.4779996573925018,4.100208759307861,4.04296875,0,C1,6.1,90,270.0,0.0729239386066871,[24800|0|0],start
18700,1.289362907409668,-0.3135232627391815,0.0015133637934923,-0.3431264162063598,0.4824420213699341,4.099773406982422,4.04296875,0,C1,6.1,90,270.0,0.0732100935628821,[24900|0|0],start
18800,1.2895493507385254,-0.3132980167865753,0.0017552187200635,-0.3519889712333679,0.4805622100830078,4.104088306427002,4.04296875,0,C1,6.1,90,270.0,0.0735895545747761,[25000|0|0],start
18900,1.2894142866134644,-0.3130118548870086,0.0015333604533225,-0.3600265085697174,0.4889865517616272,4.0993971824646,4.04296875,0,C1,6.1,90,270.0,0.0739760154928046,[25100|0|0],start
19000,1.2896578311920166,-0.3133208155632019,0.0017397839110344,-0.3576895296573639,0.4792377352714538,4.1028547286987305,4.04296875,0,C1,6.1,90,270.0,0.0744202916513702,[25200|0|0],start
19100,1.2895816564559937,-0.3135175406932831,0.0018984222551807,-0.3578292429447174,0.4716347754001617,4.093963146209717,4.04296875,0,C1,6.1,90,270.0,0.0746842414410028,[25300|0|0],start
19200,1.289342164993286,-0.3135984539985657,0.0016690799966454,-0.3591172397136688,0.4713632762432098,4.098560333251953,4.04296875,0,C1,6.1,90,270.0,0.075025563862229,[25400|0|0],start
19300,1.289508581161499,-0.3136863112449646,0.0017092134803533,-0.3452892303466797,0.4700776636600494,4.081181526184082,4.04296875,0,C1,6.1,90,270.0,0.075217979904445,[25500|0|0],start
19400,1.2895923852920532,-0.3135147988796234,0.0018873828230425,-0.3557142317295074,0.4620203375816345,4.070825576782227,4.04296875,0,C1,6.1,90,270.0,0.0754791004483269,[25600|0|0],start
19500,1.290396213531494,-0.3137063682079315,0.0017718663439154,-0.3607192635536194,0.465419739484787,4.089375019073486,4.04296875,0,C1,6.1,90,270.0,0.0763134760849682,[25700|0|0],start
19600,1.290265679359436,-0.3130883872509002,0.0017021138919517,-0.3993075788021087,0.4510490596294403,4.091081142425537,4.04296875,0,C1,6.1,90,270.0,0.0769489326435803,[25800|0|0],start
19700,1.2901121377944946,-0.3135130703449249,0.0014323296491056,-0.3637876510620117,0.473630428314209,4.0833611488342285,4.04296875,0,C1,6.1,90,270.0,0.0774749690303475,[25900|0|0],start
19800,1.2903211116790771,-0.3133803009986877,0.0011948372703045,-0.3463013768196106,0.4762777090072632,4.113603115081787,4.04296875,0,C1,6.1,90,270.0,0.0778180439692842,[26000|0|0],start
19900,1.2902358770370483,-0.3133941888809204,0.0014790641143918,-0.3260151445865631,0.485711008310318,4.125480175018311,4.04296875,0,C1,6.1,90,270.0,0.0781151007254344,[26100|0|0],start
20000,1.290296196937561,-0.3134462237358093,0.0015136976726353,-0.3131993114948272,0.4953617453575134,4.114022731781006,4.04296875,0,C1,6.1,90,270.0,0.078201966137871,[26200|0|0],start
20100,1.2903101444244385,-0.313444584608078,0.0016082737129181,-0.2996294200420379,0.5087597966194153,4.133611679077148,4.04296875,0,C1,6.1,90,270.0,0.078297579141827,[26300|0|0],start
20200,1.2901779413223269,-0.3135479092597961,0.0014822522643953,-0.2962287664413452,0.5151543617248535,4.1347832679748535,4.04296875,0,C1,6.1,90,270.0,0.0785074244404362,[26400|0|0],start
20300,1.2899582386016846,-0.3136491179466247,0.0013511048164218,-0.3020844161510467,0.5133255124092102,4.152649879455566,4.04296875,0,C1,6.1,90,270.0,0.078782582825475,[26500|0|0],start
20400,1.2902330160140991,-0.3138654232025146,0.0012371414341032,-0.3018636107444763,0.5058923959732056,4.140926837921143,4.04296875,0,C1,6.1,90,270.0,0.0791503847322242,[26600|0|0],start
20500,1.2903413772583008,-0.3138856291770935,0.0014985745074227,-0.2859543859958648,0.5115511417388916,4.134506702423096,4.04296875,0,C1,6.1,90,270.0,0.0794341058849056,[26700|0|0],start
20600,1.2892237901687622,-0.3132256865501404,0.0013747215270996,-0.3902395069599151,0.4629670083522796,4.148022174835205,4.04296875,0,C1,6.1,90,270.0,0.0807378944928893,[26800|0|0],start
20700,1.289209246635437,-0.3134465515613556,0.0016649009194225,-0.4184078276157379,0.4400251805782318,4.131304264068604,4.04296875,0,C1,6.1,90,270.0,0.0811028560624683,[26900|0|0],start
20800,1.289683222770691,-0.3131495416164398,0.0018603077623993,-0.4595144391059875,0.3939258158206939,4.121300220489502,4.0390625,0,C1,6.1,90,270.0,0.081695352575919,[27000|0|0],start
20900,1.2895809412002563,-0.3128473162651062,0.0016824716003611,-0.4831534028053283,0.3863902986049652,4.127767562866211,4.0390625,0,C1,6.1,90,270.0,0.0820606297079267,[27100|0|0],start
21000,1.2895008325576782,-0.3132986426353454,0.0020148651674389,-0.4787868559360504,0.3822608590126037,4.133410453796387,4.04296875,0,C1,6.1,90,270.0,0.0826268437756817,[27200|0|0],start
21100,1.2898043394088743,-0.3128637075424194,0.0017469190061092,-0.4993013143539428,0.3737864792346954,4.145443916320801,4.0390625,0,C1,6.1,90,270.0,0.0832210492024096,[27300|0|0],start
21200,1.2895326614379885,-0.3134068846702575,0.0018641576170921,-0.4872504472732544,0.3847462832927704,4.151906967163086,4.0390625,0,C1,6.1,90,270.0,0.0838395920093165,[27400|0|0],start
21300,1.2898222208023071,-0.3130848705768585,0.002005148679018,-0.507091224193573,0.3656211197376251,4.123534202575684,4.0390625,0,C1,6.1,90,270.0,0.0842950216760656,[27500|0|0],start
21400,1.2898012399673462,-0.3131459951400757,0.0020974897779524,-0.5008473992347717,0.3735363781452179,4.101895809173584,4.04296875,0,C1,6.1,90,270.0,0.0844077305320467,[27600|0|0],start
21500,1.2894057035446167,-0.3130646049976349,0.0017099296674132,-0.4965095221996307,0.385221928358078,4.129165172576904,4.0390625,0,C1,6.1,90,270.0,0.0849674414005077,[27700|0|0],start
21600,1.289497971534729,-0.3130488693714142,0.002169179264456,-0.4939342737197876,0.3744998872280121,4.111388206481934,4.04296875,0,C1,6.1,90,270.0,0.0854361323267223,[27800|0|0],start
21700,1.2895450592041016,-0.3133790194988251,0.0021825267467647,-0.4775231480598449,0.3699994683265686,4.119280815124512,4.0390625,0,C1,6.1,90,270.0,0.0857698904884507,[27900|0|0],start
21800,1.2897987365722656,-0.3130347728729248,0.0017258323496207,-0.4912840723991394,0.3681049644947052,4.11610746383667,4.0390625,0,C1,6.1,90,270.0,0.0863955323340342,[28000|0|0],start
21900,1.2897974252700806,-0.3129478991031647,0.0020930808968842,-0.4915366172790527,0.3747130930423736,4.11224365234375,4.04296875,0,C1,6.1,90,270.0,0.0867729184318874,[28100|0|0],start
22000,1.28991436958313,-0.3131900429725647,0.0019971719011664,-0.4830364882946014,0.3859589099884033,4.088318347930908,4.0390625,0,C1,6.1,90,270.0,0.0870584147738994,[28200|0|0],start
22100,1.2896443605422974,-0.313448041677475,0.0020899816881865,-0.4698480069637298,0.4017634987831116,4.086994171142578,4.04296875,0,C1,6.1,90,270.0,0.0874432288464507,[28300|0|0],start
22200,1.289562106132507,-0.3132131993770599,0.0017829958815127,-0.4751346707344055,0.4037242531776428,4.08748197555542,4.04296875,0,C1,6.1,90,270.0,0.0878383958737865,[28400|0|0],start
22300,1.2901862859725952,-0.3136652410030365,0.0017546374583616,-0.485057532787323,0.3933281898498535,4.119034767150879,4.0390625,0,C1,6.1,90,270.0,0.0886095938409464,[28500|0|0],start
22400,1.2900941371917725,-0.3140051662921905,0.0016658209497109,-0.4726534485816955,0.3942607641220093,4.097609519958496,4.04296875,0,C1,6.1,90,270.0,0.0889728141215234,[28600|0|0],start
22500,1.290325403213501,-0.3138664662837982,0.0015808739699423,-0.4747877120971679,0.3912387788295746,4.100190162658691,4.04296875,0,C1,6.1,90,270.0,0.089255546600213,[28700|0|0],start
22600,1.2904936075210571,-0.3135950267314911,0.0015730992890894,-0.4808153510093689,0.3915518820285797,4.108003616333008,4.04296875,0,C1,6.1,90,270.0,0.0895749719675518,[28800|0|0],start
22700,1.2903732061386108,-0.3136984407901764,0.0018891748040914,-0.4765670895576477,0.4019974172115326,4.100147724151611,4.04296875,0,C1,6.1,90,270.0,0.0899286592469562,[28900|0|0],start
22800,1.2901057004928589,-0.3137142360210418,0.0016691676573827,-0.4722853600978851,0.4113982915878296,4.106231212615967,4.04296875,0,C1,6.1,90,270.0,0.0902753751312623,[29000|0|0],start
22900,1.290286898612976,-0.3134787976741791,0.0017156421672552,-0.4723890423774719,0.4059891104698181,4.112178325653076,4.0390625,0,C1,6.1,90,270.0,0.0905760807247842,[29100|0|0],start
23000,1.290229558944702,-0.3136716485023498,0.0014893315965309,-0.4733762145042419,0.4025212824344635,4.115581035614014,4.0390625,0,C1,6.1,90,270.0,0.0908788937923779,[29200|0|0],start
23100,1.2904525995254517,-0.3137247860431671,0.0017992412904277,-0.4736432433128357,0.3888096809387207,4.123671531677246,4.04296875,0,C1,6.1,90,270.0,0.0912643995864673,[29300|0|0],start
23200,1.2905036211013794,-0.3137018382549286,0.0019099356140941,-0.4815820455551147,0.3867934942245483,4.113571166992188,4.04296875,0,C1,6.1,90,270.0,0.0913884279521227,[29400|0|0],start
23300,1.2900947332382202,-0.3135921359062195,0.0013328741770237,-0.491349846124649,0.3868990540504455,4.123053550720215,4.04296875,0,C1,6.1,90,270.0,0.0921041260673255,[29500|0|0],start
23400,1.2899205684661863,-0.3142832219600677,0.0013521393993869,-0.2683662176132202,0.5753920674324036,4.122746467590332,4.04296875,0,C1,6.1,90,270.0,0.0928170807997131,[29600|0|0],start
23500,1.2902086973190308,-0.313573807477951,0.001865204423666,-0.3487869799137115,0.4978061020374298,4.106714248657227,4.0390625,0,C1,6.1,90,270.0,0.0937387764449328,[29700|0|0],start
23600,1.2901065349578855,-0.3136403560638428,0.0014634183607995,-0.3303072154521942,0.5088924169540405,4.126065254211426,4.0390625,0,C1,6.1,90,270.0,0.0941586548828559,[29800|0|0],start
23700,1.2901955842971802,-0.3138487040996551,0.0017317553283646,-0.3254187703132629,0.4973750412464142,4.121899604797363,4.04296875,0,C1,6.1,90,270.0,0.0945098576975053,[29900|0|0],start
23800,1.2904479503631592,-0.3134951591491699,0.0016796177951619,-0.3275142610073089,0.4995472431182861,4.135176658630371,4.0390625,0,C1,6.1,90,270.0,0.0949473516810522,[30000|0|0],start
23900,1.290566325187683,-0.3137318193912506,0.0017923591658473,-0.3185357451438904,0.4968949556350708,4.121735095977783,4.0390625,0,C1,6.1,90,270.0,0.095234982148713,[30100|0|0],start
24000,1.2903300523757937,-0.3136958479881286,0.0016411251854151,-0.3202745020389557,0.5098919868469238,4.105746269226074,4.0390625,0,C1,6.1,90,270.0,0.0955178080674653,[30200|0|0],start
24100,1.290351629257202,-0.3134371638298034,0.0014193797251209,-0.3236194550991058,0.5102563500404358,4.114547729492188,4.0390625,0,C1,6.1,90,270.0,0.0958592082794465,[30300|0|0],start
24200,1.2903575897216797,-0.3134564161300659,0.0013002101331949,-0.315532922744751,0.5089506506919861,4.141183376312256,4.0390625,0,C1,6.1,90,270.0,0.0959800700593523,[30400|0|0],start
24300,1.2903141975402832,-0.3135632574558258,0.0012959691230207,-0.3125574886798858,0.5088998079299927,4.142375469207764,4.0390625,0,C1,6.1,90,270.0,0.0960954647579471,[30500|0|0],start
24400,1.2900924682617188,-0.3133912086486816,0.0013507988769561,-0.3148151338100433,0.5207996368408203,4.155470848083496,4.0390625,0,C1,6.1,90,270.0,0.0963814209904881,[30600|0|0],start
24500,1.290347933769226,-0.3136142194271087,0.0015070140361785,-0.307070255279541,0.5191572904586792,4.139275550842285,4.0390625,0,C1,6.1,90,270.0,0.0967547835606415,[30700|0|0],start
24600,1.290200114250183,-0.3137589693069458,0.0013110337313264,-0.3058757483959198,0.5153768062591553,4.14296293258667,4.04296875,0,C1,6.1,90,270.0,0.0970397597312468,[30800|0|0],start
24700,1.2899103164672852,-0.3137186467647552,0.0011384871322661,-0.3071767687797546,0.5152929425239563,4.1481032371521,4.0390625,0,C1,6.1,90,270.0,0.097379437506835,[30900|0|0],start
24800,1.2903766632080078,-0.3136017024517059,0.0017824333626776,-0.308346539735794,0.5013131499290466,4.154195785522461,4.0390625,0,C1,6.1,90,270.0,0.0981830680205653,[31000|0|0],start
24900,1.290252923965454,-0.3136541247367859,0.0015625592786818,-0.3069967627525329,0.5034806728363037,4.12216854095459,4.0390625,0,C1,6.1,90,270.0,0.0984407579678542,[31100|0|0],start
25000,1.2900844812393188,-0.313533067703247,0.0013924969825893,-0.3069386482238769,0.5024428367614746,4.141383647918701,4.0390625,0,C1,6.1,90,270.0,0.0987089909671466,[31200|0|0],start
25100,1.290122389793396,-0.3132283091545105,0.0013153282925486,-0.311439961194992,0.5069373250007629,4.132566928863525,4.0390625,0,C1,6.1,90,270.0,0.0990256450974256,[31300|0|0],start
25200,1.2902944087982178,-0.3138313591480255,0.0015697134658694,-0.2968602180480957,0.5048112869262695,4.109992027282715,4.04296875,0,C1,6.1,90,270.0,0.0997023811235864,[31400|0|0],start
25300,1.2902897596359253,-0.3132880330085754,0.001581247895956,-0.3149750232696533,0.5076473355293274,4.132501602172852,4.0390625,0,C1,6.1,90,270.0,0.100245849569402,[31500|0|0],start
25400,1.290401577949524,-0.3135335147380829,0.0017045508138835,-0.3076658844947815,0.5110182762145996,4.112335205078125,4.0390625,0,C1,6.1,90,270.0,0.1005424439461987,[31600|0|0],start
25500,1.2902880907058716,-0.3134628534317016,0.0015382963465526,-0.3079468309879303,0.5138761401176453,4.13169527053833,4.0390625,0,C1,6.1,90,270.0,0.1007557815251641,[31700|0|0],start
25600,1.2901023626327517,-0.3136011362075805,0.0015379787655547,-0.3024115860462188,0.5267586708068848,4.145447731018066,4.0390625,0,C1,6.1,90,270.0,0.1009873352858921,[31800|0|0],start
25700,1.2903223037719729,-0.3136042952537536,0.0017361358040943,-0.2977910935878753,0.5229869484901428,4.145452499389648,4.0390625,0,C1,6.1,90,270.0,0.1012833932130237,[31900|0|0],start
25800,1.2904977798461914,-0.3135449290275574,0.0012008377816528,-0.2969030439853668,0.5200017094612122,4.137356281280518,4.0390625,0,C1,6.1,90,270.0,0.1018498384215529,[32000|0|0],start
25900,1.290374994277954,-0.3137216866016388,0.0015819198451936,-0.2959250211715698,0.526339590549469,4.113715171813965,4.0390625,0,C1,6.1,90,270.0,0.1022874947649492,[32100|0|0],start
26000,1.290094971656799,-0.3135213553905487,0.0012651800643652,-0.3055509030818939,0.5286124348640442,4.09511661529541,4.0390625,0,C1,6.1,90,270.0,0.102755329512755,[32200|0|0],start
26100,1.290237545967102,-0.3137129545211792,0.0017553362995386,-0.3031675815582275,0.512523353099823,4.07993221282959,4.04296875,0,C1,6.1,90,270.0,0.1033005733074892,[32300|0|0],start
26200,1.2898426055908203,-0.3137301802635193,0.0013697753893211,-0.2993728816509247,0.5240828990936279,4.112915992736816,4.0390625,0,C1,6.1,90,270.0,0.1038527796480037,[32400|0|0],start
26300,1.2902190685272217,-0.313825398683548,0.0016023435164242,-0.2993413209915161,0.5185279846191406,4.105363845825195,4.0390625,0,C1,6.1,90,270.0,0.1043054150683377,[32500|0|0],start
26400,1.2901400327682495,-0.3137874007225036,0.0015286614652723,-0.3011146485805511,0.5167839527130127,4.121510982513428,4.04296875,0,C1,6.1,90,270.0,0.1044199556327758,[32600|0|0],start
26500,1.2900092601776123,-0.3135928809642792,0.0011531404452398,-0.3049381971359253,0.5179179906845093,4.136216640472412,4.04296875,0,C1,6.1,90,270.0,0.1048626241806623,[32700|0|0],start
26600,1.290863275527954,-0.3136745393276214,0.001192640280351,-0.2982708513736725,0.5226913094520569,4.146501541137695,4.0390625,0,C1,6.1,90,270.0,0.1057214434537908,[32800|0|0],start
26700,1.2909187078475952,-0.313811331987381,0.0010878016473725,-0.2940011918544769,0.5180773735046387,4.171589374542236,4.0390625,0,C1,6.1,90,270.0,0.1059024851970151,[32900|0|0],start
26800,1.2903892993927002,-0.3138893842697143,0.0017497350927442,-0.2893653213977813,0.5118418335914612,4.140026569366455,4.0390625,0,C1,6.1,90,270.0,0.1067536734000545,[33000|0|0],start
26900,1.2908269166946411,-0.314256340265274,0.0010947330156341,-0.2890567779541015,0.5240066647529602,4.146236896514893,4.0390625,0,C1,6.1,90,270.0,0.1076226919997713,[33100|0|0],start
27000,1.2810838222503662,-0.3253043889999389,0.0,-0.0918221995234489,0.6739667057991028,4.054510116577148,4.0390625,0,C1,6.1,90,270.0,0.1223938026746363,[33200|0|0],start
27100,1.281235933303833,-0.3253918886184692,0.0,-0.0959762930870056,0.6711837649345398,4.023179054260254,4.0390625,0,C1,6.1,90,270.0,0.122569284741611,[33300|0|0],start
27200,1.281086802482605,-0.3252792060375213,0.0,-0.1003954857587814,0.6798200607299805,4.026634693145752,4.0390625,0,C1,6.1,90,270.0,0.1227562001392893,[33400|0|0],start
27300,1.281185269355774,-0.3253388106822967,0.0,-0.099461406469345,0.675885796546936,4.0257439613342285,4.0390625,0,C1,6.1,90,270.0,0.1228713020019609,[33500|0|0],start
27400,1.2812358140945437,-0.3254773318767547,0.0,-0.0926980227231979,0.675686240196228,4.01288652420044,4.0390625,0,C1,6.1,90,270.0,0.1230187567134196,[33600|0|0],start
27500,1.281147003173828,-0.3253547251224518,0.0,-0.0959373265504837,0.6772996783256531,4.030726432800293,4.04296875,0,C1,6.1,90,270.0,0.123170149566088,[33700|0|0],start
27600,1.2808517217636108,-0.3250860571861267,0.0,-0.1080672889947891,0.691184937953949,4.010241508483887,4.0390625,0,C1,6.1,90,270.0,0.1235693657621885,[33800|0|0],start
27700,1.2810204029083252,-0.325146734714508,0.0,-0.1044655069708824,0.6858466267585754,4.012975692749023,4.0390625,0,C1,6.1,90,270.0,0.1237486283936336,[33900|0|0],start
27800,1.2809451818466189,-0.3254084885120392,0.0,-0.0933640152215957,0.6906600594520569,4.006028652191162,4.0390625,0,C1,6.1,90,270.0,0.1240209760733487,[34000|0|0],start
27900,1.281203269958496,-0.3256628513336181,0.0,-0.0838225185871124,0.6916440725326538,3.992744445800781,4.0390625,0,C1,6.1,90,270.0,0.1243833431779456,[34100|0|0],start
28000,1.2810978889465332,-0.3255049586296081,0.0,-0.0915506929159164,0.6961482763290405,4.010005950927734,4.0390625,0,C1,6.1,90,270.0,0.1245731727427187,[34200|0|0],start
28100,1.2810512781143188,-0.3252479434013366,0.0,-0.0984222143888473,0.6970104575157166,4.0080437660217285,4.0390625,0,C1,6.1,90,270.0,0.1248343803177297,[34300|0|0],start
28201,1.2811079025268557,-0.3252885639667511,0.0,-0.0998929813504219,0.6919957995414734,4.015202522277832,4.0390625,0,C1,6.1,90,270.0,0.1249040678663287,[34400|0|0],start
28300,1.2809844017028809,-0.325395792722702,0.0,-0.0990580022335052,0.6883734464645386,4.026979446411133,4.0390625,0,C1,6.1,90,270.0,0.125067623543776,[34500|0|0],start
28400,1.2811052799224854,-0.3252373337745666,0.0,-0.0983529463410377,0.6821531653404236,4.032412528991699,4.0390625,0,C1,6.1,90,270.0,0.1252669242768879,[34600|0|0],start
28501,1.2811094522476196,-0.3252623677253723,0.0,-0.096583105623722,0.6807064414024353,4.018032073974609,4.0390625,0,C1,6.1,90,270.0,0.125292303539879,[34700|0|0],start
28600,1.2812044620513916,-0.3256851434707641,0.0,-0.075675144791603,0.6868184804916382,4.010131359100342,4.0390625,0,C1,6.1,90,270.0,0.1257256235067676,[34800|0|0],start
28700,1.28131103515625,-0.3254480957984924,0.0,-0.0771878436207771,0.6832645535469055,4.021694660186768,4.0390625,0,C1,6.1,90,270.0,0.125985526230125,[34900|0|0],start
28800,1.2809185981750488,-0.3251753449440002,0.0,-0.0864786580204963,0.6872884035110474,4.02599048614502,4.0390625,0,C1,6.1,90,270.0,0.1264634381601294,[35000|0|0],start
28901,1.2810465097427368,-0.3253556489944458,0.0,-0.0905506461858749,0.6691803932189941,4.027553081512451,4.0390625,0,C1,6.1,90,270.0,0.1266845058415202,[35100|0|0],start
29002,1.2811294794082642,-0.3254716098308563,0.0,-0.0838350281119346,0.6656823754310608,4.020619869232178,4.0390625,0,C1,6.1,90,270.0,0.1268270922398152,[35200|0|0],start
29101,1.281071424484253,-0.3254161775112152,0.0,-0.0861101448535919,0.6596792340278625,4.013394832611084,4.0390625,0,C1,6.1,90,270.0,0.1269073612641194,[35300|0|0],start
29201,1.2812740802764893,-0.3254536688327789,0.0,-0.0843548625707626,0.6602720618247986,3.98671555519104,4.0390625,0,C1,6.1,90,270.0,0.1271134558281416,[35400|0|0],start
29301,1.2811784744262695,-0.3253179788589477,0.0,-0.0885132104158401,0.6604676246643066,4.013916492462158,4.0390625,0,C1,6.1,90,270.0,0.1272794445253307,[35500|0|0],start
29402,1.281097650527954,-0.3252275884151459,0.0,-0.0912149399518966,0.6659272313117981,4.016775608062744,4.0390625,0,C1,6.1,90,270.0,0.1274007001844547,[35600|0|0],start
29500,1.2812983989715576,-0.3251561820507049,0.0,-0.0967851057648658,0.6540026068687439,4.015926361083984,4.0390625,0,C1,6.1,90,270.0,0.1276137701412574,[35700|0|0],start
29601,1.280838131904602,-0.3251902163028717,0.0,-0.0870302990078926,0.6693978905677795,3.989191293716431,4.0390625,0,C1,6.1,90,270.0,0.1280752938169713,[35800|0|0],start
29702,1.2811578512191772,-0.3253002762794494,0.0,-0.0887553319334983,0.6604037284851074,4.018753528594971,4.0390625,0,C1,6.1,90,270.0,0.1284134263923862,[35900|0|0],start
29802,1.2812625169754028,-0.3250860273838043,0.0,-0.100110225379467,0.6575523018836975,4.0405592918396,4.0390625,0,C1,6.1,90,270.0,0.1286518745205219,[36000|0|0],start
29901,1.2809264659881592,-0.3253078758716583,0.0,-0.1012107282876968,0.6647472977638245,4.060985565185547,4.04296875,0,C1,6.1,90,270.0,0.129054549349125,[36100|0|0],start
30002,1.2812401056289673,-0.3254906237125397,0.0,-0.1003237143158912,0.6543011665344238,4.048703670501709,4.0390625,0,C1,6.1,90,270.0,0.1294175460400645,[36200|0|0],start
30100,1.2810577154159546,-0.3254988193511963,0.0,-0.1030247583985328,0.6578577756881714,4.018525123596191,4.0390625,0,C1,6.1,90,270.0,0.1296001202942621,[36300|0|0],start
30200,1.2811020612716677,-0.3252974450588226,0.0,-0.1035459861159324,0.6559422016143799,4.001687049865723,4.0390625,0,C1,6.1,90,270.0,0.1298063196166372,[36400|0|0],start
30300,1.281329870223999,-0.3258081078529358,0.0,-0.0907932147383689,0.654075562953949,4.0016679763793945,4.0390625,0,C1,6.1,90,270.0,0.13036549169038,[36500|0|0],start
30403,1.2810789346694946,-0.3254786729812622,0.0,-0.0956866070628166,0.6606597900390625,3.992998361587525,4.0390625,0,C1,6.1,90,270.0,0.1307796124302482,[36600|0|0],start
30500,1.2810488939285278,-0.3251405656337738,0.0,-0.1034451425075531,0.6561676859855652,3.9852099418640137,4.0390625,0,C1,6.1,90,270.0,0.1311190517098601,[36700|0|0],start
30602,1.2807103395462036,-0.3248971402645111,0.0,-0.1071818843483924,0.6600911617279053,3.997106313705444,4.0390625,0,C1,6.1,90,270.0,0.1315360348991995,[36800|0|0],start
30700,1.280657410621643,-0.3246807157993316,0.0,-0.1117321625351905,0.6609028577804565,4.005862712860107,4.0390625,0,C1,6.1,90,270.0,0.1317588375477102,[36900|0|0],start
30800,1.2808748483657837,-0.3252612948417663,0.0,-0.0993706658482551,0.660950779914856,3.995978593826294,4.0390625,0,C1,6.1,90,270.0,0.1323787981892765,[37000|0|0],start
30900,1.281300663948059,-0.325517326593399,0.0,-0.0969162657856941,0.6442040801048279,4.005464553833008,4.0390625,0,C1,6.1,90,270.0,0.1328756595058958,[37100|0|0],start
31000,1.2812209129333496,-0.3253101408481598,0.0,-0.1012388691306114,0.6570323705673218,4.007216930389404,4.0390625,0,C1,6.1,90,270.0,0.133097664364801,[37200|0|0],start
31100,1.2808297872543335,-0.325286328792572,0.0,-0.1019444167613983,0.6660870909690857,4.005673885345459,4.0390625,0,C1,6.1,90,270.0,0.1334895142222427,[37300|0|0],start
31200,1.2809131145477295,-0.3251667320728302,0.0,-0.1075506135821342,0.6643697619438171,4.012223720550537,4.0390625,0,C1,6.1,90,270.0,0.1336352770885623,[37400|0|0],start
31300,1.2809871435165403,-0.3252578973770141,0.0,-0.1047784462571144,0.6613661050796509,4.029098033905029,4.0390625,0,C1,6.1,90,270.0,0.1337527138839466,[37500|0|0],start
31400,1.281002163887024,-0.3254440426826477,0.0,-0.0978609472513198,0.6621113419532776,4.042897701263428,4.0390625,0,C1,6.1,90,270.0,0.1339394642155096,[37600|0|0],start
31500,1.2811944484710691,-0.3253093063831329,0.0,-0.1039413586258888,0.6657569408416748,4.0197272300720215,4.0390625,0,C1,6.1,90,270.0,0.1341742561056345,[37700|0|0],start
31600,1.2811795473098757,-0.3256013393402099,0.0,-0.0956704169511795,0.670886218547821,4.013589382171631,4.0390625,0,C1,6.1,90,270.0,0.1344666689860349,[37800|0|0],start
31700,1.2811423540115356,-0.3254503607749939,0.0,-0.1028085052967071,0.6793068051338196,3.996009588241577,4.0390625,0,C1,6.1,90,270.0,0.134622161328599,[37900|0|0],start
31800,1.2810176610946655,-0.3252472877502441,0.0,-0.1075038909912109,0.6775198578834534,3.98603105545044,4.0390625,0,C1,6.1,90,270.0,0.1348604615109293,[38000|0|0],start
31900,1.281145095825195,-0.3252574503421783,0.0,-0.1036466807126998,0.6703560948371887,3.982712984085083,4.0390625,0,C1,6.1,90,270.0,0.1349883008195161,[38100|0|0],start
32000,1.2810873985290527,-0.3251082301139831,0.0,-0.0976682230830192,0.6773653030395508,3.991136312484741,4.0390625,0,C1,6.1,90,270.0,0.1351482872392047,[38200|0|0],start
32100,1.281280755996704,-0.3252800703048706,0.0,-0.0940721482038497,0.6698018312454224,4.001132488250732,4.0390625,0,C1,6.1,90,270.0,0.1354069688224316,[38300|0|0],start
32200,1.281092643737793,-0.3254167139530182,0.0,-0.0933748483657836,0.6711903810501099,4.031306266784668,4.0390625,0,C1,6.1,90,270.0,0.1356394719590379,[38400|0|0],start
32300,1.281200647354126,-0.3252691626548767,0.0,-0.0918342620134353,0.6745460033416748,4.015691757202148,4.0390625,0,C1,6.1,90,270.0,0.1358223275488464,[38500|0|0],start
32400,1.2809563875198364,-0.324959397315979,0.0,-0.0995537489652633,0.6682783365249634,4.012239933013916,4.0390625,0,C1,6.1,90,270.0,0.136216811302415,[38600|0|0],start
32500,1.2810640335083008,-0.3251034021377563,0.0,-0.0928895026445388,0.6638786792755127,4.0287275314331055,4.0390625,0,C1,6.1,90,270.0,0.1363966029805527,[38700|0|0],start
32600,1.281163215637207,-0.3252459168434143,0.0,-0.0859230309724807,0.6694782376289368,4.038310050964356,4.0390625,0,C1,6.1,90,270.0,0.136570233438777,[38800|0|0],start
32700,1.2812659740447998,-0.3255158960819244,0.0,-0.0864992961287498,0.6739035248756409,4.034586429595947,4.0390625,0,C1,6.1,90,270.0,0.1368591072512929,[38900|0|0],start
32800,1.2812119722366333,-0.325439453125,0.0,-0.097239039838314,0.6743651628494263,4.026406288146973,4.0390625,0,C1,6.1,90,270.0,0.1369527006321945,[39000|0|0],start
32900,1.2813005447387695,-0.3252000212669372,0.0,-0.1100109070539474,0.6772616505622864,4.006372451782227,4.0390625,0,C1,6.1,90,270.0,0.1372079900812325,[39100|0|0],start
33000,1.28125,-0.3252576291561126,0.0,-0.1163301095366478,0.6881778836250305,4.017611503601074,4.0390625,0,C1,6.1,90,270.0,0.1372846284496423,[39200|0|0],start
33100,1.2812292575836182,-0.3254519701004028,0.0,-0.1113281026482582,0.6948575377464294,4.00459623336792,4.0390625,0,C1,6.1,90,270.0,0.1374800732000578,[39300|0|0],start
33200,1.2810488939285278,-0.3251456320285797,0.0,-0.1165470704436302,0.700770378112793,4.021053314208984,4.0390625,0,C1,6.1,90,270.0,0.1378355644971746,[39400|0|0],start
33300,1.2810064554214478,-0.325360357761383,0.0,-0.1148557215929031,0.6997882127761841,4.021925926208496,4.0390625,0,C1,6.1,90,270.0,0.1380544438411317,[39500|0|0],start
33400,1.280848741531372,-0.3250959515571594,0.0,-0.1255384236574173,0.6980623006820679,4.024230480194092,4.0390625,0,C1,6.1,90,270.0,0.1383623144502433,[39600|0|0],start
33500,1.28102707862854,-0.3252901136875152,0.0,-0.117895022034645,0.6929194331169128,4.03369665145874,4.0390625,0,C1,6.1,90,270.0,0.1386259487672254,[39700|0|0],start
