time.ms,stateEstimate.x,stateEstimate.y,stateEstimate.z,stabilizer.roll,stabilizer.pitch,stabilizer.yaw,pm.vbat,drone_id,node_name,wind_speed,global_wind_direction,relative_wind_direction,travel_dist,waiting_time
0,0.626336395740509,0.4268956482410431,-0.07380164414644241,-0.7828860282897949,0.7445827126502991,4.501319885253906,4.16015625,0,"['F2', 'B2', 'A1']",7.6,270,0,0.12600523316143847,[100|0|0]
100,0.6263481378555298,0.4266163408756256,-0.07349888980388641,-0.7618498206138611,0.746780276298523,4.5041303634643555,4.16015625,0,"['F2', 'B2', 'A1']",7.6,270,0,0.126417314068031,[200|0|0]
200,0.627009928226471,0.42602115869522095,-0.07283993065357208,-0.7570348978042603,0.7244549989700317,4.498276710510254,4.16015625,0,"['F2', 'B2', 'A1']",7.6,270,0,0.1275247595451199,[300|0|0]
300,0.6274107098579407,0.4259128272533417,-0.07255624234676361,-0.7645935416221619,0.706214964389801,4.501706123352051,4.16015625,0,"['F2', 'B2', 'A1']",7.6,270,0,0.1280275921940629,[400|0|0]
400,0.6277783513069153,0.4255443513393402,-0.07220476120710373,-0.7555013298988342,0.6970120072364807,4.512295722961426,4.16015625,0,"['F2', 'B2', 'A1']",7.6,270,0,0.12865566362769126,[500|0|0]
500,0.6585100293159485,0.3924356698989868,-0.026577841490507126,-0.01889989525079727,-0.0030696166213601828,3.9056854248046875,4.15234375,0,"['F2', 'B2', 'A1']",7.6,270,0,0.192861867555306,[600|0|0]
601,0.6584029793739319,0.39248064160346985,-0.025691812857985497,-0.34095504879951477,0.1032288447022438,4.466398239135742,4.16015625,0,"['F2', 'B2', 'A1']",7.6,270,0,0.19375547198789236,[700|0|0]
701,0.6580561399459839,0.3925659656524658,-0.02545529417693615,-0.7120237350463867,0.3650835454463959,4.662120342254639,4.16015625,0,"['F2', 'B2', 'A1']",7.6,270,0,0.1941838630109095,[800|0|0]
801,0.6576524972915649,0.3930727243423462,-0.025677256286144257,-0.9383474588394165,0.5533077120780945,4.683380603790283,4.15234375,0,"['F2', 'B2', 'A1']",7.6,270,0,0.19486869798384807,[900|0|0]
901,0.6577602624893188,0.3927774727344513,-0.026108592748641968,-0.9583046436309814,0.6233726739883423,4.686038017272949,4.15234375,0,"['F2', 'B2', 'A1']",7.6,270,0,0.1954024001420707,[1000|0|0]
1001,0.6571957468986511,0.3929862082004547,-0.026055824011564255,-0.9756537079811096,0.699081540107727,4.677124977111816,4.15234375,0,"['F2', 'B2', 'A1']",7.6,270,0,0.19600657965718798,[1100|0|0]
1101,0.6578104496002197,0.39291930198669434,-0.025595739483833313,-0.9577765464782715,0.6910083293914795,4.6497111320495605,4.15234375,0,"['F2', 'B2', 'A1']",7.6,270,0,0.19677730245133182,[1200|0|0]
1201,0.6572763919830322,0.39349839091300964,-0.025792868807911873,-0.9642155170440674,0.718103289604187,4.637822151184082,4.16015625,0,"['F2', 'B2', 'A1']",7.6,270,0,0.19758935016758294,[1300|0|0]
1301,0.6574286222457886,0.39334917068481445,-0.025700652971863747,-1.0377566814422607,0.6268636584281921,4.617100715637207,4.15234375,0,"['F2', 'B2', 'A1']",7.6,270,0,0.19782160969875345,[1400|0|0]
1401,0.6575440764427185,0.39364224672317505,-0.025235800072550774,-1.0059617757797241,0.6457992196083069,4.596385955810547,4.15234375,0,"['F2', 'B2', 'A1']",7.6,270,0,0.19838313570336014,[1500|0|0]
1501,0.6575136780738831,0.39313384890556335,-0.025792205706238747,-0.9564730525016785,0.6594112515449524,4.6089348793029785,4.16015625,0,"['F2', 'B2', 'A1']",7.6,270,0,0.19913744308830336,[1600|0|0]
1602,0.65772944688797,0.3934503495693207,-0.02562185749411583,-0.9369544386863708,0.6609209775924683,4.588924407958984,4.16015625,0,"['F2', 'B2', 'A1']",7.6,270,0,0.19955666542151662,[1700|0|0]
1702,0.6573834419250488,0.39309483766555786,-0.025592084974050522,-0.9072139859199524,0.6804646849632263,4.580343723297119,4.15234375,0,"['F2', 'B2', 'A1']",7.6,270,0,0.20005365088512111,[1800|0|0]
1802,0.6572039127349854,0.3932134509086609,-0.025639427825808525,-0.888043999671936,0.6852598190307617,4.578300476074219,4.15234375,0,"['F2', 'B2', 'A1']",7.6,270,0,0.20027397150861526,[1900|0|0]
1900,0.6574945449829102,0.393179714679718,-0.025678187608718872,-0.8834131360054016,0.6732865571975708,4.584702968597412,4.16015625,0,"['F2', 'B2', 'A1']",7.6,270,0,0.20056911140332345,[2000|0|0]
2000,0.6573482155799866,0.39314699172973633,-0.02580549195408821,-0.8726128935813904,0.6686280965805054,4.6102752685546875,4.16015625,0,"['F2', 'B2', 'A1']",7.6,270,0,0.20076580782414852,[2100|0|0]
2100,0.6578280925750732,0.39293739199638367,-0.02554452419281006,-0.8615000247955322,0.6549744009971619,4.587985515594482,4.15234375,0,"['F2', 'B2', 'A1']",7.6,270,0,0.20135088743502336,[2200|0|0]
2202,0.6575831770896912,0.3930306136608124,-0.025538530200719833,-0.8563588857650757,0.663453221321106,4.592608451843262,4.16015625,0,"['F2', 'B2', 'A1']",7.6,270,0,0.20161301298059262,[2300|0|0]
2302,0.6574409604072571,0.39301201701164246,-0.025475772097706795,-0.8442034125328064,0.6686943173408508,4.613036632537842,4.16015625,0,"['F2', 'B2', 'A1']",7.6,270,0,0.2017695696783628,[2400|0|0]
2402,0.6577200293540955,0.392973929643631,-0.025483470410108566,-0.8463494777679443,0.6608875393867493,4.581772327423096,4.16015625,0,"['F2', 'B2', 'A1']",7.6,270,0,0.20205133090476798,[2500|0|0]
2500,0.6576310992240906,0.3927971422672272,-0.025488730520009995,-0.8428344130516052,0.6605249047279358,4.595180034637451,4.16015625,0,"['F2', 'B2', 'A1']",7.6,270,0,0.2022492955815025,[2600|0|0]
2600,0.6573055386543274,0.39270105957984924,-0.02557556703686714,-0.8438708186149597,0.662312388420105,4.585707664489746,4.15234375,0,"['F2', 'B2', 'A1']",7.6,270,0,0.20259966987858805,[2700|0|0]
2700,0.6574298143386841,0.3926325738430023,-0.02560235932469368,-0.8393983840942383,0.652880072593689,4.589262008666992,4.15234375,0,"['F2', 'B2', 'A1']",7.6,270,0,0.20274407406329462,[2800|0|0]
2800,0.6576465368270874,0.3929160237312317,-0.025521209463477135,-0.8451542854309082,0.6303964853286743,4.597667694091797,4.16015625,0,"['F2', 'B2', 'A1']",7.6,270,0,0.2031099945137923,[2900|0|0]
2900,0.6572593450546265,0.39280831813812256,-0.025811979547142982,-0.8366984724998474,0.6388937830924988,4.602242469787598,4.15234375,0,"['F2', 'B2', 'A1']",7.6,270,0,0.20360604411313038,[3000|0|0]
3000,0.657676637172699,0.3926684260368347,-0.025664430111646652,-0.8365520238876343,0.6190454363822937,4.595551013946533,4.15234375,0,"['F2', 'B2', 'A1']",7.6,270,0,0.20407023518125153,[3100|0|0]
3100,0.6574480533599854,0.3924979567527771,-0.025599969550967216,-0.8326588273048401,0.6236793994903564,4.590676307678223,4.15234375,0,"['F2', 'B2', 'A1']",7.6,270,0,0.2043625800121019,[3200|0|0]
3200,0.6578150391578674,0.3929409682750702,-0.025647100061178207,-0.8478225469589233,0.6101952791213989,4.600728988647461,4.16015625,0,"['F2', 'B2', 'A1']",7.6,270,0,0.20493977934484955,[3300|0|0]
3300,0.6574519872665405,0.3929693102836609,-0.025644121691584587,-0.8501768708229065,0.6242979764938354,4.619565963745117,4.15234375,0,"['F2', 'B2', 'A1']",7.6,270,0,0.20530394800897708,[3400|0|0]
3400,0.6576225757598877,0.3928892910480499,-0.025849539786577225,-0.8500120043754578,0.6199549436569214,4.596059799194336,4.15234375,0,"['F2', 'B2', 'A1']",7.6,270,0,0.20558269539619464,[3500|0|0]
3500,0.6575634479522705,0.3929743766784668,-0.025878148153424263,-0.8521827459335327,0.620742678642273,4.593122482299805,4.15234375,0,"['F2', 'B2', 'A1']",7.6,270,0,0.20569018539940753,[3600|0|0]
3600,0.6577614545822144,0.3927561640739441,-0.025690827518701553,-0.846988320350647,0.6122286915779114,4.599694728851318,4.16015625,0,"['F2', 'B2', 'A1']",7.6,270,0,0.20603934494240647,[3700|0|0]
3700,0.6576337218284607,0.39279982447624207,-0.025748377665877342,-0.8438407778739929,0.6106741428375244,4.61573600769043,4.16015625,0,"['F2', 'B2', 'A1']",7.6,270,0,0.20618608930022056,[3800|0|0]
3800,0.6575652956962585,0.392633855342865,-0.025679148733615875,-0.8397594690322876,0.6149641275405884,4.6093268394470215,4.15234375,0,"['F2', 'B2', 'A1']",7.6,270,0,0.20637849650867218,[3900|0|0]
3900,0.657322347164154,0.39244788885116577,-0.02575087733566761,-0.7634077072143555,0.6784415245056152,4.578556537628174,4.15234375,0,"['F2', 'B2', 'A1']",7.6,270,0,0.20669274564174805,[4000|0|0]
4000,0.6575630307197571,0.392890065908432,-0.025782279670238495,-0.7840614318847656,0.6601970195770264,4.586733818054199,4.16015625,0,"['F2', 'B2', 'A1']",7.6,270,0,0.20719716137358724,[4100|0|0]
4100,0.6576957702636719,0.39254704117774963,-0.025954775512218475,-0.7796496748924255,0.649760901927948,4.584818363189697,4.15234375,0,"['F2', 'B2', 'A1']",7.6,270,0,0.20760341322635692,[4200|0|0]
4200,0.6574649214744568,0.3926500082015991,-0.026179414242506027,-0.7876077890396118,0.651512861251831,4.588263988494873,4.15234375,0,"['F2', 'B2', 'A1']",7.6,270,0,0.20794157876367214,[4300|0|0]
4300,0.6575490236282349,0.39301639795303345,-0.026129677891731262,-0.7595359086990356,0.6834120750427246,4.597451686859131,4.15234375,0,"['F2', 'B2', 'A1']",7.6,270,0,0.20832077307641247,[4400|0|0]
4400,0.6576361656188965,0.3927501440048218,-0.025562020018696785,-0.8545088768005371,0.6065322160720825,4.579880237579346,4.15234375,0,"['F2', 'B2', 'A1']",7.6,270,0,0.20895379784077228,[4500|0|0]
4500,0.6579875349998474,0.39280447363853455,-0.02584623172879219,-0.8529465198516846,0.604053258895874,4.573735237121582,4.15234375,0,"['F2', 'B2', 'A1']",7.6,270,0,0.2094089774175599,[4600|0|0]
4600,0.6577931046485901,0.392943412065506,-0.025955334305763245,-0.856806218624115,0.6137452721595764,4.566540241241455,4.15234375,0,"['F2', 'B2', 'A1']",7.6,270,0,0.2096716757622084,[4700|0|0]
4700,0.6574440598487854,0.3927064538002014,-0.025526855140924454,-0.8451632261276245,0.6258082389831543,4.578484535217285,4.16015625,0,"['F2', 'B2', 'A1']",7.6,270,0,0.21027298756690527,[4800|0|0]
4800,0.6576095819473267,0.392897367477417,-0.025266775861382484,-0.8449857831001282,0.6221081018447876,4.588080406188965,4.16015625,0,"['F2', 'B2', 'A1']",7.6,270,0,0.21063559869318318,[4900|0|0]
4900,0.6577460765838623,0.39299920201301575,-0.025588013231754303,-0.8380619883537292,0.6179196238517761,4.599268913269043,4.15234375,0,"['F2', 'B2', 'A1']",7.6,270,0,0.21099918431799117,[5000|0|0]
5000,0.6576997637748718,0.39274027943611145,-0.025587813928723335,-0.8221346735954285,0.6351463198661804,4.595870018005371,4.16015625,0,"['F2', 'B2', 'A1']",7.6,270,0,0.21126221628720604,[5100|0|0]
5100,0.6575364470481873,0.39277589321136475,-0.025793910026550293,-0.8058256506919861,0.651806116104126,4.578655242919922,4.16015625,0,"['F2', 'B2', 'A1']",7.6,270,0,0.21152757697710237,[5200|0|0]
5200,0.6573298573493958,0.3928457498550415,-0.026017025113105774,-0.7980378270149231,0.6712150573730469,4.600185394287109,4.15234375,0,"['F2', 'B2', 'A1']",7.6,270,0,0.21183956991958858,[5300|0|0]
5300,0.6576105952262878,0.3930593729019165,-0.025891277939081192,-0.8033738732337952,0.6674988269805908,4.578083038330078,4.15234375,0,"['F2', 'B2', 'A1']",7.6,270,0,0.21221408415623813,[5400|0|0]
5400,0.6572696566581726,0.3926207721233368,-0.02574780583381653,-0.7912991046905518,0.683965265750885,4.566108226776123,4.15234375,0,"['F2', 'B2', 'A1']",7.6,270,0,0.21278783845486104,[5500|0|0]
5500,0.657651960849762,0.392474889755249,-0.025727059692144394,-0.783184826374054,0.6746315360069275,4.5430827140808105,4.15234375,0,"['F2', 'B2', 'A1']",7.6,270,0,0.21319755611694063,[5600|0|0]
5600,0.6574229598045349,0.39290907979011536,-0.025464702397584915,-0.7983594536781311,0.6796522736549377,4.565704345703125,4.16015625,0,"['F2', 'B2', 'A1']",7.6,270,0,0.21375414736292,[5700|0|0]
5700,0.6574867367744446,0.39290153980255127,-0.025547198951244354,-0.8003960847854614,0.6775218844413757,4.569797992706299,4.15234375,0,"['F2', 'B2', 'A1']",7.6,270,0,0.21385869416903577,[5800|0|0]
5800,0.6576350927352905,0.39276647567749023,-0.02581370435655117,-0.7982000708580017,0.6724711656570435,4.581050872802734,4.15234375,0,"['F2', 'B2', 'A1']",7.6,270,0,0.21419227615304387,[5900|0|0]
5900,0.6576212048530579,0.39273399114608765,-0.025514258071780205,-0.791426956653595,0.6718905568122864,4.576127529144287,4.15234375,0,"['F2', 'B2', 'A1']",7.6,270,0,0.21449379927904996,[6000|0|0]
6000,0.6574240922927856,0.3926442861557007,-0.025571782141923904,-0.7924606204032898,0.6772522926330566,4.591303825378418,4.15234375,0,"['F2', 'B2', 'A1']",7.6,270,0,0.21471787374293036,[6100|0|0]
6100,0.6576414108276367,0.3927490711212158,-0.025449790060520172,-0.7991001009941101,0.6664772629737854,4.581614017486572,4.16015625,0,"['F2', 'B2', 'A1']",7.6,270,0,0.21498822407585608,[6200|0|0]
6200,0.6575798988342285,0.3930680453777313,-0.02590685896575451,-0.8087309002876282,0.6718800067901611,4.577084541320801,4.15234375,0,"['F2', 'B2', 'A1']",7.6,270,0,0.2155489738291193,[6300|0|0]
6300,0.6573035717010498,0.3927256762981415,-0.026084501296281815,-0.8003389835357666,0.6784935593605042,4.563669204711914,4.16015625,0,"['F2', 'B2', 'A1']",7.6,270,0,0.21602345256287367,[6400|0|0]
6400,0.6576128005981445,0.3929789662361145,-0.025808945298194885,-0.8027851581573486,0.6721624732017517,4.568397521972656,4.15234375,0,"['F2', 'B2', 'A1']",7.6,270,0,0.21650895169939038,[6500|0|0]
6500,0.6574552655220032,0.3929562270641327,-0.02589007280766964,-0.7964217662811279,0.6783447861671448,4.589041233062744,4.15234375,0,"['F2', 'B2', 'A1']",7.6,270,0,0.21668760231638023,[6600|0|0]
6600,0.6576233506202698,0.39288678765296936,-0.02584865875542164,-0.7931810021400452,0.6704027056694031,4.599407196044922,4.15234375,0,"['F2', 'B2', 'A1']",7.6,270,0,0.21687412190196204,[6700|0|0]
6700,0.6578073501586914,0.39308279752731323,-0.025692168623209,-0.8187288641929626,0.6600731611251831,4.60405969619751,4.15234375,0,"['F2', 'B2', 'A1']",7.6,270,0,0.2171851924123927,[6800|0|0]
6800,0.6573847532272339,0.3930700123310089,-0.025911841541528702,-0.7982990741729736,0.6939582824707031,4.6060404777526855,4.15234375,0,"['F2', 'B2', 'A1']",7.6,270,0,0.21766164578761943,[6900|0|0]
6900,0.6573964357376099,0.3926105499267578,-0.025863440707325935,-0.783563494682312,0.6872026920318604,4.575382232666016,4.15234375,0,"['F2', 'B2', 'A1']",7.6,270,0,0.21812379816803135,[7000|0|0]
7000,0.6576655507087708,0.3926830291748047,-0.025885090231895447,-0.7825923562049866,0.6788750886917114,4.572195529937744,4.15234375,0,"['F2', 'B2', 'A1']",7.6,270,0,0.21840334210199244,[7100|0|0]
7100,0.6576801538467407,0.3927801847457886,-0.026079930365085602,-0.7839093804359436,0.6773316860198975,4.538581371307373,4.15234375,0,"['F2', 'B2', 'A1']",7.6,270,0,0.2186215510250761,[7200|0|0]
7200,0.6575627326965332,0.39259451627731323,-0.025542009621858597,-0.7780088186264038,0.6829797625541687,4.553980350494385,4.15234375,0,"['F2', 'B2', 'A1']",7.6,270,0,0.21920260113711115,[7300|0|0]
7300,0.6575082540512085,0.3928413987159729,-0.025457752868533134,-0.8677974343299866,0.6094153523445129,4.5470194816589355,4.16015625,0,"['F2', 'B2', 'A1']",7.6,270,0,0.2194690932792015,[7400|0|0]
7400,0.6577361226081848,0.39292600750923157,-0.02601204812526703,-0.8480642437934875,0.6238070130348206,4.555305004119873,4.15234375,0,"['F2', 'B2', 'A1']",7.6,270,0,0.2200743419543697,[7500|0|0]
7500,0.6577115058898926,0.3928726315498352,-0.025607258081436157,-0.8360587358474731,0.6372734904289246,4.5340681076049805,4.15234375,0,"['F2', 'B2', 'A1']",7.6,270,0,0.22048337735069326,[7600|0|0]
7600,0.6575855612754822,0.39246419072151184,-0.02590736374258995,-0.8235834240913391,0.6477447152137756,4.560588359832764,4.15234375,0,"['F2', 'B2', 'A1']",7.6,270,0,0.22100563146891256,[7700|0|0]
7700,0.6574617028236389,0.39321407675743103,-0.025859061628580093,-0.8360499143600464,0.648948609828949,4.583504676818848,4.15234375,0,"['F2', 'B2', 'A1']",7.6,270,0,0.22176721079976222,[7800|0|0]
7800,0.6575765013694763,0.3931157886981964,-0.02560318447649479,-0.835486114025116,0.6445987224578857,4.619874000549316,4.15234375,0,"['F2', 'B2', 'A1']",7.6,270,0,0.22206438476509865,[7900|0|0]
7900,0.6573235988616943,0.39260533452033997,-0.025542618706822395,-0.8222283720970154,0.6538715362548828,4.610839366912842,4.15234375,0,"['F2', 'B2', 'A1']",7.6,270,0,0.22263726464656555,[8000|0|0]
8000,0.6577802896499634,0.3925439715385437,-0.025794215500354767,-0.7684609889984131,0.6956031918525696,4.612888336181641,4.15234375,0,"['F2', 'B2', 'A1']",7.6,270,0,0.22316227211140818,[8100|0|0]
8100,0.6575174927711487,0.3927420377731323,-0.026051117107272148,-0.776549220085144,0.7019384503364563,4.613743782043457,4.15234375,0,"['F2', 'B2', 'A1']",7.6,270,0,0.22357975368996655,[8200|0|0]
8200,0.6578311920166016,0.3923325836658478,-0.025950193405151367,-0.7680628299713135,0.6887993812561035,4.5936737060546875,4.15234375,0,"['F2', 'B2', 'A1']",7.6,270,0,0.2241053442875039,[8300|0|0]
8300,0.6577932238578796,0.3925086557865143,-0.025857483968138695,-0.7772862911224365,0.6878207325935364,4.5701069831848145,4.16015625,0,"['F2', 'B2', 'A1']",7.6,270,0,0.22430792269815997,[8400|0|0]
8400,0.6578723192214966,0.3929985463619232,-0.026012232527136803,-0.7872423529624939,0.6862496733665466,4.560891628265381,4.15234375,0,"['F2', 'B2', 'A1']",7.6,270,0,0.2248277264774192,[8500|0|0]
8500,0.6576501131057739,0.393187940120697,-0.025673480704426765,-0.8780168890953064,0.6120549440383911,4.560770511627197,4.15234375,0,"['F2', 'B2', 'A1']",7.6,270,0,0.22527493822940745,[8600|0|0]
8600,0.6575789451599121,0.39266437292099,-0.025854192674160004,-0.8524916172027588,0.625374436378479,4.576998233795166,4.16015625,0,"['F2', 'B2', 'A1']",7.6,270,0,0.2258333684445034,[8700|0|0]
8700,0.6577484607696533,0.3930080235004425,-0.025648145005106926,-0.8527145385742188,0.622093677520752,4.57435417175293,4.16015625,0,"['F2', 'B2', 'A1']",7.6,270,0,0.22626843959342757,[8800|0|0]
8800,0.6577363610267639,0.3927941918373108,-0.025989798828959465,-0.8373742699623108,0.6195053458213806,4.581502914428711,4.15234375,0,"['F2', 'B2', 'A1']",7.6,270,0,0.22667167366848662,[8900|0|0]
8900,0.6577553749084473,0.39305680990219116,-0.02581067569553852,-0.8487008810043335,0.6199907064437866,4.5815887451171875,4.15234375,0,"['F2', 'B2', 'A1']",7.6,270,0,0.22699013068697532,[9000|0|0]
9000,0.6576969623565674,0.3929867744445801,-0.025535648688673973,-0.8398088812828064,0.622984766960144,4.591954231262207,4.15234375,0,"['F2', 'B2', 'A1']",7.6,270,0,0.2272798837646894,[9100|0|0]
9100,0.6578109264373779,0.3928077220916748,-0.026030613109469414,-0.8341137170791626,0.620472252368927,4.576749801635742,4.15234375,0,"['F2', 'B2', 'A1']",7.6,270,0,0.22781843490863887,[9200|0|0]
9200,0.6573992371559143,0.39281395077705383,-0.025732113048434258,-0.8341097831726074,0.6348397135734558,4.594709873199463,4.15234375,0,"['F2', 'B2', 'A1']",7.6,270,0,0.22832699085190528,[9300|0|0]
9300,0.6577246785163879,0.3928602933883667,-0.025423897430300713,-0.8340790271759033,0.6237682104110718,4.578732967376709,4.15234375,0,"['F2', 'B2', 'A1']",7.6,270,0,0.22877760885419954,[9400|0|0]
9400,0.6574280261993408,0.3926546573638916,-0.025668038055300713,-0.830828070640564,0.6284323334693909,4.597954273223877,4.15234375,0,"['F2', 'B2', 'A1']",7.6,270,0,0.2292133764717972,[9500|0|0]
9500,0.6573901772499084,0.39277634024620056,-0.02573251724243164,-0.8353320956230164,0.6241418123245239,4.599685192108154,4.16015625,0,"['F2', 'B2', 'A1']",7.6,270,0,0.22935619395109585,[9600|0|0]
9600,0.6575032472610474,0.39223146438598633,-0.025709256529808044,-0.8094655275344849,0.6422984600067139,4.586132526397705,4.15234375,0,"['F2', 'B2', 'A1']",7.6,270,0,0.2299131639603557,[9700|0|0]
9700,0.6580284237861633,0.39238184690475464,-0.025819210335612297,-0.8092741370201111,0.6425992250442505,4.595095634460449,4.15234375,0,"['F2', 'B2', 'A1']",7.6,270,0,0.2304704027995394,[9800|0|0]
9800,0.6578447818756104,0.39266836643218994,-0.02589874342083931,-0.8085572123527527,0.6504002213478088,4.605110168457031,4.15234375,0,"['F2', 'B2', 'A1']",7.6,270,0,0.23081989286028365,[9900|0|0]
9900,0.6576504111289978,0.39241892099380493,-0.026192566379904747,-0.8022026419639587,0.6717381477355957,4.598023891448975,4.15234375,0,"['F2', 'B2', 'A1']",7.6,270,0,0.23125155817640689,[10000|0|0]
10000,0.6577888131141663,0.3922296166419983,-0.02601926401257515,-0.7917824983596802,0.6722679734230042,4.599002838134766,4.15234375,0,"['F2', 'B2', 'A1']",7.6,270,0,0.23154314856999617,[10100|0|0]
10100,0.6577443480491638,0.3926745355129242,-0.025851378217339516,-0.8006083965301514,0.6713056564331055,4.592892646789551,4.15234375,0,"['F2', 'B2', 'A1']",7.6,270,0,0.23202076304209007,[10200|0|0]
10200,0.6577271819114685,0.39255988597869873,-0.025799039751291275,-0.7982402443885803,0.6734813451766968,4.599809646606445,4.15234375,0,"['F2', 'B2', 'A1']",7.6,270,0,0.23214795780224068,[10300|0|0]
10300,0.6575610041618347,0.3925330340862274,-0.026346053928136826,-0.7967616319656372,0.6788866519927979,4.58420991897583,4.15234375,0,"['F2', 'B2', 'A1']",7.6,270,0,0.23272028688438892,[10400|0|0]
10400,0.6577095985412598,0.3922263979911804,-0.025818146765232086,-0.7849394679069519,0.6709243655204773,4.5780181884765625,4.15234375,0,"['F2', 'B2', 'A1']",7.6,270,0,0.23334861160698744,[10500|0|0]
10500,0.6575554013252258,0.392251580953598,-0.02585369162261486,-0.7834155559539795,0.6729283332824707,4.560227394104004,4.15234375,0,"['F2', 'B2', 'A1']",7.6,270,0,0.23350884393804178,[10600|0|0]
10600,0.6575006246566772,0.3927597403526306,-0.025900231674313545,-0.8015105128288269,0.6745408177375793,4.564608573913574,4.15234375,0,"['F2', 'B2', 'A1']",7.6,270,0,0.2340220616644061,[10700|0|0]
10700,0.6578301787376404,0.3925820589065552,-0.025820858776569366,-0.7922960519790649,0.6671776175498962,4.580982208251953,4.15234375,0,"['F2', 'B2', 'A1']",7.6,270,0,0.23440478433874773,[10800|0|0]
10800,0.6577162742614746,0.3923097550868988,-0.02569863200187683,-0.7917178869247437,0.6699662208557129,4.5642571449279785,4.15234375,0,"['F2', 'B2', 'A1']",7.6,270,0,0.2347242573177957,[10900|0|0]
10900,0.657742440700531,0.3923642337322235,-0.025739626958966255,-0.7894561290740967,0.6710185408592224,4.554941177368164,4.15234375,0,"['F2', 'B2', 'A1']",7.6,270,0,0.23479728602335775,[11000|0|0]
11000,0.657692551612854,0.3931008279323578,-0.025919221341609955,-0.8206038475036621,0.6585904955863953,4.57691764831543,4.15234375,0,"['F2', 'B2', 'A1']",7.6,270,0,0.23555709789416385,[11100|0|0]
11100,0.6576958894729614,0.39289718866348267,-0.02573998272418976,-0.7930484414100647,0.6794135570526123,4.577026844024658,4.15234375,0,"['F2', 'B2', 'A1']",7.6,270,0,0.23582840321131188,[11200|0|0]
11200,0.6576327085494995,0.3932137191295624,-0.025645537301898003,-0.8816190958023071,0.6127709150314331,4.57753324508667,4.15234375,0,"['F2', 'B2', 'A1']",7.6,270,0,0.23616471155619498,[11300|0|0]
11300,0.6580480337142944,0.392839640378952,-0.02565798908472061,-0.8560482859611511,0.6223400235176086,4.546001434326172,4.15234375,0,"['F2', 'B2', 'A1']",7.6,270,0,0.23672380452794975,[11400|0|0]
11400,0.6577642560005188,0.3929929733276367,-0.025470582768321037,-0.8528118133544922,0.6406902074813843,4.548351287841797,4.15234375,0,"['F2', 'B2', 'A1']",7.6,270,0,0.2370968486425187,[11500|0|0]
11500,0.6579193472862244,0.39276453852653503,-0.02583881840109825,-0.839540958404541,0.6470105051994324,4.55499267578125,4.15234375,0,"['F2', 'B2', 'A1']",7.6,270,0,0.23755710210149866,[11600|0|0]
11600,0.6575122475624084,0.39263513684272766,-0.025585100054740906,-0.8374539017677307,0.6659873127937317,4.567195415496826,4.15234375,0,"['F2', 'B2', 'A1']",7.6,270,0,0.2380539400833212,[11700|0|0]
11700,0.6571925282478333,0.39299389719963074,-0.025951936841011047,-0.840088427066803,0.6695932745933533,4.56606912612915,4.15234375,0,"['F2', 'B2', 'A1']",7.6,270,0,0.23865850493638385,[11800|0|0]
11800,0.6574423909187317,0.3931863009929657,-0.02569631114602089,-0.8366616368293762,0.6521125435829163,4.590419292449951,4.15234375,0,"['F2', 'B2', 'A1']",7.6,270,0,0.23906445452677333,[11900|0|0]
11900,0.6578132510185242,0.3929830491542816,-0.025819487869739532,-0.8282323479652405,0.6459343433380127,4.5830817222595215,4.15234375,0,"['F2', 'B2', 'A1']",7.6,270,0,0.2395049327087672,[12000|0|0]
12000,0.6573273539543152,0.3926614820957184,-0.026015548035502434,-0.8218761086463928,0.6570538878440857,4.583482265472412,4.15234375,0,"['F2', 'B2', 'A1']",7.6,270,0,0.24011970170502422,[12100|0|0]
12100,0.6575580835342407,0.3929773271083832,-0.025810813531279564,-0.8209590911865234,0.6546335220336914,4.593101501464844,4.15234375,0,"['F2', 'B2', 'A1']",7.6,270,0,0.24056118831670936,[12200|0|0]
12200,0.6579264402389526,0.3922528028488159,-0.026029378175735474,-0.816243052482605,0.642996609210968,4.598259925842285,4.15234375,0,"['F2', 'B2', 'A1']",7.6,270,0,0.2414028489183855,[12300|0|0]
12300,0.657689094543457,0.3924156129360199,-0.025689853355288506,-0.8280226588249207,0.6478421092033386,4.568838596343994,4.15234375,0,"['F2', 'B2', 'A1']",7.6,270,0,0.24184795251010907,[12400|0|0]
12400,0.6577965617179871,0.3926088213920593,-0.02544545754790306,-0.8302377462387085,0.6496076583862305,4.566687107086182,4.15234375,0,"['F2', 'B2', 'A1']",7.6,270,0,0.24217750980672711,[12500|0|0]
12500,0.6575491428375244,0.3923419713973999,-0.025835121050477028,-0.830564022064209,0.653887927532196,4.56112813949585,4.15234375,0,"['F2', 'B2', 'A1']",7.6,270,0,0.24271067269674979,[12600|0|0]
12600,0.6575829386711121,0.39278140664100647,-0.02556818351149559,-0.8336622714996338,0.6430483460426331,4.564559459686279,4.15234375,0,"['F2', 'B2', 'A1']",7.6,270,0,0.24322594072545806,[12700|0|0]
12700,0.6575642824172974,0.392663836479187,-0.02578216977417469,-0.837947428226471,0.6483904719352722,4.547737121582031,4.15234375,0,"['F2', 'B2', 'A1']",7.6,270,0,0.24347080991374442,[12800|0|0]
12800,0.65772944688797,0.3921820819377899,-0.025868292897939682,-0.8258211612701416,0.6380680203437805,4.552407264709473,4.15234375,0,"['F2', 'B2', 'A1']",7.6,270,0,0.24398732122337502,[12900|0|0]
12900,0.6574062705039978,0.39248645305633545,-0.0257259514182806,-0.8372524380683899,0.6419458985328674,4.579714775085449,4.15234375,0,"['F2', 'B2', 'A1']",7.6,270,0,0.2444535248803679,[13000|0|0]
13000,0.6577343940734863,0.3927902281284332,-0.02554957941174507,-0.8369408249855042,0.6326287388801575,4.573158264160156,4.15234375,0,"['F2', 'B2', 'A1']",7.6,270,0,0.2449342030013296,[13100|0|0]
13100,0.6573734283447266,0.3923977315425873,-0.026097189635038376,-0.8288577795028687,0.6400681734085083,4.596562385559082,4.15234375,0,"['F2', 'B2', 'A1']",7.6,270,0,0.245698550294054,[13200|0|0]
13200,0.6574229598045349,0.3922303318977356,-0.02586381696164608,-0.8277644515037537,0.6259225606918335,4.617912769317627,4.15234375,0,"['F2', 'B2', 'A1']",7.6,270,0,0.2459899929321382,[13300|0|0]
13300,0.6575613021850586,0.3928428888320923,-0.025767188519239426,-0.8396862745285034,0.6141856908798218,4.607370376586914,4.15234375,0,"['F2', 'B2', 'A1']",7.6,270,0,0.24662536815038277,[13400|0|0]
13400,0.6575006246566772,0.3926134705543518,-0.02562866546213627,-0.8269312381744385,0.617313802242279,4.612374305725098,4.15234375,0,"['F2', 'B2', 'A1']",7.6,270,0,0.24690014650826614,[13500|0|0]
13500,0.6574434041976929,0.39250749349594116,-0.025612279772758484,-0.8318541646003723,0.6142529249191284,4.60886812210083,4.15234375,0,"['F2', 'B2', 'A1']",7.6,270,0,0.2470216940654285,[13600|0|0]
13600,0.6573483347892761,0.3928552269935608,-0.02575099840760231,-0.8436236381530762,0.6145294308662415,4.623187065124512,4.15234375,0,"['F2', 'B2', 'A1']",7.6,270,0,0.24740795775442403,[13700|0|0]
13700,0.6577663421630859,0.3923037648200989,-0.025670908391475677,-0.8324456810951233,0.6068626642227173,4.589801788330078,4.15234375,0,"['F2', 'B2', 'A1']",7.6,270,0,0.24810456029820482,[13800|0|0]
13800,0.6577360033988953,0.39247220754623413,-0.025445574894547462,-0.826862096786499,0.610916018486023,4.598245143890381,4.15234375,0,"['F2', 'B2', 'A1']",7.6,270,0,0.24838752421363997,[13900|0|0]
13900,0.6577801704406738,0.3925013244152069,-0.02562439627945423,-0.8264642357826233,0.6092902421951294,4.57228422164917,4.15234375,0,"['F2', 'B2', 'A1']",7.6,270,0,0.2485740064040449,[14000|0|0]
14000,0.6574709415435791,0.3926112651824951,-0.025868579745292664,-0.8226196765899658,0.6170781254768372,4.58998966217041,4.15234375,0,"['F2', 'B2', 'A1']",7.6,270,0,0.24898307247217963,[14100|0|0]
14100,0.6578256487846375,0.3925645351409912,-0.026210663840174675,-0.8251658082008362,0.6063892841339111,4.598621845245361,4.15234375,0,"['F2', 'B2', 'A1']",7.6,270,0,0.24947806989804105,[14200|0|0]
14200,0.6575327515602112,0.3924420475959778,-0.02594318985939026,-0.7513103485107422,0.6685033440589905,4.613951683044434,4.15234375,0,"['F2', 'B2', 'A1']",7.6,270,0,0.24989320157974781,[14300|0|0]
14300,0.6574984192848206,0.39242398738861084,-0.026139836758375168,-0.769822895526886,0.6623287796974182,4.605844974517822,4.15234375,0,"['F2', 'B2', 'A1']",7.6,270,0,0.25009363830069486,[14400|0|0]
14400,0.6577840447425842,0.3923967182636261,-0.025911521166563034,-0.779105544090271,0.6458575129508972,4.606537342071533,4.15234375,0,"['F2', 'B2', 'A1']",7.6,270,0,0.2504603173384986,[14500|0|0]
14500,0.6572812795639038,0.39245840907096863,-0.025934044271707535,-0.782556414604187,0.6571919322013855,4.603846549987793,4.15234375,0,"['F2', 'B2', 'A1']",7.6,270,0,0.250967353698999,[14600|0|0]
14600,0.6576873064041138,0.3924191892147064,-0.025750044733285904,-0.7946901917457581,0.6347050070762634,4.604787349700928,4.15234375,0,"['F2', 'B2', 'A1']",7.6,270,0,0.2514148487517487,[14700|0|0]
14700,0.6575977206230164,0.3927597999572754,-0.025720860809087753,-0.8244584798812866,0.6253946423530579,4.601280689239502,4.15234375,0,"['F2', 'B2', 'A1']",7.6,270,0,0.2517682507771529,[14800|0|0]
14800,0.6579086184501648,0.39282000064849854,-0.02569008804857731,-0.8125467300415039,0.6285930871963501,4.601509094238281,4.15234375,0,"['F2', 'B2', 'A1']",7.6,270,0,0.25208641511352453,[14900|0|0]
14900,0.6582390666007996,0.39258041977882385,-0.025876648724079132,-0.7948456406593323,0.6399585008621216,4.5738325119018555,4.15234375,0,"['F2', 'B2', 'A1']",7.6,270,0,0.2525351910698944,[15000|0|0]
15000,0.6575939059257507,0.3926280736923218,-0.025721704587340355,-0.7946921586990356,0.6638329029083252,4.550116539001465,4.15234375,0,"['F2', 'B2', 'A1']",7.6,270,0,0.2532004059807397,[15100|0|0]
15100,0.6578754782676697,0.39268964529037476,-0.025815732777118683,-0.7853184342384338,0.6671926379203796,4.572291851043701,4.15234375,0,"['F2', 'B2', 'A1']",7.6,270,0,0.2535035814182235,[15200|0|0]
15200,0.6576224565505981,0.3927234411239624,-0.02556106075644493,-0.7875977158546448,0.6773633360862732,4.58821964263916,4.15234375,0,"['F2', 'B2', 'A1']",7.6,270,0,0.2538641642600113,[15300|0|0]
15300,0.6577433943748474,0.39233285188674927,-0.026139086112380028,-0.7826917767524719,0.675443172454834,4.595341205596924,4.15234375,0,"['F2', 'B2', 'A1']",7.6,270,0,0.2545721891336314,[15400|0|0]
15400,0.6577532291412354,0.39274293184280396,-0.0257601048797369,-0.7905576229095459,0.6710867285728455,4.581742286682129,4.15234375,0,"['F2', 'B2', 'A1']",7.6,270,0,0.25513065942620156,[15500|0|0]
15500,0.6578638553619385,0.39274412393569946,-0.02591678313910961,-0.7817155122756958,0.6808620095252991,4.6007537841796875,4.15234375,0,"['F2', 'B2', 'A1']",7.6,270,0,0.25532246051783714,[15600|0|0]
15600,0.657844066619873,0.3924117088317871,-0.02577740140259266,-0.7793080806732178,0.6930398344993591,4.61599588394165,4.15234375,0,"['F2', 'B2', 'A1']",7.6,270,0,0.25568345728249864,[15700|0|0]
15700,0.6574487686157227,0.3923879563808441,-0.025975661352276802,-0.7781960964202881,0.6971843838691711,4.607398986816406,4.15234375,0,"['F2', 'B2', 'A1']",7.6,270,0,0.25612632486842,[15800|0|0]
15800,0.6544176936149597,0.3884965181350708,-0.028012435883283615,-0.6967301368713379,0.7635565996170044,4.611288070678711,4.15234375,0,"['F2', 'B2', 'A1']",7.6,270,0,0.2614629115838286,[15900|0|0]
15900,0.6543660163879395,0.38819634914398193,-0.027998637408018112,-0.6916841864585876,0.7644641995429993,4.618674278259277,4.15234375,0,"['F2', 'B2', 'A1']",7.6,270,0,0.26176780887296625,[16000|0|0]
16000,0.65430748462677,0.38856232166290283,-0.02790985070168972,-0.7036659717559814,0.7645063400268555,4.610413074493408,4.15234375,0,"['F2', 'B2', 'A1']",7.6,270,0,0.26214891900257653,[16100|0|0]
16100,0.6544086933135986,0.3883204162120819,-0.028392687439918518,-0.7019768953323364,0.7609641551971436,4.597564220428467,4.15234375,0,"['F2', 'B2', 'A1']",7.6,270,0,0.26269836668999536,[16200|0|0]
16200,0.658085286617279,0.3924988806247711,-0.025761788710951805,-0.7879592776298523,0.6744726896286011,4.599239349365234,4.15234375,0,"['F2', 'B2', 'A1']",7.6,270,0,0.26885454499238853,[16300|0|0]
16300,0.6576202511787415,0.3922173082828522,-0.025892050936818123,-0.7837880253791809,0.6921724677085876,4.596668243408203,4.15234375,0,"['F2', 'B2', 'A1']",7.6,270,0,0.26941357020677265,[16400|0|0]
16400,0.6543742418289185,0.3881075382232666,-0.028227511793375015,-0.702634334564209,0.763218104839325,4.615437984466553,4.15234375,0,"['F2', 'B2', 'A1']",7.6,270,0,0.27514778018324837,[16500|0|0]
16500,0.6545587182044983,0.38842546939849854,-0.028201650828123093,-0.759158194065094,0.7191544771194458,4.604015350341797,4.15234375,0,"['F2', 'B2', 'A1']",7.6,270,0,0.27551626431432485,[16600|0|0]
16600,0.654360830783844,0.3885449767112732,-0.02831384167075157,-0.7474647164344788,0.7430441975593567,4.58663272857666,4.15234375,0,"['F2', 'B2', 'A1']",7.6,270,0,0.2757732238719006,[16700|0|0]
16700,0.6540594100952148,0.3884790539741516,-0.02820458635687828,-0.736069917678833,0.7594738006591797,4.590215682983398,4.15234375,0,"['F2', 'B2', 'A1']",7.6,270,0,0.2761005417027819,[16800|0|0]
16800,0.6540049910545349,0.3889458477497101,-0.02824411913752556,-0.7376416325569153,0.7619938254356384,4.593844890594482,4.15234375,0,"['F2', 'B2', 'A1']",7.6,270,0,0.2765721566957946,[16900|0|0]
16900,0.6578723192214966,0.39229127764701843,-0.025774646550416946,-0.8264627456665039,0.6456673741340637,4.583351135253906,4.15234375,0,"['F2', 'B2', 'A1']",7.6,270,0,0.28225075011382167,[17000|0|0]
17000,0.654394268989563,0.3881060481071472,-0.028188057243824005,-0.7076125144958496,0.758411169052124,4.578361988067627,4.15234375,0,"['F2', 'B2', 'A1']",7.6,270,0,0.28820369315842703,[17100|0|0]
17101,0.654487133026123,0.38832682371139526,-0.028036080300807953,-0.7215311527252197,0.75314861536026,4.554094314575195,4.15234375,0,"['F2', 'B2', 'A1']",7.6,270,0,0.2884873524398296,[17200|0|0]
17201,0.6539700031280518,0.3886439800262451,-0.02836526185274124,-0.719177782535553,0.7641788721084595,4.575754165649414,4.15234375,0,"['F2', 'B2', 'A1']",7.6,270,0,0.2891775494795665,[17300|0|0]
17300,0.6543028354644775,0.3883036971092224,-0.027850423008203506,-0.7073996067047119,0.7494287490844727,4.589180946350098,4.15234375,0,"['F2', 'B2', 'A1']",7.6,270,0,0.28987871198828546,[17400|0|0]
17400,0.6543214917182922,0.3884851038455963,-0.02819334901869297,-0.7063387632369995,0.7457605600357056,4.592463493347168,4.15234375,0,"['F2', 'B2', 'A1']",7.6,270,0,0.2902671121794266,[17500|0|0]
17501,0.6543993353843689,0.38821476697921753,-0.028063641861081123,-0.7006434202194214,0.7389313578605652,4.579040050506592,4.15234375,0,"['F2', 'B2', 'A1']",7.6,270,0,0.29057689533650183,[17600|0|0]
17601,0.6539990305900574,0.38824698328971863,-0.028216252103447914,-0.7017149329185486,0.7547182440757751,4.5880560874938965,4.15234375,0,"['F2', 'B2', 'A1']",7.6,270,0,0.29100651342863293,[17700|0|0]
17701,0.6542713642120361,0.38830071687698364,-0.027944620698690414,-0.7055642008781433,0.7467538714408875,4.61885929107666,4.15234375,0,"['F2', 'B2', 'A1']",7.6,270,0,0.2913948902046005,[17800|0|0]
17801,0.6538304686546326,0.388681560754776,-0.028210701420903206,-0.7208871245384216,0.7553809881210327,4.614566802978516,4.15234375,0,"['F2', 'B2', 'A1']",7.6,270,0,0.29203538212689417,[17900|0|0]
17901,0.654184103012085,0.3881791830062866,-0.028137926012277603,-0.6820803880691528,0.7716954946517944,4.5932698249816895,4.15234375,0,"['F2', 'B2', 'A1']",7.6,270,0,0.2926540394804015,[18000|0|0]
18001,0.6542128324508667,0.3883343040943146,-0.028242694213986397,-0.6758219599723816,0.76993727684021,4.588643550872803,4.15234375,0,"['F2', 'B2', 'A1']",7.6,270,0,0.2928434182244383,[18100|0|0]
18101,0.6538203358650208,0.38857677578926086,-0.02830636128783226,-0.6826088428497314,0.7822596430778503,4.607800006866455,4.15234375,0,"['F2', 'B2', 'A1']",7.6,270,0,0.29330914302412475,[18200|0|0]
18201,0.6539427638053894,0.38845258951187134,-0.02833121456205845,-0.6771066188812256,0.7843527793884277,4.6181182861328125,4.15234375,0,"['F2', 'B2', 'A1']",7.6,270,0,0.2934852921578568,[18300|0|0]
18301,0.6541013717651367,0.3882265090942383,-0.028418615460395813,-0.664098858833313,0.775488018989563,4.620438098907471,4.15234375,0,"['F2', 'B2', 'A1']",7.6,270,0,0.2937749605150561,[18400|0|0]
18401,0.6542993187904358,0.3884236812591553,-0.02801925130188465,-0.6803245544433594,0.7607687711715698,4.601064205169678,4.15234375,0,"['F2', 'B2', 'A1']",7.6,270,0,0.2942623531889302,[18500|0|0]
18502,0.6541749238967896,0.38843777775764465,-0.028097165748476982,-0.6894024014472961,0.7592708468437195,4.603838920593262,4.15234375,0,"['F2', 'B2', 'A1']",7.6,270,0,0.2944098098328046,[18600|0|0]
18602,0.6542471647262573,0.3880874514579773,-0.028034823015332222,-0.6895313858985901,0.7553404569625854,4.589870452880859,4.15234375,0,"['F2', 'B2', 'A1']",7.6,270,0,0.2947728991745055,[18700|0|0]
18702,0.6541891098022461,0.3881831765174866,-0.028108889237046242,-0.7014787793159485,0.7566813826560974,4.611950397491455,4.15234375,0,"['F2', 'B2', 'A1']",7.6,270,0,0.294907135780612,[18800|0|0]
18802,0.6538768410682678,0.38852226734161377,-0.028008803725242615,-0.7657705545425415,0.7176532745361328,4.6078081130981445,4.15234375,0,"['F2', 'B2', 'A1']",7.6,270,0,0.29537884698346883,[18900|0|0]
18900,0.6543527841567993,0.38857847452163696,-0.027939653024077415,-0.7582568526268005,0.7085736989974976,4.59214973449707,4.15234375,0,"['F2', 'B2', 'A1']",7.6,270,0,0.29586306066571944,[19000|0|0]
19000,0.6542835831642151,0.3882266879081726,-0.028321892023086548,-0.7434015870094299,0.7193579077720642,4.587430477142334,4.15234375,0,"['F2', 'B2', 'A1']",7.6,270,0,0.2963871305571947,[19100|0|0]
19100,0.6539185047149658,0.3885033130645752,-0.02830597013235092,-0.7479486465454102,0.7333522439002991,4.573151111602783,4.15234375,0,"['F2', 'B2', 'A1']",7.6,270,0,0.2968454505958856,[19200|0|0]
19200,0.6542071104049683,0.38830265402793884,-0.028088193386793137,-0.7382360100746155,0.7231096029281616,4.580753803253174,4.15234375,0,"['F2', 'B2', 'A1']",7.6,270,0,0.2972589527170305,[19300|0|0]
19300,0.6541851162910461,0.3883799910545349,-0.028111018240451813,-0.7217661142349243,0.7457029819488525,4.577836990356445,4.15234375,0,"['F2', 'B2', 'A1']",7.6,270,0,0.2973425334006511,[19400|0|0]
19400,0.6544822454452515,0.38883060216903687,-0.028013668954372406,-0.7801138758659363,0.6917929649353027,4.585067272186279,4.15234375,0,"['F2', 'B2', 'A1']",7.6,270,0,0.29789099761488175,[19500|0|0]
19500,0.654335618019104,0.38838478922843933,-0.028177011758089066,-0.7439895868301392,0.721267580986023,4.588868141174316,4.15234375,0,"['F2', 'B2', 'A1']",7.6,270,0,0.2983879177811347,[19600|0|0]
19600,0.6542389988899231,0.38848304748535156,-0.028198283165693283,-0.7242259979248047,0.7421271800994873,4.5966267585754395,4.15234375,0,"['F2', 'B2', 'A1']",7.6,270,0,0.2985273538380087,[19700|0|0]
19700,0.6541900038719177,0.3884545564651489,-0.028459444642066956,-0.7074176073074341,0.7573598623275757,4.5873847007751465,4.15234375,0,"['F2', 'B2', 'A1']",7.6,270,0,0.29879459449128437,[19800|0|0]
19800,0.6544365286827087,0.3883511424064636,-0.028068769723176956,-0.6956005096435547,0.7552414536476135,4.596959590911865,4.15234375,0,"['F2', 'B2', 'A1']",7.6,270,0,0.2992679821148224,[19900|0|0]
19900,0.6545728445053101,0.38860341906547546,-0.02831025794148445,-0.6940406560897827,0.7547369599342346,4.599397659301758,4.15234375,0,"['F2', 'B2', 'A1']",7.6,270,0,0.2996428715328579,[20000|0|0]
20000,0.6543076038360596,0.38857778906822205,-0.02840413711965084,-0.6898210048675537,0.761404275894165,4.584935188293457,4.15234375,0,"['F2', 'B2', 'A1']",7.6,270,0,0.2999254008401463,[20100|0|0]
20100,0.6543425917625427,0.38869497179985046,-0.028247028589248657,-0.6898977756500244,0.7630414366722107,4.610571384429932,4.15234375,0,"['F2', 'B2', 'A1']",7.6,270,0,0.30012449638986205,[20200|0|0]
20200,0.6544377207756042,0.3883554935455322,-0.02807503193616867,-0.6816932559013367,0.7618511319160461,4.601964950561523,4.15234375,0,"['F2', 'B2', 'A1']",7.6,270,0,0.30051676907939284,[20300|0|0]
20300,0.6544780731201172,0.3881462812423706,-0.027928970754146576,-0.6759712100028992,0.7638112306594849,4.585078239440918,4.15234375,0,"['F2', 'B2', 'A1']",7.6,270,0,0.3007750943944426,[20400|0|0]
20400,0.6544861197471619,0.3884431719779968,-0.028104599565267563,-0.693492591381073,0.7558784484863281,4.606463432312012,4.15234375,0,"['F2', 'B2', 'A1']",7.6,270,0,0.3011201369083496,[20500|0|0]
20500,0.654329240322113,0.38830769062042236,-0.02822755090892315,-0.6918653249740601,0.7529605627059937,4.603744983673096,4.15234375,0,"['F2', 'B2', 'A1']",7.6,270,0,0.3013611418567647,[20600|0|0]
20600,0.6542004942893982,0.38844195008277893,-0.028345957398414612,-0.749674379825592,0.7192480564117432,4.580622673034668,4.15234375,0,"['F2', 'B2', 'A1']",7.6,270,0,0.3015816441037505,[20700|0|0]
20700,0.6541289687156677,0.3884136974811554,-0.028213830664753914,-0.7367908358573914,0.7358154654502869,4.574474334716797,4.15234375,0,"['F2', 'B2', 'A1']",7.6,270,0,0.3017345218030523,[20800|0|0]
20800,0.6542364358901978,0.3886178731918335,-0.02853551134467125,-0.7231899499893188,0.7378921508789062,4.576274394989014,4.15234375,0,"['F2', 'B2', 'A1']",7.6,270,0,0.3021303947299676,[20900|0|0]
20900,0.6541811227798462,0.38827192783355713,-0.027989305555820465,-0.7068865299224854,0.7474308013916016,4.59251594543457,4.15234375,0,"['F2', 'B2', 'A1']",7.6,270,0,0.30277930034318407,[21000|0|0]
21000,0.654522180557251,0.38836631178855896,-0.028161222115159035,-0.7044839262962341,0.7395214438438416,4.601009368896484,4.15234375,0,"['F2', 'B2', 'A1']",7.6,270,0,0.3031727263741796,[21100|0|0]
21100,0.6543088555335999,0.38851359486579895,-0.028135783970355988,-0.7100589275360107,0.7434033751487732,4.5901103019714355,4.15234375,0,"['F2', 'B2', 'A1']",7.6,270,0,0.3034332008830438,[21200|0|0]
21200,0.6542322635650635,0.38825470209121704,-0.028242597356438637,-0.7038042545318604,0.7454752922058105,4.594767093658447,4.15234375,0,"['F2', 'B2', 'A1']",7.6,270,0,0.3037235470519895,[21300|0|0]
21300,0.654329776763916,0.38854387402534485,-0.028122996911406517,-0.7131629586219788,0.7477477192878723,4.619058609008789,4.15234375,0,"['F2', 'B2', 'A1']",7.6,270,0,0.30405131754774767,[21400|0|0]
21400,0.6541469693183899,0.388426274061203,-0.028123177587985992,-0.690864622592926,0.7700181007385254,4.637456893920898,4.15234375,0,"['F2', 'B2', 'A1']",7.6,270,0,0.3042686843951508,[21500|0|0]
21500,0.6545984745025635,0.3882630467414856,-0.028332151472568512,-0.674475371837616,0.7692424654960632,4.621463298797607,4.15234375,0,"['F2', 'B2', 'A1']",7.6,270,0,0.3047922970130997,[21600|0|0]
21600,0.65450119972229,0.3882392346858978,-0.02820977009832859,-0.6632362008094788,0.7868176102638245,4.612727642059326,4.15234375,0,"['F2', 'B2', 'A1']",7.6,270,0,0.30495043175826786,[21700|0|0]
21700,0.6541623473167419,0.3881225287914276,-0.028424933552742004,-0.6536349654197693,0.8062260150909424,4.623000621795654,4.15234375,0,"['F2', 'B2', 'A1']",7.6,270,0,0.3053684467468328,[21800|0|0]
21800,0.654702365398407,0.38824015855789185,-0.02825724147260189,-0.6533469557762146,0.7936652302742004,4.607935428619385,4.15234375,0,"['F2', 'B2', 'A1']",7.6,270,0,0.3059460079333969,[21900|0|0]
21900,0.6542551517486572,0.3884347379207611,-0.02831902541220188,-0.6593528389930725,0.8002535700798035,4.602243423461914,4.15234375,0,"['F2', 'B2', 'A1']",7.6,270,0,0.3064376159400135,[22000|0|0]
22000,0.6541089415550232,0.38836097717285156,-0.028091246262192726,-0.6576021313667297,0.8017732501029968,4.596031188964844,4.15234375,0,"['F2', 'B2', 'A1']",7.6,270,0,0.30671815365554134,[22100|0|0]
22100,0.6544386744499207,0.388712614774704,-0.028179574757814407,-0.663267970085144,0.7912757396697998,4.575934410095215,4.15234375,0,"['F2', 'B2', 'A1']",7.6,270,0,0.3072082298824212,[22200|0|0]
22200,0.6540700793266296,0.38848719000816345,-0.028234640136361122,-0.6572026610374451,0.799213707447052,4.6002888679504395,4.15234375,0,"['F2', 'B2', 'A1']",7.6,270,0,0.30764378801424547,[22300|0|0]
22300,0.6543400287628174,0.38828083872795105,-0.02802037075161934,-0.6561879515647888,0.7920934557914734,4.588564872741699,4.15234375,0,"['F2', 'B2', 'A1']",7.6,270,0,0.30804549053873465,[22400|0|0]
22400,0.6543123722076416,0.38833945989608765,-0.028622401878237724,-0.6561347246170044,0.8014631271362305,4.578712463378906,4.15234375,0,"['F2', 'B2', 'A1']",7.6,270,0,0.30865100090513253,[22500|0|0]
22500,0.6545186638832092,0.3881693184375763,-0.02831178903579712,-0.6624813079833984,0.7885251641273499,4.55631160736084,4.15234375,0,"['F2', 'B2', 'A1']",7.6,270,0,0.30906086028248275,[22600|0|0]
22600,0.6541385054588318,0.38843396306037903,-0.028302546590566635,-0.6723554730415344,0.7942765951156616,4.542288780212402,4.15234375,0,"['F2', 'B2', 'A1']",7.6,270,0,0.30952415568155056,[22700|0|0]
22700,0.6542416214942932,0.3886908292770386,-0.028259549289941788,-0.6794978380203247,0.7855262756347656,4.551087379455566,4.15234375,0,"['F2', 'B2', 'A1']",7.6,270,0,0.30980426626309165,[22800|0|0]
22800,0.6544455885887146,0.38831523060798645,-0.02822132408618927,-0.6688835620880127,0.7750373482704163,4.558432102203369,4.15234375,0,"['F2', 'B2', 'A1']",7.6,270,0,0.31023337942066476,[22900|0|0]
22900,0.6544656157493591,0.388327032327652,-0.02849036268889904,-0.6696659922599792,0.7726889848709106,4.579001426696777,4.15234375,0,"['F2', 'B2', 'A1']",7.6,270,0,0.31050342041292067,[23000|0|0]
23000,0.6545360684394836,0.38812392950057983,-0.02822062186896801,-0.6628947854042053,0.7683683633804321,4.580300807952881,4.15234375,0,"['F2', 'B2', 'A1']",7.6,270,0,0.31084834714404996,[23100|0|0]
23100,0.6544699668884277,0.3882473409175873,-0.028284423053264618,-0.6653510928153992,0.7740817070007324,4.551610946655273,4.15234375,0,"['F2', 'B2', 'A1']",7.6,270,0,0.31100219896892517,[23200|0|0]
23200,0.6541854739189148,0.3881438374519348,-0.028321508318185806,-0.6639097929000854,0.781053900718689,4.5572896003723145,4.15234375,0,"['C1', 'B2', 'A/E1']",7.6,270,0,0.3113071982049548,[23200|0|0]
23300,0.6541497111320496,0.38845452666282654,-0.02810584008693695,-0.6812847852706909,0.7889731526374817,4.780816555023193,3.24609375,0,"['C1', 'B2', 'A/E1']",7.6,270,0,0.31168709233317854,[23200|0|0]
23400,0.6532535552978516,0.3876088261604309,-0.019849352538585663,3.6957268714904785,0.3476104736328125,8.020669937133789,3.630859375,0,"['C1', 'B2', 'A/E1']",7.6,270,0,0.32003501969600334,[23200|0|0]
23500,0.6583403944969177,0.3769790530204773,0.020984800532460213,8.41461181640625,-7.192262172698975,14.780773162841797,3.7734375,0,"['C1', 'B2', 'A/E1']",7.6,270,0,0.36253556165812,[23200|0|0]
23600,0.6730477809906006,0.35507655143737793,0.07480733096599579,4.898521423339844,-1.681613564491272,18.52764892578125,3.748046875,0,"['C1', 'B2', 'A/E1']",7.6,270,0,0.42247629551533183,[23200|0|0]
23700,0.6852750182151794,0.33139926195144653,0.13747844099998474,-8.792364120483398,8.155781745910645,20.535011291503906,3.7890625,0,"['C1', 'B2', 'A/E1']",7.6,270,0,0.4905775980024288,[23200|0|0]
23800,0.6783177256584167,0.3188430070877075,0.20011651515960693,-11.839920997619629,7.963025093078613,21.74925422668457,3.7578125,0,"['C1', 'B2', 'A/E1']",7.6,270,0,0.5548394979926242,[23200|0|0]
23900,0.6515982747077942,0.3217605650424957,0.2610100209712982,-8.180262565612793,2.404947280883789,21.073617935180664,3.736328125,0,"['C1', 'B2', 'A/E1']",7.6,270,0,0.6214012005967551,[23200|0|0]
24000,0.6180229187011719,0.3357480764389038,0.3254871964454651,-0.1390315145254135,-4.775634288787842,20.113758087158203,3.732421875,0,"['C1', 'B2', 'A/E1']",7.6,270,0,0.6954299866408513,[23200|0|0]
24100,0.592883825302124,0.3528122305870056,0.3960970342159271,7.405077934265137,-11.098483085632324,18.480257034301758,3.732421875,0,"['C1', 'B2', 'A/E1']",7.6,270,0,0.7722994120562088,[23200|0|0]
24200,0.5902477502822876,0.36264434456825256,0.46926289796829224,11.299832344055176,-12.27090072631836,16.298728942871094,3.7265625,0,"['C1', 'B2', 'A/E1']",7.6,270,0,0.8461699946685051,[23200|0|0]
24300,0.6118033528327942,0.3589833676815033,0.5453276038169861,6.800632953643799,-6.275007724761963,13.972548484802246,3.7109375,0,"['C1', 'B2', 'A/E1']",7.6,270,0,0.9253147116679931,[23200|0|0]
24400,0.646096408367157,0.3454440236091614,0.6307104229927063,1.1773594617843628,0.8991789817810059,12.491317749023438,3.720703125,0,"['C1', 'B2', 'A/E1']",7.6,270,0,1.0183176863848584,[23200|0|0]
24500,0.6786322593688965,0.32921281456947327,0.7251605987548828,-1.5728819370269775,4.555834770202637,11.449618339538574,3.7265625,0,"['C1', 'B2', 'A/E1']",7.6,270,0,1.119524748632527,[23200|0|0]
24600,0.7028647661209106,0.31409648060798645,0.8278605341911316,-4.243200778961182,4.767423629760742,10.055335998535156,3.736328125,0,"['C1', 'B2', 'A/E1']",7.6,270,0,1.22612209697915,[23200|0|0]
24700,0.7183947563171387,0.30521875619888306,0.9342527389526367,-4.954835891723633,4.798489093780518,8.62627124786377,3.736328125,0,"['C1', 'B2', 'A/E1']",7.6,270,0,1.334007665152993,[23200|0|0]
24800,0.7257393598556519,0.30215832591056824,1.041830062866211,-4.499496936798096,3.9865946769714355,7.257824420928955,3.736328125,0,"['C1', 'B2', 'A/E1']",7.6,270,0,1.4418788385733914,[23200|0|0]
24900,0.7254477143287659,0.3060244023799896,1.1526131629943848,-3.323012351989746,3.0042452812194824,6.197787761688232,3.736328125,0,"['C1', 'B2', 'A/E1']",7.6,270,0,1.5527297604387045,[23200|0|0]
25000,0.7205948829650879,0.31544607877731323,1.2650177478790283,-1.8314234018325806,1.6723039150238037,5.480826377868652,3.736328125,0,"['C1', 'B2', 'A/E1']",7.6,270,0,1.6656328545569314,[23200|0|0]
25100,0.7142066359519958,0.3263757526874542,1.3791909217834473,-0.4561406970024109,0.7678542733192444,4.734709739685059,3.736328125,0,"['C1', 'B2', 'A/E1']",7.6,270,0,1.7805057456631057,[23200|0|0]
25200,0.7071106433868408,0.3368043601512909,1.4941210746765137,0.6683226823806763,0.2139124572277069,4.29701042175293,3.748046875,0,"['C1', 'B2', 'A/E1']",7.6,270,0,1.8961260250614151,[23200|0|0]
25300,0.7016112804412842,0.34465381503105164,1.608221411705017,0.8396767973899841,-0.14153002202510834,3.7635886669158936,3.80078125,0,"['C1', 'B2', 'A/E1']",7.6,270,0,2.0106281815683316,[23200|0|0]
25400,0.6960880756378174,0.3510689437389374,1.7054082155227661,0.5941014885902405,-0.12955006957054138,9.48129940032959,3.81640625,0,"['C1', 'B2', 'A/E1']",7.6,270,0,2.10818295850903,[23200|0|0]
25500,0.6919499635696411,0.3552304804325104,1.8074232339859009,0.4648345410823822,-0.0005218618898652494,11.503068923950195,3.826171875,0,"['C1', 'B2', 'A/E1']",7.6,270,0,2.2103666477709396,[23200|0|0]
25600,0.6886378526687622,0.3577995300292969,1.873996376991272,0.3049544394016266,0.32923346757888794,12.09197998046875,3.826171875,0,"['C1', 'B2', 'A/E1']",7.6,270,0,2.2770716210792625,[23200|0|0]
25700,0.6833073496818542,0.35984453558921814,1.9308310747146606,0.09866355359554291,0.1416478306055069,11.778709411621094,3.826171875,0,"['C1', 'B2', 'A/E1']",7.6,270,0,2.334192363153771,[23200|0|0]
25800,0.6794667840003967,0.36330148577690125,1.9635488986968994,0.1563761681318283,0.1402949094772339,11.61280345916748,3.80078125,0,"['C1', 'B2', 'A/E1']",7.6,270,0,2.367315715271068,[23200|0|0]
25900,0.6665968894958496,0.36569684743881226,1.9829919338226318,0.28552964329719543,-0.004059197381138802,6.584968566894531,3.7890625,0,"['C1', 'B2', 'A/E1']",7.6,270,0,2.3907550744122648,[23200|0|0]
26000,0.6626234650611877,0.37104082107543945,1.9910557270050049,0.8729173541069031,-0.9212822318077087,4.366433620452881,3.779296875,0,"['C1', 'B2', 'A/E1']",7.6,270,0,2.401213129511327,[23200|0|0]
26100,0.6511426568031311,0.37891554832458496,1.987704873085022,1.3811944723129272,-1.0512521266937256,3.8793201446533203,3.76953125,0,"['C1', 'B2', 'A/E1']",7.6,270,0,2.4155326444996135,[23200|0|0]
26200,0.6417781710624695,0.3851224184036255,1.9759666919708252,2.20745587348938,-2.063430070877075,3.2499022483825684,3.75390625,0,"['C1', 'B2', 'A/E1']",7.6,270,0,2.431780835944658,[23200|0|0]
26300,0.6348883509635925,0.3861134350299835,1.9619117975234985,1.480124592781067,-4.348551273345947,-1.5782746076583862,3.96484375,0,"['C1', 'B2', 'A/E1']",7.6,270,259.695153531234,2.4474649614502164,[23200|0|0]
26400,0.6320677995681763,0.38610997796058655,1.9251823425292969,-5.4431023597717285,-16.14196014404297,-3.435995101928711,3.912109375,0,"['C1', 'B2', 'A/E1']",7.6,270,259.695153531234,2.484302556191141,[23200|0|0]
26500,0.6396384239196777,0.3865961730480194,1.846301555633545,-3.098875045776367,-15.316039085388184,-3.6477413177490234,3.81640625,0,"['C1', 'B2', 'A/E1']",7.6,270,259.695153531234,2.5635472991084325,[23200|0|0]
26600,0.6595966219902039,0.3906026780605316,1.7320364713668823,-5.940499782562256,-18.18222427368164,-4.159924507141113,3.732421875,0,"['C1', 'B2', 'A/E1']",7.6,270,259.695153531234,2.679611467718323,[23200|0|0]
26700,0.699417769908905,0.3999183177947998,1.5971530675888062,-3.46126651763916,-15.615911483764648,-3.1356256008148193,3.6640625,0,"['C1', 'B2', 'A/E1']",7.6,270,259.695153531234,2.8205583995046566,[23200|0|0]
26800,0.763472855091095,0.4109637141227722,1.4614189863204956,-3.930849552154541,-9.440314292907715,0.03313042223453522,3.66796875,0,"['C1', 'B2', 'A/E1']",7.6,270,259.695153531234,2.9710535673190814,[23200|0|0]
26900,0.914058268070221,0.3058914542198181,1.3985860347747803,-5.321728706359863,-1.8063265085220337,3.8306989669799805,3.689453125,0,"['C1', 'B2', 'A/E1']",7.6,270,259.695153531234,3.165126043995075,[23200|0|0]
27000,1.024594783782959,0.2747088670730591,1.3207108974456787,-11.866938591003418,5.4414963722229,8.521439552307129,3.7265625,0,"['C1', 'B2', 'A/E1']",7.6,270,259.695153531234,3.303889194943387,[23200|0|0]
27100,1.1281229257583618,0.27425670623779297,1.2383345365524292,-14.898938179016113,8.97778606414795,13.532402038574219,3.6953125,0,"['C1', 'B2', 'A/E1']",7.6,270,259.695153531234,3.4361924279511826,[23200|0|0]
27200,1.2030948400497437,0.29541176557540894,1.169681429862976,-10.513449668884277,8.269075393676758,13.849254608154297,3.66796875,0,"['C1', 'B2', 'A/E1']",7.6,270,259.695153531234,3.5400267841451023,[23200|0|0]
27300,1.255461573600769,0.3297552764415741,1.1133825778961182,-4.512417793273926,6.550264835357666,13.964186668395996,3.6640625,0,"['C1', 'B2', 'A/E1']",7.6,270,259.695153531234,3.6242367138102236,[23200|0|0]
27400,1.296695351600647,0.3650432825088501,1.0718779563903809,0.9556196331977844,3.8061347007751465,13.704670906066895,3.66796875,0,"['C1', 'B2', 'A/E1']",7.6,270,259.695153531234,3.6925602194776133,[23200|0|0]
27500,1.3321832418441772,0.3948740065097809,1.0458592176437378,6.2410888671875,0.1459154337644577,12.613824844360352,3.673828125,0,"['C1', 'B2', 'A/E1']",7.6,270,259.695153531234,3.7457225860005834,[23200|0|0]
27600,1.369010090827942,0.4134049117565155,1.0323047637939453,8.84861946105957,-1.6677920818328857,10.653392791748047,3.68359375,0,"['C1', 'B2', 'A/E1']",7.6,270,259.695153531234,3.7891199877027892,[23200|0|0]
27700,1.4098881483078003,0.41171789169311523,1.033015251159668,4.993657112121582,2.7232155799865723,7.559628009796143,3.673828125,0,"['C1', 'B2', 'A/E1']",7.6,270,259.695153531234,3.8300390103245205,[23200|0|0]
27800,1.4467997550964355,0.40301787853240967,1.0456607341766357,0.4877893924713135,6.296850681304932,5.045725345611572,3.7109375,0,"['C1', 'B2', 'A/E1']",7.6,270,259.695153531234,3.8700148178266547,[23200|0|0]
27900,1.4717085361480713,0.3926806151866913,1.0670770406723022,-2.613154411315918,8.400611877441406,3.2289295196533203,3.732421875,0,"['C1', 'B2', 'A/E1']",7.6,270,259.695153531234,3.9044526541534825,[23200|0|0]
28000,1.48243248462677,0.38556742668151855,1.0903619527816772,-4.263496398925781,8.373039245605469,1.7918379306793213,3.748046875,0,"['C1', 'B2', 'A/E1']",7.6,270,259.695153531234,3.9310569330128167,[23200|0|0]
28100,1.4805033206939697,0.3834230303764343,1.111175298690796,-4.3962721824646,6.761981010437012,0.6593515872955322,3.748046875,0,"['C1', 'B2', 'A/E1']",7.6,270,259.695153531234,3.9520692026885444,[23200|0|0]
28200,1.468101143836975,0.38907933235168457,1.1252267360687256,-3.8023242950439453,4.583031177520752,-0.3795784115791321,3.7421875,0,"['C1', 'B2', 'A/E1']",7.6,270,259.695153531234,3.9716459908626365,[23200|0|0]
28300,1.44916832447052,0.3995560109615326,1.1341259479522705,-2.6043813228607178,2.2416422367095947,-1.121953010559082,3.736328125,0,"['C1', 'B2', 'A/E1']",7.6,270,259.695153531234,3.9950427516641898,[23200|0|0]
28400,1.4279119968414307,0.4131801426410675,1.1377875804901123,-1.1161441802978516,0.11913967877626419,-1.7914820909500122,3.736328125,0,"['C1', 'B2', 'A/E1']",7.6,270,259.695153531234,4.0205546308803255,[23200|0|0]
28500,1.4095077514648438,0.4269237220287323,1.1381006240844727,-0.08252283930778503,-1.1320278644561768,-1.9164700508117676,3.732421875,0,"['C1', 'B2', 'A/E1']",7.6,270,259.695153531234,4.043526357383978,[23200|0|0]
28600,1.391742467880249,0.4414471685886383,1.1365067958831787,0.8350869417190552,-1.6383510828018188,-2.414649248123169,3.732421875,0,"['C1', 'B2', 'A/E1']",7.6,270,259.695153531234,4.066528011436563,[23200|0|0]
28700,1.3773385286331177,0.454019159078598,1.1330056190490723,1.1396055221557617,-1.7661945819854736,-2.8598339557647705,3.732421875,0,"['C1', 'B2', 'A/E1']",7.6,270,259.695153531234,4.085964745985822,[23200|0|0]
28800,1.3660646677017212,0.4647901654243469,1.1285159587860107,1.3794617652893066,-1.473595380783081,-2.85046124458313,3.7265625,0,"['C1', 'B2', 'A/E1']",7.6,270,259.695153531234,4.102190391343661,[23200|0|0]
28900,1.3580584526062012,0.4726541340351105,1.1233909130096436,1.508975625038147,-1.2509251832962036,-2.422612190246582,3.7265625,0,"['C1', 'B2', 'A/E1']",7.6,270,259.695153531234,4.1145276348233315,[23200|0|0]
29000,1.3527393341064453,0.47818464040756226,1.1178268194198608,1.4185162782669067,-0.723514199256897,-2.365605354309082,3.7265625,0,"['C1', 'B2', 'A/E1']",7.6,270,259.695153531234,4.124005960615687,[23200|0|0]
29100,1.347741961479187,0.4821934103965759,1.110845685005188,1.1074206829071045,-0.24190402030944824,-2.33011531829834,3.720703125,0,"['C1', 'B2', 'A/E1']",7.6,270,259.695153531234,4.1334812024445915,[23200|0|0]
29200,1.343855857849121,0.484356164932251,1.1044775247573853,0.7749732732772827,-0.08203142136335373,-2.1836657524108887,3.720703125,0,"['C1', 'B2', 'A/E1']",7.6,270,0,4.141248619875558,[23200|0|0]
29300,1.3400640487670898,0.48633119463920593,1.0979366302490234,0.4851064682006836,-0.027722733095288277,-2.0856804847717285,3.916015625,0,"['C1', 'B2', 'A/E1']",7.6,270,0,4.149062828692031,[23200|0|0]
29400,1.3367587327957153,0.48694807291030884,1.0756596326828003,-0.18206891417503357,-0.41555702686309814,-2.479651689529419,3.90625,0,"['C1', 'B2', 'A/E1']",7.6,270,0,4.171592148988869,[23200|0|0]
29500,1.333543062210083,0.4876650273799896,1.0171061754226685,0.20245757699012756,-0.12646706402301788,-3.4145596027374268,3.822265625,0,"['C1', 'B2', 'A/E1']",7.6,270,0,4.23023822232836,[23200|0|0]
29600,1.329260230064392,0.48724135756492615,0.9252674579620361,0.6557729840278625,-0.22854849696159363,-4.2271904945373535,3.7421875,0,"['C1', 'B2', 'A/E1']",7.6,270,0,4.322177725112061,[23200|0|0]
29700,1.3229042291641235,0.4860227704048157,0.8128432035446167,0.9522397518157959,0.08608832955360413,-4.570896625518799,3.705078125,0,"['C1', 'B2', 'A/E1']",7.6,270,0,4.4347881006705485,[23200|0|0]
29800,1.3149960041046143,0.4829072654247284,0.6933426260948181,1.7795337438583374,1.2041425704956055,-4.6058807373046875,3.705078125,0,"['C1', 'B2', 'A/E1']",7.6,270,0,4.554590581470022,[23200|0|0]
