,time.ms,stateEstimate.x,stateEstimate.y,stateEstimate.z,stabilizer.roll,stabilizer.pitch,stabilizer.yaw,pm.vbat,drone_id,node_name,wind_speed,global_wind_direction,relative_wind_direction,travel_dist,waiting_time
0,0,1.2756446599960327,-0.3257457613945007,0.0003710084129124,0.0345252119004726,10.936548233032228,4.043125629425049,4.04296875,0,"['C1', 'F2', 'F1']",6.1,180,0.0,0.0389693268528951,[100|0|0]
1,100,1.2760413885116575,-0.3251635432243347,0.0003428490599617,0.4382278621196747,6.244647979736328,4.514549255371094,4.04296875,0,"['C1', 'F2', 'F1']",6.1,180,0.0,0.0396744257551352,[200|0|0]
2,201,1.2777074575424194,-0.3249325156211853,-0.0016239143442362,0.9356594681739808,2.224383592605591,4.623560905456543,4.04296875,0,"['C1', 'F2', 'F1']",6.1,180,0.0,0.0422623434618586,[300|0|0]
3,301,1.2791030406951904,-0.3254499733448028,-0.0024033365771174,1.179462194442749,0.1714871078729629,4.586012363433838,4.04296875,0,"['C1', 'F2', 'F1']",6.1,180,0.0,0.0439424963861899,[400|0|0]
4,401,1.280192732810974,-0.3257300853729248,-0.0023105896543711,1.1392978429794312,-0.6440954804420471,4.477664947509766,4.04296875,0,"['C1', 'F2', 'F1']",6.1,180,0.0,0.0450714311261898,[500|0|0]
5,501,1.280950903892517,-0.326068639755249,-0.0022969238925725,1.0259628295898438,-0.880158007144928,4.345333099365234,4.04296875,0,"['C1', 'F2', 'F1']",6.1,180,0.0,0.0459018702941754,[600|0|0]
6,601,1.2815271615982056,-0.3262056112289428,-0.0022691134363412,0.8949669003486633,-0.8652183413505554,4.25644063949585,4.04296875,0,"['C1', 'F2', 'F1']",6.1,180,0.0,0.0464948353432693,[700|0|0]
7,701,1.28134024143219,-0.3259722888469696,-0.0025572746526449,0.7592520713806152,-0.7167544364929199,4.184109687805176,4.04296875,0,"['C1', 'F2', 'F1']",6.1,180,0.0,0.0469100646401339,[800|0|0]
8,801,1.2815507650375366,-0.3261821269989013,-0.0025355347897857,0.6575801372528076,-0.5459287762641907,4.116844177246094,4.04296875,0,"['C1', 'F2', 'F1']",6.1,180,0.0,0.047208099638165,[900|0|0]
9,901,1.2817355394363403,-0.3260993659496307,-0.0022611576132476,0.5529506802558899,-0.3825369775295257,4.090988159179688,4.04296875,0,"['C1', 'F2', 'F1']",6.1,180,0.0,0.0475490890877594,[1000|0|0]
10,1001,1.281879425048828,-0.3261480033397674,-0.0027954548131674,0.4548423886299133,-0.2293093651533126,4.038294792175293,4.04296875,0,"['C1', 'F2', 'F1']",6.1,180,0.0,0.0481045548050116,[1100|0|0]
11,1101,1.2815512418746948,-0.326120525598526,-0.002417491748929,0.3818414807319641,-0.0669496804475784,4.020709037780762,4.04296875,0,"['C1', 'F2', 'F1']",6.1,180,0.0,0.0486058683795101,[1200|0|0]
12,1202,1.281582593917847,-0.3258489668369293,-0.002589949639514,0.3102011382579803,0.0618874952197074,4.019755840301514,4.04296875,0,"['C1', 'F2', 'F1']",6.1,180,0.0,0.0489290847708561,[1300|0|0]
13,1302,1.2814245223999023,-0.3259938955307007,-0.0026558940298855,0.2563455104827881,0.1829041242599487,3.980361700057984,4.04296875,0,"['C1', 'F2', 'F1']",6.1,180,0.0,0.0491534496381704,[1400|0|0]
14,1402,1.2814483642578125,-0.3260933756828308,-0.0021907342597842,0.214265376329422,0.295910507440567,3.993178606033325,4.04296875,0,"['C1', 'F2', 'F1']",6.1,180,0.0,0.0496297251325822,[1500|0|0]
15,1502,1.2813910245895386,-0.3257477879524231,-0.0026781260967254,0.1560290306806564,0.3895252048969269,3.980108976364136,4.04296875,0,"['C1', 'F2', 'F1']",6.1,180,0.0,0.0502299496902962,[1600|0|0]
16,1602,1.2813788652420044,-0.3258714973926544,-0.0026663176249712,0.127634972333908,0.4696756899356842,3.958260536193848,4.04296875,0,"['C1', 'F2', 'F1']",6.1,180,0.0,0.0503548148789598,[1700|0|0]
17,1702,1.281281352043152,-0.3258924782276153,-0.0025949170812964,0.1017161682248115,0.5300472378730774,3.9655823707580566,4.04296875,0,"['C1', 'F2', 'F1']",6.1,180,0.0,0.0504774813251591,[1800|0|0]
18,1802,1.2812267541885376,-0.3259718418121338,-0.0024158698506653,0.0824479535222053,0.581049382686615,3.965596199035645,4.04296875,0,"['C1', 'F2', 'F1']",6.1,180,0.0,0.0506807973724175,[1900|0|0]
19,1902,1.281344294548035,-0.3258718252182007,-0.0024233134463429,0.0667368918657302,0.6318199634552002,3.96784782409668,4.04296875,0,"['C1', 'F2', 'F1']",6.1,180,0.0,0.0508353110038203,[2000|0|0]
20,2002,1.2811613082885742,-0.3256048858165741,-0.0028392255771905,0.0461439229547977,0.6799203753471375,3.9637300968170166,4.04296875,0,"['C1', 'F2', 'F1']",6.1,180,0.0,0.0513623058006431,[2100|0|0]
21,2100,1.2809598445892334,-0.3255099356174469,-0.0028711340855807,0.0386967174708843,0.718137264251709,4.006584167480469,4.04296875,0,"['C1', 'F2', 'F1']",6.1,180,0.0,0.0515872976124364,[2200|0|0]
22,2200,1.2809672355651855,-0.3256082236766815,-0.0028772228397428,0.0319589786231517,0.7341701984405518,4.017375469207764,4.04296875,0,"['C1', 'F2', 'F1']",6.1,180,0.0,0.0516860510530898,[2300|0|0]
23,2300,1.2811057567596436,-0.3256875574588775,-0.0025681937113404,0.0304651074111461,0.7463738322257996,4.01421594619751,4.04296875,0,"['C1', 'F2', 'F1']",6.1,180,0.0,0.0520338742445432,[2400|0|0]
24,2400,1.2807821035385132,-0.325477659702301,-0.0029101290274411,0.0167381018400192,0.7650341987609863,4.01788854598999,4.04296875,0,"['C1', 'F2', 'F1']",6.1,180,0.0,0.0525493625918031,[2500|0|0]
25,2500,1.28117835521698,-0.3257205486297607,-0.0026404182426631,0.0207533426582813,0.7679609060287476,4.011968612670898,4.04296875,0,"['C1', 'F2', 'F1']",6.1,180,0.0,0.0530867212534025,[2600|0|0]
26,2600,1.280809760093689,-0.325347363948822,-0.0029771672561764,0.0059198904782533,0.7854806184768677,4.021156311035156,4.04296875,0,"['C1', 'F2', 'F1']",6.1,180,0.0,0.0537100422534526,[2700|0|0]
27,2700,1.281124711036682,-0.3256782293319702,-0.0027794409543275,0.0123169710859656,0.7819775938987732,4.047944068908691,4.04296875,0,"['C1', 'F2', 'F1']",6.1,180,0.0,0.0542077989095617,[2800|0|0]
28,2800,1.2810626029968262,-0.325567752122879,-0.0027970725204795,0.0131983570754528,0.7906425595283508,4.037504196166992,4.04296875,0,"['C1', 'F2', 'F1']",6.1,180,0.0,0.054335757865748,[2900|0|0]
29,2900,1.280842423439026,-0.3254247009754181,-0.0029890092555433,0.0105494065210223,0.797447681427002,4.0304765701293945,4.04296875,0,"['C1', 'F2', 'F1']",6.1,180,0.0,0.0546609998967495,[3000|0|0]
30,3000,1.2811356782913208,-0.3254754543304443,-0.0030085365287959,0.0151369422674179,0.7929306626319885,4.02655839920044,4.04296875,0,"['C1', 'F2', 'F1']",6.1,180,0.0,0.0549592541940222,[3100|0|0]
31,3100,1.280768632888794,-0.3254926204681396,-0.0029344349168241,0.0281067974865436,0.8096383810043335,4.062989711761475,4.04296875,0,"['C1', 'F2', 'F1']",6.1,180,0.0,0.0553340982318517,[3200|0|0]
32,3200,1.2809793949127195,-0.3256562352180481,-0.0025980900973081,0.0215891189873218,0.7979891896247864,4.049607753753662,4.04296875,0,"['C1', 'F2', 'F1']",6.1,180,0.0,0.0557634212509551,[3300|0|0]
33,3300,1.281206488609314,-0.3258750736713409,-0.0025702123530209,0.0207973420619964,0.7921833395957947,4.030920028686523,4.04296875,0,"['C1', 'F2', 'F1']",6.1,180,0.0,0.0560800266588353,[3400|0|0]
34,3400,1.280778884887695,-0.325544148683548,-0.0026547284796833,0.0039493381045758,0.7910333871841431,4.007042407989502,4.04296875,0,"['C1', 'F2', 'F1']",6.1,180,0.0,0.056627291919887,[3500|0|0]
35,3500,1.2808489799499512,-0.3254657089710235,-0.0028565153479576,-0.0048320982605218,0.7835379838943481,4.016819000244141,4.04296875,0,"['C1', 'F2', 'F1']",6.1,180,0.0,0.0568548530028108,[3600|0|0]
36,3600,1.2809869050979614,-0.3255530595779419,-0.0026522008702158,0.0045692077837884,0.77989661693573,4.020451068878174,4.04296875,0,"['C1', 'F2', 'F1']",6.1,180,0.0,0.0571163828879053,[3700|0|0]
37,3700,1.281200647354126,-0.3255478739738464,-0.0028113815933465,0.0033911275677382,0.7696672677993774,4.017226696014404,4.04296875,0,"['C1', 'F2', 'F1']",6.1,180,0.0,0.0573829370947312,[3800|0|0]
38,3800,1.2809617519378662,-0.3257216215133667,-0.002602100605145,0.0058075673878192,0.7753245830535889,4.021819591522217,4.04296875,0,"['C1', 'F2', 'F1']",6.1,180,0.0,0.0577449560989587,[3900|0|0]
39,3900,1.2808971405029297,-0.3256211578845978,-0.0026321250479668,0.0001888923143269,0.7732123732566833,4.015488624572754,4.04296875,0,"['C1', 'F2', 'F1']",6.1,180,0.0,0.0578681187775457,[4000|0|0]
40,4000,1.2810261249542236,-0.3256520628929138,-0.0026150189805775,-0.0048548895865678,0.7675020694732666,4.0343523025512695,4.04296875,0,"['C1', 'F2', 'F1']",6.1,180,0.0,0.0580018525644364,[4100|0|0]
41,4100,1.280998468399048,-0.3256977200508117,-0.0024134416598826,-0.002640614984557,0.7713661789894104,4.01063871383667,4.04296875,0,"['C1', 'F2', 'F1']",6.1,180,0.0,0.0582103780480831,[4200|0|0]
42,4200,1.2812327146530151,-0.3253871500492096,-0.002565613714978,-0.0147571880370378,0.7611339688301086,4.006353378295898,4.04296875,0,"['C1', 'F2', 'F1']",6.1,180,0.0,0.0586280877172851,[4300|0|0]
43,4300,1.281131625175476,-0.32546266913414,-0.0028598958160728,-0.0101686548441648,0.7732850909233093,4.015711307525635,4.04296875,0,"['C1', 'F2', 'F1']",6.1,180,0.0,0.0589482816736343,[4400|0|0]
44,4400,1.2809900045394895,-0.3256894052028656,-0.0026001033838838,-0.0056155952624976,0.7811020612716675,4.016429901123047,4.04296875,0,"['C1', 'F2', 'F1']",6.1,180,0.0,0.0593210520549966,[4500|0|0]
45,4500,1.2812224626541138,-0.3257253468036651,-0.0025125134270638,-0.0073563694022595,0.7751848697662354,4.03021764755249,4.04296875,0,"['C1', 'F2', 'F1']",6.1,180,0.0,0.0595720512069041,[4600|0|0]
46,4600,1.2809507846832275,-0.3256459236145019,-0.0029019406065344,0.0035876638721674,0.7888385057449341,4.040892601013184,4.04296875,0,"['C1', 'F2', 'F1']",6.1,180,0.0,0.0600534766849921,[4700|0|0]
47,4700,1.2808459997177124,-0.3255842328071594,-0.0028979612980037,-0.0081033930182456,0.7848038673400879,4.071779251098633,4.04296875,0,"['C1', 'F2', 'F1']",6.1,180,0.0,0.060175138016585,[4800|0|0]
48,4800,1.2809432744979858,-0.3255694210529327,-0.0025986460968852,-0.0078867888078093,0.7791458368301392,4.04703950881958,4.04296875,0,"['C1', 'F2', 'F1']",6.1,180,0.0,0.0604902115961838,[4900|0|0]
49,4900,1.281075358390808,-0.3257795572280884,-0.0026611816138029,-0.0041342568583786,0.7733029127120972,4.037081718444824,4.04296875,0,"['C1', 'F2', 'F1']",6.1,180,0.0,0.0607461687365965,[5000|0|0]
50,5000,1.2807624340057373,-0.3254133462905884,-0.0032748887315392,-0.0133787589147686,0.7823277711868286,4.039225101470947,4.04296875,0,"['C1', 'F2', 'F1']",6.1,180,0.0,0.0615263408636793,[5100|0|0]
51,5100,1.2811299562454224,-0.3255521059036255,-0.0024240571074187,-0.0087955808266997,0.7701297998428345,4.029707431793213,4.04296875,0,"['C1', 'F2', 'F1']",6.1,180,0.0,0.062463486145627,[5200|0|0]
52,5200,1.28103768825531,-0.3255409300327301,-0.002610693918541,-0.0063649853691458,0.7732422947883606,4.042397499084473,4.04296875,0,"['C1', 'F2', 'F1']",6.1,180,0.0,0.0626719845421569,[5300|0|0]
53,5300,1.2812316417694092,-0.3257295489311218,-0.0026645932812243,-0.0015571140684187,0.7610400319099426,4.017127990722656,4.04296875,0,"['C1', 'F2', 'F1']",6.1,180,0.0,0.0629478471814533,[5400|0|0]
54,5400,1.2811487913131714,-0.3256774842739105,-0.0025352998636662,-0.0032156326342374,0.7639167308807373,4.0066237449646,4.04296875,0,"['C1', 'F2', 'F1']",6.1,180,0.0,0.0631099943814081,[5500|0|0]
55,5500,1.2810643911361694,-0.325431227684021,-0.0026765749789774,-0.0041785100474953,0.7669318914413452,4.022742748260498,4.04296875,0,"['C1', 'F2', 'F1']",6.1,180,0.0,0.0634061773588868,[5600|0|0]
56,5600,1.2809354066848757,-0.3255690634250641,-0.0032220056746155,-0.0013824393972754,0.7643675804138184,4.02907657623291,4.04296875,0,"['C1', 'F2', 'F1']",6.1,180,0.0,0.0639833517899982,[5700|0|0]
57,5700,1.2810087203979492,-0.325546532869339,-0.0026620305143296,-0.0037228765431791,0.7607405781745911,4.016872406005859,4.04296875,0,"['C1', 'F2', 'F1']",6.1,180,0.0,0.0645485550336222,[5800|0|0]
58,5800,1.2809053659439087,-0.3256232738494873,-0.0028763436712324,-0.0046224426478147,0.768670380115509,3.998211145401001,4.04296875,0,"['C1', 'F2', 'F1']",6.1,180,0.0,0.0647985579344569,[5900|0|0]
59,5900,1.2809563875198364,-0.3252050280570984,-0.0030689602717757,-0.0100596286356449,0.7751357555389404,4.0123162269592285,4.04296875,0,"['C1', 'F2', 'F1']",6.1,180,0.0,0.0652618439140268,[6000|0|0]
60,6000,1.2812023162841797,-0.325710266828537,-0.0025881640613079,0.0026890644803643,0.7706994414329529,4.005982398986816,4.04296875,0,"['C1', 'F2', 'F1']",6.1,180,0.0,0.0660013790175184,[6100|0|0]
61,6100,1.2810224294662476,-0.3254270851612091,-0.0029204834718257,0.0093736425042152,0.7864952683448792,4.003189563751221,4.04296875,0,"['C1', 'F2', 'F1']",6.1,180,0.0,0.0664735943440203,[6200|0|0]
62,6200,1.2808821201324463,-0.325307160615921,-0.0029393271543085,0.0022126249969005,0.7874845266342163,4.011030197143555,4.04296875,0,"['C1', 'F2', 'F1']",6.1,180,0.0,0.0666591305671246,[6300|0|0]
63,6300,1.28098464012146,-0.3253783881664276,-0.0030310519505292,0.0009267100831493,0.7758212685585022,4.016465663909912,4.04296875,0,"['C1', 'F2', 'F1']",6.1,180,0.0,0.0668140407034626,[6400|0|0]
64,6400,1.2808527946472168,-0.3255819678306579,-0.0027667768299579,-0.0009797402890399,0.7723130583763123,4.025132179260254,4.04296875,0,"['C1', 'F2', 'F1']",6.1,180,0.0,0.0671727456631711,[6500|0|0]
65,6500,1.2808688879013062,-0.3257032930850982,-0.0027072485536336,0.0008207171922549,0.7777894139289856,4.019256114959717,4.04296875,0,"['C1', 'F2', 'F1']",6.1,180,0.0,0.0673088427824438,[6600|0|0]
66,6600,1.2810146808624268,-0.3258573710918426,-0.0025764610618352,0.0019073822768405,0.7750726938247681,4.010430335998535,4.04296875,0,"['C1', 'F2', 'F1']",6.1,180,0.0,0.0675580434800463,[6700|0|0]
67,6700,1.2811514139175415,-0.3256702721118927,-0.0031197648495435,-0.0069791725836694,0.7695382833480835,4.024540901184082,4.04296875,0,"['C1', 'F2', 'F1']",6.1,180,0.0,0.068148704941797,[6800|0|0]
68,6800,1.2812137603759766,-0.3256273567676544,-0.002364718588069,-0.0068119629286229,0.7727839350700378,4.032268524169922,4.04296875,0,"['C1', 'F2', 'F1']",6.1,180,0.0,0.0689075354002112,[6900|0|0]
69,6900,1.2810003757476809,-0.3257991969585418,-0.0023929509334266,-0.0051597245037555,0.7826548218727112,4.058117389678955,4.04296875,0,"['C1', 'F2', 'F1']",6.1,180,0.0,0.0691829607369571,[7000|0|0]
70,7000,1.2810691595077517,-0.3257660269737243,-0.0026425041723996,-0.0016085136448964,0.7784509062767029,4.043829917907715,4.04296875,0,"['C1', 'F2', 'F1']",6.1,180,0.0,0.0694439363538722,[7100|0|0]
71,7100,1.2809550762176514,-0.3256822824478149,-0.0026554958894848,0.0079413121566176,0.787090539932251,4.03022050857544,4.04296875,0,"['C1', 'F2', 'F1']",6.1,180,0.0,0.0695860522481721,[7200|0|0]
72,7200,1.280946135520935,-0.3257051706314087,-0.0027220146730542,0.0036725678946822,0.7889055609703064,4.027640342712402,4.04296875,0,"['C1', 'F2', 'F1']",6.1,180,0.0,0.0696569645431113,[7300|0|0]
73,7300,1.2808715105056765,-0.3255479037761688,-0.0029553114436566,0.0011947675375267,0.78680020570755,4.047759056091309,4.04296875,0,"['C1', 'F2', 'F1']",6.1,180,0.0,0.0699480472458488,[7400|0|0]
74,7400,1.2808867692947388,-0.3254666030406952,-0.0028040062170475,-0.0052078515291213,0.7870010733604431,4.0456318855285645,4.04296875,0,"['C1', 'F2', 'F1']",6.1,180,0.0,0.0701204882845589,[7500|0|0]
75,7500,1.2809584140777588,-0.3254047632217407,-0.0028206419665366,-0.0091416640207171,0.7851176857948303,4.057195663452148,4.04296875,0,"['C1', 'F2', 'F1']",6.1,180,0.0,0.0702165813972329,[7600|0|0]
76,7600,1.2808027267456057,-0.3255229890346527,-0.0028695694636553,-0.001490490976721,0.7902753353118896,4.07265567779541,4.04296875,0,"['C1', 'F2', 'F1']",6.1,180,0.0,0.0704181001015906,[7700|0|0]
77,7700,1.281020164489746,-0.3258392214775085,-0.0025605610571801,0.0050634783692657,0.7828649282455444,4.045102596282959,4.04296875,0,"['C1', 'F2', 'F1']",6.1,180,0.0,0.0709108153598929,[7800|0|0]
78,7800,1.2808362245559692,-0.3253491818904876,-0.0029897303320467,-0.0082166800275444,0.7837132811546326,4.04939079284668,4.04296875,0,"['C1', 'F2', 'F1']",6.1,180,0.0,0.0715876897666885,[7900|0|0]
79,7900,1.2808915376663208,-0.3256082534790039,-0.002717716153711,0.0027895949315279,0.7863513231277466,4.035586833953857,4.04296875,0,"['C1', 'F2', 'F1']",6.1,180,0.0,0.0719673861471937,[8000|0|0]
80,8000,1.2811543941497805,-0.3257491290569305,-0.0025737348478287,0.0059922914952039,0.7775023579597473,4.006688594818115,4.04296875,0,"['C1', 'F2', 'F1']",6.1,180,0.0,0.0722985508732688,[8100|0|0]
81,8100,1.2812553644180298,-0.3260330557823181,-0.0025924751535058,0.0225964318960905,0.7912247776985168,4.005273342132568,4.04296875,0,"['C1', 'F2', 'F1']",6.1,180,0.0,0.072600478976493,[8200|0|0]
82,8200,1.2809925079345703,-0.325596809387207,-0.0029151807539165,0.0043544895015656,0.7991863489151001,4.002253532409668,4.04296875,0,"['C1', 'F2', 'F1']",6.1,180,0.0,0.0732034245401059,[8300|0|0]
83,8300,1.2810064554214478,-0.325792908668518,-0.0026091700419783,0.011850175447762,0.8059439659118652,4.000372886657715,4.04296875,0,"['C1', 'F2', 'F1']",6.1,180,0.0,0.073567144234846,[8400|0|0]
84,8400,1.2807753086090088,-0.3257878422737121,-0.0025386665947735,0.0048181754536926,0.8048624396324158,3.991109371185303,4.04296875,0,"['C1', 'F2', 'F1']",6.1,180,0.0,0.0738088573981714,[8500|0|0]
85,8500,1.2810331583023071,-0.3254658877849579,-0.0033510099165141,-0.0068035339936614,0.7889597415924072,3.993006467819214,4.04296875,0,"['C1', 'F2', 'F1']",6.1,180,0.0,0.0747199242615462,[8600|0|0]
86,8600,1.2811683416366575,-0.325306236743927,-0.002953712362796,-0.0114742871373891,0.7829922437667847,4.000146865844727,4.04296875,0,"['C1', 'F2', 'F1']",6.1,180,0.0,0.0751689324295997,[8700|0|0]
87,8700,1.2809596061706543,-0.3254875242710113,-0.0027760246302932,-0.009619653224945,0.7771602869033813,4.003724575042725,4.04296875,0,"['C1', 'F2', 'F1']",6.1,180,0.0,0.0754975790369548,[8800|0|0]
88,8800,1.2811521291732788,-0.3256174623966217,-0.0023440502118319,-0.0067832344211637,0.7773110270500183,4.01255989074707,4.04296875,0,"['C1', 'F2', 'F1']",6.1,180,0.0,0.0759880389448287,[8900|0|0]
89,8900,1.2808383703231812,-0.3256429731845855,-0.0029780981130898,-0.0123092290014028,0.792568564414978,4.038999080657959,4.04296875,0,"['C1', 'F2', 'F1']",6.1,180,0.0,0.0766959317032369,[9000|0|0]
90,9000,1.2813135385513306,-0.3255205154418945,-0.0024661940988153,-0.0117900129407644,0.7811556458473206,4.02448034286499,4.04296875,0,"['C1', 'F2', 'F1']",6.1,180,0.0,0.0774050342794682,[9100|0|0]
91,9100,1.2809609174728394,-0.325461596250534,-0.0029744689818471,-0.0033161616884171,0.7906451225280762,4.016068935394287,4.04296875,0,"['C1', 'F2', 'F1']",6.1,180,0.0,0.078026449159261,[9200|0|0]
92,9200,1.2810598611831665,-0.3255490660667419,-0.0025237870868295,-0.0089668985456228,0.7760627269744873,4.003642559051514,4.04296875,0,"['C1', 'F2', 'F1']",6.1,180,0.0,0.0784960819914368,[9300|0|0]
93,9300,1.2810815572738647,-0.3257411420345306,-0.0026908586733043,-0.0105939079076051,0.7713948488235474,3.9911649227142334,4.04296875,0,"['C1', 'F2', 'F1']",6.1,180,0.0,0.0787515752648527,[9400|0|0]
94,9400,1.2808343172073364,-0.325425922870636,-0.0029081772081553,-0.0231175869703292,0.7613094449043274,3.99689531326294,4.04296875,0,"['C1', 'F2', 'F1']",6.1,180,0.0,0.0792073362958472,[9500|0|0]
95,9500,1.280957818031311,-0.3256056010723114,-0.0029926642309874,-0.0184501186013221,0.756747305393219,3.976412534713745,4.04296875,0,"['C1', 'F2', 'F1']",6.1,180,0.0,0.0794411626560095,[9600|0|0]
96,9600,1.280962586402893,-0.3256482779979706,-0.0025783241726458,-0.0068004713393747,0.7682369351387024,3.958320140838623,4.04296875,0,"['C1', 'F2', 'F1']",6.1,180,0.0,0.0798577220650951,[9700|0|0]
97,9700,1.2811787128448486,-0.3258109092712402,-0.0025913650169968,-0.0066062132827937,0.7595180869102478,3.977286338806152,4.04296875,0,"['C1', 'F2', 'F1']",6.1,180,0.0,0.0801285165140395,[9800|0|0]
98,9800,1.2811462879180908,-0.3257874250411987,-0.0026427407283335,-0.0079514477401971,0.7559450268745422,3.9855637550354,4.04296875,0,"['C1', 'F2', 'F1']",6.1,180,0.0,0.0801936498284895,[9900|0|0]
99,9900,1.280969738960266,-0.3258964717388153,-0.0025597237981855,-0.0098419599235057,0.7544337511062622,4.015632152557373,4.04296875,0,"['C1', 'F2', 'F1']",6.1,180,0.0,0.0804171504492074,[10000|0|0]
100,10000,1.2808010578155518,-0.325458824634552,-0.0028855502605438,-0.0215944796800613,0.7506217360496521,4.037057399749756,4.04296875,0,"['C1', 'F2', 'F1']",6.1,180,0.0,0.0809882469384498,[10100|0|0]
101,10100,1.2810957431793213,-0.3258993029594421,-0.0025652598123997,-0.01148571819067,0.7401312589645386,4.003840446472168,4.04296875,0,"['C1', 'F2', 'F1']",6.1,180,0.0,0.0816074775816599,[10200|0|0]
102,10200,1.2810124158859253,-0.325800210237503,-0.0026461388915777,-0.0132624143734574,0.7474750876426697,4.025925159454346,4.04296875,0,"['C1', 'F2', 'F1']",6.1,180,0.0,0.0817601348147498,[10300|0|0]
103,10300,1.280913233757019,-0.3255277872085571,-0.0027955449186265,-0.0181104149669408,0.7485312819480896,4.044203281402588,4.04296875,0,"['C1', 'F2', 'F1']",6.1,180,0.0,0.0820862844158732,[10400|0|0]
104,10400,1.2811201810836792,-0.3259330689907074,-0.0025993520393967,-0.007230456918478,0.7441454529762268,4.031605243682861,4.04296875,0,"['C1', 'F2', 'F1']",6.1,180,0.0,0.0825818367993961,[10500|0|0]
105,10500,1.2810252904891968,-0.3258623480796814,-0.002609634771943,-0.0079548032954335,0.7531954646110535,4.021033763885498,4.04296875,0,"['C1', 'F2', 'F1']",6.1,180,0.0,0.0827006282417065,[10600|0|0]
106,10600,1.2810226678848269,-0.3254925310611725,-0.0027965060435235,-0.0066684116609394,0.7572592496871948,4.015303611755371,4.04296875,0,"['C1', 'F2', 'F1']",6.1,180,0.0,0.0831149860307905,[10700|0|0]
107,10700,1.281113624572754,-0.3257662355899811,-0.0025253649801015,-0.0011588698253035,0.7549001574516296,3.9946448802948,4.04296875,0,"['C1', 'F2', 'F1']",6.1,180,0.0,0.0835108455569392,[10800|0|0]
108,10800,1.2811781167984009,-0.3257025480270386,-0.0026941108517348,-0.0079577732831239,0.7494720816612244,4.008376121520996,4.04296875,0,"['C1', 'F2', 'F1']",6.1,180,0.0,0.0837023932586631,[10900|0|0]
109,10900,1.2808935642242432,-0.3256995379924774,-0.0028797623235732,-0.0067510968074202,0.7558275461196899,4.01275634765625,4.04296875,0,"['C1', 'F2', 'F1']",6.1,180,0.0,0.0840421662663662,[11000|0|0]
110,11000,1.281322360038757,-0.3259838223457336,-0.0026695490814745,0.0066043976694345,0.7530009150505066,4.001108646392822,4.04296875,0,"['C1', 'F2', 'F1']",6.1,180,0.0,0.0845979297513171,[11100|0|0]
111,11100,1.2810481786727903,-0.3257494568824768,-0.0030342086683958,0.0075079123489558,0.7725889086723328,4.013094425201416,4.04296875,0,"['C1', 'F2', 'F1']",6.1,180,0.0,0.085110842225473,[11200|0|0]
112,11200,1.280634880065918,-0.3255332112312317,-0.003031597007066,0.0018282404635101,0.7789900302886963,4.053325176239014,4.04296875,0,"['C1', 'F2', 'F1']",6.1,180,0.0,0.0855773020210611,[11300|0|0]
113,11300,1.2820112705230713,-0.3252975642681122,-0.0027155559509992,-0.1823396980762481,0.5986766815185547,4.0489821434021,4.04296875,0,"['C1', 'F2', 'F1']",6.1,180,0.0,0.0870090359805976,[11400|0|0]
114,11400,1.2813166379928589,-0.3251229226589203,-0.0028272815980017,-0.2963259816169739,0.5236316323280334,4.029435157775879,4.0390625,0,"['C1', 'F2', 'F1']",6.1,180,0.0,0.0877339474675314,[11500|0|0]
115,11500,1.2812899351119995,-0.3252632319927215,-0.0027026303578168,-0.2188638299703598,0.5882297158241272,4.016340255737305,4.04296875,0,"['C1', 'F2', 'F1']",6.1,180,0.0,0.0879235198407232,[11600|0|0]
116,11600,1.2812070846557615,-0.3249585032463074,-0.0027686064131557,-0.1738320887088775,0.6382145881652832,4.038953304290772,4.04296875,0,"['C1', 'F2', 'F1']",6.1,180,0.0,0.0882461289646922,[11700|0|0]
117,11700,1.2812659740447998,-0.3251479864120483,-0.0032075904309749,-0.1381107568740844,0.6587998867034912,4.057459831237793,4.04296875,0,"['C1', 'F2', 'F1']",6.1,180,0.0,0.0887278745387675,[11800|0|0]
118,11800,1.2811346054077148,-0.3253665864467621,-0.0025351715739816,-0.1031242609024047,0.695088267326355,4.055877685546875,4.04296875,0,"['C1', 'F2', 'F1']",6.1,180,0.0,0.0894470343354933,[11900|0|0]
119,11900,1.2810219526290894,-0.3254873752593994,-0.0026955539360642,-0.0808511227369308,0.7128530740737915,4.060405254364014,4.04296875,0,"['C1', 'F2', 'F1']",6.1,180,0.0,0.0896772583304581,[12000|0|0]
120,12000,1.2811919450759888,-0.3253383636474609,-0.002738244831562,-0.0754626765847206,0.7255212664604187,4.04274320602417,4.04296875,0,"['C1', 'F2', 'F1']",6.1,180,0.0,0.0899073113788052,[12100|0|0]
121,12100,1.2811661958694458,-0.3254112899303436,-0.0025822583120316,-0.0718866735696792,0.723188579082489,4.045542240142822,4.04296875,0,"['C1', 'F2', 'F1']",6.1,180,0.0,0.0900814178366058,[12200|0|0]
122,12200,1.2810888290405271,-0.3255491554737091,-0.0024944769684225,-0.0664549320936203,0.7216190695762634,4.044912338256836,4.04296875,0,"['C1', 'F2', 'F1']",6.1,180,0.0,0.0902622439922088,[12300|0|0]
123,12300,1.2812023162841797,-0.3253720700740814,-0.0029254134278744,-0.0729238986968994,0.7164661288261414,4.053610324859619,4.04296875,0,"['C1', 'F2', 'F1']",6.1,180,0.0,0.0907417696175075,[12400|0|0]
124,12400,1.28120756149292,-0.32557412981987,-0.0026304952334612,-0.0721712186932563,0.7179566621780396,4.050271511077881,4.04296875,0,"['C1', 'F2', 'F1']",6.1,180,0.0,0.0910993061813423,[12500|0|0]
125,12500,1.2812036275863647,-0.3253669738769531,-0.0024128905497491,-0.0854271426796913,0.7132625579833984,4.048178672790527,4.04296875,0,"['C1', 'F2', 'F1']",6.1,180,0.0,0.0913997739145185,[12600|0|0]
126,12600,1.281194806098938,-0.3254068493843078,-0.0028543067164719,-0.083840787410736,0.7124515771865845,4.050051212310791,4.04296875,0,"['C1', 'F2', 'F1']",6.1,180,0.0,0.0918430752871437,[12700|0|0]
127,12700,1.281060814857483,-0.3253239691257477,-0.0026546693406999,-0.0962406992912292,0.7011551260948181,4.062192916870117,4.04296875,0,"['C1', 'F2', 'F1']",6.1,180,0.0,0.0920973937328979,[12800|0|0]
128,12800,1.2809804677963257,-0.3254092931747436,-0.0025878148153424,-0.0950943529605865,0.7009338736534119,4.059814453125,4.04296875,0,"['C1', 'F2', 'F1']",6.1,180,0.0,0.0922323210138104,[12900|0|0]
129,12900,1.2811323404312134,-0.3256308138370514,-0.0027724609244614,-0.0900641158223152,0.7010436654090881,4.050827026367188,4.0390625,0,"['C1', 'F2', 'F1']",6.1,180,0.0,0.0925582518142417,[13000|0|0]
130,13000,1.2811344861984253,-0.3252911269664764,-0.0028673696797341,-0.0951302498579025,0.701206624507904,4.014798641204834,4.04296875,0,"['C1', 'F2', 'F1']",6.1,180,0.0,0.0929109548709131,[13100|0|0]
131,13100,1.281022310256958,-0.3255464136600494,-0.0025872872211039,-0.0853982642292976,0.7071444988250732,4.035887718200684,4.04296875,0,"['C1', 'F2', 'F1']",6.1,180,0.0,0.093306177493484,[13200|0|0]
132,13200,1.281391143798828,-0.3257601261138916,-0.0025294073857367,-0.0778796598315239,0.6983612179756165,4.004383087158203,4.04296875,0,"['C1', 'F2', 'F1']",6.1,180,0.0,0.0937363649757261,[13300|0|0]
133,13300,1.2811051607131958,-0.325713038444519,-0.0024461448192596,-0.0744674429297447,0.7090415954589844,4.020683288574219,4.04296875,0,"['C1', 'F2', 'F1']",6.1,180,0.0,0.0940379213201314,[13400|0|0]
134,13400,1.2809562683105469,-0.3252193629741668,-0.0027825660072267,-0.0967956706881523,0.7063326239585876,4.012031078338623,4.04296875,0,"['C1', 'F2', 'F1']",6.1,180,0.0,0.0946536027583015,[13500|0|0]
135,13500,1.2812029123306274,-0.3256596624851227,-0.0026112021878361,-0.0893279612064361,0.6913570165634155,3.985367774963379,4.04296875,0,"['C1', 'F2', 'F1']",6.1,180,0.0,0.0951865778896027,[13600|0|0]
136,13600,1.281076192855835,-0.325547844171524,-0.0025393322575837,-0.0946233496069908,0.6900960206985474,3.999125003814697,4.04296875,0,"['C1', 'F2', 'F1']",6.1,180,0.0,0.0953702255071266,[13700|0|0]
137,13700,1.2812228202819824,-0.3256300091743469,-0.0025242178235203,-0.1080997064709663,0.6663442254066467,4.017680644989014,4.04296875,0,"['C1', 'F2', 'F1']",6.1,180,0.0,0.0955389831318568,[13800|0|0]
138,13800,1.2812331914901731,-0.3254622220993042,-0.0026504788547754,-0.1112553179264068,0.6763442158699036,4.032491683959961,4.04296875,0,"['C1', 'F2', 'F1']",6.1,180,0.0,0.0957492256406992,[13900|0|0]
139,13900,1.2812411785125732,-0.3255690038204193,-0.0025520126800984,-0.107530765235424,0.6770168542861938,4.01005220413208,4.04296875,0,"['C1', 'F2', 'F1']",6.1,180,0.0,0.095894696311443,[14000|0|0]
140,14000,1.2811627388000488,-0.3257536888122558,-0.0024692511651664,-0.1001101657748222,0.6839845180511475,3.9889302253723145,4.04296875,0,"['C1', 'F2', 'F1']",6.1,180,0.0,0.0961117465431047,[14100|0|0]
141,14100,1.280957818031311,-0.3254123330116272,-0.0028268923051655,-0.1119821742177009,0.6875409483909607,3.99881649017334,4.04296875,0,"['C1', 'F2', 'F1']",6.1,180,0.0,0.0966469320147897,[14200|0|0]
142,14200,1.2811312675476074,-0.3255900144577026,-0.0025166326668113,-0.1066755205392837,0.6776993274688721,3.992619276046753,4.04296875,0,"['C1', 'F2', 'F1']",6.1,180,0.0,0.0970443190731781,[14300|0|0]
143,14300,1.2811877727508545,-0.3253737390041351,-0.0026929695159196,-0.111261636018753,0.6737188696861267,3.9990179538726807,4.04296875,0,"['C1', 'F2', 'F1']",6.1,180,0.0,0.0973290340080925,[14400|0|0]
144,14400,1.2812914848327637,-0.3255579769611358,-0.0027456521056592,-0.1142526865005493,0.6728417277336121,4.011821269989014,4.04296875,0,"['C1', 'F2', 'F1']",6.1,180,0.0,0.0975469222271301,[14500|0|0]
145,14500,1.2810955047607422,-0.3256315290927887,-0.0026868956629186,-0.1102836802601814,0.670444905757904,3.977627038955689,4.04296875,0,"['C1', 'F2', 'F1']",6.1,180,0.0,0.0977643398535171,[14600|0|0]
146,14600,1.2810964584350586,-0.3252627253532409,-0.0028460077010095,-0.1163985058665275,0.6715388298034668,3.99263334274292,4.04296875,0,"['C1', 'F2', 'F1']",6.1,180,0.0,0.0981660035791191,[14700|0|0]
147,14700,1.2812118530273438,-0.3253499865531921,-0.0028074863366782,-0.1144795417785644,0.670569658279419,4.029548168182373,4.04296875,0,"['C1', 'F2', 'F1']",6.1,180,0.0,0.0983157177215891,[14800|0|0]
148,14800,1.2812566757202148,-0.3256538808345794,-0.0026275352574884,-0.1058276817202568,0.6683272123336792,4.016786098480225,4.04296875,0,"['C1', 'F2', 'F1']",6.1,180,0.0,0.0986717278323412,[14900|0|0]
149,14900,1.2811890840530396,-0.3255766332149505,-0.0025818166323006,-0.1126018911600112,0.6736695170402527,4.011678695678711,4.04296875,0,"['C1', 'F2', 'F1']",6.1,180,0.0,0.0987840934004612,[15000|0|0]
150,15000,1.2811051607131958,-0.3255174160003662,-0.0024615321308374,-0.1177704110741615,0.6710545420646667,3.9918811321258554,4.04296875,0,"['C1', 'F2', 'F1']",6.1,180,0.0,0.0989422647213949,[15100|0|0]
151,15100,1.2812817096710205,-0.3255560994148254,-0.0025518722832202,-0.1169316470623016,0.6688941717147827,3.995150327682495,4.04296875,0,"['C1', 'F2', 'F1']",6.1,180,0.0,0.0991443223473231,[15200|0|0]
152,15200,1.2813657522201538,-0.3255831003189087,-0.0024433904327452,-0.1151194274425506,0.6704973578453064,3.978809118270874,4.04296875,0,"['C1', 'F2', 'F1']",6.1,180,0.0,0.0992841812432455,[15300|0|0]
153,15300,1.2810648679733276,-0.3255676627159118,-0.002689418150112,-0.1143398955464363,0.6884166598320007,3.995117425918579,4.04296875,0,"['C1', 'F2', 'F1']",6.1,180,0.0,0.0996731533338731,[15400|0|0]
154,15400,1.2811483144760132,-0.3256056308746338,-0.0023879059590399,-0.1126299351453781,0.6849355101585388,3.9955484867095943,4.04296875,0,"['C1', 'F2', 'F1']",6.1,180,0.0,0.0999882953673315,[15500|0|0]
155,15500,1.2809288501739502,-0.3252523243427276,-0.0029252606909722,-0.1156031191349029,0.6887809634208679,4.000918388366699,4.04296875,0,"['C1', 'F2', 'F1']",6.1,180,0.0,0.1006678100421528,[15600|0|0]
156,15600,1.281165361404419,-0.3256239891052246,-0.002264198847115,-0.1108918339014053,0.6743901968002319,3.989911556243897,4.04296875,0,"['C1', 'F2', 'F1']",6.1,180,0.0,0.1014622123452862,[15700|0|0]
157,15700,1.281397819519043,-0.3256924152374267,-0.002531522186473,-0.1034868061542511,0.6673809289932251,3.988935708999634,4.04296875,0,"['C1', 'F2', 'F1']",6.1,180,0.0,0.1018230179416787,[15800|0|0]
158,15800,1.281208634376526,-0.3253668248653412,-0.0028783979360014,-0.1119707152247428,0.6751256585121155,3.988945960998535,4.04296875,0,"['C1', 'F2', 'F1']",6.1,180,0.0,0.102334997330087,[15900|0|0]
159,15900,1.2812858819961548,-0.3255911469459533,-0.0026568681932985,-0.0941669717431068,0.6834545731544495,3.989388942718506,4.04296875,0,"['C1', 'F2', 'F1']",6.1,180,0.0,0.10265959402984,[16000|0|0]
160,16000,1.2811658382415771,-0.3254400193691253,-0.0025467723608016,-0.0973759591579437,0.6817429065704346,3.989755630493164,4.04296875,0,"['C1', 'F2', 'F1']",6.1,180,0.0,0.1028817902040288,[16100|0|0]
161,16100,1.281220316886902,-0.3253530859947204,-0.0028686015866696,-0.1080797165632247,0.6772781014442444,3.9914393424987793,4.04296875,0,"['C1', 'F2', 'F1']",6.1,180,0.0,0.1032195762087783,[16200|0|0]
162,16200,1.2894474267959597,-0.3132192492485046,0.0016303905285894,-0.3443470597267151,0.4780429303646087,4.085280418395996,4.04296875,0,"['C1', 'F2', 'F1']",6.1,180,0.0,0.1185543817730069,[16300|0|0]
163,16300,1.289719820022583,-0.3134530782699585,0.0019811894744634,-0.3392547070980072,0.4641971886157989,4.0825605392456055,4.04296875,0,"['C1', 'F2', 'F1']",6.1,180,0.0,0.1190563120287305,[16400|0|0]
164,16400,1.289584040641785,-0.3134061396121979,0.0013909399276599,-0.3445135354995727,0.461243987083435,4.084313869476318,4.04296875,0,"['C1', 'F2', 'F1']",6.1,180,0.0,0.1196637935554818,[16500|0|0]
165,16500,1.2896461486816406,-0.3135099112987518,0.0015733351465314,-0.3412213027477264,0.4587326049804687,4.12250280380249,4.04296875,0,"['C1', 'F2', 'F1']",6.1,180,0.0,0.1198826405052257,[16600|0|0]
166,16600,1.289406657218933,-0.3134720027446747,0.0015883756568655,-0.3404302895069122,0.4674889743328094,4.104732036590576,4.04296875,0,"['C1', 'F2', 'F1']",6.1,180,0.0,0.120125579666608,[16700|0|0]
167,16700,1.2896960973739624,-0.313576728105545,0.0018388843163847,-0.3418459296226501,0.4682293534278869,4.098812580108643,4.04296875,0,"['C1', 'F2', 'F1']",6.1,180,0.0,0.1205224393307803,[16800|0|0]
168,16800,1.2894915342330933,-0.3136005401611328,0.0015527256764471,-0.343650609254837,0.4804425239562988,4.120098114013672,4.04296875,0,"['C1', 'F2', 'F1']",6.1,180,0.0,0.1208750011832325,[16900|0|0]
169,16900,1.2897214889526367,-0.3135697543621063,0.0019257143139839,-0.3526973724365234,0.4715045690536499,4.090324878692627,4.04296875,0,"['C1', 'F2', 'F1']",6.1,180,0.0,0.1213142590371105,[17000|0|0]
170,17000,1.2896264791488647,-0.3138017654418945,0.0017427299171686,-0.3523691892623901,0.462950199842453,4.081702709197998,4.04296875,0,"['C1', 'F2', 'F1']",6.1,180,0.0,0.1216246447542998,[17100|0|0]
171,17100,1.2894989252090454,-0.3132676482200622,0.0013635221403092,-0.3620739579200744,0.4775100648403168,4.093005657196045,4.04296875,0,"['C1', 'F2', 'F1']",6.1,180,0.0,0.1222919900564125,[17200|0|0]
172,17200,1.2895807027816772,-0.3132147490978241,0.0015130190877243,-0.3606903254985809,0.4718239605426788,4.081644058227539,4.04296875,0,"['C1', 'F2', 'F1']",6.1,180,0.0,0.1224704143423312,[17300|0|0]
173,17300,1.2895208597183228,-0.3133456110954284,0.0015302742831408,-0.3616404831409454,0.4739679992198944,4.098174095153809,4.0390625,0,"['C1', 'F2', 'F1']",6.1,180,0.0,0.122615341208086,[17400|0|0]
174,17401,1.2896358966827393,-0.3135394752025604,0.001730122952722,-0.357537180185318,0.4703810811042785,4.0886430740356445,4.04296875,0,"['C1', 'F2', 'F1']",6.1,180,0.0,0.1229165990477343,[17500|0|0]
175,17501,1.289499044418335,-0.3133483827114105,0.0018792280461639,-0.3596611618995666,0.4822396636009216,4.075793266296387,4.04296875,0,"['C1', 'F2', 'F1']",6.1,180,0.0,0.1231949463332192,[17600|0|0]
176,17601,1.2895721197128296,-0.3134611546993255,0.0019040012266486,-0.3544315695762634,0.4801237881183624,4.066819667816162,4.04296875,0,"['C1', 'F2', 'F1']",6.1,180,0.0,0.1233315890439473,[17700|0|0]
177,17701,1.2898844480514526,-0.3134849071502685,0.0017680812161415,-0.3545876145362854,0.470183789730072,4.080976963043213,4.04296875,0,"['C1', 'F2', 'F1']",6.1,180,0.0,0.1236730380434905,[17800|0|0]
178,17801,1.2896255254745483,-0.3135822415351867,0.0016665053553879,-0.3543561100959778,0.4821784198284149,4.0771660804748535,4.04296875,0,"['C1', 'F2', 'F1']",6.1,180,0.0,0.1239677116575214,[17900|0|0]
179,17901,1.2891982793807983,-0.3135826289653778,0.001642714254558,-0.3524917662143707,0.4910659790039062,4.081222057342529,4.04296875,0,"['C1', 'F2', 'F1']",6.1,180,0.0,0.1243956198149635,[18000|0|0]
180,18001,1.2893296480178833,-0.3131478428840637,0.0013993759639561,-0.3594189286231994,0.4899812042713165,4.068149566650391,4.04296875,0,"['C1', 'F2', 'F1']",6.1,180,0.0,0.1249108966133807,[18100|0|0]
181,18101,1.289849042892456,-0.3135674297809601,0.0019137051422148,-0.3427636623382568,0.4805948138236999,4.061899185180664,4.04296875,0,"['C1', 'F2', 'F1']",6.1,180,0.0,0.1257537244151219,[18200|0|0]
182,18201,1.2892435789108276,-0.3134773969650268,0.0014330690028145,-0.3487490117549896,0.4897217750549316,4.101027011871338,4.04296875,0,"['C1', 'F2', 'F1']",6.1,180,0.0,0.1265319940595845,[18300|0|0]
183,18301,1.2894794940948486,-0.313653826713562,0.001635432941839,-0.3488765060901642,0.4895203709602356,4.117280006408691,4.04296875,0,"['C1', 'F2', 'F1']",6.1,180,0.0,0.1268893938274039,[18400|0|0]
184,18401,1.2896627187728882,-0.3138648569583893,0.001767631038092,-0.3478769063949585,0.4879617094993591,4.117689609527588,4.04296875,0,"['C1', 'F2', 'F1']",6.1,180,0.0,0.1271985562176254,[18500|0|0]
185,18501,1.2896026372909546,-0.3135099709033966,0.0019340065773576,-0.3594302833080292,0.4891591370105743,4.116644859313965,4.04296875,0,"['C1', 'F2', 'F1']",6.1,180,0.0,0.1275950845477173,[18600|0|0]
186,18601,1.2894352674484253,-0.3135327398777008,0.0014869960723444,-0.3579012453556061,0.4952832460403442,4.094476222991943,4.04296875,0,"['C1', 'F2', 'F1']",6.1,180,0.0,0.1280729438177658,[18700|0|0]
187,18701,1.2893846035003662,-0.3133440613746643,0.0015361802652478,-0.3583640158176422,0.4926443994045257,4.098451137542725,4.04296875,0,"['C1', 'F2', 'F1']",6.1,180,0.0,0.128274402245171,[18800|0|0]
188,18802,1.2896990776062012,-0.3134053647518158,0.0018534902483224,-0.3567439615726471,0.4827945232391357,4.089379787445068,4.04296875,0,"['C1', 'F2', 'F1']",6.1,180,0.0,0.1287253320541765,[18900|0|0]
189,18902,1.289570689201355,-0.3136535584926605,0.0014515579678118,-0.3511422574520111,0.4856110513210296,4.113650321960449,4.04296875,0,"['C1', 'F2', 'F1']",6.1,180,0.0,0.1292148555710886,[19000|0|0]
190,19001,1.2890993356704712,-0.3132969439029693,0.0012385826557874,-0.3496439158916473,0.4923387765884399,4.103957653045654,4.04296875,0,"['C1', 'F2', 'F1']",6.1,180,0.0,0.12984311236587,[19100|0|0]
191,19100,1.28961980342865,-0.3135255575180053,0.0015778198139742,-0.34174245595932,0.4848658740520477,4.093316078186035,4.04296875,0,"['C1', 'F2', 'F1']",6.1,180,0.0,0.1305051038475207,[19200|0|0]
192,19200,1.2894572019577026,-0.3136084973812103,0.0016836678842082,-0.343707799911499,0.4870879650115967,4.100089073181152,4.04296875,0,"['C1', 'F2', 'F1']",6.1,180,0.0,0.1307161063907161,[19300|0|0]
193,19300,1.2893261909484863,-0.313657134771347,0.0013969453284516,-0.3469254672527313,0.4932057857513428,4.093047142028809,4.04296875,0,"['C1', 'F2', 'F1']",6.1,180,0.0,0.1310350723830018,[19400|0|0]
194,19400,1.289379000663757,-0.3137713372707367,0.0018389543984085,-0.3462616503238678,0.496134877204895,4.091292381286621,4.04296875,0,"['C1', 'F2', 'F1']",6.1,180,0.0,0.1314946407618291,[19500|0|0]
195,19502,1.289324402809143,-0.3134981989860534,0.0016921877395361,-0.3583954572677612,0.4878948926925659,4.105686187744141,4.04296875,0,"['C1', 'F2', 'F1']",6.1,180,0.0,0.1318094834216525,[19600|0|0]
196,19602,1.2896738052368164,-0.3132920861244201,0.0016201839316636,-0.362145721912384,0.4803974330425262,4.09571647644043,4.04296875,0,"['C1', 'F2', 'F1']",6.1,180,0.0,0.1322214896310024,[19700|0|0]
197,19700,1.289660096168518,-0.3135357797145843,0.0019052987918257,-0.3546101748943329,0.4688648879528045,4.080732345581055,4.04296875,0,"['C1', 'F2', 'F1']",6.1,180,0.0,0.1325968094785005,[19800|0|0]
198,19800,1.2896398305892944,-0.3132567107677459,0.0014763647923246,-0.3583303391933441,0.4755510985851288,4.067394733428955,4.04296875,0,"['C1', 'F2', 'F1']",6.1,180,0.0,0.1331089369496625,[19900|0|0]
199,19900,1.289313554763794,-0.3131080567836761,0.0014478056691586,-0.3615029752254486,0.4878529608249664,4.073225975036621,4.04296875,0,"['C1', 'F2', 'F1']",6.1,180,0.0,0.1334686167305814,[20000|0|0]
200,20000,1.2893441915512085,-0.3136071860790252,0.0017320921178907,-0.3392893970012665,0.4975805282592773,4.061138153076172,4.04296875,0,"['C1', 'F2', 'F1']",6.1,180,0.0,0.1340438449037018,[20100|0|0]
201,20100,1.289561748504639,-0.3137321174144745,0.0016245467122644,-0.3386669456958771,0.478672057390213,4.068446636199951,4.04296875,0,"['C1', 'F2', 'F1']",6.1,180,0.0,0.1343168007258311,[20200|0|0]
202,20200,1.2896407842636108,-0.3133613467216491,0.0018836625386029,-0.3495649695396423,0.4772209823131561,4.073755741119385,4.04296875,0,"['C1', 'F2', 'F1']",6.1,180,0.0,0.1347759941157155,[20300|0|0]
203,20300,1.2894160747528076,-0.3137005269527435,0.0016276800306513,-0.3432064354419708,0.4808539748191833,4.073836803436279,4.04296875,0,"['C1', 'F2', 'F1']",6.1,180,0.0,0.1352566859481694,[20400|0|0]
204,20400,1.2894315719604492,-0.3133875727653503,0.0016391698736697,-0.3491962552070617,0.473069429397583,4.077183246612549,4.04296875,0,"['C1', 'F2', 'F1']",6.1,180,0.0,0.1355702341954045,[20500|0|0]
205,20500,1.2896759510040283,-0.3135571181774139,0.0018444522283971,-0.3482201695442199,0.4613319635391235,4.05791711807251,4.04296875,0,"['C1', 'F2', 'F1']",6.1,180,0.0,0.1359316309425604,[20600|0|0]
206,20600,1.289609432220459,-0.3134644627571106,0.0017364459345117,-0.3488329648971557,0.4648564159870147,4.064917087554932,4.04296875,0,"['C1', 'F2', 'F1']",6.1,180,0.0,0.1360887141529872,[20700|0|0]
207,20700,1.2896090745925903,-0.3137803077697754,0.00159497349523,-0.341991662979126,0.4564547538757324,4.047481060028076,4.04296875,0,"['C1', 'F2', 'F1']",6.1,180,0.0,0.1364347960089104,[20800|0|0]
208,20800,1.2897526025772097,-0.3134793937206268,0.0017295983852818,-0.3483380377292633,0.448844850063324,4.066054344177246,4.04296875,0,"['C1', 'F2', 'F1']",6.1,180,0.0,0.1367943421232897,[20900|0|0]
209,20900,1.289833426475525,-0.3135968744754791,0.0017187278717756,-0.3413209617137909,0.4498893916606903,4.073833465576172,4.04296875,0,"['C1', 'F2', 'F1']",6.1,180,0.0,0.1369373540051858,[21000|0|0]
210,21000,1.2895569801330566,-0.3134644627571106,0.0017977312672883,-0.3346368968486786,0.4561617374420166,4.079771041870117,4.04296875,0,"['C1', 'F2', 'F1']",6.1,180,0.0,0.1372538930705915,[21100|0|0]
211,21100,1.289609432220459,-0.3135892748832702,0.0017079378012567,-0.3348675072193146,0.4551850855350494,4.071134567260742,4.04296875,0,"['C1', 'F2', 'F1']",6.1,180,0.0,0.1374163496951142,[21200|0|0]
212,21200,1.2894484996795654,-0.3138095140457153,0.0015696645714342,-0.3288381993770599,0.4597216546535492,4.055826663970947,4.04296875,0,"['C1', 'F2', 'F1']",6.1,180,0.0,0.1377221667277963,[21300|0|0]
213,21300,1.289451241493225,-0.3134559988975525,0.0017626247135922,-0.3386692404747009,0.4582400321960449,4.077185153961182,4.04296875,0,"['C1', 'F2', 'F1']",6.1,180,0.0,0.1381249248363235,[21400|0|0]
214,21400,1.2892286777496338,-0.313777357339859,0.0017831914592534,-0.332223892211914,0.4712757766246795,4.06596565246582,4.04296875,0,"['C1', 'F2', 'F1']",6.1,180,0.0,0.1385163694166029,[21500|0|0]
215,21500,1.2894256114959717,-0.3136156499385834,0.0016164013650268,-0.3407037854194641,0.4664113521575928,4.084446430206299,4.0390625,0,"['C1', 'F2', 'F1']",6.1,180,0.0,0.138820920101393,[21600|0|0]
216,21600,1.2896971702575684,-0.3135673105716705,0.0016092737205326,-0.3460017740726471,0.4630439579486847,4.0880889892578125,4.04296875,0,"['C1', 'F2', 'F1']",6.1,180,0.0,0.1390968397612752,[21700|0|0]
217,21700,1.289356350898743,-0.3132990002632141,0.0015296976780518,-0.3524518609046936,0.475648432970047,4.11689043045044,4.04296875,0,"['C1', 'F2', 'F1']",6.1,180,0.0,0.1395378393117412,[21800|0|0]
218,21800,1.2894437313079834,-0.3135553002357483,0.001977214589715,-0.3526386618614197,0.4709931313991546,4.109748840332031,4.04296875,0,"['C1', 'F2', 'F1']",6.1,180,0.0,0.1400609037418687,[21900|0|0]
219,21900,1.2894529104232788,-0.3137095868587494,0.0018687804695218,-0.3496128618717193,0.4827343821525574,4.111713409423828,4.04296875,0,"['C1', 'F2', 'F1']",6.1,180,0.0,0.1402497067519526,[22000|0|0]
220,22000,1.2892929315567017,-0.3139184415340423,0.0017338582547381,-0.3405923247337341,0.4911536574363708,4.09827184677124,4.04296875,0,"['C1', 'F2', 'F1']",6.1,180,0.0,0.1405453712868316,[22100|0|0]
221,22100,1.289591908454895,-0.3136620223522186,0.0018762715626507,-0.3432438373565674,0.4877183139324188,4.091109752655029,4.04296875,0,"['C1', 'F2', 'F1']",6.1,180,0.0,0.1409642024374532,[22200|0|0]
222,22200,1.2893013954162598,-0.3135036528110504,0.0014484117273241,-0.3536119759082794,0.4846073389053345,4.109192371368408,4.04296875,0,"['C1', 'F2', 'F1']",6.1,180,0.0,0.1415050746736354,[22300|0|0]
223,22300,1.289549469947815,-0.3134865462779999,0.0019157968927174,-0.353477269411087,0.4757859408855438,4.10791015625,4.04296875,0,"['C1', 'F2', 'F1']",6.1,180,0.0,0.1420344918054975,[22400|0|0]
224,22400,1.289310097694397,-0.3134975135326385,0.0015837581595405,-0.351744145154953,0.4790522158145904,4.117229461669922,4.04296875,0,"['C1', 'F2', 'F1']",6.1,180,0.0,0.1424439659520689,[22500|0|0]
225,22500,1.2893975973129272,-0.3133795261383056,0.0016555461334064,-0.356062650680542,0.4796261489391327,4.118407249450684,4.04296875,0,"['C1', 'F2', 'F1']",6.1,180,0.0,0.1426074612781678,[22600|0|0]
226,22600,1.2895631790161133,-0.3138711452484131,0.0017277849838137,-0.3434131443500519,0.4800089001655578,4.097011089324951,4.04296875,0,"['C1', 'F2', 'F1']",6.1,180,0.0,0.1431312218163539,[22700|0|0]
227,22700,1.289421319961548,-0.3133417665958404,0.0012994995340704,-0.3578181564807892,0.4887241721153259,4.09311580657959,4.0390625,0,"['C1', 'F2', 'F1']",6.1,180,0.0,0.1438267749599911,[22800|0|0]
228,22800,1.289639949798584,-0.3134154081344604,0.0017489783931523,-0.3547311723232269,0.4775383472442627,4.079512119293213,4.04296875,0,"['C1', 'F2', 'F1']",6.1,180,0.0,0.1443320009753687,[22900|0|0]
229,22900,1.2892957925796509,-0.3135285079479217,0.001584219164215,-0.3440143465995788,0.491571843624115,4.084872722625732,4.04296875,0,"['C1', 'F2', 'F1']",6.1,180,0.0,0.1447299725354942,[23000|0|0]
230,23000,1.2895944118499756,-0.3134289085865021,0.0019664755091071,-0.3420703709125519,0.4867986440658569,4.07860803604126,4.04296875,0,"['C1', 'F2', 'F1']",6.1,180,0.0,0.1452251628167142,[23100|0|0]
231,23100,1.2895681858062744,-0.3134534060955047,0.0019572416786104,-0.3406137824058532,0.4873733520507812,4.068100929260254,4.04296875,0,"['C1', 'F2', 'F1']",6.1,180,0.0,0.1452622194887342,[23200|0|0]
232,23200,1.289697766304016,-0.3135659396648407,0.0017527161398902,-0.3399789035320282,0.4857712984085083,4.063716411590576,4.04296875,0,"['C1', 'F2', 'F1']",6.1,180,0.0,0.1455292131321253,[23300|0|0]
233,23300,1.2895318269729614,-0.3136566281318664,0.0017565772868692,-0.3397762775421142,0.4864386916160583,4.06291389465332,4.04296875,0,"['C1', 'F2', 'F1']",6.1,180,0.0,0.1457183563796874,[23400|0|0]
234,23400,1.289438247680664,-0.313472032546997,0.0015372883062809,-0.3424795866012573,0.4914956986904144,4.04813814163208,4.04296875,0,"['C1', 'F2', 'F1']",6.1,180,0.0,0.1460198862636253,[23500|0|0]
235,23500,1.2893518209457395,-0.3133913576602936,0.001602686359547,-0.3514879047870636,0.4879537522792816,4.067206382751465,4.04296875,0,"['C1', 'F2', 'F1']",6.1,180,0.0,0.146154997044932,[23600|0|0]
236,23600,1.2896595001220703,-0.313649833202362,0.0018091588281095,-0.3405756652355194,0.4822479784488678,4.067506313323975,4.04296875,0,"['C1', 'F2', 'F1']",6.1,180,0.0,0.1466067790295986,[23700|0|0]
237,23700,1.2894943952560425,-0.3136386275291443,0.0017402531811967,-0.3454503715038299,0.4881459772586822,4.058395385742188,4.04296875,0,"['C1', 'F2', 'F1']",6.1,180,0.0,0.1467860363085995,[23800|0|0]
238,23800,1.2895050048828125,-0.3133836984634399,0.0020888394210487,-0.3461630642414093,0.4951638281345367,4.052595138549805,4.04296875,0,"['C1', 'F2', 'F1']",6.1,180,0.0,0.1472180244558156,[23900|0|0]
239,23900,1.2894996404647827,-0.3134686648845672,0.001606207108125,-0.3353581130504608,0.5065065026283264,4.078754425048828,4.0390625,0,"['C1', 'F2', 'F1']",6.1,180,0.0,0.1477081081417082,[24000|0|0]
240,24000,1.2894837856292725,-0.3140120208263397,0.0018850164487957,-0.3276309967041015,0.4970448315143585,4.08457088470459,4.0390625,0,"['C1', 'F2', 'F1']",6.1,180,0.0,0.1483190268791142,[24100|0|0]
241,24100,1.2896041870117188,-0.3135893642902374,0.0017769648693501,-0.341617226600647,0.4911487996578216,4.091923713684082,4.04296875,0,"['C1', 'F2', 'F1']",6.1,180,0.0,0.1487715864710196,[24200|0|0]
242,24200,1.2894206047058103,-0.3134322464466095,0.0013415426947176,-0.3477357029914856,0.4891757071018219,4.113250255584717,4.0390625,0,"['C1', 'F2', 'F1']",6.1,180,0.0,0.1492695633279022,[24300|0|0]
243,24300,1.289676070213318,-0.3133944869041443,0.0017887817230075,-0.3522820472717285,0.4835041463375091,4.094753742218018,4.04296875,0,"['C1', 'F2', 'F1']",6.1,180,0.0,0.1497860041831788,[24400|0|0]
244,24400,1.2894245386123655,-0.3136500418186188,0.0017297319136559,-0.3467029631137848,0.4856503307819366,4.114535808563232,4.04296875,0,"['C1', 'F2', 'F1']",6.1,180,0.0,0.150149409384812,[24500|0|0]
245,24500,1.2894108295440674,-0.3134878873825073,0.0018026350298896,-0.3482539355754852,0.4818569719791412,4.124982833862305,4.04296875,0,"['C1', 'F2', 'F1']",6.1,180,0.0,0.1503277261368596,[24600|0|0]
246,24600,1.2894315719604492,-0.3135615885257721,0.0018263584934175,-0.3456975221633911,0.4823978245258331,4.117832183837891,4.04296875,0,"['C1', 'F2', 'F1']",6.1,180,0.0,0.1504078816674089,[24700|0|0]
247,24700,1.289554476737976,-0.3136117458343506,0.0017066423315554,-0.3469050526618957,0.4779996573925018,4.100208759307861,4.04296875,0,"['C1', 'F2', 'F1']",6.1,180,0.0,0.150586636525675,[24800|0|0]
248,24800,1.289362907409668,-0.3135232627391815,0.0015133637934923,-0.3431264162063598,0.4824420213699341,4.099773406982422,4.04296875,0,"['C1', 'F2', 'F1']",6.1,180,0.0,0.15087279148187,[24900|0|0]
249,24900,1.2895493507385254,-0.3132980167865753,0.0017552187200635,-0.3519889712333679,0.4805622100830078,4.104088306427002,4.04296875,0,"['C1', 'F2', 'F1']",6.1,180,0.0,0.1512522524937641,[25000|0|0]
250,25000,1.2894142866134644,-0.3130118548870086,0.0015333604533225,-0.3600265085697174,0.4889865517616272,4.0993971824646,4.04296875,0,"['C1', 'F2', 'F1']",6.1,180,0.0,0.1516387134117926,[25100|0|0]
251,25100,1.2896578311920166,-0.3133208155632019,0.0017397839110344,-0.3576895296573639,0.4792377352714538,4.1028547286987305,4.04296875,0,"['C1', 'F2', 'F1']",6.1,180,0.0,0.1520829895703581,[25200|0|0]
252,25200,1.2895816564559937,-0.3135175406932831,0.0018984222551807,-0.3578292429447174,0.4716347754001617,4.093963146209717,4.04296875,0,"['C1', 'F2', 'F1']",6.1,180,0.0,0.1523469393599908,[25300|0|0]
253,25300,1.289342164993286,-0.3135984539985657,0.0016690799966454,-0.3591172397136688,0.4713632762432098,4.098560333251953,4.04296875,0,"['C1', 'F2', 'F1']",6.1,180,0.0,0.1526882617812168,[25400|0|0]
254,25400,1.289508581161499,-0.3136863112449646,0.0017092134803533,-0.3452892303466797,0.4700776636600494,4.081181526184082,4.04296875,0,"['C1', 'F2', 'F1']",6.1,180,0.0,0.1528806778234326,[25500|0|0]
255,25500,1.2895923852920532,-0.3135147988796234,0.0018873828230425,-0.3557142317295074,0.4620203375816345,4.070825576782227,4.04296875,0,"['C1', 'F2', 'F1']",6.1,180,0.0,0.1531417983673146,[25600|0|0]
256,25600,1.290396213531494,-0.3137063682079315,0.0017718663439154,-0.3607192635536194,0.465419739484787,4.089375019073486,4.04296875,0,"['C1', 'F2', 'F1']",6.1,180,0.0,0.1539761740039561,[25700|0|0]
257,25700,1.290265679359436,-0.3130883872509002,0.0017021138919517,-0.3993075788021087,0.4510490596294403,4.091081142425537,4.04296875,0,"['C1', 'F2', 'F1']",6.1,180,0.0,0.1546116305625682,[25800|0|0]
258,25800,1.2901121377944946,-0.3135130703449249,0.0014323296491056,-0.3637876510620117,0.473630428314209,4.0833611488342285,4.04296875,0,"['C1', 'F2', 'F1']",6.1,180,0.0,0.1551376669493354,[25900|0|0]
259,25900,1.2903211116790771,-0.3133803009986877,0.0011948372703045,-0.3463013768196106,0.4762777090072632,4.113603115081787,4.04296875,0,"['C1', 'F2', 'F1']",6.1,180,0.0,0.155480741888272,[26000|0|0]
260,26000,1.2902358770370483,-0.3133941888809204,0.0014790641143918,-0.3260151445865631,0.485711008310318,4.125480175018311,4.04296875,0,"['C1', 'F2', 'F1']",6.1,180,0.0,0.1557777986444222,[26100|0|0]
261,26100,1.290296196937561,-0.3134462237358093,0.0015136976726353,-0.3131993114948272,0.4953617453575134,4.114022731781006,4.04296875,0,"['C1', 'F2', 'F1']",6.1,180,0.0,0.1558646640568588,[26200|0|0]
262,26200,1.2903101444244385,-0.313444584608078,0.0016082737129181,-0.2996294200420379,0.5087597966194153,4.133611679077148,4.04296875,0,"['C1', 'F2', 'F1']",6.1,180,0.0,0.1559602770608148,[26300|0|0]
263,26300,1.2901779413223269,-0.3135479092597961,0.0014822522643953,-0.2962287664413452,0.5151543617248535,4.1347832679748535,4.04296875,0,"['C1', 'F2', 'F1']",6.1,180,0.0,0.1561701223594242,[26400|0|0]
264,26400,1.2899582386016846,-0.3136491179466247,0.0013511048164218,-0.3020844161510467,0.5133255124092102,4.152649879455566,4.04296875,0,"['C1', 'F2', 'F1']",6.1,180,0.0,0.1564452807444628,[26500|0|0]
265,26500,1.2902330160140991,-0.3138654232025146,0.0012371414341032,-0.3018636107444763,0.5058923959732056,4.140926837921143,4.04296875,0,"['C1', 'F2', 'F1']",6.1,180,0.0,0.156813082651212,[26600|0|0]
266,26600,1.2903413772583008,-0.3138856291770935,0.0014985745074227,-0.2859543859958648,0.5115511417388916,4.134506702423096,4.04296875,0,"['C1', 'F2', 'F1']",6.1,180,0.0,0.1570968038038934,[26700|0|0]
267,26700,1.2892237901687622,-0.3132256865501404,0.0013747215270996,-0.3902395069599151,0.4629670083522796,4.148022174835205,4.04296875,0,"['C1', 'F2', 'F1']",6.1,180,0.0,0.1584005924118771,[26800|0|0]
268,26800,1.289209246635437,-0.3134465515613556,0.0016649009194225,-0.4184078276157379,0.4400251805782318,4.131304264068604,4.04296875,0,"['C1', 'F2', 'F1']",6.1,180,0.0,0.1587655539814561,[26900|0|0]
269,26900,1.289683222770691,-0.3131495416164398,0.0018603077623993,-0.4595144391059875,0.3939258158206939,4.121300220489502,4.0390625,0,"['C1', 'F2', 'F1']",6.1,180,0.0,0.1593580504949068,[27000|0|0]
270,27000,1.2895809412002563,-0.3128473162651062,0.0016824716003611,-0.4831534028053283,0.3863902986049652,4.127767562866211,4.0390625,0,"['C1', 'F2', 'F1']",6.1,180,0.0,0.1597233276269145,[27100|0|0]
271,27100,1.2895008325576782,-0.3132986426353454,0.0020148651674389,-0.4787868559360504,0.3822608590126037,4.133410453796387,4.04296875,0,"['C1', 'F2', 'F1']",6.1,180,0.0,0.1602895416946696,[27200|0|0]
272,27200,1.2898043394088743,-0.3128637075424194,0.0017469190061092,-0.4993013143539428,0.3737864792346954,4.145443916320801,4.0390625,0,"['C1', 'F2', 'F1']",6.1,180,0.0,0.1608837471213976,[27300|0|0]
273,27300,1.2895326614379885,-0.3134068846702575,0.0018641576170921,-0.4872504472732544,0.3847462832927704,4.151906967163086,4.0390625,0,"['C1', 'F2', 'F1']",6.1,180,0.0,0.1615022899283047,[27400|0|0]
274,27400,1.2898222208023071,-0.3130848705768585,0.002005148679018,-0.507091224193573,0.3656211197376251,4.123534202575684,4.0390625,0,"['C1', 'F2', 'F1']",6.1,180,0.0,0.161957719595054,[27500|0|0]
275,27500,1.2898012399673462,-0.3131459951400757,0.0020974897779524,-0.5008473992347717,0.3735363781452179,4.101895809173584,4.04296875,0,"['C1', 'F2', 'F1']",6.1,180,0.0,0.1620704284510351,[27600|0|0]
276,27600,1.2894057035446167,-0.3130646049976349,0.0017099296674132,-0.4965095221996307,0.385221928358078,4.129165172576904,4.0390625,0,"['C1', 'F2', 'F1']",6.1,180,0.0,0.162630139319496,[27700|0|0]
277,27700,1.289497971534729,-0.3130488693714142,0.002169179264456,-0.4939342737197876,0.3744998872280121,4.111388206481934,4.04296875,0,"['C1', 'F2', 'F1']",6.1,180,0.0,0.1630988302457106,[27800|0|0]
278,27800,1.2895450592041016,-0.3133790194988251,0.0021825267467647,-0.4775231480598449,0.3699994683265686,4.119280815124512,4.0390625,0,"['C1', 'F2', 'F1']",6.1,180,0.0,0.1634325884074391,[27900|0|0]
279,27900,1.2897987365722656,-0.3130347728729248,0.0017258323496207,-0.4912840723991394,0.3681049644947052,4.11610746383667,4.0390625,0,"['C1', 'F2', 'F1']",6.1,180,0.0,0.1640582302530225,[28000|0|0]
280,28000,1.2897974252700806,-0.3129478991031647,0.0020930808968842,-0.4915366172790527,0.3747130930423736,4.11224365234375,4.04296875,0,"['C1', 'F2', 'F1']",6.1,180,0.0,0.1644356163508757,[28100|0|0]
281,28100,1.28991436958313,-0.3131900429725647,0.0019971719011664,-0.4830364882946014,0.3859589099884033,4.088318347930908,4.0390625,0,"['C1', 'F2', 'F1']",6.1,180,0.0,0.1647211126928877,[28200|0|0]
282,28200,1.2896443605422974,-0.313448041677475,0.0020899816881865,-0.4698480069637298,0.4017634987831116,4.086994171142578,4.04296875,0,"['C1', 'F2', 'F1']",6.1,180,0.0,0.1651059267654388,[28300|0|0]
283,28300,1.289562106132507,-0.3132131993770599,0.0017829958815127,-0.4751346707344055,0.4037242531776428,4.08748197555542,4.04296875,0,"['C1', 'F2', 'F1']",6.1,180,0.0,0.1655010937927744,[28400|0|0]
284,28400,1.2901862859725952,-0.3136652410030365,0.0017546374583616,-0.485057532787323,0.3933281898498535,4.119034767150879,4.0390625,0,"['C1', 'F2', 'F1']",6.1,180,0.0,0.1662722917599342,[28500|0|0]
285,28500,1.2900941371917725,-0.3140051662921905,0.0016658209497109,-0.4726534485816955,0.3942607641220093,4.097609519958496,4.04296875,0,"['C1', 'F2', 'F1']",6.1,180,0.0,0.1666355120405112,[28600|0|0]
286,28600,1.290325403213501,-0.3138664662837982,0.0015808739699423,-0.4747877120971679,0.3912387788295746,4.100190162658691,4.04296875,0,"['C1', 'F2', 'F1']",6.1,180,0.0,0.1669182445192008,[28700|0|0]
287,28700,1.2904936075210571,-0.3135950267314911,0.0015730992890894,-0.4808153510093689,0.3915518820285797,4.108003616333008,4.04296875,0,"['C1', 'F2', 'F1']",6.1,180,0.0,0.1672376698865396,[28800|0|0]
288,28800,1.2903732061386108,-0.3136984407901764,0.0018891748040914,-0.4765670895576477,0.4019974172115326,4.100147724151611,4.04296875,0,"['C1', 'F2', 'F1']",6.1,180,0.0,0.1675913571659441,[28900|0|0]
289,28900,1.2901057004928589,-0.3137142360210418,0.0016691676573827,-0.4722853600978851,0.4113982915878296,4.106231212615967,4.04296875,0,"['C1', 'F2', 'F1']",6.1,180,0.0,0.1679380730502502,[29000|0|0]
290,29000,1.290286898612976,-0.3134787976741791,0.0017156421672552,-0.4723890423774719,0.4059891104698181,4.112178325653076,4.0390625,0,"['C1', 'F2', 'F1']",6.1,180,0.0,0.1682387786437721,[29100|0|0]
291,29100,1.290229558944702,-0.3136716485023498,0.0014893315965309,-0.4733762145042419,0.4025212824344635,4.115581035614014,4.0390625,0,"['C1', 'F2', 'F1']",6.1,180,0.0,0.1685415917113658,[29200|0|0]
292,29200,1.2904525995254517,-0.3137247860431671,0.0017992412904277,-0.4736432433128357,0.3888096809387207,4.123671531677246,4.04296875,0,"['C1', 'F2', 'F1']",6.1,180,0.0,0.168927097505455,[29300|0|0]
293,29300,1.2905036211013794,-0.3137018382549286,0.0019099356140941,-0.4815820455551147,0.3867934942245483,4.113571166992188,4.04296875,0,"['C1', 'F2', 'F1']",6.1,180,0.0,0.1690511258711104,[29400|0|0]
294,29400,1.2900947332382202,-0.3135921359062195,0.0013328741770237,-0.491349846124649,0.3868990540504455,4.123053550720215,4.04296875,0,"['C1', 'F2', 'F1']",6.1,180,0.0,0.1697668239863132,[29500|0|0]
295,29500,1.2899205684661863,-0.3142832219600677,0.0013521393993869,-0.2683662176132202,0.5753920674324036,4.122746467590332,4.04296875,0,"['C1', 'F2', 'F1']",6.1,180,0.0,0.1704797787187008,[29600|0|0]
296,29600,1.2902086973190308,-0.313573807477951,0.001865204423666,-0.3487869799137115,0.4978061020374298,4.106714248657227,4.0390625,0,"['C1', 'F2', 'F1']",6.1,180,0.0,0.1714014743639204,[29700|0|0]
297,29700,1.2901065349578855,-0.3136403560638428,0.0014634183607995,-0.3303072154521942,0.5088924169540405,4.126065254211426,4.0390625,0,"['C1', 'F2', 'F1']",6.1,180,0.0,0.1718213528018433,[29800|0|0]
