time.ms,stateEstimate.x,stateEstimate.y,stateEstimate.z,stabilizer.roll,stabilizer.pitch,stabilizer.yaw,pm.vbat,drone_id,node_name,wind_speed,global_wind_direction,relative_wind_direction,travel_dist,waiting_time
0,0.7622186541557312,-0.800294041633606,0.012049522250890732,-0.3300016224384308,-0.13474228978157043,-7.944512844085693,4.1171875,1,G1,6.1,90,0,0.08747412970667506,[100|0|0|0]
100,0.7618255615234375,-0.8002577424049377,0.01214560680091381,-0.3285842537879944,-0.13291902840137482,-7.953484058380127,4.1171875,1,G1,6.1,90,0,0.08788041986446705,[200|0|0|0]
200,0.7619990706443787,-0.800426185131073,0.012284188531339169,-0.3258777856826782,-0.13903453946113586,-7.962430953979492,4.1171875,1,G1,6.1,90,0,0.08815913703840031,[300|0|0|0]
300,0.761878252029419,-0.8004583716392517,0.012442217208445072,-0.32201579213142395,-0.1333909034729004,-7.944399356842041,4.1171875,1,G1,6.1,90,0,0.08836064676972206,[400|0|0|0]
400,0.7621408700942993,-0.8006030321121216,0.012289997190237045,-0.3203467130661011,-0.13822640478610992,-7.943382263183594,4.1171875,1,G1,6.1,90,0,0.0886968994044414,[500|0|0|0]
500,0.7620059251785278,-0.8004620671272278,0.012361266650259495,-0.3204985558986664,-0.1379697322845459,-7.938814640045166,4.1171875,1,G1,6.1,90,0,0.08890465068167111,[600|0|0|0]
600,0.7618255019187927,-0.800179123878479,0.012003384530544281,-0.32786574959754944,-0.12976789474487305,-7.943385124206543,4.1171875,1,G1,6.1,90,0,0.08939525138109765,[700|0|0|0]
700,0.7621488571166992,-0.8005298376083374,0.01203752588480711,-0.3162165582180023,-0.14590169489383698,-7.941683292388916,4.1171875,1,G1,6.1,90,0,0.08987350271292563,[800|0|0|0]
800,0.7618915438652039,-0.8005829453468323,0.012402145192027092,-0.314744770526886,-0.1366729736328125,-7.946351051330566,4.1171875,1,G1,6.1,90,0,0.09032292209443997,[900|0|0|0]
900,0.7617712616920471,-0.8005588054656982,0.01222931407392025,-0.3224206566810608,-0.13541750609874725,-7.947572708129883,4.1171875,1,G1,6.1,90,0,0.09053486814990347,[1000|0|0|0]
1000,0.7619595527648926,-0.8003311157226562,0.012319808825850487,-0.326967716217041,-0.13925954699516296,-7.942827224731445,4.1171875,1,G1,6.1,90,0,0.09084387534614126,[1100|0|0|0]
1100,0.761875331401825,-0.8004748821258545,0.012231554836034775,-0.31865668296813965,-0.14098668098449707,-7.9306416511535645,4.1171875,1,G1,6.1,90,0,0.09103242449995512,[1200|0|0|0]
1200,0.7616749405860901,-0.8003915548324585,0.011939845979213715,-0.3139347434043884,-0.13435056805610657,-7.94205379486084,4.1171875,1,G1,6.1,90,0,0.09139600939238526,[1300|0|0|0]
1300,0.7619670629501343,-0.8005347847938538,0.011981588788330555,-0.3065083920955658,-0.140292227268219,-7.943950176239014,4.1171875,1,G1,6.1,90,0,0.09172402274505405,[1400|0|0|0]
1400,0.7620669603347778,-0.8004603981971741,0.012206517159938812,-0.3107444941997528,-0.14140351116657257,-7.951722145080566,4.1171875,1,G1,6.1,90,0,0.09198113288794722,[1500|0|0|0]
1500,0.7618847489356995,-0.8002745509147644,0.012355324812233448,-0.3158394694328308,-0.13991257548332214,-7.925641059875488,4.1171875,1,G1,6.1,90,0,0.09228093936505304,[1600|0|0|0]
1600,0.7620231509208679,-0.8006901144981384,0.012195070274174213,-0.3062365651130676,-0.14337435364723206,-7.9238409996032715,4.1171875,1,G1,6.1,90,0,0.09274734017797451,[1700|0|0|0]
1700,0.7619060277938843,-0.8003626465797424,0.012201916426420212,-0.3161219656467438,-0.13689091801643372,-7.92307186126709,4.1171875,1,G1,6.1,90,0,0.09309519062608923,[1800|0|0|0]
1800,0.7620547413825989,-0.800557017326355,0.012328427284955978,-0.31489643454551697,-0.13083197176456451,-7.923488616943359,4.1171875,1,G1,6.1,90,0,0.09337069147170418,[1900|0|0|0]
1900,0.7619556188583374,-0.8005447387695312,0.0122783612459898,-0.3173462450504303,-0.12935464084148407,-7.919591903686523,4.1171875,1,G1,6.1,90,0,0.09348241723431694,[2000|0|0|0]
2000,0.7618449330329895,-0.8003445863723755,0.012357283383607864,-0.3224569261074066,-0.13006307184696198,-7.926944732666016,4.1171875,1,G1,6.1,90,0,0.09372436978715809,[2100|0|0|0]
2100,0.8133032321929932,-0.8060480952262878,-0.024353858083486557,-0.6600555777549744,-0.624643862247467,-5.951016902923584,4.1171875,1,G1,6.1,90,0,0.15719242847421822,[2200|0|0|0]
2200,0.7589400410652161,-0.797802746295929,0.018500428646802902,0.4824441373348236,1.195573091506958,-6.867608070373535,4.1171875,1,G1,6.1,90,0,0.22690492534343426,[2300|0|0|0]
2300,0.7600522637367249,-0.7996362447738647,0.015081310644745827,0.9105338454246521,-0.5588515400886536,-7.373256206512451,4.1171875,1,G1,6.1,90,0,0.23094090401676762,[2400|0|0|0]
2400,0.7611972093582153,-0.8005586266517639,0.013520946726202965,0.9393945932388306,-1.2754273414611816,-7.676446437835693,4.1171875,1,G1,6.1,90,0,0.23308483133902866,[2500|0|0|0]
2500,0.7617960572242737,-0.8008171319961548,0.012709726579487324,0.7914430499076843,-1.3766942024230957,-7.827680587768555,4.1171875,1,G1,6.1,90,0,0.23412575492229432,[2600|0|0|0]
2600,0.7622549533843994,-0.8010140657424927,0.012083876878023148,0.6214512586593628,-1.2801604270935059,-7.938731670379639,4.1171875,1,G1,6.1,90,0,0.23492641492194935,[2700|0|0|0]
2700,0.7624692320823669,-0.8013795018196106,0.01245286874473095,0.48573699593544006,-1.1129779815673828,-7.996194362640381,4.1171875,1,G1,6.1,90,0,0.23548821015560525,[2800|0|0|0]
2800,0.7625789642333984,-0.800715982913971,0.01216346025466919,0.32935479283332825,-0.951115608215332,-8.03591537475586,4.1171875,1,G1,6.1,90,0,0.2362203684426109,[2900|0|0|0]
2900,0.7629193067550659,-0.8010604977607727,0.011829344555735588,0.23889954388141632,-0.8367542028427124,-8.080129623413086,4.1171875,1,G1,6.1,90,0,0.23680871936850098,[3000|0|0|0]
3000,0.7625417709350586,-0.8009677529335022,0.012116200290620327,0.14477995038032532,-0.6923563480377197,-8.079017639160156,4.1171875,1,G1,6.1,90,0,0.23729185611002485,[3100|0|0|0]
3100,0.7623289227485657,-0.800909161567688,0.01230576727539301,0.06531964242458344,-0.581985354423523,-8.080443382263184,4.1171875,1,G1,6.1,90,0,0.23758284226151166,[3200|0|0|0]
3200,0.7624620199203491,-0.8010520935058594,0.012125439010560513,0.0031365035101771355,-0.4891381561756134,-8.075879096984863,4.1171875,1,G1,6.1,90,0,0.23784866678856603,[3300|0|0|0]
3300,0.7620438933372498,-0.8009437322616577,0.012083025649189949,-0.05500779300928116,-0.4031328558921814,-8.044535636901855,4.1171875,1,G1,6.1,90,0,0.2382826839448652,[3400|0|0|0]
3400,0.7619748711585999,-0.8008402585983276,0.012050192803144455,-0.10383091866970062,-0.3414384722709656,-8.031981468200684,4.1171875,1,G1,6.1,90,0,0.23841132630152884,[3500|0|0|0]
3500,0.7622523307800293,-0.8009519577026367,0.01223038136959076,-0.1414617896080017,-0.309865802526474,-8.026732444763184,4.1171875,1,G1,6.1,90,0,0.2387605088482078,[3600|0|0|0]
3600,0.7621559500694275,-0.80076003074646,0.012226564809679985,-0.18228642642498016,-0.27103281021118164,-8.03438663482666,4.1171875,1,G1,6.1,90,0,0.23897531053351995,[3700|0|0|0]
3700,0.762176513671875,-0.8008635640144348,0.012400927022099495,-0.20708534121513367,-0.24208837747573853,-8.037858009338379,4.1171875,1,G1,6.1,90,0,0.23917913442918234,[3800|0|0|0]
3800,0.7618594169616699,-0.8005984425544739,0.011892551556229591,-0.23901328444480896,-0.2110094428062439,-8.009482383728027,4.1171875,1,G1,6.1,90,0,0.2398343331215293,[3900|0|0|0]
3900,0.7619608640670776,-0.8005003929138184,0.01215590164065361,-0.25990238785743713,-0.19961023330688477,-7.996100425720215,4.1171875,1,G1,6.1,90,0,0.24013309475593778,[4000|0|0|0]
4000,0.7617915868759155,-0.8005854487419128,0.01192511897534132,-0.2712940573692322,-0.1800094097852707,-7.992355823516846,4.1171875,1,G1,6.1,90,0,0.24043167456093004,[4100|0|0|0]
4100,0.7620307207107544,-0.8007186055183411,0.012272357940673828,-0.2815506160259247,-0.17654262483119965,-7.986678123474121,4.1171875,1,G1,6.1,90,0,0.2408738177697648,[4200|0|0|0]
4200,0.7619472742080688,-0.8008154034614563,0.012364997528493404,-0.28476110100746155,-0.15894287824630737,-7.973447322845459,4.1171875,1,G1,6.1,90,0,0.24103166343436527,[4300|0|0|0]
4300,0.7618259191513062,-0.8004968166351318,0.012319094501435757,-0.2972377836704254,-0.15261834859848022,-7.95562219619751,4.1171875,1,G1,6.1,90,0,0.24137565718954468,[4400|0|0|0]
4400,0.7621757984161377,-0.8005734086036682,0.012186477892100811,-0.30552783608436584,-0.15792818367481232,-7.957788944244385,4.1171875,1,G1,6.1,90,0,0.2417575851862598,[4500|0|0|0]
4500,0.7620146870613098,-0.800706684589386,0.012414494529366493,-0.30766069889068604,-0.14885744452476501,-7.956415176391602,4.1171875,1,G1,6.1,90,0,0.24206695704001102,[4600|0|0|0]
4600,0.7619915008544922,-0.8007237911224365,0.01224216166883707,-0.3107070326805115,-0.14632095396518707,-7.948399066925049,4.1171875,1,G1,6.1,90,0,0.24224168210540764,[4700|0|0|0]
4700,0.7619073390960693,-0.8005481958389282,0.012449650093913078,-0.3204469382762909,-0.13994601368904114,-7.937857627868652,4.1171875,1,G1,6.1,90,0,0.24252623148901567,[4800|0|0|0]
4800,0.7620949745178223,-0.8007124662399292,0.01211739145219326,-0.3200705349445343,-0.14120560884475708,-7.93609619140625,4.1171875,1,G1,6.1,90,0,0.2429416681522255,[4900|0|0|0]
4900,0.7619996070861816,-0.8009186387062073,0.012130922637879848,-0.316039115190506,-0.13450641930103302,-7.927940368652344,4.1171875,1,G1,6.1,90,0,0.24316923160679368,[5000|0|0|0]
5000,0.7621892094612122,-0.800841212272644,0.01219594944268465,-0.3231036067008972,-0.1434909850358963,-7.931711196899414,4.1171875,1,G1,6.1,90,0,0.24338410924307688,[5100|0|0|0]
5100,0.7620060443878174,-0.8006977438926697,0.012208092026412487,-0.3297862708568573,-0.13806231319904327,-7.937578201293945,4.1171875,1,G1,6.1,90,0,0.243617090063111,[5200|0|0|0]
5200,0.7618026733398438,-0.8004528284072876,0.011875356547534466,-0.3314381539821625,-0.1309598982334137,-7.919158458709717,4.1171875,1,G1,6.1,90,0,0.2440775857493427,[5300|0|0|0]
5300,0.7616308927536011,-0.8005118370056152,0.012050310149788857,-0.3293960988521576,-0.13218723237514496,-7.955144882202148,4.1171875,1,G1,6.1,90,0,0.24432977485979013,[5400|0|0|0]
5400,0.7617707252502441,-0.8005021810531616,0.012301543727517128,-0.3325267434120178,-0.1396835446357727,-7.936063766479492,4.1171875,1,G1,6.1,90,0,0.2446174633634071,[5500|0|0|0]
5500,0.7619307041168213,-0.8005553483963013,0.012160524725914001,-0.33394360542297363,-0.15019527077674866,-7.952397346496582,4.1171875,1,G1,6.1,90,0,0.2448372504488807,[5600|0|0|0]
5600,0.7618663311004639,-0.8005948066711426,0.012002636678516865,-0.33395323157310486,-0.14426971971988678,-7.957454204559326,4.1171875,1,G1,6.1,90,0,0.2450122632375542,[5700|0|0|0]
5700,0.7620716094970703,-0.8008267879486084,0.012333553284406662,-0.33124324679374695,-0.1511438637971878,-7.9499921798706055,4.1171875,1,G1,6.1,90,0,0.2454655405624466,[5800|0|0|0]
5800,0.7619364857673645,-0.8007705211639404,0.012366139329969883,-0.328100323677063,-0.14643540978431702,-7.950129508972168,4.1171875,1,G1,6.1,90,0,0.24561549463458845,[5900|0|0|0]
5900,0.7619526982307434,-0.8007044196128845,0.011930044740438461,-0.32892224192619324,-0.1438779979944229,-7.967320442199707,4.1171875,1,G1,6.1,90,0,0.24605686834250431,[6000|0|0|0]
6000,0.7619364857673645,-0.8006432056427002,0.012505674734711647,-0.3307914733886719,-0.13896961510181427,-7.94840669631958,4.1171875,1,G1,6.1,90,0,0.24663597099698062,[6100|0|0|0]
6100,0.7619738578796387,-0.8004661202430725,0.012188932858407497,-0.3363897204399109,-0.13699544966220856,-7.942041873931885,4.1171875,1,G1,6.1,90,0,0.24700077413531937,[6200|0|0|0]
6200,0.7619444131851196,-0.8005557656288147,0.01225618552416563,-0.3314714729785919,-0.13283395767211914,-7.940446376800537,4.1171875,1,G1,6.1,90,0,0.2471166456429119,[6300|0|0|0]
6300,0.7620290517807007,-0.8007556796073914,0.012343504466116428,-0.321907103061676,-0.1362299919128418,-7.959028720855713,3.37890625,1,E2,6.1,90,0,0.24735064113072242,[6300|0|0|0]
6400,0.7619446516036987,-0.8004356622695923,0.012069441378116608,-0.3055099546909332,0.09883469343185425,-7.3869123458862305,3.23046875,1,E2,6.1,90,0,0.24778034458960302,[6300|0|0|0]
6500,0.7603172659873962,-0.7971831560134888,0.030459603294730186,-5.237006187438965,6.168744087219238,-3.5326554775238037,3.568359375,1,E2,6.1,90,0,0.2665266838644963,[6300|0|0|0]
6600,0.7473785281181335,-0.7824313640594482,0.07904791086912155,-4.040935039520264,7.6054229736328125,0.24116171896457672,3.60546875,1,E2,6.1,90,0,0.3189275420296871,[6300|0|0|0]
6700,0.7246717214584351,-0.760637104511261,0.1449889987707138,0.039529889822006226,0.3024957478046417,0.2333429902791977,3.630859375,1,E2,6.1,90,0,0.39199474323228,[6300|0|0|0]
6800,0.7013983130455017,-0.7381521463394165,0.22345305979251862,3.3805572986602783,-3.166146755218506,-0.06881875544786453,3.65234375,1,E2,6.1,90,0,0.47687014458731514,[6300|0|0|0]
6900,0.7090676426887512,-0.7001504302024841,0.3190712332725525,4.598624229431152,-3.83530330657959,-0.38034483790397644,3.673828125,1,E2,6.1,90,0,0.5800485538897785,[6300|0|0|0]
7000,0.6968150734901428,-0.6932875514030457,0.4056898355484009,5.1887993812561035,-3.8606514930725098,-0.4388304650783539,3.6640625,1,E2,6.1,90,0,0.6677982366105957,[6300|0|0|0]
7100,0.6912485957145691,-0.6945573687553406,0.49246373772621155,3.4192898273468018,-2.9833717346191406,-0.2026272416114807,3.642578125,1,E2,6.1,90,0,0.7547597695438323,[6300|0|0|0]
7200,0.6908104419708252,-0.7002003192901611,0.5801293253898621,1.6844285726547241,-2.7391936779022217,-0.22011084854602814,3.642578125,1,E2,6.1,90,0,0.8426078778322569,[6300|0|0|0]
7300,0.6870238780975342,-0.7062541246414185,0.6640530824661255,-0.24725669622421265,-1.787036657333374,-0.3098931908607483,3.642578125,1,E2,6.1,90,0,0.9268348546686191,[6300|0|0|0]
7400,0.696811854839325,-0.7108100652694702,0.7646650671958923,-0.9678558707237244,-0.2486584633588791,-0.3791598379611969,3.642578125,1,E2,6.1,90,0,1.0280244418550832,[6300|0|0|0]
7500,0.7021899223327637,-0.7164900302886963,0.857846200466156,-1.1866787672042847,-0.036070287227630615,-0.7285329103469849,3.68359375,1,E2,6.1,90,0,1.1215333142154869,[6300|0|0|0]
7600,0.7062320709228516,-0.72034752368927,0.9479077458381653,-1.13131582736969,0.7759054899215698,-0.5721077919006348,3.716796875,1,E2,6.1,90,0,1.211768014721192,[6300|0|0|0]
7700,0.7097198367118835,-0.7229377627372742,1.0300742387771606,-0.4368462860584259,-0.06159907951951027,-0.43066778779029846,3.736328125,1,E2,6.1,90,0,1.2940492787514615,[6300|0|0|0]
7800,0.710395336151123,-0.7284952998161316,1.096894383430481,-0.6808980107307434,-0.1977338194847107,2.2230799198150635,3.732421875,1,E2,6.1,90,0,1.3611035422204307,[6300|0|0|0]
7900,0.7115252614021301,-0.7327451705932617,1.1455256938934326,-0.2863018214702606,0.014128513634204865,3.727466344833374,3.705078125,1,E2,6.1,90,0,1.4099332717920674,[6300|0|0|0]
8000,0.7125077247619629,-0.7362634539604187,1.1771434545516968,-0.4764455258846283,0.33335641026496887,6.722049713134766,3.6953125,1,E2,6.1,90,0,1.441761346524107,[6300|0|0|0]
8100,0.7106595635414124,-0.7448158860206604,1.2015708684921265,-0.6397811770439148,0.19386456906795502,7.897728443145752,3.68359375,1,E2,6.1,90,0,1.4677085688390157,[6300|0|0|0]
8200,0.7124069929122925,-0.746321439743042,1.2175414562225342,-0.7491638660430908,0.6287885904312134,7.834839344024658,3.673828125,1,E2,6.1,90,0,1.483844859424892,[6300|0|0|0]
8300,0.7069607973098755,-0.7563647627830505,1.2270783185958862,-0.4570373296737671,0.7615156173706055,7.025330066680908,3.6640625,1,E2,6.1,90,0,1.4987271014654588,[6300|0|0|0]
8400,0.7055140733718872,-0.7593554854393005,1.232682704925537,-0.7706134915351868,-0.5264301300048828,5.931590557098389,3.658203125,1,E2,6.1,90,0,1.5052422053242882,[6300|0|0|0]
8500,0.6991497278213501,-0.77159583568573,1.2359579801559448,-0.033602677285671234,0.0054926457814872265,4.915698051452637,3.658203125,1,E2,6.1,90,0,1.519421715057591,[6300|0|0|0]
8600,0.6969435811042786,-0.77754807472229,1.237689733505249,-0.6498285531997681,-0.5217593908309937,4.088605880737305,3.65234375,1,E2,6.1,90,0,1.5260016240652006,[6300|0|0|0]
8700,0.6899720430374146,-0.7923113107681274,1.239177942276001,-0.9643965363502502,-0.7537084817886353,3.251265048980713,3.6484375,1,E2,6.1,90,0,1.542395837889236,[6300|0|0|0]
8800,0.6900620460510254,-0.7985163927078247,1.2411110401153564,-1.3727390766143799,-0.9493598341941833,2.2771427631378174,3.658203125,1,E2,6.1,90,0,1.5488956847856896,[6300|0|0|0]
8900,0.6898003816604614,-0.8089288473129272,1.2427600622177124,-1.5486762523651123,-0.3881164491176605,-5.98129415512085,3.65234375,1,E2,6.1,90,0,1.5594411555220138,[6300|0|0|0]
9000,0.6873673796653748,-0.8216056227684021,1.2418038845062256,-1.5387686491012573,0.24191772937774658,-9.923465728759766,3.642578125,1,E2,6.1,90,0,1.572384663951824,[6300|0|0|0]
9100,0.6872434616088867,-0.832172691822052,1.2411000728607178,-1.9537733793258667,0.4764544367790222,-10.91445255279541,3.6484375,1,E2,6.1,90,0,1.582975870441251,[6300|0|0|0]
9200,0.6872684359550476,-0.839866578578949,1.2393040657043457,-2.782287359237671,0.3788970112800598,-10.707542419433594,3.63671875,1,E2,6.1,90,0,1.590876639951347,[6300|0|0|0]
9300,0.6875101923942566,-0.8443940877914429,1.2368359565734863,-2.9473085403442383,0.5481693148612976,-10.006606101989746,3.583984375,1,E2,6.1,90,-1.0609116902642342,1.596038843795341,[6300|0|0|0]
9400,0.6898695826530457,-0.8379484415054321,1.2406822443008423,-14.129951477050781,6.218246936798096,-8.328638076782227,3.494140625,1,E2,6.1,90,-1.0609116902642342,1.6039069444377605,[6300|0|0|0]
9500,0.6826371550559998,-0.8041525483131409,1.2603704929351807,-20.15015411376953,8.34546184539795,-6.404577732086182,3.46875,1,E2,6.1,90,-1.0609116902642342,1.6436825341869874,[6300|0|0|0]
9600,0.6712024807929993,-0.731031060218811,1.2988187074661255,-12.586676597595215,4.607430934906006,-7.038023948669434,3.505859375,1,E2,6.1,90,-1.0609116902642342,1.7270837871586766,[6300|0|0|0]
9700,0.6586659550666809,-0.6354703307151794,1.3564940690994263,-5.838104724884033,0.9938019514083862,-5.36059045791626,3.578125,1,E2,6.1,90,-1.0609116902642342,1.8394023735105574,[6300|0|0|0]
9800,0.6446938514709473,-0.534875750541687,1.4250882863998413,-1.756399393081665,-3.220872640609741,-0.8171758651733398,3.63671875,1,E2,6.1,90,-1.0609116902642342,1.9619570791983754,[6300|0|0|0]
9900,0.6355221271514893,-0.41958075761795044,1.4921908378601074,0.10229137539863586,-5.217452526092529,-1.7144232988357544,3.65234375,1,E2,6.1,90,-1.0609116902642342,2.095672479705401,[6300|0|0|0]
10000,0.6357482671737671,-0.30394914746284485,1.555734634399414,1.4774255752563477,-4.631704330444336,-2.095433473587036,3.6796875,1,E2,6.1,90,-1.0609116902642342,2.227613885204209,[6300|0|0|0]
10100,0.6349589228630066,-0.18688064813613892,1.6054133176803589,1.3825490474700928,-3.2376627922058105,0.38415470719337463,3.673828125,1,E2,6.1,90,-1.0609116902642342,2.3547894652955783,[6300|0|0|0]
10200,0.6391286253929138,-0.074126698076725,1.64518141746521,3.096958875656128,-2.175828218460083,-0.5660498142242432,3.66796875,1,E2,6.1,90,-1.0609116902642342,2.474423663724316,[6300|0|0|0]
10300,0.645625650882721,0.0314657986164093,1.6727677583694458,5.90614128112793,-1.0435240268707275,-1.0768154859542847,3.65234375,1,E2,6.1,90,-1.0609116902642342,2.58375340763049,[6300|0|0|0]
10400,0.6557846665382385,0.12345625460147858,1.6932452917099,8.536548614501953,-0.03313073143362999,-1.2098089456558228,3.6484375,1,E2,6.1,90,-1.0609116902642342,2.6785414815804307,[6300|0|0|0]
10500,0.6680693030357361,0.1970335692167282,1.7071120738983154,10.125391006469727,0.7376701235771179,-0.9682987928390503,3.642578125,1,E2,6.1,90,-1.0609116902642342,2.75441520014047,[6300|0|0|0]
10600,0.6806201934814453,0.24936893582344055,1.7166059017181396,9.83508014678955,1.4579235315322876,-0.7603793740272522,3.630859375,1,E2,6.1,90,-1.0609116902642342,2.809065435414544,[6300|0|0|0]
10700,0.6937425136566162,0.2795267403125763,1.723491907119751,8.55564022064209,1.4701107740402222,-0.5068999528884888,3.630859375,1,E2,6.1,90,-1.0609116902642342,2.8426676009515397,[6300|0|0|0]
10800,0.7041732668876648,0.2946106493473053,1.7279285192489624,5.807375907897949,1.990209698677063,-0.12656205892562866,3.630859375,1,E2,6.1,90,-1.0609116902642342,2.8615357871897578,[6300|0|0|0]
10900,0.7135220766067505,0.2971050441265106,1.7302618026733398,3.0454366207122803,2.0775134563446045,0.22237975895404816,3.630859375,1,E2,6.1,90,-1.0609116902642342,2.871489000742007,[6300|0|0|0]
11000,0.7208060622215271,0.2935822606086731,1.7294095754623413,0.846113920211792,1.644687294960022,0.37537989020347595,3.62109375,1,E2,6.1,90,-1.0609116902642342,2.879624892909986,[6300|0|0|0]
11100,0.7317062020301819,0.28192031383514404,1.7295360565185547,-0.8001300096511841,1.250584363937378,0.5482401847839355,3.630859375,1,E2,6.1,90,-1.0609116902642342,2.895588290037616,[6300|0|0|0]
11200,0.7429622411727905,0.2688089609146118,1.7270506620407104,-2.0617661476135254,2.2787697315216064,0.5326492786407471,3.62109375,1,E2,6.1,90,-1.0609116902642342,2.913046330543274,[6300|0|0|0]
11300,0.8126912713050842,0.17002685368061066,1.7562389373779297,-2.255791187286377,1.8419382572174072,4.650726318359375,3.658203125,1,E2,6.1,90,-1.0609116902642342,3.037432816022772,[6300|0|0|0]
11400,0.8022425174713135,0.18905803561210632,1.7405154705047607,-7.663744926452637,5.5593342781066895,7.348818778991699,3.642578125,1,E2,6.1,90,-1.0609116902642342,3.0642393404692583,[6300|0|0|0]
11500,0.7810764908790588,0.2286817878484726,1.7202316522598267,-2.8681142330169678,3.094573497772217,1.3925292491912842,3.59375,1,E2,6.1,90,-1.0609116902642342,3.113529052434196,[6300|0|0|0]
11600,0.7584385871887207,0.2528345286846161,1.6879074573516846,-0.1444467008113861,1.33243989944458,-2.0217666625976562,3.578125,1,E2,6.1,90,-1.0609116902642342,3.1597965696557897,[6300|0|0|0]
11700,0.7301035523414612,0.28691354393959045,1.6637794971466064,2.8318488597869873,-0.7337228655815125,-1.7802932262420654,3.5625,1,E2,6.1,90,-1.0609116902642342,3.21025855479512,[6300|0|0|0]
11800,0.705172061920166,0.31785818934440613,1.6484023332595825,3.8215584754943848,-3.144012212753296,-2.2989208698272705,3.57421875,1,E2,6.1,90,-1.0609116902642342,3.252868500383742,[6300|0|0|0]
11900,0.6855031251907349,0.34100836515426636,1.6400831937789917,3.853483200073242,-3.5365025997161865,-1.3759722709655762,3.583984375,1,E2,6.1,90,-1.0609116902642342,3.284364623856184,[6300|0|0|0]
12000,0.673164427280426,0.35628679394721985,1.6376326084136963,4.085151672363281,-4.06831169128418,-1.0838491916656494,3.599609375,1,E2,6.1,90,-1.0609116902642342,3.304155511181815,[6300|0|0|0]
12100,0.6672278046607971,0.3640523850917816,1.63783597946167,3.7662980556488037,-3.3739283084869385,-1.1068878173828125,3.60546875,1,E2,6.1,90,-1.0609116902642342,3.313932486876555,[6300|0|0|0]
12200,0.6674392819404602,0.36539146304130554,1.6384104490280151,2.7981021404266357,-2.615499973297119,-1.483196496963501,3.60546875,1,E2,6.1,90,-1.0609116902642342,3.3154048549274755,[6300|0|0|0]
12300,0.6721653938293457,0.36117810010910034,1.6388802528381348,1.9293299913406372,-0.8546227216720581,-3.221708297729492,3.611328125,1,E2,6.1,90,0,3.3217538136141225,[6300|0|0|0]
12400,0.6807799339294434,0.3493034243583679,1.6344940662384033,1.378385305404663,-0.009266018867492676,-3.439889430999756,3.884765625,1,E2,6.1,90,0,3.337065797751029,[6300|0|0|0]
12500,0.7163689136505127,0.29872363805770874,1.6133497953414917,0.3030989170074463,1.0961761474609375,-9.013243675231934,3.81640625,1,E2,6.1,90,0,3.402426110262285,[6300|0|0|0]
12600,0.719747006893158,0.2895040512084961,1.5335522890090942,-2.8156685829162598,3.488100290298462,-6.327507495880127,3.705078125,1,E2,6.1,90,0,3.482825452998996,[6300|0|0|0]
12701,0.718454122543335,0.2801007032394409,1.4217642545700073,-2.996755361557007,3.3420145511627197,-10.538006782531738,3.611328125,1,E2,6.1,90,0,3.595015733980566,[6300|0|0|0]
12801,0.7125900983810425,0.2745695412158966,1.2946292161941528,-2.5823211669921875,2.442647933959961,-8.92000675201416,3.58984375,1,E2,6.1,90,0,3.7224060731571953,[6300|0|0|0]
12901,0.7022725939750671,0.2714962363243103,1.16404390335083,-3.0499067306518555,1.7364857196807861,-4.5259599685668945,3.58984375,1,E2,6.1,90,0,3.853434390823692,[6300|0|0|0]
13001,0.6900667548179626,0.272520512342453,1.0367025136947632,-2.8082027435302734,-0.5135058760643005,-2.0232269763946533,3.60546875,1,E2,6.1,90,0,3.9813635163988663,[6300|0|0|0]
13101,0.6773456931114197,0.2793736159801483,0.9113278388977051,-3.0172462463378906,-1.9338513612747192,-0.12610872089862823,3.615234375,1,E2,6.1,90,0,4.107568110296548,[6300|0|0|0]
13201,0.6684935092926025,0.29069653153419495,0.7869973182678223,-1.570591926574707,-2.770153760910034,2.421621561050415,3.611328125,1,E2,6.1,90,0,4.232726601559042,[6300|0|0|0]
13301,0.6656451225280762,0.3046499192714691,0.662085235118866,-0.6642341017723083,-2.757845401763916,3.825021505355835,3.60546875,1,E2,6.1,90,0,4.358447876024101,[6300|0|0|0]
13401,0.6687608957290649,0.3199111819267273,0.5384781360626221,2.27291202545166,-1.7198708057403564,3.30948805809021,3.60546875,1,E2,6.1,90,0,4.483032502353247,[6300|0|0|0]
13501,0.6758183240890503,0.3310980200767517,0.41277971863746643,3.1772406101226807,0.4932473599910736,2.6961278915405273,3.552734375,1,E2,6.1,90,0,4.609424926121603,[6300|0|0|0]
13602,0.6848864555358887,0.33638235926628113,0.2877206802368164,-0.9869469404220581,-4.038652420043945,0.3947172462940216,3.525390625,1,E2,6.1,90,0,4.734923604737365,[6300|0|0|0]
13700,0.6995812058448792,0.34448012709617615,0.17310190200805664,-0.15802636742591858,-0.6972305178642273,-2.617689371109009,3.45703125,1,E2,6.1,90,0,4.850763899337837,[6300|0|0|0]
13800,0.7176288962364197,0.3561810255050659,0.07390552014112473,-1.8209151029586792,-0.4899522662162781,-4.314461708068848,3.494140625,1,E2,6.1,90,0,4.952265388625109,[6300|0|0|0]
13900,0.738568902015686,0.37079131603240967,-0.0016322173178195953,3.1841702461242676,2.96771502494812,-4.3773627281188965,3.462890625,1,E2,6.1,90,0,5.032001793182535,[6300|0|0|0]
14000,0.7712026238441467,0.3782973885536194,-0.012854542583227158,-1.4222749471664429,-16.721593856811523,5.44614839553833,3.59375,1,E2,6.1,90,0,5.067318099748109,[6300|0|0|0]
14100,0.8182799220085144,0.38526153564453125,0.01714632660150528,7.738433361053467,14.861069679260254,9.87295150756836,3.66796875,1,E2,6.1,90,0,5.123574863776979,[6300|0|0|0]
14200,0.8524433970451355,0.38455188274383545,0.036119330674409866,3.9999101161956787,19.51784324645996,9.302947044372559,3.66796875,1,E2,6.1,90,0,5.162659662834512,[6300|0|0|0]
14300,0.8626793026924133,0.3721548020839691,0.03651497885584831,5.760061264038086,21.42034339904785,7.777822971343994,3.615234375,1,E2,6.1,90,0,5.178741264458439,[6300|0|0|0]
14400,0.8477675318717957,0.3504337668418884,0.021655019372701645,2.4720051288604736,15.245519638061523,7.017660617828369,3.552734375,1,E2,6.1,90,0,5.208989945038509,[6300|0|0|0]
14500,0.8116769194602966,0.3204498291015625,0.0030495058745145798,-0.28584378957748413,9.771183013916016,5.2207841873168945,3.541015625,1,E2,6.1,90,0,5.259465027595985,[6300|0|0|0]
14600,0.7618335485458374,0.2899075150489807,-0.00618624035269022,-3.058406114578247,1.337673544883728,3.202019214630127,3.578125,1,E2,6.1,90,0,5.318646896273615,[6300|0|0|0]
14700,0.7104750275611877,0.2644416391849518,-0.000827519572339952,-7.399295330047607,-4.903735160827637,1.3672294616699219,3.615234375,1,E2,6.1,90,0,5.376222276425678,[6300|0|0|0]
14800,0.6700994968414307,0.252009779214859,0.010291759856045246,-3.5926272869110107,-8.348090171813965,1.3858164548873901,3.642578125,1,E2,6.1,90,0,5.419907205156587,[6300|0|0|0]
14900,0.6459519267082214,0.24866612255573273,0.019000666216015816,-4.690306186676025,-9.780826568603516,2.181074857711792,3.63671875,1,E2,6.1,90,0,5.445794078918769,[6300|0|0|0]
15000,0.6397067904472351,0.2515271008014679,0.021535778418183327,-2.2366721630096436,-7.770050048828125,2.5057225227355957,3.615234375,1,E2,6.1,90,0,5.453116217767386,[6300|0|0|0]
15100,0.6477029919624329,0.258811891078949,0.018029531463980675,-1.1279443502426147,-4.761876106262207,2.946291446685791,3.599609375,1,E2,6.1,90,0,5.464487285253,[6300|0|0|0]
15200,0.6649125218391418,0.266237735748291,0.013544418849050999,0.3096274137496948,-2.255966901779175,3.6978237628936768,3.58984375,1,E2,6.1,90,0,5.483759735092061,[6300|0|0|0]
15300,0.6877046227455139,0.27231574058532715,0.011330224573612213,0.34213823080062866,1.126296877861023,4.3190507888793945,3.59375,1,F2,6.1,90,0,5.507452026302804,[6300|0|100|0]
15400,0.7097746133804321,0.2765057384967804,0.011804579757153988,0.6173193454742432,4.05546236038208,4.405121326446533,3.60546875,1,F2,6.1,90,0,5.5299212403959475,[6300|0|200|0]
15500,0.7245811820030212,0.27755844593048096,0.012509424239397049,0.061001021414995193,5.606566905975342,3.9379372596740723,3.59375,1,F2,6.1,90,0,5.544781909057234,[6300|0|300|0]
15600,0.7303385138511658,0.2760262191295624,0.015022831968963146,-0.6449597477912903,6.273515701293945,3.627281427383423,3.59375,1,F2,6.1,90,0,5.551248114079823,[6300|0|400|0]
15700,0.7266356348991394,0.27413803339004517,0.019477177411317825,-0.9069544076919556,2.4207141399383545,3.4246068000793457,3.611328125,1,F2,6.1,90,0,5.557340548013819,[6300|0|500|0]
15800,0.7176442742347717,0.27194252610206604,0.022275777533650398,-0.09376876801252365,1.623748540878296,3.3438680171966553,3.60546875,1,F2,6.1,90,0,5.567009931732186,[6300|0|600|0]
15900,0.7069745659828186,0.26939547061920166,0.022609511390328407,-0.860895574092865,0.2397337555885315,2.6199982166290283,3.58984375,1,F2,6.1,90,0,5.577984518016037,[6300|0|700|0]
16000,0.6966429352760315,0.2651004195213318,0.022898733615875244,0.6017350554466248,0.4342934787273407,1.9372059106826782,3.599609375,1,F2,6.1,90,0,5.5891770917366115,[6300|0|800|0]
16100,0.687063455581665,0.2599973976612091,0.025070365518331528,0.08784444630146027,-0.13883687555789948,1.055804967880249,3.599609375,1,F2,6.1,90,0,5.600246113754813,[6300|0|900|0]
16200,0.6782882809638977,0.25541847944259644,0.025039542466402054,-1.1333929300308228,-0.28238001465797424,0.20725977420806885,3.58984375,1,F2,6.1,90,0,5.6101441505139675,[6300|0|1000|0]
16300,0.6721106767654419,0.25265270471572876,0.02643999084830284,-0.3941851854324341,0.2861134707927704,-0.01537361741065979,3.58984375,1,F2,6.1,90,0,5.61705599246405,[6300|0|1100|0]
16400,0.6656240224838257,0.2515302002429962,0.02962600253522396,-1.3060212135314941,0.24958889186382294,-0.15665070712566376,3.59375,1,F2,6.1,90,0,5.624369498499442,[6300|0|1200|0]
16500,0.660771369934082,0.2529361844062805,0.031726643443107605,-0.9456977248191833,0.3156610429286957,-0.3870980441570282,3.59375,1,F2,6.1,90,0,5.629841035802597,[6300|0|1300|0]
16600,0.6560918688774109,0.25834912061691284,0.029655179008841515,-1.1282178163528442,-0.7422053217887878,-0.48456892371177673,3.578125,1,F2,6.1,90,0,5.637290101076991,[6300|0|1400|0]
16700,0.6527445316314697,0.26739302277565,0.027906516566872597,-1.315321445465088,-0.465399831533432,0.06956011801958084,3.568359375,1,F2,6.1,90,0,5.647090848662295,[6300|0|1500|0]
16800,0.6507057547569275,0.278801828622818,0.027762413024902344,0.11825692653656006,-0.4261222779750824,1.6113102436065674,3.57421875,1,F2,6.1,90,0,5.658681285575256,[6300|0|1600|0]
16900,0.6485394239425659,0.2911490201950073,0.03133861720561981,0.5282972455024719,-0.11842797696590424,2.6120777130126953,3.583984375,1,F2,6.1,90,0,5.67171721152088,[6300|0|1700|0]
17000,0.6471022367477417,0.30312472581863403,0.037897009402513504,-0.9945389032363892,-0.8436573147773743,2.8691744804382324,3.58984375,1,F2,6.1,90,0,5.685446579329523,[6300|0|1800|0]
17100,0.6477893590927124,0.3152692914009094,0.04292726889252663,0.232505202293396,0.11176996678113937,2.4090497493743896,3.583984375,1,F2,6.1,90,0,5.698609638276288,[6300|0|1900|0]
17200,0.6490431427955627,0.32727155089378357,0.044295117259025574,-0.3063688278198242,0.38770586252212524,1.3901519775390625,3.568359375,1,F2,6.1,90,0,5.710754481447839,[6300|0|2000|0]
17300,0.649569571018219,0.33716312050819397,0.03531327098608017,4.2480974197387695,1.3352268934249878,-0.6794397234916687,3.990234375,1,F2,6.1,90,0,5.724125862774431,[6300|0|2100|0]
17400,0.6480826735496521,0.34266048669815063,-0.021832909435033798,6.235415458679199,10.282221794128418,-2.6972620487213135,3.99609375,1,F2,6.1,90,0,5.781555104766913,[6300|0|2200|0]
17500,0.6479977965354919,0.3429184556007385,-0.012653196230530739,23.441356658935547,4.707552433013916,2.5703084468841553,4.0,1,F2,6.1,90,0,5.790738834215191,[6300|0|2300|0]
17600,0.6426022052764893,0.3489741086959839,-0.019358236342668533,1.6999015808105469,14.374007225036621,4.509737014770508,4.0,1,F2,6.1,90,0,5.801262184553822,[6300|0|2400|0]
17700,0.6384593844413757,0.3521597683429718,-0.019405169412493706,-1.0439097881317139,17.109399795532227,4.488747596740723,4.0078125,1,F2,6.1,90,0,5.806488425513761,[6300|0|2500|0]
17800,0.6372623443603516,0.352647989988327,-0.021184327080845833,-1.0063799619674683,16.97275733947754,4.435798645019531,4.0078125,1,F2,6.1,90,0,5.808687667960474,[6300|0|2600|0]
17900,0.6383492946624756,0.35221344232559204,-0.01988600566983223,-0.9818889498710632,16.803171157836914,4.557414531707764,4.0078125,1,F2,6.1,90,0,5.810435790129195,[6300|0|2700|0]
18000,0.6391504406929016,0.3523249626159668,-0.019007373601198196,-0.9917740225791931,16.73989486694336,4.684915065765381,4.01171875,1,F2,6.1,90,0,5.811630053939776,[6300|0|2800|0]
18100,0.6371598839759827,0.35052403807640076,-0.020830681547522545,-0.8150262832641602,16.74429702758789,4.729501247406006,4.01171875,1,F2,6.1,90,0,5.814875065050329,[6300|0|2900|0]
18200,0.635263204574585,0.3500983417034149,-0.023490414023399353,-0.6394015550613403,16.72518539428711,4.718691349029541,4.01171875,1,F2,6.1,90,0,5.818169421891489,[6300|0|3000|0]
18300,0.63520747423172,0.3506457805633545,-0.024587076157331467,-0.6334543228149414,16.622840881347656,4.722143650054932,4.015625,1,F2,6.1,90,0,5.819396395001418,[6300|0|3100|0]
18400,0.6353226900100708,0.35110870003700256,-0.025059232488274574,-0.6165381073951721,16.582538604736328,4.773566246032715,4.015625,1,F2,6.1,90,0,5.820067588502216,[6300|0|3200|0]
18500,0.635230541229248,0.3513434827327728,-0.02496955543756485,-0.5700218081474304,16.586036682128906,4.7911057472229,4.015625,1,F2,6.1,90,0,5.820335275419088,[6300|0|3300|0]
18600,0.635372519493103,0.35143107175827026,-0.02484188973903656,-0.524897575378418,16.580568313598633,4.810034275054932,4.0234375,1,F2,6.1,90,0,5.820545342540208,[6300|0|3400|0]
18700,0.6353364586830139,0.3515089750289917,-0.024589845910668373,-0.4913839101791382,16.590381622314453,4.835814952850342,4.0234375,1,F2,6.1,90,0,5.820811604428266,[6300|0|3500|0]
18800,0.6355279088020325,0.3506978154182434,-0.024027954787015915,-0.4416476786136627,16.593236923217773,4.863381385803223,4.0234375,1,F2,6.1,90,0,5.8218167684432505,[6300|0|3600|0]
18900,0.6361585259437561,0.3503190279006958,-0.023440632969141006,-0.4245908856391907,16.56360626220703,4.878744602203369,4.0234375,1,F2,6.1,90,0,5.822758099883625,[6300|0|3700|0]
19000,0.6361024975776672,0.3501795828342438,-0.023321935907006264,-0.39730703830718994,16.56633758544922,4.875607967376709,4.02734375,1,F2,6.1,90,0,5.822949602094901,[6300|0|3800|0]
19100,0.6358622908592224,0.3504163920879364,-0.023487146943807602,-0.37329748272895813,16.567848205566406,4.883720874786377,4.02734375,1,F2,6.1,90,0,5.8233251983900125,[6300|0|3900|0]
19200,0.6413328647613525,0.3462509512901306,-0.019383937120437622,-0.3622047007083893,16.427135467529297,4.924259185791016,4.02734375,1,F2,6.1,90,0,5.831332345616915,[6300|0|4000|0]
19300,0.6495934724807739,0.34260040521621704,-0.01568327099084854,-0.3669297397136688,16.249258041381836,4.875052452087402,4.02734375,1,F2,6.1,90,0,5.841092420223936,[6300|0|4100|0]
19400,0.6378833055496216,0.34749603271484375,-0.020654484629631042,0.25623032450675964,15.883020401000977,4.993104934692383,4.02734375,1,F2,6.1,90,0,5.854723566294725,[6300|0|4200|0]
19500,0.6411210894584656,0.34378087520599365,-0.017752699553966522,2.5123448371887207,13.632329940795898,5.355330467224121,4.02734375,1,F2,6.1,90,0,5.860442481977027,[6300|0|4300|0]
19600,0.6428054571151733,0.3429473340511322,-0.017324399203062057,3.4623312950134277,12.604141235351562,5.595386505126953,4.03125,1,F2,6.1,90,0,5.862370000187161,[6300|0|4400|0]
19700,0.6514027118682861,0.33712509274482727,-0.01225479505956173,5.569544315338135,10.304977416992188,5.71527624130249,4.03125,1,F2,6.1,90,0,5.873924746800157,[6300|0|4500|0]
19800,0.6636688113212585,0.33004915714263916,-0.007223241962492466,11.285228729248047,3.966189384460449,6.590492248535156,4.03125,1,F2,6.1,90,0,5.8889528067882315,[6300|0|4600|0]
19900,0.6779879927635193,0.32400158047676086,-0.002487146994099021,15.9244384765625,-1.4476063251495361,8.308019638061523,4.03125,1,F2,6.1,90,0,5.905202198661644,[6300|0|4700|0]
20000,0.6938536167144775,0.3180864453315735,0.007299661170691252,15.848705291748047,-6.38418436050415,12.52552318572998,4.03125,1,F2,6.1,90,0,5.924759510879673,[6300|0|4800|0]
20100,0.7279955744743347,0.31191354990005493,0.04018133133649826,9.571228981018066,-8.057414054870605,14.483977317810059,4.03125,1,F2,6.1,90,0,5.97256099778727,[6300|0|4900|0]
20200,0.7821172475814819,0.32759153842926025,0.04690149426460266,3.4344606399536133,-5.058639049530029,7.5176286697387695,4.03125,1,F2,6.1,90,0,6.02930705856702,[6300|0|5000|0]
20300,0.8227888941764832,0.34914886951446533,0.03383097052574158,-0.2453237622976303,-9.126191139221191,5.091461181640625,4.0390625,1,F2,6.1,90,0,6.077158285835231,[6300|0|5100|0]
20400,0.8495796322822571,0.3482670783996582,0.031018778681755066,0.7123138308525085,-12.576089859008789,0.24345514178276062,4.03125,1,F2,6.1,90,0,6.10411064429956,[6300|0|5200|0]
20500,0.8782367706298828,0.3493671417236328,0.025411764159798622,-4.208137512207031,-3.140338897705078,-2.378340005874634,4.0390625,1,F2,6.1,90,0,6.1333318750991195,[6300|0|5300|0]
20600,0.9098135828971863,0.34869399666786194,0.02948634885251522,-2.2063119411468506,-4.048817157745361,-0.6439288854598999,4.0390625,1,F2,6.1,90,0,6.165177603818192,[6300|0|5400|0]
20700,0.9495912194252014,0.35064953565597534,0.03406234458088875,-3.8939857482910156,-3.6493420600891113,-5.620131015777588,4.0390625,1,F2,6.1,90,0,6.20526531062957,[6300|0|5500|0]
20800,0.9871960282325745,0.3547905683517456,0.038712646812200546,-3.5897727012634277,-3.730290174484253,-4.388969898223877,4.0390625,1,F2,6.1,90,0,6.243382171833885,[6300|0|5600|0]
20900,0.8378372192382812,0.19484342634677887,0.06645417213439941,-2.9341585636138916,-2.7127296924591064,-3.9083569049835205,4.0390625,1,F2,6.1,90,0,6.4639739538361916,[6300|0|5700|0]
21000,0.8086557388305664,0.22897706925868988,0.15192651748657227,-2.7696034908294678,-2.3410260677337646,-4.725014686584473,4.0390625,1,F2,6.1,90,0,6.560525422997592,[6300|0|5800|0]
21100,0.7092069983482361,0.3855816721916199,-0.019191347062587738,-3.3062376976013184,-1.9340665340423584,-5.149815559387207,4.0390625,1,F2,6.1,90,0,6.812906835172037,[6300|0|5900|0]
21200,0.7111601233482361,0.3881221413612366,-0.016478924080729485,-3.204754114151001,-2.0462231636047363,-5.290798187255859,4.0390625,1,F2,6.1,90,0,6.817105158563573,[6300|0|6000|0]
21300,0.7114806175231934,0.38803717494010925,-0.016311513260006905,-3.052272319793701,-1.9943479299545288,-5.335023403167725,4.10546875,1,F2,6.1,90,0,6.817476591184374,[6300|0|6100|0]
21400,0.7114013433456421,0.38816606998443604,-0.01657227985560894,-2.9271223545074463,-1.9470008611679077,-5.345096588134766,4.1171875,1,F2,6.1,90,0,6.81777808338172,[6300|0|6200|0]
21500,0.7112671136856079,0.3878355622291565,-0.016934361308813095,-2.80802583694458,-1.9145911931991577,-5.3805365562438965,4.12109375,1,F2,6.1,90,0,6.818286370659435,[6300|0|6300|0]
21600,0.7115861177444458,0.38802653551101685,-0.016765661537647247,-2.711054563522339,-1.9658015966415405,-5.380672454833984,4.12109375,1,F2,6.1,90,0,6.818694652420883,[6300|0|6400|0]
21700,0.7114298343658447,0.3879017233848572,-0.01614750549197197,-2.568983793258667,-1.9577293395996094,-5.382120132446289,4.12109375,1,F2,6.1,90,0,6.819344359630377,[6300|0|6500|0]
21800,0.7111461758613586,0.3875216543674469,-0.016258420422673225,-2.505521059036255,-1.9955425262451172,-5.367493152618408,4.12109375,1,F2,6.1,90,0,6.819831408628954,[6300|0|6600|0]
21900,0.7114728689193726,0.3878006637096405,-0.016562024131417274,-2.4535176753997803,-2.021204710006714,-5.360982894897461,4.12109375,1,F2,6.1,90,0,6.82035747875655,[6300|0|6700|0]
22000,0.7113051414489746,0.3878924548625946,-0.015977434813976288,-2.4173145294189453,-2.0323235988616943,-5.336925506591797,4.12890625,1,F2,6.1,90,0,6.8209725419973255,[6300|0|6800|0]
22100,0.7112043499946594,0.38765260577201843,-0.016291137784719467,-2.3780019283294678,-2.0528199672698975,-5.344718933105469,4.12890625,1,F2,6.1,90,0,6.821380090837793,[6300|0|6900|0]
22200,0.7113528251647949,0.38750800490379333,-0.016323765739798546,-2.342292070388794,-2.0778019428253174,-5.335464000701904,4.12890625,1,F2,6.1,90,0,6.821589897583849,[6300|0|7000|0]
22300,0.7115461826324463,0.3877490758895874,-0.016254456713795662,-2.337009906768799,-2.1090331077575684,-5.338476181030273,4.12890625,1,F2,6.1,90,0,6.82190660892178,[6300|0|7100|0]
22400,0.7114813327789307,0.3876899182796478,-0.016063174232840538,-2.323167085647583,-2.124404191970825,-5.310113906860352,4.12890625,1,F2,6.1,90,0,6.8221170705901075,[6300|0|7200|0]
22500,0.7113544344902039,0.387692928314209,-0.016048545017838478,-2.3065788745880127,-2.1330323219299316,-5.295695781707764,4.12890625,1,F2,6.1,90,0,6.822244844804726,[6300|0|7300|0]
22600,0.7113620638847351,0.38756006956100464,-0.016122976318001747,-2.286968231201172,-2.1475703716278076,-5.28325891494751,4.1328125,1,F2,6.1,90,0,6.822397323243884,[6300|0|7400|0]
22700,0.7114408016204834,0.387326180934906,-0.01648653671145439,-2.271364212036133,-2.155674934387207,-5.296388626098633,4.1328125,1,F2,6.1,90,0,6.8228367315735,[6300|0|7500|0]
22800,0.7114688158035278,0.3876189589500427,-0.01614694856107235,-2.2695538997650146,-2.166436195373535,-5.267675399780273,4.1328125,1,F2,6.1,90,0,6.82328597969256,[6300|0|7600|0]
22900,0.7113991975784302,0.38735365867614746,-0.016240349039435387,-2.2656633853912354,-2.179327964782715,-5.251598358154297,4.1328125,1,F2,6.1,90,0,6.823575728863315,[6300|0|7700|0]
23000,0.7112406492233276,0.38775956630706787,-0.01613043062388897,-2.270057201385498,-2.1827659606933594,-5.255836486816406,4.1328125,1,F2,6.1,90,0,6.824025151430418,[6300|0|7800|0]
23100,0.7113823294639587,0.38738134503364563,-0.016536114737391472,-2.2640621662139893,-2.1899733543395996,-5.259271621704102,4.1328125,1,F2,6.1,90,0,6.82459760598949,[6300|0|7900|0]
23200,0.7112733721733093,0.38768377900123596,-0.01605428010225296,-2.2751975059509277,-2.1893258094787598,-5.258994102478027,4.1328125,1,F2,6.1,90,0,6.825176831862149,[6300|0|8000|0]
23300,0.7111935615539551,0.3874039053916931,-0.01591796986758709,-2.263223648071289,-2.192687511444092,-5.286184310913086,4.1328125,1,F2,6.1,90,0,6.82549820306863,[6300|0|8100|0]
23400,0.711179256439209,0.38751813769340515,-0.016200680285692215,-2.2654829025268555,-2.1917154788970947,-5.292105197906494,4.1328125,1,F2,6.1,90,0,6.82580345515391,[6300|0|8200|0]
23500,0.7115132212638855,0.38757482171058655,-0.01623234525322914,-2.276221990585327,-2.2107110023498535,-5.294402122497559,4.13671875,1,F2,6.1,90,0,6.82614367310184,[6300|0|8300|0]
23600,0.7115899920463562,0.38748064637184143,-0.015907732769846916,-2.2798306941986084,-2.2087368965148926,-5.2917256355285645,4.13671875,1,F2,6.1,90,0,6.8264902795239335,[6300|0|8400|0]
23700,0.7113405466079712,0.38752612471580505,-0.015995196998119354,-2.279428005218506,-2.1966187953948975,-5.276035785675049,4.13671875,1,F2,6.1,90,0,6.826758498273703,[6300|0|8500|0]
23800,0.7114293575286865,0.3874567151069641,-0.0164031945168972,-2.2708709239959717,-2.200021505355835,-5.269131660461426,4.13671875,1,F2,6.1,90,0,6.827181779561698,[6300|0|8600|0]
23900,0.711270272731781,0.3878505229949951,-0.016066351905465126,-2.2851319313049316,-2.20027232170105,-5.26664924621582,4.13671875,1,F2,6.1,90,0,6.827723864029432,[6300|0|8700|0]
24000,0.7111557722091675,0.38765615224838257,-0.015895726159214973,-2.2757644653320312,-2.1964969635009766,-5.281296253204346,4.13671875,1,F2,6.1,90,0,6.828006712932737,[6300|0|8800|0]
24100,0.7108168005943298,0.3876427412033081,-0.015947438776493073,-2.4079039096832275,-2.2684569358825684,-5.291804790496826,4.13671875,1,F2,6.1,90,0,6.8283498685921415,[6300|0|8900|0]
24200,0.7109994292259216,0.38751932978630066,-0.016107112169265747,-2.374171018600464,-2.25658917427063,-5.291431903839111,4.14453125,1,F2,6.1,90,0,6.828622043512523,[6300|0|9000|0]
24300,0.7108755111694336,0.3876592516899109,-0.016138652339577675,-2.3562703132629395,-2.2357070446014404,-5.302320957183838,4.14453125,1,F2,6.1,90,0,6.82881159193952,[6300|0|9100|0]
24400,0.7107559442520142,0.387555330991745,-0.01640383154153824,-2.329359769821167,-2.224595546722412,-5.299139022827148,4.14453125,1,F2,6.1,90,0,6.829120486368736,[6300|0|9200|0]
24500,0.710910975933075,0.3874815106391907,-0.015851056203246117,-2.3160083293914795,-2.2199981212615967,-5.299572944641113,4.14453125,1,F2,6.1,90,0,6.829699316949483,[6300|0|9300|0]
24600,0.7110458612442017,0.3872709572315216,-0.016164876520633698,-2.297780990600586,-2.223539113998413,-5.293379306793213,4.14453125,1,F2,6.1,90,0,6.830100577433763,[6300|0|9400|0]
24700,0.7118114829063416,0.3871710002422333,-0.01601509563624859,-2.307253122329712,-2.2340452671051025,-5.291424751281738,4.14453125,1,F2,6.1,90,0,6.830887090143497,[6300|0|9500|0]
24800,0.71135014295578,0.3870326280593872,-0.015858078375458717,-2.28892183303833,-2.2071170806884766,-5.295879364013672,4.14453125,1,F2,6.1,90,0,6.831393682515286,[6300|0|9600|0]
24900,0.7109405994415283,0.3873879313468933,-0.016356777399778366,-2.2842421531677246,-2.2091076374053955,-5.279666423797607,4.14453125,1,F2,6.1,90,0,6.832130341889106,[6300|0|9700|0]
25000,0.7109507322311401,0.3874951899051666,-0.016126509755849838,-2.284619092941284,-2.2076966762542725,-5.285425662994385,4.14453125,1,F2,6.1,90,0,6.832384566710059,[6300|0|9800|0]
25100,0.7109364867210388,0.3878471851348877,-0.015869880095124245,-2.2963602542877197,-2.2099363803863525,-5.2905426025390625,4.14453125,1,F2,6.1,90,0,6.832820413425164,[6300|0|9900|0]
25200,0.7109890580177307,0.38706648349761963,-0.01619005762040615,-2.271235942840576,-2.224538803100586,-5.283230781555176,4.14453125,1,F2,6.1,90,0,6.83366585557893,[6300|0|10000|0]
25300,0.7110086679458618,0.3877112865447998,-0.015933718532323837,-2.295830726623535,-2.224903106689453,-5.276612281799316,4.1484375,1,F2,6.1,90,0,6.834360020722835,[6300|0|10100|0]
25400,0.7110409736633301,0.38739094138145447,-0.016056647524237633,-2.2892754077911377,-2.226242780685425,-5.271412372589111,4.1484375,1,F2,6.1,90,0,6.834704659983676,[6300|0|10200|0]
25500,0.7115845084190369,0.38714683055877686,-0.01609995774924755,-2.2929904460906982,-2.2252650260925293,-5.267907619476318,4.1484375,1,F2,6.1,90,0,6.835302067633443,[6300|0|10300|0]
25600,0.7114971280097961,0.38714829087257385,-0.01591547578573227,-2.2938687801361084,-2.226616621017456,-5.235909461975098,4.1484375,1,F2,6.1,90,0,6.8355062025478945,[6300|0|10400|0]
25700,0.7114707827568054,0.3872222602367401,-0.015728913247585297,-2.300572633743286,-2.2298450469970703,-5.231475830078125,4.1484375,1,F2,6.1,90,0,6.835708615788149,[6300|0|10500|0]
25800,0.7180054187774658,0.39768218994140625,-0.010791582055389881,-2.5025696754455566,-2.3800528049468994,-5.173579216003418,4.1484375,1,F2,6.1,90,0,6.848993525898891,[6300|0|10600|0]
25900,0.7180080413818359,0.39786386489868164,-0.010806535370647907,-2.512775182723999,-2.375619649887085,-5.190893650054932,4.1484375,1,F2,6.1,90,0,6.8491758340714775,[6300|0|10700|0]
26000,0.717865526676178,0.397757887840271,-0.010580142959952354,-2.505781412124634,-2.374066114425659,-5.184072494506836,4.1484375,1,F2,6.1,90,0,6.849463575451641,[6300|0|10800|0]
26100,0.7178084254264832,0.3977987766265869,-0.010525421239435673,-2.509300470352173,-2.3702971935272217,-5.178268909454346,4.1484375,1,F2,6.1,90,0,6.849552608660386,[6300|0|10900|0]
26200,0.717536985874176,0.3974440395832062,-0.01053160522133112,-2.4971601963043213,-2.357539653778076,-5.175498962402344,4.1484375,1,F2,6.1,90,0,6.849999325620144,[6300|0|11000|0]
26300,0.7178098559379578,0.3980177044868469,-0.01106967218220234,-2.5074269771575928,-2.3619401454925537,-5.176089763641357,4.1484375,1,F2,6.1,90,0,6.850831831204364,[6300|0|11100|0]
26400,0.7176518440246582,0.3977624475955963,-0.01034784410148859,-2.5001657009124756,-2.3647403717041016,-5.183192729949951,4.15234375,1,F2,6.1,90,0,6.851613598192272,[6300|0|11200|0]
26500,0.717992901802063,0.39801082015037537,-0.010639119893312454,-2.51182222366333,-2.37270188331604,-5.221992492675781,3.18359375,1,E2,6.1,90,0,6.852126288079434,[6300|0|11200|0]
26600,0.7196509838104248,0.39807114005088806,-0.010047400370240211,0.4288844168186188,-2.47729754447937,-5.688416004180908,3.416015625,1,E2,6.1,90,0,6.853887823327686,[6300|0|11200|0]
26700,0.7238062620162964,0.39604663848876953,0.009629710577428341,-0.12243687361478806,0.14774581789970398,-6.484297275543213,3.509765625,1,E2,6.1,90,0,6.874100533160613,[6300|0|11200|0]
26801,0.7252744436264038,0.39402323961257935,0.05907588452100754,3.8168203830718994,6.062861442565918,-5.240505218505859,3.57421875,1,E2,6.1,90,0,6.923609863775267,[6300|0|11200|0]
26901,0.7222704887390137,0.3885692059993744,0.12390746176242828,2.0934534072875977,2.431976795196533,-3.2954680919647217,3.59375,1,E2,6.1,90,0,6.98873976194216,[6300|0|11200|0]
27000,0.715950608253479,0.37881848216056824,0.1985684335231781,2.1426219940185547,1.419155240058899,-2.065396785736084,3.60546875,1,E2,6.1,90,0,7.06429952775037,[6300|0|11200|0]
27100,0.7095863223075867,0.3685935437679291,0.2780308127403259,-0.23703621327877045,0.17547892034053802,0.18522502481937408,3.60546875,1,E2,6.1,90,0,7.144669442591585,[6300|0|11200|0]
27200,0.705963134765625,0.36146554350852966,0.36005112528800964,-1.2235275506973267,-2.090672492980957,1.709375262260437,3.60546875,1,E2,6.1,90,0,7.2270785898149486,[6300|0|11200|0]
27301,0.7073753476142883,0.35651344060897827,0.44625768065452576,1.2296439409255981,-1.6846028566360474,2.294215440750122,3.611328125,1,E2,6.1,90,0,7.313438811308515,[6300|0|11200|0]
27401,0.7148425579071045,0.3513173758983612,0.5353372097015381,0.6040283441543579,-0.39780744910240173,1.8838740587234497,3.611328125,1,E2,6.1,90,0,7.402981654759411,[6300|0|11200|0]
27500,0.7261627912521362,0.34484419226646423,0.6227982044219971,-1.095625638961792,0.34728309512138367,0.8554635643959045,3.60546875,1,E2,6.1,90,0,7.491409452350498,[6300|0|11200|0]
27601,0.7372348308563232,0.3392344117164612,0.7101287245750427,1.2626588344573975,2.5872530937194824,0.20274782180786133,3.599609375,1,E2,6.1,90,0,7.579617612114872,[6300|0|11200|0]
27701,0.7453543543815613,0.333824098110199,0.7985639572143555,-0.005098382011055946,3.383500337600708,-0.4077443480491638,3.58984375,1,E2,6.1,90,0,7.668589453320752,[6300|0|11200|0]
27802,0.7476640343666077,0.32609128952026367,0.889293909072876,0.5361848473548889,3.6901662349700928,-0.9642971754074097,3.59375,1,E2,6.1,90,0,7.759677625519844,[6300|0|11200|0]
27902,0.7441191077232361,0.3180139660835266,0.9818949699401855,-1.3271851539611816,2.1448419094085693,-1.1913280487060547,3.58984375,1,E2,6.1,90,0,7.852697871340632,[6300|0|11200|0]
28001,0.735698938369751,0.31083372235298157,1.0767978429794312,-1.681113600730896,0.4928104877471924,-1.5255155563354492,3.59375,1,E2,6.1,90,0,7.948243726630511,[6300|0|11200|0]
28102,0.7238186597824097,0.30793970823287964,1.1735918521881104,-2.198751449584961,0.5547069311141968,-1.4160150289535522,3.58984375,1,E2,6.1,90,0,8.045807021755932,[6300|0|11200|0]
28202,0.7103733420372009,0.30928781628608704,1.2698415517807007,-1.1909058094024658,-0.4936691224575043,-1.728480577468872,3.583984375,1,E2,6.1,90,0,8.143000635930202,[6300|0|11200|0]
28302,0.6977225542068481,0.310945063829422,1.3675026893615723,-0.025902412831783295,-1.663722038269043,-2.2604904174804688,3.583984375,1,E2,6.1,90,0,8.241491684740428,[6300|0|11200|0]
28400,0.6846129298210144,0.31194666028022766,1.4669936895370483,0.456054151058197,-2.098682165145874,4.688748836517334,3.599609375,1,E2,6.1,90,0,8.341847673913493,[6300|0|11200|0]
28500,0.6783474087715149,0.30822962522506714,1.5698000192642212,0.9377679824829102,-2.185947895050049,8.167487144470215,3.658203125,1,E2,6.1,90,0,8.444911802181263,[6300|0|11200|0]
28600,0.6697068810462952,0.30873554944992065,1.6614447832107544,0.5386973023414612,-2.368455410003662,9.133646965026855,3.68359375,1,E2,6.1,90,0,8.536964381925165,[6300|0|11200|0]
28700,0.6622000336647034,0.3092402517795563,1.7402135133743286,0.3464528024196625,-1.841477632522583,5.360144138336182,3.68359375,1,E2,6.1,90,0,8.616091623338182,[6300|0|11200|0]
28800,0.6566606163978577,0.3090410530567169,1.799765706062317,0.007641803007572889,-3.0629541873931885,2.706435203552246,3.673828125,1,E2,6.1,90,0,8.675901225223955,[6300|0|11200|0]
28900,0.6524795889854431,0.31307661533355713,1.8448680639266968,0.12244942039251328,-2.0722644329071045,-1.7685261964797974,3.66796875,1,E2,6.1,90,0,8.7213763770988,[6300|0|11200|0]
29000,0.6505509614944458,0.30850985646247864,1.8618866205215454,-0.3711978793144226,-1.9350311756134033,-11.995222091674805,3.6484375,1,E2,6.1,90,0,8.739102238408131,[6300|0|11200|0]
29100,0.6504333019256592,0.3046899139881134,1.8764718770980835,-0.21436838805675507,-1.499051809310913,-10.585540771484375,3.626953125,1,E2,6.1,90,0,8.754179887882934,[6300|0|11200|0]
29200,0.6508148908615112,0.3022860586643219,1.8884828090667725,-0.9281156063079834,-0.9850178360939026,-2.928391218185425,3.626953125,1,E2,6.1,90,0,8.76643495284768,[6300|0|11200|0]
29300,0.6518921256065369,0.2996947169303894,1.891890287399292,-1.5651476383209229,-0.32110530138015747,2.4972727298736572,3.630859375,1,E2,6.1,90,0,8.770849292579113,[6300|0|11200|0]
29400,0.6524289846420288,0.3007325530052185,1.8900030851364136,-1.2624940872192383,0.05899208039045334,-3.2861671447753906,3.615234375,1,E2,6.1,90,0,8.773068944291255,[6300|0|11200|0]
29500,0.6541780233383179,0.30320513248443604,1.883160948753357,-2.2084600925445557,-0.20792244374752045,-6.858253479003906,3.60546875,1,E2,6.1,90,-6.499346279654588,8.780551431573336,[6300|0|11200|0]
29600,0.6519296765327454,0.3192783296108246,1.877647876739502,-14.58012580871582,5.941815376281738,-9.346620559692383,3.615234375,1,E2,6.1,90,-6.499346279654588,8.797691930173198,[6300|0|11200|0]
29700,0.64482182264328,0.3543540835380554,1.8638629913330078,-15.44913101196289,6.302419662475586,-8.71612548828125,3.599609375,1,E2,6.1,90,-6.499346279654588,8.836043633735724,[6300|0|11200|0]
29800,0.6295766830444336,0.4131275713443756,1.8451056480407715,-13.917129516601562,4.838901996612549,-8.523092269897461,3.578125,1,E2,6.1,90,-6.499346279654588,8.899593417981547,[6300|0|11200|0]
29900,0.6084033846855164,0.4959922730922699,1.826556921005249,-10.452546119689941,2.8972249031066895,-11.665316581726074,3.5625,1,E2,6.1,90,-6.499346279654588,8.987108688842133,[6300|0|11200|0]
30000,0.6300194263458252,0.5752041935920715,1.8025583028793335,-6.818865776062012,-1.2815839052200317,-10.645166397094727,3.53125,1,E2,6.1,90,-6.499346279654588,9.072652334300347,[6300|0|11200|0]
30100,0.6287790536880493,0.6768636703491211,1.7744792699813843,-2.6132702827453613,1.2081395387649536,-12.494341850280762,3.552734375,1,E2,6.1,90,-6.499346279654588,9.178125647642307,[6300|0|11200|0]
30200,0.6393144130706787,0.7812835574150085,1.7697064876556396,3.0300471782684326,0.7677394151687622,-14.094752311706543,3.5625,1,E2,6.1,90,-6.499346279654588,9.28318413641548,[6300|0|11200|0]
30300,0.6419036984443665,0.8875648379325867,1.769031286239624,6.976463317871094,0.8051709532737732,-8.850997924804688,3.578125,1,E2,6.1,90,-6.499346279654588,9.389499097188434,[6300|0|11200|0]
30400,0.647152304649353,0.9838430881500244,1.770560383796692,9.863065719604492,1.091181993484497,-5.422874927520752,3.583984375,1,E2,6.1,90,-6.499346279654588,9.485932428933042,[6300|0|11200|0]
30500,0.6555111408233643,1.063986897468567,1.7734991312026978,11.880383491516113,1.7033491134643555,-2.888603925704956,3.58984375,1,E2,6.1,90,-6.499346279654588,9.566564535135145,[6300|0|11200|0]
30600,0.6650434136390686,1.1216347217559814,1.7753008604049683,12.109564781188965,2.560701608657837,-1.0959352254867554,3.58984375,1,E2,6.1,90,-6.499346279654588,9.62502291433115,[6300|0|11200|0]
30700,0.6895615458488464,1.1299607753753662,1.783661961555481,11.183135986328125,2.4057271480560303,-5.484579563140869,3.59375,1,E2,6.1,90,-6.499346279654588,9.652232655020436,[6300|0|11200|0]
30800,0.6932510733604431,1.1573542356491089,1.780866265296936,6.9561448097229,4.337946891784668,-2.0211198329925537,3.58984375,1,E2,6.1,90,-6.499346279654588,9.680014487152208,[6300|0|11200|0]
30900,0.6950038075447083,1.1645452976226807,1.7784451246261597,5.072012901306152,4.337008953094482,0.7445957064628601,3.578125,1,E2,6.1,90,-6.499346279654588,9.687802000977308,[6300|0|11200|0]
31000,0.6923726797103882,1.1567693948745728,1.7770551443099976,1.972709059715271,3.805621862411499,2.5134401321411133,3.57421875,1,E2,6.1,90,-6.499346279654588,9.696127836821708,[6300|0|11200|0]
31100,0.6831384301185608,1.1423338651657104,1.7797393798828125,0.3352122902870178,2.316373109817505,3.537360191345215,3.59375,1,E2,6.1,90,-6.499346279654588,9.713473182137093,[6300|0|11200|0]
31200,0.6750668883323669,1.114357590675354,1.7833689451217651,-1.740429162979126,1.0004398822784424,3.935704231262207,3.599609375,1,E2,6.1,90,-6.499346279654588,9.742815906362868,[6300|0|11200|0]
31300,0.6692208051681519,1.0771243572235107,1.7853047847747803,-3.4297046661376953,0.44064730405807495,3.9670283794403076,3.599609375,1,E2,6.1,90,-6.499346279654588,9.780554982090878,[6300|0|11200|0]
31400,0.6634857058525085,1.039537787437439,1.78402578830719,-5.258897304534912,-0.6753997802734375,4.570098400115967,3.58984375,1,E2,6.1,90,-6.499346279654588,9.8185980816545,[6300|0|11200|0]
31500,0.6692541837692261,0.9898674488067627,1.7856338024139404,-6.347805500030518,-1.0551159381866455,7.206307888031006,3.59375,1,E2,6.1,90,-6.499346279654588,9.868628108503675,[6300|0|11200|0]
31600,0.7156709432601929,0.8975508809089661,1.8305628299713135,-9.59377384185791,0.43888628482818604,4.5213751792907715,3.66796875,1,E2,6.1,90,-6.499346279654588,9.981302337089106,[6300|0|11200|0]
31700,0.7101273536682129,0.9061406254768372,1.8287235498428345,-9.767367362976074,2.707845449447632,2.5465052127838135,3.642578125,1,E2,6.1,90,-6.499346279654588,9.991689735641996,[6300|0|11200|0]
31800,0.7001211047172546,0.9294200539588928,1.8146772384643555,-7.5556745529174805,2.9935195446014404,1.3097597360610962,3.599609375,1,E2,6.1,90,-6.499346279654588,10.020661371285517,[6300|0|11200|0]
31900,0.6299245357513428,0.966671884059906,1.7268303632736206,-5.344968795776367,2.4706618785858154,4.979078769683838,3.55859375,1,E2,6.1,90,-6.499346279654588,10.139119509972723,[6300|0|11200|0]
32000,0.6131494045257568,0.9965411424636841,1.67720627784729,-1.8176355361938477,-3.926823139190674,-0.2133059948682785,3.42578125,1,E2,6.1,90,-6.499346279654588,10.199419820748265,[6300|0|11200|0]
32100,0.5903131365776062,1.03486967086792,1.6479876041412354,2.486610174179077,-2.9443438053131104,-1.6134270429611206,3.48828125,1,E2,6.1,90,-6.499346279654588,10.25275181974113,[6300|0|11200|0]
32200,0.5714762210845947,1.0648854970932007,1.6365060806274414,4.0795464515686035,-4.628896713256836,-2.877838134765625,3.525390625,1,E2,6.1,90,-6.499346279654588,10.290002384723087,[6300|0|11200|0]
32300,0.5603650212287903,1.088746428489685,1.640796422958374,4.368724346160889,-4.617646217346191,-2.749738931655884,3.5625,1,E2,6.1,90,-6.499346279654588,10.316670902617037,[6300|0|11200|0]
