time.ms,stateEstimate.x,stateEstimate.y,stateEstimate.z,stabilizer.roll,stabilizer.pitch,stabilizer.yaw,pm.vbat,drone_id,node_name,wind_speed,global_wind_direction,relative_wind_direction,travel_dist,waiting_time
0,-0.3450813293457031,-0.37789544463157654,0.016887007281184196,0.5667315125465393,0.1369628608226776,-2.134310722351074,4.06640625,2,K1,6.1,90,0,0.022631104752196842,[100|0|0|0]
100,-0.34531086683273315,-0.3777453899383545,0.017075149342417717,0.5785042643547058,0.15258023142814636,-2.118868589401245,4.06640625,2,K1,6.1,90,0,0.02296367249584499,[200|0|0|0]
200,-0.3451002240180969,-0.3780292868614197,0.01718299090862274,0.59310382604599,0.15104316174983978,-2.1259610652923584,4.06640625,2,K1,6.1,90,0,0.023333263704730302,[300|0|0|0]
300,-0.3451867997646332,-0.3779662549495697,0.017264269292354584,0.6070941090583801,0.1629529595375061,-2.0992085933685303,4.06640625,2,K1,6.1,90,0,0.023467705355500565,[400|0|0|0]
400,-0.34497496485710144,-0.3778737187385559,0.017080513760447502,0.7522546052932739,0.2560034990310669,-2.0977566242218018,4.06640625,2,K1,6.1,90,0,0.023763007021435967,[500|0|0|0]
500,-0.3448964059352875,-0.37809064984321594,0.016951972618699074,0.7316030263900757,0.23446613550186157,-2.090763807296753,4.06640625,2,K1,6.1,90,0,0.024027115774580547,[600|0|0|0]
600,-0.3452538549900055,-0.3779296576976776,0.016863074153661728,0.7042564153671265,0.22602954506874084,-2.1041970252990723,4.06640625,2,K1,6.1,90,0,0.0244290998970653,[700|0|0|0]
700,-0.34514907002449036,-0.3779484033584595,0.017253166064620018,0.6811961531639099,0.20832686126232147,-2.097681999206543,4.06640625,2,K1,6.1,90,0,0.024833454923980074,[800|0|0|0]
800,-0.34491193294525146,-0.3780207931995392,0.017196226865053177,0.6574638485908508,0.1802646964788437,-2.1026558876037598,4.06640625,2,K1,6.1,90,0,0.025087849019604976,[900|0|0|0]
900,-0.3451157212257385,-0.3779333233833313,0.01718238554894924,0.6401875019073486,0.17502528429031372,-2.0770936012268066,4.06640625,2,K1,6.1,90,0,0.025310047611055965,[1000|0|0|0]
1000,-0.34501010179519653,-0.37775924801826477,0.01710991933941841,0.6200388669967651,0.16394323110580444,-2.0911731719970703,4.06640625,2,K1,6.1,90,0,0.02552617037328805,[1100|0|0|0]
1100,-0.34466907382011414,-0.3777350187301636,0.016907839104533195,0.6085808873176575,0.1436261534690857,-2.1013715267181396,4.06640625,2,K1,6.1,90,0,0.02592331462859329,[1200|0|0|0]
1200,-0.3448731601238251,-0.3776477873325348,0.016923941671848297,0.5940008163452148,0.13859865069389343,-2.082080602645874,4.06640625,2,K1,6.1,90,0,0.026145845140588393,[1300|0|0|0]
1300,-0.3449274003505707,-0.377982497215271,0.016886167228221893,0.6068795323371887,0.14103247225284576,-2.0978853702545166,4.06640625,2,K1,6.1,90,0,0.026487019020582134,[1400|0|0|0]
1400,-0.34484219551086426,-0.377987802028656,0.016992025077342987,0.6123698949813843,0.14412978291511536,-2.0876951217651367,4.06640625,2,K1,6.1,90,0,0.026623011262915993,[1500|0|0|0]
1500,-0.34502530097961426,-0.3774678409099579,0.01716548763215542,0.5967935919761658,0.1561354100704193,-2.0889511108398438,4.06640625,2,K1,6.1,90,0,0.027200918206606767,[1600|0|0|0]
1600,-0.34491774439811707,-0.3778107166290283,0.01715758442878723,0.6043885350227356,0.15822699666023254,-2.0657503604888916,4.06640625,2,K1,6.1,90,0,0.027560354762308756,[1700|0|0|0]
1700,-0.344867080450058,-0.37766197323799133,0.01694917120039463,0.6062967777252197,0.15856359899044037,-2.0941970348358154,4.06640625,2,K1,6.1,90,0,0.027821367225189634,[1800|0|0|0]
1800,-0.3449859321117401,-0.37800806760787964,0.017032284289598465,0.6212968826293945,0.16500215232372284,-2.09533429145813,4.06640625,2,K1,6.1,90,0,0.028196620227775877,[1900|0|0|0]
1900,-0.3402138948440552,-0.3713963031768799,0.015935514122247696,0.3966992199420929,-0.0010380592430010438,-2.0187041759490967,4.06640625,2,K1,6.1,90,0,0.03642405441925976,[2000|0|0|0]
2000,-0.34040018916130066,-0.37109485268592834,0.016072144731879234,0.38973063230514526,0.0024650264531373978,-2.030874252319336,4.06640625,2,K1,6.1,90,0,0.03680385159489588,[2100|0|0|0]
2100,-0.3451123833656311,-0.3779807984828949,0.017251715064048767,0.6536773443222046,0.18655911087989807,-2.1050455570220947,4.06640625,2,K1,6.1,90,0,0.04523073772837492,[2200|0|0|0]
2200,-0.34030747413635254,-0.371329128742218,0.016154730692505836,0.49805209040641785,0.0737091675400734,-2.0321362018585205,4.06640625,2,K1,6.1,90,0,0.053509338923749185,[2300|0|0|0]
2300,-0.3402411937713623,-0.37175092101097107,0.01594126969575882,0.4924655854701996,0.062121760100126266,-2.04774808883667,4.06640625,2,K1,6.1,90,0,0.053986693510922404,[2400|0|0|0]
2400,-0.34051042795181274,-0.3717210590839386,0.015965064987540245,0.4858534336090088,0.0660974383354187,-2.0621676445007324,4.06640625,2,K1,6.1,90,0,0.05425862180021919,[2500|0|0|0]
2500,-0.34510913491249084,-0.37790802121162415,0.016778534278273582,0.6081521511077881,0.1626816987991333,-2.1376776695251465,4.06640625,2,K1,6.1,90,0,0.06201028861236809,[2600|0|0|0]
2600,-0.3403257429599762,-0.3713255226612091,0.01584978774189949,0.4581054449081421,0.05468905344605446,-2.051785945892334,4.06640625,2,K1,6.1,90,0,0.07020008078716868,[2700|0|0|0]
2700,-0.3450643718242645,-0.3779488205909729,0.017183998599648476,0.595598042011261,0.1553940773010254,-2.1150856018066406,4.06640625,2,K1,6.1,90,0,0.0784525227041297,[2800|0|0|0]
2800,-0.34073951840400696,-0.37130194902420044,0.01596805453300476,0.4595271646976471,0.07139217108488083,-2.0541563034057617,4.06640625,2,K1,6.1,90,0,0.08647522665635726,[2900|0|0|0]
2900,-0.34019795060157776,-0.3713616728782654,0.015445787459611893,0.4599055349826813,0.05125582963228226,-2.033919095993042,4.06640625,2,K1,6.1,90,0,0.08722996205324991,[3000|0|0|0]
3000,-0.3403889834880829,-0.37134337425231934,0.015921322628855705,0.45799633860588074,0.05192558094859123,-2.0547757148742676,4.06640625,2,K1,6.1,90,0,0.08774276035728937,[3100|0|0|0]
3100,-0.34052062034606934,-0.3711468577384949,0.01607893966138363,0.4490310847759247,0.05058056488633156,-2.0508575439453125,4.06640625,2,K1,6.1,90,0,0.08802699640625074,[3200|0|0|0]
3200,-0.34030166268348694,-0.3714485764503479,0.015762655064463615,0.45522889494895935,0.0451088547706604,-2.0779592990875244,4.06640625,2,K1,6.1,90,0,0.08851588554024192,[3300|0|0|0]
3301,-0.34045490622520447,-0.37129485607147217,0.015963539481163025,0.4570743143558502,0.04706964269280434,-2.041203498840332,4.06640625,2,K1,6.1,90,0,0.08881163558137885,[3400|0|0|0]
3400,-0.3402143120765686,-0.37096261978149414,0.0159456804394722,0.42484545707702637,0.028672659769654274,-2.0474438667297363,4.06640625,2,K1,6.1,90,0,0.08922222715716469,[3500|0|0|0]
3500,-0.3401992619037628,-0.37130847573280334,0.01586063764989376,0.4531361758708954,0.041348230093717575,-2.0605013370513916,4.06640625,2,K1,6.1,90,0,0.08957870313506047,[3600|0|0|0]
3600,-0.34005293250083923,-0.37115779519081116,0.016045749187469482,0.4612572193145752,0.05200466141104698,-2.060664176940918,4.06640625,2,K1,6.1,90,0,0.08985867313566533,[3700|0|0|0]
3701,-0.3400917053222656,-0.37136998772621155,0.01605343259871006,0.4773782193660736,0.06321247667074203,-2.064279556274414,4.06640625,2,K1,6.1,90,0,0.09007451576020761,[3800|0|0|0]
3800,-0.34022051095962524,-0.37124478816986084,0.01588289625942707,0.4801219403743744,0.07409162819385529,-2.0309808254241943,4.06640625,2,K1,6.1,90,0,0.09032220198134652,[3900|0|0|0]
3901,-0.3403182327747345,-0.3710542619228363,0.01603063754737377,0.4755690097808838,0.08302969485521317,-2.018810749053955,4.06640625,2,K1,6.1,90,0,0.09058235057757116,[4000|0|0|0]
4001,-0.3404626250267029,-0.37128162384033203,0.015920965000987053,0.48749950528144836,0.08812625706195831,-2.008676767349243,4.06640625,2,K1,6.1,90,0,0.09087316087894783,[4100|0|0|0]
4101,-0.3401029407978058,-0.37123534083366394,0.01599777489900589,0.4855419993400574,0.0764593631029129,-2.0202796459198,4.06640625,2,K1,6.1,90,0,0.091243855661292,[4200|0|0|0]
4201,-0.3415307104587555,-0.3719234764575958,0.0163797028362751,-0.1268317550420761,-0.09462851285934448,-1.3213229179382324,4.06640625,2,K1,6.1,90,0,0.09287417029071765,[4300|0|0|0]
4301,-0.34041333198547363,-0.3705461919307709,0.016062719747424126,-0.21586960554122925,-0.25942692160606384,-1.7336864471435547,4.06640625,2,K1,6.1,90,0,0.0946758155385405,[4400|0|0|0]
4401,-0.34023815393447876,-0.37087807059288025,0.01593782566487789,0.06098518148064613,-0.2376261055469513,-1.790372610092163,4.06640625,2,K1,6.1,90,0,0.09507132701469377,[4500|0|0|0]
4501,-0.3400355577468872,-0.37103042006492615,0.016163401305675507,0.31217074394226074,-0.1450033038854599,-1.8138002157211304,4.06640625,2,K1,6.1,90,0,0.09541064979108897,[4600|0|0|0]
4602,-0.34010428190231323,-0.37134215235710144,0.016005199402570724,0.438200443983078,-0.08335784077644348,-1.848484992980957,4.06640625,2,K1,6.1,90,0,0.09576691917465968,[4700|0|0|0]
4700,-0.34028640389442444,-0.37122470140457153,0.016103478148579597,0.46866118907928467,-0.03693215548992157,-1.8823212385177612,4.06640625,2,K1,6.1,90,0,0.09600487265367988,[4800|0|0|0]
4802,-0.340040385723114,-0.3714173436164856,0.01577690802514553,0.49700087308883667,-0.021022716537117958,-1.929985523223877,4.06640625,2,K1,6.1,90,0,0.09645685053803464,[4900|0|0|0]
4902,-0.33982622623443604,-0.3714980483055115,0.015855738893151283,0.502009391784668,-0.003447821596637368,-1.9432337284088135,4.06640625,2,K1,6.1,90,0,0.09669890805015133,[5000|0|0|0]
5000,-0.33991989493370056,-0.37157952785491943,0.015832673758268356,0.508171558380127,0.021187148988246918,-1.9484844207763672,4.06640625,2,K1,6.1,90,0,0.09682518054375465,[5100|0|0|0]
5100,-0.3400573134422302,-0.37152206897735596,0.0159615408629179,0.47109413146972656,0.012005890719592571,-1.962120532989502,4.06640625,2,K1,6.1,90,0,0.09702213764506894,[5200|0|0|0]
5202,-0.3402957618236542,-0.371128648519516,0.015646085143089294,0.43101003766059875,0.006993290036916733,-1.9838941097259521,4.06640625,2,K1,6.1,90,0,0.09757994549587716,[5300|0|0|0]
5302,-0.3407522141933441,-0.37154170870780945,0.016049759462475777,0.5580487847328186,0.0981116071343422,-1.9963388442993164,4.06640625,2,K1,6.1,90,0,0.0983160979536471,[5400|0|0|0]
5400,-0.3407404124736786,-0.37156835198402405,0.015959644690155983,0.5259467959403992,0.07514386624097824,-2.004512071609497,4.06640625,2,K1,6.1,90,0,0.09841080707118474,[5500|0|0|0]
5500,-0.3404296934604645,-0.37155482172966003,0.01583418808877468,0.5021251440048218,0.053403206169605255,-2.0112526416778564,4.06640625,2,K1,6.1,90,0,0.09874617065266915,[5600|0|0|0]
5600,-0.34056708216667175,-0.3717276453971863,0.015621121041476727,0.49681591987609863,0.05750056356191635,-2.044182777404785,4.06640625,2,K1,6.1,90,0,0.09905299510295758,[5700|0|0|0]
5700,-0.34027549624443054,-0.3716617524623871,0.015984244644641876,0.48136642575263977,0.04838446155190468,-2.061983346939087,4.06640625,2,K1,6.1,90,0,0.09952333857328681,[5800|0|0|0]
5800,-0.3402470648288727,-0.3714679181575775,0.016091639176011086,0.46552911400794983,0.04073403403162956,-2.049466133117676,4.06640625,2,K1,6.1,90,0,0.09974675224448812,[5900|0|0|0]
5900,-0.34059855341911316,-0.3719009757041931,0.01581728272140026,0.546343207359314,0.10159232467412949,-2.061107635498047,4.06640625,2,K1,6.1,90,0,0.10036832648135495,[6000|0|0|0]
6000,-0.34047481417655945,-0.37159213423728943,0.016159771010279655,0.5106615424156189,0.08403732627630234,-2.049496650695801,4.06640625,2,K1,6.1,90,0,0.10084581227155873,[6100|0|0|0]
6100,-0.34040138125419617,-0.37136831879615784,0.015963908284902573,0.481405109167099,0.06822501868009567,-2.0381245613098145,4.06640625,2,K1,6.1,90,0,0.10115215840417326,[6200|0|0|0]
6200,-0.34040921926498413,-0.3714849650859833,0.016019495204091072,0.4731650650501251,0.05217353627085686,-2.032382011413574,4.05859375,2,K1,6.1,90,0,0.10128160992764063,[6300|0|0|0]
6300,-0.34022238850593567,-0.37158167362213135,0.016145845875144005,0.4726739227771759,0.04418699070811272,-2.0340991020202637,2.892578125,2,J2,6.1,90,0,0.1015270131989433,[6300|0|0|0]
6400,-0.3398217558860779,-0.37166187167167664,0.01614524982869625,0.8029270172119141,0.27230408787727356,-1.5493519306182861,3.0625,2,J2,6.1,90,0,0.10193559437633203,[6300|0|0|0]
6500,-0.33834773302078247,-0.3712407946586609,0.03709183260798454,-2.0240607261657715,0.5089302062988281,-1.0580857992172241,3.3828125,2,J2,6.1,90,0,0.12293819848601044,[6300|0|0|0]
6600,-0.3354834318161011,-0.36242038011550903,0.09485762566328049,-1.7943326234817505,1.8060954809188843,-2.2323293685913086,3.48828125,2,J2,6.1,90,0,0.1814436749938679,[6300|0|0|0]
6700,-0.3316327929496765,-0.34656980633735657,0.16988052427768707,-0.5143885612487793,0.15316495299339294,-3.156677484512329,3.525390625,2,J2,6.1,90,0,0.25821934448156303,[6300|0|0|0]
6800,-0.32723668217658997,-0.3280513882637024,0.2511884272098541,3.349132776260376,1.2617319822311401,-3.8111348152160645,3.515625,2,J2,6.1,90,0,0.34172522856829424,[6300|0|0|0]
6900,-0.32250329852104187,-0.31368231773376465,0.33609530329704285,4.863744258880615,0.9565961360931396,-5.4046831130981445,3.509765625,2,J2,6.1,90,0,0.4279693745470803,[6300|0|0|0]
7000,-0.31715819239616394,-0.30732107162475586,0.42194265127182007,4.473677635192871,-0.709055483341217,-6.964846611022949,3.509765625,2,J2,6.1,90,0,0.5142178688287086,[6300|0|0|0]
7100,-0.30774784088134766,-0.30668699741363525,0.5081179738044739,1.4453719854354858,0.4232198894023895,-6.873903274536133,3.48828125,2,J2,6.1,90,0,0.6009077931529605,[6300|0|0|0]
7200,-0.29706427454948425,-0.30748841166496277,0.5826036930084229,3.4007041454315186,2.8198952674865723,-5.790271759033203,3.46875,2,J2,6.1,90,0,0.6761600570371726,[6300|0|0|0]
7300,-0.2903020679950714,-0.3119839131832123,0.669241189956665,3.0707802772521973,3.113544464111328,-4.604524612426758,3.478515625,2,J2,6.1,90,0,0.7631772556179234,[6300|0|0|0]
7400,-0.29052355885505676,-0.3193434774875641,0.7623042464256287,1.4179983139038086,4.513835906982422,-3.303208351135254,3.5,2,J2,6.1,90,0,0.8565311239057263,[6300|0|0|0]
7500,-0.3037537634372711,-0.3225250542163849,0.8611259460449219,1.4728209972381592,3.3595492839813232,-2.1529524326324463,3.48828125,2,J2,6.1,90,0,0.9562852669746457,[6300|0|0|0]
7600,-0.3176408112049103,-0.33145031332969666,0.9572606086730957,0.4763868749141693,1.82160222530365,-1.3354380130767822,3.453125,2,J2,6.1,90,0,1.053826969361744,[6300|0|0|0]
7700,-0.3362860679626465,-0.3395140469074249,1.0556789636611938,0.42643439769744873,0.2507236897945404,-0.880331814289093,3.453125,2,J2,6.1,90,0,1.154319964129229,[6300|0|0|0]
7800,-0.3567996919155121,-0.3469596207141876,1.1561146974563599,-0.13578921556472778,-1.652073621749878,-0.7107641696929932,3.44140625,2,J2,6.1,90,0,1.257099251731182,[6300|0|0|0]
7900,-0.37540382146835327,-0.3536417484283447,1.2569715976715088,-0.03563982620835304,-2.7418484687805176,-0.8322534561157227,3.404296875,2,J2,6.1,90,0,1.3598751184909215,[6300|0|0|0]
8000,-0.38965603709220886,-0.3597039580345154,1.3593697547912598,-0.21262097358703613,-3.3073878288269043,-0.9500953555107117,3.373046875,2,J2,6.1,90,0,1.4634379429841693,[6300|0|0|0]
8100,-0.39815688133239746,-0.36424028873443604,1.46251380443573,-0.1727249175310135,-3.2465455532073975,-1.2024860382080078,3.435546875,2,J2,6.1,90,0,1.5670310780177028,[6300|0|0|0]
8200,-0.40218812227249146,-0.369131863117218,1.5634630918502808,0.30665406584739685,-2.7250406742095947,-1.1715521812438965,3.537109375,2,J2,6.1,90,0,1.6681791725769428,[6300|0|0|0]
8300,-0.40293726325035095,-0.3744591176509857,1.65377938747406,0.2454787939786911,-2.1098473072052,-1.1645690202713013,3.568359375,2,J2,6.1,90,0,1.7586555457816317,[6300|0|0|0]
8400,-0.3997601270675659,-0.38000714778900146,1.726122260093689,-0.06074179708957672,-1.765432357788086,-1.5835388898849487,3.53125,2,J2,6.1,90,0,1.8312803766013737,[6300|0|0|0]
8500,-0.395371675491333,-0.38778969645500183,1.7811380624771118,-0.06535352766513824,-1.3456335067749023,3.716536283493042,3.484375,2,J2,6.1,90,0,1.8870169452333538,[6300|0|0|0]
8600,-0.3888166844844818,-0.39385080337524414,1.817112922668457,-0.3746001422405243,-0.8017399907112122,9.293086051940918,3.447265625,2,J2,6.1,90,0,1.9240830414667764,[6300|0|0|0]
8700,-0.38278281688690186,-0.4006020426750183,1.8395352363586426,-0.8298733830451965,-0.030143603682518005,14.380858421325684,3.431640625,2,J2,6.1,90,0,1.948264582804934,[6300|0|0|0]
8800,-0.3747781217098236,-0.407915860414505,1.853310465812683,-1.0714746713638306,0.10873051732778549,16.189403533935547,3.431640625,2,J2,6.1,90,0,1.965795242271019,[6300|0|0|0]
8900,-0.3676092028617859,-0.4136618971824646,1.8601633310317993,-1.714186429977417,0.6875429749488831,8.083836555480957,3.41015625,2,J2,6.1,90,0,1.9772570090501795,[6300|0|0|0]
9000,-0.361922025680542,-0.41500958800315857,1.8616811037063599,-1.6101489067077637,0.8624600768089294,5.387139797210693,3.39453125,2,J2,6.1,90,0,1.9832955427075079,[6300|0|0|0]
9100,-0.35439804196357727,-0.41724398732185364,1.8600810766220093,-1.1048831939697266,0.8309601545333862,3.944507122039795,3.404296875,2,J2,6.1,90,0,1.9913057211049714,[6300|0|0|0]
9200,-0.34929704666137695,-0.41759440302848816,1.8542625904083252,-0.6471701264381409,1.232001781463623,2.8789474964141846,3.3828125,2,J2,6.1,90,0,1.9990515410137581,[6300|0|0|0]
9300,-0.34414851665496826,-0.41641318798065186,1.8481903076171875,-0.3815743327140808,1.0794577598571777,2.0090227127075195,3.5,2,J2,6.1,90,23.72839107595253,2.0070998481967424,[6300|0|0|0]
9400,-0.3330233693122864,-0.4134025275707245,1.8331769704818726,-12.660730361938477,-12.029292106628418,-0.6739479303359985,3.53125,2,J2,6.1,90,23.72839107595253,2.02602689951064,[6300|0|0|0]
9500,-0.30669105052948,-0.40474140644073486,1.8075330257415771,-13.855430603027344,-11.420836448669434,0.23413226008415222,3.404296875,2,J2,6.1,90,23.72839107595253,2.063789552139276,[6300|0|0|0]
9600,-0.25902116298675537,-0.3936742842197418,1.767052173614502,-15.17623233795166,-12.162298202514648,5.391714096069336,3.341796875,2,J2,6.1,90,23.72839107595253,2.1273001714208144,[6300|0|0|0]
9700,-0.18658950924873352,-0.3600323796272278,1.720518946647644,-14.60061264038086,-5.647348880767822,4.167721271514893,3.3671875,2,J2,6.1,90,23.72839107595253,2.219731028929471,[6300|0|0|0]
9800,-0.09250916540622711,-0.30925408005714417,1.6782702207565308,-11.926814079284668,2.8997581005096436,-4.2141571044921875,3.39453125,2,J2,6.1,90,23.72839107595253,2.3346853748419933,[6300|0|0|0]
9900,0.01039676833897829,-0.2393646538257599,1.642109751701355,-6.775539875030518,11.094686508178711,-11.296123504638672,3.41015625,2,J2,6.1,90,23.72839107595253,2.4642297402972884,[6300|0|0|0]
10000,0.10240750014781952,-0.14624714851379395,1.610879898071289,-2.7090368270874023,15.877120018005371,-14.73911190032959,3.37890625,2,J2,6.1,90,23.72839107595253,2.598811122075296,[6300|0|0|0]
10100,0.1764390617609024,-0.028900127857923508,1.5816338062286377,-0.15064094960689545,18.101402282714844,-13.061269760131836,3.27734375,2,J2,6.1,90,23.72839107595253,2.7406079106840293,[6300|0|0|0]
10200,0.22319264709949493,0.10599280893802643,1.5571156740188599,3.273902416229248,18.738636016845703,-10.1315336227417,3.267578125,2,J2,6.1,90,23.72839107595253,2.88546349720559,[6300|0|0|0]
10300,0.2202497273683548,0.2631690502166748,1.5483527183532715,10.766002655029297,16.027551651000977,-14.478991508483887,3.39453125,2,J2,6.1,90,23.72839107595253,3.04291133298311,[6300|0|0|0]
10400,0.19390466809272766,0.40339717268943787,1.5491987466812134,15.781044006347656,7.930795192718506,-12.065619468688965,3.453125,2,J2,6.1,90,23.72839107595253,3.185595264259215,[6300|0|0|0]
10500,0.15874893963336945,0.5236780047416687,1.5551908016204834,17.30896759033203,1.7345927953720093,-6.982974052429199,3.462890625,2,J2,6.1,90,23.72839107595253,3.311051665152435,[6300|0|0|0]
10600,0.13481338322162628,0.6155475378036499,1.5641134977340698,18.100723266601562,-2.7016844749450684,-4.023324489593506,3.46875,2,J2,6.1,90,23.72839107595253,3.4064064577519764,[6300|0|0|0]
10700,0.11637860536575317,0.6970313787460327,1.5715912580490112,17.82575035095215,-4.382706642150879,-3.022456645965576,3.47265625,2,J2,6.1,90,23.72839107595253,3.4902835956898355,[6300|0|0|0]
10800,0.10754045844078064,0.7673085927963257,1.5761600732803345,17.159019470214844,-4.298557281494141,-6.557443141937256,3.45703125,2,J2,6.1,90,23.72839107595253,3.5612615762778748,[6300|0|0|0]
10900,0.11011649668216705,0.8103942275047302,1.5813318490982056,17.555452346801758,-3.8975071907043457,-11.975688934326172,3.453125,2,J2,6.1,90,23.72839107595253,3.6047328904558182,[6300|0|0|0]
11000,0.11407318711280823,0.8487349152565002,1.5844902992248535,16.67991065979004,0.6464146971702576,-2.6307075023651123,3.44140625,2,J2,6.1,90,23.72839107595253,3.6434063896981312,[6300|0|0|0]
11100,0.12346099317073822,0.8497756719589233,1.5852524042129517,14.073176383972168,2.893437147140503,4.2218241691589355,3.447265625,2,J2,6.1,90,23.72839107595253,3.6528824057970954,[6300|0|0|0]
11200,0.13654282689094543,0.8371483087539673,1.5855826139450073,10.222320556640625,3.985996961593628,6.086420059204102,3.45703125,2,J2,6.1,90,23.72839107595253,3.671067391732206,[6300|0|0|0]
11300,0.14643031358718872,0.8087112903594971,1.5849946737289429,6.287374019622803,4.596948623657227,5.965065002441406,3.46875,2,J2,6.1,90,23.72839107595253,3.70118004824128,[6300|0|0|0]
11400,0.1498243659734726,0.7728787660598755,1.5818427801132202,2.4248812198638916,4.803502082824707,5.430525779724121,3.46875,2,J2,6.1,90,23.72839107595253,3.7373106975939923,[6300|0|0|0]
11500,0.14410147070884705,0.7355700135231018,1.5760204792022705,-0.6998273730278015,4.372187614440918,4.499756336212158,3.46875,2,J2,6.1,90,23.72839107595253,3.775502237677599,[6300|0|0|0]
11600,0.12966620922088623,0.7018139958381653,1.5676548480987549,-1.9661178588867188,3.150095224380493,3.6416513919830322,3.45703125,2,J2,6.1,90,23.72839107595253,3.813156311666102,[6300|0|0|0]
11700,0.11079671233892441,0.6717596054077148,1.556003212928772,-2.6502795219421387,1.140648365020752,3.861295223236084,3.44140625,2,J2,6.1,90,23.72839107595253,3.8505071469828485,[6300|0|0|0]
11800,0.08794089406728745,0.6481572389602661,1.5427961349487305,-2.350053071975708,-0.5290716886520386,3.076655864715576,3.435546875,2,J2,6.1,90,23.72839107595253,3.885917414414155,[6300|0|0|0]
11900,0.06518044322729111,0.6298025846481323,1.5294220447540283,-1.823282241821289,-1.9051940441131592,2.449378728866577,3.416015625,2,J2,6.1,90,23.72839107595253,3.9180701397402276,[6300|0|0|0]
12000,0.045378923416137695,0.6154083609580994,1.5172823667526245,-1.1056469678878784,-2.9457907676696777,2.213561534881592,3.419921875,2,J2,6.1,90,23.72839107595253,3.945395323078093,[6300|0|0|0]
12100,0.029397904872894287,0.6042923927307129,1.507009506225586,-0.6651344895362854,-3.257767915725708,1.8106437921524048,3.42578125,2,J2,6.1,90,23.72839107595253,3.9674064422390933,[6300|0|0|0]
12200,0.01953952945768833,0.594939112663269,1.49922513961792,-0.158659890294075,-3.001508951187134,1.6136351823806763,3.431640625,2,J2,6.1,90,23.72839107595253,3.9830674695786303,[6300|0|0|0]
12300,0.014530804008245468,0.5860399007797241,1.4924097061157227,0.1372927725315094,-2.212106943130493,1.706836223602295,3.42578125,2,J2,6.1,90,0,3.9953448242040777,[6300|0|0|0]
12400,0.012164144776761532,0.5777076482772827,1.4768552780151367,0.1328505128622055,-1.5565218925476074,1.3418673276901245,3.7890625,2,J2,6.1,90,0,4.013148412078961,[6300|0|0|0]
12500,0.011455458588898182,0.5704469680786133,1.426674246788025,0.36712121963500977,-1.523268222808838,1.4515514373779297,3.673828125,2,J2,6.1,90,0,4.063856947929216,[6300|0|0|0]
12600,0.009536541067063808,0.5616551041603088,1.337815284729004,0.334149569272995,-1.5229012966156006,1.4203022718429565,3.515625,2,J2,6.1,90,0,4.153170408582245,[6300|0|0|0]
12700,0.008676663972437382,0.5536937713623047,1.2249538898468018,-0.14743474125862122,-1.0419498682022095,1.6217610836029053,3.41015625,2,J2,6.1,90,0,4.266315521880587,[6300|0|0|0]
12800,0.009730826131999493,0.5454065799713135,1.1037535667419434,-0.20436955988407135,-1.2256309986114502,1.710995078086853,3.3984375,2,J2,6.1,90,0,4.38780341065857,[6300|0|0|0]
12900,0.01307542435824871,0.5371996164321899,0.9832024574279785,-0.1489112675189972,-0.9979180097579956,2.0417556762695312,3.416015625,2,J2,6.1,90,0,4.508679837411908,[6300|0|0|0]
13000,0.01953083649277687,0.5293385982513428,0.8648058176040649,-1.8494271039962769,-0.327007919549942,1.2915493249893188,3.42578125,2,J2,6.1,90,0,4.627512628653466,[6300|0|0|0]
13100,0.02720167301595211,0.523774266242981,0.7473077178001404,-2.3021318912506104,-0.6410209536552429,1.5691252946853638,3.431640625,2,J2,6.1,90,0,4.745392257857148,[6300|0|0|0]
13200,0.03679903224110603,0.5208039879798889,0.6304097175598145,-0.6918706297874451,-0.23394697904586792,3.624655246734619,3.42578125,2,J2,6.1,90,0,4.862721172951613,[6300|0|0|0]
13300,0.04828698933124542,0.5193187594413757,0.5136784911155701,0.5250769257545471,0.5461593270301819,5.909219264984131,3.3984375,2,J2,6.1,90,0,4.98002572652518,[6300|0|0|0]
13400,0.057796213775873184,0.5173380374908447,0.4081359803676605,0.06920144706964493,1.8123056888580322,7.065223693847656,3.2734375,2,J2,6.1,90,0,5.08601426450904,[6300|0|0|0]
13500,0.06871414184570312,0.5117168426513672,0.2995195686817169,-0.4123041033744812,3.280000925064087,10.310548782348633,3.26171875,2,J2,6.1,90,0,5.195322653355879,[6300|0|0|0]
13600,0.07588497549295425,0.5015118718147278,0.20532138645648956,3.6807024478912354,-1.491073489189148,14.951194763183594,3.3671875,2,J2,6.1,90,0,5.290342966023804,[6300|0|0|0]
13700,0.08490635454654694,0.48603928089141846,0.12514865398406982,-2.938060760498047,2.2200851440429688,17.810441970825195,3.283203125,2,J2,6.1,90,0,5.372491936692966,[6300|0|0|0]
13800,0.08442757278680801,0.4752854108810425,0.05606447160243988,-11.569816589355469,8.81929874420166,17.972745895385742,3.26171875,2,J2,6.1,90,0,5.442409739915835,[6300|0|0|0]
13900,0.0650814101099968,0.47710978984832764,0.000855937716551125,-5.898195266723633,3.9422943592071533,13.053620338439941,3.125,2,J2,6.1,90,0,5.500938233683941,[6300|0|0|0]
14000,0.03603684902191162,0.48866331577301025,-0.01949315518140793,-0.8709654211997986,-2.3504559993743896,8.565143585205078,3.298828125,2,J2,6.1,90,0,5.538236438357378,[6300|0|0|0]
14100,0.011364579200744629,0.5019127726554871,-0.0008605722105130553,1.6231482028961182,-5.630598068237305,4.789829730987549,3.5,2,J2,6.1,90,0,5.571873354892286,[6300|0|0|0]
14200,-0.0008892624173313379,0.513607382774353,0.03222690150141716,1.5919358730316162,-7.0716471672058105,1.6906453371047974,3.525390625,2,J2,6.1,90,0,5.609044599919469,[6300|0|0|0]
14300,-4.034057928947732e-05,0.5218116641044617,0.05735478922724724,2.6475870609283447,-5.684615612030029,-0.0032859824132174253,3.505859375,2,J2,6.1,90,0,5.635491558950567,[6300|0|0|0]
14400,0.009205834940075874,0.526565432548523,0.07023352384567261,2.3194332122802734,-2.607250928878784,-0.9497458338737488,3.47265625,2,J2,6.1,90,0,5.652043050772348,[6300|0|0|0]
14500,0.023092931136488914,0.5286011099815369,0.07199978083372116,1.2770206928253174,-0.7831892371177673,-0.9800999760627747,3.435546875,2,J2,6.1,90,0,5.666189254755309,[6300|0|0|0]
14600,0.03817381337285042,0.5291116237640381,0.06855840981006622,0.4637960195541382,1.6697797775268555,-0.6583439707756042,3.41015625,2,J2,6.1,90,0,5.6816662269356675,[6300|0|0|0]
14700,0.04943196848034859,0.5302581191062927,0.0652126744389534,0.005175438709557056,2.981412410736084,0.296673446893692,3.419921875,2,J2,6.1,90,0,5.693466839342141,[6300|0|0|0]
14800,0.05588403344154358,0.5328013300895691,0.06412634998559952,-0.3286153972148895,3.3702964782714844,1.5607693195343018,3.435546875,2,J2,6.1,90,0,5.700486608938566,[6300|0|0|0]
14900,0.05675480514764786,0.5366460680961609,0.06448531150817871,0.37605395913124084,1.9417591094970703,1.3677500486373901,3.431640625,2,J2,6.1,90,0,5.70444503123516,[6300|0|0|0]
15000,0.054414764046669006,0.5394690632820129,0.06456933915615082,1.2396818399429321,1.5699788331985474,-0.2217152863740921,3.42578125,2,J2,6.1,90,0,5.708112749165868,[6300|0|0|0]
15100,0.04881490394473076,0.5409002304077148,0.06486382335424423,-0.19982005655765533,1.0905908346176147,-1.9285039901733398,3.419921875,2,J2,6.1,90,0,5.713900096869773,[6300|0|0|0]
15200,0.04184756055474281,0.5439556837081909,0.06624610722064972,-0.5469932556152344,-0.8389029502868652,-2.222689628601074,3.431640625,2,J2,6.1,90,0,5.721632520647136,[6300|0|0|0]
15300,0.03716365993022919,0.5480412244796753,0.06853696703910828,-0.12227419763803482,-0.8773815631866455,-1.3253828287124634,3.431640625,2,J1,6.1,90,0,5.72825661357852,[6300|100|0|0]
15400,0.03515191748738289,0.553141176700592,0.07155023515224457,0.5327562093734741,-1.0484657287597656,-0.21906161308288574,3.44140625,2,J1,6.1,90,0,5.734512523187331,[6300|200|0|0]
15500,0.03480032831430435,0.5587749481201172,0.07370977103710175,1.5914056301116943,-0.2006244659423828,0.9583204388618469,3.435546875,2,J1,6.1,90,0,5.740556246426533,[6300|300|0|0]
15600,0.03578982874751091,0.5618485808372498,0.07579164952039719,3.0455074310302734,-0.17357078194618225,2.1979823112487793,3.435546875,2,J1,6.1,90,0,5.744398192184395,[6300|400|0|0]
15700,0.03667083755135536,0.5605726838111877,0.0769849568605423,2.5825839042663574,0.1953001767396927,3.2571821212768555,3.431640625,2,J1,6.1,90,0,5.746354738156666,[6300|500|0|0]
15800,0.037775322794914246,0.5537149906158447,0.07724016904830933,1.1292399168014526,0.3651849627494812,3.3705990314483643,3.419921875,2,J1,6.1,90,0,5.753305491847848,[6300|600|0|0]
15900,0.03941890597343445,0.5459585189819336,0.07773599773645401,0.7837399244308472,0.06809215992689133,1.9681988954544067,3.41015625,2,J1,6.1,90,0,5.761249676133247,[6300|700|0|0]
16000,0.041780050843954086,0.5365071892738342,0.07742856442928314,0.8933764100074768,-0.4420968294143677,1.023781657218933,3.416015625,2,J1,6.1,90,0,5.7709963244591655,[6300|800|0|0]
16100,0.04339689016342163,0.5256273150444031,0.08017197251319885,0.42768594622612,0.07131610810756683,1.3224079608917236,3.42578125,2,J1,6.1,90,0,5.782332643109773,[6300|900|0|0]
16200,0.044729530811309814,0.5137237906455994,0.08396125584840775,-0.23772282898426056,0.7912576794624329,3.547747850418091,3.435546875,2,J1,6.1,90,0,5.794895624141511,[6300|1000|0|0]
16300,0.045282620936632156,0.5012325048446655,0.08658921718597412,1.8900340795516968,-0.6865319013595581,6.449612617492676,3.447265625,2,J1,6.1,90,0,5.807672333829028,[6300|1100|0|0]
16400,0.04514148086309433,0.48741477727890015,0.08554526418447495,0.4335966408252716,0.8406071662902832,7.649600505828857,3.41015625,2,J1,6.1,90,0,5.821530160262903,[6300|1200|0|0]
16500,0.04454006627202034,0.4701724648475647,0.0839189663529396,0.5302165746688843,-0.4460228979587555,7.2041449546813965,3.404296875,2,J1,6.1,90,0,5.8388594384396475,[6300|1300|0|0]
16600,0.04384114593267441,0.4516008198261261,0.08386749774217606,0.9512383937835693,0.08478352427482605,6.646615028381348,3.416015625,2,J1,6.1,90,0,5.857444301566961,[6300|1400|0|0]
16700,0.043583981692790985,0.43012115359306335,0.08581507205963135,1.1399165391921997,-0.4861854314804077,4.992809295654297,3.416015625,2,J1,6.1,90,0,5.879013614042143,[6300|1500|0|0]
16800,0.04448699951171875,0.4062705636024475,0.08957110345363617,0.3517180383205414,0.27270567417144775,2.7711029052734375,3.42578125,2,J1,6.1,90,0,5.903175026581862,[6300|1600|0|0]
16900,0.04578337073326111,0.38154011964797974,0.09452024102210999,-0.21411335468292236,-0.0037643215619027615,-0.1641533225774765,3.431640625,2,J1,6.1,90,0,5.928429123263407,[6300|1700|0|0]
17000,0.04785321652889252,0.3577440083026886,0.0983361080288887,-0.8156899213790894,0.15708091855049133,-2.3938536643981934,3.419921875,2,J1,6.1,90,0,5.952617964033245,[6300|1800|0|0]
17100,0.05139753222465515,0.3336206376552582,0.09975132346153259,-0.269237756729126,0.1520792841911316,-3.0252747535705566,3.41015625,2,J1,6.1,90,0,5.977041354867962,[6300|1900|0|0]
17200,0.055520858615636826,0.31019327044487,0.1001981869339943,-0.5698204040527344,-0.06505895406007767,-3.311725378036499,3.416015625,2,J1,6.1,90,0,6.000833013950506,[6300|2000|0|0]
17300,0.060221996158361435,0.2882766127586365,0.09087955206632614,-0.2895466983318329,-0.5313788056373596,-4.173823833465576,3.931640625,2,J1,6.1,90,0,6.0251080532734,[6300|2100|0|0]
17400,0.0657128170132637,0.26607635617256165,0.03067338839173317,-0.9630069136619568,-2.245853900909424,-6.319468975067139,3.9375,2,J1,6.1,90,0,6.08951133463825,[6300|2200|0|0]
17500,0.06834790110588074,0.24966813623905182,-0.006597926840186119,3.875223398208618,0.904256284236908,-11.77613639831543,3.9375,2,J1,6.1,90,0,6.130319719667294,[6300|2300|0|0]
17600,0.06794590502977371,0.24452486634254456,-0.01988953910768032,0.9329149127006531,2.3831546306610107,-18.909114837646484,3.943359375,2,J1,6.1,90,0,6.144577411722564,[6300|2400|0|0]
17700,0.06668863445520401,0.2454455941915512,-0.018234267830848694,-1.377875804901123,-0.12611904740333557,-19.853906631469727,3.943359375,2,J1,6.1,90,0,6.14685082151174,[6300|2500|0|0]
17800,0.06665204465389252,0.24585913121700287,-0.017885927110910416,-1.5930802822113037,-0.4885806441307068,-19.795175552368164,3.94921875,2,J1,6.1,90,0,6.1473927559562505,[6300|2600|0|0]
17900,0.06672543287277222,0.2454816848039627,-0.01725078746676445,-1.2593783140182495,-0.2979421615600586,-19.73360824584961,3.94921875,2,J1,6.1,90,0,6.148135220765486,[6300|2700|0|0]
18000,0.06631558388471603,0.2448204904794693,-0.017007851973176003,-0.9883807301521301,-0.12328051775693893,-19.710111618041992,3.94921875,2,J1,6.1,90,0,6.148950188115628,[6300|2800|0|0]
18100,0.06678832322359085,0.24470899999141693,-0.017189649865031242,-0.6723760366439819,0.10247043520212173,-19.65416717529297,3.953125,2,J1,6.1,90,0,6.149468804626095,[6300|2900|0|0]
18200,0.06617224961519241,0.24477306008338928,-0.017047632485628128,-0.42446377873420715,0.28750067949295044,-19.72304344177246,3.953125,2,J1,6.1,90,0,6.150104272424179,[6300|3000|0|0]
18300,0.06666246056556702,0.24542006850242615,-0.01850944571197033,0.1506231278181076,0.7433351278305054,-19.647615432739258,3.953125,2,J1,6.1,90,0,6.151776344366077,[6300|3100|0|0]
18400,0.07160556316375732,0.25750628113746643,-0.016671545803546906,-4.616244792938232,-0.644639790058136,-17.68726348876953,3.953125,2,J1,6.1,90,0,6.164963029894633,[6300|3200|0|0]
18500,0.09839632362127304,0.28820309042930603,0.011975904926657677,-7.103699207305908,0.28106001019477844,-9.85814094543457,3.958984375,2,J1,6.1,90,0,6.214769810356042,[6300|3300|0|0]
18600,0.12419092655181885,0.34769207239151,0.030671734362840652,-4.336264610290527,2.343315362930298,-4.304820537567139,3.953125,2,J1,6.1,90,0,6.282251915788155,[6300|3400|0|0]
18700,0.14986087381839752,0.40681880712509155,0.015672270208597183,-5.802532196044922,3.2146003246307373,-8.217262268066406,3.958984375,2,J1,6.1,90,0,6.348432735349707,[6300|3500|0|0]
18800,0.1572435200214386,0.42824140191078186,-0.006301387678831816,-7.0301594734191895,3.9260425567626953,-6.4965500831604,3.958984375,2,J1,6.1,90,0,6.379996522721709,[6300|3600|0|0]
18900,0.1570969969034195,0.4295801520347595,-0.020033210515975952,-8.488870620727539,2.148850202560425,-7.947662353515625,3.958984375,2,J1,6.1,90,0,6.393794228304496,[6300|3700|0|0]
19000,0.15360569953918457,0.4352051317691803,-0.035531554371118546,-3.7068402767181396,-7.678956031799316,-7.414590835571289,3.96484375,2,J1,6.1,90,0,6.410647365002167,[6300|3800|0|0]
19100,0.1460915356874466,0.4400242567062378,-0.0445108599960804,1.0080174207687378,-4.428590774536133,-10.443772315979004,3.958984375,2,J1,6.1,90,0,6.423308903339044,[6300|3900|0|0]
19200,0.14471177756786346,0.44611266255378723,-0.04836420714855194,1.0288805961608887,-5.083816051483154,-9.25813102722168,3.958984375,2,J1,6.1,90,0,6.430645162774921,[6300|4000|0|0]
19300,0.14122959971427917,0.4494941830635071,-0.05320490896701813,1.0429084300994873,-5.158072471618652,-9.107568740844727,3.96484375,2,J1,6.1,90,0,6.437500280400239,[6300|4100|0|0]
19400,0.13669659197330475,0.45558568835258484,-0.059206750243902206,2.6983695030212402,-6.512219429016113,-9.422296524047852,3.96484375,2,J1,6.1,90,0,6.447178952549843,[6300|4200|0|0]
19500,0.12039042264223099,0.47432246804237366,-0.0797189250588417,2.5824806690216064,-6.372719764709473,-9.707441329956055,3.96484375,2,J1,6.1,90,0,6.479392418476936,[6300|4300|0|0]
19600,0.11799566447734833,0.47679832577705383,-0.08214445412158966,2.5270087718963623,-6.349205017089844,-9.857963562011719,3.96484375,2,J1,6.1,90,0,6.4836052476243,[6300|4400|0|0]
19700,0.1146126314997673,0.48037561774253845,-0.0865037813782692,2.487790107727051,-6.3462910652160645,-9.928193092346191,3.96484375,2,J1,6.1,90,0,6.490181391179952,[6300|4500|0|0]
19800,0.11479373276233673,0.4801825284957886,-0.08658777177333832,2.4877817630767822,-6.345870018005371,-9.91678237915039,4.01171875,2,J1,6.1,90,0,6.490459123984962,[6300|4600|0|0]
19900,0.11367674916982651,0.48165246844291687,-0.08761142194271088,2.461560010910034,-6.292542934417725,-9.975841522216797,4.06640625,2,J1,6.1,90,0,6.49257010372512,[6300|4700|0|0]
20000,0.11366265267133713,0.48171618580818176,-0.08808168768882751,2.475739002227783,-6.264707088470459,-9.979433059692383,4.06640625,2,J1,6.1,90,0,6.4930448757608135,[6300|4800|0|0]
20100,0.11516361683607101,0.48013800382614136,-0.08628913760185242,2.4777743816375732,-6.281148910522461,-10.002636909484863,4.06640625,2,J1,6.1,90,0,6.495865653597965,[6300|4900|0|0]
20200,0.1160813644528389,0.4790973365306854,-0.08482201397418976,2.4735822677612305,-6.325470924377441,-10.014118194580078,4.0703125,2,J1,6.1,90,0,6.497884985380204,[6300|5000|0|0]
20300,0.11581353098154068,0.47947171330451965,-0.08538028597831726,2.443047285079956,-6.373643398284912,-10.01222038269043,4.0703125,2,J1,6.1,90,0,6.498608560094886,[6300|5100|0|0]
20400,0.11759618669748306,0.47736668586730957,-0.08361067622900009,2.4376494884490967,-6.446381568908691,-10.176060676574707,4.0703125,2,J1,6.1,90,0,6.501885833439889,[6300|5200|0|0]
20500,0.11791907995939255,0.47734197974205017,-0.08322708308696747,2.4018983840942383,-6.447385787963867,-10.1420316696167,4.0703125,2,J1,6.1,90,0,6.502387843549176,[6300|5300|0|0]
20601,0.1180354505777359,0.47729167342185974,-0.08288087695837021,2.3598809242248535,-6.70738410949707,-10.129738807678223,4.0703125,2,J1,6.1,90,0,6.502756532483296,[6300|5400|0|0]
20701,0.11829518526792526,0.47694453597068787,-0.08278362452983856,2.349395513534546,-6.7353835105896,-10.087995529174805,4.07421875,2,J1,6.1,90,0,6.50320085731284,[6300|5500|0|0]
20801,0.11845599859952927,0.47660109400749207,-0.08211854100227356,2.3459689617156982,-6.600183010101318,-10.079011917114258,4.07421875,2,J1,6.1,90,0,6.503966461262897,[6300|5600|0|0]
20901,0.118337482213974,0.47664400935173035,-0.0825672522187233,2.3494629859924316,-6.4711995124816895,-10.063336372375488,4.07421875,2,J1,6.1,90,0,6.504432540243526,[6300|5700|0|0]
21001,0.11848602443933487,0.4764516055583954,-0.08188998699188232,2.3353803157806396,-6.403954029083252,-10.064645767211914,4.07421875,2,J1,6.1,90,0,6.505152104139155,[6300|5800|0|0]
21101,0.11892066895961761,0.4767861068248749,-0.0825771614909172,2.2100679874420166,-7.3091864585876465,-10.152573585510254,4.08203125,2,J1,6.1,90,0,6.506031317280783,[6300|5900|0|0]
21201,0.11887908726930618,0.47721067070961,-0.08318255841732025,2.1296656131744385,-7.981335163116455,-10.225102424621582,4.08203125,2,J1,6.1,90,0,6.506771917691051,[6300|6000|0|0]
21300,0.11804933845996857,0.477737158536911,-0.08319787681102753,2.20009446144104,-7.1363019943237305,-10.170205116271973,4.08203125,2,J1,6.1,90,0,6.507754723456235,[6300|6100|0|0]
21400,0.11780129373073578,0.4776277244091034,-0.0830756276845932,2.2577033042907715,-6.675783634185791,-10.133227348327637,4.08203125,2,J1,6.1,90,0,6.508052123632669,[6300|6200|0|0]
21500,0.11690892279148102,0.47728705406188965,-0.08250126987695694,2.5158350467681885,-4.782840728759766,-9.982367515563965,4.08203125,2,J1,6.1,90,0,6.509166694882024,[6300|6300|0|0]
21601,0.11636140942573547,0.4772285223007202,-0.08233030885457993,2.5850071907043457,-4.312941074371338,-9.942727088928223,4.08203125,2,J1,6.1,90,0,6.509743257561971,[6300|6400|0|0]
21701,0.11588083952665329,0.4779464304447174,-0.0832902118563652,2.555837392807007,-4.359849452972412,-9.99160099029541,4.0859375,2,J1,6.1,90,0,6.5110346727949455,[6300|6500|0|0]
21800,0.11645623296499252,0.4770270884037018,-0.08246592432260513,2.5776267051696777,-4.3524274826049805,-9.984162330627441,4.0859375,2,J1,6.1,90,0,6.512396919958853,[6300|6600|0|0]
21900,0.1164652556180954,0.47728821635246277,-0.08276564627885818,2.558561325073242,-4.363533973693848,-9.978022575378418,4.0859375,2,J1,6.1,90,0,6.512794540965533,[6300|6700|0|0]
22000,0.1155434250831604,0.47835463285446167,-0.08337152749300003,2.538978338241577,-4.336977005004883,-9.969437599182129,4.0859375,2,J1,6.1,90,0,6.514328851148164,[6300|6800|0|0]
22100,0.1160859614610672,0.4776005744934082,-0.08275206387042999,2.5495645999908447,-4.359778881072998,-9.968331336975098,4.0859375,2,J1,6.1,90,0,6.515445401600636,[6300|6900|0|0]
22200,0.11649895459413528,0.4771590232849121,-0.08248420059680939,2.55281925201416,-4.3650970458984375,-9.976000785827637,4.0859375,2,J1,6.1,90,0,6.51610667426077,[6300|7000|0|0]
22300,0.1154688224196434,0.4785144329071045,-0.08379567414522171,2.5263969898223877,-4.3551740646362305,-9.991247177124023,4.0859375,2,J1,6.1,90,0,6.518255690409857,[6300|7100|0|0]
22400,0.11565443128347397,0.478305846452713,-0.08356977999210358,2.5345447063446045,-4.35213041305542,-9.955999374389648,4.0859375,2,J1,6.1,90,0,6.51861483818961,[6300|7200|0|0]
22500,0.11576336622238159,0.47796013951301575,-0.08329502493143082,2.539673089981079,-4.343973159790039,-9.9452486038208,4.08984375,2,J1,6.1,90,0,6.519069668325413,[6300|7300|0|0]
22600,0.11514314264059067,0.4787192940711975,-0.08407560735940933,2.5240862369537354,-4.344061374664307,-9.950827598571777,4.08984375,2,J1,6.1,90,0,6.520322785184084,[6300|7400|0|0]
22700,0.1142129898071289,0.4797482490539551,-0.08560551702976227,2.5256316661834717,-4.346149444580078,-9.930791854858398,4.08984375,2,J1,6.1,90,0,6.522387865388236,[6300|7500|0|0]
22800,0.11401614546775818,0.4799279272556305,-0.0856274962425232,2.518979072570801,-4.342511177062988,-9.941010475158691,4.08984375,2,J1,6.1,90,0,6.522655288341427,[6300|7600|0|0]
22900,0.11337888985872269,0.48048731684684753,-0.08617257326841354,2.5172576904296875,-4.342216968536377,-9.94878101348877,4.08984375,2,J1,6.1,90,0,6.52366331631235,[6300|7700|0|0]
23000,0.11491310596466064,0.4787788987159729,-0.0839286744594574,2.5282137393951416,-4.3582892417907715,-9.953352928161621,4.08984375,2,J1,6.1,90,0,6.526873860414906,[6300|7800|0|0]
23100,0.11519717425107956,0.4785482585430145,-0.08421799540519714,2.5378408432006836,-4.372372150421143,-9.936628341674805,4.08984375,2,J1,6.1,90,0,6.527340332590255,[6300|7900|0|0]
23200,0.11513008177280426,0.47868290543556213,-0.08394978940486908,2.5207252502441406,-4.366137981414795,-9.930535316467285,4.09765625,2,J1,6.1,90,0,6.527647847866177,[6300|8000|0|0]
23300,0.11438432335853577,0.4793117344379425,-0.08454909920692444,2.527174234390259,-4.354980945587158,-9.944198608398438,4.09765625,2,J1,6.1,90,0,6.528792729417049,[6300|8100|0|0]
23400,0.11496824771165848,0.47859323024749756,-0.08396760374307632,2.540330410003662,-4.368340969085693,-9.960037231445312,4.09765625,2,J1,6.1,90,0,6.529886051371613,[6300|8200|0|0]
23500,0.11592815816402435,0.47770753502845764,-0.08308278024196625,2.5361640453338623,-4.387762546539307,-9.941162109375,4.09765625,2,J1,6.1,90,0,6.531463643437297,[6300|8300|0|0]
23600,0.11547291278839111,0.4784471392631531,-0.08365178853273392,2.515531301498413,-4.373569965362549,-9.931608200073242,4.09765625,2,J1,6.1,90,0,6.532501927218822,[6300|8400|0|0]
23700,0.11545811593532562,0.4783409833908081,-0.08360928297042847,2.528317451477051,-4.358065605163574,-9.935903549194336,4.09765625,2,J1,6.1,90,0,6.532617230032841,[6300|8500|0|0]
23800,0.11485791951417923,0.4789966642856598,-0.0844232589006424,2.5271778106689453,-4.355723857879639,-9.937825202941895,4.09765625,2,J1,6.1,90,0,6.533822514229534,[6300|8600|0|0]
23900,0.11545569449663162,0.4784016013145447,-0.083461694419384,2.5202739238739014,-4.3614325523376465,-9.931857109069824,4.09765625,2,J1,6.1,90,0,6.535101592460471,[6300|8700|0|0]
24000,0.11525392532348633,0.4783990681171417,-0.08343550562858582,2.5225536823272705,-4.352178573608398,-9.931546211242676,4.1015625,2,J1,6.1,90,0,6.535305069901688,[6300|8800|0|0]
24100,0.11636923253536224,0.4771827161312103,-0.0824042335152626,2.5394506454467773,-4.369706153869629,-9.922120094299316,4.1015625,2,J1,6.1,90,0,6.537251077224968,[6300|8900|0|0]
24200,0.11592727154493332,0.4777565598487854,-0.08317353576421738,2.529001235961914,-4.363308906555176,-9.947195053100586,4.09765625,2,J1,6.1,90,0,6.538307700184925,[6300|9000|0|0]
24300,0.11512807756662369,0.47870078682899475,-0.08399587869644165,2.5147266387939453,-4.3464741706848145,-9.957695960998535,4.1015625,2,J1,6.1,90,0,6.539793137327083,[6300|9100|0|0]
24400,0.11563210934400558,0.4780082702636719,-0.08351156860589981,2.5348448753356934,-4.343552112579346,-9.949953079223633,4.1015625,2,J1,6.1,90,0,6.540777100481707,[6300|9200|0|0]
24500,0.11478633433580399,0.4791569709777832,-0.08440781384706497,2.5155532360076904,-4.330086708068848,-9.959528923034668,4.1015625,2,J1,6.1,90,0,6.542461767875411,[6300|9300|0|0]
24600,0.11372403800487518,0.48039159178733826,-0.0861588642001152,2.5213186740875244,-4.329431056976318,-9.942309379577637,4.1015625,2,J1,6.1,90,0,6.544853198279376,[6300|9400|0|0]
24700,0.11512895673513412,0.47887760400772095,-0.08442234992980957,2.5274717807769775,-4.350499629974365,-9.931720733642578,4.1015625,2,J1,6.1,90,0,6.547551612155422,[6300|9500|0|0]
24800,0.1149645522236824,0.47868067026138306,-0.0840105190873146,2.5364818572998047,-4.335785865783691,-9.922497749328613,4.1015625,2,J1,6.1,90,0,6.548036809421142,[6300|9600|0|0]
24900,0.11460239440202713,0.4791976809501648,-0.08481970429420471,2.5238678455352783,-4.353981018066406,-9.95551872253418,4.1015625,2,J1,6.1,90,0,6.5490630837700134,[6300|9700|0|0]
25000,0.11426212638616562,0.4795629382133484,-0.08516545593738556,2.521791458129883,-4.349678993225098,-9.929923057556152,4.1015625,2,J1,6.1,90,0,6.5496703229236335,[6300|9800|0|0]
25100,0.1143375113606453,0.4795566499233246,-0.08472765982151031,2.514577865600586,-4.350897312164307,-9.942950248718262,4.1015625,2,J1,6.1,90,0,6.550114606477284,[6300|9900|0|0]
25200,0.11487603932619095,0.4787585735321045,-0.08451377600431442,2.539686441421509,-4.359375476837158,-9.916860580444336,4.1015625,2,J1,6.1,90,0,6.551100854206385,[6300|10000|0|0]
25300,0.11484353244304657,0.4789215624332428,-0.08447613567113876,2.516970634460449,-4.352797508239746,-9.925296783447266,4.10546875,2,J1,6.1,90,0,6.5512712621698945,[6300|10100|0|0]
25400,0.11452969163656235,0.47941258549690247,-0.0848398357629776,2.512517213821411,-4.35761022567749,-9.927191734313965,4.10546875,2,J1,6.1,90,0,6.551958195541965,[6300|10200|0|0]
25500,0.1156514436006546,0.4782067537307739,-0.08356011658906937,2.5294060707092285,-4.360929012298584,-9.943058967590332,4.10546875,2,J1,6.1,90,0,6.554043870224464,[6300|10300|0|0]
25600,0.11547734588384628,0.47836801409721375,-0.0836431235074997,2.528224468231201,-4.354791641235352,-9.926130294799805,4.10546875,2,J1,6.1,90,0,6.554295276408337,[6300|10400|0|0]
25700,0.11599375307559967,0.4776240289211273,-0.08274834603071213,2.5396780967712402,-4.355260372161865,-9.899267196655273,4.10546875,2,J1,6.1,90,0,6.5555683895466315,[6300|10500|0|0]
25800,0.11503969877958298,0.4788252115249634,-0.08427363634109497,2.5228805541992188,-4.3479390144348145,-9.912301063537598,4.10546875,2,J1,6.1,90,0,6.557731620874635,[6300|10600|0|0]
25900,0.11507227271795273,0.4787091314792633,-0.08403854072093964,2.5184099674224854,-4.342837810516357,-9.928415298461914,4.10546875,2,J1,6.1,90,0,6.557995828348198,[6300|10700|0|0]
26000,0.11526919156312943,0.47869208455085754,-0.08409839868545532,2.5084314346313477,-4.35433292388916,-9.945192337036133,4.10546875,2,J1,6.1,90,0,6.558202348577884,[6300|10800|0|0]
26100,0.1138070672750473,0.4800930321216583,-0.08607989549636841,2.511942148208618,-4.334175109863281,-9.961282730102539,4.10546875,2,J1,6.1,90,0,6.5610355077936,[6300|10900|0|0]
26200,0.11441567540168762,0.4793815016746521,-0.08474095165729523,2.5130672454833984,-4.330920696258545,-9.945171356201172,4.10546875,2,J1,6.1,90,0,6.562669352961607,[6300|11000|0|0]
26300,0.11407367885112762,0.47986161708831787,-0.08522120863199234,2.5041680335998535,-4.339462757110596,-9.955327033996582,4.10546875,2,J1,6.1,90,0,6.563429694472232,[6300|11100|0|0]
26400,0.1143195852637291,0.47942596673965454,-0.08463021367788315,2.5117924213409424,-4.340490818023682,-9.932454109191895,4.10546875,2,J1,6.1,90,0,6.564203991718664,[6300|11200|0|0]
26500,0.11439349502325058,0.4793262481689453,-0.08464569598436356,2.5144853591918945,-4.351090908050537,-9.937188148498535,4.11328125,2,J1,6.1,90,0,6.564329076280903,[6300|11300|0|0]
26600,0.1144934743642807,0.4795081615447998,-0.08480196446180344,2.5056216716766357,-4.3597187995910645,-9.976166725158691,4.11328125,2,J1,6.1,90,0,6.564588899647807,[6300|11400|0|0]
26700,0.11477340757846832,0.47952181100845337,-0.08507087081670761,2.5106124877929688,-4.369535446166992,-9.959016799926758,4.11328125,2,J1,6.1,90,0,6.564977306058633,[6300|11500|0|0]
26800,0.11420439928770065,0.4797722101211548,-0.08512625098228455,2.5211105346679688,-4.338661193847656,-9.945011138916016,4.11328125,2,J1,6.1,90,0,6.565601435142512,[6300|11600|0|0]
26900,0.11496733129024506,0.47883689403533936,-0.08411531150341034,2.536284923553467,-4.3460259437561035,-9.95749568939209,4.11328125,2,J1,6.1,90,0,6.567175881092946,[6300|11700|0|0]
27000,0.11579035967588425,0.47767892479896545,-0.08336044102907181,2.5578181743621826,-4.354579448699951,-9.927030563354492,4.11328125,2,J1,6.1,90,0,6.568784637727426,[6300|11800|0|0]
27100,0.11588922142982483,0.4775884747505188,-0.08307057619094849,2.5396993160247803,-4.353415012359619,-9.95627212524414,4.11328125,2,J1,6.1,90,0,6.569103975294957,[6300|11900|0|0]
27200,0.11555753648281097,0.47825512290000916,-0.08391830325126648,2.519918441772461,-4.363522052764893,-9.937973022460938,4.11328125,2,J1,6.1,90,0,6.570232281914671,[6300|12000|0|0]
27300,0.1147499680519104,0.4790947735309601,-0.0847344622015953,2.5165371894836426,-4.338204860687256,-9.966839790344238,4.11328125,2,J1,6.1,90,0,6.571654707794935,[6300|12100|0|0]
27400,0.11420243233442307,0.47968900203704834,-0.08484411239624023,2.5139291286468506,-4.327181339263916,-9.97950553894043,4.11328125,2,J1,6.1,90,0,6.572470137770199,[6300|12200|0|0]
27500,0.11392270028591156,0.48003795742988586,-0.08532199263572693,2.5188190937042236,-4.3351359367370605,-9.971710205078125,4.11328125,2,J1,6.1,90,0,6.573124652405976,[6300|12300|0|0]
27600,0.11378940939903259,0.48002123832702637,-0.08584719896316528,2.534200668334961,-4.334696292877197,-9.974225044250488,4.11328125,2,J1,6.1,90,0,6.573666766485582,[6300|12400|0|0]
27700,0.11402534693479538,0.47992974519729614,-0.08540533483028412,2.5235044956207275,-4.339244842529297,-9.966302871704102,4.11328125,2,J1,6.1,90,0,6.5741759633291466,[6300|12500|0|0]
27800,0.11508000642061234,0.4788021445274353,-0.0841151773929596,2.540254831314087,-4.354277610778809,-9.951559066772461,4.1171875,2,J1,6.1,90,0,6.576188001130674,[6300|12600|0|0]
27900,0.11548320949077606,0.4784562587738037,-0.08377709239721298,2.5431041717529297,-4.360731601715088,-9.941474914550781,4.11328125,2,J1,6.1,90,0,6.576817692431792,[6300|12700|0|0]
28000,0.11483792215585709,0.4790780544281006,-0.08450336754322052,2.5398764610290527,-4.335431098937988,-9.926704406738281,4.1171875,2,J1,6.1,90,0,6.577971165954686,[6300|12800|0|0]
28100,0.11495561897754669,0.4786546528339386,-0.08401142060756683,2.5481374263763428,-4.331540584564209,-9.916866302490234,4.1171875,2,J1,6.1,90,0,6.578630812253299,[6300|12900|0|0]
28200,0.11495548486709595,0.4787847399711609,-0.08413263410329819,2.538140058517456,-4.335065841674805,-9.932498931884766,4.1171875,2,J1,6.1,90,0,6.578808619432017,[6300|13000|0|0]
28300,0.11437086760997772,0.4794260561466217,-0.08474935591220856,2.5344419479370117,-4.316137790679932,-9.92893123626709,4.1171875,2,J1,6.1,90,0,6.579873236529294,[6300|13100|0|0]
28400,0.1146991029381752,0.4790968596935272,-0.08461644500494003,2.5503060817718506,-4.333976745605469,-9.931970596313477,4.1171875,2,J1,6.1,90,0,6.5803567383852135,[6300|13200|0|0]
28500,0.11630605161190033,0.4772174656391144,-0.08243056386709213,2.559699296951294,-4.351681709289551,-9.953716278076172,4.1171875,2,J1,6.1,90,0,6.583657114485077,[6300|13300|0|0]
28600,0.11667721718549728,0.4769211709499359,-0.082306407392025,2.5591981410980225,-4.364809513092041,-9.923582077026367,4.1171875,2,J1,6.1,90,0,6.58414800067979,[6300|13400|0|0]
28700,0.11593303084373474,0.4778210520744324,-0.0830259844660759,2.546616792678833,-4.344142436981201,-9.925007820129395,4.1171875,2,J1,6.1,90,0,6.5855196385747865,[6300|13500|0|0]
28800,0.11602076888084412,0.47772714495658875,-0.0829600915312767,2.54494309425354,-4.3480753898620605,-9.924370765686035,4.1171875,2,J1,6.1,90,0,6.585664062910665,[6300|13600|0|0]
28900,0.11590642482042313,0.47756651043891907,-0.08300184458494186,2.5584001541137695,-4.339901447296143,-9.934154510498047,4.1171875,2,J1,6.1,90,0,6.585865610249796,[6300|13700|0|0]
29000,0.11600344628095627,0.4775333106517792,-0.08316176384687424,2.5491011142730713,-4.350917339324951,-9.941338539123535,4.1171875,2,J1,6.1,90,0,6.586055582774144,[6300|13800|0|0]
29100,0.1159730926156044,0.4779449701309204,-0.08322706818580627,2.5290517807006836,-4.3498854637146,-9.94424819946289,4.12109375,2,J1,6.1,90,0,6.586473493683848,[6300|13900|0|0]
29200,0.11543934047222137,0.4782964289188385,-0.08362577110528946,2.536134958267212,-4.331271171569824,-9.92437744140625,4.12109375,2,J1,6.1,90,0,6.587226739094173,[6300|14000|0|0]
29300,0.11548367887735367,0.4782502353191376,-0.08354642242193222,2.531425714492798,-4.334818363189697,-9.947148323059082,4.12109375,2,J1,6.1,90,0,6.587328699657007,[6300|14100|0|0]
29400,0.11512511968612671,0.4787093698978424,-0.08400120586156845,2.5177881717681885,-4.331793308258057,-9.95305347442627,4.12109375,2,J1,6.1,90,0,6.588067751232977,[6300|14200|0|0]
29500,0.11494402587413788,0.47897645831108093,-0.08431196212768555,2.5079407691955566,-4.330507278442383,-9.965691566467285,4.12109375,2,J1,6.1,90,0,6.588515747489834,[6300|14300|0|0]
29600,0.11565715819597244,0.47806236147880554,-0.08348101377487183,2.528550863265991,-4.3388166427612305,-9.965887069702148,4.12109375,2,J1,6.1,90,0,6.589942143610224,[6300|14400|0|0]
29700,0.11549992114305496,0.4781832695007324,-0.083701491355896,2.5308544635772705,-4.332444667816162,-9.952719688415527,4.12109375,2,J1,6.1,90,0,6.59023871165353,[6300|14500|0|0]
29800,0.115437813103199,0.47854962944984436,-0.08392230421304703,2.5100643634796143,-4.3303399085998535,-9.929706573486328,4.12109375,2,J1,6.1,90,0,6.590670956189426,[6300|14600|0|0]
29900,0.11476557701826096,0.47918006777763367,-0.08442670851945877,2.5168418884277344,-4.316608428955078,-9.937850952148438,4.12109375,2,J1,6.1,90,0,6.591721564367275,[6300|14700|0|0]
30000,0.11487732082605362,0.4789537787437439,-0.08438137173652649,2.5250511169433594,-4.325373649597168,-9.934532165527344,4.12109375,2,J1,6.1,90,0,6.591977979712614,[6300|14800|0|0]
30100,0.11497379839420319,0.47861260175704956,-0.08401721715927124,2.532160997390747,-4.323736190795898,-9.931791305541992,4.12109375,2,J1,6.1,90,0,6.592486229861204,[6300|14900|0|0]
30200,0.11533422768115997,0.47847503423690796,-0.08380614966154099,2.52695631980896,-4.3484721183776855,-9.94277572631836,4.12109375,2,J1,6.1,90,0,6.592925983862996,[6300|15000|0|0]
30300,0.11466258764266968,0.47897040843963623,-0.0842585489153862,2.539722204208374,-4.333209037780762,-9.959299087524414,4.12109375,2,J1,6.1,90,0,6.593875278878738,[6300|15100|0|0]
30400,0.11393021047115326,0.4799058139324188,-0.08524390310049057,2.5193026065826416,-4.329346656799316,-9.964583396911621,4.12109375,2,J1,6.1,90,0,6.595418743367279,[6300|15200|0|0]
30500,0.11407483369112015,0.47978243231773376,-0.08540832996368408,2.525527238845825,-4.338283061981201,-9.960670471191406,4.12109375,2,J1,6.1,90,0,6.595670089924717,[6300|15300|0|0]
30600,0.1140977144241333,0.4799676239490509,-0.08554209023714066,2.527738332748413,-4.335861682891846,-9.952288627624512,4.12109375,2,J1,6.1,90,0,6.595899679295133,[6300|15400|0|0]
30700,0.11482470482587814,0.4788457155227661,-0.08423783630132675,2.5481443405151367,-4.32894229888916,-9.949416160583496,4.12109375,2,J1,6.1,90,0,6.597767370889129,[6300|15500|0|0]
30800,0.11602403223514557,0.47731274366378784,-0.08250951766967773,2.556952953338623,-4.3384833335876465,-9.935235023498535,4.12109375,2,J1,6.1,90,0,6.600370345004933,[6300|15600|0|0]
30900,0.11533000320196152,0.4784199595451355,-0.0839182510972023,2.5252292156219482,-4.358645915985107,-9.956010818481445,4.12109375,2,J1,6.1,90,0,6.6022918374396395,[6300|15700|0|0]
31000,0.11477283388376236,0.47864580154418945,-0.08410999923944473,2.5374042987823486,-4.335756301879883,-9.924270629882812,4.12109375,2,J1,6.1,90,0,6.602922875954892,[6300|15800|0|0]
31100,0.11439577490091324,0.47953206300735474,-0.08493728190660477,2.507876396179199,-4.353915214538574,-9.91568374633789,4.12890625,2,J1,6.1,90,0,6.604192533179903,[6300|15900|0|0]
31200,0.1143570989370346,0.4796121120452881,-0.08533020317554474,2.518474817276001,-4.34614372253418,-9.908529281616211,4.12890625,2,J1,6.1,90,0,6.604595386505869,[6300|16000|0|0]
31300,0.1147812232375145,0.47904640436172485,-0.0845843181014061,2.5245702266693115,-4.3473334312438965,-9.908053398132324,4.12890625,2,J1,6.1,90,0,6.605623127304574,[6300|16100|0|0]
31400,0.11385881900787354,0.4799320101737976,-0.08571455627679825,2.5128872394561768,-4.334970951080322,-9.932551383972168,4.12890625,2,J1,6.1,90,0,6.6073297513259535,[6300|16200|0|0]
31500,0.11505898088216782,0.4787083566188812,-0.08419079333543777,2.5108327865600586,-4.35910701751709,-9.933550834655762,4.12890625,2,J1,6.1,90,0,6.609623126578378,[6300|16300|0|0]
31600,0.11547347158193588,0.4782961905002594,-0.0838911160826683,2.5165176391601562,-4.3601765632629395,-9.952299118041992,4.12890625,2,J1,6.1,90,0,6.61028000549063,[6300|16400|0|0]
31700,0.11458651721477509,0.47920653223991394,-0.08488557487726212,2.5176193714141846,-4.3455400466918945,-9.954214096069336,4.12890625,2,J1,6.1,90,0,6.6118938079650755,[6300|16500|0|0]
31800,0.1142190545797348,0.4796191453933716,-0.08513722568750381,2.5144150257110596,-4.324019432067871,-9.949020385742188,4.12890625,2,J1,6.1,90,0,6.612500937714678,[6300|16600|0|0]
31900,0.11418800801038742,0.47985759377479553,-0.08538772910833359,2.5067152976989746,-4.3366498947143555,-9.950026512145996,4.12890625,2,J1,6.1,90,0,6.6128481746423216,[6300|16700|0|0]
32000,0.11406166851520538,0.47970640659332275,-0.08506844192743301,2.5218608379364014,-4.320286273956299,-9.939974784851074,4.12890625,2,J1,6.1,90,0,6.613223359311214,[6300|16800|0|0]
32100,0.11488330364227295,0.47896575927734375,-0.08439630270004272,2.5329229831695557,-4.337381839752197,-9.944210052490234,4.12890625,2,J1,6.1,90,0,6.614517737103705,[6300|16900|0|0]
32200,0.11486656218767166,0.47878044843673706,-0.08425574749708176,2.548614501953125,-4.327415943145752,-9.942099571228027,4.12890625,2,J1,6.1,90,0,6.614750924043794,[6300|17000|0|0]
32300,0.11544107645750046,0.4781889319419861,-0.08346226066350937,2.5362985134124756,-4.335173606872559,-9.970648765563965,4.12890625,2,J1,6.1,90,0,6.615895292762718,[6300|17100|0|0]
32400,0.11598190665245056,0.4777858555316925,-0.08317507058382034,2.5317845344543457,-4.3507399559021,-9.972363471984863,4.12890625,2,J1,6.1,90,0,6.616628399872339,[6300|17200|0|0]
