,time.ms,stateEstimate.x,stateEstimate.y,stateEstimate.z,stabilizer.roll,stabilizer.pitch,stabilizer.yaw,pm.vbat,drone_id,node_name,wind_speed,global_wind_direction,relative_wind_direction,travel_dist,waiting_time
0,0,1.6908286809921265,1.168342113494873,0.0,-0.2834071516990661,-0.3991639316082001,171.1481170654297,4.1171875,0,A1,6.1,0,450.0,0.0,[6200|0|0|0]
1,100,1.690820336341858,1.1684226989746094,0.0,-0.2780013084411621,-0.3978832066059112,171.0867919921875,4.1171875,0,A1,6.1,0,450.0,8.101637323676394e-05,[6300|0|0|0]
2,200,1.6906527280807495,1.168086290359497,0.0,-0.286586582660675,-0.3985360860824585,171.0387420654297,4.11328125,0,A1,6.1,0,450.0,0.0004568664570648,[6400|0|0|0]
3,300,1.6905332803726196,1.1683505773544312,0.0,-0.2823900282382965,-0.3988783359527588,171.0050048828125,4.1171875,0,A1,6.1,0,450.0,0.0007468929570071,[6500|0|0|0]
4,400,1.6908046007156372,1.1683416366577148,0.0,-0.2866077423095703,-0.3906337022781372,170.9819793701172,4.11328125,0,A1,6.1,0,450.0,0.0010183605694269,[6600|0|0|0]
5,500,1.6908401250839231,1.168554663658142,0.0,-0.279407650232315,-0.3887128233909607,170.96200561523438,4.1171875,0,A1,6.1,0,450.0,0.0012343292793206,[6700|0|0|0]
6,600,1.6905659437179563,1.1681952476501465,0.0,-0.2860872745513916,-0.3941377103328705,170.95249938964844,4.1171875,0,A1,6.1,0,450.0,0.0016863860105468,[6800|0|0|0]
7,700,1.6905211210250854,1.1685515642166138,0.0,-0.2750048041343689,-0.3954311609268188,170.9438018798828,4.1171875,0,A1,6.1,0,450.0,0.0020455107372578,[6900|0|0|0]
8,800,1.6911604404449463,1.1681139469146729,0.0,-0.2733715772628784,-0.3823343515396118,171.0472412109375,4.1171875,0,A1,6.1,0,450.0,0.0028202611638916,[7000|0|0|0]
9,900,1.6909233331680298,1.1678409576416016,0.0,-0.2852689623832702,-0.3964974880218506,171.02023315429688,4.11328125,0,A1,6.1,0,450.0,0.0031818451845268,[7100|0|0|0]
10,1000,1.6909478902816772,1.1679551601409912,0.0,-0.2783709466457367,-0.3991258144378662,171.00233459472656,4.1171875,0,A1,6.1,0,450.0,0.00329865812344,[7200|0|0|0]
11,1100,1.6903406381607056,1.167782425880432,0.0,-0.2858102023601532,-0.414532333612442,170.99864196777344,4.11328125,0,A1,6.1,0,450.0,0.0039299997609039,[7300|0|0|0]
12,1200,1.690913200378418,1.1681559085845947,0.0,-0.2747161090373993,-0.395032525062561,170.97781372070312,4.1171875,0,A1,6.1,0,450.0,0.0046136055123868,[7400|0|0|0]
13,1300,1.6909104585647583,1.1679610013961792,0.0,-0.2791980504989624,-0.3926789164543152,170.96429443359375,4.1171875,0,A1,6.1,0,450.0,0.0048085319847763,[7500|0|0|0]
14,1400,1.691093921661377,1.1682958602905271,0.0,-0.271409809589386,-0.3918173015117645,170.97100830078125,4.11328125,0,A1,6.1,0,450.0,0.0051903554871236,[7600|0|0|0]
15,1500,1.690862059593201,1.1680587530136108,0.0,-0.2797674238681793,-0.388119101524353,171.00540161132812,4.1171875,0,A1,6.1,0,450.0,0.0055219876318647,[7700|0|0|0]
16,1600,1.690985918045044,1.1683515310287476,0.0,-0.2721120417118072,-0.385426253080368,171.01609802246094,4.1171875,0,A1,6.1,0,450.0,0.0058398868017918,[7800|0|0|0]
17,1700,1.6908191442489624,1.1679569482803345,0.0,-0.2894694805145263,-0.3918591737747192,171.030029296875,4.11328125,0,A1,6.1,0,450.0,0.0062682663582656,[7900|0|0|0]
18,1800,1.6908845901489258,1.1682212352752686,0.0,-0.2854903638362884,-0.3912795484066009,171.0128631591797,4.1171875,0,A1,6.1,0,450.0,0.0065405360435287,[8000|0|0|0]
19,1900,1.6905419826507568,1.1678727865219116,0.0,-0.2969556450843811,-0.4022364914417267,171.01605224609375,4.11328125,0,A1,6.1,0,450.0,0.0070292040612233,[8100|0|0|0]
20,2000,1.690972924232483,1.1680583953857422,0.0,-0.2888037264347076,-0.3902030289173126,171.00860595703125,4.11328125,0,A1,6.1,0,450.0,0.0074984175490868,[8200|0|0|0]
21,2100,1.6906887292861938,1.167686104774475,0.0,-0.2929535806179046,-0.3931393325328827,170.9788360595703,4.1171875,0,A1,6.1,0,450.0,0.0079667839299618,[8300|0|0|0]
22,2200,1.6907234191894531,1.1679078340530396,0.0,-0.2843588888645172,-0.3957832157611847,170.97796630859375,4.1171875,0,A1,6.1,0,450.0,0.0081912104488067,[8400|0|0|0]
23,2300,1.6905606985092163,1.1677440404891968,0.0,-0.2927104234695434,-0.3961557447910309,171.00399780273438,4.11328125,0,A1,6.1,0,450.0,0.0084220921313479,[8500|0|0|0]
24,2400,1.6906825304031372,1.1677600145339966,0.0,-0.2901088297367096,-0.3943770825862884,170.99728393554688,4.11328125,0,A1,6.1,0,450.0,0.0085449667848921,[8600|0|0|0]
25,2500,1.69079852104187,1.1679767370224,0.0,-0.2856771051883697,-0.396066814661026,171.01145935058594,4.1171875,0,A1,6.1,0,450.0,0.0087907766001017,[8700|0|0|0]
26,2600,1.6910364627838137,1.1679646968841553,0.0,-0.2851077914237976,-0.3970546722412109,171.00112915039062,4.11328125,0,A1,6.1,0,450.0,0.0090290227700356,[8800|0|0|0]
27,2700,1.6909204721450806,1.1681543588638306,0.0,-0.2792573571205139,-0.3981624543666839,171.01409912109375,4.11328125,0,A1,6.1,0,450.0,0.0092513412236288,[8900|0|0|0]
28,2800,1.691171646118164,1.1679260730743408,0.0,-0.2830401360988617,-0.3918497264385223,171.01515197753906,4.1171875,0,A1,6.1,0,450.0,0.0095907565539212,[9000|0|0|0]
29,2900,1.6908358335494995,1.1680452823638916,0.0,-0.2860090732574463,-0.4019190073013305,171.00942993164062,4.11328125,0,A1,6.1,0,450.0,0.0099471003990881,[9100|0|0|0]
30,3000,1.6906085014343262,1.167714238166809,0.0,-0.2996013462543487,-0.4083723723888397,171.0066680908203,4.1171875,0,A1,6.1,0,450.0,0.0103486849493526,[9200|0|0|0]
31,3100,1.6912235021591189,1.1679401397705078,0.0,-0.2906950116157532,-0.3923866152763366,170.99842834472656,4.1171875,0,A1,6.1,0,450.0,0.0110038623497941,[9300|0|0|0]
32,3200,1.691070795059204,1.1675891876220703,0.0,-0.3014643788337707,-0.3942491114139557,170.99307250976562,4.11328125,0,A1,6.1,0,450.0,0.0113865983800516,[9400|0|0|0]
33,3300,1.6908249855041504,1.1679706573486328,0.0,-0.2897967994213104,-0.3997463881969452,171.01417541503906,4.1171875,0,A1,6.1,0,450.0,0.0118404061473269,[9500|0|0|0]
34,3400,1.690493941307068,1.1676989793777466,0.0,-0.2997328639030456,-0.4088850915431976,171.02548217773438,4.11328125,0,A1,6.1,0,450.0,0.0122686574523882,[9600|0|0|0]
35,3500,1.6908776760101318,1.1680916547775269,0.0,-0.2869038581848144,-0.4003349542617798,171.0405731201172,4.11328125,0,A1,6.1,0,450.0,0.0128176987003177,[9700|0|0|0]
36,3600,1.6909868717193604,1.1678086519241333,0.0,-0.2970610558986664,-0.3981525301933288,171.04237365722656,4.1171875,0,A1,6.1,0,450.0,0.0131210373195913,[9800|0|0|0]
37,3700,1.6908128261566162,1.1677125692367554,0.0,-0.2957828342914581,-0.402367889881134,171.04550170898438,4.1171875,0,A1,6.1,0,450.0,0.013319843106038,[9900|0|0|0]
38,3800,1.690838098526001,1.1680877208709717,0.0,-0.2848831415176391,-0.4009445011615753,171.0449676513672,4.11328125,0,A1,6.1,0,450.0,0.0136958450226681,[10000|0|0|0]
39,3900,1.6907294988632202,1.1680076122283936,0.0,-0.2923301160335541,-0.4013330042362213,171.03433227539062,4.11328125,0,A1,6.1,0,450.0,0.0138307942033688,[10100|0|0|0]
40,4000,1.69073224067688,1.167962908744812,0.0,-0.303767591714859,-0.4009930789470672,171.03407287597656,4.1171875,0,A1,6.1,0,450.0,0.0138755816903096,[10200|0|0|0]
41,4100,1.6908057928085327,1.1678733825683594,0.0,-0.3059650063514709,-0.3982088565826416,171.0280303955078,4.11328125,0,A1,6.1,0,450.0,0.0139914473553743,[10300|0|0|0]
42,4200,1.690823316574097,1.1677623987197876,0.0,-0.3063749074935913,-0.3944756686687469,171.0210723876953,4.1171875,0,A1,6.1,0,450.0,0.0141038061423175,[10400|0|0|0]
43,4300,1.6907200813293457,1.168132185935974,0.0,-0.2934727668762207,-0.3948900103569031,171.0028533935547,4.1171875,0,A1,6.1,0,450.0,0.0144877333502797,[10500|0|0|0]
44,4400,1.691090106964111,1.1678098440170288,0.0,-0.3015303313732147,-0.3884437978267669,170.9668731689453,4.11328125,0,A1,6.1,0,450.0,0.0149784708392621,[10600|0|0|0]
45,4500,1.6907739639282229,1.167659044265747,0.0,-0.3034450709819793,-0.3932597637176513,170.9788055419922,4.1171875,0,A1,6.1,0,450.0,0.0153287378575885,[10700|0|0|0]
46,4600,1.6909871101379397,1.1681468486785889,0.0,-0.298237532377243,-0.3985813558101654,170.97528076171875,4.1171875,0,A1,6.1,0,450.0,0.0158610765203818,[10800|0|0|0]
47,4700,1.6908094882965088,1.1675686836242676,0.0,-0.319574624300003,-0.4013174772262573,170.98590087890625,4.1171875,0,A1,6.1,0,450.0,0.016465910670039,[10900|0|0|0]
48,4800,1.690821886062622,1.1675480604171753,0.0,-0.3127211928367615,-0.4067278504371643,170.96888732910156,4.11328125,0,A1,6.1,0,450.0,0.0164899735309531,[11000|0|0|0]
49,4900,1.6906622648239136,1.1676161289215088,0.0,-0.3088369965553283,-0.4112104773521423,170.98057556152344,4.11328125,0,A1,6.1,0,450.0,0.0166635023790708,[11100|0|0|0]
50,5000,1.6910698413848877,1.168066382408142,0.0,-0.2982776761054992,-0.3998838365077972,170.9678497314453,4.1171875,0,A1,6.1,0,450.0,0.0172708300132856,[11200|0|0|0]
51,5100,1.6910866498947144,1.167911410331726,0.0,-0.304496020078659,-0.4020318686962127,170.98951721191406,4.11328125,0,A1,6.1,0,450.0,0.0174267109629596,[11300|0|0|0]
52,5200,1.6908267736434937,1.1677266359329224,0.0,-0.3074853122234344,-0.4052814245223999,170.9609832763672,4.1171875,0,A1,6.1,0,450.0,0.0177455796575689,[11400|0|0|0]
53,5300,1.690812587738037,1.1679253578186035,0.0,-0.3047136068344116,-0.4118632078170776,170.94456481933594,4.11328125,0,A1,6.1,0,450.0,0.0179448072353845,[11500|0|0|0]
54,5400,1.690861701965332,1.1676939725875854,0.0,-0.3086034655570984,-0.4046419858932495,170.9674530029297,4.11328125,0,A1,6.1,0,450.0,0.018181347575403,[11600|0|0|0]
55,5500,1.6906646490097046,1.1679563522338867,0.0,-0.3013225495815277,-0.4092453718185425,170.97982788085938,4.11328125,0,A1,6.1,0,450.0,0.0185094831359792,[11700|0|0|0]
56,5600,1.690849781036377,1.1677906513214111,0.0,-0.3011548817157745,-0.4003757834434509,170.97023010253906,4.11328125,0,A1,6.1,0,450.0,0.0187579396909241,[11800|0|0|0]
57,5700,1.6908241510391235,1.1681638956069946,0.0,-0.2943966686725616,-0.4000270962715149,170.9924774169922,4.11328125,0,A1,6.1,0,450.0,0.0191320629239369,[11900|0|0|0]
58,5800,1.6908342838287354,1.1679943799972534,0.0,-0.2982256114482879,-0.398915946483612,171.0155792236328,4.11328125,0,A1,6.1,0,450.0,0.0193018811072131,[12000|0|0|0]
59,5900,1.6910518407821655,1.1680185794830322,0.0,-0.2972716987133026,-0.3931525647640228,171.02926635742188,4.11328125,0,A1,6.1,0,450.0,0.0195207798123207,[12100|0|0|0]
60,6000,1.6910994052886963,1.168049931526184,0.0,-0.2923718988895416,-0.3951883614063263,171.03504943847656,4.11328125,0,A1,6.1,0,450.0,0.0195777476356187,[12200|0|0|0]
61,6100,1.6907963752746582,1.1678396463394165,0.0,-0.3009409606456756,-0.398785263299942,171.0281524658203,4.1171875,0,A1,6.1,0,450.0,0.0199465931983978,[12300|0|0|0]
62,6200,1.6911108493804932,1.1678375005722046,0.0,-0.3007108867168426,-0.3898411095142364,171.01087951660156,4.11328125,0,A1,6.1,0,450.0,0.020261074624809,[12400|0|0|0]
63,6300,1.6909488439559937,1.1678677797317505,0.0,-0.2950414717197418,-0.3911070227622986,171.0427703857422,4.11328125,0,A1,6.1,0,450.0,0.0204258853801318,[12500|0|0|0]
64,6400,1.6906509399414062,1.168083429336548,0.0,-0.2922241389751434,-0.3939933478832245,171.0576934814453,4.11328125,0,A1,6.1,0,450.0,0.0207936510038062,[12600|0|0|0]
65,6500,1.6911728382110596,1.1680781841278076,0.0,-0.2916194498538971,-0.3758571743965149,171.06527709960938,4.11328125,0,A1,6.1,0,450.0,0.0213155756306269,[12700|0|0|0]
66,6600,1.690890908241272,1.1677075624465942,0.0,-0.2987110912799835,-0.3776014447212219,171.0847625732422,4.11328125,0,A1,6.1,0,450.0,0.0217812417539919,[12800|0|0|0]
67,6700,1.6908718347549438,1.1680598258972168,0.0,-0.2911623418331146,-0.3727087676525116,171.12857055664062,4.11328125,0,A1,6.1,0,450.0,0.0221340211985819,[12900|0|0|0]
68,6800,1.6910189390182495,1.1679718494415283,0.0,-0.2910845875740051,-0.3675135672092438,171.11119079589844,4.11328125,0,A1,6.1,0,450.0,0.0223054257523085,[13000|0|0|0]
69,6900,1.6904194355010986,1.1679866313934326,0.0,-0.2942607998847961,-0.3859297037124634,171.0984649658203,4.11328125,0,A1,6.1,0,450.0,0.0229051114809851,[13100|0|0|0]
70,7000,1.6910912990570068,1.1680879592895508,0.0,-0.2856793403625488,-0.3687537014484405,171.09739685058594,4.11328125,0,A1,6.1,0,450.0,0.0235845730180049,[13200|0|0|0]
71,7100,1.690950870513916,1.1681698560714722,0.0,-0.2803696393966675,-0.3808457255363464,171.0873565673828,4.11328125,0,A1,6.1,0,450.0,0.0237471376470104,[13300|0|0|0]
72,7200,1.690897822380066,1.1679348945617676,0.0,-0.2840323448181152,-0.379883736371994,171.1088104248047,4.11328125,0,A1,6.1,0,450.0,0.0239880131657906,[13400|0|0|0]
73,7300,1.690950632095337,1.1678234338760376,0.0,-0.2827554047107696,-0.3808004558086395,171.1181182861328,4.11328125,0,A1,6.1,0,450.0,0.0241113515235322,[13500|0|0|0]
74,7400,1.6908655166625977,1.1676621437072754,0.0,-0.2881707549095154,-0.3920386433601379,171.1489715576172,4.11328125,0,A1,6.1,0,450.0,0.0242937224516697,[13600|0|0|0]
75,7500,1.6908024549484253,1.1678985357284546,0.0,-0.2853373885154724,-0.3975774943828583,171.16964721679688,4.11328125,0,A1,6.1,0,450.0,0.0245383813314831,[13700|0|0|0]
76,7600,1.690918207168579,1.1681318283081057,0.0,-0.284924566745758,-0.3938581347465515,171.17665100097656,4.11328125,0,A1,6.1,0,450.0,0.0247988117524996,[13800|0|0|0]
77,7700,1.6906954050064087,1.1678268909454346,0.0,-0.2988966703414917,-0.4012090265750885,171.1632537841797,4.11328125,0,A1,6.1,0,450.0,0.025176472444948,[13900|0|0|0]
78,7800,1.690809965133667,1.1677968502044678,0.0,-0.3015438318252563,-0.4002208411693573,171.1376495361328,4.11328125,0,A1,6.1,0,450.0,0.0252949058392052,[14000|0|0|0]
79,7900,1.6911851167678833,1.1678613424301147,0.0,-0.2964587807655334,-0.3890635967254638,171.14590454101562,4.11328125,0,A1,6.1,0,450.0,0.0256755605328897,[14100|0|0|0]
80,8000,1.6907846927642822,1.168122172355652,0.0,-0.2880724370479584,-0.4059742093086242,171.16603088378906,4.11328125,0,A1,6.1,0,450.0,0.0261534429794346,[14200|0|0|0]
81,8100,1.6905447244644165,1.1680177450180054,0.0,-0.2924304902553558,-0.4050225913524627,171.18112182617188,4.11328125,0,A1,6.1,0,450.0,0.026415148641942,[14300|0|0|0]
82,8200,1.6909630298614502,1.1678787469863892,0.0,-0.2965650558471679,-0.3877931237220764,171.18577575683594,4.11328125,0,A1,6.1,0,450.0,0.026855943217658,[14400|0|0|0]
83,8300,1.6910945177078247,1.1680752038955688,0.0,-0.2933410406112671,-0.3847116827964782,171.17819213867188,4.11328125,0,A1,6.1,0,450.0,0.0270923419716916,[14500|0|0|0]
84,8400,1.690818190574646,1.167655348777771,0.0,-0.3085628151893616,-0.3897278308868408,171.1766815185547,4.11328125,0,A1,6.1,0,450.0,0.0275949700692666,[14600|0|0|0]
85,8500,1.6908037662506104,1.1682119369506836,0.0,-0.2978670597076416,-0.3882484436035156,171.1741180419922,4.11328125,0,A1,6.1,0,450.0,0.0281517451184113,[14700|0|0|0]
86,8600,1.6909977197647097,1.1680573225021362,0.0,-0.3075081408023834,-0.3850308060646057,171.1671142578125,4.11328125,0,A1,6.1,0,450.0,0.0283997846179493,[14800|0|0|0]
87,8700,1.6911780834197998,1.1680355072021484,0.0,-0.3076304793357849,-0.3835053145885467,171.19384765625,4.11328125,0,A1,6.1,0,450.0,0.0285814627822702,[14900|0|0|0]
88,8800,1.6908187866210938,1.1675225496292114,0.0,-0.2208882868289947,-0.3630236089229584,171.28924560546875,4.11328125,0,A1,6.1,0,450.0,0.0292077372118886,[15000|0|0|0]
89,8900,1.6906304359436035,1.1677427291870115,0.0,-0.2361155450344085,-0.3739998340606689,171.30001831054688,4.11328125,0,A1,6.1,0,450.0,0.0294974871305842,[15100|0|0|0]
90,9000,1.6910781860351562,1.167364239692688,0.0,-0.2498993724584579,-0.3646541535854339,171.26431274414062,4.11328125,0,A1,6.1,0,450.0,0.0300837758323334,[15200|0|0|0]
91,9100,1.6908223628997805,1.167577862739563,0.0,-0.2501727044582367,-0.3721940517425537,171.275146484375,4.11328125,0,A1,6.1,0,450.0,0.0304170629199165,[15300|0|0|0]
92,9200,1.6907697916030884,1.1676377058029177,0.0,-0.2501377761363983,-0.3779321908950805,171.27198791503906,4.11328125,0,A1,6.1,0,450.0,0.0304967180105734,[15400|0|0|0]
93,9300,1.6907371282577517,1.1676206588745115,0.0,-0.2684208154678345,-0.3796487748622894,171.28968811035156,4.11328125,0,A1,6.1,0,450.0,0.0305335621674598,[15500|0|0|0]
94,9400,1.690669059753418,1.167807698249817,0.0,-0.2685778439044952,-0.3881204128265381,171.2814483642578,4.11328125,0,A1,6.1,0,450.0,0.0307326024879903,[15600|0|0|0]
95,9500,1.691067814826965,1.167378067970276,0.0,-0.2831180095672607,-0.3742002844810486,171.3133544921875,4.11328125,0,A1,6.1,0,450.0,0.0313187661048908,[15700|0|0|0]
96,9600,1.6906758546829224,1.1676080226898191,0.0,-0.2812217772006988,-0.3879580497741699,171.3370819091797,4.11328125,0,A1,6.1,0,450.0,0.0317732019392592,[15800|0|0|0]
97,9700,1.6909778118133545,1.1676915884017944,0.0,-0.2811710238456726,-0.3803945183753967,171.331787109375,4.11328125,0,A1,6.1,0,450.0,0.0320865090359499,[15900|0|0|0]
98,9800,1.6905677318572998,1.168022394180298,0.0,-0.2654726207256317,-0.3882282376289367,171.305908203125,4.11328125,0,A1,6.1,0,450.0,0.0326133847646082,[16000|0|0|0]
99,9900,1.6894185543060305,1.1706587076187134,0.0,-0.2694984674453735,-0.3782036602497101,170.6485595703125,4.11328125,0,A1,6.1,0,450.0,0.0354892772504133,[16100|0|0|0]
100,10000,1.6878209114074707,1.171037673950195,0.0,-0.443123459815979,-0.3360208570957184,170.00927734375,4.1171875,0,A1,6.1,0,450.0,0.0371312511575493,[16200|0|0|0]
101,10100,1.692996621131897,1.1697086095809937,0.0,-0.4692982137203216,-0.1808785200119018,169.9116973876953,4.11328125,0,A1,6.1,0,450.0,0.0424748813140067,[16300|0|0|0]
102,10200,1.6917513608932495,1.1671196222305298,0.0,-0.4514035582542419,-0.3316983580589294,170.2613067626953,4.11328125,0,A1,6.1,0,450.0,0.0453477768155553,[16400|0|0|0]
103,10300,1.6912153959274292,1.167470932006836,0.0,-0.3553312122821808,-0.3831717371940613,170.68704223632812,4.11328125,0,A1,6.1,0,450.0,0.0459886176721766,[16500|0|0|0]
104,10400,1.690977931022644,1.1670972108840942,0.0,-0.2981962859630584,-0.4185311198234558,170.92787170410156,4.11328125,0,A1,6.1,0,450.0,0.0464314009810173,[16600|0|0|0]
105,10500,1.6907446384429932,1.1674197912216189,0.0,-0.2394541949033737,-0.4429844915866852,171.08560180664062,4.11328125,0,A1,6.1,0,450.0,0.0468295008452193,[16700|0|0|0]
106,10600,1.68784761428833,1.1643662452697754,0.0,-0.3525956869125366,-0.5359998345375061,171.14456176757812,4.11328125,0,A1,6.1,0,450.0,0.0510386446812887,[16800|0|0|0]
107,10700,1.6876493692398071,1.1644525527954102,0.0,-0.2784697413444519,-0.5094380378723145,171.1880340576172,4.11328125,0,A1,6.1,0,450.0,0.0512548623684585,[16900|0|0|0]
108,10800,1.6878925561904907,1.164580464363098,0.0,-0.2853602170944214,-0.5085456371307373,171.2489776611328,4.11328125,0,A1,6.1,0,450.0,0.0515296372984123,[17000|0|0|0]
109,10900,1.6874938011169434,1.1647834777832031,0.0,-0.2433528304100036,-0.4930303394794464,171.30624389648438,4.11328125,0,A1,6.1,0,450.0,0.0519770968579511,[17100|0|0|0]
110,11000,1.687667727470398,1.1645148992538452,0.0,-0.2711589634418487,-0.4898050725460052,171.33335876464844,4.11328125,0,A1,6.1,0,450.0,0.0522970731115357,[17200|0|0|0]
111,11100,1.6877152919769287,1.164750099182129,0.0,-0.2795760333538055,-0.4985691606998443,171.32485961914062,4.11328125,0,A1,6.1,0,450.0,0.0525370343345409,[17300|0|0|0]
112,11200,1.6876928806304932,1.1643877029418943,0.0,-0.3012153804302215,-0.5028029084205627,171.33563232421875,4.11328125,0,A1,6.1,0,450.0,0.0529001228958937,[17400|0|0|0]
113,11300,1.6878764629364014,1.1645183563232422,0.0,-0.3145294487476349,-0.5009413957595825,171.31678771972656,4.11328125,0,A1,6.1,0,450.0,0.0531254510323974,[17500|0|0|0]
114,11400,1.6874268054962158,1.1647439002990725,0.0,-0.3429957032203674,-0.5053678154945374,171.31375122070312,4.11328125,0,A1,6.1,0,450.0,0.0536285036126984,[17600|0|0|0]
115,11500,1.687239170074463,1.165096640586853,0.0,-0.3544563353061676,-0.5058576464653015,171.31484985351562,4.11328125,0,A1,6.1,0,450.0,0.05402804430164,[17700|0|0|0]
116,11601,1.6873490810394287,1.164846658706665,0.0,-0.3856264948844909,-0.493997186422348,171.3095703125,4.11328125,0,A1,6.1,0,450.0,0.0543011218742124,[17800|0|0|0]
117,11701,1.6873557567596436,1.164872169494629,0.0,-0.396213173866272,-0.4857073724269867,171.2944793701172,4.11328125,0,A1,6.1,0,450.0,0.0543274916588707,[17900|0|0|0]
118,11801,1.6875637769699097,1.1644922494888306,0.0,-0.4106531143188476,-0.4752490222454071,171.30096435546875,4.11328125,0,A1,6.1,0,450.0,0.0547606332277428,[18000|0|0|0]
119,11901,1.6880604028701782,1.164575219154358,0.0,-0.4098707437515259,-0.4782114923000335,171.41650390625,4.11328125,0,A1,6.1,0,450.0,0.0552641421653152,[18100|0|0|0]
120,12001,1.6875596046447754,1.1641929149627686,0.0,-0.4284861981868744,-0.4905939400196075,171.42703247070312,4.11328125,0,A1,6.1,0,450.0,0.055894186098286,[18200|0|0|0]
121,12101,1.6875245571136477,1.164384126663208,0.0,-0.4279798865318298,-0.4872296452522278,171.45101928710938,4.11328125,0,A1,6.1,0,450.0,0.0560885832274395,[18300|0|0|0]
122,12201,1.6877963542938232,1.1640417575836182,0.0,-0.4366391599178314,-0.4803200662136078,171.45782470703125,4.11328125,0,A1,6.1,0,450.0,0.0565257219855136,[18400|0|0|0]
123,12301,1.6877676248550415,1.1644428968429563,0.0,-0.3668602108955383,-0.4481828510761261,171.43740844726562,4.11328125,0,A1,6.1,0,450.0,0.0569278887246095,[18500|0|0|0]
124,12401,1.6878809928894043,1.164452075958252,0.0,-0.3823373317718506,-0.4457770586013794,171.43922424316406,4.11328125,0,A1,6.1,0,450.0,0.0570416277564891,[18600|0|0|0]
125,12501,1.687973976135254,1.164323091506958,0.0,-0.393110990524292,-0.4358074367046356,171.43223571777344,4.11328125,0,A1,6.1,0,450.0,0.0572006336453245,[18700|0|0|0]
126,12602,1.6875910758972168,1.1641974449157717,0.0,-0.3998516499996185,-0.4566019177436828,171.41290283203125,4.11328125,0,A1,6.1,0,450.0,0.0576036220547925,[18800|0|0|0]
127,12702,1.6874650716781616,1.1645156145095823,0.0,-0.3500864207744598,-0.4387645423412323,171.40428161621094,4.11328125,0,A1,6.1,0,450.0,0.0579458339097089,[18900|0|0|0]
128,12802,1.687598466873169,1.164400935173035,0.0,-0.372174471616745,-0.4325232207775116,171.4143524169922,4.11328125,0,A1,6.1,0,450.0,0.0581217476052587,[19000|0|0|0]
129,12902,1.6876038312911987,1.164800763130188,0.0,-0.3888570964336395,-0.4465879797935486,171.462646484375,4.11328125,0,A1,6.1,0,450.0,0.0585216115474966,[19100|0|0|0]
130,13002,1.6875362396240234,1.1643853187561035,0.0,-0.4101400673389435,-0.4671782851219177,171.638671875,4.11328125,0,A1,6.1,0,450.0,0.0589425184985321,[19200|0|0|0]
131,13102,1.6876312494277954,1.1646735668182373,0.0,-0.3580995202064514,-0.4381164312362671,171.67706298828125,4.11328125,0,A1,6.1,0,450.0,0.059246021065468,[19300|0|0|0]
132,13202,1.6877979040145874,1.1648621559143066,0.0,-0.3231868743896484,-0.4071485996246338,171.69244384765625,4.11328125,0,A1,6.1,0,450.0,0.0594976946605372,[19400|0|0|0]
133,13302,1.6876120567321775,1.1644796133041382,0.0,-0.4407850503921509,-0.4829722046852112,171.81593322753906,4.11328125,0,A1,6.1,0,450.0,0.0599229922751245,[19500|0|0|0]
134,13402,1.6876977682113647,1.1646149158477783,0.0,-0.383618026971817,-0.4489445686340332,171.82308959960938,4.11328125,0,A1,6.1,0,450.0,0.0600831585511627,[19600|0|0|0]
135,13502,1.687708020210266,1.1643880605697632,0.0,-0.3520403206348419,-0.4227179884910583,171.86109924316406,4.11328125,0,A1,6.1,0,450.0,0.0603102453641766,[19700|0|0|0]
136,13602,1.687661051750183,1.164495587348938,0.0,-0.3883644938468933,-0.439910888671875,171.81307983398438,4.11328125,0,A1,6.1,0,450.0,0.0604275826748763,[19800|0|0|0]
137,13700,1.687877178192139,1.164505124092102,0.0,-0.4198993742465973,-0.465728759765625,171.89756774902344,4.11328125,0,A1,6.1,0,450.0,0.0606439194225237,[19900|0|0|0]
138,13800,1.687786340713501,1.1645493507385254,0.0,-0.4392179846763611,-0.4839874505996704,171.8061981201172,4.11328125,0,A1,6.1,0,450.0,0.0607449513173844,[20000|0|0|0]
139,13900,1.6874887943267822,1.1644272804260254,0.0,-0.4508379101753235,-0.4992185533046722,171.7353515625,4.11328125,0,A1,6.1,0,450.0,0.061066564459907,[20100|0|0|0]
140,14000,1.6877139806747437,1.164038062095642,0.0,-0.4603271782398224,-0.4964078366756439,171.67393493652344,4.11328125,0,A1,6.1,0,450.0,0.0615162307806545,[20200|0|0|0]
141,14100,1.6878567934036257,1.1643503904342651,0.0,-0.4479652941226959,-0.4940777122974396,171.5861358642578,4.11328125,0,A1,6.1,0,450.0,0.0618596612199544,[20300|0|0|0]
142,14200,1.6879273653030396,1.164225459098816,0.0,-0.4489493370056152,-0.4919330477714538,171.48773193359375,4.11328125,0,A1,6.1,0,450.0,0.0620031472177521,[20400|0|0|0]
143,14300,1.687865972518921,1.164169430732727,0.0,-0.4487134218215942,-0.4930744171142578,171.40097045898438,4.11328125,0,A1,6.1,0,450.0,0.0620862631112288,[20500|0|0|0]
144,14400,1.6874792575836182,1.1641608476638794,0.0,-0.4464426934719085,-0.4991389513015747,171.31912231445312,4.11328125,0,A1,6.1,0,450.0,0.0624730732846434,[20600|0|0|0]
145,14500,1.6877046823501587,1.164278507232666,0.0,-0.4347244799137115,-0.4838163554668426,171.2459259033203,4.11328125,0,A1,6.1,0,450.0,0.0627273567868549,[20700|0|0|0]
146,14600,1.6877050399780271,1.164118766784668,0.0,-0.4302123486995697,-0.4690839648246765,171.17550659179688,4.11328125,0,A1,6.1,0,450.0,0.0628870976351821,[20800|0|0|0]
147,14700,1.6872797012329102,1.1643823385238647,0.0,-0.4146272242069244,-0.4784944653511047,171.15199279785156,4.11328125,0,A1,6.1,0,450.0,0.0633874805983222,[20900|0|0|0]
148,14800,1.687554121017456,1.1641277074813845,0.0,-0.413934975862503,-0.4608567953109741,171.1315155029297,4.11328125,0,A1,6.1,0,450.0,0.0637618376283681,[21000|0|0|0]
149,14900,1.6877228021621704,1.1641960144042969,0.0,-0.4064270853996277,-0.4562389552593231,171.12619018554688,4.11328125,0,A1,6.1,0,450.0,0.0639438243429929,[21100|0|0|0]
150,15000,1.687710165977478,1.1644209623336792,0.0,-0.39932781457901,-0.4659238457679748,171.12258911132812,4.11328125,0,A1,6.1,0,450.0,0.0641691269042233,[21200|0|0|0]
151,15100,1.6876695156097412,1.1639671325683594,0.0,-0.4060567915439605,-0.4644038379192352,171.08935546875,4.11328125,0,A1,6.1,0,450.0,0.0646247735966148,[21300|0|0|0]
152,15200,1.6905521154403689,1.170326590538025,0.0,-0.250755250453949,-0.3641224205493927,170.81455993652344,4.11328125,0,A1,6.1,0,450.0,0.0716070431024043,[21400|0|0|0]
153,15300,1.6894268989562988,1.1718626022338867,0.0,-0.3385153412818908,-0.3371274471282959,170.1891326904297,4.11328125,0,A1,6.1,0,450.0,0.0735111029927037,[21500|0|0|0]
154,15400,1.6864312887191772,1.172099232673645,0.0,-0.4336058795452118,-0.3858762085437774,169.7101593017578,4.11328125,0,A1,6.1,0,450.0,0.0765160446989217,[21600|0|0|0]
155,15500,1.6833572387695312,1.1725717782974243,0.0,-0.4962338209152221,-0.4027969241142273,169.49749755859375,4.11328125,0,A1,6.1,0,450.0,0.0796262026465943,[21700|0|0|0]
156,15600,1.6877039670944214,1.1630516052246094,0.0,-0.7090827226638794,-0.389087826013565,170.0849151611328,4.11328125,0,A1,6.1,0,450.0,0.0900917529172085,[21800|0|0|0]
157,15700,1.6880661249160769,1.16327965259552,0.0,-0.6077432632446289,-0.4631767570972442,170.423583984375,4.11328125,0,A1,6.1,0,450.0,0.0905197294249347,[21900|0|0|0]
158,15800,1.687750220298767,1.164054036140442,0.0,-0.5053837299346924,-0.5165694952011108,170.65328979492188,4.11328125,0,A1,6.1,0,450.0,0.091356070026534,[22000|0|0|0]
159,15900,1.6875956058502195,1.163425326347351,0.0,-0.4438123703002929,-0.5387294888496399,170.76881408691406,4.11328125,0,A1,6.1,0,450.0,0.0920035124036055,[22100|0|0|0]
160,16000,1.6876654624938965,1.1638294458389282,0.0,-0.3771737217903137,-0.5527845025062561,170.84173583984375,4.11328125,0,A1,6.1,0,450.0,0.0924136252102068,[22200|0|0|0]
161,16100,1.6877174377441406,1.1641614437103271,0.0,-0.3352195918560028,-0.5537776350975037,170.8958282470703,4.11328125,0,A1,6.1,0,450.0,0.0927496668940071,[22300|0|0|0]
162,16200,1.687821626663208,1.1643164157867432,0.0,-0.3123825788497925,-0.5496934652328491,170.9038848876953,4.11328125,0,A1,6.1,0,450.0,0.0929364064862877,[22400|0|0|0]
163,16300,1.6877951622009275,1.1641839742660522,0.0,-0.3011880218982696,-0.5457799434661865,170.94216918945312,4.11328125,0,A1,6.1,0,450.0,0.0930714661922207,[22500|0|0|0]
164,16400,1.6876718997955322,1.164398193359375,0.0,-0.2894846796989441,-0.5294889211654663,170.96478271484375,4.11328125,0,A1,6.1,0,450.0,0.0933186168356103,[22600|0|0|0]
165,16500,1.6878561973571775,1.1642632484436035,0.0,-0.2965642213821411,-0.513071596622467,170.95095825195312,4.11328125,0,A1,6.1,0,450.0,0.0935470368905988,[22700|0|0|0]
166,16600,1.6876834630966189,1.1644210815429688,0.0,-0.2952562272548675,-0.5144656300544739,170.95672607421875,4.11328125,0,A1,6.1,0,450.0,0.0937810206764173,[22800|0|0|0]
167,16700,1.6880526542663574,1.1646242141723633,0.0,-0.2951061129570007,-0.5044873952865601,170.9566192626953,4.11328125,0,A1,6.1,0,450.0,0.0942024052809506,[22900|0|0|0]
168,16800,1.6877456903457642,1.1643651723861694,0.0,-0.3135417103767395,-0.506148099899292,170.94326782226562,4.11328125,0,A1,6.1,0,450.0,0.0946040637123827,[23000|0|0|0]
169,16900,1.687817931175232,1.1648675203323364,0.0,-0.3121720254421234,-0.493988960981369,170.97225952148438,4.11328125,0,A1,6.1,0,450.0,0.0951115794229379,[23100|0|0|0]
170,17000,1.687620997428894,1.164419651031494,0.0,-0.3336429595947265,-0.4829371869564056,170.98861694335938,4.11328125,0,A1,6.1,0,450.0,0.0956008337648541,[23200|0|0|0]
171,17100,1.687587022781372,1.164515256881714,0.0,-0.3436939418315887,-0.4757060408592224,171.0116424560547,4.11328125,0,A1,6.1,0,450.0,0.0957022968382876,[23300|0|0|0]
172,17200,1.6879560947418213,1.1646839380264282,0.0,-0.350059300661087,-0.459450364112854,171.00181579589844,4.11328125,0,A1,6.1,0,450.0,0.0961080891996892,[23400|0|0|0]
173,17300,1.687572002410889,1.1644779443740845,0.0,-0.375441163778305,-0.4731538593769073,170.98919677734375,4.11328125,0,A1,6.1,0,450.0,0.0965439335566413,[23500|0|0|0]
174,17400,1.6876929998397827,1.16462504863739,0.0,-0.3738828897476196,-0.4699251055717468,170.97848510742188,4.11328125,0,A1,6.1,0,450.0,0.0967344067623201,[23600|0|0|0]
175,17500,1.6877427101135254,1.1642521619796753,0.0,-0.3801504671573639,-0.4578428566455841,170.98077392578125,4.11328125,0,A1,6.1,0,450.0,0.0971105923160262,[23700|0|0|0]
176,17600,1.6877673864364624,1.1643668413162231,0.0,-0.3759042918682098,-0.4573200941085815,170.99046325683594,4.11328125,0,A1,6.1,0,450.0,0.0972278964981543,[23800|0|0|0]
177,17700,1.687715768814087,1.164538860321045,0.0,-0.3754724562168121,-0.4633668959140777,171.0071563720703,4.11328125,0,A1,6.1,0,450.0,0.0974074930375407,[23900|0|0|0]
178,17800,1.6879322528839111,1.1641191244125366,0.0,-0.3909582495689392,-0.461846649646759,171.0313720703125,4.11328125,0,A1,6.1,0,450.0,0.0978797679419967,[24000|0|0|0]
179,17900,1.6879031658172607,1.1644749641418457,0.0,-0.3781516849994659,-0.4628258049488067,171.0493927001953,4.11328125,0,A1,6.1,0,450.0,0.0982367945101973,[24100|0|0|0]
180,18000,1.6875931024551392,1.1642712354660034,0.0,-0.3900136053562164,-0.4692168831825256,171.0543670654297,4.11328125,0,A1,6.1,0,450.0,0.098607799445327,[24200|0|0|0]
181,18100,1.6875962018966677,1.1648205518722534,0.0,-0.3819653391838074,-0.467656522989273,171.05416870117188,4.11328125,0,A1,6.1,0,450.0,0.0991571245955916,[24300|0|0|0]
182,18200,1.6876007318496704,1.164433836936951,0.0,-0.3905060291290283,-0.4603100121021271,171.06820678710938,4.11328125,0,A1,6.1,0,450.0,0.0995438660617679,[24400|0|0|0]
183,18300,1.6878082752227783,1.1642545461654663,0.0,-0.4026751518249511,-0.4572341740131378,171.04281616210938,4.11328125,0,A1,6.1,0,450.0,0.0998181276749415,[24500|0|0|0]
184,18400,1.6875345706939695,1.1642425060272217,0.0,-0.4007006287574768,-0.465413749217987,171.02880859375,4.11328125,0,A1,6.1,0,450.0,0.1000920968958759,[24600|0|0|0]
185,18500,1.687690496444702,1.1641799211502075,0.0,-0.4050561785697937,-0.4671822488307953,171.00804138183594,4.11328125,0,A1,6.1,0,450.0,0.1002601138788637,[24700|0|0|0]
186,18600,1.6876496076583862,1.164106011390686,0.0,-0.4046612679958343,-0.4680777490139007,171.01914978027344,4.11328125,0,A1,6.1,0,450.0,0.1003445801170829,[24800|0|0|0]
187,18700,1.6878764629364014,1.1644604206085205,0.0,-0.3950574100017547,-0.4631443619728088,171.02525329589844,4.11328125,0,A1,6.1,0,450.0,0.100765376042502,[24900|0|0|0]
188,18800,1.6877024173736572,1.164272665977478,0.0,-0.4024779498577118,-0.4699777662754059,171.02554321289062,4.11328125,0,A1,6.1,0,450.0,0.1010213910018088,[25000|0|0|0]
189,18900,1.687780737876892,1.164125680923462,0.0,-0.4049597978591919,-0.468320369720459,171.0226593017578,4.11328125,0,A1,6.1,0,450.0,0.1011879404158908,[25100|0|0|0]
190,19000,1.6877648830413818,1.1647756099700928,0.0,-0.3904256820678711,-0.4755959808826446,171.02110290527344,4.11328125,0,A1,6.1,0,450.0,0.1018380628208759,[25200|0|0|0]
191,19100,1.6877083778381348,1.1642688512802124,0.0,-0.4047428667545318,-0.4753240942955017,171.00897216796875,4.11328125,0,A1,6.1,0,450.0,0.1023479620342144,[25300|0|0|0]
192,19200,1.687614679336548,1.1641751527786257,0.0,-0.4082210659980774,-0.4790093600749969,170.9985809326172,4.11328125,0,F2,6.1,0,450.0,0.1024804717259324,[25300|0|0|0]
193,19300,1.6876862049102783,1.1641769409179688,0.0,-0.4045937061309814,-0.4653452336788177,171.72471618652344,3.220703125,0,F2,6.1,0,450.0,0.102552019647913,[25300|0|0|0]
194,19400,1.6873104572296145,1.164126992225647,0.0,-0.4222917556762695,-0.4258609712123871,169.28038024902344,3.55859375,0,F2,6.1,0,450.0,0.1029310726671451,[25300|0|0|0]
195,19500,1.6852422952651978,1.1634407043457031,0.0,0.8950703740119934,-1.611013889312744,155.83441162109375,3.65234375,0,F2,6.1,0,450.0,0.1051101286474305,[25300|0|0|0]
196,19600,1.6815322637557983,1.164947509765625,0.0,1.6945918798446655,-3.880082130432129,128.9530792236328,3.615234375,0,F2,6.1,0,450.0,0.1091144758319592,[25300|0|0|0]
197,19700,1.6750811338424685,1.1729674339294434,0.0,-3.82823634147644,-0.571659505367279,94.0947265625,3.630859375,0,F2,6.1,0,450.0,0.1194070100559517,[25300|0|0|0]
198,19800,1.6602004766464231,1.179419994354248,0.017681635916233,-2.8026609420776367,9.68922233581543,55.652488708496094,3.541015625,0,F2,6.1,0,450.0,0.1434009622792973,[25300|0|0|0]
199,19900,1.6338779926300049,1.1763445138931274,0.0551567524671554,7.126111507415772,1.4180431365966797,21.762237548828125,3.53125,0,F2,6.1,0,450.0,0.1892999394505432,[25300|0|0|0]
200,20000,1.6103864908218384,1.160746693611145,0.1064057946205139,-1.205973505973816,-12.115126609802246,-3.8069193363189697,3.611328125,0,F2,6.1,0,450.0,0.2477944432640539,[25300|0|0|0]
201,20100,1.6096431016921997,1.15203857421875,0.1641659885644912,-22.16962432861328,-15.80418300628662,-22.12472343444824,3.6640625,0,F2,6.1,0,450.0,0.3062121116118761,[25300|0|0|0]
202,20200,1.6447793245315552,1.1698834896087646,0.2162574082612991,-31.50065994262696,-6.0423197746276855,-32.58592224121094,3.58984375,0,F2,6.1,0,450.0,0.3715306477767551,[25300|0|0|0]
203,20300,1.7155628204345703,1.2242037057876587,0.2589762508869171,-17.804950714111328,0.0935888364911079,-35.11783981323242,3.55859375,0,F2,6.1,0,450.0,0.4704542986052919,[25300|0|0|0]
204,20400,1.7974203824996948,1.3273894786834717,0.2887680828571319,12.896984100341797,12.897101402282717,-35.008270263671875,3.583984375,0,F2,6.1,0,450.0,0.6054932464962375,[25300|0|0|0]
205,20500,1.8468365669250488,1.404736042022705,0.3324936926364898,30.50130081176757,24.40541648864746,-38.00049209594727,3.599609375,0,F2,6.1,0,450.0,0.7071612311036217,[25300|0|0|0]
206,20600,1.8425185680389404,1.455302357673645,0.36546590924263,29.70940971374512,13.007580757141112,-26.959068298339844,3.48828125,0,F2,6.1,0,450.0,0.7676820082038305,[25300|0|0|0]
207,20700,1.8009268045425415,1.4607893228530884,0.400090217590332,23.00311851501465,-2.761906862258911,-16.2529354095459,3.478515625,0,F2,6.1,0,450.0,0.8220770843245379,[25300|0|0|0]
208,20800,1.7516669034957886,1.419281005859375,0.4486112296581268,15.750515937805176,-6.68980598449707,-13.621891021728516,3.515625,0,F2,6.1,0,450.0,0.9027230193917783,[25300|0|0|0]
209,20900,1.7113920450210571,1.3488181829452517,0.5168880820274353,4.758718967437744,-8.445440292358398,-12.63619613647461,3.62109375,0,F2,6.1,0,450.0,1.0087833899721563,[25300|0|0|0]
210,21000,1.686750054359436,1.2715976238250732,0.5946035981178284,-4.027095317840576,-7.109336853027344,-12.319900512695312,3.6953125,0,F2,6.1,0,450.0,1.1210773964720429,[25300|0|0|0]
211,21100,1.6759462356567385,1.2120959758758545,0.6593973636627197,-9.541775703430176,-4.719073295593262,-14.698127746582031,3.7265625,0,F2,6.1,0,450.0,1.2097080946568133,[25300|0|0|0]
212,21200,1.6743388175964355,1.1583925485610962,0.7173566818237305,-11.346623420715332,-2.5269460678100586,-12.74490451812744,3.701171875,0,F2,6.1,0,450.0,1.2887392559785438,[25300|0|0|0]
213,21300,1.678757667541504,1.1207133531570437,0.7561996579170227,-11.316194534301758,-0.2734841406345367,-9.099770545959473,3.6796875,0,F2,6.1,0,450.0,1.3430349721347736,[25300|0|0|0]
214,21400,1.6853744983673096,1.1005780696868896,0.7803463935852051,-9.31954860687256,1.4871848821640017,-9.343759536743164,3.6640625,0,F2,6.1,0,450.0,1.375164038943971,[25300|0|0|0]
215,21500,1.691185712814331,1.0931669473648071,0.7920623421669006,-6.371549606323242,2.458810567855835,-9.423717498779297,3.630859375,0,F2,6.1,0,450.0,1.3901959516163849,[25300|0|0|0]
216,21600,1.694021463394165,1.0934791564941406,0.7974902987480164,-3.5546507835388184,2.3991448879241943,-9.55357265472412,3.62109375,0,F2,6.1,0,450.0,1.3963279715558456,[25300|0|0|0]
217,21700,1.6928101778030396,1.099016189575195,0.7991003394126892,-1.3908323049545288,1.654703140258789,-10.075957298278809,3.62109375,0,F2,6.1,0,450.0,1.4022201849825522,[25300|0|0|0]
218,21800,1.6883351802825928,1.1049379110336304,0.7987098693847656,0.0080689238384366,0.9880772829055786,-10.412492752075195,3.62109375,0,F2,6.1,0,450.0,1.4096528732366096,[25300|0|0|0]
219,21900,1.681882619857788,1.109184980392456,0.7965039014816284,0.4404557049274444,0.0728581026196479,-10.492152214050291,3.630859375,0,F2,6.1,0,450.0,1.41768651677887,[25300|0|0|0]
220,22000,1.6750627756118774,1.1103545427322388,0.7921611666679382,0.6725738644599915,-0.8795579075813293,-10.649022102355955,3.62109375,0,F2,6.1,0,450.0,1.425855818907397,[25300|0|0|0]
221,22100,1.6683931350708008,1.1088855266571045,0.7867778539657593,-0.2519203722476959,-1.1882221698760986,-10.731684684753418,3.611328125,0,F2,6.1,0,450.0,1.4345519196902548,[25300|0|0|0]
222,22200,1.663188338279724,1.108668327331543,0.7791167497634888,-0.984371304512024,-1.097077250480652,-10.614667892456056,3.60546875,0,F2,6.1,0,450.0,1.443816346428131,[25300|0|0|0]
223,22300,1.6590752601623535,1.1075639724731443,0.771844744682312,-0.3193591237068176,0.0251025557518005,-11.240074157714844,3.435546875,0,F2,6.1,0,155.0,1.452243627671422,[25300|0|0|0]
224,22400,1.6499003171920776,1.1036677360534668,0.7738659977912903,13.633858680725098,12.123839378356934,-14.636749267578123,3.435546875,0,F2,6.1,0,155.0,1.46241445363967,[25300|0|0|0]
225,22500,1.6128880977630615,1.0801366567611694,0.7927291393280029,23.197797775268555,20.849742889404297,-19.52066421508789,3.46875,0,F2,6.1,0,155.0,1.5101578740068375,[25300|0|0|0]
226,22600,1.529668927192688,1.0252412557601929,0.8229677677154541,18.99325561523437,17.094982147216797,-18.611162185668945,3.42578125,0,F2,6.1,0,155.0,1.6143370948151796,[25300|0|0|0]
227,22700,1.406835913658142,0.9476637244224548,0.870993435382843,2.156869888305664,4.231879234313965,-16.724607467651367,3.5,0,F2,6.1,0,155.0,1.7673491444626963,[25300|0|0|0]
228,22800,1.2777798175811768,0.8698862195014954,0.9408864378929138,-13.202482223510742,-8.433086395263672,-19.576290130615234,3.55859375,0,F2,6.1,0,155.0,1.9334510650001469,[25300|0|0|0]
229,22900,1.171772003173828,0.8105083107948303,1.0231592655181885,-15.651823043823242,-8.06387710571289,-15.168039321899414,3.509765625,0,F2,6.1,0,155.0,2.080189645214275,[25300|0|0|0]
230,23000,1.0884711742401123,0.780669629573822,1.1108654737472534,-8.977621078491211,-0.6132001280784607,-12.584506034851074,3.568359375,0,F2,6.1,0,155.0,2.204775976567169,[25300|0|0|0]
231,23100,1.012859344482422,0.76841139793396,1.205353021621704,-3.4141950607299805,1.466918706893921,-10.876879692077637,3.642578125,0,F2,6.1,0,155.0,2.326411948818675,[25300|0|0|0]
232,23200,0.9382988214492798,0.7622855305671692,1.297194480895996,-2.8591673374176025,0.5049537420272827,-10.514566421508787,3.6953125,0,F2,6.1,0,155.0,2.444867220915795,[25300|0|0|0]
233,23300,0.8633485436439514,0.7607578635215759,1.3771822452545166,0.1786457151174545,-2.676987171173096,-10.485915184020996,3.701171875,0,F2,6.1,0,155.0,2.5544934967659407,[25300|0|0|0]
234,23400,0.7915716171264648,0.7596706748008728,1.440808653831482,0.532568097114563,-6.492098331451416,-10.260723114013672,3.689453125,0,F2,6.1,0,155.0,2.6504175762664186,[25300|0|0|0]
235,23500,0.7272436022758484,0.7574034929275513,1.4852808713912964,0.610960841178894,-8.827498435974121,-10.367301940917969,3.6640625,0,F2,6.1,0,155.0,2.728654471290156,[25300|0|0|0]
236,23600,0.6722411513328552,0.7526282072067261,1.5141628980636597,-0.0641287714242935,-10.427038192749023,-9.240925788879396,3.642578125,0,F2,6.1,0,155.0,2.7909621307563484,[25300|0|0|0]
237,23700,0.6306719183921814,0.7462199926376343,1.5293262004852295,-0.7433769702911377,-10.76162052154541,-6.434991359710693,3.626953125,0,F2,6.1,0,155.0,2.835672220015569,[25300|0|0|0]
238,23800,0.6029192805290222,0.7413015365600586,1.5354093313217163,-2.379089832305908,-9.325204849243164,-11.299176216125488,3.615234375,0,F2,6.1,0,155.0,2.864506307469909,[25300|0|0|0]
239,23900,0.5874404907226562,0.7364763617515564,1.5342942476272583,-2.6476526260375977,-7.111245632171631,-12.018701553344728,3.60546875,0,F2,6.1,0,155.0,2.880758035299525,[25300|0|0|0]
240,24000,0.5813817381858826,0.7341781854629517,1.531470775604248,-2.643664598464966,-5.589783191680908,-12.281396865844728,3.615234375,0,F2,6.1,0,155.0,2.8878264220192853,[25300|0|0|0]
241,24100,0.5817723274230957,0.7343699932098389,1.5260727405548096,-1.757028579711914,-3.528873443603516,-12.153423309326172,3.615234375,0,F2,6.1,0,155.0,2.8932419674727883,[25300|0|0|0]
242,24200,0.5859007835388184,0.7368606925010681,1.5182963609695437,-1.325683355331421,-2.2716598510742188,-11.564447402954102,3.615234375,0,F2,6.1,0,155.0,2.902391820603463,[25300|0|0|0]
243,24300,0.5914992094039917,0.7400088906288147,1.5092198848724363,-0.3950357139110565,-1.551507830619812,-10.652466773986816,3.599609375,0,F2,6.1,0,155.0,2.913510990624681,[25300|0|0|0]
244,24400,0.5980713963508606,0.7420433759689331,1.49947988986969,0.036090537905693,-0.9422608017921448,-9.988823890686035,3.60546875,0,F2,6.1,0,155.0,2.9254357662836723,[25300|0|0|0]
245,24500,0.6036444902420044,0.7432976365089417,1.488760232925415,0.3467594087123871,-0.4711350500583648,-10.26540470123291,3.60546875,0,F2,6.1,0,155.0,2.937582518525513,[25300|0|0|0]
246,24600,0.6088735461235046,0.74360191822052,1.4761710166931152,-0.1200032159686088,-0.6844189167022705,-10.705293655395508,3.599609375,0,F2,6.1,0,155.0,2.951217912840144,[25300|0|0|0]
247,24700,0.6135929226875305,0.7430031299591064,1.46313738822937,0.1313644051551818,-0.8993473649024963,-11.66898250579834,3.58984375,0,F2,6.1,0,155.0,2.96509258521343,[25300|0|0|0]
248,24800,0.6188363432884216,0.7416530251502991,1.4496164321899414,-0.7800517678260803,-1.2138880491256714,-12.547876358032228,3.58984375,0,F2,6.1,0,155.0,2.9796573541718714,[25300|0|0|0]
249,24900,0.6243612170219421,0.741055428981781,1.4370521306991575,-1.0635159015655518,-0.7070187926292419,-13.48800563812256,3.59375,0,F2,6.1,0,155.0,2.993395731911011,[25300|0|0|0]
250,25000,0.6318875551223755,0.741502583026886,1.4265506267547607,-1.8770095109939573,-1.280745267868042,-14.330108642578123,3.59375,0,F2,6.1,0,155.0,3.0063235042263123,[25300|0|0|0]
251,25100,0.6414763331413269,0.7446483373641968,1.4190655946731567,-1.705915093421936,-1.0319749116897583,-14.85219955444336,3.60546875,0,F2,6.1,0,155.0,3.0188879835036277,[25300|0|0|0]
252,25200,0.6529923677444458,0.750116229057312,1.4125900268554688,0.2632712423801422,-0.230348065495491,-15.26545524597168,3.60546875,0,F2,6.1,0,155.0,3.03318658032672,[25300|0|0|0]
253,25300,0.6649942398071289,0.754539430141449,1.4051321744918823,1.2230786085128784,-0.289898008108139,-15.51234531402588,3.875,0,F2,6.1,0,450.0,3.047992970930671,[25300|0|0|0]
254,25400,0.6756047606468201,0.7585695385932922,1.380299091339111,0.8821651339530945,0.138785034418106,-15.381525039672852,3.822265625,0,F2,6.1,0,450.0,3.075296944002288,[25300|0|0|0]
255,25500,0.6845452189445496,0.7621687054634094,1.3189061880111694,0.283364474773407,1.3205291032791138,-13.643662452697754,3.732421875,0,F2,6.1,0,450.0,3.1374417295901904,[25300|0|0|0]
256,25600,0.6909281611442566,0.7659475803375244,1.224026083946228,0.3754976391792297,1.2914959192276,-11.197427749633787,3.626953125,0,F2,6.1,0,450.0,3.232611346558071,[25300|0|0|0]
257,25700,0.6944824457168579,0.7697153091430664,1.1088483333587646,-0.4259068369865417,-0.0274608433246612,-8.784258842468262,3.58984375,0,F2,6.1,0,450.0,3.3479055049077595,[25300|0|0|0]
258,25800,0.6974529027938843,0.7729767560958862,0.9875131249427797,-0.7937830090522766,0.5577942132949829,-7.52685022354126,3.578125,0,F2,6.1,0,450.0,3.469320880593144,[25300|0|0|0]
259,25900,0.7016802430152893,0.7786641120910645,0.8668407797813416,0.3864712715148926,-0.3077963888645172,-7.938982009887695,3.58984375,0,F2,6.1,0,450.0,3.590201115993,[25300|0|0|0]
260,26000,0.7078231573104858,0.7848256826400757,0.747620701789856,-0.3157654106616974,-1.619451880455017,-8.07635498046875,3.599609375,0,F2,6.1,0,450.0,3.7097382539207775,[25300|0|0|0]
261,26100,0.7168892621994019,0.7896842956542969,0.6281834244728088,1.9079827070236208,0.2185266464948654,-6.029886722564697,3.599609375,0,F2,6.1,0,450.0,3.829617624920078,[25300|0|0|0]
262,26200,0.727028489112854,0.7894236445426941,0.5098126530647278,2.543084144592285,1.4602015018463137,-2.413850784301758,3.58984375,0,F2,6.1,0,450.0,3.948422134031259,[25300|0|0|0]
263,26300,0.7359984517097473,0.7856127023696899,0.3918415904045105,0.1337433159351349,2.3052737712860107,-0.1318652331829071,3.53125,0,F2,6.1,0,450.0,4.066795083366893,[25300|0|0|0]
264,26400,0.742525577545166,0.7807360887527466,0.2794638872146606,0.3333958685398102,1.3611687421798706,0.3953157961368561,3.484375,0,F2,6.1,0,450.0,4.1794677637568896,[25300|0|0|0]
265,26500,0.7463404536247253,0.7759181261062622,0.1821721643209457,-0.0828425958752632,2.7020206451416016,-0.209126740694046,3.453125,0,F2,6.1,0,450.0,4.276953380066131,[25300|0|0|0]
266,26600,0.7460473775863647,0.7687522768974304,0.1022070199251174,0.4947486817836761,2.970773696899414,-0.7587927579879761,3.484375,0,F2,6.1,0,450.0,4.35723949098635,[25300|0|0|0]
267,26700,0.7411165833473206,0.7654340267181396,0.0544401928782463,0.2880353927612304,2.497575521469116,-1.2395535707473757,3.494140625,0,F2,6.1,0,450.0,4.405374647392098,[25300|0|0|0]
268,26800,0.7322815656661987,0.7610878944396973,0.0181050039827823,-0.8103362917900085,0.7991140484809875,-0.3172937631607055,3.525390625,0,F2,6.1,0,450.0,4.443020262744706,[25300|0|0|0]
269,26900,0.7224071621894836,0.756847083568573,0.000309740396915,-0.2032156735658645,0.5024292469024658,0.8624538779258728,3.5625,0,F2,6.1,0,450.0,4.463808714513804,[25300|0|0|0]
270,27000,0.7138363718986511,0.7527002096176147,0.0,0.7045605778694153,-2.102125406265259,1.832656025886536,3.599609375,0,F2,6.1,0,450.0,4.4733350437590085,[25300|0|0|0]
271,27100,0.7075768113136292,0.7460206151008606,0.0034295369405299,0.6048245429992676,-2.381354331970215,2.329982280731201,3.62109375,0,F2,6.1,0,450.0,4.483110564474155,[25300|0|0|0]
272,27200,0.7056722044944763,0.7383604645729065,0.0074104033410549,-0.1573943346738815,-1.065674066543579,2.6817526817321777,3.615234375,0,F2,6.1,0,450.0,4.491950967776342,[25300|0|0|0]
273,27300,0.7052069306373596,0.729181706905365,0.0086582722142338,-0.5128896832466125,-1.53915536403656,2.547232389450073,3.611328125,0,F2,6.1,0,450.0,4.501225839678757,[25300|0|0|0]
274,27400,0.7057666778564453,0.7209033966064453,0.0069810184650123,-1.2964849472045898,-0.6120232343673706,2.351020812988281,3.59375,0,F2,6.1,0,450.0,4.509690880641077,[25300|0|0|0]
275,27500,0.7063847780227661,0.7137591242790222,0.0046153939329087,-2.037630081176758,0.1596821844577789,2.414196729660034,3.59375,0,F2,6.1,0,450.0,4.517241963631674,[25300|0|0|0]
276,27600,0.7068061828613281,0.7089935541152954,0.0027861280832439,-1.5073479413986206,-0.3618870973587036,2.741345167160034,3.599609375,0,F2,6.1,0,450.0,4.522363921711561,[25300|0|0|0]
277,27700,0.7060770988464355,0.7056780457496643,0.0019301855936646,-1.781530737876892,0.5477500557899475,3.2257227897644043,3.58984375,0,F2,6.1,0,450.0,4.525864892543888,[25300|0|0|0]
278,27800,0.7048231959342957,0.7035975456237793,0.001255746348761,-1.67012619972229,-0.1806006282567978,3.673091173171997,3.599609375,0,F2,6.1,0,450.0,4.528385928359173,[25300|0|0|0]
279,27900,0.7031746506690979,0.7035524249076843,0.0011650720844045,-1.5313823223114014,-0.4008170366287231,3.857144594192505,3.599609375,0,F2,6.1,0,450.0,4.530037581831498,[25300|0|0|0]
280,28000,0.7006648778915405,0.7052510380744934,0.0016379919834434,-1.2735341787338257,-0.1731515526771545,3.531743049621582,3.58984375,0,F2,6.1,0,450.0,4.5331048117407695,[25300|0|0|0]
281,28100,0.7012680172920227,0.7119783759117126,0.0028879293240606,-1.1200016736984253,-0.7501456141471863,3.0940182209014893,3.59375,0,F2,6.1,0,450.0,4.5399738142060455,[25300|0|0|0]
282,28200,0.6992350220680237,0.7175015211105347,0.0010899235494434,-0.1549553573131561,-0.7200974225997925,2.38501501083374,3.58984375,0,F2,6.1,0,450.0,4.546127758244922,[25300|0|0|0]
283,28300,0.6976990103721619,0.7242356538772583,0.0,-0.506528377532959,-0.9645758867263794,1.5669472217559814,3.578125,0,F1,6.1,0,450.0,4.553120312098367,[25300|0|100|0]
284,28400,0.6976004838943481,0.7303801774978638,0.0,-0.5300293564796448,-0.1478183716535568,1.0318479537963867,3.599609375,0,F1,6.1,0,450.0,4.559265625596554,[25300|0|200|0]
285,28500,0.6968523263931274,0.7377093434333801,0.0023482211399823,0.5947152972221375,-1.0352740287780762,1.088955640792847,3.599609375,0,F1,6.1,0,450.0,4.566998060884303,[25300|0|300|0]
286,28600,0.6971117854118347,0.7449920177459717,0.0048997192643582,0.7217467427253723,-0.0741495192050933,1.6806602478027344,3.59375,0,F1,6.1,0,450.0,4.574719123428044,[25300|0|400|0]
287,28700,0.697446882724762,0.7517743706703186,0.0063677779398858,1.0143791437149048,0.2288385331630706,2.155510187149048,3.599609375,0,F1,6.1,0,450.0,4.581666626409282,[25300|0|500|0]
288,28800,0.6985141634941101,0.7571980357170105,0.0072742342017591,0.9493756294250488,0.2757954597473144,2.296783208847046,3.58984375,0,F1,6.1,0,450.0,4.587268134575305,[25300|0|600|0]
289,28900,0.6983309388160706,0.7616080045700073,0.0087322844192385,0.205002412199974,0.3915321230888366,2.245732545852661,3.58984375,0,F1,6.1,0,450.0,4.5919165006327205,[25300|0|700|0]
290,29000,0.6987923383712769,0.7655091881752014,0.0085960589349269,-0.1572472304105758,0.0240174792706966,2.277313470840454,3.58984375,0,F1,6.1,0,450.0,4.595847235990584,[25300|0|800|0]
291,29101,0.6967067718505859,0.7668627500534058,0.0036901808343827,-0.2331240028142929,0.2355694472789764,2.8282039165496826,3.583984375,0,F1,6.1,0,450.0,4.601347177572796,[25300|0|900|0]
292,29201,0.6984308958053589,0.7748557925224304,0.0026759123429656,-0.1323603838682174,-0.627612292766571,3.3741908073425293,3.568359375,0,F1,6.1,0,450.0,4.60958672075769,[25300|0|1000|0]
293,29301,0.6961552500724792,0.7777237892150879,0.0,-0.5018500685691833,0.3160440027713775,3.533034086227417,3.568359375,0,F1,6.1,0,450.0,4.614121527853687,[25300|0|1100|0]
294,29401,0.6977546215057373,0.7888131141662598,0.0,-0.8501924276351929,-0.302802711725235,3.9888758659362793,3.57421875,0,F1,6.1,0,450.0,4.625325594831986,[25300|0|1200|0]
295,29501,0.6973266005516052,0.7966052293777466,0.0004308173374738,0.0939911380410194,-0.0426407307386398,4.648915767669678,3.57421875,0,F1,6.1,0,450.0,4.633141339517205,[25300|0|1300|0]
296,29601,0.6967288255691528,0.8057321906089783,0.0036588530056178,0.6818779706954956,0.2242626845836639,5.218915939331055,3.578125,0,F1,6.1,0,450.0,4.6428407709706905,[25300|0|1400|0]
297,29701,0.695794403553009,0.8126711845397949,0.01050382014364,1.1061490774154663,0.0491420626640319,5.239200592041016,3.59375,0,F1,6.1,0,450.0,4.652632418247669,[25300|0|1500|0]
298,29801,0.6959887146949768,0.8164448142051697,0.0161710958927869,1.5973531007766724,-0.1637515276670456,4.554869174957275,3.58984375,0,F1,6.1,0,450.0,4.659443883001168,[25300|0|1600|0]
299,29901,0.697309136390686,0.8172981142997742,0.0194053687155246,0.9916672110557556,-0.2149952203035354,3.050093650817871,3.578125,0,F1,6.1,0,450.0,4.663040013588041,[25300|0|1700|0]
300,30001,0.6989352703094482,0.8159802556037903,0.0202090833336114,-0.4403943717479706,0.5121862888336182,1.0194146633148191,3.568359375,0,F1,6.1,0,450.0,4.665282115336771,[25300|0|1800|0]
301,30101,0.6997877955436707,0.8161214590072632,0.0199453420937061,-0.3703815937042236,0.2232874631881714,-0.032166875898838,3.568359375,0,F1,6.1,0,450.0,4.666185606962501,[25300|0|1900|0]
302,30201,0.7021653056144714,0.8179478049278259,0.0175685547292232,-0.539822518825531,-0.6079249382019043,0.0425053313374519,3.6953125,0,F1,6.1,0,450.0,4.670011467876633,[25300|0|2000|0]
303,30302,0.7034790515899658,0.8237019181251526,0.0,-3.512509346008301,3.08595609664917,-0.2617097496986389,4.0,0,F1,6.1,0,450.0,4.688544947378591,[25300|0|2100|0]
304,30402,0.7029348015785217,0.8274765610694885,0.0,-13.157268524169922,13.703968048095703,-0.3005649745464325,4.0,0,F1,6.1,0,450.0,4.692358625056658,[25300|0|2200|0]
305,30502,0.7004410028457642,0.8296592235565186,0.0,-8.222017288208008,11.095144271850586,-1.2699605226516724,4.0078125,0,F1,6.1,0,450.0,4.695672693198955,[25300|0|2300|0]
306,30602,0.70310378074646,0.8310179114341736,0.0,-11.019119262695312,6.359639644622803,-1.7588462829589844,4.0078125,0,F1,6.1,0,450.0,4.698662077566567,[25300|0|2400|0]
307,30702,0.7046515941619873,0.8322771191596985,0.0,-13.62592315673828,3.2760872840881348,-2.4523792266845703,4.01171875,0,F1,6.1,0,450.0,4.70065740472403,[25300|0|2500|0]
308,30802,0.7067111730575562,0.833545982837677,0.0,-16.527446746826172,0.0113658979535102,-3.48649263381958,4.01171875,0,F1,6.1,0,450.0,4.703076470713284,[25300|0|2600|0]
309,30902,0.7068520188331604,0.8339030742645264,0.0,-16.3607177734375,0.0721429735422134,-3.5214316844940186,4.015625,0,F1,6.1,0,450.0,4.703460335037798,[25300|0|2700|0]
310,31002,0.7067334055900574,0.8335251212120056,0.0,-15.946767807006836,0.4228360950946808,-3.12947416305542,4.015625,0,F1,6.1,0,450.0,4.70385646331418,[25300|0|2800|0]
311,31102,0.7061725854873657,0.8336254358291626,0.0,-16.056772232055664,0.1727888882160186,-3.197791576385498,4.015625,0,F1,6.1,0,450.0,4.704426184482822,[25300|0|2900|0]
312,31202,0.7045013904571533,0.8344915509223938,0.0,-15.699284553527832,0.1713580191135406,-1.4737056493759155,4.0234375,0,F1,6.1,0,450.0,4.70630848312643,[25300|0|3000|0]
313,31300,0.7093089818954468,0.8359796404838562,0.0,-7.572214603424072,1.7834703922271729,-7.709601402282715,4.0234375,0,F1,6.1,0,450.0,4.711341111264937,[25300|0|3100|0]
314,31400,0.7235868573188782,0.8105412721633911,0.0,1.5252602100372314,-4.135065078735352,-3.005462408065796,4.0234375,0,F1,6.1,0,450.0,4.740512472381872,[25300|0|3200|0]
315,31500,0.7378019094467163,0.769879937171936,0.0017717455048114,2.6890108585357666,-4.419503688812256,3.584989309310913,4.0234375,0,F1,6.1,0,450.0,4.783623386921213,[25300|0|3300|0]
316,31600,0.7295557260513306,0.7565574645996094,0.0,8.277856826782227,5.872039318084717,-1.275438904762268,4.0234375,0,F1,6.1,0,450.0,4.799391294143306,[25300|0|3400|0]
317,31700,0.7276961207389832,0.7578780651092529,0.0,0.0052008996717631,5.720487594604492,-1.040499925613403,4.02734375,0,F1,6.1,0,450.0,4.801672109265972,[25300|0|3500|0]
318,31800,0.7339025139808655,0.7507686614990234,0.0,3.626362800598145,1.4871501922607422,5.759237289428711,4.02734375,0,F1,6.1,0,450.0,4.811109425450462,[25300|0|3600|0]
319,31900,0.7343797087669373,0.7473223209381104,0.0,2.4167256355285645,0.2883126139640808,7.080323219299316,4.02734375,0,F1,6.1,0,450.0,4.814588646358316,[25300|0|3700|0]
320,32000,0.7352692484855652,0.7477918267250061,0.0,-0.087467111647129,-1.5872259140014648,8.060707092285156,4.02734375,0,F1,6.1,0,450.0,4.815594487595761,[25300|0|3800|0]
321,32100,0.735130786895752,0.7480283379554749,0.0,-0.0328732691705226,-1.6035220623016355,8.079379081726074,4.03125,0,F1,6.1,0,450.0,4.815868548125556,[25300|0|3900|0]
322,32200,0.7352585196495056,0.7481809854507446,0.0,-0.0679416581988334,-1.580219268798828,8.034305572509766,4.03125,0,F1,6.1,0,450.0,4.81606758810695,[25300|0|4000|0]
323,32300,0.7351668477058411,0.7478914856910706,0.0,-0.093434140086174,-1.5471866130828855,7.9917449951171875,4.03125,0,F1,6.1,0,450.0,4.816371255451435,[25300|0|4100|0]
324,32400,0.7351433038711548,0.7488235831260681,0.0,-0.122419849038124,-1.5718626976013184,8.06592082977295,4.03125,0,F1,6.1,0,450.0,4.817303650185698,[25300|0|4200|0]
325,32500,0.7351577281951904,0.7479337453842163,0.0,-0.1214288175106048,-1.5133252143859863,7.997446537017822,4.03125,0,F1,6.1,0,450.0,4.818193604829457,[25300|0|4300|0]
326,32600,0.7351885437965393,0.7482123970985413,0.0,-0.1540081799030304,-1.4946311712265017,7.971654415130615,4.03125,0,F1,6.1,0,450.0,4.818473955287246,[25300|0|4400|0]
327,32700,0.7352403402328491,0.7480927109718323,0.0,-0.1751594096422195,-1.4782469272613523,7.956202507019043,4.1171875,0,F1,6.1,0,450.0,4.818604368629129,[25300|0|4500|0]
328,32800,0.7352091073989868,0.7482752203941345,0.0,-0.1992201954126358,-1.457567811012268,7.927280902862549,4.12109375,0,F1,6.1,0,450.0,4.818789531204019,[25300|0|4600|0]
329,32900,0.7351650595664978,0.748220682144165,0.0,-0.2105388194322586,-1.4455132484436035,7.913529396057129,4.12109375,0,F1,6.1,0,450.0,4.818859635642229,[25300|0|4700|0]
330,33000,0.7345853447914124,0.7483165264129639,0.0,-0.2164314240217209,-1.4105366468429563,7.893749713897705,4.12109375,0,F1,6.1,0,450.0,4.819447219971764,[25300|0|4800|0]
331,33100,0.73517245054245,0.748265266418457,0.0,-0.2127625346183776,-1.4149409532546997,7.880832195281982,4.12109375,0,F1,6.1,0,450.0,4.820036559220362,[25300|0|4900|0]
332,33200,0.7345432043075562,0.748395562171936,0.0,-0.2266387045383453,-1.3884333372116089,7.86345100402832,4.12890625,0,F1,6.1,0,450.0,4.820679153810677,[25300|0|5000|0]
333,33300,0.734947144985199,0.7482061982154846,0.0,-0.2120677232742309,-1.4073158502578735,7.870282173156738,4.12890625,0,F1,6.1,0,450.0,4.82112527798516,[25300|0|5100|0]
334,33400,0.734809935092926,0.7483370304107666,0.0,-0.2185689806938171,-1.4013396501541138,7.873321533203125,4.12890625,0,F1,6.1,0,450.0,4.8213148660065634,[25300|0|5200|0]
335,33500,0.7347434759140015,0.7482011914253235,0.0,-0.2142807841300964,-1.3994746208190918,7.86326265335083,4.12890625,0,F1,6.1,0,450.0,4.821466091177847,[25300|0|5300|0]
336,33600,0.7343825697898865,0.748134434223175,0.0,-0.2171152681112289,-1.396601915359497,7.857964992523193,4.12890625,0,F1,6.1,0,450.0,4.821833119452592,[25300|0|5400|0]
337,33700,0.7348458170890808,0.7484201788902283,0.0,-0.2212871611118316,-1.40548574924469,7.877690315246582,4.1328125,0,F1,6.1,0,450.0,4.822377406210616,[25300|0|5500|0]
338,33800,0.7346766591072083,0.7482638359069824,0.0,-0.2191060334444046,-1.4004541635513306,7.874676704406738,4.1328125,0,F1,6.1,0,450.0,4.822607748458676,[25300|0|5600|0]
339,33900,0.7347712516784668,0.7483221292495728,0.0,-0.2170479297637939,-1.410613775253296,7.869568347930908,4.1328125,0,F1,6.1,0,450.0,4.822718860421703,[25300|0|5700|0]
340,34000,0.7346850633621216,0.7483498454093933,0.0,-0.2155187278985977,-1.4127330780029297,7.869695663452148,4.1328125,0,F1,6.1,0,450.0,4.82280939556068,[25300|0|5800|0]
341,34100,0.734527051448822,0.7485150098800659,0.0,-0.2189677357673645,-1.409766435623169,7.883912086486816,4.1328125,0,F1,6.1,0,450.0,4.823037971734235,[25300|0|5900|0]
342,34200,0.7349074482917786,0.7483365535736084,0.0,-0.2189752608537674,-1.4247411489486694,7.85659646987915,4.13671875,0,F1,6.1,0,450.0,4.823458148377381,[25300|0|6000|0]
343,34300,0.7345908880233765,0.748436450958252,0.0,-0.2214268296957016,-1.418815851211548,7.864041328430176,4.13671875,0,F1,6.1,0,450.0,4.823790097004415,[25300|0|6100|0]
