time.ms,stateEstimate.x,stateEstimate.y,stateEstimate.z,stabilizer.roll,stabilizer.pitch,stabilizer.yaw,pm.vbat,drone_id,node_name,wind_speed,global_wind_direction,relative_wind_direction,travel_dist,waiting_time
0,0.7271645665168762,0.7365556359291077,-0.028335273265838623,-1.004412293434143,0.40899330377578735,3.426952362060547,4.0546875,1,"['A1', 'B2', 'F2']",6.1,270,0,0.04572132535030116,[100|0|0]
100,0.7274442911148071,0.7366781234741211,-0.028394386172294617,-1.0113431215286255,0.3992563784122467,3.434809923171997,4.0546875,1,"['A1', 'B2', 'F2']",6.1,270,0,0.04603236133709481,[200|0|0]
200,0.7271872162818909,0.7366915345191956,-0.02869962714612484,-1.008448839187622,0.40718382596969604,3.4322710037231445,4.0546875,1,"['A1', 'B2', 'F2']",6.1,270,0,0.046431659944597685,[300|0|0]
300,0.7272632718086243,0.7362632155418396,-0.028306053951382637,-1.009423851966858,0.4102937877178192,3.4466781616210938,4.0546875,1,"['A1', 'B2', 'F2']",6.1,270,0,0.04701829564853117,[400|0|0]
400,0.7271262407302856,0.7364597916603088,-0.028415674343705177,-1.012271523475647,0.4179340898990631,3.452946424484253,4.0546875,1,"['A1', 'B2', 'F2']",6.1,270,0,0.04728180336605767,[500|0|0]
500,0.7272512316703796,0.7367390990257263,-0.028561711311340332,-1.020904302597046,0.4133481979370117,3.445774793624878,4.0546875,1,"['A1', 'B2', 'F2']",6.1,270,0,0.04762086403230798,[600|0|0]
600,0.727220892906189,0.7367317080497742,-0.028603436425328255,-1.0180000066757202,0.41717612743377686,3.4330403804779053,4.0546875,1,"['A1', 'B2', 'F2']",6.1,270,0,0.04767297979072564,[700|0|0]
700,0.7273101806640625,0.7366228103637695,-0.028414534404873848,-1.0182504653930664,0.4174870550632477,3.4183826446533203,4.0546875,1,"['A1', 'B2', 'F2']",6.1,270,0,0.04790859596813077,[800|0|0]
800,0.7268361449241638,0.7367505431175232,-0.02843369171023369,-1.0186833143234253,0.42885446548461914,3.4313864707946777,4.0546875,1,"['A1', 'B2', 'F2']",6.1,270,0,0.04839991311767008,[900|0|0]
900,0.7273945212364197,0.7365288734436035,-0.028687946498394012,-1.0059247016906738,0.41469454765319824,3.415541648864746,4.0546875,1,"['A1', 'B2', 'F2']",6.1,270,0,0.04905226811897424,[1000|0|0]
1000,0.7274715304374695,0.7365419864654541,-0.028373945504426956,-1.0066416263580322,0.40503138303756714,3.436868906021118,4.0546875,1,"['A1', 'B2', 'F2']",6.1,270,0,0.04937584035604146,[1100|0|0]
1100,0.7274085879325867,0.7366076111793518,-0.028596332296729088,-1.0120372772216797,0.403765469789505,3.4637556076049805,4.0546875,1,"['A1', 'B2', 'F2']",6.1,270,0,0.049616099065322744,[1200|0|0]
1200,0.7272564172744751,0.7364286780357361,-0.02839597873389721,-1.0100328922271729,0.4041847586631775,3.4628241062164307,4.0546875,1,"['A1', 'B2', 'F2']",6.1,270,0,0.049924829577604475,[1300|0|0]
1300,0.7270340919494629,0.7365694642066956,-0.028609858825802803,-1.01739501953125,0.40934112668037415,3.47802472114563,4.0546875,1,"['A1', 'B2', 'F2']",6.1,270,0,0.05026393721507193,[1400|0|0]
1400,0.7272671461105347,0.7367957234382629,-0.028608551248908043,-1.0208375453948975,0.4034680426120758,3.442725896835327,4.0546875,1,"['A1', 'B2', 'F2']",6.1,270,0,0.050588758999470185,[1500|0|0]
1500,0.7271621227264404,0.7364758253097534,-0.028712864965200424,-1.0126783847808838,0.4139966368675232,3.4497501850128174,4.0546875,1,"['A1', 'B2', 'F2']",6.1,270,0,0.0509412445668871,[1600|0|0]
1600,0.7271736860275269,0.7364066243171692,-0.02844790555536747,-1.0125155448913574,0.41547125577926636,3.4500176906585693,4.0546875,1,"['A1', 'B2', 'F2']",6.1,270,0,0.051215335749097854,[1700|0|0]
1700,0.7270742654800415,0.7366202473640442,-0.028458017855882645,-1.0190675258636475,0.41987696290016174,3.4530141353607178,4.0546875,1,"['A1', 'B2', 'F2']",6.1,270,0,0.05145117787858314,[1800|0|0]
1800,0.7274249196052551,0.7365416288375854,-0.028712332248687744,-1.0071531534194946,0.40561795234680176,3.4530532360076904,4.0546875,1,"['A1', 'B2', 'F2']",6.1,270,0,0.05189142212740384,[1900|0|0]
1900,0.7274343371391296,0.7366077899932861,-0.02856612578034401,-1.0156742334365845,0.40001988410949707,3.4586713314056396,4.0546875,1,"['A1', 'B2', 'F2']",6.1,270,0,0.05205217759341814,[2000|0|0]
2000,0.7606754302978516,0.6787731051445007,0.029108090326189995,0.0008407104760408401,-0.0009161998750641942,1.6700623035430908,4.0546875,1,"['A1', 'B2', 'F2']",6.1,270,0,0.14023458088028906,[2100|0|0]
2100,0.7568212747573853,0.6961796283721924,0.018306933343410492,-0.5081952810287476,0.5243107676506042,3.3453147411346436,4.0546875,1,"['A1', 'B2', 'F2']",6.1,270,0,0.1610794017711704,[2200|0|0]
2200,0.7238171100616455,0.742509663105011,-0.03589317202568054,-4.02439546585083,2.638296604156494,3.332172155380249,4.0546875,1,"['A1', 'B2', 'F2']",6.1,270,0,0.2396503787768578,[2300|0|0]
2300,0.7247089743614197,0.7410618662834167,-0.03409906104207039,-1.273667335510254,1.0435467958450317,3.1824491024017334,4.0546875,1,"['A1', 'B2', 'F2']",6.1,270,0,0.2421222953991047,[2400|0|0]
2400,0.7258293628692627,0.7389342188835144,-0.031525202095508575,0.11252667754888535,0.3505537807941437,3.2716333866119385,4.0546875,1,"['A1', 'B2', 'F2']",6.1,270,0,0.24564463890075444,[2500|0|0]
2500,0.726536750793457,0.7375301122665405,-0.03052358143031597,0.5374177098274231,0.13890400528907776,3.3765461444854736,4.0546875,1,"['A1', 'B2', 'F2']",6.1,270,0,0.24750881620564436,[2600|0|0]
2600,0.7268962264060974,0.7366183400154114,-0.02965398319065571,0.5549903512001038,0.08628801256418228,3.4481372833251953,4.0546875,1,"['A1', 'B2', 'F2']",6.1,270,0,0.2488190652096251,[2700|0|0]
2700,0.7274695634841919,0.7362160086631775,-0.028872618451714516,0.4284946322441101,0.07158814370632172,3.4829933643341064,4.0546875,1,"['A1', 'B2', 'F2']",6.1,270,0,0.24986840632545393,[2800|0|0]
2800,0.7271921634674072,0.7360171675682068,-0.028751537203788757,0.2667419910430908,0.11525967717170715,3.5336782932281494,4.0546875,1,"['A1', 'B2', 'F2']",6.1,270,0,0.2502305516263492,[2900|0|0]
2900,0.7273942232131958,0.735848605632782,-0.028970269486308098,0.11443141102790833,0.14548565447330475,3.5658071041107178,4.0546875,1,"['A1', 'B2', 'F2']",6.1,270,0,0.25057272859570634,[3000|0|0]
3000,0.7272584438323975,0.7359987497329712,-0.02870756760239601,-0.034743208438158035,0.17871113121509552,3.565211296081543,4.0546875,1,"['A1', 'B2', 'F2']",6.1,270,0,0.25090437836712576,[3100|0|0]
3100,0.7275077104568481,0.7359923124313354,-0.028628606349229813,-0.17159685492515564,0.2027546763420105,3.568556070327759,4.0546875,1,"['A1', 'B2', 'F2']",6.1,270,0,0.2511659317429766,[3200|0|0]
3200,0.7275140881538391,0.7357119917869568,-0.028421035036444664,-0.28252625465393066,0.23455025255680084,3.58516526222229,4.0546875,1,"['A1', 'B2', 'F2']",6.1,270,0,0.25151479588354586,[3300|0|0]
3300,0.7275514006614685,0.7358836531639099,-0.028427688404917717,-0.39001011848449707,0.2545809745788574,3.575169563293457,4.0546875,1,"['A1', 'B2', 'F2']",6.1,270,0,0.25169059155719875,[3400|0|0]
3400,0.7276215553283691,0.7360420823097229,-0.028407100588083267,-0.4861743748188019,0.2728461027145386,3.5806901454925537,4.0546875,1,"['A1', 'B2', 'F2']",6.1,270,0,0.2518650774584429,[3500|0|0]
3500,0.7273033261299133,0.736044704914093,-0.02818172611296177,-0.5788654088973999,0.3043701648712158,3.574110269546509,4.0546875,1,"['A1', 'B2', 'F2']",6.1,270,0,0.2522550394499751,[3600|0|0]
3600,0.7273104786872864,0.736132800579071,-0.02835615910589695,-0.651630163192749,0.3205825686454773,3.555758476257324,4.0546875,1,"['A1', 'B2', 'F2']",6.1,270,0,0.2524505870766271,[3700|0|0]
3700,0.727327287197113,0.7361285090446472,-0.02820352464914322,-0.7128869295120239,0.3362158238887787,3.5439560413360596,4.0546875,1,"['A1', 'B2', 'F2']",6.1,270,0,0.252604204200213,[3800|0|0]
3800,0.7273572683334351,0.7360599637031555,-0.02842620015144348,-0.7618114352226257,0.3440830707550049,3.527080774307251,4.0546875,1,"['A1', 'B2', 'F2']",6.1,270,0,0.2528391120793913,[3900|0|0]
3900,0.7274153232574463,0.7364343404769897,-0.028150025755167007,-0.8217270374298096,0.34581708908081055,3.503964900970459,4.0546875,1,"['A1', 'B2', 'F2']",6.1,270,0,0.2533079410888896,[4000|0|0]
4000,0.7272812724113464,0.7363340854644775,-0.02818085253238678,-0.8650498390197754,0.34506699442863464,3.490978240966797,4.0546875,1,"['A1', 'B2', 'F2']",6.1,270,0,0.25347814974633,[4100|0|0]
4100,0.7272881865501404,0.7366192936897278,-0.028363587334752083,-0.9097440242767334,0.3467774987220764,3.4853572845458984,4.0546875,1,"['A1', 'B2', 'F2']",6.1,270,0,0.25381694694977347,[4200|0|0]
4200,0.7273210287094116,0.7366795539855957,-0.02870454639196396,-0.9351755976676941,0.35559070110321045,3.4854085445404053,4.0546875,1,"['A1', 'B2', 'F2']",6.1,270,0,0.25416474428929536,[4300|0|0]
4300,0.7272451519966125,0.736348569393158,-0.028348160907626152,-0.9506872296333313,0.36706870794296265,3.4923479557037354,4.0546875,1,"['A1', 'B2', 'F2']",6.1,270,0,0.254657003051963,[4400|0|0]
4400,0.7273227572441101,0.7367550730705261,-0.028536880388855934,-0.9815579056739807,0.3635413944721222,3.4878783226013184,4.0546875,1,"['A1', 'B2', 'F2']",6.1,270,0,0.2551118468237667,[4500|0|0]
4500,0.7272903919219971,0.7364746332168579,-0.02829553373157978,-0.986321210861206,0.3761196434497833,3.4974136352539062,4.0546875,1,"['A1', 'B2', 'F2']",6.1,270,0,0.25548325257840615,[4600|0|0]
4600,0.7271447777748108,0.7366656064987183,-0.028784267604351044,-0.9994829893112183,0.38739562034606934,3.478271484375,4.0546875,1,"['A1', 'B2', 'F2']",6.1,270,0,0.256027802918264,[4700|0|0]
4700,0.7271286249160767,0.7369540333747864,-0.02859203889966011,-1.0150413513183594,0.3869938254356384,3.4771060943603516,4.0546875,1,"['A1', 'B2', 'F2']",6.1,270,0,0.2563747940602127,[4800|0|0]
4800,0.7271467447280884,0.7365272641181946,-0.02855725958943367,-1.01279878616333,0.38480663299560547,3.475511074066162,4.0546875,1,"['A1', 'B2', 'F2']",6.1,270,0,0.25680336135525406,[4900|0|0]
4900,0.7271192073822021,0.7364248037338257,-0.02867666818201542,-1.0147967338562012,0.3865490257740021,3.4752683639526367,4.0546875,1,"['A1', 'B2', 'F2']",6.1,270,0,0.2569630950328735,[5000|0|0]
5000,0.727216899394989,0.7363778352737427,-0.028338532894849777,-1.0180186033248901,0.3890455663204193,3.4872641563415527,4.0546875,1,"['A1', 'B2', 'F2']",6.1,270,0,0.2573181798650355,[5100|0|0]
5100,0.7272511720657349,0.7365414500236511,-0.028459224849939346,-1.0214388370513916,0.3934057354927063,3.482234239578247,4.0546875,1,"['A1', 'B2', 'F2']",6.1,270,0,0.2575243617031566,[5200|0|0]
5200,0.7272266149520874,0.7365124821662903,-0.028420938178896904,-1.0189881324768066,0.4002377390861511,3.4580836296081543,4.0546875,1,"['A1', 'B2', 'F2']",6.1,270,0,0.25757828811385014,[5300|0|0]
5300,0.7271001935005188,0.736414909362793,-0.028368515893816948,-1.0144551992416382,0.40611231327056885,3.462855577468872,4.0546875,1,"['A1', 'B2', 'F2']",6.1,270,0,0.25774636824763175,[5400|0|0]
5400,0.7274672985076904,0.7364208102226257,-0.028375830501317978,-1.0158162117004395,0.3914288878440857,3.4564778804779053,4.0546875,1,"['A1', 'B2', 'F2']",6.1,270,0,0.25811359353260016,[5500|0|0]
5500,0.7274702787399292,0.7365730404853821,-0.028528179973363876,-1.0149540901184082,0.3905334770679474,3.437150239944458,4.0546875,1,"['A1', 'B2', 'F2']",6.1,270,0,0.258328984563787,[5600|0|0]
5600,0.7271080613136292,0.73662930727005,-0.028944261372089386,-1.0143067836761475,0.4008287489414215,3.4420173168182373,4.0546875,1,"['A1', 'B2', 'F2']",6.1,270,0,0.2588835034050699,[5700|0|0]
5700,0.7272081971168518,0.7365465760231018,-0.02840915136039257,-1.0197192430496216,0.39255183935165405,3.421388626098633,4.0546875,1,"['A1', 'B2', 'F2']",6.1,270,0,0.25943415244295776,[5800|0|0]
5800,0.7270837426185608,0.7366445064544678,-0.028247583657503128,-1.0227398872375488,0.39624547958374023,3.403751850128174,4.0546875,1,"['A1', 'B2', 'F2']",6.1,270,0,0.25966038996007057,[5900|0|0]
5900,0.727157711982727,0.7368341684341431,-0.028557052835822105,-1.0256332159042358,0.39577823877334595,3.4159650802612305,4.0546875,1,"['A1', 'B2', 'F2']",6.1,270,0,0.2600308144539947,[6000|0|0]
6000,0.7273511290550232,0.7365001440048218,-0.028480734676122665,-1.0156530141830444,0.3937119245529175,3.414863348007202,4.0546875,1,"['A1', 'B2', 'F2']",6.1,270,0,0.2604242695908768,[6100|0|0]
6100,0.7272661328315735,0.7364497184753418,-0.028291258960962296,-1.0130788087844849,0.3992839455604553,3.423201084136963,4.0546875,1,"['A1', 'B2', 'F2']",6.1,270,0,0.26063797064061583,[6200|0|0]
6200,0.7266385555267334,0.7353024482727051,-0.02924799546599388,-0.9860840439796448,0.4292505383491516,3.4429450035095215,4.0546875,1,"['A/E1', 'B2', 'C1']",6.1,270,0,0.2622582875637727,[6200|0|0]
6300,0.7263866662979126,0.7355183959007263,-0.029120996594429016,-0.9844111204147339,0.4564491808414459,3.9396562576293945,3.029296875,1,"['A/E1', 'B2', 'C1']",6.1,270,0,0.2626135484186704,[6200|0|0]
6400,0.7248105406761169,0.7391917109489441,-0.021369706839323044,-4.660813331604004,4.710947036743164,7.344747066497803,3.453125,1,"['A/E1', 'B2', 'C1']",6.1,270,0,0.27133478160479463,[6200|0|0]
6500,0.7097944617271423,0.7528337240219116,0.01825222373008728,-8.068533897399902,9.456193923950195,11.156826972961426,3.599609375,1,"['A/E1', 'B2', 'C1']",6.1,270,0,0.31584865056416533,[6200|0|0]
6600,0.6772002577781677,0.7779844403266907,0.0744946151971817,-2.379178524017334,1.914692997932434,9.521780014038086,3.53125,1,"['A/E1', 'B2', 'C1']",6.1,270,0,0.38554906132083683,[6200|0|0]
6700,0.6400936841964722,0.8064635396003723,0.14119282364845276,6.859738826751709,-6.331974029541016,5.420250415802002,3.541015625,1,"['A/E1', 'B2', 'C1']",6.1,270,0,0.46701443991213293,[6200|0|0]
6800,0.6144160032272339,0.8233275413513184,0.22190319001674652,9.82735824584961,-9.46979808807373,1.6878573894500732,3.57421875,1,"['A/E1', 'B2', 'C1']",6.1,270,0,0.5533735801019131,[6200|0|0]
6900,0.6045114398002625,0.8243650794029236,0.3099163770675659,5.894619464874268,-9.217547416687012,-0.5134447813034058,3.583984375,1,"['A/E1', 'B2', 'C1']",6.1,270,0,0.6419483956915035,[6200|0|0]
7000,0.6067095994949341,0.8220097422599792,0.4068063795566559,4.1184563636779785,-7.1310601234436035,-1.1754577159881592,3.58984375,1,"['A/E1', 'B2', 'C1']",6.1,270,0,0.7388919467995378,[6200|0|0]
7100,0.6155653595924377,0.8107709884643555,0.5011442303657532,1.720840573310852,-4.547506332397461,-2.6095457077026367,3.583984375,1,"['A/E1', 'B2', 'C1']",6.1,270,0,0.8343087386606285,[6200|0|0]
7201,0.628237783908844,0.7903063893318176,0.591168999671936,1.5000698566436768,-2.5925259590148926,-4.403070449829102,3.59375,1,"['A/E1', 'B2', 'C1']",6.1,270,0,0.9274959118355991,[6200|0|0]
7300,0.6422783732414246,0.7742934823036194,0.6870455145835876,-0.4234292507171631,-0.9467384219169617,-4.695858478546143,3.57421875,1,"['A/E1', 'B2', 'C1']",6.1,270,0,1.025709238079567,[6200|0|0]
7400,0.657766580581665,0.7622265219688416,0.7805938720703125,-2.7220630645751953,0.6946485042572021,-2.9970433712005615,3.57421875,1,"['A/E1', 'B2', 'C1']",6.1,270,0,1.1212958024429724,[6200|0|0]
7501,0.6745439171791077,0.7548341155052185,0.8774312138557434,-2.813624620437622,1.7453644275665283,-2.2443885803222656,3.615234375,1,"['A/E1', 'B2', 'C1']",6.1,270,0,1.2198533869339474,[6200|0|0]
7601,0.6894961595535278,0.7540590763092041,0.973782479763031,-1.789468765258789,2.051699161529541,-1.9771729707717896,3.6640625,1,"['A/E1', 'B2', 'C1']",6.1,270,0,1.3173610106344336,[6200|0|0]
7701,0.7013537883758545,0.7574240565299988,1.0610873699188232,-1.1832002401351929,2.4877054691314697,-1.6816786527633667,3.6796875,1,"['A/E1', 'B2', 'C1']",6.1,270,0,1.4055316990648261,[6200|0|0]
7801,0.710125207901001,0.7622423768043518,1.1322892904281616,-0.575073778629303,2.771425247192383,-0.8461294174194336,3.66796875,1,"['A/E1', 'B2', 'C1']",6.1,270,0,1.4774334896890553,[6200|0|0]
7901,0.715525209903717,0.7684524059295654,1.18610417842865,0.02475249208509922,2.3502304553985596,-0.13201245665550232,3.65234375,1,"['A/E1', 'B2', 'C1']",6.1,270,0,1.531873976956074,[6200|0|0]
8002,0.7171283960342407,0.7749001383781433,1.2233814001083374,0.4625418186187744,2.094770669937134,0.19567716121673584,3.626953125,1,"['A/E1', 'B2', 'C1']",6.1,270,0,1.569738666518437,[6200|0|0]
8101,0.7160717844963074,0.7813848853111267,1.2472254037857056,0.902651309967041,1.4098848104476929,0.3990221619606018,3.611328125,1,"['A/E1', 'B2', 'C1']",6.1,270,0,1.594471334835731,[6200|0|0]
8202,0.7135645151138306,0.7880269885063171,1.264326810836792,0.7470376491546631,0.9527514576911926,-0.15067805349826813,3.60546875,1,"['A/E1', 'B2', 'C1']",6.1,270,0,1.6129878695476798,[6200|0|0]
8302,0.7104513645172119,0.7906885743141174,1.2740012407302856,1.1820173263549805,0.6495252847671509,-1.0325597524642944,3.59375,1,"['A/E1', 'B2', 'C1']",6.1,270,0,1.623493598433085,[6200|0|0]
8402,0.7076873779296875,0.7937211394309998,1.280950903892517,0.8786583542823792,0.14788684248924255,-2.2066762447357178,3.59375,1,"['A/E1', 'B2', 'C1']",6.1,270,0,1.6315641554840339,[6200|0|0]
8500,0.7054656744003296,0.7954168915748596,1.2850351333618164,0.760558545589447,0.16334748268127441,-3.0784835815429688,3.578125,1,"['A/E1', 'B2', 'C1']",6.1,270,0,1.6365131424777186,[6200|0|0]
8600,0.7028841376304626,0.7963941693305969,1.2879691123962402,0.47754088044166565,-0.01671641878783703,-4.0239129066467285,3.583984375,1,"['A/E1', 'B2', 'C1']",6.1,270,0,1.6405414965932938,[6200|0|0]
8700,0.701357901096344,0.7965770363807678,1.2898832559585571,0.4927326440811157,0.1251196563243866,-4.808339595794678,3.583984375,1,"['A/E1', 'B2', 'C1']",6.1,270,0,1.6429964474875636,[6200|0|0]
8800,0.7006344795227051,0.795745313167572,1.2905327081680298,0.3083188831806183,0.1972036063671112,-5.596858024597168,3.578125,1,"['A/E1', 'B2', 'C1']",6.1,270,0,1.6442758576833036,[6200|0|0]
8900,0.7002390027046204,0.7939791083335876,1.290566086769104,0.34783706068992615,0.3618321120738983,-6.246995449066162,3.578125,1,"['A/E1', 'B2', 'C1']",6.1,270,0,1.646086105058731,[6200|0|0]
9000,0.6992474794387817,0.7922454476356506,1.2889907360076904,0.01682714931666851,0.5140405893325806,-6.456929683685303,3.57421875,1,"['A/E1', 'B2', 'C1']",6.1,270,0,1.6486298086231734,[6200|0|0]
9100,0.6972032785415649,0.7913410663604736,1.2857884168624878,-0.05248130485415459,0.6062077283859253,-6.497272491455078,3.5625,1,"['A/E1', 'B2', 'C1']",6.1,270,0,1.6525351268825224,[6200|0|0]
9200,0.6946026086807251,0.7897358536720276,1.2826576232910156,-0.12074632197618484,0.46318668127059937,-6.788599491119385,3.568359375,1,"['A/E1', 'B2', 'C1']",6.1,270,295.11483488614454,1.6569102908665805,[6200|0|0]
9300,0.6930602788925171,0.7880145311355591,1.2783235311508179,4.752620220184326,-6.974831581115723,-6.843606472015381,3.552734375,1,"['A/E1', 'B2', 'C1']",6.1,270,295.11483488614454,1.661822122208338,[6200|0|0]
9400,0.7113987803459167,0.7805036306381226,1.2884461879730225,7.374045372009277,-13.335320472717285,-6.346832275390625,3.578125,1,"['A/E1', 'B2', 'C1']",6.1,270,295.11483488614454,1.6840748173929412,[6200|0|0]
9500,0.7444518804550171,0.7479838132858276,1.283325433731079,8.360939979553223,-16.9326171875,-4.695987701416016,3.568359375,1,"['A/E1', 'B2', 'C1']",6.1,270,295.11483488614454,1.7307253058304186,[6200|0|0]
9600,0.801200807094574,0.7014554142951965,1.2759298086166382,4.8984904289245605,-14.80313777923584,-2.49892520904541,3.546875,1,"['A/E1', 'B2', 'C1']",6.1,270,295.11483488614454,1.8044818503414417,[6200|0|0]
9700,0.8784542083740234,0.6492862701416016,1.2699862718582153,0.3704531490802765,-9.965880393981934,-0.4811080992221832,3.55859375,1,"['A/E1', 'B2', 'C1']",6.1,270,295.11483488614454,1.8978897367331213,[6200|0|0]
9800,0.9469313621520996,0.6235968470573425,1.244181513786316,-2.7228147983551025,-3.104494094848633,3.4165804386138916,3.541015625,1,"['A/E1', 'B2', 'C1']",6.1,270,295.11483488614454,1.9754458621333604,[6200|0|0]
9900,1.0379384756088257,0.5825152397155762,1.2406457662582397,-4.12343168258667,2.0094268321990967,3.4594902992248535,3.552734375,1,"['A/E1', 'B2', 'C1']",6.1,270,295.11483488614454,2.0753582971556876,[6200|0|0]
10000,1.1223394870758057,0.5525299310684204,1.2429925203323364,-4.841841697692871,5.924821853637695,3.7617452144622803,3.55859375,1,"['A/E1', 'B2', 'C1']",6.1,270,295.11483488614454,2.1649582788855897,[6200|0|0]
10100,1.1957687139511108,0.5315272212028503,1.2462890148162842,-4.746274948120117,8.4822998046875,3.730382204055786,3.568359375,1,"['A/E1', 'B2', 'C1']",6.1,270,295.11483488614454,2.241403239851536,[6200|0|0]
10200,1.2549635171890259,0.5173592567443848,1.2477657794952393,-3.9893314838409424,9.35596752166748,3.6368818283081055,3.578125,1,"['A/E1', 'B2', 'C1']",6.1,270,295.11483488614454,2.3022878584443203,[6200|0|0]
10300,1.2971770763397217,0.5096690654754639,1.2472848892211914,-2.6554079055786133,8.946556091308594,3.0607495307922363,3.5625,1,"['A/E1', 'B2', 'C1']",6.1,270,295.11483488614454,2.345198869541445,[6200|0|0]
10400,1.3262563943862915,0.5048452615737915,1.242659330368042,-1.4412872791290283,7.678627967834473,2.6003689765930176,3.552734375,1,"['A/E1', 'B2', 'C1']",6.1,270,295.11483488614454,2.375036289283093,[6200|0|0]
10500,1.3433581590652466,0.5016245245933533,1.2376527786254883,-0.5706627368927002,6.006924152374268,2.575505495071411,3.55859375,1,"['A/E1', 'B2', 'C1']",6.1,270,295.11483488614454,2.393144548784834,[6200|0|0]
10600,1.3521417379379272,0.49831441044807434,1.2329423427581787,0.021930396556854248,3.997636079788208,2.4797205924987793,3.546875,1,"['A/E1', 'B2', 'C1']",6.1,270,295.11483488614454,2.4036467542449937,[6200|0|0]
10700,1.356001615524292,0.49687284231185913,1.2306528091430664,0.14875371754169464,2.5024678707122803,2.4055655002593994,3.552734375,1,"['A/E1', 'B2', 'C1']",6.1,270,295.11483488614454,2.4083604298646986,[6200|0|0]
10800,1.3569871187210083,0.49145829677581787,1.226330041885376,0.06297803670167923,1.529873251914978,2.3943021297454834,3.5625,1,"['A/E1', 'B2', 'C1']",6.1,270,295.11483488614454,2.4153586322536524,[6200|0|0]
10900,1.357241153717041,0.48789143562316895,1.2230318784713745,-0.1382896900177002,0.9683387875556946,2.422767162322998,3.552734375,1,"['A/E1', 'B2', 'C1']",6.1,270,295.11483488614454,2.4202232919711397,[6200|0|0]
11000,1.3574614524841309,0.4841291606426239,1.220719337463379,-0.2728974223136902,0.6916953325271606,2.40268874168396,3.552734375,1,"['A/E1', 'B2', 'C1']",6.1,270,295.11483488614454,2.424644953478953,[6200|0|0]
11100,1.3578799962997437,0.48126959800720215,1.218055248260498,-0.3529224097728729,0.8909431099891663,2.43320631980896,3.55859375,1,"['A/E1', 'B2', 'C1']",6.1,270,295.11483488614454,2.428575557589315,[6200|0|0]
11200,1.3576250076293945,0.48018935322761536,1.21665620803833,-0.3709298074245453,0.7013064622879028,2.477368116378784,3.546875,1,"['A/E1', 'B2', 'C1']",6.1,270,295.11483488614454,2.430361407960728,[6200|0|0]
11300,1.357831597328186,0.4798240065574646,1.214957594871521,-0.6152334809303284,0.9486931562423706,2.4313809871673584,3.541015625,1,"['A/E1', 'B2', 'C1']",6.1,270,295.11483488614454,2.4321111062728646,[6200|0|0]
11400,1.3558138608932495,0.47763800621032715,1.2113479375839233,-0.4669671356678009,0.8102489709854126,2.346916675567627,3.552734375,1,"['A/E1', 'B2', 'C1']",6.1,270,295.11483488614454,2.436788657295832,[6200|0|0]
11500,1.3536781072616577,0.47597742080688477,1.2083038091659546,-0.5173362493515015,0.9335585236549377,2.6260058879852295,3.546875,1,"['A/E1', 'B2', 'C1']",6.1,270,295.11483488614454,2.44086121242524,[6200|0|0]
11600,1.3517767190933228,0.4766451120376587,1.207354187965393,-0.44553014636039734,0.8868672251701355,2.731358766555786,3.541015625,1,"['A/E1', 'B2', 'C1']",6.1,270,295.11483488614454,2.4430889621802376,[6200|0|0]
11700,1.3483858108520508,0.47857245802879333,1.2055429220199585,-0.2860720455646515,0.6584289073944092,2.513906240463257,3.552734375,1,"['A/E1', 'B2', 'C1']",6.1,270,295.11483488614454,2.447389381415075,[6200|0|0]
11800,1.3445110321044922,0.48066312074661255,1.203271508216858,0.029303550720214844,0.2773018777370453,2.2620973587036133,3.546875,1,"['A/E1', 'B2', 'C1']",6.1,270,295.11483488614454,2.452343581815455,[6200|0|0]
11900,1.3404228687286377,0.4826558232307434,1.2007180452346802,0.3190360367298126,-0.008905097842216492,2.0639119148254395,3.537109375,1,"['A/E1', 'B2', 'C1']",6.1,270,295.11483488614454,2.457559338345364,[6200|0|0]
12000,1.3369783163070679,0.4856136441230774,1.1986750364303589,0.39386671781539917,-0.019647734239697456,1.9323548078536987,3.546875,1,"['A/E1', 'B2', 'C1']",6.1,270,295.11483488614454,2.4625380460884037,[6200|0|0]
12100,1.3337132930755615,0.48694634437561035,1.1964144706726074,0.48409244418144226,-0.01485778670758009,1.8497120141983032,3.541015625,1,"['A/E1', 'B2', 'C1']",6.1,270,295.11483488614454,2.4667269151733113,[6200|0|0]
12200,1.3304178714752197,0.48867520689964294,1.1932592391967773,0.39797067642211914,0.1091865673661232,1.8187061548233032,3.53125,1,"['A/E1', 'B2', 'C1']",6.1,270,295.11483488614454,2.471605875597118,[6200|0|0]
12300,1.3268402814865112,0.4901062250137329,1.1875439882278442,0.8191152215003967,-0.2655220031738281,1.4592373371124268,3.822265625,1,"['A/E1', 'B2', 'C1']",6.1,270,0,2.4784987020571454,[6200|0|0]
12400,1.323419213294983,0.4923419952392578,1.15276038646698,0.7978562116622925,-1.1845005750656128,0.8995780348777771,3.763671875,1,"['A/E1', 'B2', 'C1']",6.1,270,0,2.5135215706936638,[6200|0|0]
12500,1.3191337585449219,0.4940112233161926,1.0768849849700928,-0.22961430251598358,-0.4539529085159302,-1.4903026819229126,3.642578125,1,"['A/E1', 'B2', 'C1']",6.1,270,0,2.589536227156095,[6200|0|0]
12600,1.3157137632369995,0.4950675070285797,0.9687022566795349,0.15484818816184998,0.1441846638917923,-2.1769940853118896,3.552734375,1,"['A/E1', 'B2', 'C1']",6.1,270,0,2.6977781543542743,[6200|0|0]
12700,1.3124704360961914,0.4947879910469055,0.8440729379653931,0.015466541983187199,-0.1776985228061676,-0.08534490317106247,3.521484375,1,"['A/E1', 'B2', 'C1']",6.1,270,0,2.822449981096636,[6200|0|0]
12800,1.31074059009552,0.49389562010765076,0.7167399525642395,0.4813184440135956,0.651844322681427,-1.3875665664672852,3.521484375,1,"['A/E1', 'B2', 'C1']",6.1,270,0,2.9497978427365146,[6200|0|0]
12900,1.307403326034546,0.4918293356895447,0.5915278196334839,-0.38258102536201477,1.62647545337677,0.9889941811561584,3.541015625,1,"['A/E1', 'B2', 'C1']",6.1,270,0,3.0750714836023345,[6200|0|0]
13000,1.2982600927352905,0.4848565459251404,0.4684273600578308,2.93678879737854,6.0539045333862305,2.284655809402466,3.509765625,1,"['A/E1', 'B2', 'C1']",6.1,270,0,3.1987078118396295,[6200|0|0]
13100,1.2782312631607056,0.4763236343860626,0.3422832787036896,-4.652804851531982,3.0940425395965576,4.139842510223389,3.416015625,1,"['A/E1', 'B2', 'C1']",6.1,270,0,3.326716771893767,[6200|0|0]
13200,1.251510500907898,0.47254347801208496,0.22675733268260956,-0.9616710543632507,-4.821774959564209,6.021480560302734,3.3984375,1,"['A/E1', 'B2', 'C1']",6.1,270,0,3.4453529085539274,[6200|0|0]
13300,1.2233866453170776,0.47968000173568726,0.1312568187713623,-6.197817325592041,1.6740834712982178,9.9705228805542,3.47265625,1,"['A/E1', 'B2', 'C1']",6.1,270,0,3.545163876796216,[6200|0|0]
13400,1.1908321380615234,0.49838316440582275,0.05460885167121887,-3.9422926902770996,-3.9636430740356445,11.270979881286621,3.404296875,1,"['A/E1', 'B2', 'C1']",6.1,270,0,3.630513247602931,[6200|0|0]
13500,1.164931297302246,0.5257859230041504,0.0003048144280910492,2.073212146759033,-9.910554885864258,11.290010452270508,3.388671875,1,"['A/E1', 'B2', 'C1']",6.1,270,0,3.696624465953062,[6200|0|0]
13600,1.1512782573699951,0.5579183101654053,-0.00993432104587555,-1.343031644821167,3.2602179050445557,10.37304973602295,3.505859375,1,"['A/E1', 'B2', 'C1']",6.1,270,0,3.7330076447494047,[6200|0|0]
13700,1.1440244913101196,0.584381103515625,0.00926507543772459,12.507320404052734,-10.18388557434082,9.625923156738281,3.568359375,1,"['A/E1', 'B2', 'C1']",6.1,270,0,3.7664966486056306,[6200|0|0]
13800,1.1569018363952637,0.5940836071968079,0.027032578364014626,16.701425552368164,-13.42992877960205,5.462395191192627,3.552734375,1,"['A/E1', 'B2', 'C1']",6.1,270,0,3.790489329872237,[6200|0|0]
13900,1.1934911012649536,0.578871488571167,0.036978743970394135,14.056464195251465,-9.961379051208496,9.864375114440918,3.525390625,1,"['A/E1', 'B2', 'C1']",6.1,270,0,3.831344061141142,[6200|0|0]
14000,1.2479866743087769,0.5444675087928772,0.04198624566197395,8.163409233093262,-5.670507431030273,3.650165557861328,3.509765625,1,"['A/E1', 'B2', 'C1']",6.1,270,0,3.895985196489702,[6200|0|0]
14100,1.3100239038467407,0.5041930675506592,0.04688786715269089,1.5938458442687988,0.690819263458252,0.8065016865730286,3.53125,1,"['A/E1', 'B2', 'C1']",6.1,270,0,3.970111267202759,[6200|0|0]
14200,1.3729734420776367,0.4652629494667053,0.053969401866197586,-3.017547845840454,5.8786540031433105,0.007855421863496304,3.546875,1,"['A/E1', 'B2', 'C1']",6.1,270,0,4.044464119141419,[6200|0|0]
14300,1.4281378984451294,0.4361400902271271,0.06102752313017845,-4.94766902923584,9.86094856262207,0.6402376890182495,3.552734375,1,"['A/E1', 'B2', 'C1']",6.1,270,0,4.10724210296048,[6200|0|0]
14400,1.4697003364562988,0.41949084401130676,0.06404198706150055,-6.920426845550537,10.273789405822754,0.2307271957397461,3.541015625,1,"['A/E1', 'B2', 'C1']",6.1,270,0,4.152116601796463,[6200|0|0]
14500,1.4978073835372925,0.41498103737831116,0.06252091377973557,-6.11763334274292,10.741981506347656,-0.8497426509857178,3.521484375,1,"['A/E1', 'B2', 'C1']",6.1,270,0,4.180623760816763,[6200|0|0]
14600,1.5128870010375977,0.4221319258213043,0.05820544436573982,-3.699836015701294,9.780895233154297,-1.8973184823989868,3.515625,1,"['A/E1', 'B2', 'C1']",6.1,270,0,4.197861897193494,[6200|0|0]
14700,1.5158408880233765,0.4355572462081909,0.054038189351558685,-0.5896283984184265,7.513547420501709,-2.9930574893951416,3.509765625,1,"['A/E1', 'B2', 'C1']",6.1,270,0,4.212226112806208,[6200|0|0]
14800,1.5089962482452393,0.45208486914634705,0.051152653992176056,1.0294184684753418,4.404119491577148,-3.576780319213867,3.515625,1,"['A/E1', 'B2', 'C1']",6.1,270,0,4.23034620463789,[6200|0|0]
14900,1.497170329093933,0.4669209122657776,0.051330216228961945,2.6056952476501465,2.5537359714508057,-3.4373772144317627,3.525390625,1,"['A/E1', 'B2', 'C1']",6.1,270,0,4.249319661559673,[6200|0|0]
15000,1.484010934829712,0.4786672294139862,0.051467638462781906,1.3428877592086792,0.8136658072471619,-2.705832004547119,3.521484375,1,"['A/E1', 'B2', 'C1']",6.1,270,0,4.266959517251199,[6200|0|0]
15100,1.4713469743728638,0.4887756407260895,0.051867518573999405,2.583130121231079,0.9793964624404907,-1.9194685220718384,3.521484375,1,"['A/E1', 'B2', 'C1']",6.1,270,0,4.283168026677134,[6200|0|0]
15200,1.457565426826477,0.49620458483695984,0.05281567946076393,2.8705639839172363,0.8667576313018799,-2.374451160430908,3.521484375,1,"['A/E1', 'B2', 'C1']",6.1,270,0,4.298853028189501,[6200|0|0]
15300,1.444534182548523,0.5003277063369751,0.052999045699834824,3.4590699672698975,0.3650567829608917,-2.9298388957977295,3.521484375,1,"['F1', 'B2', 'B1']",6.1,270,0,4.312522230123529,[6200|100|0]
15400,1.430788516998291,0.4998757243156433,0.05315689742565155,2.662574529647827,0.36864084005355835,-2.683105945587158,3.521484375,1,"['F1', 'B2', 'B1']",6.1,270,0,4.326276230499193,[6200|200|0]
15500,1.4162660837173462,0.4971131980419159,0.053425997495651245,1.311368465423584,0.2960309386253357,-2.356184720993042,3.525390625,1,"['F1', 'B2', 'B1']",6.1,270,0,4.341061528421799,[6200|300|0]
15600,1.4023611545562744,0.49327388405799866,0.05687226727604866,2.1208062171936035,-0.0333121083676815,-2.123789072036743,3.53125,1,"['F1', 'B2', 'B1']",6.1,270,0,4.355892717256171,[6200|400|0]
15700,1.3883384466171265,0.48897093534469604,0.06023135036230087,-1.4818719625473022,-1.074299931526184,-1.4874426126480103,3.53125,1,"['F1', 'B2', 'B1']",6.1,270,0,4.370940479374051,[6200|500|0]
15800,1.374443769454956,0.48611581325531006,0.061011068522930145,0.5273250937461853,0.015640323981642723,-0.9283398389816284,3.525390625,1,"['F1', 'B2', 'B1']",6.1,270,0,4.385146877087625,[6200|600|0]
15900,1.3620773553848267,0.48375576734542847,0.059081289917230606,0.652222752571106,-0.0881042629480362,-0.580823540687561,3.515625,1,"['F1', 'B2', 'B1']",6.1,270,0,4.39788351946769,[6200|700|0]
16000,1.3485066890716553,0.48103412985801697,0.05689448490738869,0.1940690279006958,0.683590829372406,0.13684940338134766,3.509765625,1,"['F1', 'B2', 'B1']",6.1,270,0,4.411896099920534,[6200|800|0]
16100,1.333262324333191,0.4786418080329895,0.05548626184463501,1.3643717765808105,0.8872528672218323,0.6115811467170715,3.515625,1,"['F1', 'B2', 'B1']",6.1,270,0,4.427391162107834,[6200|900|0]
16200,1.3157631158828735,0.47570058703422546,0.05584721267223358,-0.8947539329528809,-0.04905169457197189,0.3527376353740692,3.515625,1,"['F1', 'B2', 'B1']",6.1,270,0,4.4451394961944795,[6200|1000|0]
16300,1.2985326051712036,0.47323331236839294,0.05846449360251427,-0.49324271082878113,-0.7859170436859131,-0.056982263922691345,3.525390625,1,"['F1', 'B2', 'B1']",6.1,270,0,4.46274143083615,[6200|1100|0]
16400,1.282212257385254,0.47172069549560547,0.06173892319202423,-0.781908392906189,0.4082472324371338,0.6433438658714294,3.525390625,1,"['F1', 'B2', 'B1']",6.1,270,0,4.479455605981662,[6200|1200|0]
16500,1.2665051221847534,0.47242027521133423,0.06309828907251358,0.06025531888008118,-0.8611583113670349,0.3544255197048187,3.521484375,1,"['F1', 'B2', 'B1']",6.1,270,0,4.495236967886849,[6200|1300|0]
16600,1.251082181930542,0.47490447759628296,0.06194394454360008,-1.2035845518112183,-0.3121612071990967,0.6513356566429138,3.509765625,1,"['F1', 'B2', 'B1']",6.1,270,0,4.510901285901554,[6200|1400|0]
16700,1.2360323667526245,0.47906461358070374,0.05805140361189842,-1.281053066253662,0.9428662657737732,0.5985080599784851,3.505859375,1,"['F1', 'B2', 'B1']",6.1,270,0,4.526993381576242,[6200|1500|0]
16800,1.2203385829925537,0.48493972420692444,0.05437656491994858,1.4951715469360352,0.3681250512599945,-0.2702248692512512,3.5,1,"['F1', 'B2', 'B1']",6.1,270,0,4.544149028255689,[6200|1600|0]
16900,1.2045340538024902,0.48987874388694763,0.053227499127388,-0.1836995929479599,-0.4660102427005768,-0.6408998966217041,3.505859375,1,"['F1', 'B2', 'B1']",6.1,270,0,4.56074714292317,[6200|1700|0]
17000,1.1888480186462402,0.49336937069892883,0.053510911762714386,-0.33378148078918457,-0.30796927213668823,-0.7965128421783447,3.509765625,1,"['F1', 'B2', 'B1']",6.1,270,0,4.576819370434797,[6200|1800|0]
17100,1.173755407333374,0.4983969032764435,0.05330395698547363,-0.6008461713790894,-0.4405864179134369,-1.0887272357940674,3.5,1,"['F1', 'B2', 'B1']",6.1,270,0,4.592728670555766,[6200|1900|0]
17200,1.1583430767059326,0.5048888921737671,0.05140095204114914,1.1211084127426147,0.5359752774238586,-1.4038238525390625,3.921875,1,"['F1', 'B2', 'B1']",6.1,270,0,4.609560404959287,[6200|2000|0]
17300,1.1412572860717773,0.5107441544532776,0.012697959318757057,4.534247875213623,1.2794679403305054,-1.5541353225708008,3.927734375,1,"['F1', 'B2', 'B1']",6.1,270,0,4.652270239700544,[6200|2100|0]
17400,1.1403037309646606,0.5142219066619873,-0.02379416674375534,-0.9473503828048706,-5.394280910491943,-11.872359275817871,3.931640625,1,"['F1', 'B2', 'B1']",6.1,270,0,4.688940108698535,[6200|2200|0]
17500,1.1400610208511353,0.5154785513877869,-0.022367579862475395,-2.217643976211548,-6.788811206817627,-10.582405090332031,3.931640625,1,"['F1', 'B2', 'B1']",6.1,270,0,4.690856671845402,[6200|2300|0]
17600,1.1425414085388184,0.5169614553451538,-0.02294085919857025,-6.121974945068359,-11.145031929016113,-11.150337219238281,3.9375,1,"['F1', 'B2', 'B1']",6.1,270,0,4.693802851817022,[6200|2400|0]
17700,1.1420818567276,0.5157201886177063,-0.024733630940318108,-1.3743616342544556,-9.569533348083496,-8.617341995239258,3.9375,1,"['F1', 'B2', 'B1']",6.1,270,0,4.696031295550633,[6200|2500|0]
17800,1.1415531635284424,0.5155915021896362,-0.02451188676059246,-0.6159707903862,-9.0924072265625,-8.431859970092773,3.9375,1,"['F1', 'B2', 'B1']",6.1,270,0,4.696618872930088,[6200|2600|0]
17900,1.1416798830032349,0.5157070755958557,-0.024085193872451782,-0.5539695620536804,-9.130133628845215,-8.42033863067627,3.943359375,1,"['F1', 'B2', 'B1']",6.1,270,0,4.697078744497275,[6200|2700|0]
18000,1.141662359237671,0.5156767964363098,-0.024224765598773956,-0.4835289716720581,-9.158845901489258,-8.399935722351074,3.943359375,1,"['F1', 'B2', 'B1']",6.1,270,0,4.697222633957107,[6200|2800|0]
18100,1.1416105031967163,0.5156672596931458,-0.024058561772108078,-0.4278936982154846,-9.200526237487793,-8.40027904510498,3.94921875,1,"['F1', 'B2', 'B1']",6.1,270,0,4.697397000554975,[6200|2900|0]
18200,1.1417618989944458,0.5157217979431152,-0.023936167359352112,-0.3780131936073303,-9.240549087524414,-8.413994789123535,3.94921875,1,"['F1', 'B2', 'B1']",6.1,270,0,4.697599177459081,[6200|3000|0]
18300,1.1417179107666016,0.5154048800468445,-0.024062087759375572,-0.3177591562271118,-9.278491973876953,-8.400127410888672,3.94921875,1,"['F1', 'B2', 'B1']",6.1,270,0,4.697943020249186,[6200|3100|0]
18400,1.1417059898376465,0.5157433748245239,-0.024279464036226273,-0.2803943455219269,-9.311213493347168,-8.3980131149292,3.94921875,1,"['F1', 'B2', 'B1']",6.1,270,0,4.698345479276667,[6200|3200|0]
18500,1.1417702436447144,0.5151385068893433,-0.024312768131494522,-0.218611478805542,-9.343184471130371,-8.365797996520996,3.953125,1,"['F1', 'B2', 'B1']",6.1,270,0,4.6989546614608235,[6200|3300|0]
18600,1.1414361000061035,0.5152156352996826,-0.02410542592406273,-0.18660779297351837,-9.358519554138184,-8.343789100646973,3.953125,1,"['F1', 'B2', 'B1']",6.1,270,0,4.699355400220975,[6200|3400|0]
18700,1.1416130065917969,0.5150004625320435,-0.024028653278946877,-0.15313845872879028,-9.3871488571167,-8.316204071044922,3.953125,1,"['F1', 'B2', 'B1']",6.1,270,0,4.699644345369807,[6200|3500|0]
18800,1.14174222946167,0.5155802965164185,-0.024282919242978096,-0.1468803882598877,-9.409662246704102,-8.315091133117676,3.958984375,1,"['F1', 'B2', 'B1']",6.1,270,0,4.7002905320146695,[6200|3600|0]
18900,1.1415247917175293,0.5155763626098633,-0.02419297583401203,-0.12961527705192566,-9.419560432434082,-8.298989295959473,3.958984375,1,"['F1', 'B2', 'B1']",6.1,270,0,4.700525871057359,[6200|3700|0]
19000,1.1417125463485718,0.5150033831596375,-0.024015024304389954,-0.09682507067918777,-9.436969757080078,-8.311127662658691,3.958984375,1,"['F1', 'B2', 'B1']",6.1,270,0,4.7011545394904415,[6200|3800|0]
19100,1.1415966749191284,0.5151836276054382,-0.024105509743094444,-0.0936998799443245,-9.44506549835205,-8.333414077758789,3.958984375,1,"['F1', 'B2', 'B1']",6.1,270,0,4.701387137562275,[6200|3900|0]
19200,1.14176344871521,0.5151649117469788,-0.023919813334941864,-0.07687453180551529,-9.456314086914062,-8.309876441955566,3.96484375,1,"['F1', 'B2', 'B1']",6.1,270,0,4.701637431266587,[6200|4000|0]
19300,1.141866683959961,0.5152392983436584,-0.02396099455654621,-0.06329235434532166,-9.463253021240234,-8.303184509277344,3.96484375,1,"['F1', 'B2', 'B1']",6.1,270,0,4.7017711727131815,[6200|4100|0]
19400,1.1417958736419678,0.5156136751174927,-0.0241358894854784,-0.08378536254167557,-9.48062515258789,-8.397957801818848,3.96484375,1,"['F1', 'B2', 'B1']",6.1,270,0,4.702190410481145,[6200|4200|0]
19500,1.1420012712478638,0.5150721669197083,-0.024430276826024055,-0.046866871416568756,-9.491567611694336,-8.764998435974121,3.96484375,1,"['F1', 'B2', 'B1']",6.1,270,0,4.702840089795152,[6200|4300|0]
19600,1.141107201576233,0.5127882957458496,-0.024417992681264877,-0.3950099050998688,-9.638162612915039,-6.502251625061035,3.96484375,1,"['F1', 'B2', 'B1']",6.1,270,0,4.705292757529829,[6200|4400|0]
19700,1.1338435411453247,0.5069724321365356,-0.019534440711140633,0.007648364640772343,-2.1553258895874023,-6.497947692871094,3.96484375,1,"['F1', 'B2', 'B1']",6.1,270,0,4.715801521121356,[6200|4500|0]
19800,1.1160438060760498,0.503629207611084,-0.01258506253361702,1.3426882028579712,9.96037769317627,-11.297638893127441,3.96875,1,"['F1', 'B2', 'B1']",6.1,270,0,4.735200015285033,[6200|4600|0]
19900,1.1073986291885376,0.49546366930007935,-0.00012055551633238792,9.681498527526855,26.027042388916016,-23.8648681640625,3.96875,1,"['F1', 'B2', 'B1']",6.1,270,0,4.752427291172671,[6200|4700|0]
20000,1.1267939805984497,0.48344627022743225,0.015558188781142235,18.739057540893555,49.26069259643555,-29.868818283081055,3.96875,1,"['F1', 'B2', 'B1']",6.1,270,0,4.780111592853061,[6200|4800|0]
20100,1.1800802946090698,0.48503759503364563,0.032011862844228745,43.91950607299805,51.08061218261719,-44.187740325927734,3.96875,1,"['F1', 'B2', 'B1']",6.1,270,0,4.835903052465187,[6200|4900|0]
20200,1.2364647388458252,0.4958197772502899,0.047209419310092926,33.323909759521484,47.10249710083008,-31.0953426361084,3.96875,1,"['F1', 'B2', 'B1']",6.1,270,0,4.895286776900202,[6200|5000|0]
20300,1.2900946140289307,0.5078462958335876,0.043308764696121216,23.855667114257812,42.90060043334961,-17.84503936767578,3.96875,1,"['F1', 'B2', 'B1']",6.1,270,0,4.950386829239627,[6200|5100|0]
20400,1.3323814868927002,0.5155022740364075,0.020106829702854156,28.113842010498047,40.7953987121582,-12.497331619262695,3.96875,1,"['F1', 'B2', 'B1']",6.1,270,0,4.999224554476072,[6200|5200|0]
20500,1.3502862453460693,0.5232052206993103,0.00915183499455452,15.82346248626709,28.98636817932129,-2.0355453491210938,3.974609375,1,"['F1', 'B2', 'B1']",6.1,270,0,5.02158361688092,[6200|5300|0]
20600,1.361971139907837,0.5247014164924622,0.007349905092269182,11.78458023071289,16.821237564086914,-5.365636825561523,3.974609375,1,"['F1', 'B2', 'B1']",6.1,270,0,5.0335009284126295,[6200|5400|0]
20700,1.3668746948242188,0.5265905261039734,0.002309490228071809,10.981108665466309,3.656325578689575,-2.1684341430664062,3.974609375,1,"['F1', 'B2', 'B1']",6.1,270,0,5.040782368376366,[6200|5500|0]
20800,1.3693286180496216,0.5286126136779785,0.00088638870511204,5.902085304260254,1.451866626739502,-1.9348530769348145,3.974609375,1,"['F1', 'B2', 'B1']",6.1,270,0,5.044266015215207,[6200|5600|0]
20900,1.3701492547988892,0.5306388139724731,9.744636190589517e-05,0.04665007069706917,-1.561232328414917,-2.0215654373168945,3.974609375,1,"['F1', 'B2', 'B1']",6.1,270,0,5.046590098330881,[6200|5700|0]
21000,1.3704534769058228,0.5309436321258545,-0.00018504520994611084,-0.1600499004125595,-1.3192580938339233,-2.079315185546875,3.974609375,1,"['F1', 'B2', 'B1']",6.1,270,0,5.0471051388003065,[6200|5800|0]
21100,1.3694709539413452,0.531663715839386,0.00035154868965037167,-0.2740494906902313,-1.0539346933364868,-2.1016762256622314,3.974609375,1,"['F1', 'B2', 'B1']",6.1,270,0,5.048436230436259,[6200|5900|0]
21200,1.3699074983596802,0.5316001176834106,0.0005426725256256759,-0.29210901260375977,-0.7677626609802246,-2.163722038269043,3.974609375,1,"['F1', 'B2', 'B1']",6.1,270,0,5.048917004889928,[6200|6000|0]
21300,1.3698822259902954,0.531782865524292,0.0007143430993892252,-0.255119264125824,-0.5370131134986877,-2.185896158218384,3.98046875,1,"['F1', 'B2', 'B1']",6.1,270,0,5.049169009357938,[6200|6100|0]
21400,1.369706392288208,0.5322074890136719,0.000573093828279525,-0.28876879811286926,-0.39230218529701233,-2.209059953689575,3.98046875,1,"['F1', 'B2', 'B1']",6.1,270,0,5.049649814885269,[6200|6200|0]
21500,1.3690381050109863,0.531545877456665,0.0008322118665091693,-0.27984675765037537,-0.2634828984737396,-2.1970062255859375,3.98046875,1,"['F1', 'B2', 'B1']",6.1,270,0,5.05062525319444,[6200|6300|0]
21600,1.3689724206924438,0.5315549969673157,0.0004692800575867295,-0.28156426548957825,-0.1659993976354599,-2.2103002071380615,3.98046875,1,"['F1', 'B2', 'B1']",6.1,270,0,5.050994193695205,[6200|6400|0]
21700,1.3693900108337402,0.5314542651176453,0.0009939963929355145,-0.27014318108558655,-0.08672118186950684,-2.2506442070007324,4.05859375,1,"['F1', 'B2', 'B1']",6.1,270,0,5.051672320279426,[6200|6500|0]
21800,1.368922233581543,0.5318343043327332,0.00077805359615013,-0.2620418071746826,0.0050379373133182526,-2.251569986343384,4.05859375,1,"['F1', 'B2', 'B1']",6.1,270,0,5.052312536379006,[6200|6600|0]
21900,1.3687167167663574,0.5317871570587158,0.0004645706503652036,-0.24484030902385712,0.07765387743711472,-2.281667709350586,4.05859375,1,"['F1', 'B2', 'B1']",6.1,270,0,5.052690334716838,[6200|6700|0]
22000,1.3688358068466187,0.5316352248191833,0.000694398651830852,-0.21991105377674103,0.12616470456123352,-2.3207271099090576,4.06640625,1,"['F1', 'B2', 'B1']",6.1,270,0,5.0529904792868106,[6200|6800|0]
22100,1.3684202432632446,0.5318872332572937,0.0006518981535919011,-0.20092511177062988,0.18976636230945587,-2.322721481323242,4.06640625,1,"['F1', 'B2', 'B1']",6.1,270,0,5.053478339550673,[6200|6900|0]
22200,1.3683894872665405,0.5316464304924011,0.0007957459893077612,-0.16450221836566925,0.22177308797836304,-2.3055269718170166,4.06640625,1,"['F1', 'B2', 'B1']",6.1,270,0,5.053760516982005,[6200|7000|0]
22300,1.3686213493347168,0.5317232012748718,0.0006579656037501991,-0.15101072192192078,0.23284433782100677,-2.337217092514038,4.06640625,1,"['F1', 'B2', 'B1']",6.1,270,0,5.05404094024485,[6200|7100|0]
22400,1.3686511516571045,0.5318015813827515,0.000320931663736701,-0.14133702218532562,0.24486902356147766,-2.341416120529175,4.06640625,1,"['F1', 'B2', 'B1']",6.1,270,0,5.054388249180024,[6200|7200|0]
22500,1.3685270547866821,0.531460702419281,0.0006131972768343985,-0.11737392842769623,0.27045461535453796,-2.350937843322754,4.0703125,1,"['F1', 'B2', 'B1']",6.1,270,0,5.054854100754653,[6200|7300|0]
22600,1.3683202266693115,0.5321230292320251,0.0002288754767505452,-0.1269967257976532,0.2851064205169678,-2.350158929824829,4.0703125,1,"['F1', 'B2', 'B1']",6.1,270,0,5.05564729551197,[6200|7400|0]
22701,1.3682113885879517,0.5319235324859619,0.0005951913772150874,-0.11386202275753021,0.298298180103302,-2.349445343017578,4.0703125,1,"['F1', 'B2', 'B1']",6.1,270,0,5.056078377892238,[6200|7500|0]
22800,1.368392825126648,0.531830370426178,0.0003491125244181603,-0.10285209864377975,0.30346643924713135,-2.3707058429718018,4.0703125,1,"['F1', 'B2', 'B1']",6.1,270,0,5.056397992017006,[6200|7600|0]
22901,1.3683360815048218,0.5317465662956238,0.0005477238446474075,-0.09501614421606064,0.3130140006542206,-2.3555822372436523,4.0703125,1,"['F1', 'B2', 'B1']",6.1,270,0,5.056620903271632,[6200|7700|0]
23001,1.368550181388855,0.5317258238792419,0.0007724579772911966,-0.09277374297380447,0.31232625246047974,-2.3631961345672607,4.0703125,1,"['F1', 'B2', 'B1']",6.1,270,0,5.056931989173845,[6200|7800|0]
23101,1.3680999279022217,0.5318251252174377,0.00042771786684170365,-0.0950581282377243,0.3255438506603241,-2.37031626701355,4.0703125,1,"['F1', 'B2', 'B1']",6.1,270,0,5.057507692831767,[6200|7900|0]
23201,1.3684760332107544,0.53168123960495,0.0009551435359753668,-0.09343602508306503,0.31204280257225037,-2.3748974800109863,4.07421875,1,"['F1', 'B2', 'B1']",6.1,270,0,5.058171271093202,[6200|8000|0]
23301,1.3684695959091187,0.5315380096435547,0.0009219868225045502,-0.08765397220849991,0.31180596351623535,-2.3738179206848145,4.07421875,1,"['F1', 'B2', 'B1']",6.1,270,0,5.058318429607539,[6200|8100|0]
23401,1.3682241439819336,0.5315584540367126,0.00032244145404547453,-0.08649928122758865,0.32091012597084045,-2.3623712062835693,4.07421875,1,"['F1', 'B2', 'B1']",6.1,270,0,5.058966595690122,[6200|8200|0]
23501,1.3680990934371948,0.5314359664916992,0.0009075023699551821,-0.08436519652605057,0.3192870318889618,-2.3789496421813965,4.07421875,1,"['F1', 'B2', 'B1']",6.1,270,0,5.059577281462634,[6200|8300|0]
23601,1.3682811260223389,0.5316758155822754,0.0006339521496556699,-0.09052133560180664,0.30863144993782043,-2.3484227657318115,4.07421875,1,"['F1', 'B2', 'B1']",6.1,270,0,5.059984089981879,[6200|8400|0]
23701,1.3683274984359741,0.5317801833152771,0.00015486009942833334,-0.08929643779993057,0.3066895604133606,-2.3527660369873047,4.07421875,1,"['F1', 'B2', 'B1']",6.1,270,0,5.060476606191794,[6200|8500|0]
23801,1.3687093257904053,0.5313584208488464,0.000863888650201261,-0.07777819782495499,0.30071231722831726,-2.361825942993164,4.08203125,1,"['F1', 'B2', 'B1']",6.1,270,0,5.061385670101809,[6200|8600|0]
23902,1.368316411972046,0.531593382358551,0.0005370210856199265,-0.08045978844165802,0.30556973814964294,-2.3263418674468994,4.08203125,1,"['F1', 'B2', 'B1']",6.1,270,0,5.061948191732038,[6200|8700|0]
24001,1.3684971332550049,0.5316070914268494,0.0005246222135610878,-0.08135166019201279,0.29703032970428467,-2.3285350799560547,4.08203125,1,"['F1', 'B2', 'B1']",6.1,270,0,5.062129855852591,[6200|8800|0]
24102,1.3684576749801636,0.5317550897598267,0.00042136962292715907,-0.09354355186223984,0.30153748393058777,-2.3559162616729736,4.08203125,1,"['F1', 'B2', 'B1']",6.1,270,0,5.062314576072086,[6200|8900|0]
24202,1.3682217597961426,0.5315849781036377,0.00097016675863415,-0.09118235856294632,0.30794262886047363,-2.3706490993499756,4.08203125,1,"['F1', 'B2', 'B1']",6.1,270,0,5.06293568173603,[6200|9000|0]
24302,1.3681001663208008,0.5314716100692749,0.0007314786198548973,-0.08689330518245697,0.31122446060180664,-2.3950908184051514,4.08203125,1,"['F1', 'B2', 'B1']",6.1,270,0,5.063226558534787,[6200|9100|0]
24400,1.3684338331222534,0.5313389897346497,0.0006059848237782717,-0.07868234068155289,0.3046998381614685,-2.3914191722869873,4.08203125,1,"['F1', 'B2', 'B1']",6.1,270,0,5.063606914132092,[6200|9200|0]
24500,1.3681132793426514,0.5319111347198486,0.0006963847554288805,-0.08850490301847458,0.315332293510437,-2.3873398303985596,4.0859375,1,"['F1', 'B2', 'B1']",6.1,270,0,5.064268938872829,[6200|9300|0]
24600,1.3684536218643188,0.5313037037849426,0.0006549513782374561,-0.07096312195062637,0.3028239905834198,-2.3959312438964844,4.0859375,1,"['F1', 'B2', 'B1']",6.1,270,0,5.064966450232938,[6200|9400|0]
24700,1.3682745695114136,0.5314565300941467,0.0006361858686432242,-0.0764327198266983,0.30753931403160095,-2.398632049560547,4.0859375,1,"['F1', 'B2', 'B1']",6.1,270,0,5.065202602239528,[6200|9500|0]
24800,1.3685346841812134,0.5314486026763916,0.0007147567812353373,-0.06955739855766296,0.2948915660381317,-2.3993160724639893,4.0859375,1,"['F1', 'B2', 'B1']",6.1,270,0,5.0654744401943885,[6200|9600|0]
24900,1.3682644367218018,0.5313644409179688,0.0007631444022990763,-0.060451705008745193,0.3059097230434418,-2.4038660526275635,4.0859375,1,"['F1', 'B2', 'B1']",6.1,270,0,5.065761595644923,[6200|9700|0]
25000,1.3683140277862549,0.5312738418579102,0.0005952044739387929,-0.050011467188596725,0.3063965439796448,-2.400956630706787,4.0859375,1,"['F1', 'B2', 'B1']",6.1,270,0,5.065958753659963,[6200|9800|0]
25100,1.3680572509765625,0.5317789912223816,0.0006089069065637887,-0.06159951165318489,0.31969812512397766,-2.392120599746704,4.0859375,1,"['F1', 'B2', 'B1']",6.1,270,0,5.066525585175567,[6200|9900|0]
25200,1.368586778640747,0.5314642786979675,0.0007539428188465536,-0.053359370678663254,0.30277562141418457,-2.4059560298919678,4.0859375,1,"['F1', 'B2', 'B1']",6.1,270,0,5.067158419226494,[6200|10000|0]
25300,1.3684451580047607,0.5312150120735168,0.000633113260846585,-0.04810323193669319,0.30245736241340637,-2.4032986164093018,4.08984375,1,"['F1', 'B2', 'B1']",6.1,270,0,5.067469530198156,[6200|10100|0]
25400,1.3682862520217896,0.5319594144821167,0.0007407268276438117,-0.0645328238606453,0.3073357939720154,-2.386306047439575,4.0859375,1,"['F1', 'B2', 'B1']",6.1,270,0,5.068238273807633,[6200|10200|0]
25500,1.3685752153396606,0.5318155884742737,0.0003381519636604935,-0.059871260076761246,0.2993280291557312,-2.3902015686035156,4.08984375,1,"['F1', 'B2', 'B1']",6.1,270,0,5.068754270164905,[6200|10300|0]
25600,1.368123173713684,0.5315084457397461,0.0005661544273607433,-0.05300133675336838,0.31766438484191895,-2.3493642807006836,4.08984375,1,"['F1', 'B2', 'B1']",6.1,270,0,5.069346438565313,[6200|10400|0]
25700,1.368516206741333,0.5316340327262878,0.00021715670300181955,-0.058088500052690506,0.30619102716445923,-2.3763160705566406,4.08984375,1,"['F1', 'B2', 'B1']",6.1,270,0,5.06988685179944,[6200|10500|0]
25800,1.3681366443634033,0.5316267013549805,0.0003344971046317369,-0.06329432874917984,0.3212742209434509,-2.372666358947754,4.08984375,1,"['F1', 'B2', 'B1']",6.1,270,0,5.070284205694098,[6200|10600|0]
25900,1.3683695793151855,0.5314835906028748,0.0006597666069865227,-0.06385918706655502,0.31430569291114807,-2.3868329524993896,4.08984375,1,"['F1', 'B2', 'B1']",6.1,270,0,5.070709105244925,[6200|10700|0]
26000,1.3682447671890259,0.5316323637962341,0.0007639125105924904,-0.060666922479867935,0.3126816153526306,-2.3796446323394775,4.08984375,1,"['F1', 'B2', 'B1']",6.1,270,0,5.07092946381439,[6200|10800|0]
26100,1.3684815168380737,0.5314918160438538,0.0008286943193525076,-0.059191323816776276,0.29716673493385315,-2.3693196773529053,4.08984375,1,"['F1', 'B2', 'B1']",6.1,270,0,5.07121230785228,[6200|10900|0]
26200,1.3684132099151611,0.5314545631408691,0.0006624907837249339,-0.050273455679416656,0.30463770031929016,-2.3812062740325928,4.08984375,1,"['F1', 'B2', 'B1']",6.1,270,0,5.071395821420589,[6200|11000|0]
26300,1.3684215545654297,0.5314443111419678,0.0005477367085404694,-0.05629880353808403,0.30577242374420166,-2.4108803272247314,4.08984375,1,"['F1', 'B2', 'B1']",6.1,270,0,5.071511334339525,[6200|11100|0]
26400,1.3685147762298584,0.531494140625,0.000459360599052161,-0.05001571774482727,0.30591854453086853,-2.4067676067352295,4.08984375,1,"['F1', 'B2', 'B1']",6.1,270,0,5.0716491152991185,[6200|11200|0]
26500,1.3684124946594238,0.5316423177719116,0.0008130852947942913,-0.04973309859633446,0.3095000386238098,-2.409054756164551,4.09765625,1,"['F1', 'B2', 'B1']",6.1,270,0,5.072046027313166,[6200|11300|0]
26600,1.3683173656463623,0.531929612159729,0.0005715435254387558,-0.05541551113128662,0.31079813838005066,-2.4196362495422363,4.09765625,1,"['F1', 'B2', 'B1']",6.1,270,0,5.072433235294413,[6200|11400|0]
26700,1.3685139417648315,0.5318501591682434,0.0003913754771929234,-0.046237628906965256,0.3047333061695099,-2.3989431858062744,4.09765625,1,"['F1', 'B2', 'B1']",6.1,270,0,5.072711471657631,[6200|11500|0]
26800,1.368309736251831,0.5316172242164612,0.0005511576309800148,-0.03852194547653198,0.30972084403038025,-2.3949997425079346,4.09765625,1,"['F1', 'B2', 'B1']",6.1,270,0,5.073060024264809,[6200|11600|0]
26900,1.3684288263320923,0.53166663646698,0.0007182139088399708,-0.05001281946897507,0.2968202531337738,-2.364405393600464,4.09765625,1,"['F1', 'B2', 'B1']",6.1,270,0,5.073271049897589,[6200|11700|0]
27000,1.368696928024292,0.5314561128616333,0.0007171119214035571,-0.05164504796266556,0.29258012771606445,-2.384688377380371,4.09765625,1,"['F1', 'B2', 'B1']",6.1,270,0,5.07361193099144,[6200|11800|0]
27100,1.3685578107833862,0.5313319563865662,0.0009126566583290696,-0.04874362051486969,0.30105069279670715,-2.367110252380371,4.09765625,1,"['F1', 'B2', 'B1']",6.1,270,0,5.0738821275516655,[6200|11900|0]
27200,1.368463397026062,0.5317578315734863,0.0006693106843158603,-0.07225914299488068,0.30031439661979675,-2.3688242435455322,4.09765625,1,"['F1', 'B2', 'B1']",6.1,270,0,5.074381628197786,[6200|12000|0]
27300,1.3685424327850342,0.5318055152893066,0.000436207017628476,-0.07336162030696869,0.30103158950805664,-2.3622796535491943,4.1015625,1,"['F1', 'B2', 'B1']",6.1,270,0,5.0746323425918165,[6200|12100|0]
27400,1.368156909942627,0.5316774249076843,0.0005131815560162067,-0.07125616073608398,0.3134942054748535,-2.337982416152954,4.1015625,1,"['F1', 'B2', 'B1']",6.1,270,0,5.075045815792208,[6200|12200|0]
27500,1.36831533908844,0.5313790440559387,0.0006936544668860734,-0.06781055778265,0.30478572845458984,-2.334144115447998,4.1015625,1,"['F1', 'B2', 'B1']",6.1,270,0,5.0754288319778835,[6200|12300|0]
27600,1.3683035373687744,0.5316554307937622,0.0004260664863977581,-0.07319146394729614,0.3063516914844513,-2.328230381011963,4.1015625,1,"['F1', 'B2', 'B1']",6.1,270,0,5.075813711487254,[6200|12400|0]
27700,1.368422269821167,0.5316532254219055,0.0008575248648412526,-0.07751475274562836,0.3074415922164917,-2.3671305179595947,4.1015625,1,"['F1', 'B2', 'B1']",6.1,270,0,5.076261214103163,[6200|12500|0]
27800,1.3684542179107666,0.53202223777771,0.0005312782013788819,-0.08397714793682098,0.3041934669017792,-2.385413885116577,4.1015625,1,"['F1', 'B2', 'B1']",6.1,270,0,5.076754800655437,[6200|12600|0]
27900,1.3684861660003662,0.5318446755409241,0.0008924923022277653,-0.07302355021238327,0.3126659095287323,-2.395313262939453,4.1015625,1,"['F1', 'B2', 'B1']",6.1,270,0,5.077158563772888,[6200|12700|0]
28000,1.368524432182312,0.5317105054855347,0.0005150817451067269,-0.06937462091445923,0.31064552068710327,-2.4077906608581543,4.1015625,1,"['F1', 'B2', 'B1']",6.1,270,0,5.077560937520876,[6200|12800|0]
28100,1.3683552742004395,0.5318719148635864,0.0004637964302673936,-0.07235555350780487,0.3227248191833496,-2.408411741256714,4.1015625,1,"['F1', 'B2', 'B1']",6.1,270,0,5.077800306678606,[6200|12900|0]
28200,1.3682143688201904,0.5317543148994446,0.0003752571064978838,-0.06289009749889374,0.32096049189567566,-2.4045586585998535,4.1015625,1,"['F1', 'B2', 'B1']",6.1,270,0,5.078004079320545,[6200|13000|0]
28300,1.3682479858398438,0.5316299796104431,0.00032772740814834833,-0.06283585727214813,0.317106157541275,-2.390169143676758,4.1015625,1,"['F1', 'B2', 'B1']",6.1,270,0,5.078141368942609,[6200|13100|0]
28400,1.3684898614883423,0.5316079258918762,0.000638442172203213,-0.07102357596158981,0.30757659673690796,-2.3866167068481445,4.1015625,1,"['F1', 'B2', 'B1']",6.1,270,0,5.078535746756946,[6200|13200|0]
28500,1.3686580657958984,0.5313315391540527,0.0005640382296405733,-0.0632265955209732,0.299864262342453,-2.3990421295166016,4.1015625,1,"['F1', 'B2', 'B1']",6.1,270,0,5.078867738119174,[6200|13300|0]
28600,1.368270993232727,0.5314920544624329,0.0009153312421403825,-0.07038597762584686,0.3122456967830658,-2.3974766731262207,4.1015625,1,"['F1', 'B2', 'B1']",6.1,270,0,5.0794145444048135,[6200|13400|0]
28700,1.3685109615325928,0.5312166213989258,0.000658653094433248,-0.06499297171831131,0.30747953057289124,-2.39498233795166,4.10546875,1,"['F1', 'B2', 'B1']",6.1,270,0,5.079861010337359,[6200|13500|0]
28800,1.3683478832244873,0.5316948294639587,0.00033153104595839977,-0.07277465611696243,0.3073630630970001,-2.385089874267578,4.10546875,1,"['F1', 'B2', 'B1']",6.1,270,0,5.080462912590749,[6200|13600|0]
28900,1.3686383962631226,0.5314708948135376,0.000723431701771915,-0.0711686760187149,0.2993317246437073,-2.4066178798675537,4.10546875,1,"['F1', 'B2', 'B1']",6.1,270,0,5.08099969064293,[6200|13700|0]
29000,1.3685029745101929,0.5314978361129761,0.0009221372311003506,-0.0654575526714325,0.30801862478256226,-2.4128201007843018,4.10546875,1,"['F1', 'B2', 'B1']",6.1,270,0,5.081241659178421,[6200|13800|0]
29100,1.3684914112091064,0.5317498445510864,0.0004613154160324484,-0.07518548518419266,0.30085423588752747,-2.401568651199341,4.10546875,1,"['F1', 'B2', 'B1']",6.1,270,0,5.081767014970293,[6200|13900|0]
29200,1.3687256574630737,0.5314529538154602,0.0007872091373428702,-0.06433197110891342,0.291627436876297,-2.396780490875244,4.10546875,1,"['F1', 'B2', 'B1']",6.1,270,0,5.082266236498262,[6200|14000|0]
29300,1.368416428565979,0.531480610370636,0.00088118837447837,-0.05997492000460625,0.30273452401161194,-2.397601366043091,4.10546875,1,"['F1', 'B2', 'B1']",6.1,270,0,5.082590612041198,[6200|14100|0]
29400,1.3683562278747559,0.5315563678741455,0.0007198857492767274,-0.05820433422923088,0.3055623769760132,-2.3849868774414062,4.10546875,1,"['F1', 'B2', 'B1']",6.1,270,0,5.082778712704298,[6200|14200|0]
29500,1.3687505722045898,0.5315724015235901,0.0007377117872238159,-0.058840543031692505,0.29224893450737,-2.385218858718872,4.10546875,1,"['F1', 'B2', 'B1']",6.1,270,0,5.0831737852242425,[6200|14300|0]
29600,1.3687145709991455,0.5317398309707642,0.0005149914068169892,-0.0635083019733429,0.2861800789833069,-2.396048069000244,4.10546875,1,"['F1', 'B2', 'B1']",6.1,270,0,5.08345473553021,[6200|14400|0]
29700,1.3685765266418457,0.5319216251373291,0.00025032725534401834,-0.07065663486719131,0.29141965508461,-2.3971195220947266,4.10546875,1,"['F1', 'B2', 'B1']",6.1,270,0,5.083804238715681,[6200|14500|0]
