time.ms,stateEstimate.x,stateEstimate.y,stateEstimate.z,stabilizer.roll,stabilizer.pitch,stabilizer.yaw,pm.vbat,drone_id,node_name,wind_speed,global_wind_direction,relative_wind_direction,travel_dist,waiting_time
0,1.690769076347351,1.1530427932739258,-0.035980142652988434,-0.3175901174545288,1.0227967500686646,-10.068260192871094,4.0859375,0,"['A1', 'B2', 'F2']",0,90,0,0.14952490108894406,[100|0|0]
100,1.690707802772522,1.1525367498397827,-0.03613566607236862,-0.3059804141521454,1.0200473070144653,-10.059149742126465,4.0859375,0,"['A1', 'B2', 'F2']",0,90,0,0.15005783817921584,[200|0|0]
200,1.6894805431365967,1.1522133350372314,-0.037544868886470795,-0.2801363170146942,1.0492769479751587,-10.113460540771484,4.0859375,0,"['A1', 'B2', 'F2']",0,90,0,0.15195431278219745,[300|0|0]
300,1.6893267631530762,1.1521575450897217,-0.037569284439086914,-0.26336267590522766,1.0527782440185547,-10.13733959197998,4.0859375,0,"['A1', 'B2', 'F2']",0,90,0,0.15211971205905278,[400|0|0]
400,1.671259880065918,1.1489399671554565,-0.025020001456141472,-2.5118274688720703,-13.521679878234863,-3.493666410446167,4.0859375,0,"['A1', 'B2', 'F2']",0,90,0,0.17435143659032018,[500|0|0]
500,1.70846688747406,1.1779075860977173,-0.06788966059684753,1.196579098701477,-5.086284637451172,-3.1676833629608154,4.0859375,0,"['A1', 'B2', 'F2']",0,90,0,0.23807970364893308,[600|0|0]
600,1.7008310556411743,1.1680148839950562,-0.053400978446006775,7.186737537384033,5.6675801277160645,-5.849358081817627,4.0859375,0,"['A1', 'B2', 'F2']",0,90,0,0.2572132708317717,[700|0|0]
700,1.6976089477539062,1.1512248516082764,-0.047436390072107315,10.766643524169922,8.376124382019043,-7.922208786010742,4.0859375,0,"['A1', 'B2', 'F2']",0,90,0,0.275320271722487,[800|0|0]
800,1.6916651725769043,1.1510884761810303,-0.04442160204052925,10.43510627746582,8.655852317810059,-9.051009178161621,4.0859375,0,"['A1', 'B2', 'F2']",0,90,0,0.2819863056623382,[900|0|0]
900,1.687685489654541,1.1489012241363525,-0.04049219936132431,9.22327995300293,8.195664405822754,-9.727274894714355,4.0859375,0,"['A1', 'B2', 'F2']",0,90,0,0.2879914828524667,[1000|0|0]
1001,1.6860758066177368,1.1476740837097168,-0.03889371454715729,7.981547832489014,7.384181976318359,-10.168843269348145,4.0859375,0,"['A1', 'B2', 'F2']",0,90,0,0.2905706507040772,[1100|0|0]
1101,1.6855881214141846,1.1468119621276855,-0.03795618936419487,6.818487167358398,6.548585891723633,-10.427353858947754,4.0859375,0,"['A1', 'B2', 'F2']",0,90,0,0.29193448498603985,[1200|0|0]
1201,1.6853227615356445,1.1468702554702759,-0.036922816187143326,5.765353679656982,5.784975051879883,-10.626484870910645,4.0859375,0,"['A1', 'B2', 'F2']",0,90,0,0.29300297649371726,[1300|0|0]
1301,1.685224175453186,1.1474756002426147,-0.03689025714993477,4.803879737854004,5.079558372497559,-10.749195098876953,4.0859375,0,"['A1', 'B2', 'F2']",0,90,0,0.29361716017956085,[1400|0|0]
1401,1.685897707939148,1.1468796730041504,-0.036161333322525024,4.034263610839844,4.4207305908203125,-10.811408042907715,4.0859375,0,"['A1', 'B2', 'F2']",0,90,0,0.2947747893211064,[1500|0|0]
1501,1.6861118078231812,1.1472930908203125,-0.03577833250164986,3.34904146194458,3.8992655277252197,-10.840725898742676,4.0859375,0,"['A1', 'B2', 'F2']",0,90,0,0.2953776513947637,[1600|0|0]
1601,1.6863545179367065,1.1475906372070312,-0.03573363646864891,2.7542788982391357,3.435645341873169,-10.858778953552246,4.0859375,0,"['A1', 'B2', 'F2']",0,90,0,0.2957642258207452,[1700|0|0]
1701,1.687080979347229,1.1482101678848267,-0.03541713207960129,2.223698854446411,3.021204710006714,-10.820708274841309,4.0859375,0,"['A1', 'B2', 'F2']",0,90,0,0.2967700784292293,[1800|0|0]
1801,1.6885076761245728,1.1503441333770752,-0.03590692952275276,1.7587194442749023,2.672050714492798,-10.778884887695312,4.0859375,0,"['A1', 'B2', 'F2']",0,90,0,0.2993833472542659,[1900|0|0]
1901,1.6879068613052368,1.1493215560913086,-0.03537355363368988,1.3692283630371094,2.3666698932647705,-10.731647491455078,4.0859375,0,"['A1', 'B2', 'F2']",0,90,0,0.30068378279343466,[2000|0|0]
2001,1.6885528564453125,1.1496225595474243,-0.03565583378076553,1.052696704864502,2.1069352626800537,-10.65708065032959,4.0859375,0,"['A1', 'B2', 'F2']",0,90,0,0.30145033017163647,[2100|0|0]
2101,1.6890636682510376,1.1500996351242065,-0.03573724627494812,0.779136061668396,1.8838324546813965,-10.582417488098145,4.0859375,0,"['A1', 'B2', 'F2']",0,90,0,0.3021540046709892,[2200|0|0]
2202,1.6889673471450806,1.1508715152740479,-0.035926345735788345,0.5422465801239014,1.718711018562317,-10.515205383300781,4.0859375,0,"['A1', 'B2', 'F2']",0,90,0,0.30295452658028454,[2300|0|0]
2302,1.6892926692962646,1.1510398387908936,-0.035641297698020935,0.3581409156322479,1.5667157173156738,-10.472270965576172,4.0859375,0,"['A1', 'B2', 'F2']",0,90,0,0.3034186598501644,[2400|0|0]
2402,1.689651370048523,1.1514323949813843,-0.035597313195466995,0.20314444601535797,1.4450384378433228,-10.407084465026855,4.0859375,0,"['A1', 'B2', 'F2']",0,90,0,0.3039522338645506,[2500|0|0]
2502,1.6899890899658203,1.1525121927261353,-0.03611047565937042,0.0753888189792633,1.3481011390686035,-10.386187553405762,4.0859375,0,"['A1', 'B2', 'F2']",0,90,0,0.30519455170893184,[2600|0|0]
2602,1.6904147863388062,1.1524865627288818,-0.035988032817840576,-0.01449851505458355,1.2643663883209229,-10.299723625183105,4.0859375,0,"['A1', 'B2', 'F2']",0,90,0,0.3056382481684336,[2700|0|0]
2702,1.6901905536651611,1.1522791385650635,-0.036371391266584396,-0.081364206969738,1.2084261178970337,-10.258448600769043,4.0859375,0,"['A1', 'B2', 'F2']",0,90,0,0.306128420358474,[2800|0|0]
2802,1.6900287866592407,1.1526148319244385,-0.0361153706908226,-0.1259370744228363,1.1784532070159912,-10.228411674499512,4.0859375,0,"['A1', 'B2', 'F2']",0,90,0,0.3065805322151492,[2900|0|0]
2902,1.690375566482544,1.1529273986816406,-0.035977743566036224,-0.19396817684173584,1.1261870861053467,-10.220869064331055,4.0859375,0,"['A1', 'B2', 'F2']",0,90,0,0.3070672512809716,[3000|0|0]
3002,1.6903352737426758,1.1528522968292236,-0.03625424951314926,-0.21240049600601196,1.1074812412261963,-10.179217338562012,4.0859375,0,"['A1', 'B2', 'F2']",0,90,0,0.307356594212303,[3100|0|0]
3100,1.690476417541504,1.1526947021484375,-0.036024291068315506,-0.24655519425868988,1.0771788358688354,-10.16379165649414,4.0859375,0,"['A1', 'B2', 'F2']",0,90,0,0.30766906587775456,[3200|0|0]
3200,1.690293788909912,1.1526979207992554,-0.03603355586528778,-0.26545780897140503,1.0628806352615356,-10.122138023376465,4.0859375,0,"['A1', 'B2', 'F2']",0,90,0,0.3078519576852614,[3300|0|0]
3300,1.690422534942627,1.152547001838684,-0.03590529039502144,-0.2791813910007477,1.048717975616455,-10.109700202941895,4.0859375,0,"['A1', 'B2', 'F2']",0,90,0,0.3080881866091094,[3400|0|0]
3400,1.6908103227615356,1.1526520252227783,-0.03616843745112419,-0.294201135635376,1.0300520658493042,-10.087586402893066,4.0859375,0,"['A1', 'B2', 'F2']",0,90,0,0.3085684528653008,[3500|0|0]
3500,1.690616488456726,1.153002381324768,-0.03600118309259415,-0.30851054191589355,1.0355076789855957,-10.05306625366211,4.0859375,0,"['A1', 'B2', 'F2']",0,90,0,0.309002382763291,[3600|0|0]
3600,1.6905136108398438,1.1528332233428955,-0.03634380176663399,-0.3108459413051605,1.0303528308868408,-10.036004066467285,4.0859375,0,"['A1', 'B2', 'F2']",0,90,0,0.30939809197810336,[3700|0|0]
3700,1.6907904148101807,1.1528170108795166,-0.03579391539096832,-0.3084881007671356,1.0146870613098145,-10.028804779052734,4.0859375,0,"['A1', 'B2', 'F2']",0,90,0,0.3100139314929981,[3800|0|0]
3800,1.6904001235961914,1.1528276205062866,-0.036027003079652786,-0.30506712198257446,1.0227646827697754,-10.035435676574707,4.0859375,0,"['A1', 'B2', 'F2']",0,90,0,0.310468650820181,[3900|0|0]
3900,1.6907862424850464,1.1525719165802002,-0.03612259402871132,-0.3019940257072449,1.0093014240264893,-10.042562484741211,4.0859375,0,"['A1', 'B2', 'F2']",0,90,0,0.31094152492994864,[4000|0|0]
4000,1.6910431385040283,1.1529011726379395,-0.036238186061382294,-0.3131794035434723,1.0023610591888428,-10.051335334777832,4.0859375,0,"['A1', 'B2', 'F2']",0,90,0,0.31137484540505195,[4100|0|0]
4100,1.6907470226287842,1.1530898809432983,-0.036002129316329956,-0.3135105073451996,1.0073703527450562,-10.037100791931152,4.0859375,0,"['A1', 'B2', 'F2']",0,90,0,0.3117979508564086,[4200|0|0]
4200,1.690510630607605,1.152847409248352,-0.03618361055850983,-0.3041091859340668,1.0123220682144165,-10.033037185668945,4.0859375,0,"['A1', 'B2', 'F2']",0,90,0,0.3121821502210495,[4300|0|0]
4300,1.6906741857528687,1.152943730354309,-0.036238301545381546,-0.30739182233810425,1.0084340572357178,-10.060873985290527,4.0859375,0,"['A1', 'B2', 'F2']",0,90,0,0.3123796828640228,[4400|0|0]
4400,1.6905840635299683,1.1530919075012207,-0.03618752211332321,-0.3013090491294861,1.014034628868103,-10.074552536010742,4.0859375,0,"['A1', 'B2', 'F2']",0,90,0,0.3125603954331693,[4500|0|0]
4500,1.690543532371521,1.152756690979004,-0.036419253796339035,-0.28660330176353455,1.0121393203735352,-10.039491653442383,4.0859375,0,"['A1', 'B2', 'F2']",0,90,0,0.31296992255618505,[4600|0|0]
4600,1.6903167963027954,1.152986764907837,-0.03608182072639465,-0.29111921787261963,1.0149343013763428,-10.086047172546387,4.0859375,0,"['A1', 'B2', 'F2']",0,90,0,0.3134370460241053,[4700|0|0]
4700,1.690875768661499,1.1528406143188477,-0.03578990325331688,-0.2917162775993347,0.992457926273346,-10.075496673583984,4.0859375,0,"['A1', 'B2', 'F2']",0,90,0,0.31408436812595625,[4800|0|0]
4800,1.6902786493301392,1.1531763076782227,-0.036172401160001755,-0.3057655394077301,1.0149937868118286,-10.082478523254395,4.0859375,0,"['A1', 'B2', 'F2']",0,90,0,0.3148689356348619,[4900|0|0]
4900,1.6903551816940308,1.153051733970642,-0.03610313683748245,-0.2956240177154541,1.0109713077545166,-10.08114242553711,4.0859375,0,"['A1', 'B2', 'F2']",0,90,0,0.31503071745620553,[5000|0|0]
5000,1.6905256509780884,1.1528092622756958,-0.03588870167732239,-0.29403966665267944,1.0027943849563599,-10.045226097106934,4.0859375,0,"['A1', 'B2', 'F2']",0,90,0,0.315396551759641,[5100|0|0]
5100,1.69054114818573,1.1526460647583008,-0.036204151809215546,-0.2703326642513275,1.0114984512329102,-10.08543586730957,4.0859375,0,"['A1', 'B2', 'F2']",0,90,0,0.31575205475377743,[5200|0|0]
5200,1.6904371976852417,1.1530137062072754,-0.036223988980054855,-0.28550267219543457,1.0230615139007568,-10.079414367675781,4.0859375,0,"['A1', 'B2', 'F2']",0,90,0,0.3161346242963482,[5300|0|0]
5300,1.6908905506134033,1.1532505750656128,-0.03577739745378494,-0.29124847054481506,1.0038197040557861,-10.085925102233887,4.0859375,0,"['A1', 'B2', 'F2']",0,90,0,0.3168136528118458,[5400|0|0]
5400,1.690751552581787,1.153100848197937,-0.03600907325744629,-0.29155027866363525,1.0022798776626587,-10.064675331115723,4.0859375,0,"['A1', 'B2', 'F2']",0,90,0,0.3171225415712711,[5500|0|0]
5500,1.6907118558883667,1.152986764907837,-0.03608591482043266,-0.2868356704711914,1.0038381814956665,-10.047704696655273,4.0859375,0,"['A1', 'B2', 'F2']",0,90,0,0.31726570389295794,[5600|0|0]
5600,1.6903122663497925,1.1530468463897705,-0.03604508191347122,-0.28685152530670166,1.0073261260986328,-10.067730903625488,4.0859375,0,"['A1', 'B2', 'F2']",0,90,0,0.31767184292100153,[5700|0|0]
5700,1.6905090808868408,1.1526983976364136,-0.03619709238409996,-0.27751219272613525,0.9975844025611877,-10.055988311767578,4.0859375,0,"['A1', 'B2', 'F2']",0,90,0,0.3180999313217908,[5800|0|0]
5800,1.6909456253051758,1.1529096364974976,-0.03612116351723671,-0.28831344842910767,0.9839339256286621,-10.044337272644043,4.0859375,0,"['A1', 'B2', 'F2']",0,90,0,0.3185908061311207,[5900|0|0]
5900,1.690466284751892,1.1529474258422852,-0.03595869243144989,-0.28871870040893555,0.9988174438476562,-10.064437866210938,4.0859375,0,"['A1', 'B2', 'F2']",0,90,0,0.3190983416021161,[6000|0|0]
6000,1.6903722286224365,1.152923345565796,-0.03617564216256142,-0.284737229347229,0.9999998211860657,-10.050087928771973,4.0859375,0,"['A1', 'B2', 'F2']",0,90,0,0.31933602542788747,[6100|0|0]
6100,1.6905333995819092,1.152630090713501,-0.03605172038078308,-0.27960440516471863,1.0007926225662231,-10.008769989013672,4.0859375,0,"['A1', 'B2', 'F2']",0,90,0,0.3196928602560236,[6200|0|0]
6200,1.6906306743621826,1.153208613395691,-0.035897962749004364,-0.29808712005615234,1.0051873922348022,-10.010409355163574,4.0859375,0,"['A1', 'B2', 'F2']",0,90,0,0.3202993190642008,[6300|0|0]
6300,1.690764307975769,1.1527286767959595,-0.03585580363869667,-0.27178213000297546,1.0040991306304932,-9.99742603302002,4.0859375,0,"['A1', 'B2', 'F2']",0,90,0,0.320799293536573,[6400|0|0]
6400,1.69075608253479,1.1531306505203247,-0.03623083978891373,-0.2887033522129059,1.003734827041626,-10.009331703186035,4.0859375,0,"['A1', 'B2', 'F2']",0,90,0,0.32134911409541833,[6500|0|0]
6500,1.690675139427185,1.1530481576919556,-0.036248791962862015,-0.2879720628261566,1.0077686309814453,-10.006443977355957,4.0859375,0,"['A1', 'B2', 'F2']",0,90,0,0.3214660719252142,[6600|0|0]
6600,1.6908339262008667,1.153279185295105,-0.03623177483677864,-0.2871696352958679,1.0025146007537842,-10.024862289428711,4.0859375,0,"['A1', 'B2', 'F2']",0,90,0,0.32174692166349667,[6700|0|0]
6700,1.6907062530517578,1.1528455018997192,-0.03633403033018112,-0.2798004746437073,1.0128146409988403,-10.016827583312988,4.0859375,0,"['A1', 'B2', 'F2']",0,90,0,0.3222104277652555,[6800|0|0]
6800,1.6904263496398926,1.1531621217727661,-0.036092374473810196,-0.2785451412200928,1.0184744596481323,-10.036609649658203,4.0859375,0,"['A1', 'B2', 'F2']",0,90,0,0.32269724561301827,[6900|0|0]
6900,1.690354585647583,1.1527436971664429,-0.03593459725379944,-0.26907554268836975,1.0201400518417358,-10.03046989440918,4.0859375,0,"['A1', 'B2', 'F2']",0,90,0,0.32315015054004304,[7000|0|0]
7000,1.6904985904693604,1.1529600620269775,-0.036352723836898804,-0.27710461616516113,1.0130194425582886,-10.026721000671387,4.0859375,0,"['A1', 'B2', 'F2']",0,90,0,0.3236424725698809,[7100|0|0]
7100,1.6903283596038818,1.152981162071228,-0.036174073815345764,-0.2785681188106537,1.014910340309143,-10.033559799194336,4.0859375,0,"['A1', 'B2', 'F2']",0,90,0,0.3238901408755436,[7200|0|0]
7200,1.6904188394546509,1.1528240442276,-0.036009062081575394,-0.2889723777770996,1.0122325420379639,-10.009644508361816,4.0859375,0,"['A1', 'B2', 'F2']",0,90,0,0.3241352969329099,[7300|0|0]
7300,1.6908462047576904,1.1526756286621094,-0.03602639585733414,-0.29501873254776,1.0022364854812622,-10.001687049865723,4.0859375,0,"['A1', 'B2', 'F2']",0,90,0,0.32458803166992933,[7400|0|0]
7400,1.6907542943954468,1.1528940200805664,-0.036010488867759705,-0.30829954147338867,1.0141464471817017,-10.04239559173584,4.0859375,0,"['A1', 'B2', 'F2']",0,90,0,0.32482550873968713,[7500|0|0]
7500,1.6905097961425781,1.1528106927871704,-0.03594844788312912,-0.30173027515411377,1.0174731016159058,-10.042296409606934,4.0859375,0,"['A1', 'B2', 'F2']",0,90,0,0.32509116249413916,[7600|0|0]
7600,1.6904840469360352,1.152854323387146,-0.03633609414100647,-0.30381545424461365,1.0226572751998901,-10.063501358032227,4.0859375,0,"['A1', 'B2', 'F2']",0,90,0,0.32548210529320076,[7700|0|0]
7700,1.6904336214065552,1.152933120727539,-0.03609944134950638,-0.31060758233070374,1.022063970565796,-10.091302871704102,4.0859375,0,"['A1', 'B2', 'F2']",0,90,0,0.3257365778822966,[7800|0|0]
7800,1.6908081769943237,1.153181552886963,-0.036068130284547806,-0.31533315777778625,1.0090241432189941,-10.099729537963867,4.0859375,0,"['A1', 'B2', 'F2']",0,90,0,0.3261871228955344,[7900|0|0]
7900,1.690481424331665,1.1532808542251587,-0.036114685237407684,-0.3128668963909149,1.0187712907791138,-10.086821556091309,4.0859375,0,"['A1', 'B2', 'F2']",0,90,0,0.3265317900131389,[8000|0|0]
8000,1.6907798051834106,1.1529539823532104,-0.03606818988919258,-0.304277241230011,1.016714096069336,-10.06567668914795,4.0859375,0,"['A1', 'B2', 'F2']",0,90,0,0.32697680481150526,[8100|0|0]
8100,1.6906003952026367,1.1531211137771606,-0.03603166714310646,-0.30274537205696106,1.023815631866455,-10.063426971435547,4.0859375,0,"['A1', 'B2', 'F2']",0,90,0,0.32722470552762883,[8200|0|0]
8200,1.6905889511108398,1.1528213024139404,-0.03608980029821396,-0.274615079164505,1.0471991300582886,-10.033899307250977,4.0859375,0,"['A1', 'B2', 'F2']",0,90,0,0.3275303152206619,[8300|0|0]
8300,1.690544605255127,1.1529470682144165,-0.03600931912660599,-0.28662168979644775,1.050244927406311,-10.035061836242676,4.0859375,0,"['A1', 'B2', 'F2']",0,90,0,0.32768607404215105,[8400|0|0]
8400,1.6905864477157593,1.1526981592178345,-0.03620430454611778,-0.2883581221103668,1.042957067489624,-10.055309295654297,4.0859375,0,"['A1', 'B2', 'F2']",0,90,0,0.32800501885542355,[8500|0|0]
8500,1.690328598022461,1.153130292892456,-0.036047130823135376,-0.2983667850494385,1.0490623712539673,-10.076070785522461,4.0859375,0,"['A1', 'B2', 'F2']",0,90,0,0.3285322091021772,[8600|0|0]
8600,1.6906569004058838,1.1529662609100342,-0.03567526489496231,-0.2987632155418396,1.0345122814178467,-10.086137771606445,4.0859375,0,"['A1', 'B2', 'F2']",0,90,0,0.32905467748854555,[8700|0|0]
8700,1.6903756856918335,1.1530892848968506,-0.03613061085343361,-0.29562249779701233,1.0437467098236084,-10.086455345153809,4.0859375,0,"['A1', 'B2', 'F2']",0,90,0,0.3296038191447935,[8800|0|0]
8800,1.6906367540359497,1.152997374534607,-0.03602612391114235,-0.29426854848861694,1.02901029586792,-10.10492992401123,4.0859375,0,"['A1', 'B2', 'F2']",0,90,0,0.3298996598385743,[8900|0|0]
8900,1.6905312538146973,1.1527807712554932,-0.03616469353437424,-0.28944674134254456,1.034558892250061,-10.099580764770508,4.0859375,0,"['A1', 'B2', 'F2']",0,90,0,0.3301775965538348,[9000|0|0]
9000,1.6905736923217773,1.1527618169784546,-0.03591381385922432,-0.2912818193435669,1.0343197584152222,-10.084091186523438,4.0859375,0,"['A1', 'B2', 'F2']",0,90,0,0.3304327453396531,[9100|0|0]
9100,1.6903398036956787,1.1526340246200562,-0.03598025068640709,-0.28936055302619934,1.033373475074768,-10.069892883300781,4.0859375,0,"['A1', 'B2', 'F2']",0,90,0,0.3307074244766283,[9200|0|0]
9200,1.6904064416885376,1.1529300212860107,-0.035948965698480606,-0.29855141043663025,1.0308070182800293,-10.068424224853516,4.0859375,0,"['A1', 'B2', 'F2']",0,90,0,0.33101243824487175,[9300|0|0]
9300,1.6906813383102417,1.1531598567962646,-0.03594067692756653,-0.30638575553894043,1.0205934047698975,-10.06445598602295,4.0859375,0,"['A1', 'B2', 'F2']",0,90,0,0.3313708531135941,[9400|0|0]
9400,1.6903963088989258,1.1533924341201782,-0.03606196120381355,-0.30918383598327637,1.0314717292785645,-10.061575889587402,4.0859375,0,"['A1', 'B2', 'F2']",0,90,0,0.3317582080575133,[9500|0|0]
9500,1.6902557611465454,1.1531425714492798,-0.03612622246146202,-0.29777196049690247,1.0301172733306885,-10.057011604309082,4.0859375,0,"['A1', 'B2', 'F2']",0,90,0,0.3320520014104712,[9600|0|0]
9600,1.690853238105774,1.1525875329971313,-0.03606458008289337,-0.2717524468898773,1.0202949047088623,-10.06781005859375,4.0859375,0,"['A1', 'B2', 'F2']",0,90,0,0.3328698315780536,[9700|0|0]
9700,1.6903016567230225,1.152943730354309,-0.036144182085990906,-0.28332966566085815,1.037348985671997,-10.036571502685547,4.0859375,0,"['A1', 'B2', 'F2']",0,90,0,0.33353123543195495,[9800|0|0]
9800,1.6906400918960571,1.1529988050460815,-0.03592038154602051,-0.2956126928329468,1.0158486366271973,-10.054974555969238,4.0859375,0,"['A1', 'B2', 'F2']",0,90,0,0.3339406963821222,[9900|0|0]
9900,1.6903728246688843,1.152895212173462,-0.036218006163835526,-0.29143738746643066,1.018584132194519,-10.041766166687012,4.0859375,0,"['A1', 'B2', 'F2']",0,90,0,0.334353907789404,[10000|0|0]
10000,1.6905103921890259,1.1530169248580933,-0.03604999929666519,-0.31334665417671204,1.0074458122253418,-10.040307998657227,4.0859375,0,"['A1', 'B2', 'F2']",0,90,0,0.3346028357059069,[10100|0|0]
10100,1.6905416250228882,1.1529141664505005,-0.035923849791288376,-0.32014644145965576,1.0075432062149048,-10.045770645141602,4.0859375,0,"['A1', 'B2', 'F2']",0,90,0,0.3347685115277666,[10200|0|0]
10200,1.690317988395691,1.1528408527374268,-0.03592202067375183,-0.3194849491119385,1.0036917924880981,-10.051359176635742,4.0859375,0,"['A1', 'B2', 'F2']",0,90,0,0.3350038657017678,[10300|0|0]
10300,1.6903915405273438,1.152868628501892,-0.03593911975622177,-0.30138036608695984,1.0108582973480225,-10.046573638916016,4.0859375,0,"['A1', 'B2', 'F2']",0,90,0,0.3350843255537663,[10400|0|0]
10400,1.6906377077102661,1.1529014110565186,-0.03624638915061951,-0.306973934173584,1.0011061429977417,-10.094775199890137,4.0859375,0,"['A1', 'B2', 'F2']",0,90,0,0.3354794046073358,[10500|0|0]
10500,1.690462589263916,1.1530863046646118,-0.036141276359558105,-0.3098194897174835,1.0014225244522095,-10.06441593170166,4.0859375,0,"['A1', 'B2', 'F2']",0,90,0,0.3357549056334873,[10600|0|0]
10600,1.6903488636016846,1.152881145477295,-0.03609105199575424,-0.30389267206192017,1.0006505250930786,-10.066285133361816,4.0859375,0,"['A1', 'B2', 'F2']",0,90,0,0.33599479374305097,[10700|0|0]
10700,1.6903659105300903,1.1530758142471313,-0.036115195602178574,-0.30801355838775635,1.005151391029358,-10.040446281433105,4.0859375,0,"['A1', 'B2', 'F2']",0,90,0,0.3361916933150385,[10800|0|0]
10800,1.6903398036956787,1.1528656482696533,-0.03641453757882118,-0.3031598627567291,1.0018824338912964,-10.048408508300781,4.0859375,0,"['A1', 'B2', 'F2']",0,90,0,0.3365583769987123,[10900|0|0]
10900,1.69066321849823,1.1530841588974,-0.0361609123647213,-0.3143395483493805,0.9945714473724365,-10.049595832824707,4.0859375,0,"['A1', 'B2', 'F2']",0,90,0,0.33702385500912174,[11000|0|0]
11000,1.6902685165405273,1.1529769897460938,-0.03608555719256401,-0.30613085627555847,1.0088226795196533,-10.060126304626465,4.0859375,0,"['A1', 'B2', 'F2']",0,90,0,0.3374397315104738,[11100|0|0]
11100,1.6903105974197388,1.1528111696243286,-0.035919442772865295,-0.29640936851501465,1.0081690549850464,-10.06672477722168,4.0859375,0,"['A1', 'B2', 'F2']",0,90,0,0.33767818719526504,[11200|0|0]
11200,1.6905795335769653,1.1530120372772217,-0.03598066419363022,-0.2974260747432709,0.9997856616973877,-10.073966026306152,4.0859375,0,"['A1', 'B2', 'F2']",0,90,0,0.33801939465855246,[11300|0|0]
11300,1.690390944480896,1.153152346611023,-0.03652745485305786,-0.2938191294670105,1.009416103363037,-10.091628074645996,4.0859375,0,"['A1', 'B2', 'F2']",0,90,0,0.33861456907126297,[11400|0|0]
11400,1.6903451681137085,1.1530183553695679,-0.03631565347313881,-0.28300681710243225,1.0087324380874634,-10.081954956054688,4.0859375,0,"['A1', 'B2', 'F2']",0,90,0,0.33886934142673975,[11500|0|0]
11500,1.690496563911438,1.1530303955078125,-0.036197055131196976,-0.2882292568683624,1.004943609237671,-10.061874389648438,4.0859375,0,"['A1', 'B2', 'F2']",0,90,0,0.3390620360535731,[11600|0|0]
11600,1.690227746963501,1.1527265310287476,-0.03613398224115372,-0.2891117334365845,1.0116904973983765,-10.06328296661377,4.0859375,0,"['A1', 'B2', 'F2']",0,90,0,0.33947261413700425,[11700|0|0]
11700,1.6906993389129639,1.1533846855163574,-0.03611322119832039,-0.2903931736946106,1.0144164562225342,-10.0595703125,4.0859375,0,"['A1', 'B2', 'F2']",0,90,0,0.3402825507501159,[11800|0|0]
11800,1.6906733512878418,1.1533037424087524,-0.03600391000509262,-0.2979770302772522,1.0139225721359253,-10.083906173706055,4.0859375,0,"['A1', 'B2', 'F2']",0,90,0,0.34042102847501454,[11900|0|0]
11900,1.6908328533172607,1.153146743774414,-0.036045171320438385,-0.30418139696121216,1.0084139108657837,-10.079636573791504,4.0859375,0,"['A1', 'B2', 'F2']",0,90,0,0.3406486069553613,[12000|0|0]
12000,1.690337896347046,1.1532073020935059,-0.03605928272008896,-0.2999686598777771,1.027182698249817,-10.103922843933105,4.0859375,0,"['A1', 'B2', 'F2']",0,90,0,0.34114745447111694,[12100|0|0]
12100,1.690551519393921,1.152844786643982,-0.03619720786809921,-0.296205073595047,1.0250502824783325,-10.113476753234863,4.0859375,0,"['A1', 'B2', 'F2']",0,90,0,0.34159025872104387,[12200|0|0]
12200,1.6905920505523682,1.1531237363815308,-0.03627821058034897,-0.30147892236709595,1.0162639617919922,-10.10753345489502,4.0859375,0,"['A1', 'B2', 'F2']",0,90,0,0.3418835455606318,[12300|0|0]
12300,1.6905958652496338,1.1529489755630493,-0.036058589816093445,-0.29590871930122375,1.014669418334961,-10.10090160369873,4.0859375,0,"['A1', 'B2', 'F2']",0,90,0,0.3421642396569069,[12400|0|0]
12400,1.6904586553573608,1.1529943943023682,-0.03591565787792206,-0.3006390631198883,1.0186611413955688,-10.09418773651123,4.0859375,0,"['A1', 'B2', 'F2']",0,90,0,0.3423675103025208,[12500|0|0]
12500,1.6906815767288208,1.152871012687683,-0.03586232289671898,-0.30103543400764465,1.0121487379074097,-10.091619491577148,4.0859375,0,"['A1', 'B2', 'F2']",0,90,0,0.3426278208495907,[12600|0|0]
12600,1.690361738204956,1.1526516675949097,-0.03577221930027008,-0.2958047389984131,1.018051028251648,-10.070134162902832,4.0859375,0,"['A1', 'B2', 'F2']",0,90,0,0.3430259761072036,[12700|0|0]
12700,1.6906774044036865,1.152937412261963,-0.03595203533768654,-0.3082074820995331,1.0160857439041138,-10.035518646240234,4.0859375,0,"['A1', 'B2', 'F2']",0,90,0,0.3434881762490063,[12800|0|0]
12800,1.6905052661895752,1.1527584791183472,-0.03562488779425621,-0.3003702163696289,1.0220996141433716,-10.042120933532715,4.0859375,0,"['A1', 'B2', 'F2']",0,90,0,0.34389887583485235,[12900|0|0]
12900,1.6906490325927734,1.1526224613189697,-0.03629475459456444,-0.29711413383483887,1.0103063583374023,-10.07353401184082,4.0859375,0,"['A1', 'B2', 'F2']",0,90,0,0.34459736788963263,[13000|0|0]
13000,1.690604329109192,1.1526230573654175,-0.03587297350168228,-0.2968050241470337,1.006075143814087,-10.0860595703125,4.0859375,0,"['A1', 'B2', 'F2']",0,90,0,0.34502151178859686,[13100|0|0]
13100,1.6906534433364868,1.1531871557235718,-0.03600674867630005,-0.3126136362552643,1.002274990081787,-10.07189655303955,4.0859375,0,"['A1', 'B2', 'F2']",0,90,0,0.345603332175262,[13200|0|0]
13200,1.6904767751693726,1.1530427932739258,-0.03610830381512642,-0.30146104097366333,1.0115224123001099,-10.051183700561523,4.0859375,0,"['A1', 'B2', 'F2']",0,90,0,0.3458530632393316,[13300|0|0]
13300,1.690333366394043,1.1529120206832886,-0.03612801805138588,-0.2969037890434265,1.003177523612976,-10.05280876159668,4.0859375,0,"['A1', 'B2', 'F2']",0,90,0,0.3460481432188651,[13400|0|0]
13400,1.690434455871582,1.1526896953582764,-0.036037005484104156,-0.291991263628006,1.0024347305297852,-10.048948287963867,4.0859375,0,"['A1', 'B2', 'F2']",0,90,0,0.34630877882659,[13500|0|0]
13500,1.690284013748169,1.1532634496688843,-0.03602664917707443,-0.307682067155838,1.0056822299957275,-10.074580192565918,4.0859375,0,"['A1', 'B2', 'F2']",0,90,0,0.34690201916113705,[13600|0|0]
13600,1.6903399229049683,1.1529796123504639,-0.035877496004104614,-0.27624958753585815,1.0189931392669678,-10.087678909301758,4.0859375,0,"['A1', 'B2', 'F2']",0,90,0,0.3472274974647904,[13700|0|0]
13700,1.6905089616775513,1.1533454656600952,-0.03605617955327034,-0.28925493359565735,1.0209330320358276,-10.105417251586914,4.0859375,0,"['A1', 'B2', 'F2']",0,90,0,0.3476683495505823,[13800|0|0]
13800,1.690312147140503,1.1533315181732178,-0.03614993393421173,-0.291550874710083,1.031895637512207,-10.103415489196777,4.0859375,0,"['A1', 'B2', 'F2']",0,90,0,0.34788679949525947,[13900|0|0]
13900,1.690453290939331,1.152559518814087,-0.036040160804986954,-0.27693358063697815,1.0286567211151123,-10.087807655334473,4.0859375,0,"['A1', 'B2', 'F2']",0,90,0,0.3486792354373683,[14000|0|0]
14000,1.6906377077102661,1.1530629396438599,-0.03648228198289871,-0.29424676299095154,1.024226188659668,-10.114516258239746,4.0859375,0,"['A1', 'B2', 'F2']",0,90,0,0.34937415501056324,[14100|0|0]
14100,1.6905865669250488,1.1532644033432007,-0.036083322018384933,-0.28535425662994385,1.0396580696105957,-10.115848541259766,4.0859375,0,"['A1', 'B2', 'F2']",0,90,0,0.34982401282737824,[14200|0|0]
14200,1.6903843879699707,1.1529861688613892,-0.0359141044318676,-0.2821609079837799,1.0421085357666016,-10.132396697998047,4.0859375,0,"['A1', 'B2', 'F2']",0,90,0,0.35020732125192977,[14300|0|0]
14300,1.6906323432922363,1.1529240608215332,-0.03636595979332924,-0.2878229022026062,1.032157301902771,-10.127452850341797,4.0859375,0,"['A1', 'B2', 'F2']",0,90,0,0.3507264672026375,[14400|0|0]
14400,1.6906945705413818,1.1533453464508057,-0.03610624745488167,-0.2953641712665558,1.0301234722137451,-10.11734390258789,4.0859375,0,"['A1', 'B2', 'F2']",0,90,0,0.3512252700802451,[14500|0|0]
14500,1.6905646324157715,1.152977466583252,-0.03613688424229622,-0.28936854004859924,1.0249040126800537,-10.105984687805176,4.0859375,0,"['A1', 'B2', 'F2']",0,90,0,0.3516166243011008,[14600|0|0]
14600,1.6904759407043457,1.1532514095306396,-0.03605731949210167,-0.294615238904953,1.029375433921814,-10.088494300842285,4.08203125,0,"['A1', 'B2', 'F2']",0,90,0,0.35191535747229646,[14700|0|0]
14700,1.6906527280807495,1.1533018350601196,-0.036105040460824966,-0.29379594326019287,1.0250451564788818,-10.093405723571777,4.0859375,0,"['A1', 'B2', 'F2']",0,90,0,0.352105288515928,[14800|0|0]
14800,1.6905094385147095,1.1528626680374146,-0.0364665612578392,-0.2820645272731781,1.024380087852478,-10.090523719787598,4.0859375,0,"['A1', 'B2', 'F2']",0,90,0,0.35269188621473135,[14900|0|0]
14900,1.690589189529419,1.1533963680267334,-0.03624298423528671,-0.2991442084312439,1.029819369316101,-10.069250106811523,4.0859375,0,"['A1', 'B2', 'F2']",0,90,0,0.3532759945847789,[15000|0|0]
15000,1.6904605627059937,1.1531195640563965,-0.035920921713113785,-0.29113414883613586,1.0266667604446411,-10.065042495727539,4.0859375,0,"['A1', 'B2', 'F2']",0,90,0,0.3537197169821031,[15100|0|0]
15100,1.6903245449066162,1.1532208919525146,-0.03618767112493515,-0.2926216721534729,1.0190612077713013,-10.075044631958008,4.0859375,0,"['A1', 'B2', 'F2']",0,90,0,0.35403582366185893,[15200|0|0]
15200,1.6906638145446777,1.1534464359283447,-0.03612317144870758,-0.2968856990337372,1.0113029479980469,-10.082022666931152,4.0859375,0,"['A1', 'B2', 'F2']",0,90,0,0.3544482969101758,[15300|0|0]
15300,1.6903681755065918,1.1529967784881592,-0.03604697808623314,-0.27802935242652893,1.014227032661438,-10.094963073730469,4.0859375,0,"['A1', 'B2', 'F2']",0,90,0,0.3549918037480719,[15400|0|0]
15400,1.690672516822815,1.153052568435669,-0.03587517887353897,-0.2918687164783478,1.0018993616104126,-10.111112594604492,4.0859375,0,"['A1', 'B2', 'F2']",0,90,0,0.3553457121041274,[15500|0|0]
15500,1.6903777122497559,1.1526758670806885,-0.03617040812969208,-0.28150802850723267,1.0059305429458618,-10.112308502197266,4.0859375,0,"['A1', 'B2', 'F2']",0,90,0,0.3559078277157496,[15600|0|0]
15600,1.6905816793441772,1.152969479560852,-0.03619673103094101,-0.2937406003475189,0.9998878836631775,-10.087627410888672,4.0859375,0,"['A1', 'B2', 'F2']",0,90,0,0.3562663019257629,[15700|0|0]
15700,1.690329670906067,1.1529541015625,-0.036043114960193634,-0.26946187019348145,1.019350290298462,-10.067805290222168,4.0859375,0,"['A1', 'B2', 'F2']",0,90,0,0.3565618397962702,[15800|0|0]
15800,1.6905092000961304,1.1533282995224,-0.035960569977760315,-0.2876925766468048,1.0153015851974487,-10.068702697753906,4.0859375,0,"['A1', 'B2', 'F2']",0,90,0,0.3569850046783233,[15900|0|0]
15900,1.69040846824646,1.153141975402832,-0.03588755801320076,-0.2800275385379791,1.0146642923355103,-10.060408592224121,4.0859375,0,"['A1', 'B2', 'F2']",0,90,0,0.3572090455898542,[16000|0|0]
16000,1.6904661655426025,1.1528717279434204,-0.036312285810709,-0.28062325716018677,1.0139753818511963,-10.068313598632812,4.0859375,0,"['A1', 'B2', 'F2']",0,90,0,0.3577157569172161,[16100|0|0]
16100,1.6905492544174194,1.1532692909240723,-0.03625979274511337,-0.2959727346897125,1.0177315473556519,-10.041041374206543,4.0859375,0,"['A1', 'B2', 'F2']",0,90,0,0.35812528787653264,[16200|0|0]
16200,1.6903645992279053,1.1532516479492188,-0.03610062226653099,-0.29597020149230957,1.0197969675064087,-10.085894584655762,4.0859375,0,"['A1', 'B2', 'F2']",0,90,0,0.35836971384656924,[16300|0|0]
16300,1.6901791095733643,1.1531193256378174,-0.03625432401895523,-0.28896328806877136,1.0218294858932495,-10.089329719543457,4.0859375,0,"['A1', 'B2', 'F2']",0,90,0,0.3586445589570126,[16400|0|0]
16400,1.6906458139419556,1.1533066034317017,-0.036214664578437805,-0.2963693141937256,1.000377893447876,-10.074999809265137,4.0859375,0,"['A1', 'B2', 'F2']",0,90,0,0.35914899806232314,[16500|0|0]
16500,1.690314769744873,1.1530145406723022,-0.03629416599869728,-0.2939372956752777,1.0155962705612183,-10.061468124389648,4.0859375,0,"['A1', 'B2', 'F2']",0,90,0,0.3595975639902237,[16600|0|0]
16600,1.6903778314590454,1.1528701782226562,-0.03582119941711426,-0.2903918921947479,1.0191318988800049,-10.074430465698242,4.0859375,0,"['A1', 'B2', 'F2']",0,90,0,0.36009607646143826,[16700|0|0]
16700,1.6902600526809692,1.1532096862792969,-0.03613941743969917,-0.29275941848754883,1.0237828493118286,-10.09595012664795,4.0859375,0,"['A1', 'B2', 'F2']",0,90,0,0.36057607674371617,[16800|0|0]
16800,1.690428376197815,1.153136968612671,-0.03628893569111824,-0.29272595047950745,1.0240209102630615,-10.091620445251465,4.0859375,0,"['A1', 'B2', 'F2']",0,90,0,0.3608126700083503,[16900|0|0]
16900,1.6902271509170532,1.1528756618499756,-0.035813767462968826,-0.28411567211151123,1.0328047275543213,-10.09292984008789,4.0859375,0,"['A1', 'B2', 'F2']",0,90,0,0.3613910796234939,[17000|0|0]
17000,1.6903936862945557,1.1532429456710815,-0.03616725653409958,-0.29446128010749817,1.0338876247406006,-10.077532768249512,4.0859375,0,"['A1', 'B2', 'F2']",0,90,0,0.361927350040928,[17100|0|0]
17100,1.6901992559432983,1.1532423496246338,-0.036199718713760376,-0.2991589903831482,1.0443023443222046,-10.049708366394043,4.0859375,0,"['A1', 'B2', 'F2']",0,90,0,0.3621244726166766,[17200|0|0]
17200,1.6904195547103882,1.1528880596160889,-0.03600173443555832,-0.2735174298286438,1.052582859992981,-10.077170372009277,4.0859375,0,"['A1', 'B2', 'F2']",0,90,0,0.36258626340410227,[17300|0|0]
17300,1.6904985904693604,1.1531672477722168,-0.03640039265155792,-0.2755490243434906,1.0434439182281494,-10.08102798461914,4.0859375,0,"['A1', 'B2', 'F2']",0,90,0,0.36307933647262497,[17400|0|0]
17400,1.6903496980667114,1.1530654430389404,-0.03633427247405052,-0.27944523096084595,1.04251229763031,-10.108232498168945,4.0859375,0,"['A1', 'B2', 'F2']",0,90,0,0.3632714432896765,[17500|0|0]
17500,1.6903668642044067,1.1532809734344482,-0.03636905178427696,-0.29099467396736145,1.0380995273590088,-10.099564552307129,4.0859375,0,"['A1', 'B2', 'F2']",0,90,0,0.3634904355911187,[17600|0|0]
17600,1.6902986764907837,1.153281569480896,-0.03608256205916405,-0.2878451645374298,1.0377222299575806,-10.094966888427734,4.0859375,0,"['A1', 'B2', 'F2']",0,90,0,0.36378492885446406,[17700|0|0]
17700,1.69057035446167,1.1531751155853271,-0.03595214709639549,-0.28650569915771484,1.0305436849594116,-10.104342460632324,4.0859375,0,"['A1', 'B2', 'F2']",0,90,0,0.36410453707441554,[17800|0|0]
17800,1.6903573274612427,1.1530117988586426,-0.036133963614702225,-0.27850499749183655,1.033160924911499,-10.080881118774414,4.0859375,0,"['A1', 'B2', 'F2']",0,90,0,0.3644287439565991,[17900|0|0]
17900,1.6892545223236084,1.1515238285064697,-0.03778279572725296,-0.2418612539768219,1.0654163360595703,-10.087945938110352,4.0859375,0,"['A1', 'B2', 'F2']",0,90,0,0.36690843794496064,[18000|0|0]
18000,1.6898376941680908,1.151634693145752,-0.0376775860786438,-0.24876774847507477,1.0374603271484375,-10.065750122070312,4.0859375,0,"['A1', 'B2', 'F2']",0,90,0,0.3675113056241413,[18100|0|0]
18100,1.6907572746276855,1.1530768871307373,-0.03633428364992142,-0.29216331243515015,1.0053393840789795,-10.062365531921387,4.0859375,0,"['A1', 'B2', 'F2']",0,90,0,0.3696861649591347,[18200|0|0]
18200,1.6904431581497192,1.1529414653778076,-0.03597896173596382,-0.29245510697364807,1.010217547416687,-10.094287872314453,4.0859375,0,"['A1', 'B2', 'F2']",0,90,0,0.3701793808098887,[18300|0|0]
18300,1.6902216672897339,1.1532162427902222,-0.03604963421821594,-0.3006247878074646,1.0217266082763672,-10.102270126342773,4.0859375,0,"['A1', 'B2', 'F2']",0,90,0,0.3705393188978677,[18400|0|0]
18400,1.6905111074447632,1.153365135192871,-0.035908471792936325,-0.3032665550708771,1.0164400339126587,-10.126511573791504,4.0859375,0,"['A1', 'B2', 'F2']",0,90,0,0.37089410246741505,[18500|0|0]
18500,1.6898332834243774,1.15167236328125,-0.03750003129243851,-0.2553402781486511,1.038684606552124,-10.128032684326172,4.0859375,0,"['A1', 'B2', 'F2']",0,90,0,0.3733144296741871,[18600|0|0]
18600,1.6894419193267822,1.1514322757720947,-0.037403739988803864,-0.24591940641403198,1.0478876829147339,-10.152481079101562,4.0859375,0,"['A1', 'B2', 'F2']",0,90,0,0.3737835563991715,[18700|0|0]
18700,1.6897706985473633,1.1517813205718994,-0.037340566515922546,-0.25411373376846313,1.0396971702575684,-10.137062072753906,4.0859375,0,"['A1', 'B2', 'F2']",0,90,0,0.3742672080670405,[18800|0|0]
18800,1.6897677183151245,1.1512701511383057,-0.03779451549053192,-0.2080754041671753,1.0458409786224365,-10.128011703491211,4.0859375,0,"['A1', 'B2', 'F2']",0,90,0,0.3749508547178578,[18900|0|0]
18900,1.6899523735046387,1.1515473127365112,-0.03784747049212456,-0.22771961987018585,1.0394707918167114,-10.143814086914062,4.0859375,0,"['A1', 'B2', 'F2']",0,90,0,0.3752880791575534,[19000|0|0]
19000,1.6899763345718384,1.1513944864273071,-0.03771459311246872,-0.22484000027179718,1.038035273551941,-10.123584747314453,4.0859375,0,"['A1', 'B2', 'F2']",0,90,0,0.37549200662394894,[19100|0|0]
19100,1.689806580543518,1.151472806930542,-0.03787143528461456,-0.23581776022911072,1.04251229763031,-10.093440055847168,4.0859375,0,"['A1', 'B2', 'F2']",0,90,0,0.3757360353073478,[19200|0|0]
19200,1.6896589994430542,1.1514853239059448,-0.03765088692307472,-0.23391872644424438,1.0474101305007935,-10.115011215209961,4.0859375,0,"['A1', 'B2', 'F2']",0,90,0,0.37600170133013816,[19300|0|0]
19300,1.6892987489700317,1.1514594554901123,-0.037998538464307785,-0.22887413203716278,1.0575484037399292,-10.092682838439941,4.0859375,0,"['A1', 'B2', 'F2']",0,90,0,0.37650301078783105,[19400|0|0]
19400,1.6898574829101562,1.1518620252609253,-0.03799767792224884,-0.24336346983909607,1.047798991203308,-10.107123374938965,4.0859375,0,"['A1', 'B2', 'F2']",0,90,0,0.377191666563057,[19500|0|0]
19500,1.6897741556167603,1.1521447896957397,-0.03759699687361717,-0.25927111506462097,1.0488052368164062,-10.112874984741211,4.0859375,0,"['A1', 'B2', 'F2']",0,90,0,0.3776891044648631,[19600|0|0]
19600,1.6895935535430908,1.1515182256698608,-0.037447404116392136,-0.243719682097435,1.048197865486145,-10.124353408813477,4.0859375,0,"['A1', 'B2', 'F2']",0,90,0,0.37835811685679127,[19700|0|0]
19700,1.6896601915359497,1.1518609523773193,-0.0372990220785141,-0.25280576944351196,1.0564695596694946,-10.125248908996582,4.0859375,0,"['A1', 'B2', 'F2']",0,90,0,0.3787374840236131,[19800|0|0]
19800,1.6901253461837769,1.1512670516967773,-0.038645315915346146,-0.2588161826133728,1.0658626556396484,-10.039209365844727,4.0859375,0,"['A1', 'B2', 'F2']",0,90,0,0.3802807254045498,[19900|0|0]
19900,1.6908084154129028,1.1502916812896729,-0.04040711745619774,-0.27005240321159363,1.0725306272506714,-10.071667671203613,4.0859375,0,"['A1', 'B2', 'F2']",0,90,0,0.3824071956423338,[20000|0|0]
20000,1.6923197507858276,1.1501961946487427,-0.04080155864357948,-0.3143405020236969,1.0485625267028809,-10.105986595153809,4.0859375,0,"['A1', 'B2', 'F2']",0,90,0,0.3839720714068445,[20100|0|0]
20100,1.6938470602035522,1.150221586227417,-0.04171477258205414,-0.34319403767585754,1.045928716659546,-10.12834358215332,4.0859375,0,"['A1', 'B2', 'F2']",0,90,0,0.3857517563472657,[20200|0|0]
20200,1.6958458423614502,1.1499208211898804,-0.042679596692323685,-0.36187222599983215,1.0309287309646606,-10.154565811157227,4.0859375,0,"['A1', 'B2', 'F2']",0,90,0,0.3879915052810288,[20300|0|0]
20300,1.6980985403060913,1.1496998071670532,-0.044094450771808624,-0.3603452444076538,1.0129677057266235,-10.185155868530273,4.0859375,0,"['A1', 'B2', 'F2']",0,90,0,0.3906608324049145,[20400|0|0]
20400,1.7006157636642456,1.1493730545043945,-0.04586980119347572,-0.34734082221984863,1.0079576969146729,-10.23249626159668,4.0859375,0,"['A1', 'B2', 'F2']",0,90,0,0.3937584201530026,[20500|0|0]
20500,1.7045015096664429,1.1489607095718384,-0.04774348437786102,-0.3485088646411896,0.9794153571128845,-10.232671737670898,4.0859375,0,"['A1', 'B2', 'F2']",0,90,0,0.39809197977673516,[20600|0|0]
20600,1.7089403867721558,1.148212194442749,-0.05029543861746788,-0.3116760551929474,0.9601051211357117,-10.274613380432129,4.0859375,0,"['A1', 'B2', 'F2']",0,90,0,0.4032665691613284,[20700|0|0]
20700,1.714641809463501,1.1471444368362427,-0.05359383672475815,-0.2952703833580017,0.937760055065155,-10.297686576843262,4.0859375,0,"['A1', 'B2', 'F2']",0,90,0,0.40993933148931627,[20800|0|0]
20800,1.7215847969055176,1.1463829278945923,-0.057671088725328445,-0.3132982552051544,0.9140914082527161,-10.308460235595703,4.0859375,0,"['A1', 'B2', 'F2']",0,90,0,0.418026911743284,[20900|0|0]
20900,1.73081636428833,1.1453438997268677,-0.062321919947862625,-0.31067800521850586,0.8760015368461609,-10.32703685760498,4.0859375,0,"['A1', 'B2', 'F2']",0,90,0,0.428415927429923,[21000|0|0]
21000,1.7387630939483643,1.1444226503372192,-0.06732986122369766,-0.31277188658714294,0.8753202557563782,-10.341944694519043,4.0859375,0,"['A1', 'B2', 'F2']",0,90,0,0.43785407812536153,[21100|0|0]
21100,1.7512980699539185,1.1424198150634766,-0.0742647796869278,-0.28403010964393616,0.8367866277694702,-10.374573707580566,4.0859375,0,"['A1', 'B2', 'F2']",0,90,0,0.4523188652542901,[21200|0|0]
21200,1.761704921722412,1.1410486698150635,-0.08059863746166229,-0.2828144133090973,0.8330192565917969,-10.349434852600098,4.0859375,0,"['A1', 'B2', 'F2']",0,90,0,0.46457856987284474,[21300|0|0]
21300,1.7747365236282349,1.1391786336898804,-0.08814213424921036,-0.28465017676353455,0.8122811317443848,-10.358047485351562,4.0859375,0,"['A1', 'B2', 'F2']",0,90,0,0.4797517049188753,[21400|0|0]
21400,1.7893095016479492,1.1372096538543701,-0.09649081528186798,-0.28848347067832947,0.7871893644332886,-10.398162841796875,4.0859375,0,"['A1', 'B2', 'F2']",0,90,0,0.49666173285914733,[21500|0|0]
21500,1.804998755455017,1.1345653533935547,-0.10540752857923508,-0.2619493007659912,0.7649329304695129,-10.379495620727539,4.0859375,0,"['A1', 'B2', 'F2']",0,90,0,0.5149005043632017,[21600|0|0]
21600,1.8220844268798828,1.1323697566986084,-0.11496612429618835,-0.2835697531700134,0.7462311387062073,-10.368311882019043,4.0859375,0,"['A1', 'B2', 'F2']",0,90,0,0.5346009501694643,[21700|0|0]
21700,1.8347347974777222,1.130837321281433,-0.12238682806491852,-0.2957904636859894,0.754094660282135,-10.328614234924316,4.0859375,0,"['A1', 'B2', 'F2']",0,90,0,0.5493470370739193,[21800|0|0]
21800,1.8469582796096802,1.1287941932678223,-0.1296696811914444,-0.26947668194770813,0.7535333037376404,-10.280232429504395,4.0859375,0,"['A1', 'B2', 'F2']",0,90,0,0.5637215922730496,[21900|0|0]
21900,1.688942313194275,1.1523959636688232,-0.03694293275475502,-0.3327920436859131,1.0769952535629272,-10.207969665527344,4.0859375,0,"['A1', 'B2', 'F2']",0,90,0,0.7484493354084464,[22000|0|0]
22000,1.6892752647399902,1.1522681713104248,-0.03739607334136963,-0.30552566051483154,0.9766382575035095,-10.174049377441406,4.0859375,0,"['A1', 'B2', 'F2']",0,90,0,0.7490259843570248,[22100|0|0]
22100,1.689416527748108,1.1521635055541992,-0.03720828518271446,-0.24399171769618988,0.9610578417778015,-10.19357681274414,4.0859375,0,"['A1', 'B2', 'F2']",0,90,0,0.7492832285027693,[22200|0|0]
22200,1.689466118812561,1.1519383192062378,-0.037916556000709534,-0.20047909021377563,0.9523627758026123,-10.15887451171875,4.0859375,0,"['A1', 'B2', 'F2']",0,90,0,0.7500280880308718,[22300|0|0]
22300,1.6898287534713745,1.1517224311828613,-0.03753853589296341,-0.17244435846805573,0.9379040002822876,-10.143915176391602,4.0859375,0,"['A1', 'B2', 'F2']",0,90,0,0.7505946661245805,[22400|0|0]
22400,1.6897327899932861,1.151859998703003,-0.03732115775346756,-0.15629412233829498,0.9466361999511719,-10.115289688110352,4.0859375,0,"['A1', 'B2', 'F2']",0,90,0,0.7508692331787865,[22500|0|0]
22500,1.6900945901870728,1.1513819694519043,-0.037929024547338486,-0.14211715757846832,0.9352861642837524,-10.118992805480957,4.0859375,0,"['A1', 'B2', 'F2']",0,90,0,0.7517229974227209,[22600|0|0]
22600,1.689476490020752,1.151464581489563,-0.037528146058321,-0.14880898594856262,0.9573358297348022,-10.111493110656738,4.0859375,0,"['A1', 'B2', 'F2']",0,90,0,0.7524643314414525,[22700|0|0]
22700,1.6895488500595093,1.151344895362854,-0.03769721835851669,-0.15397830307483673,0.9590528607368469,-10.059747695922852,4.0859375,0,"['A1', 'B2', 'F2']",0,90,0,0.7526837538350887,[22800|0|0]
22800,1.6897242069244385,1.1515421867370605,-0.037424236536026,-0.1683097928762436,0.970672070980072,-10.059670448303223,4.0859375,0,"['A1', 'B2', 'F2']",0,90,0,0.7530634813582213,[22900|0|0]
22900,1.6899456977844238,1.1512901782989502,-0.037651896476745605,-0.18098184466362,0.9746282696723938,-10.049216270446777,4.0859375,0,"['A1', 'B2', 'F2']",0,90,0,0.7534689385107595,[23000|0|0]
23000,1.6895291805267334,1.1514354944229126,-0.03813948854804039,-0.16625677049160004,1.0016694068908691,-10.05146598815918,4.0859375,0,"['A1', 'B2', 'F2']",0,90,0,0.7541264713463098,[23100|0|0]
23100,1.6897528171539307,1.1515640020370483,-0.03761143609881401,-0.18228507041931152,1.0042123794555664,-10.079530715942383,4.0859375,0,"['A1', 'B2', 'F2']",0,90,0,0.7547141506270821,[23200|0|0]
23200,1.6898574829101562,1.1515388488769531,-0.03767561540007591,-0.18361759185791016,1.0062283277511597,-10.085766792297363,4.0859375,0,"['A1', 'B2', 'F2']",0,90,0,0.7548394765410007,[23300|0|0]
23300,1.689749002456665,1.151853322982788,-0.03762892633676529,-0.2057625651359558,1.017176866531372,-10.071721076965332,4.0859375,0,"['A1', 'B2', 'F2']",0,90,0,0.7551753959370814,[23400|0|0]
23400,1.6897532939910889,1.1513627767562866,-0.037944309413433075,-0.20390638709068298,1.022422432899475,-10.07516860961914,4.0859375,0,"['A1', 'B2', 'F2']",0,90,0,0.7557585944475828,[23500|0|0]
23500,1.6896122694015503,1.1513961553573608,-0.03797294571995735,-0.21383805572986603,1.0295557975769043,-10.067423820495605,4.0859375,0,"['A1', 'B2', 'F2']",0,90,0,0.7559063175125237,[23600|0|0]
23600,1.6892966032028198,1.1517492532730103,-0.03764694184064865,-0.23427587747573853,1.0409880876541138,-10.073319435119629,4.0859375,0,"['A1', 'B2', 'F2']",0,90,0,0.7564812973525018,[23700|0|0]
23700,1.689576506614685,1.1519834995269775,-0.037855979055166245,-0.2490680068731308,1.0363370180130005,-10.085029602050781,4.0859375,0,"['A1', 'B2', 'F2']",0,90,0,0.7569019085560197,[23800|0|0]
23800,1.6896960735321045,1.1517943143844604,-0.037436001002788544,-0.2507729232311249,1.0371196269989014,-10.103660583496094,4.0859375,0,"['A1', 'B2', 'F2']",0,90,0,0.7573777959695634,[23900|0|0]
23900,1.6896862983703613,1.151763677597046,-0.03760624676942825,-0.2513923943042755,1.0397521257400513,-10.104391098022461,4.0859375,0,"['A1', 'B2', 'F2']",0,90,0,0.7575510523910576,[24000|0|0]
24000,1.6896367073059082,1.1514523029327393,-0.03794180229306221,-0.2429860234260559,1.0432406663894653,-10.102583885192871,4.0859375,0,"['A1', 'B2', 'F2']",0,90,0,0.7580114988751216,[24100|0|0]
24100,1.6894440650939941,1.151596188545227,-0.03777793422341347,-0.25071293115615845,1.047147274017334,-10.079170227050781,4.0859375,0,"['A1', 'B2', 'F2']",0,90,0,0.7583024745365481,[24200|0|0]
24200,1.6897776126861572,1.151607632637024,-0.0373491607606411,-0.24861104786396027,1.0358322858810425,-10.09426212310791,4.0859375,0,"['A1', 'B2', 'F2']",0,90,0,0.7588458267665542,[24300|0|0]
24300,1.6896299123764038,1.1515908241271973,-0.03767610341310501,-0.24421867728233337,1.033117413520813,-10.101353645324707,4.0859375,0,"['A1', 'B2', 'F2']",0,90,0,0.7592049777174147,[24400|0|0]
24400,1.6895357370376587,1.1515882015228271,-0.03735082596540451,-0.24477699398994446,1.0366406440734863,-10.118090629577637,4.0859375,0,"['A1', 'B2', 'F2']",0,90,0,0.7595436239789679,[24500|0|0]
24500,1.6895067691802979,1.1521446704864502,-0.03780371695756912,-0.26335737109184265,1.038940668106079,-10.114787101745605,4.0859375,0,"['A1', 'B2', 'F2']",0,90,0,0.7602616818422488,[24600|0|0]
24600,1.6895270347595215,1.151546835899353,-0.03769545629620552,-0.24777548015117645,1.0311208963394165,-10.124624252319336,4.0859375,0,"['A1', 'B2', 'F2']",0,90,0,0.7608695776047195,[24700|0|0]
24700,1.6895220279693604,1.1516993045806885,-0.0378422848880291,-0.2536380887031555,1.0337097644805908,-10.116218566894531,4.0859375,0,"['A1', 'B2', 'F2']",0,90,0,0.7610813095156653,[24800|0|0]
24800,1.6897661685943604,1.1515690088272095,-0.03801540657877922,-0.2503906786441803,1.0324636697769165,-10.116823196411133,4.0859375,0,"['A1', 'B2', 'F2']",0,90,0,0.7614077336997545,[24900|0|0]
24900,1.6899733543395996,1.1518166065216064,-0.037587590515613556,-0.25861436128616333,1.0348894596099854,-10.102717399597168,4.0859375,0,"['A1', 'B2', 'F2']",0,90,0,0.761943697444054,[25000|0|0]
25000,1.6896514892578125,1.1519317626953125,-0.03730480745434761,-0.25942400097846985,1.0439506769180298,-10.087677955627441,4.0859375,0,"['A1', 'B2', 'F2']",0,90,0,0.7623873463310754,[25100|0|0]
25100,1.689550518989563,1.1517367362976074,-0.03733564168214798,-0.24857322871685028,1.043670415878296,-10.10236930847168,4.0859375,0,"['A1', 'B2', 'F2']",0,90,0,0.7626091143190183,[25200|0|0]
25200,1.6894890069961548,1.151548147201538,-0.03760392218828201,-0.2407737821340561,1.049433946609497,-10.1152982711792,4.0859375,0,"['A1', 'B2', 'F2']",0,90,0,0.7629427668365584,[25300|0|0]
25300,1.689537763595581,1.1518393754959106,-0.03760199993848801,-0.24384678900241852,1.0483245849609375,-10.107962608337402,4.0859375,0,"['A1', 'B2', 'F2']",0,90,0,0.7632380545275904,[25400|0|0]
25400,1.689597487449646,1.1515235900878906,-0.03727956488728523,-0.2420615702867508,1.045127034187317,-10.107599258422852,4.0859375,0,"['A1', 'B2', 'F2']",0,90,0,0.763693303607663,[25500|0|0]
25500,1.6894320249557495,1.1520891189575195,-0.03751189634203911,-0.25843900442123413,1.0477666854858398,-10.102621078491211,4.0859375,0,"['A1', 'B2', 'F2']",0,90,0,0.7643266902543001,[25600|0|0]
25600,1.6894973516464233,1.151775598526001,-0.0378999300301075,-0.2490464746952057,1.039677619934082,-10.0742826461792,4.0859375,0,"['A1', 'B2', 'F2']",0,90,0,0.7648298132815707,[25700|0|0]
25700,1.6894348859786987,1.1518431901931763,-0.03792862221598625,-0.257400244474411,1.042531132698059,-10.10053825378418,4.0859375,0,"['A1', 'B2', 'F2']",0,90,0,0.7649262178180113,[25800|0|0]
25800,1.689353585243225,1.1516680717468262,-0.037794847041368484,-0.25140395760536194,1.0427970886230469,-10.090699195861816,4.0859375,0,"['A1', 'B2', 'F2']",0,90,0,0.7651611051892866,[25900|0|0]
25900,1.6897313594818115,1.1519731283187866,-0.037836991250514984,-0.2608644962310791,1.040520429611206,-10.0971097946167,4.0859375,0,"['A1', 'B2', 'F2']",0,90,0,0.7656484951992379,[26000|0|0]
26000,1.6893136501312256,1.1519463062286377,-0.03761224448680878,-0.2527041435241699,1.0502231121063232,-10.109720230102539,4.0859375,0,"['A1', 'B2', 'F2']",0,90,0,0.766123586384047,[26100|0|0]
26100,1.689622163772583,1.1520609855651855,-0.03755084052681923,-0.26137012243270874,1.0302190780639648,-10.12378215789795,4.08203125,0,"['A1', 'B2', 'F2']",0,90,0,0.7664584034437035,[26200|0|0]
26200,1.689486026763916,1.1514291763305664,-0.03762451186776161,-0.24215911328792572,1.032020092010498,-10.089982032775879,4.0859375,0,"['A1', 'B2', 'F2']",0,90,0,0.767108898378776,[26300|0|0]
26300,1.6895391941070557,1.1520307064056396,-0.03756764531135559,-0.26040205359458923,1.0284191370010376,-10.083271026611328,4.0859375,0,"['A1', 'B2', 'F2']",0,90,0,0.7677154451641369,[26400|0|0]
26400,1.6896027326583862,1.1514313220977783,-0.037884846329689026,-0.22021017968654633,1.036590814590454,-10.085358619689941,4.0859375,0,"['A1', 'B2', 'F2']",0,90,0,0.7683965583574076,[26500|0|0]
26500,1.689475417137146,1.1517741680145264,-0.03775119408965111,-0.23920316994190216,1.0434632301330566,-10.073363304138184,4.0859375,0,"['A1', 'B2', 'F2']",0,90,0,0.7687859366899412,[26600|0|0]
26600,1.6896055936813354,1.1519577503204346,-0.037615273147821426,-0.25099602341651917,1.0369538068771362,-10.100296974182129,4.0859375,0,"['A1', 'B2', 'F2']",0,90,0,0.7690488490291867,[26700|0|0]
26700,1.6893017292022705,1.151480793952942,-0.03790602833032608,-0.237372025847435,1.040234923362732,-10.09013557434082,4.0859375,0,"['A1', 'B2', 'F2']",0,90,0,0.7696847417672192,[26800|0|0]
26800,1.6896220445632935,1.1518549919128418,-0.03790012747049332,-0.25301891565322876,1.0307302474975586,-10.081732749938965,4.0859375,0,"['A1', 'B2', 'F2']",0,90,0,0.7701773479627215,[26900|0|0]
26900,1.6899398565292358,1.151764154434204,-0.03776509314775467,-0.25805020332336426,1.0198237895965576,-10.100074768066406,4.0859375,0,"['A1', 'B2', 'F2']",0,90,0,0.7705344056072817,[27000|0|0]
27000,1.6896525621414185,1.1515220403671265,-0.03791392594575882,-0.2567269504070282,1.0278220176696777,-10.048746109008789,4.0859375,0,"['A1', 'B2', 'F2']",0,90,0,0.7709385200570481,[27100|0|0]
27100,1.6893912553787231,1.1517055034637451,-0.03795092552900314,-0.2650381922721863,1.0320955514907837,-10.041696548461914,4.0859375,0,"['A1', 'B2', 'F2']",0,90,0,0.7712599370777726,[27200|0|0]
27200,1.6896822452545166,1.1519289016723633,-0.03769984468817711,-0.27030959725379944,1.0180236101150513,-10.063246726989746,4.0859375,0,"['A1', 'B2', 'F2']",0,90,0,0.7717044856758561,[27300|0|0]
27300,1.689765453338623,1.1518504619598389,-0.037295207381248474,-0.2668490707874298,1.01912260055542,-10.059990882873535,4.0859375,0,"['A1', 'B2', 'F2']",0,90,0,0.7721249707813237,[27400|0|0]
27400,1.6895660161972046,1.1521142721176147,-0.03753746300935745,-0.2673032283782959,1.0271475315093994,-10.077252388000488,4.0859375,0,"['A1', 'B2', 'F2']",0,90,0,0.7725349204880846,[27500|0|0]
27500,1.68950355052948,1.151601791381836,-0.03787801414728165,-0.24944430589675903,1.0227895975112915,-10.064528465270996,4.0859375,0,"['A1', 'B2', 'F2']",0,90,0,0.7731533972796703,[27600|0|0]
27600,1.689526915550232,1.152029037475586,-0.03736189380288124,-0.25841575860977173,1.0295374393463135,-10.053502082824707,4.08203125,0,"['A1', 'B2', 'F2']",0,90,0,0.7738238190564074,[27700|0|0]
27700,1.6896357536315918,1.1520296335220337,-0.03741345554590225,-0.2630194425582886,1.030844807624817,-10.054694175720215,4.0859375,0,"['A1', 'B2', 'F2']",0,90,0,0.7739442545020571,[27800|0|0]
27800,1.6895171403884888,1.151975154876709,-0.0374646857380867,-0.26326224207878113,1.0278006792068481,-10.071537971496582,4.0859375,0,"['A1', 'B2', 'F2']",0,90,0,0.7740844741755237,[27900|0|0]
27900,1.6893657445907593,1.1519365310668945,-0.03767870366573334,-0.260407418012619,1.0288491249084473,-10.092000961303711,4.08203125,0,"['A1', 'B2', 'F2']",0,90,0,0.7743494574950155,[28000|0|0]
28000,1.689468502998352,1.1521772146224976,-0.03741924464702606,-0.2662712633609772,1.0291436910629272,-10.074606895446777,4.0859375,0,"['A1', 'B2', 'F2']",0,90,0,0.7747179772999884,[28100|0|0]
28100,1.6895345449447632,1.1521018743515015,-0.03750533610582352,-0.2594574987888336,1.0315555334091187,-10.067827224731445,4.08203125,0,"['A1', 'B2', 'F2']",0,90,0,0.7748500736072699,[28200|0|0]
28200,1.6893787384033203,1.1516191959381104,-0.03801083192229271,-0.24348235130310059,1.0416041612625122,-10.063469886779785,4.0859375,0,"['A1', 'B2', 'F2']",0,90,0,0.7755661602986543,[28300|0|0]
28300,1.6891810894012451,1.151536226272583,-0.03774302080273628,-0.24281045794487,1.0439198017120361,-10.058958053588867,4.0859375,0,"['A1', 'B2', 'F2']",0,90,0,0.775909193663179,[28400|0|0]
28400,1.6895835399627686,1.1518487930297852,-0.03731904923915863,-0.2580975890159607,1.0337868928909302,-10.061034202575684,4.0859375,0,"['A1', 'B2', 'F2']",0,90,0,0.7765720785090616,[28500|0|0]
28500,1.6897305250167847,1.151809811592102,-0.03763304650783539,-0.2598799765110016,1.0322893857955933,-10.095168113708496,4.0859375,0,"['A1', 'B2', 'F2']",0,90,0,0.7769209602129734,[28600|0|0]
28600,1.6895467042922974,1.1519476175308228,-0.03725277632474899,-0.2619445025920868,1.0428557395935059,-10.100844383239746,4.08203125,0,"['A1', 'B2', 'F2']",0,90,0,0.7773652415963807,[28700|0|0]
28700,1.6894999742507935,1.1519280672073364,-0.03771987929940224,-0.26262667775154114,1.0443464517593384,-10.08987045288086,4.0859375,0,"['A1', 'B2', 'F2']",0,90,0,0.7778350831663351,[28800|0|0]
28800,1.6896833181381226,1.1518558263778687,-0.037453390657901764,-0.25335168838500977,1.035317301750183,-10.08381175994873,4.0859375,0,"['A1', 'B2', 'F2']",0,90,0,0.7781665193057525,[28900|0|0]
28900,1.6896944046020508,1.1519747972488403,-0.03726692870259285,-0.2516450583934784,1.037904977798462,-10.09778881072998,4.0859375,0,"['A1', 'B2', 'F2']",0,90,0,0.7783879804504255,[29000|0|0]
29000,1.6895102262496948,1.1517177820205688,-0.0376565083861351,-0.24930162727832794,1.037258267402649,-10.070932388305664,4.0859375,0,"['A1', 'B2', 'F2']",0,90,0,0.7788897282186007,[29100|0|0]
29100,1.6894797086715698,1.1519203186035156,-0.03765258565545082,-0.2524641156196594,1.0341548919677734,-10.065120697021484,4.08203125,0,"['A1', 'B2', 'F2']",0,90,0,0.7790945886047723,[29200|0|0]
29200,1.6895636320114136,1.151877522468567,-0.03762056678533554,-0.2526876628398895,1.0276720523834229,-10.048880577087402,4.0859375,0,"['A1', 'B2', 'F2']",0,90,0,0.7791940865654576,[29300|0|0]
29300,1.6894127130508423,1.1518161296844482,-0.03758614882826805,-0.254492849111557,1.0378113985061646,-10.064475059509277,4.0859375,0,"['A1', 'B2', 'F2']",0,90,0,0.7793606104447376,[29400|0|0]
29400,1.6893316507339478,1.1518152952194214,-0.037563569843769073,-0.2557365298271179,1.0417929887771606,-10.094001770019531,4.0859375,0,"['A1', 'B2', 'F2']",0,90,0,0.7794447627239295,[29500|0|0]
29500,1.6892919540405273,1.151955246925354,-0.037642981857061386,-0.25947993993759155,1.0447133779525757,-10.083740234375,4.0859375,0,"['A1', 'B2', 'F2']",0,90,0,0.77961049918738,[29600|0|0]
29600,1.6897995471954346,1.1518107652664185,-0.03809567913413048,-0.22942648828029633,1.04839026927948,-10.061189651489258,4.08203125,0,"['A1', 'B2', 'F2']",0,90,0,0.780305812487514,[29700|0|0]
29700,1.6895036697387695,1.151797890663147,-0.037943966686725616,-0.23322288691997528,1.0569878816604614,-10.074139595031738,4.0859375,0,"['A1', 'B2', 'F2']",0,90,0,0.7806385674896845,[29800|0|0]
29800,1.6894522905349731,1.1518813371658325,-0.03788602724671364,-0.23226779699325562,1.0527902841567993,-10.099763870239258,4.0859375,0,"['A1', 'B2', 'F2']",0,90,0,0.780752410012944,[29900|0|0]
29900,1.6894882917404175,1.1521624326705933,-0.037664514034986496,-0.2440664917230606,1.0527125597000122,-10.131697654724121,4.0859375,0,"['A1', 'B2', 'F2']",0,90,0,0.7811121027603825,[30000|0|0]
30000,1.6895301342010498,1.1519163846969604,-0.037876807153224945,-0.24992159008979797,1.0516009330749512,-10.141507148742676,4.0859375,0,"['A1', 'B2', 'F2']",0,90,0,0.7814397592342877,[30100|0|0]
30100,1.6896682977676392,1.1521821022033691,-0.03767070174217224,-0.2615576386451721,1.0468415021896362,-10.135849952697754,4.0859375,0,"['A1', 'B2', 'F2']",0,90,0,0.7818033172142715,[30200|0|0]
30200,1.6893696784973145,1.1518760919570923,-0.03744867816567421,-0.25959187746047974,1.0496231317520142,-10.148987770080566,4.0859375,0,"['A1', 'B2', 'F2']",0,90,0,0.7822850953872481,[30300|0|0]
30300,1.6895806789398193,1.1521000862121582,-0.03752869367599487,-0.2638399600982666,1.0445374250411987,-10.188638687133789,4.0859375,0,"['A1', 'B2', 'F2']",0,90,0,0.7826030530808673,[30400|0|0]
30400,1.6894934177398682,1.1518160104751587,-0.0375179722905159,-0.25381115078926086,1.0395658016204834,-10.183138847351074,4.0859375,0,"['A1', 'B2', 'F2']",0,90,0,0.7829004223621916,[30500|0|0]
30500,1.6895431280136108,1.151701807975769,-0.03748655319213867,-0.2538575232028961,1.035577416419983,-10.177088737487793,4.0859375,0,"['A1', 'B2', 'F2']",0,90,0,0.783028876563856,[30600|0|0]
