,time.ms,stateEstimate.x,stateEstimate.y,stateEstimate.z,stabilizer.roll,stabilizer.pitch,stabilizer.yaw,pm.vbat,drone_id,node_name,wind_speed,global_wind_direction,relative_wind_direction,travel_dist,waiting_time
0,0,-0.3259485960006714,-0.3812287449836731,0.0151094859465956,0.5234272480010986,0.0030272796284407,-11.735231399536133,4.08984375,2,K1,7.6,90,450.0,0.0,[6200|0|0|0]
1,100,-0.3259945511817932,-0.3811286389827728,0.0151349492371082,0.5121845602989197,0.0033721639774739,-11.73673152923584,4.08984375,2,K1,7.6,90,450.0,0.0001130551602179,[6300|0|0|0]
2,200,-0.3256359100341797,-0.3814097940921783,0.0149524295702576,0.5155245065689087,-0.0064366706646978,-11.778786659240724,4.08984375,2,J2,7.6,90,450.0,0.0006039574897027,[6300|0|0|0]
3,300,-0.3253296613693237,-0.3814509212970733,0.0150834051892161,0.5546660423278809,0.0574781596660614,-12.070419311523438,3.029296875,2,J2,7.6,90,450.0,0.0009395678358933,[6300|0|0|0]
4,400,-0.3252562582492828,-0.3795164227485657,0.0244203526526689,-2.4909980297088623,-0.7924055457115173,-10.706807136535645,3.3984375,2,J2,7.6,90,450.0,0.0104750940713712,[6300|0|0|0]
5,500,-0.318278968334198,-0.3695065379142761,0.0677030906081199,-2.5620834827423096,-2.3339860439300537,-8.630769729614258,3.57421875,2,J2,7.6,90,450.0,0.0554448147050945,[6300|0|0|0]
6,600,-0.3049836158752441,-0.350772500038147,0.1428273916244506,1.0554097890853882,4.122021675109863,-5.520888805389404,3.611328125,2,J2,7.6,90,450.0,0.1340030171752652,[6300|0|0|0]
7,700,-0.297078013420105,-0.3331930935382843,0.2143415510654449,3.0426101684570312,4.412899494171143,-3.718536615371704,3.626953125,2,J2,7.6,90,450.0,0.2080692651132974,[6300|0|0|0]
8,800,-0.2947142422199249,-0.3178231418132782,0.2988894879817962,4.394755840301514,4.640804290771484,-2.2599072456359863,3.626953125,2,J2,7.6,90,450.0,0.2940354006966022,[6300|0|0|0]
9,900,-0.2990676760673523,-0.3088307678699493,0.3854289948940277,4.806763648986816,3.5077035427093506,-1.193140745162964,3.615234375,2,J2,7.6,90,450.0,0.3811497016581134,[6300|0|0|0]
10,1000,-0.3086678385734558,-0.3063634932041168,0.4743402898311615,4.209052085876465,1.9694422483444207,-0.5116183161735535,3.615234375,2,J2,7.6,90,450.0,0.4706118105747841,[6300|0|0|0]
11,1100,-0.3201064765453338,-0.3087730407714844,0.5648004412651062,3.068716049194336,0.3870558440685272,-0.2907643914222717,3.611328125,2,J2,7.6,90,450.0,0.5618241307710344,[6300|0|0|0]
12,1200,-0.331178069114685,-0.3160872757434845,0.6572772860527039,2.089938402175904,-0.5769707560539246,-0.25835782289505,3.611328125,2,J2,7.6,90,450.0,0.6552481374134215,[6300|0|0|0]
13,1300,-0.3406403064727783,-0.324818342924118,0.7524131536483765,0.9610219597816468,-1.138729453086853,-0.3269798159599304,3.615234375,2,J2,7.6,90,450.0,0.7512512559727421,[6300|0|0|0]
14,1400,-0.3472586572170257,-0.3340388238430023,0.8488173484802246,0.1746353209018707,-1.0588940382003784,-0.4754157662391662,3.615234375,2,J2,7.6,90,450.0,0.8483212751142172,[6300|0|0|0]
15,1500,-0.3516313731670379,-0.3417239487171173,0.9463306665420532,-0.4606009423732757,-1.0957577228546145,-0.6323273777961731,3.611328125,2,J2,7.6,90,450.0,0.946234650035816,[6300|0|0|0]
16,1600,-0.3540351390838623,-0.3482079207897186,1.044955492019653,-0.4093704223632812,-0.6047815084457397,-0.7207210063934326,3.611328125,2,J2,7.6,90,450.0,1.0451016120853711,[6300|0|0|0]
17,1700,-0.3556942939758301,-0.3528711497783661,1.144225001335144,-0.1141645088791847,-0.1377370804548263,-0.695314884185791,3.611328125,2,J2,7.6,90,450.0,1.1444944386841478,[6300|0|0|0]
18,1800,-0.3557153940200805,-0.3585077226161957,1.2536745071411133,0.2665451765060425,-0.3271455764770508,-0.7096889615058899,3.615234375,2,J2,7.6,90,450.0,1.2540889901898633,[6300|0|0|0]
19,1900,-0.3557415902614593,-0.3623726665973663,1.353695034980774,0.1354061514139175,0.0541298612952232,-0.9245287775993348,3.599609375,2,J2,7.6,90,450.0,1.3541841672342394,[6300|0|0|0]
20,2000,-0.3564905822277069,-0.3659373521804809,1.4559599161148071,0.3370215594768524,0.1310926973819732,-0.9411330223083496,3.642578125,2,J2,7.6,90,450.0,1.4565138984252766,[6300|0|0|0]
21,2100,-0.3588543534278869,-0.3687266409397125,1.555924654006958,0.3678448796272278,0.2099787890911102,-0.8566460013389587,3.68359375,2,J2,7.6,90,450.0,1.556545475279366,[6300|0|0|0]
22,2200,-0.3606984913349151,-0.3725480735301971,1.6448060274124146,0.508898913860321,-0.0225726775825023,-0.8675516843795776,3.6953125,2,J2,7.6,90,450.0,1.6455280731853832,[6300|0|0|0]
23,2300,-0.3665288984775543,-0.374162346124649,1.7191675901412964,0.2304622530937194,0.1465339064598083,3.1970999240875244,3.689453125,2,J2,7.6,90,450.0,1.7201353217269262,[6300|0|0|0]
24,2400,-0.3668314516544342,-0.3818143010139465,1.7714793682098389,0.1858198642730713,-0.6155087947845459,11.184609413146973,3.6796875,2,J2,7.6,90,450.0,1.7730046519358964,[6300|0|0|0]
25,2500,-0.365649938583374,-0.3902260959148407,1.8078970909118648,-0.3061407208442688,-0.4743147194385528,15.703155517578123,3.658203125,2,J2,7.6,90,450.0,1.8103999028829545,[6300|0|0|0]
26,2600,-0.3648985922336578,-0.397297203540802,1.8295625448226929,-0.8452560305595398,-0.306604653596878,14.489089965820312,3.642578125,2,J2,7.6,90,450.0,1.8332024680359669,[6300|0|0|0]
27,2700,-0.3648742139339447,-0.402033120393753,1.8438347578048704,-1.3447678089141846,-0.2429049462080001,8.372447967529297,3.630859375,2,J2,7.6,90,450.0,1.8482399401023812,[6300|0|0|0]
28,2800,-0.3578713536262512,-0.4085818529129028,1.851144790649414,-1.220399260520935,-0.2489203810691833,5.148975372314453,3.626953125,2,J2,7.6,90,450.0,1.860296578534579,[6300|0|0|0]
29,2900,-0.3534227609634399,-0.4138615131378174,1.852219820022583,-1.1486188173294067,0.4745055437088012,3.3059122562408447,3.62109375,2,J2,7.6,90,450.0,1.867283743691017,[6300|0|0|0]
30,3000,-0.3481002151966095,-0.4180283844470978,1.849918365478516,-0.9766756892204284,0.7977449297904968,2.332148790359497,3.611328125,2,J2,7.6,90,450.0,1.8744244021317007,[6300|0|0|0]
31,3100,-0.3389338254928589,-0.4218773543834686,1.8458532094955444,-0.6580582857131958,0.9038639664649964,1.564014911651611,3.60546875,2,J2,7.6,90,450.0,1.8851651080180944,[6300|0|0|0]
32,3200,-0.3313340544700622,-0.4270558953285217,1.838258981704712,-0.8831453919410706,1.7128549814224243,0.9991889595985411,3.615234375,2,J2,7.6,90,23.0,1.8970918050318355,[6300|0|0|0]
33,3300,-0.3255178034305572,-0.4260017573833465,1.8299146890640257,-7.30543327331543,-3.817811727523804,-7.942540645599365,3.68359375,2,J2,7.6,90,23.0,1.9073176156420224,[6300|0|0|0]
34,3400,-0.309098333120346,-0.4148063361644745,1.807098746299744,-15.390595436096191,-8.407094955444336,-12.560935974121094,3.63671875,2,J2,7.6,90,23.0,1.9375749074203497,[6300|0|0|0]
35,3500,-0.2745328545570373,-0.4005189836025238,1.7739427089691162,-17.43081283569336,-6.670982837677002,-13.787355422973633,3.599609375,2,J2,7.6,90,23.0,1.9875571398936,[6300|0|0|0]
36,3600,-0.2155665904283523,-0.3714787662029266,1.7293143272399902,-16.82627296447754,-2.318653345108032,-13.38369083404541,3.5625,2,J2,7.6,90,23.0,2.0670055318702176,[6300|0|0|0]
37,3700,-0.1391592770814895,-0.3262597024440765,1.6834096908569336,-13.797725677490234,1.1838585138320925,-9.873641967773438,3.55859375,2,J2,7.6,90,23.0,2.166955904063488,[6300|0|0|0]
38,3800,-0.0547231659293174,-0.2679813802242279,1.6473026275634766,-9.461024284362791,6.384546756744385,-7.606249332427978,3.5625,2,J2,7.6,90,23.0,2.27571959160184,[6300|0|0|0]
39,3900,0.0259642023593187,-0.1990449428558349,1.618580937385559,-6.6806721687316895,10.954955101013184,-7.141269207000732,3.583984375,2,J2,7.6,90,23.0,2.3856633012221207,[6300|0|0|0]
40,4000,0.0916163846850395,-0.1216935068368911,1.5969469547271729,-5.541093349456787,13.538832664489746,-3.741176128387451,3.578125,2,J2,7.6,90,23.0,2.489400868689195,[6300|0|0|0]
41,4100,0.1360135376453399,-0.0420994684100151,1.5804033279418943,-2.885035991668701,14.043862342834473,-6.946147441864014,3.58984375,2,J2,7.6,90,23.0,2.58202921063317,[6300|0|0|0]
42,4200,0.16017447412014,0.0403640642762184,1.567552924156189,-3.530630350112915,11.79294204711914,-1.982993602752685,3.578125,2,J2,7.6,90,23.0,2.6689148708533037,[6300|0|0|0]
43,4300,0.1679722219705581,0.1232719346880912,1.5568004846572876,-1.5701658725738523,8.271991729736328,1.7985831499099731,3.583984375,2,J2,7.6,90,23.0,2.7528799517080738,[6300|0|0|0]
44,4400,0.1649152487516403,0.2024162113666534,1.550127029418945,1.5301424264907837,5.388671875,2.978091239929199,3.58984375,2,J2,7.6,90,23.0,2.832363891098696,[6300|0|0|0]
45,4500,0.1603390723466873,0.2759785652160644,1.5461037158966064,3.448758602142334,2.917607307434082,3.655555486679077,3.58984375,2,J2,7.6,90,23.0,2.906178173903952,[6300|0|0|0]
46,4600,0.1523241698741912,0.3445370197296142,1.5443981885910034,4.783041000366211,1.9965320825576784,1.802756428718567,3.58984375,2,J2,7.6,90,23.0,2.975224601547388,[6300|0|0|0]
47,4700,0.1451379209756851,0.4041050672531128,1.5429868698120115,5.891701698303223,1.3843281269073486,0.7418525815010071,3.58984375,2,J2,7.6,90,23.0,3.0352411515955957,[6300|0|0|0]
48,4800,0.1385466456413269,0.4555506408214569,1.5426104068756104,6.075172424316406,1.3745629787445068,-0.90943443775177,3.578125,2,J2,7.6,90,23.0,3.0871086141771764,[6300|0|0|0]
49,4900,0.1308283507823944,0.4987206757068634,1.5420165061950684,6.209425449371338,1.451710820198059,0.2092971950769424,3.583984375,2,J2,7.6,90,23.0,3.130967213169335,[6300|0|0|0]
50,5000,0.1220709234476089,0.5356014370918274,1.5412330627441406,5.611450672149658,1.4794930219650269,1.7999683618545532,3.583984375,2,J2,7.6,90,23.0,3.168881549211253,[6300|0|0|0]
51,5100,0.1140592470765113,0.5613014698028564,1.5413272380828855,5.213822364807129,1.1220920085906982,2.23671555519104,3.583984375,2,J2,7.6,90,23.0,3.195801569802211,[6300|0|0|0]
52,5200,0.104852519929409,0.5799145102500916,1.540735363960266,4.425488471984863,1.0007432699203491,2.6871657371521,3.58984375,2,J2,7.6,90,23.0,3.2165755779476948,[6300|0|0|0]
53,5300,0.095973402261734,0.5925013422966003,1.5392725467681885,4.03554105758667,0.866825520992279,2.9242753982543945,3.58984375,2,J2,7.6,90,23.0,3.232048357454328,[6300|0|0|0]
54,5400,0.0849024131894111,0.6028861999511719,1.537494659423828,3.30871319770813,0.4667135179042816,3.4274098873138428,3.578125,2,J2,7.6,90,23.0,3.247331451085999,[6300|0|0|0]
55,5500,0.0734706595540046,0.6097173094749451,1.5347148180007937,2.523979663848877,-0.0600290745496749,3.283224105834961,3.583984375,2,J2,7.6,90,23.0,3.260935735956717,[6300|0|0|0]
56,5600,0.0626956149935722,0.6125854849815369,1.530747890472412,2.315164566040039,-0.4194210469722748,3.271822929382324,3.578125,2,J2,7.6,90,23.0,3.2727706221002903,[6300|0|0|0]
57,5700,0.0515370517969131,0.6137983202934265,1.5259644985198977,1.7882778644561768,-0.5239922404289246,3.7462680339813232,3.57421875,2,J2,7.6,90,23.0,3.284971660608506,[6300|0|0|0]
58,5800,0.0406402349472045,0.6135992407798767,1.5215740203857422,2.00039005279541,-0.9529670476913452,3.643664598464966,3.583984375,2,J2,7.6,90,23.0,3.2967214073443007,[6300|0|0|0]
59,5900,0.0335784889757633,0.613776445388794,1.52204430103302,1.2944155931472778,-1.0158312320709229,4.060413360595703,3.583984375,2,J2,7.6,90,23.0,3.303801013373296,[6300|0|0|0]
60,6000,0.0251200627535581,0.6083129644393921,1.5108914375305176,1.187960863113403,-1.207844376564026,4.348772048950195,3.57421875,2,J2,7.6,90,23.0,3.318827022908313,[6300|0|0|0]
61,6100,0.0192599929869174,0.6050447821617126,1.5047506093978882,0.6428076028823853,-0.9065634608268738,5.065614700317383,3.57421875,2,J2,7.6,90,23.0,3.327922692384747,[6300|0|0|0]
62,6200,0.0170928593724966,0.6040123701095581,1.5043389797210691,0.6855548024177551,-1.2676379680633545,5.454179763793945,3.568359375,2,J2,7.6,90,450.0,3.3303582173259096,[6300|0|0|0]
63,6300,0.015263533219695,0.6000344157218933,1.4968957901000977,0.175314575433731,-1.1385746002197266,5.8887200355529785,3.875,2,J2,7.6,90,450.0,3.338993703821609,[6300|0|0|0]
64,6400,0.0122878719121217,0.5943911671638489,1.455307960510254,0.667378842830658,-0.6845479607582092,7.522598266601562,3.7578125,2,J2,7.6,90,450.0,3.3810680235962547,[6300|0|0|0]
65,6500,0.012634833343327,0.5929972529411316,1.3854122161865234,0.3955058753490448,-1.3088465929031372,6.535903930664063,3.6640625,2,J2,7.6,90,450.0,3.4509785267675475,[6300|0|0|0]
66,6600,0.0056049074046313,0.5954837203025818,1.2765357494354248,0.8698073029518127,-0.827534556388855,6.653385162353516,3.57421875,2,J2,7.6,90,450.0,3.5601100409641635,[6300|0|0|0]
67,6700,0.0062757427804172,0.584706723690033,1.1581270694732666,0.6667449474334717,-1.0307661294937134,7.676695823669434,3.55859375,2,J2,7.6,90,450.0,3.6790100374589874,[6300|0|0|0]
68,6800,0.0092954970896244,0.5854785442352295,1.0350770950317385,0.0192610658705234,-1.0770509243011477,8.491456031799316,3.568359375,2,J2,7.6,90,450.0,3.802099479870198,[6300|0|0|0]
69,6900,0.0146092250943183,0.5804077386856079,0.9143897294998168,-0.0942062810063362,-0.5438328385353088,8.848821640014648,3.583984375,2,J2,7.6,90,450.0,3.92301014512875,[6300|0|0|0]
70,7000,0.0221434943377971,0.5757631659507751,0.7951239347457886,-1.6656177043914795,1.1539853811264038,9.324098587036133,3.583984375,2,J2,7.6,90,450.0,4.042603903608164,[6300|0|0|0]
71,7100,0.02756093069911,0.5729145407676697,0.6736931204795837,0.0156396757811307,0.1599240750074386,8.923674583435059,3.57421875,2,J2,7.6,90,450.0,4.164188877743607,[6300|0|0|0]
72,7200,0.0329173393547534,0.5696347951889038,0.5549254417419434,0.1685474961996078,0.7211337089538574,7.510021209716797,3.515625,2,J2,7.6,90,450.0,4.283122512000174,[6300|0|0|0]
73,7300,0.038117442280054,0.566840410232544,0.4419387280941009,-0.9526491165161132,0.7555775046348572,4.855460166931152,3.47265625,2,J2,7.6,90,450.0,4.396263340699003,[6300|0|0|0]
74,7400,0.044014349579811,0.5653239488601685,0.3518290519714355,-1.6400961875915527,0.8290512561798096,2.2222251892089844,3.462890625,2,J2,7.6,90,450.0,4.486578493922188,[6300|0|0|0]
75,7500,0.0492347031831741,0.5678382515907288,0.2679910957813263,-0.5740579962730408,0.9118639230728148,0.4359269440174103,3.47265625,2,J2,7.6,90,450.0,4.570616441946279,[6300|0|0|0]
76,7600,0.0528470762073993,0.5714280009269714,0.2032351493835449,0.6795421242713928,0.5180433988571167,-2.1958606243133545,3.5,2,J2,7.6,90,450.0,4.635572335697621,[6300|0|0|0]
77,7700,0.0575796030461788,0.5734018683433533,0.1571165770292282,1.1194416284561155,0.0351807996630668,-5.276461124420166,3.509765625,2,J2,7.6,90,450.0,4.68197509077593,[6300|0|0|0]
78,7801,0.0623464398086071,0.5738765001296997,0.1256868690252304,1.2244770526885986,0.6254204511642456,-6.924240112304688,3.521484375,2,J2,7.6,90,450.0,4.713767771588797,[6300|0|0|0]
79,7900,0.0676664113998413,0.5721115469932556,0.1046812832355499,1.086320400238037,1.290889859199524,-7.68466329574585,3.53125,2,J2,7.6,90,450.0,4.735508327967901,[6300|0|0|0]
80,8000,0.0710581019520759,0.56666499376297,0.0897398963570594,1.406932711601257,1.1959174871444702,-7.966390609741211,3.53125,2,J2,7.6,90,450.0,4.751769125880217,[6300|0|0|0]
81,8101,0.0714809074997901,0.5582204461097717,0.0823381319642067,1.2285791635513306,3.1884615421295166,-4.633055686950684,3.53125,2,J2,7.6,90,450.0,4.763006352661128,[6300|0|0|0]
82,8201,0.0648093745112419,0.5498066544532776,0.083473339676857,-2.1196062564849854,4.716668128967285,-0.0711937621235847,3.55859375,2,J2,7.6,90,450.0,4.773804034773833,[6300|0|0|0]
83,8300,0.049328289926052,0.5452189445495605,0.0854552686214447,-1.8792824745178225,2.881455421447754,0.9027801156044006,3.552734375,2,J2,7.6,90,450.0,4.7900717667742025,[6300|0|0|0]
84,8401,0.0294518992304801,0.5435004830360413,0.0894937738776207,0.0296388063579797,-2.7021334171295166,0.6914146542549133,3.55859375,2,J2,7.6,90,450.0,4.810426951414992,[6300|0|0|0]
85,8501,0.0110825644806027,0.5422788262367249,0.0955688804388046,-0.4082012474536896,-2.650407552719116,-0.6204882860183716,3.5625,2,J2,7.6,90,450.0,4.829813333857782,[6300|0|0|0]
86,8601,-0.0029437444172799,0.5419304966926575,0.1049332022666931,-0.7060359716415405,-3.694180488586426,-3.241647958755493,3.568359375,2,J2,7.6,90,450.0,4.846681919989001,[6300|0|0|0]
87,8701,-0.0110362311825156,0.5415235757827759,0.1124161928892135,0.5187502503395081,-3.2426629066467285,-5.54080057144165,3.568359375,2,J2,7.6,90,450.0,4.857711383952818,[6300|0|0|0]
88,8801,-0.0148656507954001,0.5408449172973633,0.1182415559887886,-0.2481355816125869,-3.692083358764648,-8.187003135681152,3.5625,2,J2,7.6,90,450.0,4.864715660300397,[6300|0|0|0]
89,8901,-0.0138882407918572,0.5382308959960938,0.1232765913009643,-0.4935090541839599,-3.197214841842652,-9.783390045166016,3.5625,2,J2,7.6,90,450.0,4.870472397073376,[6300|0|0|0]
90,9002,-0.0070871850475668,0.5347030758857727,0.1271117627620697,0.2024777382612228,-1.9600547552108765,-9.20157527923584,3.5625,2,J2,7.6,90,450.0,4.879040268110209,[6300|0|0|0]
91,9101,0.0028138794004917,0.5302072167396545,0.1291030794382095,-0.0026267217472195,-1.0192458629608154,-8.023802757263184,3.55859375,2,J2,7.6,90,450.0,4.890095093697753,[6300|0|0|0]
92,9201,0.0153589900583028,0.5245640277862549,0.129717469215393,-0.0174399632960557,0.4421862363815307,-6.408785343170166,3.552734375,2,J2,7.6,90,450.0,4.903864729051633,[6300|0|0|0]
93,9302,0.0258928798139095,0.5189830660820007,0.1300112456083297,-1.3582966327667236,1.7692562341690063,-4.422122478485107,3.552734375,2,J1,7.6,90,450.0,4.915789336864751,[6300|100|0|0]
94,9400,0.0340767465531826,0.5152549147605896,0.1326161175966262,-1.4000710248947144,1.739731788635254,-2.845672845840454,3.5625,2,J1,7.6,90,450.0,4.925152036537224,[6300|200|0|0]
95,9502,0.0393430739641189,0.5138203501701355,0.1351082324981689,-1.2192392349243164,1.5599427223205566,-1.4526509046554563,3.5625,2,J1,7.6,90,450.0,4.93115227125312,[6300|300|0|0]
96,9602,0.0415976867079734,0.5141798853874207,0.137927234172821,-1.1348674297332764,1.607025146484375,-0.6804921627044678,3.5625,2,J1,7.6,90,450.0,4.934779848218384,[6300|400|0|0]
97,9700,0.0420232601463794,0.5155053734779358,0.1405407786369323,-0.3701196312904358,0.8634117245674133,-0.3494546413421631,3.5625,2,J1,7.6,90,450.0,4.937741038198015,[6300|500|0|0]
98,9800,0.0407496206462383,0.5169541835784912,0.1426135450601577,-0.0782482773065567,0.5929839611053467,-0.2029649913311004,3.5625,2,J1,7.6,90,450.0,4.940572569396685,[6300|600|0|0]
99,9902,0.0388528853654861,0.5189483165740967,0.1454405784606933,0.2232481241226196,0.2046663463115692,-0.1279369890689849,3.5625,2,J1,7.6,90,450.0,4.944517983060314,[6300|700|0|0]
100,10002,0.0369202084839344,0.5196102261543274,0.1470105797052383,0.2027343511581421,0.2193939834833145,-0.055644117295742,3.5625,2,J1,7.6,90,450.0,4.947094466735551,[6300|800|0|0]
101,10100,0.0345164239406585,0.5198419690132141,0.1484120041131973,0.1838895231485366,0.0193546321243047,-0.3355975151062011,3.55859375,2,J1,7.6,90,450.0,4.949886576198727,[6300|900|0|0]
102,10200,0.032593123614788,0.5194002985954285,0.1499541401863098,0.056108359247446,0.0873280987143516,-0.8229690790176392,3.5625,2,J1,7.6,90,450.0,4.952391040326926,[6300|1000|0|0]
103,10300,0.0302041918039321,0.5189164876937866,0.1501723825931549,0.0163713935762643,-0.0495644211769104,-0.9502251744270324,3.55859375,2,J1,7.6,90,450.0,4.954838221957622,[6300|1100|0|0]
104,10400,0.0281152501702308,0.5186248421669006,0.1491239517927169,-0.1521575450897216,0.0679881796240806,-0.652692973613739,3.552734375,2,J1,7.6,90,450.0,4.957193628802664,[6300|1200|0|0]
105,10500,0.0261435080319643,0.5180380940437317,0.1489600241184234,-0.2429465055465698,0.1472823768854141,-0.4766856431961059,3.541015625,2,J1,7.6,90,450.0,4.9592573421311705,[6300|1300|0|0]
106,10600,0.0239763408899307,0.5176541209220886,0.1494123637676239,0.1615303307771682,-0.021901212632656,-0.1440471708774566,3.546875,2,J1,7.6,90,450.0,4.961504264456907,[6300|1400|0|0]
107,10700,0.0214583110064268,0.5176733136177063,0.1515608578920364,0.0032002469524741,-0.2743160128593445,-0.1269439458847046,3.546875,2,J1,7.6,90,450.0,4.964814380747375,[6300|1500|0|0]
108,10800,0.0200177151709795,0.5170032382011414,0.1554296463727951,-0.0794868990778923,-0.3330896496772766,-0.2216575592756271,3.5625,2,J1,7.6,90,450.0,4.968996705667062,[6300|1600|0|0]
109,10900,0.0185325872153043,0.516692042350769,0.1599089056253433,-0.3032639026641845,-0.1823979318141937,0.23970328271389,3.568359375,2,J1,7.6,90,450.0,4.97372599856913,[6300|1700|0|0]
110,11000,0.0181422624737024,0.5172132849693298,0.1616183817386627,-0.3459860980510711,-0.1574940085411071,1.1220896244049072,3.55859375,2,J1,7.6,90,450.0,4.975555303315017,[6300|1800|0|0]
111,11100,0.0168648734688758,0.5178412199020386,0.1610424965620041,-0.1935154199600219,0.2402535229921341,2.183213472366333,3.546875,2,J1,7.6,90,450.0,4.977090773499053,[6300|1900|0|0]
112,11200,0.0157990232110023,0.5191797018051147,0.1573283970355987,-0.0999961122870445,0.3495954573154449,3.239752531051636,3.99609375,2,J1,7.6,90,450.0,4.981180040654561,[6300|2000|0|0]
113,11300,0.0128308841958642,0.520357608795166,0.1174103990197181,-2.3844363689422607,0.2445088624954223,4.9200944900512695,3.99609375,2,J1,7.6,90,450.0,5.021225563246809,[6300|2100|0|0]
114,11400,0.009222412481904,0.5212787985801697,0.0100103672593832,-4.291482448577881,-1.721462965011597,7.2275614738464355,4.0,2,J1,7.6,90,450.0,5.128690145695406,[6300|2200|0|0]
115,11500,0.0037960798945277,0.5287216901779175,0.0,2.668544292449951,-6.350913047790527,5.513681888580322,4.0,2,J1,7.6,90,450.0,5.142293423732422,[6300|2300|0|0]
116,11600,0.0083871921524405,0.5282217264175415,0.0,10.30546760559082,-14.532320976257324,2.530123472213745,4.0,2,J1,7.6,90,450.0,5.146911678329826,[6300|2400|0|0]
117,11700,0.0092688472941517,0.5285059213638306,0.0,-1.3359614610671997,-1.2718297243118286,0.7221020460128784,4.0078125,2,J1,7.6,90,450.0,5.147838005786184,[6300|2500|0|0]
118,11800,0.0097787426784634,0.5278273224830627,0.0,-1.1387922763824463,-1.1115939617156982,0.7368795871734619,4.0078125,2,J1,7.6,90,450.0,5.148686822458925,[6300|2600|0|0]
119,11900,0.0101499762386083,0.5273164510726929,0.0,-0.963210940361023,-0.9903324246406556,0.7000852227210999,4.01171875,2,J1,7.6,90,450.0,5.14931833172577,[6300|2700|0|0]
120,12000,0.0104366512969136,0.5267674922943115,0.0,-0.8096579313278198,-0.891794741153717,0.6728078722953796,4.01171875,2,J1,7.6,90,450.0,5.149937636440281,[6300|2800|0|0]
121,12100,0.0106204636394977,0.5265328288078308,0.0,-0.6760009527206421,-0.8028182983398438,0.6484804153442383,4.01171875,2,J1,7.6,90,450.0,5.15023572020229,[6300|2900|0|0]
122,12200,0.0106288837268948,0.5266790986061096,0.0,-0.5466099977493286,-0.7058119773864746,0.6415224671363831,4.01171875,2,J1,7.6,90,450.0,5.150382232153203,[6300|3000|0|0]
123,12300,0.010647090151906,0.5263420939445496,0.0,-0.4348639845848083,-0.6396876573562622,0.6256609559059143,4.01171875,2,J1,7.6,90,450.0,5.1507197282506985,[6300|3100|0|0]
124,12400,0.0106023764237761,0.5262524485588074,0.0,-0.3510333597660064,-0.5709552764892578,0.6217274069786072,4.015625,2,J1,7.6,90,450.0,5.150819906155788,[6300|3200|0|0]
125,12500,0.0108786327764391,0.5268352031707764,0.0,-0.2772013545036316,-0.495452731847763,0.5787621140480042,4.015625,2,J1,7.6,90,450.0,5.151464825150824,[6300|3300|0|0]
126,12600,0.0112644117325544,0.5272772312164307,0.0,-0.2492712587118148,-0.4428876638412475,0.3717620074748993,4.015625,2,J1,7.6,90,450.0,5.152051522855035,[6300|3400|0|0]
127,12700,0.009908789768815,0.526014506816864,0.0,-0.082593061029911,-0.3249326646327972,0.6885040402412415,4.015625,2,J1,7.6,90,450.0,5.153904138254365,[6300|3500|0|0]
128,12800,0.0101807005703449,0.5265912413597107,0.0,-0.119751900434494,-0.3854795396327972,0.4377860724925995,4.015625,2,J1,7.6,90,450.0,5.154541757432952,[6300|3600|0|0]
129,12900,0.0106201125308871,0.5272865891456604,0.0,-0.1160836890339851,-0.4841340184211731,0.3032150268554687,4.0234375,2,J1,7.6,90,450.0,5.15536430920305,[6300|3700|0|0]
130,13000,0.0183467641472816,0.5231403708457947,0.0,-5.576993942260742,-0.7585203647613525,-1.1958104372024536,4.0234375,2,J1,7.6,90,450.0,5.164133133034744,[6300|3800|0|0]
131,13100,0.0561144314706325,0.481832206249237,0.0072787147946655,-18.622095108032227,-0.2172753810882568,-3.1126480102539062,4.0234375,2,J1,7.6,90,450.0,5.220575500512071,[6300|3900|0|0]
132,13200,0.1277115643024444,0.4526961147785187,0.0122458301484584,-14.121530532836914,8.127368927001953,-6.516260623931885,4.0234375,2,J1,7.6,90,450.0,5.298033447108041,[6300|4000|0|0]
133,13300,0.1571850329637527,0.4392633438110351,0.000385221093893,-10.377676010131836,6.1531853675842285,-5.8607707023620605,4.02734375,2,J1,7.6,90,450.0,5.332526906458173,[6300|4100|0|0]
134,13400,0.1620374768972396,0.4284937381744385,0.0,-9.81601905822754,2.508530616760254,-6.698075771331787,4.02734375,2,J1,7.6,90,450.0,5.344345494063578,[6300|4200|0|0]
135,13500,0.1664220988750457,0.4215849936008453,0.0,-8.831822395324707,-1.1649762392044067,-5.720457077026367,4.02734375,2,J1,7.6,90,450.0,5.352528137980517,[6300|4300|0|0]
136,13600,0.1677962392568588,0.4201361835002899,0.0,-3.0676393508911133,-5.633235454559326,-3.3058714866638184,4.0234375,2,J1,7.6,90,450.0,5.354524963585422,[6300|4400|0|0]
137,13700,0.1695379614830017,0.4184382855892181,0.0,-2.888934373855591,-5.801702976226807,-3.4126672744750977,4.02734375,2,J1,7.6,90,450.0,5.356957339713709,[6300|4500|0|0]
138,13800,0.1718147546052932,0.4159626364707947,0.0,-2.882386445999145,-5.81084680557251,-3.4824211597442627,4.02734375,2,J1,7.6,90,450.0,5.3603207643790265,[6300|4600|0|0]
139,13900,0.1587710827589035,0.4172504842281341,0.0,-2.263158082962036,-5.782747268676758,4.161859035491943,4.02734375,2,J1,7.6,90,450.0,5.373427858911469,[6300|4700|0|0]
140,14000,0.1606797128915786,0.4168046712875366,0.0,-2.476958751678467,-5.7974534034729,5.6497483253479,4.02734375,2,J1,7.6,90,450.0,5.375387863544463,[6300|4800|0|0]
141,14100,0.160482570528984,0.417630523443222,0.0,-2.931668281555176,-5.669281005859375,2.440800428390503,4.02734375,2,J1,7.6,90,450.0,5.376236920017367,[6300|4900|0|0]
142,14200,0.1601677238941192,0.4180423319339752,0.0,-3.151697874069214,-5.543719291687012,0.5476330518722534,4.02734375,2,J1,7.6,90,450.0,5.37675529694253,[6300|5000|0|0]
143,14300,0.160077229142189,0.4182892739772796,0.0,-3.2663238048553467,-5.445505142211914,-0.7063852548599243,4.1171875,2,J1,7.6,90,450.0,5.377018298221763,[6300|5100|0|0]
144,14400,0.1601197272539138,0.4189606308937073,0.0,-3.323892593383789,-5.360789775848389,-1.611228346824646,4.1171875,2,J1,7.6,90,450.0,5.377690998897202,[6300|5200|0|0]
145,14500,0.16001558303833,0.4186906218528747,0.0,-3.314438819885254,-5.299452781677246,-2.2496232986450195,4.1171875,2,J1,7.6,90,450.0,5.377980396374334,[6300|5300|0|0]
146,14600,0.1598449200391769,0.4186916053295135,0.0,-3.3022360801696777,-5.252401351928711,-2.72916841506958,4.12109375,2,J1,7.6,90,450.0,5.378151062207196,[6300|5400|0|0]
147,14700,0.1599559634923935,0.418470948934555,0.0,-3.27382230758667,-5.247776985168457,-3.077303886413574,4.12109375,2,J1,7.6,90,450.0,5.378398084257099,[6300|5500|0|0]
148,14800,0.1600225269794464,0.4187458157539367,0.0,-3.2502975463867188,-5.239991188049316,-3.3477530479431152,4.12109375,2,J1,7.6,90,450.0,5.378680895972213,[6300|5600|0|0]
149,14900,0.1594836264848709,0.4188092052936554,0.0,-3.203055620193481,-5.215079307556152,-3.538091897964477,4.12109375,2,J1,7.6,90,450.0,5.379223511837075,[6300|5700|0|0]
150,15000,0.1596979349851608,0.4188323020935058,0.0,-3.171457052230835,-5.219829082489014,-3.68344783782959,4.12109375,2,J1,7.6,90,450.0,5.3794390613568135,[6300|5800|0|0]
151,15100,0.1598435342311859,0.4185827076435089,0.0,-3.124988555908203,-5.213224411010742,-3.782176971435547,4.12109375,2,J1,7.6,90,450.0,5.379728019017921,[6300|5900|0|0]
152,15200,0.1597113311290741,0.4187676012516022,0.0,-3.084101915359497,-5.173184394836426,-3.866616487503052,4.12890625,2,J1,7.6,90,450.0,5.37995531465475,[6300|6000|0|0]
153,15300,0.159633383154869,0.4185420274734497,0.0,-3.0611495971679688,-5.222650051116943,-3.90411639213562,4.12109375,2,J1,7.6,90,450.0,5.38019397637366,[6300|6100|0|0]
154,15400,0.1596005409955978,0.4188289046287536,0.0,-3.056628704071045,-5.269389629364014,-3.946158170700073,4.12890625,2,J1,7.6,90,450.0,5.380482727321122,[6300|6200|0|0]
155,15500,0.1596178412437439,0.4184021055698395,0.0,-3.0310516357421875,-5.290457725524902,-3.995221614837648,4.12890625,2,J1,7.6,90,450.0,5.380909876867857,[6300|6300|0|0]
156,15600,0.1597717702388763,0.4182019531726837,0.0,-3.0322465896606445,-5.360733985900879,-4.021651268005371,4.12890625,2,J1,7.6,90,450.0,5.3811623746255295,[6300|6400|0|0]
157,15700,0.1596090197563171,0.4185811877250671,0.0,-3.0553932189941406,-5.440525531768799,-4.044219493865967,4.12890625,2,J1,7.6,90,450.0,5.381575056785666,[6300|6500|0|0]
158,15800,0.1599363833665847,0.4186093211174011,0.0,-3.0973215103149414,-5.61185359954834,-4.048973560333252,4.12890625,2,J1,7.6,90,450.0,5.381903627053784,[6300|6600|0|0]
159,15900,0.1601990908384323,0.4184850752353668,0.0,-3.220161437988281,-6.116717338562012,-4.074297428131104,4.1328125,2,J1,7.6,90,450.0,5.382194233755302,[6300|6700|0|0]
160,16000,0.1602106094360351,0.4184511601924896,0.0,-3.21817684173584,-6.11401891708374,-4.093230724334717,4.1328125,2,J1,7.6,90,450.0,5.38223005146355,[6300|6800|0|0]
161,16100,0.1604471802711486,0.418686181306839,0.0,-3.2174437046051025,-6.10523796081543,-4.092090129852295,4.1328125,2,J1,7.6,90,450.0,5.382563519129473,[6300|6900|0|0]
162,16200,0.1603426486253738,0.4183275997638702,0.0,-3.2042367458343506,-6.113358974456787,-4.07761287689209,4.1328125,2,J1,7.6,90,450.0,5.382937026275223,[6300|7000|0|0]
163,16300,0.1602463275194168,0.4187856018543243,0.0,-3.255510807037353,-6.133707523345947,-4.087640285491943,4.1328125,2,J1,7.6,90,450.0,5.383405047290043,[6300|7100|0|0]
164,16400,0.1603776663541793,0.4187917411327362,0.0,-3.241400241851806,-6.138159275054932,-4.093919277191162,4.1328125,2,J1,7.6,90,450.0,5.383536529533164,[6300|7200|0|0]
165,16500,0.1604817062616348,0.4186857342720032,0.0,-3.2406206130981445,-6.142558097839356,-4.108453273773193,4.1328125,2,J1,7.6,90,450.0,5.3836850615393645,[6300|7300|0|0]
166,16600,0.1605069637298584,0.4188342690467834,0.0,-3.2419588565826416,-6.149197101593018,-4.0913920402526855,4.1328125,2,J1,7.6,90,450.0,5.3838357284535165,[6300|7400|0|0]
167,16700,0.1603962332010269,0.4185829758644104,0.0,-3.234186887741089,-6.153956890106201,-4.092462539672852,4.13671875,2,J1,7.6,90,450.0,5.384110336380428,[6300|7500|0|0]
168,16800,0.1606298685073852,0.418770968914032,0.0,-3.224994421005249,-6.145306587219238,-4.078725337982178,4.1328125,2,J1,7.6,90,450.0,5.3844102144274455,[6300|7600|0|0]
169,16900,0.1603769361972808,0.4186797738075256,0.0,-3.2194247245788574,-6.144069671630859,-4.08653736114502,4.13671875,2,J1,7.6,90,450.0,5.384679084844088,[6300|7700|0|0]
170,17000,0.160712331533432,0.4187271296977997,0.0,-3.2249515056610107,-6.163369178771973,-4.108296871185303,4.13671875,2,J1,7.6,90,450.0,5.3850178068715016,[6300|7800|0|0]
171,17100,0.1602589040994644,0.4186525642871856,0.0,-3.2134242057800293,-6.150592803955078,-4.097142219543457,4.13671875,2,J1,7.6,90,450.0,5.385477324486327,[6300|7900|0|0]
172,17200,0.1607691347599029,0.4187963306903839,0.0,-3.216116428375244,-6.168579578399658,-4.085916519165039,4.13671875,2,J1,7.6,90,450.0,5.386007422690002,[6300|8000|0|0]
173,17300,0.1605743169784546,0.4187396168708801,0.0,-3.21555757522583,-6.159643173217773,-4.134208679199219,4.13671875,2,J1,7.6,90,450.0,5.386210327656159,[6300|8100|0|0]
174,17400,0.1603001654148101,0.4186243712902069,0.0,-3.2069766521453857,-6.150476455688477,-4.139532566070557,4.13671875,2,J1,7.6,90,450.0,5.386507717339426,[6300|8200|0|0]
175,17500,0.1604950577020645,0.4183588624000549,0.0,-3.1900858879089355,-6.156735897064209,-4.095149993896484,4.13671875,2,J1,7.6,90,450.0,5.386837077285961,[6300|8300|0|0]
176,17600,0.160245344042778,0.4188429415225982,0.0,-3.2043306827545166,-6.156449317932129,-4.068052291870117,4.13671875,2,J1,7.6,90,450.0,5.387381769408647,[6300|8400|0|0]
177,17700,0.1607008278369903,0.4186070263385772,0.0,-3.1958000659942627,-6.173941612243652,-4.068025588989258,4.13671875,2,J1,7.6,90,450.0,5.387894723072091,[6300|8500|0|0]
178,17800,0.1601714938879013,0.4186616837978363,0.0,-3.201299905776977,-6.159473896026611,-4.06875467300415,4.13671875,2,J1,7.6,90,450.0,5.388426871423127,[6300|8600|0|0]
179,17900,0.1604680269956588,0.4186324775218963,0.0,-3.2061359882354736,-6.165322303771973,-4.057473182678223,4.14453125,2,J1,7.6,90,450.0,5.388724839358567,[6300|8700|0|0]
180,18000,0.1605255156755447,0.4187385141849518,0.0,-3.210322856903076,-6.170896053314209,-4.05945348739624,4.14453125,2,J1,7.6,90,450.0,5.38884545744273,[6300|8800|0|0]
181,18100,0.1605178415775299,0.4185294210910797,0.0,-3.2378251552581787,-6.181400775909424,-4.085320949554443,4.14453125,2,J1,7.6,90,450.0,5.389054691315908,[6300|8900|0|0]
182,18200,0.1603394895792007,0.4186099469661712,0.0,-3.240601062774658,-6.176737308502197,-4.090459823608398,4.14453125,2,J1,7.6,90,450.0,5.38925037946544,[6300|9000|0|0]
183,18300,0.160435676574707,0.4188354611396789,0.0,-3.242997407913208,-6.173769474029541,-4.075100898742676,4.14453125,2,J1,7.6,90,450.0,5.38949554997867,[6300|9100|0|0]
184,18400,0.1604374200105667,0.4184967875480652,0.0,-3.231602668762207,-6.170532703399658,-4.078042507171631,4.14453125,2,J1,7.6,90,450.0,5.3898342280577145,[6300|9200|0|0]
185,18500,0.1603699922561645,0.4186219871044159,0.0,-3.2286784648895264,-6.164040565490723,-4.104929447174072,4.14453125,2,J1,7.6,90,450.0,5.389976430135667,[6300|9300|0|0]
186,18600,0.1603626459836959,0.4184609651565552,0.0,-3.2240679264068604,-6.164730548858643,-4.090545654296875,4.14453125,2,J1,7.6,90,450.0,5.390137619575185,[6300|9400|0|0]
187,18700,0.1603874564170837,0.4188269972801208,0.0,-3.224823474884033,-6.162539482116699,-4.077651500701904,4.14453125,2,J1,7.6,90,450.0,5.390504491587046,[6300|9500|0|0]
188,18800,0.1600881218910217,0.4185192286968231,0.0,-3.2116904258728027,-6.148208618164063,-4.103632926940918,4.14453125,2,J1,7.6,90,450.0,5.390933819735852,[6300|9600|0|0]
189,18900,0.1602668762207031,0.4185122549533844,0.0,-3.218338251113892,-6.153994560241699,-4.128537654876709,4.14453125,2,J1,7.6,90,450.0,5.391112710047153,[6300|9700|0|0]
190,19000,0.1598626524209976,0.4187063872814178,0.0,-3.217841863632202,-6.146718978881836,-4.099255561828613,4.14453125,2,J1,7.6,90,450.0,5.391561134222501,[6300|9800|0|0]
191,19100,0.1603490710258484,0.4185929000377655,0.0,-3.225320339202881,-6.161316871643066,-4.116747856140137,4.1484375,2,J1,7.6,90,450.0,5.392060616367944,[6300|9900|0|0]
192,19200,0.1601127088069915,0.4187414646148681,0.0,-3.2299604415893555,-6.149167060852051,-4.139057636260986,4.1484375,2,J1,7.6,90,450.0,5.392339791101888,[6300|10000|0|0]
193,19300,0.160562664270401,0.41842120885849,0.0,-3.223106861114502,-6.171294689178467,-4.141686916351318,4.14453125,2,J1,7.6,90,450.0,5.392892080580825,[6300|10100|0|0]
194,19400,0.160268947482109,0.4186991155147552,0.0,-3.236213445663452,-6.16123628616333,-4.137776374816895,4.1484375,2,J1,7.6,90,450.0,5.393296433967508,[6300|10200|0|0]
195,19500,0.160225972533226,0.4187456667423248,0.0,-3.234560489654541,-6.1509199142456055,-4.125977516174316,4.1484375,2,J1,7.6,90,450.0,5.393359789022711,[6300|10300|0|0]
196,19600,0.1601608246564865,0.4184405207633972,0.0,-3.2255120277404785,-6.146419048309326,-4.100543975830078,4.1484375,2,J1,7.6,90,450.0,5.3936718119614495,[6300|10400|0|0]
197,19700,0.1605277955532074,0.4183405637741089,0.0,-3.2245333194732666,-6.158908367156982,-4.098488807678223,4.1484375,2,J1,7.6,90,450.0,5.394052152649186,[6300|10500|0|0]
198,19800,0.1602884531021118,0.4186400175094604,0.0,-3.2268009185791016,-6.14481782913208,-4.0971269607543945,4.1484375,2,J1,7.6,90,450.0,5.3944355028135424,[6300|10600|0|0]
199,19900,0.1602743864059448,0.4183834195137024,0.0,-3.217205286026001,-6.159722805023193,-4.09227991104126,4.1484375,2,J1,7.6,90,450.0,5.394692486088033,[6300|10700|0|0]
200,20000,0.1602874994277954,0.4188280999660492,0.0,-3.226208209991455,-6.16135835647583,-4.090965270996094,4.1484375,2,J1,7.6,90,450.0,5.395137359840958,[6300|10800|0|0]
201,20100,0.1603720784187317,0.4185368418693542,0.0,-3.2164313793182373,-6.163406848907471,-4.073452472686768,4.1484375,2,J1,7.6,90,450.0,5.395440649940695,[6300|10900|0|0]
202,20200,0.1601461172103881,0.4186421632766723,0.0,-3.2161669731140137,-6.153690338134766,-4.07929277420044,4.1484375,2,J1,7.6,90,450.0,5.395689951096961,[6300|11000|0|0]
203,20300,0.1603924185037613,0.4182960391044616,0.0,-3.1992387771606445,-6.158708095550537,-4.049269199371338,4.1484375,2,J1,7.6,90,450.0,5.396114764314394,[6300|11100|0|0]
204,20400,0.1604154556989669,0.4184668362140655,0.0,-3.2070982456207275,-6.154079914093018,-4.059940814971924,4.1484375,2,J1,7.6,90,450.0,5.396287108055249,[6300|11200|0|0]
205,20500,0.1602745205163955,0.4188691675662994,0.0,-3.2212798595428467,-6.143822193145752,-4.081099033355713,4.15234375,2,J1,7.6,90,450.0,5.396713409876353,[6300|11300|0|0]
206,20600,0.1612112075090408,0.4185920357704162,0.0,-3.2180821895599365,-6.167667865753174,-4.091253280639648,3.1875,2,J2,7.6,90,450.0,5.397690233583314,[6300|11300|0|0]
207,20700,0.1641551405191421,0.4206565618515014,0.0,-4.285210609436035,-5.945431709289551,-3.616068840026856,3.36328125,2,J2,7.6,90,450.0,5.401285926772039,[6300|11300|0|0]
208,20800,0.1655967831611633,0.4281431138515472,0.0,-6.238302707672119,1.7571414709091189,-5.650820732116699,3.404296875,2,J2,7.6,90,450.0,5.4089100197906665,[6300|11300|0|0]
209,20900,0.1611865311861038,0.4505521059036255,0.0435918346047401,-1.0101479291915894,11.771369934082031,-6.122505187988281,3.546875,2,J2,7.6,90,450.0,5.458122429724347,[6300|11300|0|0]
210,21000,0.1445499509572982,0.4833267033100128,0.1101178452372551,1.9407612085342407,7.796660423278809,-5.472968101501465,3.57421875,2,J2,7.6,90,450.0,5.534126772544595,[6300|11300|0|0]
211,21100,0.1185106635093689,0.5182293057441711,0.1892686337232589,3.5551321506500244,3.743538618087769,-4.246070384979248,3.58984375,2,J2,7.6,90,450.0,5.624465487752577,[6300|11300|0|0]
212,21200,0.091234765946865,0.5497876405715942,0.2761673033237457,4.831348896026611,-0.4000960290431976,-2.778919219970703,3.599609375,2,J2,7.6,90,450.0,5.720856783330832,[6300|11300|0|0]
213,21300,0.0741238966584205,0.571422815322876,0.3609914481639862,5.772455215454102,-2.949227809906006,-1.6671006679534912,3.599609375,2,J2,7.6,90,450.0,5.810053185624886,[6300|11300|0|0]
214,21400,0.0596047788858413,0.5895139575004578,0.4538982808589935,5.828776836395264,-3.6374707221984863,-0.8765937685966492,3.59375,2,J2,7.6,90,450.0,5.905812121331177,[6300|11300|0|0]
215,21500,0.0540315024554729,0.5999665260314941,0.5475236177444458,4.907739639282227,-3.0258901119232178,-0.5455141067504883,3.583984375,2,J2,7.6,90,450.0,6.000183840113764,[6300|11300|0|0]
216,21600,0.0554448701441288,0.6038417816162109,0.642592191696167,4.017941951751709,-1.82184374332428,-0.4757657051086426,3.58984375,2,J2,7.6,90,450.0,6.095341861148694,[6300|11300|0|0]
217,21700,0.0603606589138507,0.6029002070426941,0.7402477264404297,2.686660051345825,-0.0117457816377282,-0.5394238233566284,3.583984375,2,J2,7.6,90,450.0,6.193125576603231,[6300|11300|0|0]
218,21800,0.0656251087784767,0.6002946496009827,0.8402525782585144,1.1336307525634766,1.4280893802642822,-0.2739594876766205,3.58984375,2,J2,7.6,90,450.0,6.293302788328834,[6300|11300|0|0]
219,21900,0.0678058713674545,0.5975353717803955,0.941246211528778,0.7893298864364624,1.960987091064453,-0.05599857121706,3.583984375,2,J2,7.6,90,450.0,6.394357641258761,[6300|11300|0|0]
220,22000,0.0681036487221717,0.5955246090888977,1.0431658029556274,0.5355855226516724,1.872081160545349,-0.1103413850069046,3.583984375,2,J2,7.6,90,450.0,6.496297500757244,[6300|11300|0|0]
221,22100,0.0616411119699478,0.5878050327301025,1.1412185430526731,0.6380422711372375,1.6813700199127195,-0.3111215531826019,3.578125,2,J2,7.6,90,450.0,6.5948657313438375,[6300|11300|0|0]
222,22200,0.058434922248125,0.5932626128196716,1.2501810789108276,0.4000589549541473,0.7341111302375793,-0.3238849639892578,3.63671875,2,J2,7.6,90,450.0,6.704011959192563,[6300|11300|0|0]
223,22300,0.0519387312233448,0.5921847820281982,1.3488889932632446,0.6861018538475037,-0.012288462370634,-0.3091320991516113,3.673828125,2,J2,7.6,90,450.0,6.802939278841129,[6300|11300|0|0]
224,22400,0.0430244170129299,0.5865545868873596,1.4288376569747925,0.6997897028923035,-0.3704090118408203,-0.3264563381671905,3.6796875,2,J2,7.6,90,450.0,6.883580167504562,[6300|11300|0|0]
225,22500,0.0364942513406276,0.5869158506393433,1.4967011213302612,1.102891445159912,-0.5684672594070435,-0.370274156332016,3.66796875,2,J2,7.6,90,450.0,6.951758047858326,[6300|11300|0|0]
226,22600,0.0314216129481792,0.5915314555168152,1.5524474382400513,1.0876314640045166,-0.8849035501480103,-0.6314570903778076,3.658203125,2,J2,7.6,90,450.0,7.007924651081702,[6300|11300|0|0]
227,22700,0.0246717426925897,0.5868859887123108,1.582736253738403,1.2198532819747925,-0.9385286569595336,-1.133769392967224,3.63671875,2,J2,7.6,90,450.0,7.039302245868305,[6300|11300|0|0]
228,22800,0.0205028988420963,0.5859242081642151,1.6074823141098022,1.1817638874053955,-1.0839881896972656,0.9934001564979552,3.630859375,2,J2,7.6,90,450.0,7.064415425371854,[6300|11300|0|0]
229,22900,0.0151171265169978,0.5844833850860596,1.6215730905532837,1.05948007106781,-0.9537742733955384,-0.7227737903594971,3.626953125,2,J2,7.6,90,450.0,7.079569055150244,[6300|11300|0|0]
230,23000,0.0111870374530553,0.5829660892486572,1.6274175643920898,0.9329009056091307,-1.1790790557861328,-0.0507182963192462,3.599609375,2,J2,7.6,90,450.0,7.086773613510144,[6300|11300|0|0]
231,23100,0.0092453565448522,0.5802069306373596,1.6299055814743042,1.0031557083129885,-1.3566442728042605,1.7396838665008545,3.58984375,2,J2,7.6,90,450.0,7.090965666705532,[6300|11300|0|0]
232,23200,0.0098210200667381,0.5757498741149902,1.6301952600479126,0.6253810524940491,-1.2104982137680054,1.423929214477539,3.59375,2,J2,7.6,90,450.0,7.095469071529666,[6300|11300|0|0]
233,23300,0.0123863583430647,0.5710150003433228,1.6275415420532229,0.350066602230072,-0.7021722793579102,-1.418506145477295,3.599609375,2,J2,7.6,90,450.0,7.101472587940983,[6300|11300|0|0]
234,23400,0.0158551521599292,0.566089928150177,1.6216888427734375,0.35868701338768,-0.2861871719360351,-2.8346688747406006,3.58984375,2,J2,7.6,90,450.0,7.109871573326803,[6300|11300|0|0]
235,23501,0.0197649542242288,0.5599221587181091,1.613122820854187,0.3505770862102508,0.0565229356288909,-3.304513931274414,3.578125,2,J2,7.6,90,450.0,7.121127889929948,[6300|11300|0|0]
236,23600,0.0244210883975029,0.5531119108200073,1.6033821105957031,-0.1293641179800033,0.446689635515213,-3.403416872024536,3.65234375,2,J2,7.6,90,423.0,7.133892704782223,[6300|11300|0|0]
237,23700,0.024750493466854,0.5494300723075867,1.58748197555542,-11.673446655273438,11.918853759765623,-3.0143027305603027,3.689453125,2,J2,7.6,90,423.0,7.150216881234054,[6300|11300|0|0]
238,23800,0.0144131556153297,0.5583954453468323,1.549450397491455,-14.396530151367188,15.089966773986816,-2.74665904045105,3.60546875,2,J2,7.6,90,423.0,7.190635186463552,[6300|11300|0|0]
239,23900,-0.0157638937234878,0.5894769430160522,1.4895013570785522,-18.9223690032959,18.50990867614746,-0.6314718127250671,3.478515625,2,J2,7.6,90,423.0,7.264598699431684,[6300|11300|0|0]
240,24000,-0.0818329378962516,0.6539210677146912,1.413851261138916,-15.33187198638916,15.404618263244627,0.4421094357967376,3.404296875,2,J2,7.6,90,423.0,7.383934782917579,[6300|11300|0|0]
241,24100,-0.1584984958171844,0.7312788367271423,1.3456047773361206,-7.9975433349609375,10.567893028259276,-1.2815126180648804,3.404296875,2,J2,7.6,90,423.0,7.512462658296256,[6300|11300|0|0]
242,24200,-0.2758474349975586,0.8279543519020081,1.3072702884674072,-4.095269203186035,5.6876540184021,2.7871885299682617,3.48828125,2,J2,7.6,90,423.0,7.669263365558406,[6300|11300|0|0]
243,24301,-0.3855747282505035,0.921115517616272,1.2787199020385742,3.001457929611206,1.14918851852417,0.3445907831192016,3.552734375,2,J2,7.6,90,423.0,7.816008744521745,[6300|11300|0|0]
244,24401,-0.4911532998085022,1.0022121667861938,1.2594276666641235,6.691949367523193,-0.3017840385437011,-0.638782799243927,3.55859375,2,J2,7.6,90,423.0,7.950528972088309,[6300|11300|0|0]
245,24501,-0.594998836517334,1.068622589111328,1.2467652559280396,8.79373550415039,-0.3564499318599701,-0.801124632358551,3.541015625,2,J2,7.6,90,423.0,8.074442556224179,[6300|11300|0|0]
246,24601,-0.6983495354652405,1.1205201148986816,1.238824725151062,8.230169296264648,0.6418285965919495,-0.8350865244865417,3.55859375,2,J2,7.6,90,423.0,8.190363961429991,[6300|11300|0|0]
247,24701,-0.8037577271461487,1.1599615812301636,1.236060619354248,6.231715202331543,1.5674268007278442,-0.7839465737342834,3.578125,2,J2,7.6,90,423.0,8.302943517392308,[6300|11300|0|0]
248,24800,-0.9157041311264038,1.1899147033691406,1.2364039421081543,4.140483856201172,1.26098895072937,0.3439483642578125,3.5625,2,J2,7.6,90,423.0,8.41882839457866,[6300|11300|0|0]
249,24901,-1.0559083223342896,1.2287559509277344,1.2610695362091064,-0.0897014662623405,-4.715339660644531,4.967525005340576,3.60546875,2,J2,7.6,90,423.0,8.566389396460995,[6300|11300|0|0]
250,25001,-1.1640552282333374,1.2645565271377563,1.2722381353378296,1.3181064128875732,-11.650835990905762,0.911296248435974,3.615234375,2,J2,7.6,90,423.0,8.680854116436214,[6300|11300|0|0]
251,25100,-1.2405999898910522,1.2901374101638794,1.266865372657776,3.839856624603272,-13.738618850708008,-0.7221884727478027,3.58984375,2,J2,7.6,90,423.0,8.761738902968965,[6300|11300|0|0]
252,25200,-1.2963261604309082,1.306357502937317,1.2536567449569702,5.031425952911377,-13.421226501464844,-1.0803425312042236,3.541015625,2,J2,7.6,90,423.0,8.821261716564715,[6300|11300|0|0]
253,25301,-1.3335672616958618,1.3121260404586792,1.2373411655426023,5.114379405975342,-11.28904914855957,-1.0994051694869995,3.509765625,2,J2,7.6,90,423.0,8.862327198178699,[6300|11300|0|0]
254,25401,-1.3556638956069946,1.308095097541809,1.2232824563980105,4.300827980041504,-8.0352201461792,-0.8847412467002869,3.515625,2,J2,7.6,90,423.0,8.88882544404166,[6300|11300|0|0]
255,25500,-1.3683514595031738,1.297115921974182,1.2149871587753296,2.681113243103028,-5.223962306976318,-0.3364970088005066,3.546875,2,J2,7.6,90,423.0,8.907542509420967,[6300|11300|0|0]
256,25600,-1.3749384880065918,1.2818390130996704,1.2092516422271729,1.1731703281402588,-3.0629265308380127,0.1492529511451721,3.55859375,2,J2,7.6,90,423.0,8.92513992512155,[6300|11300|0|0]
257,25700,-1.3793259859085083,1.2668839693069458,1.205608606338501,-0.3116737604141235,-1.7615660429000854,-0.4447373151779175,3.55859375,2,J2,7.6,90,423.0,8.941145398659305,[6300|11300|0|0]
258,25801,-1.3841733932495115,1.253356695175171,1.2030667066574097,-1.7452560663223269,-1.3875281810760498,-2.4268765449523926,3.552734375,2,J2,7.6,90,423.0,8.955738059737893,[6300|11300|0|0]
259,25901,-1.3887478113174438,1.2438641786575315,1.1995683908462524,-2.588395118713379,-1.3676563501358032,-4.7201433181762695,3.546875,2,J2,7.6,90,423.0,8.966840824439196,[6300|11300|0|0]
260,26000,-1.391456961631775,1.2398748397827148,1.1930725574493408,-2.8528594970703125,-1.9103946685791016,-6.396458148956299,3.541015625,2,J2,7.6,90,423.0,8.974930952473052,[6300|11300|0|0]
261,26100,-1.3927592039108276,1.2403428554534912,1.1855528354644775,-2.026455402374268,-2.2909841537475586,-1.9050651788711548,3.537109375,2,J2,7.6,90,423.0,8.982576937847815,[6300|11300|0|0]
262,26200,-1.3916643857955933,1.246440887451172,1.177960753440857,-1.561048984527588,-1.6815139055252075,0.3108575940132141,3.537109375,2,J2,7.6,90,423.0,8.992376138345998,[6300|11300|0|0]
263,26301,-1.390079140663147,1.256452202796936,1.17136549949646,-0.5384994745254517,-1.362942457199097,1.1876516342163086,3.521484375,2,J2,7.6,90,423.0,9.004468979685955,[6300|11300|0|0]
264,26400,-1.3872913122177124,1.2681792974472046,1.1647791862487793,0.634320855140686,-1.2528772354125977,1.3976720571517944,3.525390625,2,J2,7.6,90,423.0,9.018204927362548,[6300|11300|0|0]
265,26500,-1.3839399814605713,1.2798441648483276,1.159063458442688,0.8246124982833862,-1.2299257516860962,1.5673274993896484,3.521484375,2,J2,7.6,90,423.0,9.031620220638615,[6300|11300|0|0]
266,26600,-1.3797063827514648,1.2906928062438965,1.1544370651245115,1.7239532470703125,-0.6048963665962219,1.7525187730789185,3.537109375,2,J2,7.6,90,423.0,9.044150978528458,[6300|11300|0|0]
267,26700,-1.374063491821289,1.2979681491851809,1.1513668298721311,2.5785675048828125,-0.6881823539733887,2.6237850189208984,3.84375,2,J2,7.6,90,450.0,9.053856604601418,[6300|11300|0|0]
268,26800,-1.3667186498641968,1.3014111518859863,1.135136365890503,2.836996078491211,0.165191113948822,3.5474114418029785,3.822265625,2,J2,7.6,90,450.0,9.072001271366926,[6300|11300|0|0]
269,26900,-1.3600168228149414,1.3010421991348269,1.0825293064117432,2.398254871368408,0.2416960150003433,4.115777492523193,3.701171875,2,J2,7.6,90,450.0,9.12503478264925,[6300|11300|0|0]
270,27000,-1.354211449623108,1.2962043285369873,0.9912124276161194,1.079375982284546,0.4155101776123047,6.346501350402832,3.583984375,2,J2,7.6,90,450.0,9.21666381572716,[6300|11300|0|0]
271,27100,-1.35055673122406,1.290419578552246,0.8776116967201233,0.9246888756752014,-0.1655564606189727,4.23246431350708,3.515625,2,J2,7.6,90,450.0,9.330470433984038,[6300|11300|0|0]
272,27200,-1.347813844680786,1.2828803062438965,0.7564016580581665,0.3909997045993805,-0.7360455393791199,2.1568708419799805,3.521484375,2,J2,7.6,90,450.0,9.451945688772664,[6300|11300|0|0]
273,27300,-1.3434046506881714,1.2739523649215698,0.6352429986000061,0.57969731092453,0.4433295428752899,1.002472996711731,3.478515625,2,J2,7.6,90,450.0,9.573512830260889,[6300|11300|0|0]
274,27400,-1.3401519060134888,1.2647465467453003,0.5199077725410461,-0.3210169374942779,0.0706998705863952,2.4858622550964355,3.41015625,2,J2,7.6,90,450.0,9.689260581022122,[6300|11300|0|0]
275,27500,-1.3376671075820925,1.2579222917556765,0.4202374815940857,-2.16548490524292,1.2681182622909546,4.809462070465088,3.39453125,2,J2,7.6,90,450.0,9.789195117479045,[6300|11300|0|0]
276,27600,-1.3403316736221311,1.258291721343994,0.3369863033294678,-2.733720302581787,-0.6386582851409912,6.060061454772949,3.404296875,2,J2,7.6,90,450.0,9.872489745594244,[6300|11300|0|0]
277,27700,-1.3386387825012207,1.2623339891433716,0.2727008163928985,-2.0510411262512207,0.6576228737831116,7.027495384216309,3.41015625,2,J2,7.6,90,450.0,9.936924438423349,[6300|11300|0|0]
278,27800,-1.3388863801956177,1.2714707851409912,0.2246489822864532,-0.0729278251528739,0.7058764100074768,7.128176689147949,3.419921875,2,J2,7.6,90,450.0,9.985837842585331,[6300|11300|0|0]
279,27900,-1.3385311365127563,1.280702829360962,0.1914828270673751,1.959744215011597,-1.222187042236328,5.956946849822998,3.453125,2,J2,7.6,90,450.0,10.020266764882868,[6300|11300|0|0]
280,28000,-1.335224151611328,1.2877038717269895,0.1738196909427642,1.654658317565918,-1.3234490156173706,4.668492317199707,3.521484375,2,J2,7.6,90,450.0,10.039552436276566,[6300|11300|0|0]
281,28100,-1.329081654548645,1.2926965951919556,0.1625802665948867,2.5893499851226807,0.0095107723027467,2.2095096111297607,3.525390625,2,J2,7.6,90,450.0,10.05329951660056,[6300|11300|0|0]
282,28200,-1.320477843284607,1.2937034368515017,0.1554785966873169,3.1371798515319824,-0.0483901016414165,-1.0168262720108032,3.521484375,2,J2,7.6,90,450.0,10.064500990337113,[6300|11300|0|0]
283,28300,-1.312396764755249,1.2887585163116455,0.1538907438516616,3.997056245803833,1.3581451177597046,-3.336042642593384,3.53125,2,J2,7.6,90,450.0,10.074107100162156,[6300|11300|0|0]
284,28400,-1.305060625076294,1.2769322395324707,0.1574842780828476,2.91097378730774,1.4295856952667236,-3.810601234436035,3.546875,2,J2,7.6,90,450.0,10.08848045245442,[6300|11300|0|0]
285,28500,-1.300049066543579,1.2607487440109253,0.1635099947452545,-0.6899976134300232,1.5714813470840454,-4.251380443572998,3.55859375,2,J2,7.6,90,450.0,10.106461845824189,[6300|11300|0|0]
286,28600,-1.2963658571243286,1.244664430618286,0.1664480566978454,-1.1787772178649902,1.894330620765686,-5.359219551086426,3.546875,2,J2,7.6,90,450.0,10.123222018167452,[6300|11300|0|0]
287,28700,-1.294019103050232,1.2331337928771973,0.1673602163791656,-3.678919792175293,1.1912113428115845,-6.42744255065918,3.53125,2,J2,7.6,90,450.0,10.135024344068931,[6300|11300|0|0]
288,28800,-1.292927384376526,1.224419116973877,0.1665654778480529,-2.138040065765381,1.48483407497406,-6.957371234893799,3.521484375,2,J2,7.6,90,450.0,10.143843019428376,[6300|11300|0|0]
289,28900,-1.2924752235412598,1.219001293182373,0.1652774810791015,-0.8435726761817932,1.4625451564788818,-6.47583532333374,3.525390625,2,J2,7.6,90,450.0,10.14943016536647,[6300|11300|0|0]
290,29000,-1.2933111190795898,1.2150161266326904,0.1648927181959152,-0.7697070240974426,1.458335518836975,-5.75221586227417,3.525390625,2,J2,7.6,90,450.0,10.153520191803546,[6300|11300|0|0]
291,29100,-1.2968370914459229,1.2121621370315552,0.1662210524082183,-2.814809083938598,0.8856645226478577,-5.675521373748779,3.537109375,2,J2,7.6,90,450.0,10.1582469464567,[6300|11300|0|0]
292,29200,-1.3004401922225952,1.2117377519607544,0.1675437986850738,-0.536133348941803,0.455410361289978,-5.608124732971191,3.525390625,2,J2,7.6,90,450.0,10.162108564719569,[6300|11300|0|0]
293,29300,-1.3033440113067627,1.2121946811676023,0.1687759906053543,-0.186177521944046,-0.2805778980255127,-5.065878868103027,3.525390625,2,J2,7.6,90,450.0,10.165295922010811,[6300|11300|0|0]
294,29400,-1.3060239553451538,1.2109018564224243,0.1689109206199646,-0.2649984657764435,0.2836743295192718,-5.663227558135986,3.525390625,2,J2,7.6,90,450.0,10.168274462253866,[6300|11300|0|0]
295,29500,-1.3086389303207395,1.2089747190475464,0.1689930707216262,-1.030126929283142,0.1030535250902175,-6.0171990394592285,3.525390625,2,J2,7.6,90,450.0,10.1715238777742,[6300|11300|0|0]
296,29600,-1.3109948635101318,1.207445502281189,0.1692071259021759,-0.7619211673736572,-0.2681980431079864,-5.695432186126709,3.521484375,2,J2,7.6,90,450.0,10.174340745668104,[6300|11300|0|0]
297,29700,-1.311956763267517,1.206325650215149,0.1682707220315933,-1.2630916833877563,-0.578121542930603,-4.929405212402344,3.521484375,2,J2,7.6,90,450.0,10.176088936733724,[6300|11300|0|100]
298,29800,-1.3117055892944336,1.2065761089324951,0.166374996304512,-1.0862096548080444,-0.486283928155899,-3.552186250686645,3.515625,2,J2,7.6,90,450.0,10.17801756162368,[6300|11300|0|200]
299,29900,-1.3114463090896606,1.208712100982666,0.1639885455369949,-1.259740710258484,0.7411872148513794,-2.061867475509644,3.509765625,2,J2,7.6,90,450.0,10.18123078983356,[6300|11300|0|300]
300,30000,-1.3116638660430908,1.21306312084198,0.162065789103508,-1.32359778881073,-0.0854955911636352,-1.218168020248413,3.505859375,2,J2,7.6,90,450.0,10.18599269041491,[6300|11300|0|400]
301,30100,-1.3130879402160645,1.2200945615768433,0.1608854532241821,-0.9493868350982666,-0.0483506470918655,-1.0504626035690308,3.505859375,2,J2,7.6,90,450.0,10.193263339550032,[6300|11300|0|500]
302,30200,-1.314622163772583,1.2293951511383057,0.1595290154218673,-0.7670788764953613,0.0044469963759183,-1.4232609272003174,3.5,2,J2,7.6,90,450.0,10.202786717712414,[6300|11300|0|600]
303,30300,-1.3163682222366333,1.240169644355774,0.1602084338665008,-0.2748538851737976,0.3322358131408691,-1.4532009363174438,3.505859375,2,J2,7.6,90,450.0,10.21372289774367,[6300|11300|0|700]
304,30400,-1.3189371824264526,1.2512749433517456,0.1633941531181335,0.3001652359962463,0.5524680614471436,-2.288025617599488,3.515625,2,J2,7.6,90,450.0,10.225558269702212,[6300|11300|0|800]
305,30500,-1.322152018547058,1.2624934911727903,0.1662817448377609,-0.7573027610778809,-1.1654596328735352,-3.433910846710205,3.515625,2,J2,7.6,90,450.0,10.237580298334464,[6300|11300|0|900]
306,30600,-1.3247802257537842,1.2733376026153564,0.1687395423650741,0.0893433541059494,0.6779208183288574,-3.960517406463623,3.505859375,2,J2,7.6,90,450.0,10.249005839668929,[6300|11300|0|1000]
307,30700,-1.327536940574646,1.2835240364074707,0.1712502837181091,0.4921505749225616,0.9351295828819276,-3.6461758613586426,3.505859375,2,J2,7.6,90,450.0,10.25985326941733,[6300|11300|0|1100]
308,30800,-1.331403136253357,1.2935585975646973,0.1739708930253982,-0.7133326530456543,-0.2633186876773834,-3.134062051773072,3.505859375,2,J2,7.6,90,450.0,10.270945681312275,[6300|11300|0|1200]
309,30900,-1.335543155670166,1.303908109664917,0.1748966872692108,-0.2974936068058014,0.2368369549512863,-3.0033862590789795,3.5,2,J2,7.6,90,450.0,10.282130906230265,[6300|11300|0|1300]
310,31000,-1.341235876083374,1.314372181892395,0.1760994344949722,0.7439802289009094,1.1322630643844604,-2.4862797260284424,3.5,2,J2,7.6,90,450.0,10.29410381206694,[6300|11300|0|1400]
311,31100,-1.3479939699172974,1.323898434638977,0.1773706823587417,0.2262449860572815,0.9901976585388184,-1.7571592330932615,3.5,2,J2,7.6,90,450.0,10.305852743711604,[6300|11300|0|1500]
312,31200,-1.3564895391464231,1.3329980373382568,0.1765308827161789,0.1349910795688629,0.127026692032814,-1.4900356531143188,3.48828125,2,J2,7.6,90,450.0,10.318330032249234,[6300|11300|0|1600]
313,31300,-1.3659194707870483,1.3422770500183103,0.1782371699810028,-0.5055267810821533,-0.2340826094150543,-0.9652237296104432,3.494140625,2,J2,7.6,90,450.0,10.33166926398474,[6300|11300|0|1700]
314,31400,-1.3746260404586792,1.3522319793701172,0.1781691014766693,-0.4738621711730957,-0.4093115627765655,-0.2651016414165497,3.48828125,2,J2,7.6,90,450.0,10.344894603570843,[6300|11300|0|1800]
315,31500,-1.383395433425903,1.3633955717086792,0.1797152161598205,-0.1412499994039535,-0.0062904357910156,0.7423956990242004,3.5,2,J2,7.6,90,450.0,10.359174607685992,[6300|11300|0|1900]
316,31600,-1.392099142074585,1.3750591278076172,0.1830325722694397,0.3313330411911011,0.1155527085065841,1.4157342910766602,3.68359375,2,J2,7.6,90,450.0,10.374101025095143,[6300|11300|0|2000]
317,31700,-1.4017523527145386,1.3873134851455688,0.1731638461351394,-0.2187515348196029,0.7775804996490479,1.0373674631118774,3.96484375,2,J2,7.6,90,450.0,10.392560318281486,[6300|11300|0|2100]
318,31800,-1.4136937856674194,1.399375319480896,0.1106443107128143,-2.24636173248291,-0.4725191295146942,-0.6308088898658752,3.96484375,2,J2,7.6,90,450.0,10.457342862056214,[6300|11300|0|2200]
319,31900,-1.4226858615875244,1.411109447479248,0.0,-5.649353504180908,-4.511285305023193,-2.92034125328064,3.96875,2,J2,7.6,90,450.0,10.56897041547538,[6300|11300|0|2300]
320,32000,-1.405381679534912,1.4103457927703855,0.0,5.670192718505859,-13.430511474609377,-3.3142435550689697,3.96875,2,J2,7.6,90,450.0,10.586291439839552,[6300|11300|0|2400]
321,32100,-1.3868941068649292,1.4118129014968872,0.0,0.4088638722896576,-3.110590934753418,-5.753163814544678,3.96875,2,J2,7.6,90,450.0,10.604837133443278,[6300|11300|0|2500]
322,32200,-1.2771503925323486,1.3774999380111694,0.0,-0.6660357713699341,-3.268994331359864,-1.9036654233932493,3.974609375,2,J2,7.6,90,450.0,10.71982001172819,[6300|11300|0|2600]
323,32300,-1.2610397338867188,1.3719984292984009,0.0,-0.3801047801971435,-1.9065184593200684,-1.3610161542892456,3.974609375,2,J2,7.6,90,450.0,10.7368441099455,[6300|11300|0|2700]
324,32400,-1.2610738277435305,1.3718116283416748,0.0,-0.4406784474849701,-0.5112393498420715,-1.106303095817566,3.98046875,2,J2,7.6,90,450.0,10.737033996723625,[6300|11300|0|2800]
325,32500,-1.2603498697280884,1.3717957735061646,0.0,-0.3567523062229156,0.2179353088140487,-0.9825971722602844,3.98046875,2,J2,7.6,90,450.0,10.7377581283304,[6300|11300|0|2900]
326,32600,-1.244895577430725,1.3666359186172483,0.0,-0.1515091657638549,0.296340674161911,-0.7729698419570923,3.98046875,2,J2,7.6,90,450.0,10.754051048660624,[6300|11300|0|3000]
327,32700,-1.2723203897476196,1.3748085498809814,0.0,-0.211661621928215,1.2110828161239624,-0.838324248790741,3.98046875,2,J2,7.6,90,450.0,10.7826676912378,[6300|11300|0|3100]
328,32800,-1.2940293550491333,1.3818535804748535,0.0,-0.2117722481489181,1.4996312856674194,-1.0367268323898315,3.98046875,2,J2,7.6,90,450.0,10.80549117980837,[6300|11300|0|3200]
