time.ms,stateEstimate.x,stateEstimate.y,stateEstimate.z,stabilizer.roll,stabilizer.pitch,stabilizer.yaw,pm.vbat,drone_id,node_name,wind_speed,global_wind_direction,relative_wind_direction,travel_dist,waiting_time,curr_node_role
0,-0.0016547865234315,0.5162500739097595,0.0,-0.4772237837314605,-0.0771009549498558,-2.4276702404022217,4.1484375,1,J1,6.1,0,270.0,0.0,[6200|0|0|0],start
100,-0.0017948463791981,0.5161778926849365,0.0,-0.4789063036441803,-0.075469322502613,-2.453818321228028,4.1484375,1,J1,6.1,0,270.0,0.0001575655178467,[6300|0|0|0],start
200,-0.0018924793694168,0.5160543322563171,0.0,-0.4806768894195556,-0.0717915669083595,-2.4410059452056885,3.224609375,1,fly,6.1,0,270.0,0.0003150437077641,[6300|0|0|0],fly
300,-0.001716504106298,0.516795814037323,0.0,-0.520693302154541,-0.3960084915161133,-2.320019721984864,3.16796875,1,fly,6.1,0,270.0,0.0010771214759697,[6300|0|0|0],fly
400,0.006076980382204,0.5184024572372437,0.0,-3.1376986503601074,-14.04514217376709,-1.988222479820252,3.44140625,1,fly,6.1,0,270.0,0.009034489309894,[6300|0|0|0],fly
500,0.0425155498087406,0.5270738005638123,0.0268621258437633,-4.359384059906006,-18.96737670898437,-2.2286696434021,3.44140625,1,fly,6.1,0,270.0,0.055127171394862,[6300|0|0|0],fly
600,0.111023336648941,0.5410228967666626,0.0814994201064109,1.7354686260223389,-8.995140075683594,0.0441354811191558,3.462890625,1,fly,6.1,0,270.0,0.1438578203666905,[6300|0|0|0],fly
700,0.195914089679718,0.5537384152412415,0.1518486738204956,2.5363926887512207,0.3273918032646179,1.078760266304016,3.515625,1,fly,6.1,0,270.0,0.2548404399894873,[6300|0|0|0],fly
800,0.2802857458591461,0.5626460909843445,0.2348512560129165,3.0931763648986816,6.552432537078857,1.295305252075195,3.541015625,1,fly,6.1,0,270.0,0.3735305899776539,[6300|0|0|0],fly
900,0.3492831587791443,0.5667363405227661,0.3228096663951874,3.145738124847412,10.11284351348877,1.3987343311309814,3.546875,1,fly,6.1,0,270.0,0.4853968274575802,[6300|0|0|0],fly
1000,0.4019721746444702,0.5669347643852234,0.4129122197628021,1.9279441833496087,10.93063735961914,2.038638114929199,3.537109375,1,fly,6.1,0,270.0,0.5897742286910351,[6300|0|0|0],fly
1100,0.4358048737049103,0.5642796158790588,0.5023115873336792,1.0978634357452393,10.062399864196776,2.6883225440979004,3.525390625,1,fly,6.1,0,270.0,0.6853982228628792,[6300|0|0|0],fly
1200,0.4554131925106048,0.5600331425666809,0.5928421020507812,-0.1153563410043716,8.448461532592773,2.56083607673645,3.525390625,1,fly,6.1,0,270.0,0.7781252027388674,[6300|0|0|0],fly
1300,0.4629609882831573,0.5557346343994141,0.6856226325035095,0.0562109313905239,5.2937116622924805,2.072509288787842,3.521484375,1,fly,6.1,0,270.0,0.8713114314670323,[6300|0|0|0],fly
1400,0.4640884697437286,0.5515188574790955,0.7821769714355469,0.6054930090904236,3.521097183227539,3.636476993560791,3.537109375,1,fly,6.1,0,270.0,0.9679643380766556,[6300|0|0|0],fly
1500,0.462611049413681,0.5445877909660339,0.8829843401908875,1.1529207229614258,1.7777444124221802,4.343317985534668,3.541015625,1,fly,6.1,0,270.0,1.069020500922943,[6300|0|0|0],fly
1600,0.4609708189964294,0.5346940755844116,0.9866771697998048,0.0280312206596136,0.2095416337251663,4.362795352935791,3.53125,1,fly,6.1,0,270.0,1.1731971723622734,[6300|0|0|0],fly
1700,0.4609332680702209,0.5229408144950867,1.0910524129867554,-1.171979904174805,0.5588305592536926,4.046521663665772,3.53125,1,fly,6.1,0,270.0,1.278232080591114,[6300|0|0|0],fly
1800,0.4623556435108185,0.5112993717193604,1.1964154243469238,-1.4211366176605225,1.1855707168579102,2.175542116165161,3.541015625,1,fly,6.1,0,270.0,1.384245808497822,[6300|0|0|0],fly
1900,0.4621259272098541,0.5013853311538696,1.2996902465820312,-2.6572585105896,2.2455220222473145,0.7522844076156616,3.630859375,1,fly,6.1,0,270.0,1.487995651281347,[6300|0|0|0],fly
2000,0.4583334326744079,0.4962027370929718,1.3930394649505615,-3.023723602294922,3.124747037887573,-0.1418433189392089,3.65234375,1,fly,6.1,0,270.0,1.581565512166233,[6300|0|0|0],fly
2100,0.4481567442417145,0.4948378801345825,1.4680770635604858,-2.1033694744110107,1.8160537481307983,-0.4267827868461609,3.626953125,1,fly,6.1,0,270.0,1.6573023527863509,[6300|0|0|0],fly
2200,0.4344925582408905,0.4988945424556732,1.5240594148635864,-2.5151050090789795,0.1777398139238357,-0.4999375343322754,3.599609375,1,fly,6.1,0,270.0,1.715070771023968,[6300|0|0|0],fly
2300,0.4179445505142212,0.5069885849952698,1.5645912885665894,-2.072851657867432,-0.6592987775802612,-0.4992632567882538,3.568359375,1,fly,6.1,0,270.0,1.7595924833700904,[6300|0|0|0],fly
2400,0.4003178477287292,0.518994927406311,1.5932022333145142,-0.0222466960549354,-1.4299943447113037,1.4905459880828855,3.552734375,1,fly,6.1,0,270.0,1.7952777614066708,[6300|0|0|0],fly
2500,0.3846094608306885,0.5307100415229797,1.6118695735931396,0.1182926371693611,-1.9706740379333496,1.7682024240493774,3.546875,1,fly,6.1,0,270.0,1.8223418873076325,[6300|0|0|0],fly
2600,0.370145320892334,0.5431313514709473,1.6251951456069946,1.0361515283584597,-2.3049662113189697,5.560083389282227,3.53125,1,fly,6.1,0,270.0,1.845602823541504,[6300|0|0|0],fly
2700,0.3581486642360687,0.554848849773407,1.632749319076538,2.0415360927581787,-2.379323482513428,8.40308952331543,3.505859375,1,fly,6.1,0,270.0,1.863995351214567,[6300|0|0|0],fly
2800,0.3500135838985443,0.5614557862281799,1.6370792388916016,2.4186220169067383,-2.644688844680786,6.694955825805664,3.509765625,1,fly,6.1,0,270.0,1.8753346345702409,[6300|0|0|0],fly
2900,0.3451476097106933,0.5678878426551819,1.6362907886505127,2.0485780239105225,-2.8471059799194336,0.6987316608428955,3.48828125,1,fly,6.1,0,270.0,1.8834383811395528,[6300|0|0|0],fly
3000,0.3431731164455414,0.5679702758789062,1.63358473777771,2.1130447387695312,-2.219403982162476,-2.699866533279419,3.47265625,1,fly,6.1,0,270.0,1.886789221365034,[6300|0|0|0],fly
3100,0.3448238372802734,0.5655372738838196,1.629675030708313,1.8523222208023071,-1.788409948348999,-3.8584582805633545,3.494140625,1,fly,6.1,0,270.0,1.8916810704378089,[6300|0|0|0],fly
3200,0.3472422361373901,0.5603334903717041,1.6248257160186768,0.8589082360267639,-0.918159544467926,-4.211213111877441,3.525390625,1,fly,6.1,0,322.0,1.899193983909438,[6300|0|0|0],fly
3300,0.354795902967453,0.5618652701377869,1.626247763633728,-7.054206371307373,-9.544272422790527,-4.68216609954834,3.53125,1,fly,6.1,0,322.0,1.9070314867803049,[6300|0|0|0],fly
3400,0.3722191154956817,0.5646337270736694,1.608725666999817,-8.222796440124512,-8.921318054199219,-3.993950843811035,3.478515625,1,fly,6.1,0,322.0,1.931896252193592,[6300|0|0|0],fly
3500,0.4042980670928955,0.5790539979934692,1.5848616361618042,-8.221943855285645,-8.510679244995117,-3.83132266998291,3.431640625,1,fly,6.1,0,322.0,1.9743991381757744,[6300|0|0|0],fly
3600,0.4481596350669861,0.6054129600524902,1.5505666732788086,-5.603720664978027,-4.736828327178955,-3.458510398864746,3.44140625,1,fly,6.1,0,322.0,2.036000895497468,[6300|0|0|0],fly
3700,0.5002442598342896,0.6384778022766113,1.529577612876892,-2.1894679069519043,-0.9359575510025024,-2.531954526901245,3.447265625,1,fly,6.1,0,322.0,2.101167087537605,[6300|0|0|0],fly
3800,0.5577792525291443,0.6733313798904419,1.516559600830078,0.304631769657135,1.7769153118133545,-0.8617160320281982,3.462890625,1,fly,6.1,0,322.0,2.1696836249175053,[6300|0|0|0],fly
3900,0.6134400963783264,0.7052395939826965,1.5090376138687134,2.532541036605835,5.095667839050293,-0.0005121015710756,3.5,1,fly,6.1,0,322.0,2.23428117868239,[6300|0|0|0],fly
4000,0.662298858165741,0.7316651940345764,1.5025086402893066,3.89796781539917,6.263242244720459,0.3059972822666168,3.509765625,1,fly,6.1,0,322.0,2.2902107633179103,[6300|0|0|0],fly
4100,0.7015776038169861,0.7504761219024658,1.4954617023468018,4.212204933166504,7.49739933013916,0.6029351353645325,3.48828125,1,fly,6.1,0,322.0,2.334327995796293,[6300|0|0|0],fly
4200,0.7305989265441895,0.7600329518318176,1.4856038093566897,3.848889589309693,7.270788192749023,0.2621983587741852,3.47265625,1,fly,6.1,0,322.0,2.3664332636715115,[6300|0|0|0],fly
4300,0.7482993006706238,0.7631440162658691,1.4752904176712036,2.315452337265014,6.29073429107666,0.4608361423015594,3.462890625,1,fly,6.1,0,322.0,2.3871539782872486,[6300|0|0|0],fly
4400,0.7579594850540161,0.7609481811523438,1.4652312994003296,1.5015308856964111,5.284794330596924,0.7254543900489807,3.46875,1,fly,6.1,0,322.0,2.4012722896081664,[6300|0|0|0],fly
4500,0.7593041062355042,0.756352424621582,1.4572761058807373,0.0790476500988006,3.65214729309082,0.7146289944648743,3.46875,1,fly,6.1,0,322.0,2.4105574437881416,[6300|0|0|0],fly
4600,0.7557520866394043,0.7514482736587524,1.4506471157073977,-1.0301285982131958,2.573000431060791,0.6511224508285522,3.47265625,1,fly,6.1,0,322.0,2.419535809485502,[6300|0|0|0],fly
4700,0.7491275072097778,0.7465713620185852,1.445404887199402,-1.4304745197296145,1.1241848468780518,0.3716297447681427,3.47265625,1,fly,6.1,0,322.0,2.42929030995941,[6300|0|0|0],fly
4800,0.7417259812355042,0.7445621490478516,1.440570831298828,-1.661752223968506,0.2655892968177795,0.2801118195056915,3.47265625,1,fly,6.1,0,322.0,2.4383560487577367,[6300|0|0|0],fly
4900,0.7349193096160889,0.745212972164154,1.436165690422058,-1.6083866357803345,-0.9351890087127686,-0.1202248483896255,3.478515625,1,fly,6.1,0,322.0,2.446489904879372,[6300|0|0|0],fly
5000,0.7304179072380066,0.7488245964050293,1.4290956258773804,-0.9836358428001404,-0.8827187418937683,-0.710921049118042,3.462890625,1,fly,6.1,0,322.0,2.455616364526606,[6300|0|0|0],fly
5100,0.728153645992279,0.7531096339225769,1.4219655990600586,-0.0552107989788055,-0.3813144862651825,-1.386655330657959,3.447265625,1,fly,6.1,0,322.0,2.46423760039691,[6300|0|0|0],fly
5200,0.7270297408103943,0.7574563026428223,1.4148657321929932,0.6628775596618652,-0.0750271528959274,-1.6591509580612185,3.462890625,1,fly,6.1,0,322.0,2.47263788618678,[6300|0|0|0],fly
5300,0.7265546321868896,0.7604687809944153,1.4097528457641602,0.5397096276283264,0.4888044893741607,-2.129146337509156,3.462890625,1,fly,6.1,0,322.0,2.4785912349634844,[6300|0|0|0],fly
5400,0.7261886596679688,0.7619309425354004,1.4049246311187744,0.3764049410820007,0.9885072112083436,-2.7194032669067383,3.46875,1,fly,6.1,0,322.0,2.483649249289132,[6300|0|0|0],fly
5500,0.7241812944412231,0.7626180648803711,1.4005833864212036,0.4872843027114868,1.3220136165618896,-3.1378798484802246,3.46875,1,fly,6.1,0,322.0,2.4884812320907046,[6300|0|0|0],fly
5600,0.7200620770454407,0.7629840970039368,1.3960516452789309,0.0464210398495197,0.8966827392578125,-3.092355728149414,3.462890625,1,fly,6.1,0,322.0,2.494616263406824,[6300|0|0|0],fly
5700,0.7145471572875977,0.7637377381324768,1.391704797744751,-0.0484991893172264,0.2240461707115173,-2.992213249206543,3.462890625,1,fly,6.1,0,322.0,2.501678656653556,[6300|0|0|0],fly
5800,0.70895916223526,0.7644004821777344,1.3875800371170044,-0.5466195940971375,-0.1071457862854003,-3.623456239700317,3.46875,1,fly,6.1,0,322.0,2.5086556594922165,[6300|0|0|0],fly
5900,0.7036261558532715,0.7666686773300171,1.3834463357925415,-0.3300765752792358,-0.5954169631004333,-4.6052422523498535,3.462890625,1,fly,6.1,0,322.0,2.5157741672683613,[6300|0|0|0],fly
6000,0.6997448205947876,0.7698079347610474,1.3791136741638184,0.0403792299330234,-0.5506043434143066,-5.570887088775635,3.453125,1,fly,6.1,0,322.0,2.5223841337884005,[6300|0|0|0],fly
6100,0.6968721151351929,0.7729778289794922,1.375713348388672,0.4994197189807892,-0.5144431591033936,-6.441173076629639,3.45703125,1,fly,6.1,0,322.0,2.5278488278686617,[6300|0|0|0],fly
6200,0.6951080560684204,0.7764098644256592,1.3734592199325562,0.267718493938446,-0.6212850213050842,-7.254250526428223,3.45703125,1,fly,6.1,0,270.0,2.5323178173284258,[6300|0|0|0],fly
6300,0.6933444738388062,0.7797220945358276,1.3624476194381714,0.7968347072601318,-0.5113689303398132,-7.998694896697998,3.86328125,1,fly,6.1,0,270.0,2.543951236259731,[6300|0|0|0],fly
6400,0.6912589073181152,0.7833282947540283,1.3155072927474976,0.1669395714998245,-0.80618816614151,-8.43949031829834,3.736328125,1,fly,6.1,0,270.0,2.591076054960212,[6300|0|0|0],fly
6500,0.6893782615661621,0.7869868874549866,1.2296192646026611,0.0776688829064369,-0.6591828465461731,-8.44186782836914,3.59375,1,fly,6.1,0,270.0,2.6770625394075016,[6300|0|0|0],fly
6600,0.6943644881248474,0.7876419425010681,1.1234214305877686,-1.0696395635604858,-1.8662521839141848,-8.762395858764648,3.484375,1,fly,6.1,0,270.0,2.7833793842716275,[6300|0|0|0],fly
6700,0.6963461637496948,0.793360710144043,0.9952146410942078,-0.2150021642446518,-2.4809763431549072,-7.697896003723144,3.416015625,1,fly,6.1,0,270.0,2.911728954640533,[6300|0|0|0],fly
6800,0.7045062780380249,0.7983212471008301,0.8649380803108215,1.5152820348739624,-0.3938227295875549,-6.157144069671631,3.42578125,1,fly,6.1,0,270.0,3.0423550495896112,[6300|0|0|0],fly
6900,0.7117869257926941,0.8010677099227905,0.7401628494262695,3.155446052551269,2.5311615467071533,-5.409032821655273,3.47265625,1,fly,6.1,0,270.0,3.167372684873812,[6300|0|0|0],fly
7000,0.7148308157920837,0.8002573847770691,0.6191630959510803,1.094746232032776,3.225790023803711,-6.444488048553467,3.47265625,1,fly,6.1,0,270.0,3.288413431047266,[6300|0|0|0],fly
7100,0.7146880030632019,0.7961152791976929,0.498322457075119,-0.1229894906282424,-1.2198820114135742,-6.381113529205322,3.462890625,1,fly,6.1,0,270.0,3.4093251237740523,[6300|0|0|0],fly
7200,0.7129942178726196,0.7939077019691467,0.3786986768245697,0.7888009548187256,0.4151363968849182,-4.077283382415772,3.330078125,1,fly,6.1,0,270.0,3.5289812607120443,[6300|0|0|0],fly
7300,0.7143286466598511,0.7945611476898193,0.2703197598457336,-2.154382467269897,0.1286361515522003,-3.15360951423645,3.310546875,1,fly,6.1,0,270.0,3.6373703622721343,[6300|0|0|0],fly
7400,0.7162109613418579,0.8004581928253174,0.1795254647731781,-0.9863067865371704,-0.3078125119209289,-1.585247278213501,3.3046875,1,fly,6.1,0,270.0,3.728375429535526,[6300|0|0|0],fly
7500,0.719094455242157,0.8096175193786621,0.1090240553021431,2.2952077388763428,1.397111177444458,1.4372678995132446,3.314453125,1,fly,6.1,0,270.0,3.7995277769134335,[6300|0|0|0],fly
7600,0.7206072807312012,0.8162888288497925,0.062323685735464,3.9402048587799072,3.08023452758789,3.345376491546631,3.36328125,1,fly,6.1,0,270.0,3.8467265007169886,[6300|0|0|0],fly
7700,0.7185769081115723,0.8146201968193054,0.0366090536117553,3.598902463912964,1.6241998672485352,4.120178699493408,3.419921875,1,fly,6.1,0,270.0,3.872575080002616,[6300|0|0|0],fly
7800,0.715736985206604,0.8050583600997925,0.0253298208117485,2.8197898864746094,0.9704158306121826,4.568239212036133,3.46875,1,fly,6.1,0,270.0,3.887632137355019,[6300|0|0|0],fly
7900,0.7137094140052795,0.7900148630142212,0.0241350401192903,1.857002139091492,-0.2879767119884491,4.655888557434082,3.494140625,1,fly,6.1,0,270.0,3.90285860610004,[6300|0|0|0],fly
8000,0.7118268013000488,0.771170973777771,0.0264499727636575,0.3792827427387237,-0.2211983650922775,4.461909770965576,3.509765625,1,fly,6.1,0,270.0,3.92193726709345,[6300|0|0|0],fly
8100,0.7108463644981384,0.7513200640678406,0.028894817456603,-2.4011483192443848,-0.2839245498180389,4.47318172454834,3.509765625,1,fly,6.1,0,270.0,3.941962180032261,[6300|0|0|0],fly
8200,0.7100749015808105,0.7355015277862549,0.0302337203174829,-3.529726982116699,0.384406566619873,4.06439208984375,3.505859375,1,fly,6.1,0,270.0,3.9578560123579,[6300|0|0|0],fly
8300,0.7076524496078491,0.7253262400627136,0.029438043013215,-3.050210237503052,-0.27153280377388,3.648947715759277,3.494140625,1,fly,6.1,0,270.0,3.968345905407435,[6300|0|0|0],fly
8400,0.7035499811172485,0.7197721600532532,0.0281285587698221,-3.424324512481689,-0.9349489212036132,2.237993001937866,3.48828125,1,fly,6.1,0,270.0,3.975373906649008,[6300|0|0|0],fly
8500,0.6971918940544128,0.7176512479782104,0.0266899187117815,-1.9935948848724363,-0.5105999708175659,0.5700061321258545,3.494140625,1,fly,6.1,0,270.0,3.982229067066187,[6300|0|0|0],fly
8600,0.6968618035316467,0.7249186038970947,0.0276396088302135,-1.2803349494934082,-1.9138360023498533,-0.1845833510160446,3.494140625,1,fly,6.1,0,270.0,3.989565642093133,[6300|0|0|0],fly
8700,0.6948386430740356,0.728452205657959,0.0247244760394096,0.4536357522010803,-1.0085190534591677,0.1700788885354995,3.484375,1,fly,6.1,0,270.0,3.994573387976227,[6300|0|0|0],fly
8800,0.6960435509681702,0.7329510450363159,0.0247583240270614,0.6392150521278381,-0.2456530183553695,0.3868162035942077,3.48828125,1,fly,6.1,0,270.0,3.999230909256036,[6300|0|0|0],fly
8900,0.6980170011520386,0.7360172271728516,0.0249352063983678,1.4870339632034302,0.3863199949264526,1.2845500707626345,3.494140625,1,fly,6.1,0,270.0,4.002881562060111,[6300|0|0|0],fly
9000,0.6996792554855347,0.7362648844718933,0.0229965224862098,0.5183252096176147,0.0550497882068157,1.584552526473999,3.478515625,1,fly,6.1,0,270.0,4.005447282021107,[6300|0|0|0],fly
9100,0.6998462677001953,0.7354801893234253,0.0222442615777254,-0.2616495192050934,0.1049655377864837,1.5043649673461914,3.47265625,1,fly,6.1,0,270.0,4.006547071105572,[6300|0|0|0],fly
9200,0.6992867588996887,0.7337615489959717,0.0229321736842393,0.5129757523536682,0.9667657613754272,1.6229705810546875,3.478515625,1,F1,6.1,0,270.0,4.008480978481659,[6300|0|100|0],second_intermediate
9300,0.6980330944061279,0.7323341965675354,0.0250916630029678,-1.223477840423584,-0.0996205136179924,2.214047908782959,3.48828125,1,F1,6.1,0,270.0,4.011357157150497,[6300|0|200|0],second_intermediate
9400,0.6958993673324585,0.7310557961463928,0.0262900181114673,0.1081037074327468,-0.5092394948005676,2.8257527351379395,3.48828125,1,F1,6.1,0,270.0,4.014118163095394,[6300|0|300|0],second_intermediate
9501,0.6956228613853455,0.729272186756134,0.0265806876122951,-0.6929312944412231,-0.6320223212242126,2.422489643096924,3.484375,1,F1,6.1,0,270.0,4.015946333425128,[6300|0|400|0],second_intermediate
9601,0.6956911683082581,0.7277373671531677,0.0272668357938528,-0.8843725323677063,-0.5344493985176086,2.291886806488037,3.478515625,1,F1,6.1,0,270.0,4.017628931528188,[6300|0|500|0],second_intermediate
9701,0.697233259677887,0.7279176712036133,0.0268401931971311,-0.0804483443498611,-0.1758266538381576,2.4619123935699463,3.478515625,1,F1,6.1,0,270.0,4.019239080356163,[6300|0|600|0],second_intermediate
9801,0.6988658905029297,0.7284104824066162,0.0274327713996171,0.2590212523937225,-0.3204287886619568,2.9912898540496826,3.484375,1,F1,6.1,0,270.0,4.021044487573039,[6300|0|700|0],second_intermediate
9901,0.7014474272727966,0.7278387546539307,0.0285141877830028,0.1788911670446396,0.0498267821967601,2.7933361530303955,3.478515625,1,F1,6.1,0,270.0,4.023901175534931,[6300|0|800|0],second_intermediate
10001,0.7035616040229797,0.7262875437736511,0.0297394022345542,0.9044734239578248,0.254296064376831,2.109245538711548,3.478515625,1,F1,6.1,0,270.0,4.026795506023732,[6300|0|900|0],second_intermediate
10101,0.7057981491088867,0.7225397229194641,0.030534379184246,0.4154055118560791,0.2775236070156097,1.2245291471481323,3.46875,1,F1,6.1,0,270.0,4.031231752570862,[6300|0|1000|0],second_intermediate
10201,0.7077406644821167,0.717552661895752,0.0307382121682167,-0.2626775503158569,-0.5577639937400818,0.3282554745674133,3.47265625,1,F1,6.1,0,270.0,4.036587655063889,[6300|0|1100|0],second_intermediate
10301,0.7109023332595825,0.7121921181678772,0.0335180349647998,0.2636737823486328,1.028619647026062,0.0999823808670044,3.46875,1,F1,6.1,0,270.0,4.043403738491875,[6300|0|1200|0],second_intermediate
10401,0.71304851770401,0.7073309421539307,0.0366166420280933,-0.4327583909034729,0.4402893483638763,0.2481210678815841,3.484375,1,F1,6.1,0,270.0,4.049555039625844,[6300|0|1300|0],second_intermediate
10500,0.7150607705116272,0.7036269307136536,0.0385084152221679,-0.0109557854011654,-0.038322664797306,0.7471995949745178,3.478515625,1,F1,6.1,0,270.0,4.054175393284308,[6300|0|1400|0],second_intermediate
10600,0.7169431447982788,0.7006527781486511,0.0388698019087314,0.6608800888061523,0.5150943398475647,1.50249445438385,3.46875,1,F1,6.1,0,270.0,4.057713686202113,[6300|0|1500|0],second_intermediate
10700,0.7191073298454285,0.698144257068634,0.0379233583807945,0.4399894177913666,-0.20089191198349,1.9360802173614504,3.45703125,1,F1,6.1,0,270.0,4.061159281982057,[6300|0|1600|0],second_intermediate
10800,0.7190942764282227,0.6953636407852173,0.0388659462332725,-0.0301300212740898,0.3702602684497833,1.5212510824203491,3.462890625,1,F1,6.1,0,270.0,4.064095345531598,[6300|0|1700|0],second_intermediate
10900,0.7186487913131714,0.6848416924476624,0.0401753596961498,-0.197503462433815,-0.1634194403886795,0.8843024373054504,3.47265625,1,F1,6.1,0,270.0,4.074707810722244,[6300|0|1800|0],second_intermediate
11002,0.7174825668334961,0.6800621151924133,0.0436768420040607,0.0839602425694465,0.2952456772327423,1.766932487487793,3.484375,1,F1,6.1,0,270.0,4.080746421210469,[6300|0|1900|0],second_intermediate
11102,0.7157905697822571,0.6759545803070068,0.0458898097276687,-0.0813071727752685,0.1884480416774749,2.44957971572876,3.47265625,1,F1,6.1,0,270.0,4.085709477023369,[6300|0|2000|0],second_intermediate
11200,0.7160186767578125,0.6771550178527832,0.0434621535241603,0.365509033203125,1.5505799055099487,3.543877601623535,4.0234375,1,F1,6.1,0,270.0,4.088427306623627,[6300|0|2100|0],second_intermediate
11300,0.7102223038673401,0.674308180809021,0.0,3.9100821018218994,1.6423696279525757,5.637019157409668,4.0234375,1,F1,6.1,0,270.0,4.13236659665882,[6300|0|2200|0],second_intermediate
11400,0.7022393345832825,0.6731910705566406,0.0,6.1590189933776855,12.356430053710938,11.256555557250977,4.02734375,1,F1,6.1,0,270.0,4.140427349347384,[6300|0|2300|0],second_intermediate
11500,0.6904697418212891,0.6806666254997253,0.0,0.6580473780632019,15.623440742492676,17.877052307128906,4.03125,1,F1,6.1,0,270.0,4.15437034886292,[6300|0|2400|0],second_intermediate
11600,0.6886332631111145,0.6820566654205322,0.0,1.0210886001586914,15.467671394348145,17.050813674926758,4.03125,1,F1,6.1,0,270.0,4.156673578125143,[6300|0|2500|0],second_intermediate
11700,0.6857420206069946,0.6833471655845642,0.0,1.273202419281006,15.448128700256348,16.321380615234375,4.03125,1,F1,6.1,0,270.0,4.159839754666493,[6300|0|2600|0],second_intermediate
11800,0.6835901141166687,0.6876863837242126,0.0,1.3336941003799438,15.254639625549316,16.15192413330078,4.0390625,1,F1,6.1,0,270.0,4.164683257077616,[6300|0|2700|0],second_intermediate
11900,0.6780673265457153,0.6856818199157715,0.0,1.677351713180542,15.310310363769531,15.636810302734377,4.0390625,1,F1,6.1,0,270.0,4.170558583333748,[6300|0|2800|0],second_intermediate
12000,0.6740797162055969,0.6848598718643188,0.0,8.95316219329834,8.694768905639648,15.18891716003418,4.0390625,1,F1,6.1,0,270.0,4.17463002470308,[6300|0|2900|0],second_intermediate
12100,0.6779557466506958,0.7126261591911316,0.0275404974818229,8.087591171264648,11.386306762695312,19.75533103942871,4.04296875,1,F1,6.1,0,270.0,4.213929761667502,[6300|0|3000|0],second_intermediate
12200,0.6704158782958984,0.7604848146438599,0.0537936799228191,-0.5147387981414795,11.17708683013916,17.433279037475586,4.04296875,1,F1,6.1,0,270.0,4.26903448110995,[6300|0|3100|0],second_intermediate
12300,0.6716679334640503,0.7817681431770325,0.0508867874741554,-1.9701340198516848,6.724971294403076,-5.397810459136963,4.04296875,1,F1,6.1,0,270.0,4.2905518633694895,[6300|0|3200|0],second_intermediate
12400,0.6699764728546143,0.7769748568534851,0.0304766707122325,-4.5873236656188965,0.7479257583618164,-9.54300022125244,4.046875,1,F1,6.1,0,270.0,4.31158539609721,[6300|0|3300|0],second_intermediate
12500,0.6745727062225342,0.769948422908783,0.022389817982912,-1.696858048439026,-0.8676221966743469,-7.248390197753906,4.046875,1,F1,6.1,0,270.0,4.32324272521744,[6300|0|3400|0],second_intermediate
12600,0.6697014570236206,0.7726684808731079,0.0281396862119436,-1.911926746368408,-0.8342496752738953,-4.155435562133789,4.046875,1,F1,6.1,0,270.0,4.33125451457678,[6300|0|3500|0],second_intermediate
12700,0.688255786895752,0.7675846219062805,0.0148057322949171,-2.234221935272217,-1.3058843612670898,-2.8433876037597656,4.0546875,1,F1,6.1,0,270.0,4.354661844754736,[6300|0|3600|0],second_intermediate
12800,0.7080788612365723,0.7620954513549805,0.0,-2.269972085952759,-1.438173532485962,-1.258197546005249,4.0546875,1,F1,6.1,0,270.0,4.380005383940329,[6300|0|3700|0],second_intermediate
12900,0.7101704478263855,0.7600663900375366,0.0,-2.2470664978027344,-1.4203766584396362,-1.252228617668152,4.0546875,1,F1,6.1,0,270.0,4.382919457428186,[6300|0|3800|0],second_intermediate
13000,0.7132387161254883,0.756891667842865,0.0,-2.2225348949432373,-1.405227780342102,-1.2427579164505005,4.0546875,1,F1,6.1,0,270.0,4.387334560073496,[6300|0|3900|0],second_intermediate
13100,0.7171850800514221,0.7525221705436707,0.0,-2.1956398487091064,-1.3882460594177246,-1.2310481071472168,4.0546875,1,F1,6.1,0,270.0,4.393222369078854,[6300|0|4000|0],second_intermediate
13200,0.7219915986061096,0.7469207644462585,0.0,-2.1668641567230225,-1.373062252998352,-1.220738649368286,4.05859375,1,F1,6.1,0,270.0,4.400603315555065,[6300|0|4100|0],second_intermediate
13300,0.7276666760444641,0.740022599697113,0.0,-2.1426146030426025,-1.3642278909683228,-1.2116249799728394,4.09765625,1,F1,6.1,0,270.0,4.4095359064915,[6300|0|4200|0],second_intermediate
13400,0.7342169880867004,0.7317671179771423,0.0,-2.119764804840088,-1.3498036861419678,-1.2012486457824707,4.16015625,1,F1,6.1,0,270.0,4.420074386755724,[6300|0|4300|0],second_intermediate
13500,0.7416129112243652,0.7220844626426697,0.0,-2.0983211994171143,-1.3341667652130127,-1.1931620836257937,4.16015625,1,F1,6.1,0,270.0,4.432258536023705,[6300|0|4400|0],second_intermediate
13600,0.7498104572296143,0.7109386324882507,0.0,-2.0748136043548584,-1.3172773122787476,-1.1837122440338137,4.1640625,1,F1,6.1,0,270.0,4.446094333447031,[6300|0|4500|0],second_intermediate
13700,0.758783221244812,0.6983375549316406,0.0,-2.0503389835357666,-1.3039662837982178,-1.17281973361969,4.1640625,1,F1,6.1,0,270.0,4.461563581963366,[6300|0|4600|0],second_intermediate
13800,0.6969720721244812,0.7674856185913086,0.0079250326380133,-2.524613618850708,-1.1524139642715454,-0.0077957124449312,4.1640625,1,F1,6.1,0,270.0,4.554648913814152,[6300|0|4700|0],second_intermediate
13900,0.7082265615463257,0.7614248394966125,0.0001094524923246,-2.4285409450531006,-1.1476556062698364,0.9053009748458862,4.1640625,1,F1,6.1,0,270.0,4.569631566062496,[6300|0|4800|0],second_intermediate
14000,0.7141786217689514,0.7609527111053467,0.0,-2.549537181854248,-1.1600408554077148,1.6685447692871094,4.171875,1,F1,6.1,0,270.0,4.575603325096456,[6300|0|4900|0],second_intermediate
14100,0.7205763459205627,0.759476900100708,0.0,-2.5834603309631348,-1.1658129692077637,2.314589500427246,4.171875,1,F1,6.1,0,270.0,4.582169061341655,[6300|0|5000|0],second_intermediate
14200,0.7209923267364502,0.7591710686683655,0.0,-2.566079616546631,-1.1917731761932373,3.6587514877319336,4.171875,1,F1,6.1,0,270.0,4.582685368328045,[6300|0|5100|0],second_intermediate
14300,0.7227749228477478,0.7584981322288513,0.0,-2.574235677719116,-1.1952818632125854,4.477466106414795,4.171875,1,F1,6.1,0,270.0,4.584590753419737,[6300|0|5200|0],second_intermediate
14400,0.7234503626823425,0.7581993937492371,0.0,-2.6415069103240967,-1.189006209373474,5.002103805541992,4.171875,1,F1,6.1,0,270.0,4.58532930852896,[6300|0|5300|0],second_intermediate
14500,0.7369449138641357,0.7496791481971741,0.0,-2.436964511871338,-1.070919156074524,7.862270355224609,4.17578125,1,F1,6.1,0,270.0,4.601288553369035,[6300|0|5400|0],second_intermediate
14600,0.7360191941261292,0.7494898438453674,0.0,-2.619391918182373,-0.7225134968757629,7.498144626617432,4.17578125,1,F1,6.1,0,270.0,4.602233430700199,[6300|0|5500|0],second_intermediate
14700,0.738836407661438,0.7525562644004822,0.0,-2.678752183914185,-0.8224970698356628,7.329092979431152,4.17578125,1,F1,6.1,0,270.0,4.606397518490383,[6300|0|5600|0],second_intermediate
14800,0.7402183413505554,0.7525208592414856,0.0,-2.7924559116363525,-0.8803464770317078,7.27180814743042,4.17578125,1,F1,6.1,0,270.0,4.607779905645416,[6300|0|5700|0],second_intermediate
14900,0.7351862192153931,0.7488580942153931,0.0,-2.815302848815918,-0.7270403504371643,7.145290374755859,4.17578125,1,F1,6.1,0,270.0,4.614003899605853,[6300|0|5800|0],second_intermediate
15000,0.7343732714653015,0.749294102191925,0.0,-2.843554973602295,-0.6974228620529175,7.075974941253662,4.1796875,1,F1,6.1,0,270.0,4.614926389172179,[6300|0|5900|0],second_intermediate
15100,0.7343961596488953,0.7490456700325012,0.0,-2.865816354751587,-0.6918472051620483,7.038640022277832,4.1796875,1,F1,6.1,0,270.0,4.615175873453816,[6300|0|6000|0],second_intermediate
15200,0.734528660774231,0.7498327493667603,0.0,-2.907374143600464,-0.6973759531974792,6.977566719055176,4.1796875,1,F1,6.1,0,270.0,4.615974027841533,[6300|0|6100|0],second_intermediate
15300,0.7344112396240234,0.7493911385536194,0.0,-2.9073917865753174,-0.7034276723861694,6.945910930633545,4.1796875,1,F1,6.1,0,270.0,4.616430982802989,[6300|0|6200|0],second_intermediate
15400,0.7344751954078674,0.7499384880065918,0.0,-2.9716885089874268,-0.7655900120735168,6.913066864013672,4.1796875,1,F1,6.1,0,270.0,4.616982056088457,[6300|0|6300|0],second_intermediate
15500,0.7342272400856018,0.7502086758613586,0.0,-2.9642038345336914,-0.761501133441925,6.912811756134033,4.1875,1,F1,6.1,0,270.0,4.617348775761645,[6300|0|6400|0],second_intermediate
15600,0.7342899441719055,0.7498413324356079,0.0,-2.942188739776612,-0.7592399716377258,6.887935638427734,4.1796875,1,F1,6.1,0,270.0,4.617721432433236,[6300|0|6500|0],second_intermediate
15700,0.7345960140228271,0.749873161315918,0.0,-2.9327640533447266,-0.770414412021637,6.889517307281494,4.1796875,1,F1,6.1,0,270.0,4.618029152811608,[6300|0|6600|0],second_intermediate
15800,0.7343198657035828,0.7504439353942871,0.0,-2.927997350692749,-0.7647865414619446,6.888370990753174,4.1875,1,F1,6.1,0,270.0,4.618663219797627,[6300|0|6700|0],second_intermediate
15900,0.7343299984931946,0.7496453523635864,0.0,-2.8879716396331787,-0.7681185007095337,6.897223949432373,4.1875,1,F1,6.1,0,270.0,4.619461867110493,[6300|0|6800|0],second_intermediate
16000,0.7344775199890137,0.7497211694717407,0.0,-2.912638664245605,-0.8046700358390808,6.908851146697998,4.1875,1,F1,6.1,0,270.0,4.619627730987264,[6300|0|6900|0],second_intermediate
16100,0.7344700694084167,0.7497467994689941,0.0,-2.89554500579834,-0.7988594770431519,6.87747049331665,4.1875,1,F1,6.1,0,270.0,4.619654421957843,[6300|0|7000|0],second_intermediate
16200,0.7346723675727844,0.7499443292617798,0.0,-2.868285179138184,-0.8061205744743347,6.869655132293701,4.19140625,1,F1,6.1,0,270.0,4.61993716312277,[6300|0|7100|0],second_intermediate
16300,0.7345718741416931,0.7497090101242065,0.0,-2.841191530227661,-0.8006592392921448,6.911549091339111,4.1875,1,F1,6.1,0,270.0,4.620193042051564,[6300|0|7200|0],second_intermediate
16400,0.7344633340835571,0.7498066425323486,0.0,-2.8229763507843018,-0.8027873635292053,6.913301944732666,4.1875,1,F1,6.1,0,270.0,4.620339031884565,[6300|0|7300|0],second_intermediate
16500,0.7346009612083435,0.7496204376220703,0.0,-2.804163694381714,-0.8108546137809753,6.911563873291016,4.19140625,1,F1,6.1,0,270.0,4.62057057776358,[6300|0|7400|0],second_intermediate
16600,0.7343554496765137,0.7497691512107849,0.0,-2.8051724433898926,-0.814006507396698,6.927615642547607,4.19140625,1,F1,6.1,0,270.0,4.620857617209876,[6300|0|7500|0],second_intermediate
16700,0.7346502542495728,0.7500383853912354,0.0,-2.781681537628174,-0.809533417224884,6.933253288269043,4.19140625,1,F1,6.1,0,270.0,4.621256862473116,[6300|0|7600|0],second_intermediate
16800,0.7345271706581116,0.7496870756149292,0.0,-2.759305953979492,-0.7893242239952087,6.933004856109619,4.19140625,1,F1,6.1,0,270.0,4.621629109876619,[6300|0|7700|0],second_intermediate
16900,0.7343517541885376,0.750137448310852,0.0,-2.756711959838867,-0.7855021953582764,6.942331790924072,4.19140625,1,F1,6.1,0,270.0,4.622112438442949,[6300|0|7800|0],second_intermediate
17000,0.734358012676239,0.749706506729126,0.0,-2.7376365661621094,-0.78655606508255,6.927550315856934,4.19140625,1,F1,6.1,0,270.0,4.622543425467729,[6300|0|7900|0],second_intermediate
17100,0.7342875003814697,0.7498132586479187,0.0,-2.7348108291625977,-0.7836435437202454,6.907656192779541,4.19140625,1,F1,6.1,0,270.0,4.622671362780033,[6300|0|8000|0],second_intermediate
17200,0.7345986366271973,0.7500360012054443,0.0,-2.7320077419281006,-0.7969768047332764,6.931876182556152,4.19140625,1,F1,6.1,0,270.0,4.623054011457462,[6300|0|8100|0],second_intermediate
17300,0.7345954179763794,0.7496924996376038,0.0,-2.776739358901977,-0.832535982131958,6.947592258453369,4.19140625,1,F1,6.1,0,270.0,4.623397528104544,[6300|0|8200|0],second_intermediate
17400,0.734703004360199,0.7499684691429138,0.0,-2.778911590576172,-0.8294835090637207,6.929111480712891,4.19140625,1,F1,6.1,0,270.0,4.623693727358162,[6300|0|8300|0],second_intermediate
17500,0.7348010540008545,0.7497016787528992,0.0,-2.761582851409912,-0.8168092966079712,6.9336676597595215,4.19140625,1,F1,6.1,0,270.0,4.623977964660846,[6300|0|8400|0],second_intermediate
17600,0.7346893548965454,0.7497014999389648,0.0,-2.7561357021331787,-0.8077401518821716,6.934321403503418,4.19140625,1,F1,6.1,0,270.0,4.624089663908283,[6300|0|8500|0],second_intermediate
17700,0.7346853017807007,0.749891459941864,0.0,-2.7548179626464844,-0.80002361536026,6.942254066467285,4.19140625,1,F1,6.1,0,270.0,4.62427966714628,[6300|0|8600|0],second_intermediate
17800,0.7348769307136536,0.7495856881141663,0.0,-2.745172500610352,-0.8076160550117493,6.951594352722168,4.19140625,1,F1,6.1,0,270.0,4.624640524539939,[6300|0|8700|0],second_intermediate
17900,0.7346238493919373,0.749796986579895,0.0,-2.791834115982056,-0.8320795893669128,6.950905799865723,4.19140625,1,F1,6.1,0,270.0,4.624970217119505,[6300|0|8800|0],second_intermediate
18000,0.7343739867210388,0.7495980858802795,0.0,-2.780579090118408,-0.8136765360832214,6.924371719360352,4.19140625,1,F1,6.1,0,270.0,4.625289580302442,[6300|0|8900|0],second_intermediate
18100,0.7343942523002625,0.7501288652420044,0.0,-2.782416820526123,-0.8083012700080872,6.919867038726807,4.19140625,1,F1,6.1,0,270.0,4.625820746401261,[6300|0|9000|0],second_intermediate
18200,0.7343786358833313,0.7497379183769226,0.0,-2.7592098712921143,-0.797014594078064,6.895674705505371,4.19140625,1,F1,6.1,0,270.0,4.626212005041798,[6300|0|9100|0],second_intermediate
18300,0.7346481084823608,0.7496417164802551,0.0,-2.75453519821167,-0.7917947769165039,6.906975746154785,4.19140625,1,F1,6.1,0,270.0,4.626498134883915,[6300|0|9200|0],second_intermediate
18400,0.7343592643737793,0.7495479583740234,0.0,-2.7526984214782715,-0.7821241617202759,6.897679328918457,4.19140625,1,F1,6.1,0,270.0,4.626801814816651,[6300|0|9300|0],second_intermediate
18500,0.7344692945480347,0.7494746446609497,0.0,-2.7545127868652344,-0.7858028411865234,6.909139633178711,4.19140625,1,F1,6.1,0,270.0,4.626934032590688,[6300|0|9400|0],second_intermediate
18600,0.7344823479652405,0.7494443655014038,0.0,-2.75262188911438,-0.7806957960128784,6.907113552093506,4.19140625,1,F1,6.1,0,270.0,4.626967005597884,[6300|0|9500|0],second_intermediate
18700,0.7346695065498352,0.7497789263725281,0.0,-2.765444278717041,-0.7843840718269348,6.887015342712402,4.19140625,1,F1,6.1,0,270.0,4.6273503583235485,[6300|0|9600|0],second_intermediate
18800,0.7344918251037598,0.7495442032814026,0.0,-2.767404794692993,-0.7791997194290161,6.932305812835693,4.19140625,1,F1,6.1,0,270.0,4.627644748584575,[6300|0|9700|0],second_intermediate
18900,0.7346111536026001,0.749506950378418,0.0,-2.768629550933838,-0.7887085676193237,6.949374675750732,4.19140625,1,F1,6.1,0,270.0,4.627769756861966,[6300|0|9800|0],second_intermediate
19000,0.7344337701797485,0.7501205801963806,0.0,-2.7873966693878174,-0.779790461063385,6.919752597808838,4.19140625,1,F1,6.1,0,270.0,4.628408510673849,[6300|0|9900|0],second_intermediate
19100,0.7345403432846069,0.7497045397758484,0.0,-2.775310516357422,-0.7893496751785278,6.916910648345947,4.19140625,1,F1,6.1,0,270.0,4.62883798414008,[6300|0|10000|0],second_intermediate
19200,0.7344256639480591,0.7496504783630371,0.0,-2.769539356231689,-0.784089207649231,6.9104719161987305,4.19140625,1,F1,6.1,0,270.0,4.628964767366834,[6300|0|10100|0],second_intermediate
19300,0.7345008254051208,0.7500835061073303,0.0,-2.813553810119629,-0.8569233417510986,6.908193588256836,2.923828125,1,fly,6.1,0,270.0,4.629404269667118,[6300|0|10100|0],fly
19400,0.7340508699417114,0.7530848979949951,0.0,-2.849579334259033,0.0445589087903499,7.185067653656006,3.326171875,1,fly,6.1,0,270.0,4.632439201821613,[6300|0|10100|0],fly
19500,0.7268247008323669,0.7546584010124207,0.0047063995152711,-1.5782089233398438,5.289525985717773,8.124529838562012,3.521484375,1,fly,6.1,0,270.0,4.641205251567082,[6300|0|10100|0],fly
19600,0.7124640941619873,0.7587924003601074,0.0593329705297946,0.9490822553634644,4.365053176879883,6.8758392333984375,3.541015625,1,fly,6.1,0,270.0,4.697838980345548,[6300|0|10100|0],fly
19700,0.695402979850769,0.7620462775230408,0.128700241446495,3.967917919158936,-1.4492043256759644,4.324357986450195,3.568359375,1,fly,6.1,0,270.0,4.769347634455123,[6300|0|10100|0],fly
19800,0.6835699081420898,0.7596198320388794,0.2084566801786422,2.1510984897613525,-4.173459529876709,2.7187280654907227,3.58984375,1,fly,6.1,0,270.0,4.850013604622134,[6300|0|10100|0],fly
19900,0.681383490562439,0.756341814994812,0.2937794625759125,1.07500422000885,-3.969744682312012,1.2124948501586914,3.59375,1,fly,6.1,0,270.0,4.935427321398691,[6300|0|10100|0],fly
20000,0.6875391006469727,0.7523770928382874,0.3808375597000122,0.3744159638881683,-2.8598599433898926,0.2707804143428802,3.59375,1,fly,6.1,0,270.0,5.0227927769984895,[6300|0|10100|0],fly
20100,0.6980060935020447,0.7508914470672607,0.468860387802124,-0.4871642887592315,-0.5640257596969604,-0.558269202709198,3.583984375,1,fly,6.1,0,270.0,5.111448196177912,[6300|0|10100|0],fly
20200,0.7086994647979736,0.7512983083724976,0.5582324266433716,-0.7917851805686951,1.0219494104385376,-0.8951403498649597,3.58984375,1,fly,6.1,0,270.0,5.201458612533108,[6300|0|10100|0],fly
20300,0.7177670001983643,0.7540305256843567,0.6489134430885315,-0.6996923089027405,1.855767607688904,-1.113541603088379,3.583984375,1,fly,6.1,0,270.0,5.292632797219365,[6300|0|10100|0],fly
20400,0.7238552570343018,0.7587626576423645,0.7413349747657776,-0.6515994071960449,1.977609395980835,-0.8422122001647949,3.583984375,1,fly,6.1,0,270.0,5.3853754490131145,[6300|0|10100|0],fly
20500,0.727144718170166,0.7656674981117249,0.8350327014923096,0.2454632222652435,1.9550034999847408,-0.5288322567939758,3.58984375,1,fly,6.1,0,270.0,5.479384817536637,[6300|0|10100|0],fly
20600,0.7270382642745972,0.7727494835853577,0.9306427836418152,0.6798678040504456,1.410222053527832,-0.5829628705978394,3.583984375,1,fly,6.1,0,270.0,5.575256886771195,[6300|0|10100|0],fly
20700,0.724575936794281,0.7799590826034546,1.0284006595611572,1.5013777017593384,1.1801462173461914,-0.5309849381446838,3.583984375,1,fly,6.1,0,270.0,5.673311176217825,[6300|0|10100|0],fly
20800,0.7207261919975281,0.7845884561538696,1.1270954608917236,1.6109704971313477,1.0468058586120603,-0.5693997740745544,3.630859375,1,fly,6.1,0,270.0,5.772189462227188,[6300|0|10100|0],fly
20900,0.7153176069259644,0.7874155044555664,1.2220497131347656,1.5104299783706665,-0.2481645345687866,-0.4305073320865631,3.6796875,1,fly,6.1,0,270.0,5.867339633081537,[6300|0|10100|0],fly
21000,0.7108110189437866,0.7880995273590088,1.3055745363235474,0.7044367790222168,-0.93577641248703,-0.4409360587596893,3.689453125,1,fly,6.1,0,270.0,5.950988741333155,[6300|0|10100|0],fly
21100,0.7075722217559814,0.787344753742218,1.3730568885803225,1.161530375480652,-1.043041706085205,-0.3185374736785888,3.68359375,1,fly,6.1,0,270.0,6.018552987473727,[6300|0|10100|0],fly
21200,0.7052277326583862,0.7868042588233948,1.4230271577835083,0.760558545589447,-1.2976988554000854,-0.8331972360610962,3.6640625,1,fly,6.1,0,270.0,6.068581145226385,[6300|0|10100|0],fly
21300,0.7041195034980774,0.7847909331321716,1.4578964710235596,0.760596513748169,-1.1052672863006592,-1.3219428062438965,3.63671875,1,fly,6.1,0,270.0,6.103526111359485,[6300|0|10100|0],fly
21400,0.7036112546920776,0.7826461791992188,1.481928825378418,0.2845893800258636,-0.4503893852233886,-1.7821974754333496,3.626953125,1,fly,6.1,0,270.0,6.12765933207532,[6300|0|10100|0],fly
21500,0.7030416131019592,0.7812862992286682,1.497297763824463,-0.0922067761421203,-0.0374962501227855,-2.822563886642456,3.62109375,1,fly,6.1,0,270.0,6.143098827987875,[6300|0|10100|0],fly
21600,0.7023735046386719,0.778842568397522,1.5058560371398926,0.851397693157196,0.5855095982551575,-4.018809795379639,3.60546875,1,fly,6.1,0,270.0,6.152024198088627,[6300|0|10100|0],fly
21700,0.69992995262146,0.7762580513954163,1.508663773536682,0.5960745811462402,0.2639185786247253,-4.740735054016113,3.599609375,1,fly,6.1,0,270.0,6.156555650203441,[6300|0|10100|0],fly
21800,0.6970644593238831,0.7720082998275757,1.5077147483825684,0.1079494133591651,0.0581804290413856,-5.280838966369629,3.59375,1,fly,6.1,0,270.0,6.161768335592947,[6300|0|10100|0],fly
21900,0.6935489177703857,0.7673437595367432,1.505029559135437,0.1612572222948074,-0.1143960803747177,-5.990429878234863,3.59375,1,fly,6.1,0,270.0,6.16819695984951,[6300|0|10100|0],fly
22000,0.6901353001594543,0.7625230550765991,1.501534104347229,-0.0622223876416683,-0.1772164851427078,-6.55005407333374,3.59375,1,fly,6.1,0,270.0,6.175060645511174,[6300|0|10100|0],fly
22100,0.6859152913093567,0.7572381496429443,1.4981327056884766,-0.8092296719551086,-0.0673839077353477,-6.413201332092285,3.58984375,1,fly,6.1,0,270.0,6.182630864330557,[6300|0|10100|0],fly
22200,0.6816102266311646,0.7536308765411377,1.4946930408477783,-1.432362675666809,-0.2716298997402191,-5.814845085144043,3.58984375,1,fly,6.1,0,270.0,6.18921700852354,[6300|0|10100|0],fly
22300,0.6790533661842346,0.7504000067710876,1.4883043766021729,2.244835376739502,-4.044030666351318,-5.429930210113525,3.837890625,1,fly,6.1,0,38.0,6.196819053357608,[6300|0|10100|0],fly
22400,0.6833682060241699,0.7423315644264221,1.4592918157577517,15.4592924118042,-15.3757963180542,-3.321472883224488,3.7734375,1,fly,6.1,0,38.0,6.227240202110814,[6300|0|10100|0],fly
22500,0.7007378339767456,0.7166513800621033,1.3989006280899048,15.70254898071289,-16.29348373413086,-2.819924116134644,3.615234375,1,fly,6.1,0,38.0,6.295124452067114,[6300|0|10100|0],fly
22600,0.7372278571128845,0.66950523853302,1.3161590099334717,15.73293685913086,-17.19443130493164,-1.1217893362045288,3.505859375,1,fly,6.1,0,38.0,6.3971070771789496,[6300|0|10100|0],fly
22700,0.7947053909301758,0.6031388640403748,1.2272870540618896,13.29951286315918,-13.216526985168455,-0.3006151914596557,3.45703125,1,fly,6.1,0,38.0,6.52203260338339,[6300|0|10100|0],fly
22800,0.871003270149231,0.5230007171630859,1.1457926034927368,5.904666423797607,-8.585360527038574,1.1472231149673462,3.494140625,1,fly,6.1,0,38.0,6.659454706524841,[6300|0|10100|0],fly
22900,0.9619922637939452,0.437923401594162,1.0786359310150146,2.133575916290283,-3.467226982116699,6.848118305206299,3.525390625,1,fly,6.1,0,38.0,6.8009720738236,[6300|0|10100|0],fly
23000,1.0692744255065918,0.3357717096805572,1.0367692708969116,-2.8045918941497803,-1.802860140800476,7.367611885070801,3.53125,1,fly,6.1,0,38.0,6.954911177406788,[6300|0|10100|0],fly
23100,1.170442819595337,0.2551519870758056,0.9984111785888672,-2.7438440322875977,-2.71582555770874,7.232956409454346,3.5,1,fly,6.1,0,38.0,7.089840517733031,[6300|0|10100|0],fly
23200,1.2641894817352295,0.1901762634515762,0.974204123020172,-2.1271026134490967,-3.257368564605713,6.8293304443359375,3.515625,1,fly,6.1,0,38.0,7.206443531682797,[6300|0|10100|0],fly
23300,1.3746628761291504,0.1202228963375091,0.961068332195282,-1.298279047012329,-4.150327682495117,6.588454246520996,3.521484375,1,fly,6.1,0,38.0,7.337860400615615,[6300|0|10100|0],fly
23400,1.4878588914871216,0.0626306682825088,0.952643632888794,-2.597299575805664,-0.1542919874191284,4.164795398712158,3.552734375,1,fly,6.1,0,38.0,7.465144249487599,[6300|0|10100|0],fly
23500,1.6012154817581177,0.0073159085586667,0.953882932662964,-2.587023973464966,4.130774021148682,3.793498277664185,3.578125,1,fly,6.1,0,38.0,7.591282963073489,[6300|0|10100|0],fly
23600,1.7058285474777222,-0.0419714525341987,0.9631875157356262,-2.642904758453369,8.434507369995117,1.8438640832901,3.578125,1,fly,6.1,0,38.0,7.707298965197803,[6300|0|10100|0],fly
23700,1.797496676445007,-0.0909440889954567,0.9671341180801392,-3.4830305576324463,11.286904335021973,0.4159818291664123,3.568359375,1,fly,6.1,0,38.0,7.811303487505225,[6300|0|10100|0],fly
23800,1.8713613748550413,-0.1360268741846084,0.9680679440498352,-4.080971717834473,12.3342924118042,-0.2633511126041412,3.55859375,1,fly,6.1,0,38.0,7.897844363526665,[6300|0|10100|0],fly
23900,1.926389217376709,-0.1766984462738037,0.9663477540016174,-5.605823040008545,12.38364315032959,-0.4708563387393951,3.546875,1,fly,6.1,0,38.0,7.966292879088349,[6300|0|10100|0],fly
24000,1.9632370471954343,-0.2107054591178894,0.9634667038917542,-6.307009696960449,10.588911056518556,-0.2954263985157013,3.541015625,1,fly,6.1,0,38.0,8.016517772663777,[6300|0|10100|0],fly
24100,1.984829783439636,-0.2364572137594223,0.9605894684791564,-6.679955959320068,9.190711975097656,-0.4709934890270233,3.546875,1,fly,6.1,0,38.0,8.050247249523771,[6300|0|10100|0],fly
24200,1.9941675662994385,-0.2535914182662964,0.9585628509521484,-6.332950592041016,6.547860145568848,-0.9373067021369934,3.541015625,1,fly,6.1,0,38.0,8.069865667691936,[6300|0|10100|0],fly
24300,1.9955288171768188,-0.2618499398231506,0.9590263962745668,-5.973785400390625,4.336248874664307,-1.666539192199707,3.55859375,1,fly,6.1,0,38.0,8.078248451031742,[6300|0|10100|0],fly
24400,1.9926717281341555,-0.262594074010849,0.9618086218833924,-4.493118762969971,2.001917123794556,-1.9340379238128664,3.5625,1,fly,6.1,0,38.0,8.082305232123373,[6300|0|10100|0],fly
24500,1.989095687866211,-0.2582533061504364,0.9649105668067932,-3.025127410888672,1.3815710544586182,-1.5653846263885498,3.568359375,1,fly,6.1,0,38.0,8.088728034621019,[6300|0|10100|0],fly
24600,1.9858145713806152,-0.2518027722835541,0.9646255373954772,-1.401208996772766,1.4212768077850342,-1.269035577774048,3.568359375,1,fly,6.1,0,38.0,8.095970710530182,[6300|0|10100|0],fly
24701,1.9824811220169067,-0.2430211901664734,0.9664186239242554,-0.2320065796375274,1.4713680744171145,-1.1819549798965454,3.552734375,1,fly,6.1,0,38.0,8.10553330580757,[6300|0|10100|0],fly
24800,1.978000521659851,-0.2356949299573898,0.9640477895736694,-0.113029696047306,1.4174925088882446,-0.2796054780483246,3.552734375,1,fly,6.1,0,38.0,8.114442330654812,[6300|0|10100|0],fly
24901,1.973214864730835,-0.2302435338497162,0.961171329021454,0.3360841870307922,1.6726634502410889,-0.2422213554382324,3.546875,1,fly,6.1,0,38.0,8.122245807897263,[6300|0|10100|0],fly
25001,1.9665610790252688,-0.2268058508634567,0.95792418718338,-0.3622542917728424,1.1960699558258057,-0.1373340785503387,3.546875,1,fly,6.1,0,38.0,8.13040880113787,[6300|0|10100|0],fly
25101,1.9589793682098389,-0.222794622182846,0.9552174806594848,-0.8017012476921082,1.059017300605774,0.535616934299469,3.546875,1,fly,6.1,0,38.0,8.139403163517908,[6300|0|10100|0],fly
25200,1.9506562948226929,-0.2196189910173416,0.9513602256774902,-0.9634153246879578,0.5253710150718689,1.51949942111969,3.541015625,1,fly,6.1,0,38.0,8.149110717272757,[6300|0|10100|0],fly
25301,1.9411437511444087,-0.216435819864273,0.9448654651641846,-0.6186755299568176,0.5940458178520203,1.0550342798233032,3.859375,1,fly,6.1,0,270.0,8.16106073735417,[6300|0|10100|0],fly
25401,1.9334940910339355,-0.2121723145246505,0.9208576679229736,0.0937317386269569,-1.4821919202804563,-0.721413791179657,3.80078125,1,fly,6.1,0,270.0,8.186615954159391,[6300|0|10100|0],fly
25501,1.9280095100402832,-0.2078885436058044,0.8585968017578125,-1.828399896621704,-0.1228399351239204,-1.1149110794067385,3.673828125,1,fly,6.1,0,270.0,8.249264551730263,[6300|0|10100|0],fly
25602,1.9221601486206048,-0.2039077877998352,0.7628082633018494,-1.844917893409729,-0.4125857055187225,-1.3331794738769531,3.57421875,1,fly,6.1,0,270.0,8.34531404701959,[6300|0|10100|0],fly
25702,1.917184352874756,-0.1972676366567611,0.6498531103134155,-1.264186143875122,-1.27179753780365,-1.7131017446517944,3.537109375,1,fly,6.1,0,270.0,8.458573557601031,[6300|0|10100|0],fly
25801,1.913153886795044,-0.189208447933197,0.531156063079834,-1.4958720207214355,-0.446406751871109,-2.964977741241455,3.46875,1,fly,6.1,0,270.0,8.577612140428924,[6300|0|10100|0],fly
25902,1.910778522491455,-0.1786862760782241,0.4181727468967438,0.1594382375478744,0.6249004006385803,-4.709651947021484,3.435546875,1,fly,6.1,0,270.0,8.691109224937067,[6300|0|10100|0],fly
26001,1.9091007709503167,-0.1676979660987854,0.3203822076320648,0.3933777213096618,-0.1894488632678985,-5.894310474395752,3.419921875,1,fly,6.1,0,270.0,8.789529483909064,[6300|0|10100|0],fly
26102,1.9094730615615845,-0.1558230966329574,0.2411931902170181,1.375199556350708,0.1025896295905113,-5.622369289398193,3.419921875,1,fly,6.1,0,270.0,8.869604771009955,[6300|0|10100|0],fly
26202,1.910861015319824,-0.1455882042646408,0.1824555248022079,1.359957218170166,-0.568026065826416,-3.872664451599121,3.44140625,1,fly,6.1,0,270.0,8.929243623914822,[6300|0|10100|0],fly
26302,1.914518117904663,-0.1379265934228897,0.1405688226222992,1.3329830169677734,-0.16214519739151,-1.699697971343994,3.462890625,1,fly,6.1,0,270.0,8.971982019995101,[6300|0|10100|0],fly
26402,1.919016718864441,-0.1315114796161651,0.1131505221128463,2.632148742675781,0.6949973702430725,-0.3136390149593353,3.484375,1,fly,6.1,0,270.0,9.000497880469146,[6300|0|10100|0],fly
26502,1.9232982397079468,-0.1295156925916671,0.0967945083975792,2.124603748321533,0.9598450660705566,-0.2094828933477401,3.5,1,fly,6.1,0,270.0,9.017522385490864,[6300|0|10100|0],fly
26600,1.923546552658081,-0.131804272532463,0.0886327102780342,2.199816942214966,1.0333470106124878,-1.1413544416427612,3.53125,1,fly,6.1,0,270.0,9.026002609898912,[6300|0|10100|0],fly
26700,1.922741174697876,-0.1376279443502426,0.0851976424455642,0.8044945597648621,0.8955619931221008,-2.30822229385376,3.53125,1,fly,6.1,0,270.0,9.032811683118789,[6300|0|10100|0],fly
26800,1.9197323322296145,-0.1444254070520401,0.0829004049301147,-0.6274692416191101,0.1016544252634048,-2.273125410079956,3.525390625,1,fly,6.1,0,270.0,9.040592167190075,[6300|0|10100|0],fly
26900,1.91609275341034,-0.1509216725826263,0.0806153863668441,-0.7641052007675171,-0.6687246561050415,-1.065344214439392,3.537109375,1,fly,6.1,0,270.0,9.04838121781644,[6300|0|10100|0],fly
27000,1.912164688110352,-0.1537752300500869,0.0797439366579055,-1.5348666906356812,-1.2446562051773071,-0.2078155577182769,3.525390625,1,fly,6.1,0,270.0,9.053313956590822,[6300|0|10100|0],fly
27100,1.9087878465652464,-0.1537516117095947,0.078744888305664,-1.012365460395813,-0.373904138803482,-0.0169505681842565,3.53125,1,fly,6.1,0,270.0,9.056835563362862,[6300|0|10100|0],fly
27200,1.906638264656067,-0.1511877924203872,0.0785430073738098,-0.0864542350172996,-1.0247982740402222,1.1379194259643557,3.53125,1,fly,6.1,0,270.0,9.060187372970018,[6300|0|10100|0],fly
27300,1.905645489692688,-0.1484497636556625,0.0789592713117599,2.4002914428710938,-2.133925199508667,3.206241607666016,3.537109375,1,fly,6.1,0,270.0,9.063129426557296,[6300|0|10100|0],fly
27400,1.905704498291016,-0.1497942358255386,0.0773240774869918,2.031005620956421,-0.6421089768409729,5.618023872375488,3.525390625,1,fly,6.1,0,270.0,9.065247195731406,[6300|0|10100|0],fly
27500,1.9079341888427728,-0.157581552863121,0.0733965337276458,2.0557117462158203,-1.7548848390579224,6.572880744934082,3.521484375,1,fly,6.1,0,270.0,9.074249385830598,[6300|0|10100|0],fly
27600,1.9116857051849363,-0.1683505028486251,0.0697870030999183,0.8744569420814514,0.0012457331176847,3.804489850997925,3.509765625,1,fly,6.1,0,270.0,9.086210693033756,[6300|0|10100|0],fly
27700,1.9162888526916504,-0.182182103395462,0.0676329210400581,-1.854891896247864,0.440618097782135,-0.7684403657913208,3.515625,1,fly,6.1,0,270.0,9.100946439033754,[6300|0|10100|0],fly
27800,1.9202744960784912,-0.1955315023660659,0.0660827234387397,-1.7521439790725708,1.4360252618789673,-2.853278875350952,3.521484375,1,fly,6.1,0,270.0,9.11496410355701,[6300|0|10100|0],fly
27900,1.9230406284332275,-0.2073085606098175,0.066255509853363,-4.807910442352295,0.7944887280464172,-3.081028699874878,3.509765625,1,fly,6.1,0,270.0,9.12706288218238,[6300|0|10100|0],fly
28000,1.9252424240112305,-0.2142059206962585,0.0682687237858772,-3.97106409072876,0.3269081115722656,-1.864064335823059,3.521484375,1,fly,6.1,0,270.0,9.134577834628498,[6300|0|10100|0],fly
28100,1.9281530380249023,-0.2154876589775085,0.0708432495594024,-4.213180065155029,-0.544150710105896,-1.0647292137145996,3.537109375,1,fly,6.1,0,270.0,9.138669620292086,[6300|0|10100|0],fly
28200,1.9310612678527832,-0.2113908976316452,0.0738510340452194,-2.4004414081573486,1.0009589195251465,-0.377024233341217,3.525390625,1,fly,6.1,0,270.0,9.144525217765432,[6300|0|10100|0],fly
28300,1.9327465295791624,-0.2037115544080734,0.0757734552025795,-2.389631748199463,0.2260027825832367,0.280377596616745,3.521484375,1,B1,6.1,0,270.0,9.152618926590074,[6300|0|10100|100],destination
28400,1.933194279670716,-0.192937821149826,0.0778417736291885,-1.059972882270813,1.0404164791107178,1.2284785509109497,3.53125,1,B1,6.1,0,270.0,9.163598532665803,[6300|0|10100|200],destination
28500,1.930339336395264,-0.1802079081535339,0.080179326236248,0.4176068603992462,0.3842888176441192,1.7917239665985107,3.525390625,1,B1,6.1,0,270.0,9.176852420329052,[6300|0|10100|300],destination
28600,1.926616907119751,-0.1692372560501098,0.0810480415821075,0.8725414276123047,0.0458257459104061,3.020616292953491,3.521484375,1,B1,6.1,0,270.0,9.188469922368547,[6300|0|10100|400],destination
28700,1.9224696159362795,-0.1605757027864456,0.0793672651052475,3.857761859893799,-0.5886194705963135,4.706549167633057,3.525390625,1,B1,6.1,0,270.0,9.198219155090406,[6300|0|10100|500],destination
28800,1.920339703559876,-0.1582938134670257,0.0783532932400703,0.8234689235687256,-0.6690804958343506,4.890663146972656,3.5,1,B1,6.1,0,270.0,9.201501179548057,[6300|0|10100|600],destination
28900,1.92014741897583,-0.1598294377326965,0.077898196876049,0.3962576985359192,-1.485752820968628,3.764689922332764,3.505859375,1,B1,6.1,0,270.0,9.203114321806854,[6300|0|10100|700],destination
29000,1.9229869842529297,-0.1620596498250961,0.0779009610414505,-0.3442454040050506,0.285914272069931,2.7259955406188965,3.515625,1,B1,6.1,0,270.0,9.206724998278183,[6300|0|10100|800],destination
29100,1.926112055778504,-0.164075881242752,0.0804049521684646,-1.7615680694580078,-1.229764103889465,2.081906318664551,3.515625,1,B1,6.1,0,270.0,9.211208438110909,[6300|0|10100|900],destination
29200,1.9307518005371087,-0.1631500124931335,0.0841205641627311,-1.4283870458602903,-0.1459971368312835,1.899182915687561,3.525390625,1,B1,6.1,0,270.0,9.217224270294276,[6300|0|10100|1000],destination
29300,1.936140775680542,-0.1604481339454651,0.0859254077076911,-0.598315954208374,0.5461305379867554,1.8898299932479856,3.521484375,1,B1,6.1,0,270.0,9.223517016992236,[6300|0|10100|1100],destination
29400,1.9419479370117188,-0.1569680720567703,0.0863213762640953,-0.9751745462417604,0.229155957698822,1.3516796827316284,3.505859375,1,B1,6.1,0,270.0,9.230298664621914,[6300|0|10100|1200],destination
29500,1.9463536739349363,-0.1520108580589294,0.0858598947525024,0.765830397605896,1.396997570991516,0.7542248964309692,3.509765625,1,B1,6.1,0,270.0,9.236946781170422,[6300|0|10100|1300],destination
29600,1.9497238397598269,-0.1468637585639953,0.0843477994203567,-0.329075276851654,-0.1724320203065872,-0.4001811742782593,3.505859375,1,B1,6.1,0,270.0,9.243282164599348,[6300|0|10100|1400],destination
29700,1.9522682428359983,-0.1423097997903823,0.085206814110279,0.4399553537368774,-0.1089335530996322,-0.5854595899581909,3.505859375,1,B1,6.1,0,270.0,9.248568981577767,[6300|0|10100|1500],destination
29800,1.9552892446517944,-0.137458860874176,0.0873208492994308,-1.46465003490448,0.1251583248376846,0.0981820002198219,3.509765625,1,B1,6.1,0,270.0,9.25466219133296,[6300|0|10100|1600],destination
29900,1.9592516422271729,-0.1308164745569229,0.0884826928377151,-0.8142693042755127,-0.6017362475395203,0.4435288310050964,3.509765625,1,B1,6.1,0,270.0,9.262483429786071,[6300|0|10100|1700],destination
30000,1.9632816314697263,-0.1231232210993766,0.0892013609409332,0.5312352776527405,0.2977279424667358,0.3414149582386017,3.509765625,1,B1,6.1,0,270.0,9.271197983469408,[6300|0|10100|1800],destination
30100,1.96760642528534,-0.1152820214629173,0.0894945040345192,-0.3205016851425171,-0.4375717341899872,0.173362597823143,3.5,1,B1,6.1,0,270.0,9.280157569741087,[6300|0|10100|1900],destination
30200,1.9728459119796755,-0.1080024018883705,0.0897626802325248,0.8247863054275513,0.2273034304380417,0.5237389802932739,3.509765625,1,B1,6.1,0,270.0,9.28913069631121,[6300|0|10100|2000],destination
30300,1.9788742065429688,-0.1014127656817436,0.0753253251314163,-0.2368308156728744,-2.204020023345948,1.460684061050415,3.990234375,1,B1,6.1,0,270.0,9.30610717601087,[6300|0|10100|2100],destination
30400,1.9868903160095213,-0.0984270498156547,0.0031511280685663,1.2164686918258667,-9.628951072692873,3.759540319442749,3.990234375,1,B1,6.1,0,270.0,9.378786521301535,[6300|0|10100|2200],destination
30500,1.991954207420349,-0.0958578735589981,0.0,0.1270402520895004,-6.669559001922607,1.2303556203842163,3.99609375,1,B1,6.1,0,270.0,9.38528061638576,[6300|0|10100|2300],destination
30600,1.9923222064971924,-0.0901681631803512,0.0,0.0036752852611243,-2.572648763656616,2.150854110717773,4.0,1,B1,6.1,0,270.0,9.390982215066256,[6300|0|10100|2400],destination
30700,1.991342306137085,-0.0891932174563407,0.0,-2.0215487480163574,-0.5816488265991211,2.24511456489563,4.0,1,B1,6.1,0,270.0,9.392364504428333,[6300|0|10100|2500],destination
30800,1.991311192512512,-0.0895175859332084,0.0,-1.8127866983413696,-0.7551059126853943,2.2716176509857178,4.0078125,1,B1,6.1,0,270.0,9.392690361707553,[6300|0|10100|2600],destination
30900,1.9917001724243164,-0.0892785638570785,0.0,-0.8408838510513306,-1.7516733407974243,2.2713615894317627,4.0078125,1,B1,6.1,0,270.0,9.393146910636654,[6300|0|10100|2700],destination
31000,1.991625428199768,-0.0893284082412719,0.0,-1.3751527070999146,-1.1988632678985596,2.301002264022827,4.01171875,1,B1,6.1,0,270.0,9.393236750281238,[6300|0|10100|2800],destination
31100,1.991370797157288,-0.0891128480434417,0.0,-1.497824788093567,-1.03504741191864,2.3228349685668945,4.01171875,1,B1,6.1,0,270.0,9.39357037157355,[6300|0|10100|2900],destination
31200,1.9913848638534544,-0.0891952589154243,0.0,-1.204365849494934,-1.2989223003387451,2.314751386642456,4.01171875,1,B1,6.1,0,270.0,9.3936539743472,[6300|0|10100|3000],destination
31300,1.9913971424102783,-0.0895647928118705,0.0,-1.398267149925232,-1.063189148902893,2.3187360763549805,4.01171875,1,B1,6.1,0,270.0,9.394023712178074,[6300|0|10100|3100],destination
31400,1.991320013999939,-0.089389219880104,0.0,-1.2953380346298218,-1.110901117324829,2.3068552017211914,4.01171875,1,B1,6.1,0,270.0,9.394215479344322,[6300|0|10100|3200],destination
31500,1.991366267204285,-0.0893916711211204,0.0,-1.27773916721344,-1.0784426927566528,2.293043851852417,4.015625,1,B1,6.1,0,270.0,9.394261797456274,[6300|0|10100|3300],destination
31600,1.9915324449539185,-0.0892211645841598,0.0,-1.275722861289978,-1.037242412567139,2.2867543697357178,4.015625,1,B1,6.1,0,270.0,9.394499888874892,[6300|0|10100|3400],destination
31700,1.9912034273147583,-0.0891768261790275,0.0,-1.2842998504638672,-0.9832622408866882,2.327886819839477,4.0234375,1,B1,6.1,0,270.0,9.394831880593234,[6300|0|10100|3500],destination
31800,1.99128806591034,-0.0892127156257629,0.0,-1.2848083972930908,-0.9404690861701964,2.328223466873169,4.0234375,1,B1,6.1,0,270.0,9.394923813961762,[6300|0|10100|3600],destination
