,time.ms,stateEstimate.x,stateEstimate.y,stateEstimate.z,stabilizer.roll,stabilizer.pitch,stabilizer.yaw,pm.vbat,drone_id,node_name,wind_speed,global_wind_direction,relative_wind_direction,travel_dist,waiting_time
0,0,0.6465144157409668,0.3979932367801666,0.0,-0.6896445751190186,0.5746375322341919,0.6482222080230713,4.13671875,0,"['F2', 'B2', 'A1']",6.1,180,450.0,0.0,[6200|0|0]
1,100,0.6463961005210876,0.3986407220363617,0.0,-0.7067631483078003,0.5699425339698792,0.6488933563232422,4.13671875,0,"['F2', 'B2', 'A1']",6.1,180,450.0,0.0006582063872715,[6300|0|0]
2,200,0.6465674638748169,0.398397147655487,0.0,-0.7032580375671387,0.5636022686958313,0.6748440265655518,4.1328125,0,"['F2', 'B2', 'A1']",6.1,180,450.0,0.000956021561532,[6400|0|0]
3,300,0.6468237042427063,0.3984433114528656,0.0,-0.7095264196395874,0.5561611652374268,0.6725061535835266,4.13671875,0,"['F2', 'B2', 'A1']",6.1,180,450.0,0.0012163871167126,[6500|0|0]
4,400,0.6466050148010254,0.3980832993984222,0.0,-0.7050303816795349,0.5668097734451294,0.681057870388031,4.13671875,0,"['F2', 'B2', 'A1']",6.1,180,450.0,0.0016376159752293,[6600|0|0]
5,500,0.6467724442481995,0.3978523313999176,0.0,-0.7006579041481018,0.5644556879997253,0.6918160319328308,4.13671875,0,"['F2', 'B2', 'A1']",6.1,180,450.0,0.0019228857354813,[6700|0|0]
6,600,0.6467952728271484,0.3977901041507721,0.0,-0.701447606086731,0.562876284122467,0.6903332471847534,4.13671875,0,"['F2', 'B2', 'A1']",6.1,180,450.0,0.0019891682712886,[6800|0|0]
7,700,0.6467346549034119,0.3978014588356018,0.0,-0.7024022340774536,0.5621486902236938,0.6787164211273193,4.1328125,0,"['F2', 'B2', 'A1']",6.1,180,450.0,0.0020508404817704,[6900|0|0]
8,800,0.6467347145080566,0.3982142508029938,0.0,-0.7098881602287292,0.5672441124916077,0.6962556838989258,4.13671875,0,"['F2', 'B2', 'A1']",6.1,180,450.0,0.0024636324534657,[7000|0|0]
9,900,0.6467265486717224,0.3981444835662842,0.0,-0.7006598114967346,0.5674465298652649,0.6767038106918335,4.13671875,0,"['F2', 'B2', 'A1']",6.1,180,450.0,0.002533875945699,[7100|0|0]
10,1000,0.6470440030097961,0.3976290822029114,0.0,-0.6919937133789062,0.5579007863998413,0.6590207815170288,4.1328125,0,"['F2', 'B2', 'A1']",6.1,180,450.0,0.0031391988530207,[7200|0|0]
11,1100,0.6468687057495117,0.3978331089019775,0.0,-0.7026956081390381,0.5675598978996277,0.666733980178833,4.13671875,0,"['F2', 'B2', 'A1']",6.1,180,450.0,0.0034081896026665,[7300|0|0]
12,1200,0.6469677090644836,0.3977396786212921,0.0,-0.7004227638244629,0.5675784349441528,0.6571574211120605,4.1328125,0,"['F2', 'B2', 'A1']",6.1,180,450.0,0.0035443177545102,[7400|0|0]
13,1300,0.6466655135154724,0.3982328176498413,0.0,-0.7118983268737793,0.5731663107872009,0.6704506874084473,4.13671875,0,"['F2', 'B2', 'A1']",6.1,180,450.0,0.0041226846374838,[7500|0|0]
14,1400,0.6467183232307434,0.3979475796222687,0.0,-0.7046802639961243,0.568917989730835,0.6685870289802551,4.13671875,0,"['F2', 'B2', 'A1']",6.1,180,450.0,0.0044127701393631,[7600|0|0]
15,1500,0.6464353799819946,0.3979860842227936,0.0,-0.6876025199890137,0.5772855877876282,0.6572710275650024,4.13671875,0,"['F2', 'B2', 'A1']",6.1,180,450.0,0.0046983213366537,[7700|0|0]
16,1600,0.647045910358429,0.3979034125804901,0.0,-0.666990339756012,0.5648157000541687,0.6691536903381348,4.13671875,0,"['F2', 'B2', 'A1']",6.1,180,450.0,0.0053144235530027,[7800|0|0]
17,1700,0.6466453075408936,0.3980123698711395,0.0,-0.6557947993278503,0.5864208340644836,0.6770046949386597,4.1328125,0,"['F2', 'B2', 'A1']",6.1,180,450.0,0.0057295793172683,[7900|0|0]
18,1800,0.6464624404907227,0.3979511559009552,0.0,-0.645537257194519,0.5985769629478455,0.6777237057685852,4.13671875,0,"['F2', 'B2', 'A1']",6.1,180,450.0,0.0059224199462445,[8000|0|0]
19,1900,0.6464606523513794,0.3981105387210846,0.0,-0.6512911319732666,0.6017671227455139,0.6618514657020569,4.13671875,0,"['F2', 'B2', 'A1']",6.1,180,450.0,0.0060818127967577,[8100|0|0]
20,2000,0.6468453407287598,0.3976601660251617,0.0,-0.639210045337677,0.5942670702934265,0.6490330100059509,4.13671875,0,"['F2', 'B2', 'A1']",6.1,180,450.0,0.006674113997942,[8200|0|0]
21,2100,0.6470432281494141,0.397491991519928,0.0,-0.6371285915374756,0.5944045186042786,0.6466551423072815,4.13671875,0,"['F2', 'B2', 'A1']",6.1,180,450.0,0.0069338101578362,[8300|0|0]
22,2200,0.6470919251441956,0.3977527916431427,0.0,-0.6420875787734985,0.59844970703125,0.6432019472122192,4.1328125,0,"['F2', 'B2', 'A1']",6.1,180,450.0,0.0071991177181687,[8400|0|0]
23,2300,0.6466765403747559,0.397870272397995,0.0,-0.6448203325271606,0.6143421530723572,0.6575254201889038,4.13671875,0,"['F2', 'B2', 'A1']",6.1,180,450.0,0.0076307961105433,[8500|0|0]
24,2400,0.646678626537323,0.3976870477199554,0.0,-0.6393502950668335,0.619498074054718,0.6588180661201477,4.13671875,0,"['F2', 'B2', 'A1']",6.1,180,450.0,0.0078140326645302,[8600|0|0]
25,2500,0.6468014717102051,0.3979339599609375,0.0,-0.6477395296096802,0.6148889660835266,0.6540130972862244,4.1328125,0,"['F2', 'B2', 'A1']",6.1,180,450.0,0.0080898162594869,[8700|0|0]
26,2600,0.6468677520751953,0.3978866040706634,0.0,-0.6499298810958862,0.6087961196899414,0.6543045043945312,4.13671875,0,"['F2', 'B2', 'A1']",6.1,180,450.0,0.0081712758637511,[8800|0|0]
27,2700,0.6466701030731201,0.3977749943733215,0.0,-0.6443941593170166,0.61613529920578,0.656220555305481,4.1328125,0,"['F2', 'B2', 'A1']",6.1,180,450.0,0.0083982601199498,[8900|0|0]
28,2800,0.6469120979309082,0.3978282213211059,0.0,-0.6433280110359192,0.6158386468887329,0.6662829518318176,4.1328125,0,"['F2', 'B2', 'A1']",6.1,180,450.0,0.0086460394959405,[9000|0|0]
29,2900,0.6467407941818237,0.3980764150619507,0.0,-0.654928982257843,0.6232227683067322,0.641366720199585,4.1328125,0,"['F2', 'B2', 'A1']",6.1,180,450.0,0.0089476105612716,[9100|0|0]
30,3000,0.6469787359237671,0.3980880677700043,0.0,-0.6589655876159668,0.6171333193778992,0.6504231691360474,4.13671875,0,"['F2', 'B2', 'A1']",6.1,180,450.0,0.0091858374660578,[9200|0|0]
31,3100,0.6468605399131775,0.3980153203010559,0.0,-0.6560729742050171,0.6177365779876709,0.6566557288169861,4.13671875,0,"['F2', 'B2', 'A1']",6.1,180,450.0,0.0093246268430205,[9300|0|0]
32,3200,0.6471292972564697,0.3979264199733734,0.0,-0.652237057685852,0.6120302081108093,0.6578729152679443,4.1328125,0,"['F2', 'B2', 'A1']",6.1,180,450.0,0.0096077059447492,[9400|0|0]
33,3300,0.6465538740158081,0.3980088531970978,0.0,-0.6618653535842896,0.6265103816986084,0.6641952395439148,4.13671875,0,"['F2', 'B2', 'A1']",6.1,180,450.0,0.0101890037533354,[9500|0|0]
34,3400,0.6467500329017639,0.3979098200798034,0.0,-0.6540653109550476,0.6169508099555969,0.6725717782974243,4.13671875,0,"['F2', 'B2', 'A1']",6.1,180,450.0,0.0104087442067355,[9600|0|0]
35,3500,0.6466631293296814,0.3976636528968811,0.0,-0.6469737887382507,0.6198456883430481,0.6418290138244629,4.13671875,0,"['F2', 'B2', 'A1']",6.1,180,450.0,0.0106698007385224,[9700|0|0]
36,3600,0.6467155814170837,0.3977887034416199,0.0,-0.6463884115219116,0.6154351830482483,0.6503724455833435,4.13671875,0,"['F2', 'B2', 'A1']",6.1,180,450.0,0.0108054062701659,[9800|0|0]
37,3700,0.6469019651412964,0.3978644907474518,0.0,-0.6408430933952332,0.6050141453742981,0.6645876169204712,4.1328125,0,"['F2', 'B2', 'A1']",6.1,180,450.0,0.0110066091736654,[9900|0|0]
38,3800,0.6467839479446411,0.3980157673358917,0.0,-0.6406646370887756,0.6129018664360046,0.6490952968597412,4.13671875,0,"['F2', 'B2', 'A1']",6.1,180,450.0,0.0111984754419785,[10000|0|0]
39,3900,0.6466461420059204,0.3977613449096679,0.0,-0.6367146968841553,0.6165770292282104,0.6510759592056274,4.13671875,0,"['F2', 'B2', 'A1']",6.1,180,450.0,0.0114878216838969,[10100|0|0]
40,4000,0.6467884182929993,0.3980093598365783,0.0,-0.6462052464485168,0.6065254211425781,0.6624767780303955,4.13671875,0,"['F2', 'B2', 'A1']",6.1,180,450.0,0.0117737481531776,[10200|0|0]
41,4100,0.6463742852210999,0.3977182805538177,0.0,-0.6455345749855042,0.6202970147132874,0.6559011340141296,4.13671875,0,"['F2', 'B2', 'A1']",6.1,180,450.0,0.0122799431255878,[10300|0|0]
42,4200,0.64695805311203,0.397742748260498,0.0,-0.644964337348938,0.6036604642868042,0.6587124466896057,4.1328125,0,"['F2', 'B2', 'A1']",6.1,180,450.0,0.0128642235541075,[10400|0|0]
43,4300,0.6469119787216187,0.3978915512561798,0.0,-0.6564605236053467,0.6044912934303284,0.6634003520011902,4.13671875,0,"['F2', 'B2', 'A1']",6.1,180,450.0,0.0130199964046806,[10500|0|0]
44,4400,0.647207498550415,0.3978858888149261,0.0,-0.6644808650016785,0.5930497050285339,0.674096405506134,4.13671875,0,"['F2', 'B2', 'A1']",6.1,180,450.0,0.0133155704773812,[10600|0|0]
45,4500,0.6437949538230896,0.3934873640537262,0.0,-0.5206423401832581,0.7151784896850586,0.6340973377227783,4.13671875,0,"['F2', 'B2', 'A1']",6.1,180,450.0,0.018882659626199,[10700|0|0]
46,4600,0.6436078548431396,0.3933919668197632,0.0,-0.5160811543464661,0.7221671938896179,0.6113965511322021,4.13671875,0,"['F2', 'B2', 'A1']",6.1,180,450.0,0.0190926754840434,[10800|0|0]
47,4700,0.6437738537788391,0.3937807977199554,0.0,-0.5976486802101135,0.6690437197685242,0.632247269153595,4.1328125,0,"['F2', 'B2', 'A1']",6.1,180,450.0,0.0195154580707208,[10900|0|0]
48,4800,0.6468952894210815,0.398073673248291,0.0,-0.6688840389251709,0.6082760095596313,0.646428644657135,4.13671875,0,"['F2', 'B2', 'A1']",6.1,180,450.0,0.0248232015432752,[11000|0|0]
49,4900,0.6471419930458069,0.3981795310974121,0.0,-0.6584169268608093,0.6080007553100586,0.6497021913528442,4.1328125,0,"['F2', 'B2', 'A1']",6.1,180,450.0,0.025091657429173,[11100|0|0]
50,5000,0.6438022255897522,0.3932938277721405,0.0,-0.5481099486351013,0.6890698075294495,0.6307463049888611,4.1328125,0,"['F2', 'B2', 'A1']",6.1,180,450.0,0.031009777370767,[11200|0|0]
51,5100,0.6433771252632141,0.3936710655689239,0.0,-0.560698926448822,0.7119051814079285,0.6234175562858582,4.13671875,0,"['F2', 'B2', 'A1']",6.1,180,450.0,0.0315781246615538,[11300|0|0]
52,5200,0.6434944272041321,0.3934923410415649,0.0,-0.5535795092582703,0.7086186408996582,0.6167303919792175,4.1328125,0,"['F2', 'B2', 'A1']",6.1,180,450.0,0.0317919053950703,[11400|0|0]
53,5300,0.6435484290122986,0.3937256038188934,0.0,-0.5565500259399414,0.7045045495033264,0.6243494749069214,4.13671875,0,"['F2', 'B2', 'A1']",6.1,180,450.0,0.0320313374701401,[11500|0|0]
54,5400,0.6434286236763,0.3936215043067932,0.0,-0.6032159924507141,0.6710888147354126,0.6245695352554321,4.13671875,0,"['F2', 'B2', 'A1']",6.1,180,450.0,0.0321900511335507,[11600|0|0]
55,5500,0.643604576587677,0.3938397467136383,0.0,-0.5958051085472107,0.6708590388298035,0.6571860909461975,4.13671875,0,"['F2', 'B2', 'A1']",6.1,180,450.0,0.0324703887428142,[11700|0|0]
56,5600,0.6436495184898376,0.3936626315116882,0.0,-0.5775975584983826,0.6795472502708435,0.6684087514877319,4.13671875,0,"['F2', 'B2', 'A1']",6.1,180,450.0,0.0326531168723719,[11800|0|0]
57,5700,0.6433188319206238,0.3938528001308441,0.0,-0.5714864730834961,0.6915813684463501,0.690597653388977,4.1328125,0,"['F2', 'B2', 'A1']",6.1,180,450.0,0.0330345847095091,[11900|0|0]
58,5800,0.6435684561729431,0.3935261368751526,0.0,-0.5610550045967102,0.6881413459777832,0.6725227236747742,4.1328125,0,"['F2', 'B2', 'A1']",6.1,180,450.0,0.0334457065283961,[12000|0|0]
59,5900,0.6433624029159546,0.3935853838920593,0.0,-0.5662490725517273,0.6911365985870361,0.6706441640853882,4.13671875,0,"['F2', 'B2', 'A1']",6.1,180,450.0,0.0336601083794327,[12100|0|0]
60,6000,0.6433840394020081,0.3939815759658813,0.0,-0.5635978579521179,0.6891435980796814,0.6584312915802002,4.1328125,0,"['F2', 'B2', 'A1']",6.1,180,450.0,0.0340568908095983,[12200|0|0]
61,6100,0.6433393955230713,0.3935586512088775,0.0,-0.5467679500579834,0.6928942203521729,0.6471787691116333,4.13671875,0,"['F2', 'B2', 'A1']",6.1,180,450.0,0.0344821653397705,[12300|0|0]
62,6200,0.6433470249176025,0.3936365842819214,0.0,-0.5472621321678162,0.6940996646881104,0.632160484790802,4.1328125,0,"['F2', 'B2', 'A1']",6.1,180,450.0,0.0345604709687826,[12400|0|0]
63,6301,0.6434518098831177,0.393444150686264,0.0,-0.5461320281028748,0.68853360414505,0.6320046782493591,4.13671875,0,"['F2', 'B2', 'A1']",6.1,180,450.0,0.0347795841307233,[12500|0|0]
64,6401,0.6435800194740295,0.3933226764202118,0.0,-0.5553338527679443,0.6772477626800537,0.6107756495475769,4.1328125,0,"['F2', 'B2', 'A1']",6.1,180,450.0,0.0349562015039194,[12600|0|0]
65,6501,0.6434982419013977,0.3933950364589691,0.0,-0.5307731628417969,0.7012697458267212,0.6259668469429016,4.13671875,0,"['F2', 'B2', 'A1']",6.1,180,450.0,0.0350653964973693,[12700|0|0]
66,6601,0.6432468891143799,0.3934610486030578,0.0,-0.5266563892364502,0.7114934921264648,0.6155397891998291,4.13671875,0,"['F2', 'B2', 'A1']",6.1,180,450.0,0.0353252730578914,[12800|0|0]
67,6701,0.6431888937950134,0.3937754333019256,0.0,-0.5247493982315063,0.7178441286087036,0.6210496425628662,4.1328125,0,"['F2', 'B2', 'A1']",6.1,180,450.0,0.0356449622756493,[12900|0|0]
68,6801,0.6431713104248047,0.3932598233222961,0.0,-0.5048701763153076,0.7172697186470032,0.620505690574646,4.1328125,0,"['F2', 'B2', 'A1']",6.1,180,450.0,0.036160871982867,[13000|0|0]
69,6901,0.6433923244476318,0.3934261798858642,0.0,-0.5033115148544312,0.7215744853019714,0.6369386315345764,4.13671875,0,"['F2', 'B2', 'A1']",6.1,180,450.0,0.0364374975502472,[13100|0|0]
70,7001,0.6435871124267578,0.393223762512207,0.0,-0.5019451975822449,0.722088634967804,0.6411435008049011,4.1328125,0,"['F2', 'B2', 'A1']",6.1,180,450.0,0.0367184159547177,[13200|0|0]
71,7101,0.643482506275177,0.3934162557125091,0.0,-0.506523072719574,0.7282535433769226,0.6481779217720032,4.13671875,0,"['F2', 'B2', 'A1']",6.1,180,450.0,0.0369374960293733,[13300|0|0]
72,7201,0.6435718536376953,0.3931773602962494,0.0,-0.4998418688774109,0.7323806285858154,0.6554642915725708,4.1328125,0,"['F2', 'B2', 'A1']",6.1,180,450.0,0.0371925528291237,[13400|0|0]
73,7302,0.6435956954956055,0.3934531807899475,0.0,-0.5050817728042603,0.7309373021125793,0.662379801273346,4.1328125,0,"['F2', 'B2', 'A1']",6.1,180,450.0,0.0374694018474215,[13500|0|0]
74,7402,0.6437107920646667,0.3936053216457367,0.0,-0.5038214325904846,0.7260622978210449,0.6457736492156982,4.1328125,0,"['F2', 'B2', 'A1']",6.1,180,450.0,0.0376601741205902,[13600|0|0]
75,7502,0.6434513330459595,0.3932470977306366,0.0,-0.5018491744995117,0.7167659401893616,0.6396936178207397,4.13671875,0,"['F2', 'B2', 'A1']",6.1,180,450.0,0.0381024900209806,[13700|0|0]
76,7600,0.6437631249427795,0.3936499059200287,0.0,-0.5226046442985535,0.6986777186393738,0.6407259702682495,4.1328125,0,"['F2', 'B2', 'A1']",6.1,180,450.0,0.0386118706491596,[13800|0|0]
77,7700,0.6434531807899475,0.393577516078949,0.0,-0.5304882526397705,0.7026774287223816,0.6277693510055542,4.1328125,0,"['F2', 'B2', 'A1']",6.1,180,450.0,0.0389301561608724,[13900|0|0]
78,7802,0.6438671946525574,0.3933219611644745,0.0,-0.5374939441680908,0.6844682097434998,0.619236946105957,4.13671875,0,"['F2', 'B2', 'A1']",6.1,180,450.0,0.0394166906331816,[14000|0|0]
79,7902,0.6435084939002991,0.393524020910263,0.0,-0.5519754886627197,0.6886425018310547,0.6149178743362427,4.1328125,0,"['F2', 'B2', 'A1']",6.1,180,450.0,0.0398283875733437,[14100|0|0]
80,8002,0.6437625288963318,0.3935566544532776,0.0,-0.6066975593566895,0.6454567313194275,0.6138260960578918,4.1328125,0,"['F2', 'B2', 'A1']",6.1,180,450.0,0.0400845100583758,[14200|0|0]
81,8102,0.6432604193687439,0.393941730260849,0.0,-0.601503849029541,0.672644317150116,0.6055671572685242,4.1328125,0,"['F2', 'B2', 'A1']",6.1,180,450.0,0.0407172796493576,[14300|0|0]
82,8200,0.6437219977378845,0.3937223255634308,0.0,-0.5873702764511108,0.6631249785423279,0.6008626222610474,4.1328125,0,"['F2', 'B2', 'A1']",6.1,180,450.0,0.0412283501064452,[14400|0|0]
83,8300,0.6433888673782349,0.3934701383113861,0.0,-0.5813849568367004,0.6776996850967407,0.5762540102005005,4.1328125,0,"['F2', 'B2', 'A1']",6.1,180,450.0,0.0416461709372018,[14500|0|0]
84,8400,0.6435982584953308,0.3936321139335632,0.0,-0.5813111662864685,0.6723825931549072,0.5837273597717285,4.13671875,0,"['F2', 'B2', 'A1']",6.1,180,450.0,0.0419108986125558,[14600|0|0]
85,8500,0.6431140303611755,0.3930046558380127,0.0,-0.4665207266807556,0.7513519525527954,0.5776427984237671,4.1328125,0,"['F2', 'B2', 'A1']",6.1,180,450.0,0.0427034770298618,[14700|0|0]
86,8600,0.6435946226119995,0.3933978378772735,0.0,-0.4960573613643646,0.7338305711746216,0.5735479593276978,4.1328125,0,"['F2', 'B2', 'A1']",6.1,180,450.0,0.0433244126364664,[14800|0|0]
87,8700,0.6437863111495972,0.3932001888751983,0.0,-0.5022409558296204,0.71977698802948,0.6015334725379944,4.1328125,0,"['F2', 'B2', 'A1']",6.1,180,450.0,0.0435997481108747,[14900|0|0]
88,8800,0.6434422135353088,0.3932185769081116,0.0,-0.5113356113433838,0.7260512113571167,0.6156788468360901,4.1328125,0,"['F2', 'B2', 'A1']",6.1,180,450.0,0.0439443366886212,[15000|0|0]
89,8900,0.6434270143508911,0.393505185842514,0.0,-0.5186150670051575,0.7204688191413879,0.632522702217102,4.1328125,0,"['F2', 'B2', 'A1']",6.1,180,450.0,0.0442313483547364,[15100|0|0]
90,9000,0.643660843372345,0.3931209146976471,0.0,-0.5165664553642273,0.7131784558296204,0.6132699251174927,4.13671875,0,"['F2', 'B2', 'A1']",6.1,180,450.0,0.0446811709020274,[15200|0|0]
91,9100,0.6436164975166321,0.3932991027832031,0.0,-0.5260518789291382,0.7144859433174133,0.6059920787811279,4.13671875,0,"['F2', 'B2', 'A1']",6.1,180,450.0,0.044864794290388,[15300|0|0]
92,9200,0.6434276700019836,0.3933840692043304,0.0,-0.5265087485313416,0.7185490131378174,0.6046023368835449,4.1328125,0,"['F2', 'B2', 'A1']",6.1,180,450.0,0.0450718573798257,[15400|0|0]
93,9300,0.6436741948127747,0.3937076330184936,0.0,-0.53327876329422,0.7193635702133179,0.5898940563201904,4.13671875,0,"['F2', 'B2', 'A1']",6.1,180,450.0,0.0454786349900397,[15500|0|0]
94,9400,0.6433636546134949,0.393787682056427,0.0,-0.5324195027351379,0.7258893251419067,0.5832363367080688,4.1328125,0,"['F2', 'B2', 'A1']",6.1,180,450.0,0.0457993265300634,[15600|0|0]
95,9500,0.6434429287910461,0.3933134973049164,0.0,-0.5209739208221436,0.7202621698379517,0.6036165356636047,4.1328125,0,"['F2', 'B2', 'A1']",6.1,180,450.0,0.0462800921421777,[15700|0|0]
96,9600,0.643631100654602,0.393296867609024,0.0,-0.5172286629676819,0.7110083699226379,0.6186996102333069,4.1328125,0,"['F2', 'B2', 'A1']",6.1,180,450.0,0.0464689974015528,[15800|0|0]
97,9700,0.6435719132423401,0.3937985301017761,0.0,-0.606282651424408,0.6619537472724915,0.6448171138763428,4.1328125,0,"['F2', 'B2', 'A1']",6.1,180,450.0,0.046974139368137,[15900|0|0]
98,9800,0.6435660123825073,0.3935626149177551,0.0,-0.5865859985351562,0.6687065958976746,0.6286887526512146,4.1328125,0,"['F2', 'B2', 'A1']",6.1,180,450.0,0.0472101283386387,[16000|0|0]
99,9900,0.6436319351196289,0.3935168385505676,0.0,-0.5688074827194214,0.6779571771621704,0.6184942126274109,4.13671875,0,"['F2', 'B2', 'A1']",6.1,180,450.0,0.0472903859430291,[16100|0|0]
100,10000,0.6439928412437439,0.3932668268680572,0.0,-0.5594580173492432,0.6750679612159729,0.6293055415153503,4.1328125,0,"['F2', 'B2', 'A1']",6.1,180,450.0,0.0477294293028643,[16200|0|0]
101,10100,0.6436723470687866,0.3932805955410003,0.0,-0.557131290435791,0.6852595806121826,0.6335107088088989,4.1328125,0,"['F2', 'B2', 'A1']",6.1,180,450.0,0.048050219097802,[16300|0|0]
102,10200,0.6433176398277283,0.393825888633728,0.0,-0.562915563583374,0.6928887963294983,0.6389901638031006,4.1328125,0,"['F2', 'B2', 'A1']",6.1,180,450.0,0.0487007279631034,[16400|0|0]
103,10300,0.6437582969665527,0.3937552571296692,0.0,-0.5576619505882263,0.6839350461959839,0.6267232894897461,4.1328125,0,"['F2', 'B2', 'A1']",6.1,180,450.0,0.0491470098508858,[16500|0|0]
104,10400,0.6435756683349609,0.3937539160251617,0.0,-0.6137241125106812,0.6500359773635864,0.6329078078269958,4.1328125,0,"['F2', 'B2', 'A1']",6.1,180,450.0,0.0493296434065057,[16600|0|0]
105,10500,0.6435165405273438,0.3938810229301452,0.0,-0.5959898233413696,0.6594297289848328,0.6537578105926514,4.1328125,0,"['F2', 'B2', 'A1']",6.1,180,450.0,0.0494698299355594,[16700|0|0]
106,10600,0.6435996890068054,0.3934535086154938,0.0,-0.5816823244094849,0.6712458729743958,0.6488821506500244,4.1328125,0,"['F2', 'B2', 'A1']",6.1,180,450.0,0.0499053550885284,[16800|0|0]
107,10700,0.643511176109314,0.3935035169124603,0.0,-0.5713823437690735,0.6716437935829163,0.6340427994728088,4.1328125,0,"['F2', 'B2', 'A1']",6.1,180,450.0,0.05000701807485,[16900|0|0]
108,10800,0.6439907550811768,0.3934059143066406,0.0,-0.5614407062530518,0.6695918440818787,0.6340786814689636,4.1328125,0,"['F2', 'B2', 'A1']",6.1,180,450.0,0.0504964281880636,[17000|0|0]
109,10900,0.6432881951332092,0.3936857879161834,0.0,-0.5691130757331848,0.6960676312446594,0.6445453763008118,4.1328125,0,"['F2', 'B2', 'A1']",6.1,180,450.0,0.0512526819271001,[17100|0|0]
110,11000,0.6436843872070312,0.3934127390384674,0.0,-0.5599706172943115,0.6826910376548767,0.6288161277770996,4.1328125,0,"['F2', 'B2', 'A1']",6.1,180,450.0,0.0517338511790077,[17200|0|0]
111,11100,0.6435326933860779,0.3936239778995514,0.0,-0.5654494166374207,0.6844598650932312,0.6337890625,4.13671875,0,"['F2', 'B2', 'A1']",6.1,180,450.0,0.0519939143862238,[17300|0|0]
112,11200,0.6434358954429626,0.393689751625061,0.0,-0.5617216229438782,0.6837784647941589,0.6212544441223145,4.1328125,0,"['F2', 'B2', 'A1']",6.1,180,450.0,0.0521109444027099,[17400|0|0]
113,11300,0.6436660289764404,0.3936616778373718,0.0,-0.5618941187858582,0.6706710457801819,0.6318483352661133,4.1328125,0,"['F2', 'B2', 'A1']",6.1,180,450.0,0.0523427839609958,[17500|0|0]
114,11400,0.6436553597450256,0.3935188949108124,0.0,-0.5336096882820129,0.6868225932121277,0.6390674114227295,4.13671875,0,"['F2', 'B2', 'A1']",6.1,180,450.0,0.0524859649535048,[17600|0|0]
115,11500,0.6435033082962036,0.3935879468917846,0.0,-0.5241808891296387,0.7103486061096191,0.6273086071014404,4.1328125,0,"['F2', 'B2', 'A1']",6.1,180,450.0,0.0526529614180334,[17700|0|0]
116,11600,0.6437146067619324,0.3937060534954071,0.0,-0.514926016330719,0.7103415727615356,0.619202733039856,4.1328125,0,"['F2', 'B2', 'A1']",6.1,180,450.0,0.0528950279614436,[17800|0|0]
117,11700,0.6435965895652771,0.3934914767742157,0.0,-0.4978596568107605,0.7227306962013245,0.6100677251815796,4.1328125,0,"['F2', 'B2', 'A1']",6.1,180,450.0,0.053139918198047,[17900|0|0]
118,11800,0.6432542204856873,0.3937048017978668,0.0,-0.4966368079185486,0.7372531294822693,0.6010649800300598,4.1328125,0,"['F2', 'B2', 'A1']",6.1,180,450.0,0.0535433090164538,[18000|0|0]
119,11900,0.6437873244285583,0.3934343159198761,0.0,-0.4733001589775085,0.7176476120948792,0.6101449728012085,4.1328125,0,"['F2', 'B2', 'A1']",6.1,180,450.0,0.0541411069957889,[18100|0|0]
120,12000,0.6436002254486084,0.3935809433460235,0.0,-0.5560788512229919,0.6663885712623596,0.6203780174255371,4.1328125,0,"['F2', 'B2', 'A1']",6.1,180,450.0,0.0543788161256029,[18200|0|0]
121,12100,0.6434537172317505,0.3936185836791992,0.0,-0.5466752648353577,0.6881399750709534,0.6204714179039001,4.1328125,0,"['F2', 'B2', 'A1']",6.1,180,450.0,0.0545300822893292,[18300|0|0]
122,12200,0.6432851552963257,0.39369997382164,0.0,-0.5445049405097961,0.697723925113678,0.6079080104827881,4.1328125,0,"['F2', 'B2', 'A1']",6.1,180,450.0,0.0547172653050135,[18400|0|0]
123,12300,0.6435354948043823,0.3937450349330902,0.0,-0.5418571829795837,0.6987786293029785,0.6167944073677063,4.1328125,0,"['F2', 'B2', 'A1']",6.1,180,450.0,0.0549716279851755,[18500|0|0]
124,12400,0.6437045335769653,0.3934800326824188,0.0,-0.5898725986480713,0.6595093607902527,0.615286648273468,4.1328125,0,"['F2', 'B2', 'A1']",6.1,180,450.0,0.055285953134499,[18600|0|0]
125,12500,0.6437218189239502,0.3933357298374176,0.0,-0.5827561616897583,0.667076587677002,0.6139417886734009,4.1328125,0,"['F2', 'B2', 'A1']",6.1,180,450.0,0.0554312875567665,[18700|0|0]
126,12600,0.6434382796287537,0.393754780292511,0.0,-0.5470570921897888,0.708537220954895,0.6241064071655273,4.1328125,0,"['F2', 'B2', 'A1']",6.1,180,450.0,0.0559372498239708,[18800|0|0]
127,12700,0.643760085105896,0.3934269249439239,0.0,-0.5194653868675232,0.713612973690033,0.6195180416107178,4.1328125,0,"['F2', 'B2', 'A1']",6.1,180,450.0,0.0563966493175665,[18900|0|0]
128,12800,0.6437026262283325,0.393426239490509,0.0,-0.5022416114807129,0.7263543605804443,0.6343393921852112,4.1328125,0,"['F2', 'B2', 'A1']",6.1,180,450.0,0.0564541122835293,[19000|0|0]
129,12900,0.6436121463775635,0.3936313688755035,0.0,-0.4996504485607147,0.7336773872375488,0.6377885937690735,4.13671875,0,"['F2', 'B2', 'A1']",6.1,180,450.0,0.0566783101157744,[19100|0|0]
130,13000,0.6435925364494324,0.3933846354484558,0.0,-0.4827291965484619,0.7374297380447388,0.6382521390914917,4.1328125,0,"['F2', 'B2', 'A1']",6.1,180,450.0,0.0569258215969303,[19200|0|0]
131,13100,0.6435708999633789,0.3932909369468689,0.0,-0.4862849414348602,0.7295728325843811,0.6413904428482056,4.1328125,0,"['F2', 'B2', 'A1']",6.1,180,450.0,0.057021985762441,[19300|0|0]
132,13200,0.6433557868003845,0.3937335312366485,0.0,-0.4982281625270843,0.7357617616653442,0.6328179836273193,4.1328125,0,"['F2', 'B2', 'A1']",6.1,180,450.0,0.0575140867462228,[19400|0|0]
133,13300,0.6437538266181946,0.3933154046535492,0.0,-0.4918843805789947,0.7280287742614746,0.6403787732124329,4.1328125,0,"['F2', 'B2', 'A1']",6.1,180,450.0,0.0580913782982626,[19500|0|0]
134,13400,0.6432768106460571,0.3934788107872009,0.0,-0.4988753497600555,0.7438665628433228,0.6365522742271423,4.1328125,0,"['F2', 'B2', 'A1']",6.1,180,450.0,0.0585956062250866,[19600|0|0]
135,13500,0.6433722972869873,0.3933543562889099,0.0,-0.4972239732742309,0.7361956834793091,0.633606493473053,4.1328125,0,"['F2', 'B2', 'A1']",6.1,180,450.0,0.0587524712012317,[19700|0|0]
136,13600,0.6436249613761902,0.3934453427791595,0.0,-0.497092068195343,0.7279075980186462,0.6175466775894165,4.1328125,0,"['F2', 'B2', 'A1']",6.1,180,450.0,0.0590210185590304,[19800|0|0]
137,13700,0.6435294151306152,0.3934156000614166,0.0,-0.5003756284713745,0.7306221723556519,0.6181785464286804,4.1328125,0,"['F2', 'B2', 'A1']",6.1,180,450.0,0.0591210871070473,[19900|0|0]
138,13800,0.6433588862419128,0.3933936059474945,0.0,-0.5046336650848389,0.7365784645080566,0.6224585175514221,4.1328125,0,"['F2', 'B2', 'A1']",6.1,180,450.0,0.059293028500927,[20000|0|0]
139,13900,0.6437907814979553,0.3935085237026214,0.0,-0.5066699981689453,0.7265368700027466,0.6265133619308472,4.1328125,0,"['F2', 'B2', 'A1']",6.1,180,450.0,0.0597399508684981,[20100|0|0]
140,14000,0.643885612487793,0.3936555683612823,0.0,-0.5894133448600769,0.6770980954170227,0.6258140802383423,4.1328125,0,"['F2', 'B2', 'A1']",6.1,180,450.0,0.0599149224326858,[20200|0|0]
141,14100,0.6432586908340454,0.3939580023288727,0.0,-0.5827805399894714,0.6926717162132263,0.6244094371795654,4.13671875,0,"['F2', 'B2', 'A1']",6.1,180,450.0,0.0606109806663775,[20300|0|0]
142,14200,0.6437093019485474,0.3933326601982116,0.0,-0.5588007569313049,0.6946151852607727,0.6131662130355835,4.1328125,0,"['F2', 'B2', 'A1']",6.1,180,450.0,0.0613817615411353,[20400|0|0]
143,14300,0.6437545418739319,0.3935978412628174,0.0,-0.5600773096084595,0.6954858303070068,0.6024129986763,4.1328125,0,"['F2', 'B2', 'A1']",6.1,180,450.0,0.0616507738974951,[20500|0|0]
144,14400,0.6436730623245239,0.3935305774211883,0.0,-0.5574405789375305,0.7044647336006165,0.5976574420928955,4.1328125,0,"['F2', 'B2', 'A1']",6.1,180,450.0,0.0617564306122009,[20600|0|0]
145,14500,0.6438040137290955,0.3933413028717041,0.0,-0.551185131072998,0.7030578255653381,0.6010541319847107,4.1328125,0,"['F2', 'B2', 'A1']",6.1,180,450.0,0.0619865895256536,[20700|0|0]
146,14600,0.6437629461288452,0.3932906091213226,0.0,-0.5509409308433533,0.6960409283638,0.6080420017242432,4.1328125,0,"['F2', 'B2', 'A1']",6.1,180,450.0,0.0620518306485598,[20800|0|0]
147,14700,0.6437402367591858,0.3939050734043121,0.0,-0.5682604908943176,0.6922118067741394,0.6283562779426575,4.1328125,0,"['F2', 'B2', 'A1']",6.1,180,450.0,0.0626667144347667,[20900|0|0]
148,14800,0.6436449289321899,0.3936800956726074,0.0,-0.5578439831733704,0.696902871131897,0.6127371191978455,4.1328125,0,"['F2', 'B2', 'A1']",6.1,180,450.0,0.0629110473258183,[21000|0|0]
149,14900,0.6436495780944824,0.3931958675384521,0.0,-0.5442992448806763,0.6907287836074829,0.6220222115516663,4.1328125,0,"['F2', 'B2', 'A1']",6.1,180,450.0,0.0633952977781852,[21100|0|0]
150,15000,0.6435478329658508,0.3936716020107269,0.0,-0.5565825700759888,0.6977567672729492,0.6211950778961182,4.1328125,0,"['F2', 'B2', 'A1']",6.1,180,450.0,0.0638817906962332,[21200|0|0]
151,15100,0.6437895894050598,0.3933616578578949,0.0,-0.552478551864624,0.6912272572517395,0.6156853437423706,4.1328125,0,"['F2', 'B2', 'A1']",6.1,180,450.0,0.0642748702731304,[21300|0|0]
152,15200,0.6436764597892761,0.3934982120990753,0.0,-0.5576593279838562,0.688620388507843,0.6236435174942017,4.1328125,0,"['F2', 'B2', 'A1']",6.1,180,450.0,0.0644521986993675,[21400|0|0]
153,15300,0.6437984704971313,0.3932362198829651,0.0,-0.5580757856369019,0.6829099059104919,0.6278825998306274,4.1328125,0,"['F2', 'B2', 'A1']",6.1,180,450.0,0.0647412082738347,[21500|0|0]
154,15400,0.6440002918243408,0.393534392118454,0.0,-0.569076418876648,0.6747779846191406,0.6141682267189026,4.1328125,0,"['F2', 'B2', 'A1']",6.1,180,450.0,0.0651012617839315,[21600|0|0]
155,15500,0.6439439654350281,0.3937149941921234,0.0,-0.5733808279037476,0.6737431883811951,0.6151613593101501,4.1328125,0,"['F2', 'B2', 'A1']",6.1,180,450.0,0.0652904436306999,[21700|0|0]
156,15600,0.6438204050064087,0.3933456540107727,0.0,-0.6235752105712891,0.6343278884887695,0.5997095704078674,4.1328125,0,"['F2', 'B2', 'A1']",6.1,180,450.0,0.065679903961261,[21800|0|0]
157,15700,0.6435618996620178,0.3936282396316528,0.0,-0.6201717257499695,0.6563594937324524,0.6130324006080627,4.1328125,0,"['F2', 'B2', 'A1']",6.1,180,450.0,0.0660628917498481,[21900|0|0]
158,15800,0.643795907497406,0.393673837184906,0.0,-0.608427882194519,0.6582962870597839,0.6064611673355103,4.1328125,0,"['F2', 'B2', 'A1']",6.1,180,450.0,0.066301300650449,[22000|0|0]
159,15900,0.6435423493385315,0.3938293159008026,0.0,-0.5996625423431396,0.6750195622444153,0.6164225339889526,4.1328125,0,"['F2', 'B2', 'A1']",6.1,180,450.0,0.0665987319383605,[22100|0|0]
160,16000,0.6435864567756653,0.3934918045997619,0.0,-0.5856078863143921,0.6768547296524048,0.6230137944221497,4.1328125,0,"['F2', 'B2', 'A1']",6.1,180,450.0,0.0669391131134286,[22200|0|0]
161,16100,0.643649160861969,0.39350625872612,0.0,-0.5685710906982422,0.6797299385070801,0.6397938132286072,4.1328125,0,"['F2', 'B2', 'A1']",6.1,180,450.0,0.0670034615726794,[22300|0|0]
162,16200,0.6434347629547119,0.3935904502868652,0.0,-0.5678192973136902,0.6902170181274414,0.6448434591293335,4.1328125,0,"['F2', 'B2', 'A1']",6.1,180,450.0,0.0672337975914366,[22400|0|0]
163,16300,0.6437591314315796,0.3931381106376648,0.0,-0.55491042137146,0.6839840412139893,0.6513437032699585,4.1328125,0,"['F2', 'B2', 'A1']",6.1,180,450.0,0.0677904178093808,[22500|0|0]
164,16400,0.6435539722442627,0.3936346173286438,0.0,-0.5387498736381531,0.7072983980178833,0.6627254486083984,4.1328125,0,"['F2', 'B2', 'A1']",6.1,180,450.0,0.068327641400009,[22600|0|0]
165,16500,0.6437863111495972,0.393603503704071,0.0,-0.5303359627723694,0.7018089294433594,0.6564114093780518,4.13671875,0,"['F2', 'B2', 'A1']",6.1,180,450.0,0.0685620543360131,[22700|0|0]
166,16600,0.6435117721557617,0.3934345841407776,0.0,-0.5161409974098206,0.7158240675926208,0.6439587473869324,4.1328125,0,"['F2', 'B2', 'A1']",6.1,180,450.0,0.0688843980624906,[22800|0|0]
167,16700,0.6433855891227722,0.3935089111328125,0.0,-0.5113674402236938,0.7197776436805725,0.6421912312507629,4.1328125,0,"['F2', 'B2', 'A1']",6.1,180,450.0,0.0690308448431291,[22900|0|0]
168,16800,0.6433156132698059,0.3934783637523651,0.0,-0.5089039206504822,0.7264589071273804,0.6284974813461304,4.1328125,0,"['F2', 'B2', 'A1']",6.1,180,450.0,0.0691071977242179,[23000|0|0]
169,16900,0.6434590220451355,0.393752783536911,0.0,-0.5147899985313416,0.7232982516288757,0.6279255151748657,4.1328125,0,"['F2', 'B2', 'A1']",6.1,180,450.0,0.069416830240262,[23100|0|0]
170,17000,0.6437773108482361,0.393631249666214,0.0,-0.5137067437171936,0.7204674482345581,0.6356640458106995,4.1328125,0,"['F2', 'B2', 'A1']",6.1,180,450.0,0.0697575328142261,[23200|0|0]
171,17100,0.6439239382743835,0.3936298489570617,0.0,-0.5930206775665283,0.66339510679245,0.6156318187713623,4.1328125,0,"['F2', 'B2', 'A1']",6.1,180,450.0,0.0699041669306,[23300|0|0]
172,17200,0.6438519358634949,0.3937313258647918,0.0,-0.5758600831031799,0.6757217049598694,0.6364157199859619,4.1328125,0,"['F2', 'B2', 'A1']",6.1,180,450.0,0.0700285932540861,[23400|0|0]
173,17300,0.6440877914428711,0.3933742940425873,0.0,-0.5524601936340332,0.686022162437439,0.6314358115196228,4.1328125,0,"['F2', 'B2', 'A1']",6.1,180,450.0,0.070456494617007,[23500|0|0]
174,17400,0.6437447667121887,0.3934914469718933,0.0,-0.5446878671646118,0.7022891640663147,0.6101488471031189,4.1328125,0,"['F2', 'B2', 'A1']",6.1,180,450.0,0.0708189732711436,[23600|0|0]
175,17500,0.6436266899108887,0.3935446441173553,0.0,-0.5358272194862366,0.7144743800163269,0.6073064208030701,4.1328125,0,"['F2', 'B2', 'A1']",6.1,180,450.0,0.0709484802875194,[23700|0|0]
176,17600,0.6438591480255127,0.3936182856559753,0.0,-0.5391124486923218,0.7103724479675293,0.6359333395957947,4.1328125,0,"['F2', 'B2', 'A1']",6.1,180,450.0,0.0711923241951014,[23800|0|0]
177,17700,0.644171953201294,0.3935039341449737,0.0,-0.535527765750885,0.6912184953689575,0.6429314017295837,4.1328125,0,"['F2', 'B2', 'A1']",6.1,180,450.0,0.0715253757617752,[23900|0|0]
178,17800,0.6438129544258118,0.3933626413345337,0.0,-0.5287851095199585,0.6981199383735657,0.6378307938575745,4.1328125,0,"['F2', 'B2', 'A1']",6.1,180,450.0,0.0719111785340304,[24000|0|0]
179,17900,0.6437183022499084,0.3934931457042694,0.0,-0.5340800881385803,0.7061483860015869,0.6416551470756531,4.1328125,0,"['F2', 'B2', 'A1']",6.1,180,450.0,0.07207239399521,[24100|0|0]
180,18000,0.6437768936157227,0.3937704563140869,0.0,-0.5432794690132141,0.7021527886390686,0.6401020884513855,4.1328125,0,"['F2', 'B2', 'A1']",6.1,180,450.0,0.0723558267429039,[24200|0|0]
181,18100,0.6436947584152222,0.39351686835289,0.0,-0.5980334281921387,0.6611894369125366,0.6402036547660828,4.1328125,0,"['F2', 'B2', 'A1']",6.1,180,450.0,0.0726223845138003,[24300|0|0]
182,18200,0.6436583399772644,0.3936194181442261,0.0,-0.5874964594841003,0.6814883351325989,0.6392225623130798,4.1328125,0,"['F2', 'B2', 'A1']",6.1,180,450.0,0.072731208970272,[24400|0|0]
183,18300,0.6435396075248718,0.3935407400131225,0.0,-0.5749260783195496,0.6926372051239014,0.6467668414115906,4.1328125,0,"['F2', 'B2', 'A1']",6.1,180,450.0,0.0728736436695734,[24500|0|0]
184,18400,0.6436043977737427,0.3936324417591095,0.0,-0.5726668238639832,0.6987998485565186,0.6417101621627808,4.1328125,0,"['F2', 'B2', 'A1']",6.1,180,450.0,0.0729859245075014,[24600|0|0]
185,18500,0.6436960101127625,0.3935592770576477,0.0,-0.5645483136177063,0.7015860080718994,0.6522176861763,4.1328125,0,"['F2', 'B2', 'A1']",6.1,180,450.0,0.0731031673930027,[24700|0|0]
186,18600,0.643571138381958,0.3935935199260711,0.0,-0.5657142400741577,0.7015159130096436,0.6357739567756653,4.1328125,0,"['F2', 'B2', 'A1']",6.1,180,450.0,0.0732326491414925,[24800|0|0]
187,18700,0.6434125900268555,0.393375813961029,0.0,-0.5597500205039978,0.7106707096099854,0.6290612816810608,4.1328125,0,"['F2', 'B2', 'A1']",6.1,180,450.0,0.0735019695234182,[24900|0|0]
188,18800,0.64349764585495,0.3936052322387695,0.0,-0.5665699243545532,0.7067363262176514,0.6210436224937439,4.1328125,0,"['F2', 'B2', 'A1']",6.1,180,450.0,0.0737466473525206,[25000|0|0]
189,18900,0.6438353061676025,0.3936004340648651,0.0,-0.5655936598777771,0.6963241100311279,0.6372328400611877,4.1328125,0,"['F2', 'B2', 'A1']",6.1,180,450.0,0.0740843417546262,[25100|0|0]
190,19000,0.6435863375663757,0.3932629525661468,0.0,-0.5593075752258301,0.7066500782966614,0.6230599284172058,4.1328125,0,"['F2', 'B2', 'A1']",6.1,180,450.0,0.0745037212085507,[25200|0|0]
191,19100,0.6436833739280701,0.3933700621128082,0.0,-0.5653849840164185,0.6998539566993713,0.6145346760749817,4.1328125,0,"['F2', 'B2', 'A1']",6.1,180,450.0,0.0746482497886893,[25300|0|0]
192,19200,0.6435416340827942,0.3936710357666015,0.0,-0.5726127624511719,0.7017649412155151,0.6084387898445129,4.1328125,0,"['F2', 'B2', 'A1']",6.1,180,450.0,0.0749809287991731,[25400|0|0]
193,19300,0.6437618136405945,0.3932841718196869,0.0,-0.5661250948905945,0.6961720585823059,0.5939747095108032,4.1328125,0,"['F2', 'B2', 'A1']",6.1,180,450.0,0.0754260610841127,[25500|0|0]
194,19400,0.6438035368919373,0.3933258056640625,0.0,-0.5424771904945374,0.7254071235656738,0.6036580801010132,4.1328125,0,"['F2', 'B2', 'A1']",6.1,180,450.0,0.0754850034856595,[25600|0|0]
195,19500,0.6440216898918152,0.3934243321418762,0.0,-0.5344345569610596,0.7234321236610413,0.5946032404899597,4.1328125,0,"['F2', 'B2', 'A1']",6.1,180,450.0,0.0757243739061089,[25700|0|0]
196,19600,0.6437628269195557,0.3935123383998871,0.0,-0.5274619460105896,0.7397385239601135,0.5898852944374084,4.1328125,0,"['F2', 'B2', 'A1']",6.1,180,450.0,0.0759977877679669,[25800|0|0]
197,19700,0.6437221169471741,0.3933510184288025,0.0,-0.5169057846069336,0.7379123568534851,0.5916916131973267,4.1328125,0,"['F2', 'B2', 'A1']",6.1,180,450.0,0.0761641651550182,[25900|0|0]
198,19800,0.6438925862312317,0.3937602639198303,0.0,-0.5212376117706299,0.7345122694969177,0.5827704668045044,4.1328125,0,"['F2', 'B2', 'A1']",6.1,180,450.0,0.0766074953352831,[26000|0|0]
199,19900,0.6437414288520813,0.3936015665531158,0.0,-0.5141891241073608,0.7317652702331543,0.5908754467964172,4.1328125,0,"['F2', 'B2', 'A1']",6.1,180,450.0,0.076826660586803,[26100|0|0]
200,20000,0.6437571048736572,0.3934965133666992,0.0,-0.5075428485870361,0.7307953834533691,0.5979009866714478,4.1328125,0,"['F2', 'B2', 'A1']",6.1,180,450.0,0.0769328769208986,[26200|0|0]
201,20100,0.6436198949813843,0.3935989737510681,0.0,-0.50724196434021,0.7326444387435913,0.5846412777900696,4.1328125,0,"['F2', 'B2', 'A1']",6.1,180,450.0,0.0771041214387746,[26300|0|0]
202,20200,0.6437365412712097,0.3938979804515838,0.0,-0.5965046882629395,0.6666744351387024,0.5950877666473389,4.1328125,0,"['F2', 'B2', 'A1']",6.1,180,450.0,0.0774250752732794,[26400|0|0]
203,20300,0.643701434135437,0.3934271931648254,0.0,-0.5670265555381775,0.6814191937446594,0.5806214809417725,4.1328125,0,"['F2', 'B2', 'A1']",6.1,180,450.0,0.0778971697345427,[26500|0|0]
204,20400,0.6435492634773254,0.3936478793621063,0.0,-0.5570456385612488,0.6959528923034668,0.6008012294769287,4.1328125,0,"['F2', 'B2', 'A1']",6.1,180,450.0,0.0781652337322381,[26600|0|0]
205,20500,0.6438734531402588,0.3934888839721679,0.0,-0.5441945195198059,0.6952539086341858,0.6036003828048706,4.1328125,0,"['F2', 'B2', 'A1']",6.1,180,450.0,0.0785263133239828,[26700|0|0]
206,20600,0.6438735723495483,0.3936052918434143,0.0,-0.5464692115783691,0.6931596994400024,0.603225827217102,4.1328125,0,"['F2', 'B2', 'A1']",6.1,180,450.0,0.0786427212562682,[26800|0|0]
207,20700,0.6438097357749939,0.3932812809944153,0.0,-0.5356283783912659,0.6903772950172424,0.5912113785743713,4.1328125,0,"['F2', 'B2', 'A1']",6.1,180,450.0,0.0789729607731646,[26900|0|0]
208,20800,0.6435932517051697,0.3935942947864532,0.0,-0.5455616116523743,0.6957246661186218,0.5964328646659851,4.1328125,0,"['F2', 'B2', 'A1']",6.1,180,450.0,0.0793535432037806,[27000|0|0]
209,20900,0.6437329649925232,0.3935994207859039,0.0,-0.5453253984451294,0.6909511089324951,0.6211950182914734,4.1328125,0,"['F2', 'B2', 'A1']",6.1,180,450.0,0.0794933504944828,[27100|0|0]
210,21000,0.6436792612075806,0.3934527337551117,0.0,-0.5938755869865417,0.6543195247650146,0.6172800064086914,4.1328125,0,"['F2', 'B2', 'A1']",6.1,180,450.0,0.0796495592699078,[27200|0|0]
211,21100,0.6437767744064331,0.3933850526809692,0.0,-0.5802125930786133,0.6633293628692627,0.6347076892852783,4.1328125,0,"['F2', 'B2', 'A1']",6.1,180,450.0,0.0797682586875456,[27300|0|0]
212,21200,0.6439677476882935,0.3931592404842376,0.0,-0.5715863704681396,0.6735988855361938,0.6256386041641235,4.1328125,0,"['F2', 'B2', 'A1']",6.1,180,450.0,0.0800639983409187,[27400|0|0]
213,21300,0.6439773440361023,0.393421471118927,0.0,-0.5676608681678772,0.6783797740936279,0.6262691617012024,4.1328125,0,"['F2', 'B2', 'A1']",6.1,180,450.0,0.0803264045063586,[27500|0|0]
214,21400,0.6439332365989685,0.3934460878372192,0.0,-0.5645654797554016,0.6850587129592896,0.6147267818450928,4.1328125,0,"['F2', 'B2', 'A1']",6.1,180,450.0,0.0803769163745678,[27600|0|0]
215,21500,0.64344722032547,0.3935224413871765,0.0,-0.5656550526618958,0.7039629817008972,0.6279871463775635,4.1328125,0,"['F2', 'B2', 'A1']",6.1,180,450.0,0.0808688936938585,[27700|0|0]
216,21600,0.6436620354652405,0.3932305574417114,0.0,-0.5540693402290344,0.6957946419715881,0.6326399445533752,4.1328125,0,"['F2', 'B2', 'A1']",6.1,180,450.0,0.0812313047614253,[27800|0|0]
217,21700,0.6437547206878662,0.3935184776782989,0.0,-0.5642367005348206,0.69474858045578,0.6033344864845276,4.1328125,0,"['F2', 'B2', 'A1']",6.1,180,450.0,0.0815337756081689,[27900|0|0]
218,21800,0.6467980146408081,0.3982301354408264,0.0,-0.6462185382843018,0.611182451248169,0.6384734511375427,4.1328125,0,"['F2', 'B2', 'A1']",6.1,180,450.0,0.0871428180358207,[28000|0|0]
219,21900,0.643832266330719,0.3937195241451263,0.0,-0.5679221749305725,0.6945468783378601,0.6270800232887268,4.1328125,0,"['F2', 'B2', 'A1']",6.1,180,450.0,0.0925410841741001,[28100|0|0]
220,22000,0.6437216997146606,0.3933571279048919,0.0,-0.5536664724349976,0.696652889251709,0.6028730869293213,4.1328125,0,"['F2', 'B2', 'A1']",6.1,180,450.0,0.0929199720355085,[28200|0|0]
221,22100,0.643611490726471,0.3932824432849884,0.0,-0.5573352575302124,0.6999602317810059,0.6195914149284363,4.1328125,0,"['F2', 'B2', 'A1']",6.1,180,450.0,0.0930531028491015,[28300|0|0]
222,22200,0.6438176035881042,0.3932410180568695,0.0,-0.5636544227600098,0.6908835768699646,0.6234017610549927,4.1328125,0,"['F2', 'B2', 'A1']",6.1,180,450.0,0.0932633373877848,[28400|0|0]
223,22300,0.6468950510025024,0.3980607986450195,0.0,-0.6489133238792419,0.6108405590057373,0.6587761640548706,4.1328125,0,"['F2', 'B2', 'A1']",6.1,180,450.0,0.0989818133653765,[28500|0|0]
224,22400,0.6471898555755615,0.3981051445007324,0.0,-0.666535496711731,0.5941328406333923,0.6354305744171143,4.1328125,0,"['F2', 'B2', 'A1']",6.1,180,450.0,0.0992799346346872,[28600|0|0]
225,22500,0.6467999219894409,0.3981445431709289,0.0,-0.6569697260856628,0.6240488886833191,0.6327758431434631,4.1328125,0,"['F2', 'B2', 'A1']",6.1,180,450.0,0.0996718535763042,[28700|0|0]
226,22600,0.6467585563659668,0.3982994854450226,0.0,-0.6547757387161255,0.6290021538734436,0.6309199333190918,4.1328125,0,"['F2', 'B2', 'A1']",6.1,180,450.0,0.0998322225979596,[28800|0|0]
227,22700,0.6469927430152893,0.3984282612800598,0.0,-0.6477503776550293,0.631741464138031,0.6337268352508545,4.1328125,0,"['F2', 'B2', 'A1']",6.1,180,450.0,0.100099480156151,[28900|0|0]
228,22800,0.6468115448951721,0.398414671421051,0.0,-0.6375423073768616,0.6419239044189453,0.6279304027557373,4.1328125,0,"['F2', 'B2', 'A1']",6.1,180,450.0,0.1002811871813369,[29000|0|0]
229,22900,0.6467423439025879,0.3981437683105469,0.0,-0.6323886513710022,0.6420548558235168,0.6363381147384644,4.1328125,0,"['F2', 'B2', 'A1']",6.1,180,450.0,0.100560789171057,[29100|0|0]
230,23000,0.6466716527938843,0.3984825313091278,0.0,-0.6400070190429688,0.6432360410690308,0.6430869698524475,4.1328125,0,"['F2', 'B2', 'A1']",6.1,180,450.0,0.1009068492844149,[29200|0|0]
231,23100,0.6468122005462646,0.3980033993721008,0.0,-0.6298547983169556,0.6395425796508789,0.6361380815505981,4.1328125,0,"['F2', 'B2', 'A1']",6.1,180,450.0,0.1014061699066392,[29300|0|0]
232,23200,0.6464455127716064,0.3979960680007934,0.0,-0.6428825855255127,0.636447012424469,0.63277667760849,4.1328125,0,"['F2', 'B2', 'A1']",6.1,180,450.0,0.1017729309638536,[29400|0|0]
233,23300,0.646613359451294,0.3979793488979339,0.0,-0.6377983093261719,0.6234768629074097,0.6377453804016113,4.1328125,0,"['F2', 'B2', 'A1']",6.1,180,450.0,0.1019416082779256,[29500|0|0]
234,23400,0.6465556621551514,0.398112028837204,0.0,-0.6404919624328613,0.6245432496070862,0.6363770365715027,4.1328125,0,"['F2', 'B2', 'A1']",6.1,180,450.0,0.1020862904961381,[29600|0|0]
235,23501,0.6465301513671875,0.3981377780437469,0.0,-0.6386748552322388,0.6230783462524414,0.6221147775650024,4.1328125,0,"['F2', 'B2', 'A1']",6.1,180,450.0,0.102122537177919,[29700|0|0]
236,23601,0.6463891863822937,0.398300439119339,0.0,-0.641700267791748,0.6229016780853271,0.6205899119377136,4.1328125,0,"['F2', 'B2', 'A1']",6.1,180,450.0,0.1023377806504771,[29800|0|0]
237,23701,0.6467598080635071,0.3980900943279266,0.0,-0.6288217306137085,0.609056830406189,0.6393827199935913,4.1328125,0,"['F2', 'B2', 'A1']",6.1,180,450.0,0.1027639324565976,[29900|0|0]
238,23801,0.6469593048095703,0.3983469307422638,0.0,-0.6349212527275085,0.6042975783348083,0.6270795464515686,4.1328125,0,"['F2', 'B2', 'A1']",6.1,180,450.0,0.1030891460716561,[30000|0|0]
239,23901,0.6466640830039978,0.3980953395366668,0.0,-0.6249810457229614,0.6081413626670837,0.6341882348060608,4.1328125,0,"['F2', 'B2', 'A1']",6.1,180,450.0,0.1034770301383812,[30100|0|0]
240,24001,0.646632730960846,0.3983710706233978,0.0,-0.632426381111145,0.6062952280044556,0.630533754825592,4.1328125,0,"['F2', 'B2', 'A1']",6.1,180,450.0,0.1037545379451177,[30200|0|0]
241,24101,0.6466050744056702,0.3982085883617401,0.0,-0.6255399584770203,0.6114388108253479,0.6318751573562622,4.1328125,0,"['F2', 'B2', 'A1']",6.1,180,450.0,0.103919357150302,[30300|0|0]
242,24201,0.6468907594680786,0.3982774913311004,0.0,-0.62098228931427,0.6104315519332886,0.6448090076446533,4.1328125,0,"['F2', 'B2', 'A1']",6.1,180,450.0,0.1042132339511387,[30400|0|0]
243,24301,0.6469374895095825,0.397791177034378,0.0,-0.6135690212249756,0.6100820899009705,0.652032196521759,4.1328125,0,"['F2', 'B2', 'A1']",6.1,180,450.0,0.1047017882387829,[30500|0|0]
244,24401,0.6466351747512817,0.3979891538619995,0.0,-0.6209205985069275,0.6137898564338684,0.6506533026695251,4.1328125,0,"['F2', 'B2', 'A1']",6.1,180,450.0,0.1050631592909738,[30600|0|0]
245,24501,0.6469598412513733,0.3980421125888824,0.0,-0.621372401714325,0.6037442684173584,0.646303117275238,4.1328125,0,"['F2', 'B2', 'A1']",6.1,180,450.0,0.1053921166788445,[30700|0|0]
246,24602,0.6472527384757996,0.3978504836559295,0.0,-0.6203861236572266,0.59783935546875,0.6632388234138489,4.1328125,0,"['F2', 'B2', 'A1']",6.1,180,450.0,0.1057421315814148,[30800|0|0]
247,24702,0.6467242240905762,0.3985133469104767,0.0,-0.6464498043060303,0.6129336953163147,0.6476054191589355,4.1328125,0,"['F2', 'B2', 'A1']",6.1,180,450.0,0.1065899022754217,[30900|0|0]
248,24800,0.6469502449035645,0.3987625539302826,0.0,-0.7363885045051575,0.543117344379425,0.649928867816925,4.1328125,0,"['F2', 'B2', 'A1']",6.1,180,450.0,0.1069263388171713,[31000|0|0]
249,24900,0.6470930576324463,0.3982942104339599,0.0,-0.7164016366004944,0.5570669174194336,0.632495105266571,4.1328125,0,"['F2', 'B2', 'A1']",6.1,180,450.0,0.1074159724619287,[31100|0|0]
250,25002,0.6469658613204956,0.3981337547302246,0.0,-0.7022576928138733,0.5691323280334473,0.6393004655838013,4.1328125,0,"['F2', 'B2', 'A1']",6.1,180,450.0,0.1076207282546063,[31200|0|0]
251,25102,0.6468595266342163,0.3983288109302521,0.0,-0.7033582329750061,0.5786184668540955,0.6353925466537476,4.1328125,0,"['F2', 'B2', 'A1']",6.1,180,450.0,0.1078428858263325,[31300|0|0]
252,25202,0.6466301679611206,0.3984505534172058,0.0,-0.6933001279830933,0.5934091210365295,0.6559274196624756,4.1328125,0,"['F2', 'B2', 'A1']",6.1,180,450.0,0.1081025522162522,[31400|0|0]
253,25302,0.6465770602226257,0.3979412019252777,0.0,-0.675433874130249,0.5913122892379761,0.6466521620750427,4.1328125,0,"['F2', 'B2', 'A1']",6.1,180,450.0,0.1086146648739921,[31500|0|0]
254,25402,0.6467600464820862,0.3979922533035278,0.0,-0.6774469017982483,0.5880106091499329,0.6505458950996399,4.1328125,0,"['F2', 'B2', 'A1']",6.1,180,450.0,0.1088046391205955,[31600|0|0]
255,25500,0.6469445824623108,0.3981069922447204,0.0,-0.6765059232711792,0.5887634754180908,0.641291081905365,4.1328125,0,"['F2', 'B2', 'A1']",6.1,180,450.0,0.1090219374239103,[31700|0|0]
256,25600,0.6468402147293091,0.3984538912773132,0.0,-0.6924057602882385,0.5914695262908936,0.6547334790229797,4.1328125,0,"['F2', 'B2', 'A1']",6.1,180,450.0,0.1093841963955117,[31800|0|0]
257,25700,0.6471763253211975,0.3981970846652984,0.0,-0.6883072853088379,0.5854464173316956,0.6354365944862366,4.1328125,0,"['F2', 'B2', 'A1']",6.1,180,450.0,0.1098071857168356,[31900|0|0]
258,25800,0.6468085646629333,0.3980595767498016,0.0,-0.6957275867462158,0.5932340621948242,0.6323782801628113,4.1328125,0,"['F2', 'B2', 'A1']",6.1,180,450.0,0.1101998131847886,[32000|0|0]
259,25900,0.6465621590614319,0.398202896118164,0.0,-0.7049274444580078,0.5960589051246643,0.644598662853241,4.1328125,0,"['F2', 'B2', 'A1']",6.1,180,450.0,0.1104848678493691,[32100|0|0]
260,26000,0.6469059586524963,0.3982807397842407,0.0,-0.7014157772064209,0.5804470777511597,0.6399036049842834,4.1328125,0,"['F2', 'B2', 'A1']",6.1,180,450.0,0.1108373700410848,[32200|0|0]
261,26100,0.6468563675880432,0.3983385264873504,0.0,-0.7016194462776184,0.5750998258590698,0.6383649110794067,4.1328125,0,"['F2', 'B2', 'A1']",6.1,180,450.0,0.110913518427344,[32300|0|0]
262,26200,0.6466529369354248,0.398043692111969,0.0,-0.6938868761062622,0.5798541307449341,0.6430395841598511,4.1328125,0,"['F2', 'B2', 'A1']",6.1,180,450.0,0.1112717241494246,[32400|0|0]
263,26300,0.6467230916023254,0.3977335095405578,0.0,-0.6967912316322327,0.5740532279014587,0.6441605091094971,4.1328125,0,"['F2', 'B2', 'A1']",6.1,180,450.0,0.111589741295024,[32500|0|0]
264,26400,0.6466906070709229,0.3980131149291992,0.0,-0.7085817456245422,0.571279764175415,0.6375342011451721,4.1328125,0,"['F2', 'B2', 'A1']",6.1,180,450.0,0.1118712273837349,[32600|0|0]
265,26500,0.6468167901039124,0.3982628285884857,0.0,-0.7142015099525452,0.5666521787643433,0.6434758901596069,4.1328125,0,"['F2', 'B2', 'A1']",6.1,180,450.0,0.1121510113529838,[32700|0|0]
266,26600,0.6466052532196045,0.3982841670513153,0.0,-0.7148340344429016,0.5740379691123962,0.6287893652915955,4.1328125,0,"['F2', 'B2', 'A1']",6.1,180,450.0,0.1123636217558775,[32800|0|0]
267,26700,0.64691561460495,0.3982366025447845,0.0,-0.7073875665664673,0.560436487197876,0.6326512098312378,4.1328125,0,"['F2', 'B2', 'A1']",6.1,180,450.0,0.1126776067424534,[32900|0|0]
268,26800,0.6466543674468994,0.3980613648891449,0.0,-0.69980788230896,0.5627992749214172,0.6189615726470947,4.1328125,0,"['F2', 'B2', 'A1']",6.1,180,450.0,0.1129921831458017,[33000|0|0]
269,26900,0.6470017433166504,0.3978662490844726,0.0,-0.7016574144363403,0.5564146637916565,0.6158979535102844,4.1328125,0,"['F2', 'B2', 'A1']",6.1,180,450.0,0.1133906052487505,[33100|0|0]
270,27000,0.6469699740409851,0.3984497487545013,0.0,-0.7115032076835632,0.5642145276069641,0.645802915096283,4.1328125,0,"['F2', 'B2', 'A1']",6.1,180,450.0,0.1139749691352116,[33200|0|0]
271,27100,0.6468175053596497,0.3980703055858612,0.0,-0.6965065002441406,0.5695720314979553,0.6457241177558899,4.1328125,0,"['F2', 'B2', 'A1']",6.1,180,450.0,0.1143838992233878,[33300|0|0]
272,27200,0.6469237208366394,0.3980529606342315,0.0,-0.6930608749389648,0.5723249912261963,0.6358704566955566,4.1328125,0,"['F2', 'B2', 'A1']",6.1,180,450.0,0.114491521595129,[33400|0|0]
273,27300,0.6468496322631836,0.3983184397220611,0.0,-0.7007927298545837,0.5756073594093323,0.6313773393630981,4.1328125,0,"['F2', 'B2', 'A1']",6.1,180,450.0,0.1147671450026827,[33500|0|0]
274,27400,0.6471269726753235,0.3983641862869262,0.0,-0.6997705101966858,0.5698518753051758,0.6171324849128723,4.1328125,0,"['F2', 'B2', 'A1']",6.1,180,450.0,0.1150482329825091,[33600|0|0]
275,27500,0.6469678282737732,0.3981163799762726,0.0,-0.6987844109535217,0.5755640864372253,0.6309043169021606,4.1328125,0,"['F2', 'B2', 'A1']",6.1,180,450.0,0.1153427408909676,[33700|0|0]
276,27600,0.6464778780937195,0.397919625043869,0.0,-0.689318835735321,0.5911045670509338,0.6270995736122131,4.1328125,0,"['F2', 'B2', 'A1']",6.1,180,450.0,0.1158707216504274,[33800|0|0]
277,27700,0.64690762758255,0.3981249034404754,0.0,-0.6946502327919006,0.5841588377952576,0.6207321286201477,4.1328125,0,"['F2', 'B2', 'A1']",6.1,180,450.0,0.1163469819188347,[33900|0|0]
278,27800,0.646594226360321,0.3983272016048431,0.0,-0.6990867853164673,0.596422553062439,0.637240469455719,4.1328125,0,"['F2', 'B2', 'A1']",6.1,180,450.0,0.1167200031962455,[34000|0|0]
279,27900,0.6467138528823853,0.3981632888317108,0.0,-0.70171719789505,0.5980468988418579,0.6341438889503479,4.1328125,0,"['F2', 'B2', 'A1']",6.1,180,450.0,0.1169229265856739,[34100|0|0]
280,28000,0.6469309329986572,0.3981905579566955,0.0,-0.7072992324829102,0.5909934043884277,0.6255629062652588,4.1328125,0,"['F2', 'B2', 'A1']",6.1,180,450.0,0.1171417127416757,[34200|0|0]
281,28100,0.6467203497886658,0.3980607688426971,0.0,-0.7018405199050903,0.593941867351532,0.6344831585884094,4.1328125,0,"['F2', 'B2', 'A1']",6.1,180,450.0,0.1173890798826682,[34300|0|0]
282,28200,0.6466662287712097,0.3980142772197723,0.0,-0.6804735660552979,0.5987583994865417,0.6420267820358276,4.1328125,0,"['F2', 'B2', 'A1']",6.1,180,450.0,0.1174604280118144,[34400|0|0]
283,28300,0.646716296672821,0.3983190953731537,0.0,-0.68058842420578,0.6026461124420166,0.6473827362060547,4.1328125,0,"['F2', 'B2', 'A1']",6.1,180,450.0,0.1177693307495857,[34500|0|0]
284,28400,0.6469420194625854,0.3980622887611389,0.0,-0.6591120958328247,0.6019330620765686,0.6631357669830322,4.1328125,0,"['F2', 'B2', 'A1']",6.1,180,450.0,0.1181112377746577,[34600|0|0]
285,28500,0.6468231678009033,0.3980229794979095,0.0,-0.6759414672851562,0.6022728681564331,0.6627237200737,4.1328125,0,"['F2', 'B2', 'A1']",6.1,180,450.0,0.1182364213824514,[34700|0|0]
286,28600,0.647013783454895,0.3983776569366455,0.0,-0.6687678098678589,0.6122006177902222,0.6399301886558533,4.1328125,0,"['F2', 'B2', 'A1']",6.1,180,450.0,0.1186390755927796,[34800|0|0]
287,28700,0.6468062996864319,0.3982537686824798,0.0,-0.6511234641075134,0.6314457058906555,0.6437481045722961,4.1328125,0,"['F2', 'B2', 'A1']",6.1,180,450.0,0.1188807319887137,[34900|0|0]
288,28800,0.6468383073806763,0.3982479274272918,0.0,-0.644625186920166,0.6318681836128235,0.6556354761123657,4.1328125,0,"['F2', 'B2', 'A1']",6.1,180,450.0,0.1189132683184547,[35000|0|0]
289,28900,0.6472563147544861,0.3979175984859466,0.0,-0.6331340074539185,0.6206046938896179,0.6616161465644836,4.1328125,0,"['F2', 'B2', 'A1']",6.1,180,450.0,0.119446041604243,[35100|0|0]
290,29000,0.6467263698577881,0.3979225754737854,0.0,-0.6331343650817871,0.6328909397125244,0.6487772464752197,4.1328125,0,"['F2', 'B2', 'A1']",6.1,180,450.0,0.1199760098711649,[35200|0|0]
291,29100,0.6467916369438171,0.3981444835662842,0.0,-0.6316549777984619,0.6315858364105225,0.6765254735946655,4.1328125,0,"['F2', 'B2', 'A1']",6.1,180,450.0,0.1202073170133701,[35300|0|0]
292,29200,0.6467210054397583,0.3983311951160431,0.0,-0.6339797377586365,0.6289010643959045,0.6900753974914551,4.1328125,0,"['F2', 'B2', 'A1']",6.1,180,450.0,0.1204069416916516,[35400|0|0]
293,29300,0.6469171047210693,0.3981440365314483,0.0,-0.6314334273338318,0.6232993602752686,0.6728039979934692,4.1328125,0,"['F2', 'B2', 'A1']",6.1,180,450.0,0.1206780196581451,[35500|0|0]
294,29400,0.6468794345855713,0.3981586694717407,0.0,-0.6322829723358154,0.6307812929153442,0.6662489771842957,4.1328125,0,"['F2', 'B2', 'A1']",6.1,180,450.0,0.1207184320578516,[35600|0|0]
295,29500,0.6469783782958984,0.3978751003742218,0.0,-0.628227174282074,0.6269922852516174,0.6512925028800964,4.1328125,0,"['F2', 'B2', 'A1']",6.1,180,450.0,0.1210187673552794,[35700|0|0]
296,29600,0.6471536755561829,0.3979538381099701,0.0,-0.6289687156677246,0.6222887635231018,0.6475855112075806,4.1328125,0,"['F2', 'B2', 'A1']",6.1,180,450.0,0.1212109359283968,[35800|0|0]
297,29700,0.6467399597167969,0.3979009687900543,0.0,-0.6258736848831177,0.6349166035652161,0.6496101021766663,4.1328125,0,"['F2', 'B2', 'A1']",6.1,180,450.0,0.1216280162093347,[35900|0|0]
298,29800,0.6466338634490967,0.3984737694263458,0.0,-0.727036714553833,0.5681800246238708,0.6393144726753235,4.1328125,0,"['F2', 'B2', 'A1']",6.1,180,450.0,0.1222105597587418,[36000|0|0]
299,29900,0.6468433737754822,0.398608922958374,0.0,-0.7152289748191833,0.5727681517601013,0.647056519985199,4.1328125,0,"['F2', 'B2', 'A1']",6.1,180,450.0,0.1224598809453302,[36100|0|0]
300,30000,0.6471538543701172,0.3982776999473572,0.0,-0.6995558142662048,0.5732949376106262,0.6460973024368286,4.1328125,0,"['F2', 'B2', 'A1']",6.1,180,450.0,0.122913870904109,[36200|0|0]
301,30100,0.6464619040489197,0.3981518149375915,0.0,-0.6967917680740356,0.5900338888168335,0.6443266868591309,4.1328125,0,"['F2', 'B2', 'A1']",6.1,180,450.0,0.1236171790035143,[36300|0|0]
302,30200,0.6467205882072449,0.3983212411403656,0.0,-0.6885745525360107,0.5911346673965454,0.632213830947876,4.1328125,0,"['F2', 'B2', 'A1']",6.1,180,450.0,0.1239264082582022,[36400|0|0]
303,30300,0.6468492150306702,0.3976136744022369,0.0,-0.6529561877250671,0.6017286777496338,0.6292553544044495,4.1328125,0,"['F2', 'B2', 'A1']",6.1,180,450.0,0.1246455713472235,[36500|0|0]
304,30400,0.6467191576957703,0.3983320295810699,0.0,-0.6646059155464172,0.6047644019126892,0.6560428142547607,4.1328125,0,"['F2', 'B2', 'A1']",6.1,180,450.0,0.125375604958311,[36600|0|0]
305,30500,0.6465127468109131,0.3981181681156158,0.0,-0.6468012928962708,0.6119630932807922,0.6413247585296631,4.1328125,0,"['F2', 'B2', 'A1']",6.1,180,450.0,0.1256728290821531,[36700|0|0]
306,30600,0.647351861000061,0.3980366885662079,0.0,-0.6448264122009277,0.5828775763511658,0.6353888511657715,4.1328125,0,"['F2', 'B2', 'A1']",6.1,180,450.0,0.1265158898981095,[36800|0|0]
307,30700,0.6469817757606506,0.397825539112091,0.0,-0.6526557207107544,0.5898692607879639,0.6387423276901245,4.1328125,0,"['F2', 'B2', 'A1']",6.1,180,450.0,0.1269419734302993,[36900|0|0]
308,30800,0.6468304395675659,0.3982167243957519,0.0,-0.6429941058158875,0.5965715050697327,0.6602646708488464,4.1328125,0,"['F2', 'B2', 'A1']",6.1,180,450.0,0.1273614118280292,[37000|0|0]
309,30900,0.6463566422462463,0.3978325724601745,0.0,-0.6409697532653809,0.6133545637130737,0.6727690696716309,4.1328125,0,"['F2', 'B2', 'A1']",6.1,180,450.0,0.1279713762624821,[37100|0|0]
310,31000,0.6468027234077454,0.3976612091064453,0.0,-0.6344510912895203,0.6032978892326355,0.6619660258293152,4.1328125,0,"['F2', 'B2', 'A1']",6.1,180,450.0,0.1284492400523277,[37200|0|0]
311,31100,0.6469247937202454,0.3975699245929718,0.0,-0.6324192881584167,0.6014390587806702,0.6451551914215088,4.1328125,0,"['F2', 'B2', 'A1']",6.1,180,450.0,0.1286016671614453,[37300|0|0]
312,31200,0.6468825936317444,0.3980223834514618,0.0,-0.6436238884925842,0.605717658996582,0.6395691633224487,4.1328125,0,"['F2', 'B2', 'A1']",6.1,180,450.0,0.1290560897248107,[37400|0|0]
313,31300,0.6469130516052246,0.3978696465492248,0.0,-0.6461381316184998,0.5991796851158142,0.6647182703018188,4.1328125,0,"['F2', 'B2', 'A1']",6.1,180,450.0,0.1292118339043278,[37500|0|0]
314,31400,0.6468293070793152,0.3980743587017059,0.0,-0.6635017991065979,0.5901398658752441,0.6726738810539246,4.1328125,0,"['F2', 'B2', 'A1']",6.1,180,450.0,0.1294330130421171,[37600|0|0]
315,31500,0.6466830372810364,0.398376315832138,0.0,-0.6545916795730591,0.6060680747032166,0.6791861057281494,4.1328125,0,"['F2', 'B2', 'A1']",6.1,180,450.0,0.1297685319871968,[37700|0|0]
316,31600,0.6467826962471008,0.3980191946029663,0.0,-0.6398254632949829,0.6083115935325623,0.6939566135406494,4.1328125,0,"['F2', 'B2', 'A1']",6.1,180,450.0,0.1301392980614837,[37800|0|0]
317,31700,0.6467574238777161,0.3977344334125519,0.0,-0.6334602236747742,0.6112051606178284,0.6869246363639832,4.1328125,0,"['F2', 'B2', 'A1']",6.1,180,450.0,0.1304251785054118,[37900|0|0]
318,31800,0.6469832062721252,0.3981609344482422,0.0,-0.6411948800086975,0.6070085167884827,0.6724212765693665,4.1328125,0,"['F2', 'B2', 'A1']",6.1,180,450.0,0.1309077557770172,[38000|0|0]
319,31900,0.646854817867279,0.3984464406967163,0.0,-0.7420649528503418,0.5482339859008789,0.6579453349113464,4.1328125,0,"['F2', 'B2', 'A1']",6.1,180,450.0,0.1312208011418075,[38100|0|0]
