time.ms,stateEstimate.x,stateEstimate.y,stateEstimate.z,stabilizer.roll,stabilizer.pitch,stabilizer.yaw,pm.vbat,drone_id,node_name,wind_speed,global_wind_direction,relative_wind_direction,travel_dist,waiting_time
0,1.6921440362930298,1.1716125011444092,-0.04722236841917038,0.38241636753082275,0.9803068041801453,13.039606094360352,4.14453125,2,"['C1', 'F1', 'J1']",7.6,90,0,0.06936801831867656,[100|0|0]
100,1.6920092105865479,1.171492099761963,-0.04743778705596924,0.3854874074459076,0.9868443608283997,13.030110359191895,4.13671875,2,"['C1', 'F1', 'J1']",7.6,90,0,0.06964922936594108,[200|0|0]
200,1.6923606395721436,1.1717414855957031,-0.04731208086013794,0.3775026500225067,0.9792760610580444,13.041829109191895,4.13671875,2,"['C1', 'F1', 'J1']",7.6,90,0,0.07009811428845186,[300|0|0]
300,1.69206702709198,1.171770453453064,-0.047390393912792206,0.37173324823379517,0.9933477640151978,13.049969673156738,4.13671875,2,"['C1', 'F1', 'J1']",7.6,90,0,0.07040336886988172,[400|0|0]
400,1.6924026012420654,1.1717318296432495,-0.04740200564265251,0.3494910001754761,0.9517624974250793,13.043190956115723,4.13671875,2,"['C1', 'F1', 'J1']",7.6,90,0,0.07074135798384917,[500|0|0]
500,1.6922540664672852,1.171447992324829,-0.046875204890966415,0.33900216221809387,0.9424411058425903,13.022705078125,4.13671875,2,"['C1', 'F1', 'J1']",7.6,90,0,0.0713579171737281,[600|0|0]
600,1.6919125318527222,1.1716417074203491,-0.04737120866775513,0.33268439769744873,0.9675292372703552,13.022761344909668,4.14453125,2,"['C1', 'F1', 'J1']",7.6,90,0,0.07199052382700143,[700|0|0]
700,1.6921554803848267,1.1718199253082275,-0.04725855961441994,0.34742745757102966,0.9616057276725769,13.017450332641602,4.13671875,2,"['C1', 'F1', 'J1']",7.6,90,0,0.07231219977268107,[800|0|0]
800,1.6922107934951782,1.1715729236602783,-0.04716302454471588,0.36345937848091125,0.9694041013717651,12.986078262329102,4.13671875,2,"['C1', 'F1', 'J1']",7.6,90,0,0.07258274792700808,[900|0|0]
900,1.6920170783996582,1.1715275049209595,-0.047373026609420776,0.38147518038749695,0.986459493637085,13.000571250915527,4.14453125,2,"['C1', 'F1', 'J1']",7.6,90,0,0.07287203890041369,[1000|0|0]
1000,1.6924561262130737,1.171589732170105,-0.04747605696320534,0.3894084692001343,0.976962149143219,12.997596740722656,4.13671875,2,"['C1', 'F1', 'J1']",7.6,90,0,0.07332728659870787,[1100|0|0]
1100,1.692018747329712,1.1712937355041504,-0.0472499281167984,0.3985384702682495,1.004390835762024,12.981236457824707,4.13671875,2,"['C1', 'F1', 'J1']",7.6,90,0,0.07390178513573332,[1200|0|0]
1200,1.6936253309249878,1.173931360244751,-0.0446026548743248,0.3485690653324127,0.9412221908569336,13.08928394317627,4.13671875,2,"['C1', 'F1', 'J1']",7.6,90,0,0.07796949096840541,[1300|0|0]
1300,1.693689227104187,1.174451470375061,-0.04431619122624397,0.3436677157878876,0.9374490976333618,13.112897872924805,4.13671875,2,"['C1', 'F1', 'J1']",7.6,90,0,0.0785667000532653,[1400|0|0]
1400,1.6918784379959106,1.1715781688690186,-0.047148868441581726,0.39777231216430664,1.0122179985046387,13.02054214477539,4.13671875,2,"['C1', 'F1', 'J1']",7.6,90,0,0.08298924218936439,[1500|0|0]
1500,1.6934783458709717,1.1744580268859863,-0.044469740241765976,0.30320876836776733,0.9004185795783997,13.103161811828613,4.13671875,2,"['C1', 'F1', 'J1']",7.6,90,0,0.08723553649353406,[1600|0|0]
1600,1.6937134265899658,1.174417495727539,-0.04455313831567764,0.307227224111557,0.9028525352478027,13.109856605529785,4.13671875,2,"['C1', 'F1', 'J1']",7.6,90,0,0.08748824375100811,[1700|0|0]
1700,1.6935826539993286,1.1739141941070557,-0.04451214522123337,0.3106905221939087,0.9150416851043701,13.094914436340332,4.13671875,2,"['C1', 'F1', 'J1']",7.6,90,0,0.08800987046182275,[1800|0|0]
1800,1.693552851676941,1.1746467351913452,-0.044342465698719025,0.29659074544906616,0.9113229513168335,13.063255310058594,4.13671875,2,"['C1', 'F1', 'J1']",7.6,90,0,0.08876239671316054,[1900|0|0]
1900,1.693589448928833,1.1739764213562012,-0.04457087069749832,0.31162065267562866,0.9198903441429138,13.063885688781738,4.13671875,2,"['C1', 'F1', 'J1']",7.6,90,0,0.08947150096494509,[2000|0|0]
2000,1.6936323642730713,1.1742794513702393,-0.04442907124757767,0.30391746759414673,0.9120587110519409,13.106619834899902,4.13671875,2,"['C1', 'F1', 'J1']",7.6,90,0,0.08980880794705014,[2100|0|0]
2100,1.6936578750610352,1.1740422248840332,-0.044134821742773056,0.3038913607597351,0.9109556078910828,13.100495338439941,4.13671875,2,"['C1', 'F1', 'J1']",7.6,90,0,0.09018763505423488,[2200|0|0]
2200,1.6936054229736328,1.1745132207870483,-0.04433919116854668,0.29655736684799194,0.9041932225227356,13.12349796295166,4.13671875,2,"['C1', 'F1', 'J1']",7.6,90,0,0.09070373119287665,[2300|0|0]
2301,1.6934243440628052,1.1741266250610352,-0.044463589787483215,0.30388525128364563,0.9114103317260742,13.10023307800293,4.13671875,2,"['C1', 'F1', 'J1']",7.6,90,0,0.0911483893129099,[2400|0|0]
2400,1.69338059425354,1.174244999885559,-0.04430067539215088,0.3032890856266022,0.913637101650238,13.086503028869629,4.13671875,2,"['C1', 'F1', 'J1']",7.6,90,0,0.09135446634971485,[2500|0|0]
2500,1.6937696933746338,1.1742156744003296,-0.04446607828140259,0.3138331174850464,0.9054596424102783,13.089606285095215,4.13671875,2,"['C1', 'F1', 'J1']",7.6,90,0,0.09177827789497132,[2600|0|0]
2600,1.693545937538147,1.1740800142288208,-0.04461676627397537,0.322060763835907,0.9235484600067139,13.102972984313965,4.13671875,2,"['C1', 'F1', 'J1']",7.6,90,0,0.09208023356655463,[2700|0|0]
2701,1.6934727430343628,1.174069881439209,-0.04480845853686333,0.3213047683238983,0.9248420596122742,13.095427513122559,4.13671875,2,"['C1', 'F1', 'J1']",7.6,90,0,0.09228567463465115,[2800|0|0]
2801,1.6936078071594238,1.173904538154602,-0.044696956872940063,0.3247245252132416,0.9264435768127441,13.120287895202637,4.13671875,2,"['C1', 'F1', 'J1']",7.6,90,0,0.09252653422175694,[2900|0|0]
2900,1.6935588121414185,1.1741976737976074,-0.044972747564315796,0.31471917033195496,0.924471914768219,13.12402629852295,4.13671875,2,"['C1', 'F1', 'J1']",7.6,90,0,0.0929319839997061,[3000|0|0]
3001,1.6932700872421265,1.1739659309387207,-0.044802408665418625,0.31769034266471863,0.9274464845657349,13.110977172851562,4.13671875,2,"['C1', 'F1', 'J1']",7.6,90,0,0.0933395157906055,[3100|0|0]
3101,1.6936075687408447,1.1742219924926758,-0.04424198344349861,0.3174245059490204,0.9056113958358765,13.104536056518555,4.13671875,2,"['C1', 'F1', 'J1']",7.6,90,0,0.09404203818224516,[3200|0|0]
3201,1.6933252811431885,1.173795223236084,-0.04444121569395065,0.32926636934280396,0.9220924377441406,13.107457160949707,4.13671875,2,"['C1', 'F1', 'J1']",7.6,90,0,0.09459113906166773,[3300|0|0]
3301,1.6936379671096802,1.174136996269226,-0.04450805485248566,0.32380929589271545,0.9162563681602478,13.110105514526367,4.13671875,2,"['C1', 'F1', 'J1']",7.6,90,0,0.09505916554909943,[3400|0|0]
3401,1.6935206651687622,1.1741174459457397,-0.04438719153404236,0.3256246745586395,0.919451117515564,13.138960838317871,4.13671875,2,"['C1', 'F1', 'J1']",7.6,90,0,0.09522872351038898,[3500|0|0]
3501,1.693396806716919,1.174224853515625,-0.04452646151185036,0.2936979830265045,0.8773150444030762,13.141485214233398,4.13671875,2,"['C1', 'F1', 'J1']",7.6,90,0,0.09544383610620873,[3600|0|0]
3601,1.6934974193572998,1.174044132232666,-0.04477497190237045,0.30076417326927185,0.8854224681854248,13.179725646972656,4.14453125,2,"['C1', 'F1', 'J1']",7.6,90,0,0.09576716333938774,[3700|0|0]
3701,1.6933633089065552,1.173909068107605,-0.044390805065631866,0.312549889087677,0.8850654363632202,13.14663314819336,4.13671875,2,"['C1', 'F1', 'J1']",7.6,90,0,0.09619589646071984,[3800|0|0]
3802,1.6921641826629639,1.171730637550354,-0.04694985970854759,0.34385591745376587,0.9210382699966431,13.073531150817871,4.13671875,2,"['C1', 'F1', 'J1']",7.6,90,0,0.09976412068381216,[3900|0|0]
3902,1.6935741901397705,1.1743290424346924,-0.04452835023403168,0.31107616424560547,0.8760945200920105,13.143125534057617,4.14453125,2,"['C1', 'F1', 'J1']",7.6,90,0,0.10358557814959331,[4000|0|0]
4002,1.693589687347412,1.174155831336975,-0.04455125704407692,0.31922808289527893,0.8900414705276489,13.1319580078125,4.13671875,2,"['C1', 'F1', 'J1']",7.6,90,0,0.10376098330847856,[4100|0|0]
4100,1.6935875415802002,1.174149751663208,-0.044359371066093445,0.31946197152137756,0.8870600461959839,13.116862297058105,4.13671875,2,"['C1', 'F1', 'J1']",7.6,90,0,0.10395297756697791,[4200|0|0]
4200,1.6936713457107544,1.1745387315750122,-0.0442875511944294,0.32123827934265137,0.8980978727340698,13.120305061340332,4.13671875,2,"['C1', 'F1', 'J1']",7.6,90,0,0.10435731232686257,[4300|0|0]
4302,1.6937177181243896,1.1739296913146973,-0.04445530101656914,0.3401840627193451,0.9046552777290344,13.130456924438477,4.13671875,2,"['C1', 'F1', 'J1']",7.6,90,0,0.10499073196837898,[4400|0|0]
4402,1.6934051513671875,1.1741379499435425,-0.044478632509708405,0.33284610509872437,0.9173320531845093,13.128153800964355,4.13671875,2,"['C1', 'F1', 'J1']",7.6,90,0,0.10536704831504554,[4500|0|0]
4502,1.6938828229904175,1.1740177869796753,-0.04442889988422394,0.34296560287475586,0.9099311828613281,13.119194030761719,4.13671875,2,"['C1', 'F1', 'J1']",7.6,90,0,0.1058621065455216,[4600|0|0]
4600,1.693618893623352,1.174370527267456,-0.044087957590818405,0.32979848980903625,0.9269777536392212,13.136232376098633,4.13671875,2,"['C1', 'F1', 'J1']",7.6,90,0,0.10641917572332256,[4700|0|0]
4700,1.6934245824813843,1.1743669509887695,-0.04399563744664192,0.28715041279792786,0.8931688666343689,13.118732452392578,4.13671875,2,"['C1', 'F1', 'J1']",7.6,90,0,0.10663433291860738,[4800|0|0]
4800,1.6931893825531006,1.1742067337036133,-0.044693879783153534,0.2931731939315796,0.9083862900733948,13.105535507202148,4.13671875,2,"['C1', 'F1', 'J1']",7.6,90,0,0.1073883428291687,[4900|0|0]
4900,1.6934447288513184,1.1735981702804565,-0.044442471116781235,0.3128978908061981,0.9048119783401489,13.073460578918457,4.13671875,2,"['C1', 'F1', 'J1']",7.6,90,0,0.10809457047628036,[5000|0|0]
5000,1.694006085395813,1.1741780042648315,-0.044285014271736145,0.3049052953720093,0.8870370984077454,13.102564811706543,4.13671875,2,"['C1', 'F1', 'J1']",7.6,90,0,0.10891683641716245,[5100|0|0]
5100,1.6937450170516968,1.1743524074554443,-0.04426964744925499,0.30253076553344727,0.8945154547691345,13.1162748336792,4.14453125,2,"['C1', 'F1', 'J1']",7.6,90,0,0.10923117587130186,[5200|0|0]
5200,1.5913339853286743,1.152746558189392,-0.03674311935901642,-2.851663589477539,-5.493175983428955,12.116265296936035,4.13671875,2,"['C1', 'F1', 'J1']",7.6,90,0,0.21416677881984567,[5300|0|0]
5300,1.730584740638733,1.1850694417953491,-0.04842216521501541,1.0450732707977295,-3.1665053367614746,13.238825798034668,4.13671875,2,"['C1', 'F1', 'J1']",7.6,90,0,0.35759600098580663,[5400|0|0]
5400,1.7137541770935059,1.1806809902191162,-0.04654115438461304,2.9228200912475586,8.577129364013672,13.514595985412598,4.13671875,2,"['C1', 'F1', 'J1']",7.6,90,0,0.37509070241883935,[5500|0|0]
5500,1.7012596130371094,1.1777819395065308,-0.04637175798416138,3.9244279861450195,13.26008129119873,12.780895233154297,4.13671875,2,"['C1', 'F1', 'J1']",7.6,90,0,0.38791830239443975,[5600|0|0]
5600,1.691848635673523,1.1732945442199707,-0.04580970108509064,4.566185474395752,13.938614845275879,12.226457595825195,4.13671875,2,"['C1', 'F1', 'J1']",7.6,90,0,0.3983595245141713,[5700|0|0]
5700,1.6881459951400757,1.1731032133102417,-0.0447540357708931,4.231688499450684,12.86097240447998,12.026071548461914,4.13671875,2,"['C1', 'F1', 'J1']",7.6,90,0,0.4022144672754252,[5800|0|0]
5800,1.6862139701843262,1.1719785928726196,-0.04456356540322304,3.902047634124756,11.355718612670898,11.904691696166992,4.13671875,2,"['C1', 'F1', 'J1']",7.6,90,0,0.40445807386289023,[5900|0|0]
5900,1.685647964477539,1.1713546514511108,-0.04418104514479637,3.4696996212005615,9.847514152526855,11.879512786865234,4.13671875,2,"['C1', 'F1', 'J1']",7.6,90,0,0.4053832695749949,[6000|0|0]
6000,1.6855838298797607,1.1712725162506104,-0.044416382908821106,3.0238568782806396,8.457107543945312,11.943519592285156,4.13671875,2,"['C1', 'F1', 'J1']",7.6,90,0,0.40564064731484356,[6100|0|0]
6100,1.6860355138778687,1.171561598777771,-0.04425689950585365,2.6147398948669434,7.24722146987915,12.015751838684082,4.13671875,2,"['C1', 'F1', 'J1']",7.6,90,0,0.4062001310925158,[6200|0|0]
6200,1.686894416809082,1.1720819473266602,-0.04444465786218643,2.2550652027130127,6.196439743041992,12.093881607055664,4.13671875,2,"['C1', 'F1', 'J1']",7.6,90,0,0.4072217621697402,[6300|0|0]
6300,1.687209129333496,1.1721819639205933,-0.0443463958799839,1.9168314933776855,5.2566819190979,12.17230224609375,4.13671875,2,"['C1', 'F1', 'J1']",7.6,90,0,0.40756629476505074,[6400|0|0]
6400,1.6874840259552002,1.1710046529769897,-0.044353414326906204,1.7132928371429443,4.5046892166137695,12.2431640625,4.13671875,2,"['C1', 'F1', 'J1']",7.6,90,0,0.40877529371837956,[6500|0|0]
6500,1.68816077709198,1.1714222431182861,-0.044294603168964386,1.481462001800537,3.8707878589630127,12.333182334899902,4.13671875,2,"['C1', 'F1', 'J1']",7.6,90,0,0.409572684701235,[6600|0|0]
6600,1.6906181573867798,1.1727832555770874,-0.044652845710515976,1.2770649194717407,3.3165087699890137,12.437363624572754,4.13671875,2,"['C1', 'F1', 'J1']",7.6,90,0,0.4124045410791009,[6700|0|0]
6700,1.689659595489502,1.1717793941497803,-0.04452201724052429,1.1118377447128296,2.859266757965088,12.511056900024414,4.13671875,2,"['C1', 'F1', 'J1']",7.6,90,0,0.4137987056191421,[6800|0|0]
6800,1.6912027597427368,1.1728541851043701,-0.044523052871227264,0.962429940700531,2.475973606109619,12.61485481262207,4.13671875,2,"['C1', 'F1', 'J1']",7.6,90,0,0.4156792727094266,[6900|0|0]
6900,1.6915411949157715,1.1729453802108765,-0.04458802565932274,0.8376254439353943,2.1585075855255127,12.700932502746582,4.13671875,2,"['C1', 'F1', 'J1']",7.6,90,0,0.4160357504464462,[7000|0|0]
7000,1.6914570331573486,1.173593282699585,-0.043949056416749954,0.6758302450180054,1.8689930438995361,12.771515846252441,4.13671875,2,"['C1', 'F1', 'J1']",7.6,90,0,0.4169496117758663,[7100|0|0]
7100,1.6920279264450073,1.1732059717178345,-0.04441380500793457,0.6167712211608887,1.6525629758834839,12.82143783569336,4.13671875,2,"['C1', 'F1', 'J1']",7.6,90,0,0.4177814291810018,[7200|0|0]
7200,1.6919878721237183,1.1734758615493774,-0.04423374682664871,0.5455744862556458,1.4880282878875732,12.873053550720215,4.13671875,2,"['C1', 'F1', 'J1']",7.6,90,0,0.41810833255888613,[7300|0|0]
7300,1.6924035549163818,1.1737606525421143,-0.04411571845412254,0.4887858033180237,1.3442599773406982,12.980050086975098,2.9609375,2,"['A1', 'F1', 'E2']",7.6,90,0,0.41862585433657457,[7300|0|0]
7400,1.6924443244934082,1.1737996339797974,-0.04431174695491791,0.1889086216688156,1.1901891231536865,13.851158142089844,3.125,2,"['A1', 'F1', 'E2']",7.6,90,0,0.4188298368946986,[7300|0|0]
7500,1.6914790868759155,1.1780062913894653,-0.02591639757156372,-5.112065315246582,2.308681011199951,13.035234451293945,3.388671875,2,"['A1', 'F1', 'E2']",7.6,90,0,0.43772471792518425,[7300|0|0]
7600,1.6865946054458618,1.192416787147522,0.02141583524644375,-2.4028823375701904,3.181434392929077,10.643004417419434,3.3671875,2,"['A1', 'F1', 'E2']",7.6,90,0,0.4874425297271086,[7300|0|0]
7700,1.6818866729736328,1.2122478485107422,0.0854739248752594,1.1068202257156372,-1.7008217573165894,6.985236167907715,3.41015625,2,"['A1', 'F1', 'E2']",7.6,90,0,0.5546651038361701,[7300|0|0]
7800,1.6824342012405396,1.2337837219238281,0.16091632843017578,3.649696111679077,-1.9046201705932617,3.753458023071289,3.44140625,2,"['A1', 'F1', 'E2']",7.6,90,0,0.633123053624642,[7300|0|0]
7900,1.6868833303451538,1.249515414237976,0.24197646975517273,4.455395698547363,-0.9118520021438599,1.3674302101135254,3.44140625,2,"['A1', 'F1', 'E2']",7.6,90,0,0.7158154196839406,[7300|0|0]
8000,1.6946604251861572,1.2585103511810303,0.3264981508255005,4.852146148681641,0.3102230727672577,-0.21846406161785126,3.453125,2,"['A1', 'F1', 'E2']",7.6,90,0,0.8011694275905977,[7300|0|0]
8100,1.704026699066162,1.2598357200622559,0.41382700204849243,3.9265377521514893,0.8940631151199341,-0.9166319370269775,3.47265625,2,"['A1', 'F1', 'E2']",7.6,90,0,0.8890091221767815,[7300|0|0]
8200,1.710784912109375,1.2573484182357788,0.5025822520256042,3.041656494140625,1.4352569580078125,-1.2530181407928467,3.44140625,2,"['A1', 'F1', 'E2']",7.6,90,0,0.9780560452702441,[7300|0|0]
8300,1.71603262424469,1.2492648363113403,0.5959214568138123,2.020476818084717,2.343463897705078,-1.1011147499084473,3.45703125,2,"['A1', 'F1', 'E2']",7.6,90,0,1.071891485962337,[7300|0|0]
8400,1.7184032201766968,1.2416143417358398,0.6895928978919983,0.24537858366966248,1.9026387929916382,-0.7832951545715332,3.435546875,2,"['A1', 'F1', 'E2']",7.6,90,0,1.1659047226154098,[7300|0|0]
8500,1.7185767889022827,1.2343093156814575,0.7856661081314087,-0.47796037793159485,2.4058678150177,-0.1545814722776413,3.447265625,2,"['A1', 'F1', 'E2']",7.6,90,0,1.2622554115463336,[7300|0|0]
8600,1.7158634662628174,1.229295015335083,0.8836312294006348,-0.5612372159957886,1.56630539894104,-0.26012668013572693,3.435546875,2,"['A1', 'F1', 'E2']",7.6,90,0,1.3603862951304717,[7300|0|0]
8700,1.7111600637435913,1.2271766662597656,0.982430100440979,-0.13478700816631317,1.4582741260528564,-0.5324806571006775,3.435546875,2,"['A1', 'F1', 'E2']",7.6,90,0,1.4593197390051764,[7300|0|0]
8800,1.7052923440933228,1.2272928953170776,1.08292555809021,0.4311523735523224,0.7265373468399048,-0.5826477408409119,3.447265625,2,"['A1', 'F1', 'E2']",7.6,90,0,1.5599864199438875,[7300|0|0]
8900,1.6987954378128052,1.2269338369369507,1.1846421957015991,1.1456570625305176,0.22278960049152374,-3.7083916664123535,3.44140625,2,"['A1', 'F1', 'E2']",7.6,90,0,1.6619109659625224,[7300|0|0]
9000,1.6925609111785889,1.2243092060089111,1.286760926246643,1.789374828338623,-0.0595175176858902,-1.1625491380691528,3.435546875,2,"['A1', 'F1', 'E2']",7.6,90,0,1.764253494453822,[7300|0|0]
9100,1.6851141452789307,1.217651605606079,1.3873848915100098,1.631102204322815,0.37284645438194275,3.48866605758667,3.505859375,2,"['A1', 'F1', 'E2']",7.6,90,0,1.865372040481795,[7300|0|0]
9200,1.6782338619232178,1.2078176736831665,1.483864188194275,0.49008139967918396,-0.7662426829338074,3.440133810043335,3.599609375,2,"['A1', 'F1', 'E2']",7.6,90,0,1.9625949760721682,[7300|0|0]
9300,1.671061396598816,1.1989606618881226,1.572725772857666,-0.2600533962249756,-0.5733356475830078,0.6933327913284302,3.65234375,2,"['A1', 'F1', 'E2']",7.6,90,0,2.052184440551293,[7300|0|0]
9400,1.6646798849105835,1.1927073001861572,1.6486021280288696,-1.11821711063385,-0.7584025263786316,-3.738158941268921,3.6640625,2,"['A1', 'F1', 'E2']",7.6,90,0,2.128585026269396,[7300|0|0]
9500,1.657492756843567,1.1820343732833862,1.7009990215301514,-0.8780990242958069,-1.1194653511047363,5.180430889129639,3.6484375,2,"['A1', 'F1', 'E2']",7.6,90,0,2.1825387159218033,[7300|0|0]
9600,1.649443507194519,1.1723040342330933,1.7306221723556519,-1.5909500122070312,-1.0234644412994385,9.987664222717285,3.583984375,2,"['A1', 'F1', 'E2']",7.6,90,0,2.214741215557339,[7300|0|0]
9700,1.6455081701278687,1.1683310270309448,1.7673633098602295,-1.825175166130066,-1.6786843538284302,12.530319213867188,3.599609375,2,"['A1', 'F1', 'E2']",7.6,90,0,2.2519054840041517,[7300|0|0]
9800,1.6402056217193604,1.1675764322280884,1.7807023525238037,-1.9016773700714111,-1.5112096071243286,12.629009246826172,3.578125,2,"['A1', 'F1', 'E2']",7.6,90,0,2.2662796445751807,[7300|0|0]
9900,1.6347087621688843,1.1694148778915405,1.7845077514648438,-1.6257482767105103,-0.9421599507331848,7.164149284362793,3.57421875,2,"['A1', 'F1', 'E2']",7.6,90,0,2.2732133599194673,[7300|0|0]
10000,1.6330300569534302,1.1760436296463013,1.7893368005752563,-0.9003353118896484,-0.2595069110393524,1.046419620513916,3.57421875,2,"['A1', 'F1', 'E2']",7.6,90,0,2.281584627227194,[7300|0|0]
10100,1.6326192617416382,1.1843937635421753,1.7900110483169556,-0.12551306188106537,-0.3562198579311371,-2.6923348903656006,3.5625,2,"['A1', 'F1', 'E2']",7.6,90,0,2.2899720045766543,[7300|0|0]
10200,1.629543662071228,1.1903696060180664,1.7863078117370605,0.8928312659263611,0.16776731610298157,-4.264595985412598,3.552734375,2,"['A1', 'F1', 'E2']",7.6,90,0,2.2976455935541775,[7300|0|0]
10300,1.6231030225753784,1.193595051765442,1.7799259424209595,1.2450802326202393,-0.4465893507003784,-4.322346210479736,3.65234375,2,"['A1', 'F1', 'E2']",7.6,90,245.14841414028783,2.3072691892103006,[7300|0|0]
10400,1.621783971786499,1.1617783308029175,1.7894814014434814,14.716548919677734,12.603182792663574,-4.281557083129883,3.673828125,2,"['A1', 'F1', 'E2']",7.6,90,245.14841414028783,2.3405159999584293,[7300|0|0]
10500,1.595193862915039,1.1430838108062744,1.7563824653625488,14.169764518737793,14.725632667541504,-2.977281093597412,3.599609375,2,"['A1', 'F1', 'E2']",7.6,90,245.14841414028783,2.38690628490464,[7300|0|0]
10600,1.5429836511611938,1.1114245653152466,1.7040390968322754,13.529708862304688,17.63523292541504,0.4900066554546356,3.494140625,2,"['A1', 'F1', 'E2']",7.6,90,245.14841414028783,2.467330424723096,[7300|0|0]
10700,1.4571377038955688,1.065244436264038,1.645445704460144,7.782927513122559,13.345343589782715,1.4538202285766602,3.388671875,2,"['A1', 'F1', 'E2']",7.6,90,245.14841414028783,2.5810639580841643,[7300|0|0]
10800,1.3596222400665283,1.0180169343948364,1.5981783866882324,2.9660565853118896,6.463326454162598,-0.614976704120636,3.41015625,2,"['A1', 'F1', 'E2']",7.6,90,245.14841414028783,2.6992752179029704,[7300|0|0]
10900,1.2418787479400635,0.9620527029037476,1.5612223148345947,-0.788462221622467,1.7393591403961182,-1.8527531623840332,3.46875,2,"['A1', 'F1', 'E2']",7.6,90,245.14841414028783,2.834779005272085,[7300|0|0]
11000,1.1280689239501953,0.9103495478630066,1.5390523672103882,-3.4440219402313232,-1.6579233407974243,-3.7713396549224854,3.525390625,2,"['A1', 'F1', 'E2']",7.6,90,245.14841414028783,2.961733323258642,[7300|0|0]
11100,1.0196417570114136,0.8609970211982727,1.523371696472168,-5.199975490570068,-5.6840105056762695,-5.272060871124268,3.546875,2,"['A1', 'F1', 'E2']",7.6,90,245.14841414028783,3.0818915766304524,[7300|0|0]
11200,0.9294713735580444,0.8227691650390625,1.5158928632736206,-4.565804958343506,-8.762388229370117,-2.451961040496826,3.5625,2,"['A1', 'F1', 'E2']",7.6,90,245.14841414028783,3.180115809814879,[7300|0|0]
11300,0.8569494485855103,0.7907769083976746,1.506286859512329,-4.146208763122559,-9.540799140930176,-2.8249237537384033,3.537109375,2,"['A1', 'F1', 'E2']",7.6,90,245.14841414028783,3.259960718199774,[7300|0|0]
11400,0.8012899160385132,0.7665631175041199,1.497593879699707,-4.313595294952393,-8.087262153625488,-4.834530830383301,3.53125,2,"['A1', 'F1', 'E2']",7.6,90,245.14841414028783,3.321278408394445,[7300|0|0]
11500,0.7596110105514526,0.7438133358955383,1.4856535196304321,-4.103960990905762,-6.820576190948486,-3.7658369541168213,3.505859375,2,"['A1', 'F1', 'E2']",7.6,90,245.14841414028783,3.3702401886359907,[7300|0|0]
11600,0.730006992816925,0.7271179556846619,1.479006290435791,-3.8942978382110596,-5.046784400939941,-4.471343040466309,3.5,2,"['A1', 'F1', 'E2']",7.6,90,245.14841414028783,3.4048713775035138,[7300|0|0]
11700,0.7072188854217529,0.7167457342147827,1.4756159782409668,-3.5333003997802734,-3.3750498294830322,-3.5796496868133545,3.525390625,2,"['A1', 'F1', 'E2']",7.6,90,245.14841414028783,3.430137462155721,[7300|0|0]
11800,0.6899553537368774,0.7122264504432678,1.4760528802871704,-3.03749418258667,-2.1635522842407227,-3.305119514465332,3.53125,2,"['A1', 'F1', 'E2']",7.6,90,245.14841414028783,3.4479880737822217,[7300|0|0]
11900,0.6755061745643616,0.7096867561340332,1.4773768186569214,-2.519176959991455,-1.9161862134933472,-3.5615556240081787,3.53125,2,"['A1', 'F1', 'E2']",7.6,90,245.14841414028783,3.462718370410285,[7300|0|0]
12000,0.6626976132392883,0.7109297513961792,1.477303147315979,-2.448880195617676,-1.8517459630966187,-4.2380547523498535,3.541015625,2,"['A1', 'F1', 'E2']",7.6,90,245.14841414028783,3.4755873139530298,[7300|0|0]
12100,0.6515840888023376,0.71576988697052,1.4762482643127441,-1.4863911867141724,-1.5718625783920288,-5.104521751403809,3.541015625,2,"['A1', 'F1', 'E2']",7.6,90,245.14841414028783,3.4877548985917004,[7300|0|0]
12200,0.6436231732368469,0.7223545908927917,1.4733973741531372,-1.0393017530441284,-1.8445148468017578,-6.111443996429443,3.53125,2,"['A1', 'F1', 'E2']",7.6,90,245.14841414028783,3.498472271268201,[7300|0|0]
12300,0.6380491256713867,0.7295241951942444,1.4690563678741455,-0.4171798825263977,-1.6610547304153442,-7.067234516143799,3.537109375,2,"['A1', 'F1', 'E2']",7.6,90,245.14841414028783,3.5085379340688148,[7300|0|0]
12400,0.6333488821983337,0.7364271879196167,1.4656438827514648,-0.08297085762023926,-1.8097587823867798,-7.627292156219482,3.525390625,2,"['A1', 'F1', 'E2']",7.6,90,245.14841414028783,3.517559500007444,[7300|0|0]
12500,0.631097674369812,0.7419131398200989,1.4614644050598145,0.6599889993667603,-1.6331180334091187,-8.144883155822754,3.525390625,2,"['A1', 'F1', 'E2']",7.6,90,245.14841414028783,3.5248142666278537,[7300|0|0]
12600,0.6310204267501831,0.7458381056785583,1.4576255083084106,-0.07654320448637009,-2.077606678009033,-8.52308464050293,3.537109375,2,"['A1', 'F1', 'E2']",7.6,90,245.14841414028783,3.5303050272721315,[7300|0|0]
12700,0.6344993114471436,0.7487677931785583,1.45174241065979,-0.38277313113212585,-1.6711660623550415,-8.538749694824219,3.525390625,2,"['A1', 'F1', 'E2']",7.6,90,245.14841414028783,3.537741191977516,[7300|0|0]
12800,0.6403419971466064,0.7510435581207275,1.444739580154419,-0.6944220662117004,-1.5137360095977783,-8.319296836853027,3.515625,2,"['A1', 'F1', 'E2']",7.6,90,245.14841414028783,3.547140964173781,[7300|0|0]
12900,0.6486025452613831,0.7535938024520874,1.434301495552063,-0.07090293616056442,-0.5174866914749146,-8.107728004455566,3.509765625,2,"['A1', 'F1', 'E2']",7.6,90,245.14841414028783,3.5606943405602065,[7300|0|0]
13000,0.6578844785690308,0.7551242709159851,1.4236533641815186,-0.322256863117218,0.666509211063385,-7.246446132659912,3.48828125,2,"['A1', 'F1', 'E2']",7.6,90,245.14841414028783,3.5749027648687277,[7300|0|0]
13100,0.6669320464134216,0.7559729814529419,1.4170368909835815,0.5899330377578735,1.2930608987808228,-6.473543167114258,3.5,2,"['A1', 'F1', 'E2']",7.6,90,245.14841414028783,3.5861436060762806,[7300|0|0]
13200,0.6734625697135925,0.7563430070877075,1.4121100902557373,-0.04153156280517578,1.33059823513031,-5.65194845199585,3.509765625,2,"['A1', 'F1', 'E2']",7.6,90,245.14841414028783,3.594332502153063,[7300|0|0]
13300,0.6778775453567505,0.7575623989105225,1.4089641571044922,-0.3974456191062927,1.2685319185256958,-5.036334991455078,3.509765625,2,"['A1', 'F1', 'E2']",7.6,90,0,3.599889103788895,[7300|0|0]
13400,0.680602490901947,0.7593626379966736,1.3966251611709595,-0.9872059226036072,0.06281915307044983,-4.575326442718506,3.859375,2,"['A1', 'F1', 'E2']",7.6,90,0,3.6126529985565328,[7300|0|0]
13500,0.6812459826469421,0.7631052732467651,1.3466640710830688,-0.637813150882721,1.1900678873062134,-4.100890636444092,3.720703125,2,"['A1', 'F1', 'E2']",7.6,90,0,3.6627582070982747,[7300|0|0]
13600,0.6800394654273987,0.7674981355667114,1.2579586505889893,-0.5200804471969604,-0.09862413257360458,-3.8300390243530273,3.57421875,2,"['A1', 'F1', 'E2']",7.6,90,0,3.751580527199669,[7300|0|0]
13700,0.6770591139793396,0.7736669778823853,1.1433297395706177,-1.5879148244857788,-0.7290730476379395,-3.7054085731506348,3.47265625,2,"['A1', 'F1', 'E2']",7.6,90,0,3.8664139907524477,[7300|0|0]
13800,0.6759124398231506,0.7799219489097595,1.0202986001968384,-0.4790622889995575,-1.0943089723587036,-1.042671799659729,3.478515625,2,"['A1', 'F1', 'E2']",7.6,90,0,3.989609367207021,[7300|0|0]
13900,0.6797378063201904,0.7899531722068787,0.8958028554916382,-1.7245856523513794,-3.9620683193206787,-3.1791508197784424,3.494140625,2,"['A1', 'F1', 'E2']",7.6,90,0,4.114567157357838,[7300|0|0]
14000,0.689936637878418,0.8048334717750549,0.7730037569999695,-0.6297971606254578,-1.1726855039596558,-4.875051021575928,3.447265625,2,"['A1', 'F1', 'E2']",7.6,90,0,4.238684271692478,[7300|0|0]
14100,0.7050462961196899,0.8230665326118469,0.6535784006118774,0.770754337310791,-0.3596158027648926,-4.826509475708008,3.48828125,2,"['A1', 'F1', 'E2']",7.6,90,0,4.360434680431295,[7300|0|0]
14200,0.7225269675254822,0.839407205581665,0.5343676209449768,5.597757339477539,3.514293670654297,-2.50563645362854,3.478515625,2,"['A1', 'F1', 'E2']",7.6,90,0,4.482023337199491,[7300|0|0]
14300,0.7447560429573059,0.8428758382797241,0.4230469763278961,6.6408538818359375,3.28163480758667,-0.07280326634645462,3.373046875,2,"['A1', 'F1', 'E2']",7.6,90,0,4.5955946765651525,[7300|0|0]
14400,0.7532229423522949,0.8395878076553345,0.3139866590499878,3.8897881507873535,5.937534332275391,2.0013644695281982,3.3203125,2,"['A1', 'F1', 'E2']",7.6,90,0,4.705032569159582,[7300|0|0]
14500,0.7542536854743958,0.8279914259910583,0.21892358362674713,2.1728649139404297,4.350790977478027,3.8779759407043457,3.283203125,2,"['A1', 'F1', 'E2']",7.6,90,0,4.800805878635719,[7300|0|0]
14600,0.7460938692092896,0.8132473826408386,0.1451188325881958,-1.5361919403076172,5.404527187347412,4.760006904602051,3.26171875,2,"['A1', 'F1', 'E2']",7.6,90,0,4.876509978205399,[7300|0|0]
14700,0.7304429411888123,0.8010566234588623,0.09275439381599426,-0.522519052028656,1.407608985900879,3.8673715591430664,3.267578125,2,"['A1', 'F1', 'E2']",7.6,90,0,4.932506412067411,[7300|0|0]
14800,0.7123075127601624,0.7905988097190857,0.05837061256170273,-0.07038955390453339,-1.088443398475647,2.644570827484131,3.3359375,2,"['A1', 'F1', 'E2']",7.6,90,0,4.972761896735336,[7300|0|0]
14900,0.6966263055801392,0.7810952067375183,0.03970886021852493,0.19363446533679962,-2.6977527141571045,2.656808376312256,3.3984375,2,"['A1', 'F1', 'E2']",7.6,90,0,4.998924460233055,[7300|0|0]
15000,0.6858909726142883,0.7713286876678467,0.03265857696533203,0.5118621587753296,-3.2950875759124756,3.1178505420684814,3.431640625,2,"['A1', 'F1', 'E2']",7.6,90,0,5.015059476891745,[7300|0|0]
15100,0.6809191107749939,0.7603587508201599,0.03104272484779358,-0.8553754091262817,-3.128883123397827,3.6548006534576416,3.435546875,2,"['A1', 'F1', 'E2']",7.6,90,0,5.027211427461798,[7300|0|0]
15200,0.6804364919662476,0.7491284012794495,0.03347654268145561,-0.5692521333694458,-1.1865757703781128,4.525033473968506,3.435546875,2,"['A1', 'F1', 'E2']",7.6,90,0,5.0387126074433715,[7300|0|0]
15300,0.6815308928489685,0.738762378692627,0.03667990863323212,-1.1709266901016235,-1.037312388420105,5.03707218170166,3.435546875,2,"['A1', 'F1', 'E2']",7.6,90,0,5.049617362873165,[7300|0|0]
15400,0.6837376356124878,0.7296887636184692,0.03774290904402733,-1.8149499893188477,-0.7696948051452637,4.778406620025635,3.462890625,2,"['A1', 'F1', 'E2']",7.6,90,0,5.059015776250521,[7300|0|0]
15500,0.6859096884727478,0.7218957543373108,0.0361085869371891,-1.5742663145065308,-0.1950221210718155,4.396709442138672,3.453125,2,"['A1', 'F1', 'E2']",7.6,90,0,5.067269249218484,[7300|0|0]
15600,0.687417209148407,0.715225875377655,0.033939559012651443,-1.5854508876800537,-0.3925864100456238,3.9891273975372314,3.435546875,2,"['A1', 'F1', 'E2']",7.6,90,0,5.074443131435347,[7300|0|0]
15700,0.6883165240287781,0.7099938988685608,0.031070750206708908,-1.731937050819397,-0.219811350107193,3.833122491836548,3.44140625,2,"['A1', 'F1', 'E2']",7.6,90,0,5.080477401019217,[7300|0|0]
15800,0.6884340047836304,0.7066017389297485,0.02997811883687973,-2.5412471294403076,-0.3804571330547333,3.5714943408966064,3.462890625,2,"['A1', 'F1', 'E2']",7.6,90,0,5.084043125922877,[7300|0|0]
15900,0.6883534789085388,0.7056317329406738,0.030116109177470207,-1.5100178718566895,-0.42003390192985535,3.3516037464141846,3.46875,2,"['A1', 'F1', 'E2']",7.6,90,0,5.085026201387679,[7300|0|0]
16000,0.687703013420105,0.7063413858413696,0.03201774135231972,-1.8978404998779297,0.08148854970932007,3.3994927406311035,3.494140625,2,"['A1', 'F1', 'E2']",7.6,90,0,5.087157613482871,[7300|0|0]
16100,0.6872729063034058,0.7088814973831177,0.033513687551021576,-1.0327545404434204,-0.7999295592308044,4.0107808113098145,3.494140625,2,"['A1', 'F1', 'E2']",7.6,90,0,5.090136709621932,[7300|0|0]
16200,0.6873606443405151,0.7133932113647461,0.03197283670306206,-0.8379534482955933,-0.814541220664978,4.974037170410156,3.47265625,2,"['A1', 'F1', 'E2']",7.6,90,0,5.094905093242283,[7300|0|0]
16300,0.6885658502578735,0.7181112170219421,0.030076811090111732,0.04069189354777336,-1.2122442722320557,5.7722296714782715,3.478515625,2,"['G1', 'F1', 'A/B1']",7.6,90,0,5.100130704384488,[7300|100|0]
16400,0.6918349266052246,0.7225081324577332,0.02761095203459263,-0.3429359793663025,-0.8913071155548096,6.0140533447265625,3.47265625,2,"['G1', 'F1', 'A/B1']",7.6,90,0,5.106139047450259,[7300|200|0]
16500,0.6960513591766357,0.7271851301193237,0.025490937754511833,0.19301095604896545,-0.4262838363647461,6.339621543884277,3.46875,2,"['G1', 'F1', 'A/B1']",7.6,90,0,5.112783373699287,[7300|300|0]
16600,0.7002529501914978,0.7322068810462952,0.02435692586004734,-0.05311497673392296,0.7404729723930359,6.9797868728637695,3.462890625,2,"['G1', 'F1', 'A/B1']",7.6,90,0,5.1194284720736905,[7300|400|0]
16700,0.7034372091293335,0.7362386584281921,0.02402818202972412,0.5641778111457825,0.6346015334129333,7.644030570983887,3.47265625,2,"['G1', 'F1', 'A/B1']",7.6,90,0,5.12457655971342,[7300|500|0]
16800,0.7062420845031738,0.7388045191764832,0.02519526705145836,0.6571634411811829,0.5651805996894836,7.991860389709473,3.484375,2,"['G1', 'F1', 'A/B1']",7.6,90,0,5.128553122889122,[7300|600|0]
16900,0.7074718475341797,0.7398197650909424,0.027506880462169647,0.520559549331665,0.3905905485153198,8.197073936462402,3.484375,2,"['G1', 'F1', 'A/B1']",7.6,90,0,5.13136143162212,[7300|700|0]
17000,0.7069847583770752,0.7393810153007507,0.0295304823666811,0.5455846786499023,0.4784793257713318,7.98997688293457,3.484375,2,"['G1', 'F1', 'A/B1']",7.6,90,0,5.133488570990687,[7300|800|0]
17100,0.7063493728637695,0.7381356358528137,0.032218895852565765,0.001202455721795559,-0.3615502417087555,7.030982494354248,3.484375,2,"['G1', 'F1', 'A/B1']",7.6,90,0,5.136518794050289,[7300|900|0]
17200,0.7064597606658936,0.7360517978668213,0.03424631431698799,-0.15123902261257172,-0.1531704068183899,5.987043380737305,3.478515625,2,"['G1', 'F1', 'A/B1']",7.6,90,0,5.139428259954644,[7300|1000|0]
17300,0.7072622776031494,0.7331838011741638,0.03579695522785187,-0.18249380588531494,0.32562175393104553,5.130105495452881,3.478515625,2,"['G1', 'F1', 'A/B1']",7.6,90,0,5.142785926659086,[7300|1100|0]
17400,0.7081658244132996,0.7313486933708191,0.03661618009209633,-0.6958072781562805,-0.008204812183976173,4.276082992553711,3.46875,2,"['G1', 'F1', 'A/B1']",7.6,90,0,5.144989366439572,[7300|1200|0]
17500,0.7071530818939209,0.7287633419036865,0.037022583186626434,-0.6604434251785278,0.5331408977508545,3.7363758087158203,3.478515625,2,"['G1', 'F1', 'A/B1']",7.6,90,0,5.147795583304749,[7300|1300|0]
17600,0.7084363698959351,0.7309828400611877,0.03895740956068039,-1.049652099609375,-0.04931168258190155,3.044084072113037,3.47265625,2,"['G1', 'F1', 'A/B1']",7.6,90,0,5.15100752247992,[7300|1400|0]
17700,0.70790696144104,0.7341219782829285,0.038590867072343826,-1.8015811443328857,1.030696153640747,2.2656302452087402,3.462890625,2,"['G1', 'F1', 'A/B1']",7.6,90,0,5.154212021736131,[7300|1500|0]
17800,0.7064711451530457,0.7379608154296875,0.0373203419148922,-1.6782362461090088,-0.034706272184848785,1.886080026626587,3.46875,2,"['G1', 'F1', 'A/B1']",7.6,90,0,5.158502997525847,[7300|1600|0]
17900,0.7059211730957031,0.7481417059898376,0.03800063952803612,-1.068638563156128,0.3400297164916992,2.327942132949829,3.47265625,2,"['G1', 'F1', 'A/B1']",7.6,90,0,5.1687214028174795,[7300|1700|0]
18000,0.7055302858352661,0.761242687702179,0.0396597646176815,-0.9402421712875366,0.3805300295352936,3.5981431007385254,3.484375,2,"['G1', 'F1', 'A/B1']",7.6,90,0,5.181932807388552,[7300|1800|0]
18100,0.7058521509170532,0.7762766480445862,0.041551169008016586,-0.018457213416695595,0.08453342318534851,4.725498676300049,3.478515625,2,"['G1', 'F1', 'A/B1']",7.6,90,0,5.1970886963851015,[7300|1900|0]
18200,0.7062063813209534,0.7909397482872009,0.04329604282975197,0.6883097887039185,-0.45902785658836365,5.457666397094727,3.47265625,2,"['G1', 'F1', 'A/B1']",7.6,90,0,5.2118594977363415,[7300|2000|0]
18300,0.7062779664993286,0.8049827218055725,0.03312279284000397,0.7924904227256775,1.3800561428070068,6.842708110809326,4.0078125,2,"['G1', 'F1', 'A/B1']",7.6,90,0,5.229200352531574,[7300|2100|0]
18400,0.7048006057739258,0.8170589208602905,-0.028747200965881348,4.380199432373047,3.4258670806884766,10.485136985778809,4.01171875,2,"['G1', 'F1', 'A/B1']",7.6,90,0,5.2922551962143745,[7300|2200|0]
18500,0.7027515172958374,0.8278146982192993,-0.05193202197551727,-1.774845838546753,-0.7371407151222229,6.314004421234131,4.015625,2,"['G1', 'F1', 'A/B1']",7.6,90,0,5.317895427013578,[7300|2300|0]
18600,0.7022712230682373,0.8280868530273438,-0.04813547432422638,-1.608689785003662,-0.5582247972488403,6.3033127784729,4.015625,2,"['G1', 'F1', 'A/B1']",7.6,90,0,5.321731899984046,[7300|2400|0]
18700,0.7020606994628906,0.8277930617332458,-0.04706573113799095,-1.4661012887954712,-0.4313443899154663,6.279787540435791,4.015625,2,"['G1', 'F1', 'A/B1']",7.6,90,0,5.322861051877014,[7300|2500|0]
18800,0.7017735242843628,0.8283842206001282,-0.04695602133870125,-1.3442978858947754,-0.29759541153907776,6.248464107513428,4.0234375,2,"['G1', 'F1', 'A/B1']",7.6,90,0,5.323527366089016,[7300|2600|0]
18900,0.7021068930625916,0.8282178044319153,-0.046467989683151245,-1.2177331447601318,-0.20029978454113007,6.2137131690979,4.02734375,2,"['G1', 'F1', 'A/B1']",7.6,90,0,5.324141372587483,[7300|2700|0]
19000,0.7020246386528015,0.8271695375442505,-0.045929793268442154,-1.1052680015563965,-0.10523947328329086,6.220118045806885,4.02734375,2,"['G1', 'F1', 'A/B1']",7.6,90,0,5.325322594258681,[7300|2800|0]
19100,0.7021872997283936,0.8269956707954407,-0.045690830796957016,-1.0119465589523315,-0.02420116774737835,6.215871334075928,4.02734375,2,"['G1', 'F1', 'A/B1']",7.6,90,0,5.325659923970733,[7300|2900|0]
19200,0.7018141746520996,0.8268803954124451,-0.04578934609889984,-0.908961832523346,0.08275604993104935,6.193907737731934,4.02734375,2,"['G1', 'F1', 'A/B1']",7.6,90,0,5.326062684446947,[7300|3000|0]
19301,0.7008488774299622,0.8270042538642883,-0.0455252006649971,-0.8312308192253113,0.11240575462579727,7.811802864074707,4.03125,2,"['G1', 'F1', 'A/B1']",7.6,90,0,5.327071105218952,[7300|3100|0]
19401,0.700402021408081,0.8253480792045593,-0.043017350137233734,2.619511127471924,0.34132829308509827,5.6981425285339355,4.03125,2,"['G1', 'F1', 'A/B1']",7.6,90,0,5.330109510899144,[7300|3200|0]
19501,0.7031731605529785,0.819881021976471,-0.030372124165296555,22.30500602722168,0.6593749523162842,-0.7830297350883484,4.03125,2,"['G1', 'F1', 'A/B1']",7.6,90,0,5.344161900972613,[7300|3300|0]
19601,0.706941545009613,0.810930609703064,0.0072241006419062614,16.276348114013672,2.110565423965454,-8.816510200500488,4.0390625,2,"['G1', 'F1', 'A/B1']",7.6,90,0,5.382992130446963,[7300|3400|0]
19701,0.7296489477157593,0.7726654410362244,0.029429970309138298,9.929004669189453,-0.8887627720832825,-5.433445930480957,4.03125,2,"['G1', 'F1', 'A/B1']",7.6,90,0,5.432720893938919,[7300|3500|0]
19801,0.7505095601081848,0.7271906733512878,0.016076724976301193,10.115387916564941,1.368114709854126,4.719878673553467,4.0390625,2,"['G1', 'F1', 'A/B1']",7.6,90,0,5.484503408423105,[7300|3600|0]
19902,0.7460259199142456,0.7114233374595642,-0.008511967957019806,10.856586456298828,5.398103713989258,1.2431992292404175,4.04296875,2,"['G1', 'F1', 'A/B1']",7.6,90,0,5.514055324277755,[7300|3700|0]
20001,0.741310179233551,0.7075288891792297,-0.021608561277389526,6.719020843505859,3.3370115756988525,-0.8424797058105469,4.04296875,2,"['G1', 'F1', 'A/B1']",7.6,90,0,5.528509586423396,[7300|3800|0]
20101,0.7381764650344849,0.705918550491333,-0.023139730095863342,4.199319362640381,0.8213494420051575,0.19078809022903442,4.04296875,2,"['G1', 'F1', 'A/B1']",7.6,90,0,5.532351178973606,[7300|3900|0]
20201,0.7393887042999268,0.7072256803512573,-0.024462267756462097,1.069724440574646,-0.39621999859809875,-1.7746937274932861,4.04296875,2,"['G1', 'F1', 'A/B1']",7.6,90,0,5.534570912825014,[7300|4000|0]
20302,0.7404587864875793,0.7083328366279602,-0.024913236498832703,-1.2437818050384521,-1.5138092041015625,-2.534538984298706,4.04296875,2,"['G1', 'F1', 'A/B1']",7.6,90,0,5.536175357811908,[7300|4100|0]
20401,0.740230917930603,0.7088022828102112,-0.024872835725545883,-1.1459683179855347,-1.4594221115112305,-2.561319351196289,4.046875,2,"['G1', 'F1', 'A/B1']",7.6,90,0,5.5366987467875,[7300|4200|0]
20502,0.7403139472007751,0.7089594006538391,-0.02511582523584366,-1.0585262775421143,-1.414985179901123,-2.5948503017425537,4.046875,2,"['G1', 'F1', 'A/B1']",7.6,90,0,5.5369997846233385,[7300|4300|0]
20602,0.7404099106788635,0.7079445123672485,-0.02481044828891754,-0.9567330479621887,-1.3720080852508545,-2.598253011703491,4.046875,2,"['G1', 'F1', 'A/B1']",7.6,90,0,5.538063956744332,[7300|4400|0]
20700,0.7402090430259705,0.708109438419342,-0.025266947224736214,-0.887893557548523,-1.3266042470932007,-2.648761749267578,4.046875,2,"['G1', 'F1', 'A/B1']",7.6,90,0,5.538589256368396,[7300|4500|0]
20800,0.7403454184532166,0.7080616354942322,-0.02481934055685997,-0.8231338262557983,-1.3010352849960327,-2.671238660812378,4.046875,2,"['G1', 'F1', 'A/B1']",7.6,90,0,5.539059612728971,[7300|4600|0]
20902,0.7402256727218628,0.7079700231552124,-0.02514706179499626,-0.7654525637626648,-1.2674063444137573,-2.693997621536255,4.10546875,2,"['G1', 'F1', 'A/B1']",7.6,90,0,5.539420352345264,[7300|4700|0]
21002,0.7402570843696594,0.7078178524971008,-0.025011315941810608,-0.7510063648223877,-1.2704612016677856,-2.710728883743286,4.1484375,2,"['G1', 'F1', 'A/B1']",7.6,90,0,5.539626676210739,[7300|4800|0]
21102,0.7403326630592346,0.7077741622924805,-0.024980224668979645,-0.7062506079673767,-1.248099684715271,-2.730466842651367,4.1484375,2,"['G1', 'F1', 'A/B1']",7.6,90,0,5.539719345728618,[7300|4900|0]
21200,0.740378201007843,0.707796573638916,-0.025127917528152466,-0.6674083471298218,-1.2246607542037964,-2.7333571910858154,4.15234375,2,"['G1', 'F1', 'A/B1']",7.6,90,0,5.539875516000639,[7300|5000|0]
21300,0.7403796911239624,0.7075483798980713,-0.02527496963739395,-0.6342588067054749,-1.2046691179275513,-2.7556397914886475,4.15234375,2,"['G1', 'F1', 'A/B1']",7.6,90,0,5.540164006340638,[7300|5100|0]
21400,0.7402245998382568,0.7080204486846924,-0.024975018575787544,-0.6523641347885132,-1.2017312049865723,-2.752213954925537,4.15234375,2,"['G1', 'F1', 'A/B1']",7.6,90,0,5.540744413857442,[7300|5200|0]
21500,0.740119457244873,0.7076873183250427,-0.025072380900382996,-0.6147589683532715,-1.181610107421875,-2.7568938732147217,4.15234375,2,"['G1', 'F1', 'A/B1']",7.6,90,0,5.5411070572411045,[7300|5300|0]
21600,0.7402529716491699,0.7079662084579468,-0.02478552609682083,-0.5966784358024597,-1.1767619848251343,-2.7214250564575195,4.15234375,2,"['G1', 'F1', 'A/B1']",7.6,90,0,5.541528829076002,[7300|5400|0]
21700,0.7400282025337219,0.7077452540397644,-0.025056401267647743,-0.5740771889686584,-1.1662814617156982,-2.7192165851593018,4.16015625,2,"['G1', 'F1', 'A/B1']",7.6,90,0,5.541944419461291,[7300|5500|0]
21800,0.7399346828460693,0.7076148390769958,-0.024860728532075882,-0.5588796138763428,-1.1619726419448853,-2.7187063694000244,4.16015625,2,"['G1', 'F1', 'A/B1']",7.6,90,0,5.542197484302663,[7300|5600|0]
21900,0.7402163743972778,0.707528829574585,-0.02469002455472946,-0.5531714558601379,-1.166931390762329,-2.72609281539917,4.16015625,2,"['G1', 'F1', 'A/B1']",7.6,90,0,5.542537906999335,[7300|5700|0]
22000,0.7402485013008118,0.707585334777832,-0.024955183267593384,-0.5475561618804932,-1.1636648178100586,-2.7203660011291504,4.16015625,2,"['G1', 'F1', 'A/B1']",7.6,90,0,5.542810916374507,[7300|5800|0]
22100,0.7401099801063538,0.707687258720398,-0.025064997375011444,-0.5357460379600525,-1.1448919773101807,-2.7144293785095215,4.1640625,2,"['G1', 'F1', 'A/B1']",7.6,90,0,5.543014964774575,[7300|5900|0]
22200,0.7401877641677856,0.7076602578163147,-0.02484145201742649,-0.5252884030342102,-1.1488410234451294,-2.716036558151245,4.1640625,2,"['G1', 'F1', 'A/B1']",7.6,90,0,5.543253191422815,[7300|6000|0]
22300,0.7401646375656128,0.7072585225105286,-0.0249094907194376,-0.5083824992179871,-1.1535621881484985,-2.738175868988037,4.1640625,2,"['G1', 'F1', 'A/B1']",7.6,90,0,5.543661303368995,[7300|6100|0]
22400,0.7402422428131104,0.7076947093009949,-0.024994323030114174,-0.5550503134727478,-1.1733512878417969,-2.736037015914917,4.1640625,2,"['G1', 'F1', 'A/B1']",7.6,90,0,5.544112388739575,[7300|6200|0]
22500,0.7402953505516052,0.7075920104980469,-0.02482968382537365,-0.5417078137397766,-1.1744920015335083,-2.727994441986084,4.1640625,2,"['G1', 'F1', 'A/B1']",7.6,90,0,5.544313569115737,[7300|6300|0]
22600,0.7402024269104004,0.707867443561554,-0.024391790851950645,-0.5672991275787354,-1.1761198043823242,-2.713963031768799,4.171875,2,"['G1', 'F1', 'A/B1']",7.6,90,0,5.544839162524886,[7300|6400|0]
22700,0.7399756908416748,0.7078719139099121,-0.024856530129909515,-0.5595909357070923,-1.1605651378631592,-2.7177882194519043,4.171875,2,"['G1', 'F1', 'A/B1']",7.6,90,0,5.545356281297851,[7300|6500|0]
22800,0.7400038242340088,0.7077276110649109,-0.02484414540231228,-0.5488476753234863,-1.1582797765731812,-2.729353904724121,4.171875,2,"['G1', 'F1', 'A/B1']",7.6,90,0,5.545503821734061,[7300|6600|0]
22900,0.7403782606124878,0.707656741142273,-0.025102507323026657,-0.5409780144691467,-1.1677182912826538,-2.737506628036499,4.171875,2,"['G1', 'F1', 'A/B1']",7.6,90,0,5.545964230280396,[7300|6700|0]
23000,0.7399933934211731,0.7078034281730652,-0.024845685809850693,-0.5375179648399353,-1.1488949060440063,-2.7314767837524414,4.171875,2,"['G1', 'F1', 'A/B1']",7.6,90,0,5.546449613767531,[7300|6800|0]
23100,0.7401916980743408,0.707522988319397,-0.025033844634890556,-0.5336878299713135,-1.1513419151306152,-2.7551023960113525,4.171875,2,"['G1', 'F1', 'A/B1']",7.6,90,0,5.546841244959386,[7300|6900|0]
23200,0.7403334975242615,0.7074421048164368,-0.0245988667011261,-0.5313482284545898,-1.1545464992523193,-2.7619662284851074,4.17578125,2,"['G1', 'F1', 'A/B1']",7.6,90,0,5.547305846969617,[7300|7000|0]
23300,0.7400466203689575,0.7074853777885437,-0.024859528988599777,-0.48978227376937866,-1.1149555444717407,-2.7557950019836426,4.17578125,2,"['G1', 'F1', 'A/B1']",7.6,90,0,5.547695867328651,[7300|7100|0]
23400,0.7401743531227112,0.7076001763343811,-0.02503320761024952,-0.5000423192977905,-1.120603084564209,-2.756861686706543,4.17578125,2,"['G1', 'F1', 'A/B1']",7.6,90,0,5.547940118482437,[7300|7200|0]
23500,0.7405327558517456,0.7072623372077942,-0.025026241317391396,-0.49996110796928406,-1.1409056186676025,-2.7431235313415527,4.17578125,2,"['G1', 'F1', 'A/B1']",7.6,90,0,5.548432699765951,[7300|7300|0]
23600,0.7399914860725403,0.7076386213302612,-0.024977538734674454,-0.5144573450088501,-1.1340577602386475,-2.744757652282715,4.17578125,2,"['G1', 'F1', 'A/B1']",7.6,90,0,5.549093710095874,[7300|7400|0]
23700,0.7403088212013245,0.7076369524002075,-0.024754028767347336,-0.5225697755813599,-1.149398684501648,-2.7420637607574463,4.17578125,2,"['G1', 'F1', 'A/B1']",7.6,90,0,5.549481860936118,[7300|7500|0]
23800,0.7401195168495178,0.7072377800941467,-0.02472062222659588,-0.5190924406051636,-1.1562284231185913,-2.71600604057312,4.1796875,2,"['G1', 'F1', 'A/B1']",7.6,90,0,5.549924907959022,[7300|7600|0]
23900,0.7400844693183899,0.7073838710784912,-0.025210347026586533,-0.5268867611885071,-1.1568917036056519,-2.7407984733581543,4.1796875,2,"['G1', 'F1', 'A/B1']",7.6,90,0,5.5504371591521595,[7300|7700|0]
24000,0.7399468421936035,0.7076703906059265,-0.02505708858370781,-0.5311790108680725,-1.1569920778274536,-2.7363336086273193,4.1796875,2,"['G1', 'F1', 'A/B1']",7.6,90,0,5.5507900370565295,[7300|7800|0]
24100,0.7402922511100769,0.7075926661491394,-0.024839291349053383,-0.5371695160865784,-1.161318063735962,-2.73504376411438,4.1796875,2,"['G1', 'F1', 'A/B1']",7.6,90,0,5.551205710060446,[7300|7900|0]
24200,0.7402217388153076,0.7074362635612488,-0.025146903470158577,-0.5287872552871704,-1.1579124927520752,-2.7288873195648193,4.1796875,2,"['G1', 'F1', 'A/B1']",7.6,90,0,5.551557930119874,[7300|8000|0]
24300,0.7402632832527161,0.7077172994613647,-0.024828551337122917,-0.5332159996032715,-1.1638667583465576,-2.7298083305358887,4.1796875,2,"['A1', 'F1', 'E2']",7.6,90,0,5.551984609388227,[7300|8000|0]
24400,0.7404844760894775,0.7078602910041809,-0.02489510364830494,-0.5751254558563232,-1.296481728553772,-2.7132554054260254,2.908203125,2,"['A1', 'F1', 'E2']",7.6,90,0,5.552256274738383,[7300|8000|0]
24500,0.743497371673584,0.7107802629470825,-0.022233646363019943,-2.3437469005584717,-3.361666679382324,-2.648099660873413,3.330078125,2,"['A1', 'F1', 'E2']",7.6,90,0,5.557224889316861,[7300|8000|0]
24600,0.7545886635780334,0.7221089601516724,0.009148054756224155,-2.981208324432373,1.055214762687683,-1.4770758152008057,3.47265625,2,"['A1', 'F1', 'E2']",7.6,90,0,5.5923840602627255,[7300|8000|0]
24700,0.7672050595283508,0.7423737645149231,0.06650449335575104,-0.16021384298801422,5.44399881362915,-0.4675885736942291,3.521484375,2,"['A1', 'F1', 'E2']",7.6,90,0,5.654509713510618,[7300|8000|0]
24800,0.7747065424919128,0.765627920627594,0.13630543649196625,2.4193780422210693,5.648322105407715,-0.431526780128479,3.509765625,2,"['A1', 'F1', 'E2']",7.6,90,0,5.728463751168276,[7300|8000|0]
24900,0.7751599550247192,0.784755527973175,0.212824746966362,5.322837829589844,4.479050636291504,-0.4814390242099762,3.521484375,2,"['A1', 'F1', 'E2']",7.6,90,0,5.807338815803233,[7300|8000|0]
25000,0.7693732380867004,0.7947964668273926,0.2939503490924835,4.700418472290039,3.3876492977142334,-1.106231451034546,3.525390625,2,"['A1', 'F1', 'E2']",7.6,90,0,5.889288006563854,[7300|8000|0]
25100,0.7589839696884155,0.7976028323173523,0.3790336549282074,3.3473453521728516,1.6835606098175049,-1.414873719215393,3.525390625,2,"['A1', 'F1', 'E2']",7.6,90,0,5.975049195437669,[7300|8000|0]
25200,0.7473336458206177,0.795763373374939,0.46690282225608826,1.7672104835510254,-0.22781403362751007,-1.401719570159912,3.521484375,2,"['A1', 'F1', 'E2']",7.6,90,0,6.063706424259241,[7300|8000|0]
25300,0.7360764145851135,0.796762228012085,0.5538683533668518,0.5494071245193481,-0.5104817748069763,-1.7105056047439575,3.521484375,2,"['A1', 'F1', 'E2']",7.6,90,0,6.151403211925911,[7300|8000|0]
25400,0.7307712435722351,0.7959229946136475,0.6449629664421082,-0.4259696304798126,-0.869622528553009,-1.5058618783950806,3.525390625,2,"['A1', 'F1', 'E2']",7.6,90,0,6.242656034805554,[7300|8000|0]
25500,0.7284815907478333,0.7980728149414062,0.7365686893463135,-0.8082988262176514,-0.37821173667907715,-1.8211121559143066,3.509765625,2,"['A1', 'F1', 'E2']",7.6,90,0,6.334315582624098,[7300|8000|0]
25600,0.7286365628242493,0.8044260740280151,0.82790607213974,-1.228395938873291,-0.3429963290691376,-1.045426845550537,3.509765625,2,"['A1', 'F1', 'E2']",7.6,90,0,6.425873790409741,[7300|8000|0]
25700,0.7293763160705566,0.8175512552261353,0.9209508299827576,0.003947931807488203,0.4520401954650879,0.5019557476043701,3.505859375,2,"['A1', 'F1', 'E2']",7.6,90,0,6.519842639388616,[7300|8000|0]
25800,0.7314049005508423,0.833319365978241,1.016811728477478,1.4837313890457153,1.6274276971817017,1.819525957107544,3.505859375,2,"['A1', 'F1', 'E2']",7.6,90,0,6.617012904037321,[7300|8000|0]
25900,0.7324410676956177,0.8466654419898987,1.1140815019607544,3.935638427734375,1.6245990991592407,2.8656957149505615,3.5625,2,"['A1', 'F1', 'E2']",7.6,90,0,6.71519946228614,[7300|8000|0]
26000,0.7303751707077026,0.8533604741096497,1.209126353263855,4.752335548400879,2.3540894985198975,2.7865006923675537,3.611328125,2,"['A1', 'F1', 'E2']",7.6,90,0,6.810502217464979,[7300|8000|0]
26100,0.7254106402397156,0.851737380027771,1.2946299314498901,4.33890438079834,0.7786810994148254,1.3732120990753174,3.615234375,2,"['A1', 'F1', 'E2']",7.6,90,0,6.896165178421168,[7300|8000|0]
26200,0.7187162637710571,0.8424795269966125,1.3668237924575806,3.11549973487854,0.522013783454895,0.5098389387130737,3.611328125,2,"['A1', 'F1', 'E2']",7.6,90,0,6.96925742210166,[7300|8000|0]
26300,0.7100235223770142,0.8287114500999451,1.4238325357437134,2.25760817527771,0.7407793998718262,-0.12967440485954285,3.59375,2,"['A1', 'F1', 'E2']",7.6,90,0,7.028545873805516,[7300|8000|0]
26400,0.7001146078109741,0.8114882707595825,1.4648864269256592,-0.28192323446273804,-0.8482670783996582,-0.7568060159683228,3.57421875,2,"['A1', 'F1', 'E2']",7.6,90,0,7.074155592897465,[7300|8000|0]
26500,0.6897329092025757,0.7957437634468079,1.4947559833526611,-1.5419120788574219,-0.9831644892692566,-1.1418647766113281,3.55859375,2,"['A1', 'F1', 'E2']",7.6,90,0,7.109480648844532,[7300|8000|0]
26600,0.6790363192558289,0.7822104096412659,1.5141255855560303,-2.0328545570373535,-1.0392190217971802,-1.1971569061279297,3.541015625,2,"['A1', 'F1', 'E2']",7.6,90,0,7.1354180772296205,[7300|8000|0]
26700,0.6694132089614868,0.7721548080444336,1.5239304304122925,-2.380927562713623,-1.7292461395263672,-1.0620919466018677,3.525390625,2,"['A1', 'F1', 'E2']",7.6,90,0,7.152443186858244,[7300|8000|0]
26800,0.6615749597549438,0.7658495903015137,1.5304397344589233,-2.5011942386627197,-1.9523059129714966,-0.8266839385032654,3.509765625,2,"['A1', 'F1', 'E2']",7.6,90,0,7.164425046504434,[7300|8000|0]
26900,0.6564863920211792,0.7621675729751587,1.5311354398727417,-2.0672974586486816,-1.991828203201294,-0.6504904627799988,3.509765625,2,"['A1', 'F1', 'E2']",7.6,90,0,7.170744443563925,[7300|8000|0]
27000,0.6539402604103088,0.7609798908233643,1.528951644897461,-1.1848818063735962,-1.7402530908584595,-0.7170578241348267,3.48828125,2,"['A1', 'F1', 'E2']",7.6,90,0,7.174302861129027,[7300|8000|0]
27100,0.6538411974906921,0.7611724138259888,1.5256441831588745,-0.6969760060310364,-1.4339486360549927,-0.945115864276886,3.484375,2,"['A1', 'F1', 'E2']",7.6,90,0,7.177617402080772,[7300|8000|0]
27200,0.6568000912666321,0.7617084383964539,1.5233734846115112,-0.5806146860122681,-1.190983772277832,-1.1495672464370728,3.505859375,2,"['A1', 'F1', 'E2']",7.6,90,0,7.181385484698024,[7300|8000|0]
27300,0.6614027619361877,0.7619211077690125,1.5191346406936646,-0.23634043335914612,-0.44628390669822693,-1.1866527795791626,3.48828125,2,"['A1', 'F1', 'E2']",7.6,90,0,7.187646283633804,[7300|8000|0]
27400,0.6659282445907593,0.7622272372245789,1.5145114660263062,-4.421818256378174,1.276464581489563,-0.9624795913696289,3.37890625,2,"['A1', 'F1', 'E2']",7.6,90,-16.557071375636653,7.194122968936125,[7300|8000|0]
27500,0.6669864058494568,0.7653770446777344,1.500821590423584,-12.350336074829102,4.476383686065674,-1.3417619466781616,3.3984375,2,"['A1', 'F1', 'E2']",7.6,90,-16.557071375636653,7.208210328030695,[7300|8000|0]
27600,0.6657653450965881,0.7946328520774841,1.5036004781723022,-12.855854034423828,3.587141752243042,-0.7523040771484375,3.45703125,2,"['A1', 'F1', 'E2']",7.6,90,-16.557071375636653,7.237623173406371,[7300|8000|0]
27700,0.6502761244773865,0.8513864874839783,1.522983431816101,-8.55262565612793,3.0169994831085205,-2.5682883262634277,3.515625,2,"['A1', 'F1', 'E2']",7.6,90,-16.557071375636653,7.299563386347572,[7300|8000|0]
27800,0.6375613212585449,0.9131869077682495,1.5322223901748657,-2.3628337383270264,0.5168287754058838,-2.0033352375030518,3.541015625,2,"['A1', 'F1', 'E2']",7.6,90,-16.557071375636653,7.363331062483381,[7300|8000|0]
27900,0.6249467730522156,0.9744596481323242,1.5389362573623657,2.05635404586792,-0.639153778553009,-1.524703025817871,3.53125,2,"['A1', 'F1', 'E2']",7.6,90,-16.557071375636653,7.426248083636519,[7300|8000|0]
28000,0.6143397688865662,1.0303081274032593,1.5424377918243408,5.6535258293151855,-1.4848415851593018,-1.5883647203445435,3.509765625,2,"['A1', 'F1', 'E2']",7.6,90,-16.557071375636653,7.483202643751005,[7300|8000|0]
28100,0.6063501834869385,1.0751434564590454,1.5426254272460938,7.081148624420166,-0.8929105401039124,-0.771630585193634,3.484375,2,"['A1', 'F1', 'E2']",7.6,90,-16.557071375636653,7.52874466186011,[7300|8000|0]
28200,0.6011409759521484,1.1068222522735596,1.5424132347106934,6.473804950714111,-1.4538044929504395,-1.7218060493469238,3.478515625,2,"['A1', 'F1', 'E2']",7.6,90,-16.557071375636653,7.560849598755707,[7300|8000|0]
28300,0.5976998209953308,1.1306548118591309,1.5418095588684082,5.28078556060791,-1.1198043823242188,-1.2383476495742798,3.47265625,2,"['A1', 'F1', 'E2']",7.6,90,-16.557071375636653,7.584936874823358,[7300|8000|0]
28400,0.5956108570098877,1.1459733247756958,1.5400723218917847,4.213343143463135,-0.7570077776908875,-1.1584835052490234,3.478515625,2,"['A1', 'F1', 'E2']",7.6,90,-16.557071375636653,7.6004944646373485,[7300|8000|0]
28500,0.5953697562217712,1.15435791015625,1.5394362211227417,3.301913261413574,-0.7914400696754456,-1.6026341915130615,3.484375,2,"['A1', 'F1', 'E2']",7.6,90,-16.557071375636653,7.6089066002628725,[7300|8000|0]
28600,0.5958379507064819,1.1603929996490479,1.5385828018188477,2.347137928009033,-0.4733162224292755,-2.021986484527588,3.484375,2,"['A1', 'F1', 'E2']",7.6,90,-16.557071375636653,7.61501968751645,[7300|8000|0]
28700,0.5975385904312134,1.1625453233718872,1.5379711389541626,1.6243606805801392,-0.3352685272693634,-2.3149147033691406,3.48828125,2,"['A1', 'F1', 'E2']",7.6,90,-16.557071375636653,7.617830168674769,[7300|8000|0]
28800,0.5995627641677856,1.1628729104995728,1.5373495817184448,1.3081085681915283,0.17747686803340912,-2.8595213890075684,3.5,2,"['A1', 'F1', 'E2']",7.6,90,-16.557071375636653,7.619972813311503,[7300|8000|0]
28900,0.6008097529411316,1.1620241403579712,1.535956621170044,1.3194941282272339,0.617283284664154,-3.7328619956970215,3.494140625,2,"['A1', 'F1', 'E2']",7.6,90,-16.557071375636653,7.62202603781056,[7300|8000|0]
29000,0.6022394299507141,1.1588029861450195,1.532309889793396,0.5074288249015808,0.8678106069564819,-4.768360137939453,3.484375,2,"['A1', 'F1', 'E2']",7.6,90,-16.557071375636653,7.627097374966456,[7300|8000|0]
29100,0.6011197566986084,1.1558258533477783,1.5280234813690186,0.22296679019927979,0.9999282360076904,-5.541662693023682,3.478515625,2,"['A1', 'F1', 'E2']",7.6,90,-16.557071375636653,7.63243500412784,[7300|8000|0]
29200,0.5991675853729248,1.1536544561386108,1.5230520963668823,-0.622363805770874,0.5663110017776489,-6.054344177246094,3.46875,2,"['A1', 'F1', 'E2']",7.6,90,-16.557071375636653,7.638200470940187,[7300|8000|0]
29300,0.5975955128669739,1.1517447233200073,1.5175542831420898,-0.3820897936820984,0.26640522480010986,-6.7859954833984375,3.478515625,2,"['A1', 'F1', 'E2']",7.6,90,-16.557071375636653,7.644229106080674,[7300|8000|0]
29400,0.5962855219841003,1.1515899896621704,1.512592077255249,-0.41864123940467834,-0.6574982404708862,-7.376274108886719,3.47265625,2,"['A1', 'F1', 'E2']",7.6,90,-16.557071375636653,7.649363646554901,[7300|8000|0]
29500,0.5959286689758301,1.1527329683303833,1.5064470767974854,-0.34729257225990295,-0.14597724378108978,-7.438814163208008,3.46875,2,"['A1', 'F1', 'E2']",7.6,90,-16.557071375636653,7.655624219606262,[7300|8000|0]
29600,0.5972251892089844,1.1527841091156006,1.500585675239563,0.03063855692744255,-0.020913755521178246,-7.408377170562744,3.46875,2,"['A1', 'F1', 'E2']",7.6,90,-16.557071375636653,7.661627519392055,[7300|8000|0]
29700,0.5989722013473511,1.1545138359069824,1.4954594373703003,0.15340878069400787,-0.28734683990478516,-7.369200706481934,3.453125,2,"['A1', 'F1', 'E2']",7.6,90,-16.557071375636653,7.667312791670204,[7300|8000|0]
29800,0.6001725792884827,1.1555789709091187,1.4899672269821167,0.30310434103012085,0.39619389176368713,-7.149886608123779,3.447265625,2,"['A1', 'F1', 'E2']",7.6,90,-16.557071375636653,7.673034661532618,[7300|8000|0]
