time.ms,stateEstimate.x,stateEstimate.y,stateEstimate.z,stabilizer.roll,stabilizer.pitch,stabilizer.yaw,pm.vbat,drone_id,node_name,wind_speed,global_wind_direction,relative_wind_direction,travel_dist,waiting_time,curr_node_role
0,1.7041375637054443,1.1838573217391968,0.0,-0.1577682495117187,0.6851276755332947,3.4358510971069336,4.1015625,0,A1,6.1,90,270.0,0.0,[6200|0|0|0],start
100,1.704034686088562,1.1836514472961426,0.0,-0.1488061100244522,0.6921558976173401,3.4390134811401367,4.1015625,0,A1,6.1,90,270.0,0.0002301479749167,[6300|0|0|0],start
200,1.7038198709487915,1.1836274862289429,0.0,-0.1524843275547027,0.6981555223464966,3.4202146530151367,4.10546875,0,A1,6.1,90,270.0,0.0004462953251571,[6400|0|0|0],start
300,1.7038556337356567,1.1840097904205322,0.0,-0.1614709645509719,0.6965662837028503,3.4270694255828857,4.10546875,0,A1,6.1,90,270.0,0.0008302685948403,[6500|0|0|0],start
400,1.7042112350463867,1.1839396953582764,0.0,-0.1619332283735275,0.6919784545898438,3.403913974761963,4.1015625,0,A1,6.1,90,270.0,0.001192712535258,[6600|0|0|0],start
500,1.7040807008743286,1.183925986289978,0.0,-0.1628873348236084,0.698175847530365,3.389110326766968,4.1015625,0,A1,6.1,90,270.0,0.001323964615731,[6700|0|0|0],start
600,1.704103708267212,1.1840898990631104,0.0,-0.1677294671535492,0.7015295624732971,3.391188144683838,4.10546875,0,A1,6.1,90,270.0,0.0014894842137345,[6800|0|0|0],start
700,1.7038969993591309,1.18402898311615,0.0,-0.1668341159820556,0.7142308950424194,3.386860609054565,4.1015625,0,A1,6.1,90,270.0,0.0017049820681882,[6900|0|0|0],start
800,1.7040296792984009,1.1840074062347412,0.0,-0.1666609495878219,0.7099100947380066,3.373082399368286,4.10546875,0,A1,6.1,90,270.0,0.0018394050130154,[7000|0|0|0],start
900,1.7039633989334106,1.184094786643982,0.0,-0.1701506227254867,0.704222559928894,3.371389389038086,4.10546875,0,A1,6.1,90,270.0,0.0019490791790816,[7100|0|0|0],start
1000,1.7039092779159546,1.1836780309677124,0.0,-0.1601142138242721,0.7117346525192261,3.3716955184936523,4.1015625,0,A1,6.1,90,270.0,0.0023693343137716,[7200|0|0|0],start
1100,1.7043348550796509,1.183910608291626,0.0,-0.1714950799942016,0.701857328414917,3.381441116333008,4.10546875,0,A1,6.1,90,270.0,0.0028543169256853,[7300|0|0|0],start
1200,1.7042399644851685,1.1842074394226074,0.0,-0.1803814768791198,0.7123652696609497,3.391684532165528,4.10546875,0,A1,6.1,90,270.0,0.0031659464256383,[7400|0|0|0],start
1300,1.7040865421295166,1.1835486888885498,0.0,-0.1680504232645034,0.7224879264831543,3.3994574546813965,4.10546875,0,A1,6.1,90,270.0,0.0038423270029281,[7500|0|0|0],start
1400,1.6998802423477173,1.1803817749023438,0.0,-0.0454826653003692,0.7888110280036926,3.15375018119812,4.10546875,0,A1,6.1,90,270.0,0.0091075242499828,[7600|0|0|0],start
1500,1.7042815685272217,1.183892846107483,0.0,-0.1416674703359604,0.6585544347763062,3.205284357070923,4.1015625,0,A1,6.1,90,270.0,0.0147377367811355,[7700|0|0|0],start
1600,1.7040932178497314,1.183604717254639,0.0,-0.1579391956329345,0.6804008483886719,3.256993770599365,4.1015625,0,A1,6.1,90,270.0,0.0150819666658814,[7800|0|0|0],start
1700,1.7043397426605225,1.183969020843506,0.0,-0.1809911131858825,0.6856738924980164,3.306865930557251,4.10546875,0,A1,6.1,90,270.0,0.0155218434522627,[7900|0|0|0],start
1800,1.7043516635894775,1.1836904287338257,0.0,-0.1789397001266479,0.6930108070373535,3.3408665657043457,4.1015625,0,A1,6.1,90,270.0,0.0158006904929917,[8000|0|0|0],start
1900,1.7042169570922852,1.1839345693588257,0.0,-0.1887430697679519,0.7038031816482544,3.3531620502471924,4.1015625,0,A1,6.1,90,270.0,0.0160795282328355,[8100|0|0|0],start
2000,1.70398211479187,1.1838300228118896,0.0,-0.1897030621767044,0.7107483148574829,3.360412836074829,4.1015625,0,A1,6.1,90,270.0,0.0163365902614212,[8200|0|0|0],start
2100,1.7041033506393433,1.183746099472046,0.0,-0.1891797631978988,0.7055368423461914,3.389365673065185,4.1015625,0,A1,6.1,90,270.0,0.0164840394312497,[8300|0|0|0],start
2200,1.704062819480896,1.1841387748718262,0.0,-0.1973591893911361,0.6970763206481934,3.3935558795928955,4.1015625,0,A1,6.1,90,270.0,0.0168788010610944,[8400|0|0|0],start
2300,1.7041000127792358,1.1839512586593628,0.0,-0.1944231241941452,0.7028569579124451,3.404195070266724,4.10546875,0,A1,6.1,90,270.0,0.0170699702829321,[8500|0|0|0],start
2400,1.7039893865585327,1.184038162231445,0.0,-0.1946235001087188,0.7031681537628174,3.421293258666992,4.10546875,0,A1,6.1,90,270.0,0.0172106486094352,[8600|0|0|0],start
2500,1.7041600942611694,1.1840585470199585,0.0,-0.1915589123964309,0.698212206363678,3.4119560718536377,4.1015625,0,A1,6.1,90,270.0,0.0173825691124075,[8700|0|0|0],start
2600,1.7038629055023191,1.1835981607437134,0.0,-0.1777894347906112,0.7033711075782776,3.413961887359619,4.1015625,0,A1,6.1,90,270.0,0.0179305441864226,[8800|0|0|0],start
2700,1.7038543224334717,1.1837151050567627,0.0,-0.1768777966499328,0.7031466364860535,3.40866756439209,4.10546875,0,A1,6.1,90,270.0,0.018047803051441,[8900|0|0|0],start
2800,1.7043542861938477,1.1839332580566406,0.0,-0.1741702407598495,0.6922715902328491,3.410616159439087,4.1015625,0,A1,6.1,90,270.0,0.018593288608578,[9000|0|0|0],start
2900,1.703776717185974,1.1838001012802124,0.0,-0.1722598224878311,0.7094261646270752,3.4022347927093506,4.1015625,0,A1,6.1,90,270.0,0.0191860083450176,[9100|0|0|0],start
3000,1.7041122913360596,1.1836034059524536,0.0,-0.1653558909893036,0.7009788751602173,3.42293119430542,4.1015625,0,A1,6.1,90,270.0,0.0195749801462678,[9200|0|0|0],start
3100,1.704047679901123,1.1835952997207642,0.0,-0.1714873909950256,0.7029789686203003,3.451688051223755,4.1015625,0,A1,6.1,90,270.0,0.019640098104749,[9300|0|0|0],start
3200,1.7038607597351074,1.1838009357452393,0.0,-0.1782546043395996,0.7074127197265625,3.464674711227417,4.10546875,0,A1,6.1,90,270.0,0.0199179925505828,[9400|0|0|0],start
3300,1.7040636539459229,1.183879017829895,0.0,-0.1756888628005981,0.6985052227973938,3.471858263015747,4.10546875,0,A1,6.1,90,270.0,0.0201353928098434,[9500|0|0|0],start
3400,1.704121708869934,1.1841740608215332,0.0,-0.1829271018505096,0.6965834498405457,3.461404323577881,4.1015625,0,A1,6.1,90,270.0,0.0204360932273968,[9600|0|0|0],start
3500,1.7039027214050293,1.183806300163269,0.0,-0.16862653195858,0.7101342678070068,3.43497896194458,4.1015625,0,A1,6.1,90,270.0,0.0208641159038431,[9700|0|0|0],start
3600,1.7041001319885254,1.1838563680648804,0.0,-0.1695226728916168,0.7025806307792664,3.429962396621704,4.1015625,0,A1,6.1,90,270.0,0.0210677767327917,[9800|0|0|0],start
3700,1.704145073890686,1.183952808380127,0.0,-0.1744352132081985,0.7029287815093994,3.417101621627808,4.1015625,0,A1,6.1,90,270.0,0.0211741746132907,[9900|0|0|0],start
3800,1.704209804534912,1.183704495429993,0.0,-0.1661318689584732,0.7032405734062195,3.426910161972046,4.1015625,0,A1,6.1,90,270.0,0.021430785948789,[10000|0|0|0],start
3900,1.7040380239486694,1.1838370561599731,0.0,-0.1671835929155349,0.7125506401062012,3.434001207351685,4.1015625,0,A1,6.1,90,270.0,0.0216477673234339,[10100|0|0|0],start
4000,1.7039844989776611,1.1838133335113523,0.0,-0.1666322648525238,0.712382972240448,3.413755178451538,4.1015625,0,A1,6.1,90,270.0,0.0217063137714818,[10200|0|0|0],start
4100,1.7043044567108154,1.1839027404785156,0.0,-0.1710555404424667,0.7146064639091492,3.4254488945007324,4.10546875,0,A1,6.1,90,270.0,0.0220385283960584,[10300|0|0|0],start
4200,1.7040319442749023,1.183936357498169,0.0,-0.1732867807149887,0.7185609340667725,3.420668363571167,4.1015625,0,A1,6.1,90,270.0,0.0223131064937604,[10400|0|0|0],start
4300,1.7039397954940796,1.183593988418579,0.0,-0.1637343466281891,0.7243568301200867,3.4313881397247314,4.1015625,0,A1,6.1,90,270.0,0.0226676597118622,[10500|0|0|0],start
4400,1.7042803764343262,1.1838903427124023,0.0,-0.177018404006958,0.7109065055847168,3.408508062362671,4.1015625,0,A1,6.1,90,270.0,0.0231191253742626,[10600|0|0|0],start
4500,1.7039666175842283,1.1837139129638672,0.0,-0.1693792343139648,0.7074066400527954,3.41571307182312,4.1015625,0,A1,6.1,90,270.0,0.0234790865835379,[10700|0|0|0],start
4600,1.7042951583862305,1.1839863061904907,0.0,-0.1715026050806045,0.699347198009491,3.4211318492889404,4.1015625,0,A1,6.1,90,270.0,0.0239058618505001,[10800|0|0|0],start
4700,1.704024314880371,1.1840986013412476,0.0,-0.1713698953390121,0.7111557126045227,3.429451704025269,4.1015625,0,A1,6.1,90,270.0,0.0241990621328153,[10900|0|0|0],start
4800,1.7042007446289062,1.1838209629058838,0.0,-0.1664213240146637,0.7046497464179993,3.4453234672546387,4.1015625,0,A1,6.1,90,270.0,0.0245280158635426,[11000|0|0|0],start
4900,1.7039116621017456,1.1840505599975586,0.0,-0.1723832041025161,0.7110904455184937,3.4579432010650635,4.1015625,0,A1,6.1,90,270.0,0.0248971818587468,[11100|0|0|0],start
5000,1.703981876373291,1.1837687492370603,0.0,-0.1581919342279434,0.7108141183853149,3.4666576385498047,4.1015625,0,A1,6.1,90,270.0,0.0251876080088457,[11200|0|0|0],start
5100,1.7040451765060425,1.183717966079712,0.0,-0.1561367511749267,0.7027291655540466,3.428831100463867,4.1015625,0,A1,6.1,90,270.0,0.0252687611719179,[11300|0|0|0],start
5200,1.7040016651153564,1.183836579322815,0.0,-0.1609844118356704,0.7044337391853333,3.417917490005493,4.1015625,0,A1,6.1,90,270.0,0.0253951033365299,[11400|0|0|0],start
5300,1.7041168212890625,1.1835041046142578,0.0,-0.1535031944513321,0.7039636969566345,3.4002602100372314,4.1015625,0,A1,6.1,90,270.0,0.0257469561128054,[11500|0|0|0],start
5400,1.7040849924087524,1.1835744380950928,0.0,-0.1570055484771728,0.6999772787094116,3.393186092376709,4.1015625,0,A1,6.1,90,270.0,0.0258241563469252,[11600|0|0|0],start
5500,1.704107403755188,1.1838194131851196,0.0,-0.1668322682380676,0.6981123685836792,3.4124677181243896,4.1015625,0,A1,6.1,90,270.0,0.0260701544428177,[11700|0|0|0],start
5600,1.7045185565948486,1.183969497680664,0.0,-0.1736642569303512,0.690398633480072,3.422625780105591,4.1015625,0,A1,6.1,90,270.0,0.0265078438456639,[11800|0|0|0],start
5700,1.7045749425888062,1.1835112571716309,0.0,-0.165379911661148,0.7029076814651489,3.43292236328125,4.1015625,0,A1,6.1,90,270.0,0.0269695404391466,[11900|0|0|0],start
5800,1.704304575920105,1.1832377910614014,0.0,-0.1579500287771225,0.7157230377197266,3.417877435684204,4.1015625,0,A1,6.1,90,270.0,0.0273540945302556,[12000|0|0|0],start
5900,1.704428791999817,1.1834816932678225,0.0,-0.1709507405757904,0.715120255947113,3.445218801498413,4.1015625,0,A1,6.1,90,270.0,0.0276278059124743,[12100|0|0|0],start
6000,1.7044683694839478,1.1835424900054932,0.0,-0.174947902560234,0.7100146412849426,3.445252656936645,4.1015625,0,A1,6.1,90,270.0,0.0277003498340772,[12200|0|0|0],start
6100,1.70428466796875,1.183682918548584,0.0,-0.1807546019554138,0.7135114073753357,3.458518743515014,4.1015625,0,A1,6.1,90,270.0,0.0279315779084984,[12300|0|0|0],start
6200,1.7044858932495115,1.1835486888885498,0.0,-0.1782005429267883,0.7012649178504944,3.435915470123291,4.1015625,0,A1,6.1,90,270.0,0.0281734646903829,[12400|0|0|0],start
6300,1.7044100761413574,1.1834872961044312,0.0,-0.1799864172935485,0.7000346779823303,3.439598560333252,4.1015625,0,A1,6.1,90,270.0,0.0282710213807259,[12500|0|0|0],start
6400,1.7044649124145508,1.183220386505127,0.0,-0.17423015832901,0.6996395587921143,3.4498934745788574,4.1015625,0,A1,6.1,90,270.0,0.0285435057858916,[12600|0|0|0],start
6500,1.7045148611068726,1.1835803985595703,0.0,-0.1806831657886505,0.7042722702026367,3.453145980834961,4.1015625,0,A1,6.1,90,270.0,0.0289069663081071,[12700|0|0|0],start
6600,1.7043880224227903,1.183328628540039,0.0,-0.1714949756860733,0.7028069496154785,3.4341297149658203,4.1015625,0,A1,6.1,90,270.0,0.0291888815338656,[12800|0|0|0],start
6700,1.7041946649551392,1.1831169128417969,0.0,-0.1726054549217224,0.7048904895782471,3.4391021728515625,4.1015625,0,A1,6.1,90,270.0,0.029475605525151,[12900|0|0|0],start
6800,1.7043845653533936,1.183312177658081,0.0,-0.1789952665567398,0.6968477964401245,3.4484646320343018,4.1015625,0,A1,6.1,90,270.0,0.0297479848741033,[13000|0|0|0],start
6900,1.7044734954833984,1.183508038520813,0.0,-0.1840652674436569,0.690741777420044,3.4394643306732178,4.1015625,0,A1,6.1,90,270.0,0.0299630896057407,[13100|0|0|0],start
7000,1.704097032546997,1.1832144260406494,0.0,-0.1792502850294113,0.7029128670692444,3.4422712326049805,4.1015625,0,A1,6.1,90,270.0,0.0304405125115504,[13200|0|0|0],start
7100,1.7044622898101809,1.1831037998199463,0.0,-0.1796271353960037,0.6958186626434326,3.44351577758789,4.1015625,0,A1,6.1,90,270.0,0.0308221550524385,[13300|0|0|0],start
7200,1.704337477684021,1.183472990989685,0.0,-0.1924830973148346,0.6956018805503845,3.470440626144409,4.1015625,0,A1,6.1,90,270.0,0.0312118731385593,[13400|0|0|0],start
7300,1.7041064500808716,1.1833295822143557,0.0,-0.1843892037868499,0.7000809907913208,3.4634897708892822,4.1015625,0,A1,6.1,90,270.0,0.0314837919320592,[13500|0|0|0],start
7400,1.7042862176895142,1.1832126379013062,0.0,-0.1832420825958252,0.6961156725883484,3.464272975921631,4.1015625,0,A1,6.1,90,270.0,0.0316982502391301,[13600|0|0|0],start
7500,1.7043464183807373,1.183664321899414,0.0,-0.194252997636795,0.6949752569198608,3.4727861881256104,4.1015625,0,A1,6.1,90,270.0,0.0321539283682634,[13700|0|0|0],start
7600,1.7042945623397827,1.1832098960876465,0.0,-0.182592898607254,0.6991890072822571,3.471879482269287,4.1015625,0,A1,6.1,90,270.0,0.0326113033428566,[13800|0|0|0],start
7700,1.704304814338684,1.1833399534225464,0.0,-0.1827116906642913,0.6995057463645935,3.474980354309082,4.1015625,0,A1,6.1,90,270.0,0.0327417641179683,[13900|0|0|0],start
7800,1.704498291015625,1.1835968494415283,0.0,-0.1943840533494949,0.6927965879440308,3.479323387145996,4.1015625,0,A1,6.1,90,270.0,0.0330633675835728,[14000|0|0|0],start
7900,1.7043886184692385,1.1830724477767944,0.0,-0.1794625669717788,0.6964889764785767,3.4725341796875,4.1015625,0,A1,6.1,90,270.0,0.0335991148872586,[14100|0|0|0],start
8000,1.7044061422348022,1.1832916736602783,0.0,-0.1865098774433136,0.6949400305747986,3.454771041870117,4.1015625,0,A1,6.1,90,270.0,0.0338190400344083,[14200|0|0|0],start
8100,1.7040778398513794,1.183250069618225,0.0,-0.1849799156188964,0.7107535004615784,3.4767794609069824,4.1015625,0,A1,6.1,90,270.0,0.0341499680496568,[14300|0|0|0],start
8200,1.7041279077529907,1.1832613945007324,0.0,-0.1804917156696319,0.7002871036529541,3.4740183353424072,4.1015625,0,A1,6.1,90,270.0,0.0342013007656921,[14400|0|0|0],start
8300,1.704373121261597,1.1836835145950315,0.0,-0.1934048384428024,0.6864331960678101,3.474007606506348,4.1015625,0,A1,6.1,90,270.0,0.0346894759789241,[14500|0|0|0],start
8400,1.7043062448501587,1.1833585500717163,0.0,-0.1821498721837997,0.6896755695343018,3.450138568878174,4.1015625,0,A1,6.1,90,270.0,0.0350212505949216,[14600|0|0|0],start
8500,1.7041239738464355,1.1831395626068115,0.0,-0.1795474290847778,0.6981807351112366,3.45572829246521,4.1015625,0,A1,6.1,90,270.0,0.0353061685279895,[14700|0|0|0],start
8600,1.7047182321548462,1.183508038520813,0.0,-0.1834523230791092,0.680486261844635,3.443608045578003,4.1015625,0,A1,6.1,90,270.0,0.0360053948406482,[14800|0|0|0],start
8700,1.7040473222732544,1.1830307245254517,0.0,-0.1655991673469543,0.7017749547958374,3.456714153289795,4.1015625,0,A1,6.1,90,270.0,0.0368287712548023,[14900|0|0|0],start
8800,1.704434156417847,1.183460712432861,0.0,-0.1706170588731765,0.697194516658783,3.48045301437378,4.1015625,0,A1,6.1,90,270.0,0.037407157160527,[15000|0|0|0],start
8900,1.704290747642517,1.1835007667541504,0.0,-0.1720716059207916,0.7000719308853149,3.470570802688598,4.1015625,0,A1,6.1,90,270.0,0.0375560545261704,[15100|0|0|0],start
9000,1.704081416130066,1.183518409729004,0.0,-0.1722083389759063,0.702082633972168,3.469557762145996,4.1015625,0,A1,6.1,90,270.0,0.0377661282195896,[15200|0|0|0],start
9100,1.7045353651046753,1.1833765506744385,0.0,-0.1715379208326339,0.6911917924880981,3.458429336547852,4.1015625,0,A1,6.1,90,270.0,0.0382417264354306,[15300|0|0|0],start
9200,1.7041536569595337,1.1833630800247192,0.0,-0.1742811053991317,0.706077516078949,3.4608137607574463,4.1015625,0,A1,6.1,90,270.0,0.0386236721992129,[15400|0|0|0],start
9300,1.7043837308883667,1.1834651231765747,0.0,-0.1673962920904159,0.70367032289505,3.474026918411255,4.1015625,0,A1,6.1,90,270.0,0.0388753601360896,[15500|0|0|0],start
9400,1.7008355855941772,1.1803230047225952,0.0,-0.0660361424088478,0.8031089305877686,3.414030075073242,4.1015625,0,A1,6.1,90,270.0,0.043614795061006,[15600|0|0|0],start
9500,1.700802206993103,1.180321216583252,0.0,-0.0621742829680442,0.8065009713172913,3.3983688354492188,4.1015625,0,A1,6.1,90,270.0,0.0436482215243544,[15700|0|0|0],start
9600,1.7009470462799072,1.1802070140838623,0.0,-0.0520856343209743,0.8042102456092834,3.3704047203063965,4.1015625,0,A1,6.1,90,270.0,0.0438326683456033,[15800|0|0|0],start
9700,1.7009382247924805,1.1799123287200928,0.0,-0.0467707403004169,0.8015835285186768,3.375729560852051,4.1015625,0,A1,6.1,90,270.0,0.0441274857166322,[15900|0|0|0],start
9800,1.7011032104492188,1.1800453662872314,0.0,-0.0514468513429164,0.7917296290397644,3.3682029247283936,4.1015625,0,A1,6.1,90,270.0,0.0443394273623735,[16000|0|0|0],start
9900,1.7008349895477295,1.180400252342224,0.0,-0.0619712769985199,0.8045451045036316,3.373352766036988,4.1015625,0,A1,6.1,90,270.0,0.0447842717891384,[16100|0|0|0],start
10000,1.7007453441619873,1.180016279220581,0.0,-0.0509939678013324,0.8103286623954773,3.387582302093506,4.1015625,0,A1,6.1,90,270.0,0.0451785707281796,[16200|0|0|0],start
10100,1.701054573059082,1.179860234260559,0.0,-0.0436143353581428,0.7998941540718079,3.4058644771575928,4.1015625,0,A1,6.1,90,270.0,0.0455249412528301,[16300|0|0|0],start
10200,1.7011933326721191,1.1803478002548218,0.0,-0.0576541312038898,0.7916503548622131,3.3957645893096924,4.1015625,0,A1,6.1,90,270.0,0.046031868100582,[16400|0|0|0],start
10300,1.70077645778656,1.180435061454773,0.0,-0.0562866404652595,0.8002095818519592,3.388034582138061,4.1015625,0,A1,6.1,90,270.0,0.0464577779352029,[16500|0|0|0],start
10400,1.700859546661377,1.1800273656845093,0.0,-0.0513814836740493,0.8004691004753113,3.3951404094696045,4.1015625,0,A1,6.1,90,270.0,0.0468738543731433,[16600|0|0|0],start
10500,1.7009310722351074,1.1802088022232056,0.0,-0.0525104328989982,0.7959393858909607,3.407630205154419,4.1015625,0,A1,6.1,90,270.0,0.04706888033365,[16700|0|0|0],start
10600,1.7009117603302002,1.180240273475647,0.0,-0.0602476000785827,0.7890387177467346,3.378958225250244,4.1015625,0,A1,6.1,90,270.0,0.0471058044369076,[16800|0|0|0],start
10700,1.7042677402496338,1.187078833580017,0.0,-0.1403544545173645,0.6319774985313416,3.5450961589813232,4.1015625,0,A1,6.1,90,270.0,0.0547234487920035,[16900|0|0|0],start
10801,1.702825665473938,1.1875108480453491,0.0,-0.0448908880352973,0.6614239811897278,3.6927762031555176,4.1015625,0,A1,6.1,90,270.0,0.0562288444731964,[17000|0|0|0],start
10901,1.7006840705871582,1.187641143798828,0.0,0.0167329721152782,0.7024418115615845,3.8559608459472656,4.1015625,0,A1,6.1,90,270.0,0.0583743993297442,[17100|0|0|0],start
11001,1.6987667083740234,1.1871427297592163,0.0,0.084516741335392,0.7238368988037109,3.979227066040039,4.1015625,0,A1,6.1,90,270.0,0.0603554834802131,[17200|0|0|0],start
11100,1.6968425512313845,1.1868685483932495,0.0,0.1008404567837715,0.7321717739105225,4.050519943237305,4.1015625,0,A1,6.1,90,270.0,0.0622990770928317,[17300|0|0|0],start
11201,1.7009910345077517,1.1773364543914795,0.0,0.4143643081188202,0.8025635480880737,3.8900747299194336,4.1015625,0,A1,6.1,90,270.0,0.0726947843584716,[17400|0|0|0],start
11301,1.701312780380249,1.1787327527999878,0.0,0.2092901468276977,0.8614050149917603,3.757503747940064,4.1015625,0,A1,6.1,90,270.0,0.074127672927786,[17500|0|0|0],start
11402,1.7014654874801636,1.178660273551941,0.0,0.106317788362503,0.908852219581604,3.639746189117432,4.1015625,0,A1,6.1,90,270.0,0.0742967075389216,[17600|0|0|0],start
11501,1.7008625268936155,1.1790674924850464,0.0,0.0016221716068685,0.9512135982513428,3.5476253032684326,4.1015625,0,A1,6.1,90,270.0,0.0750242985836781,[17700|0|0|0],start
11601,1.7008062601089478,1.1791577339172363,0.0,-0.0842982158064842,0.9647082686424256,3.50164794921875,4.1015625,0,A1,6.1,90,270.0,0.075130644562166,[17800|0|0|0],start
11701,1.7009503841400146,1.179594874382019,0.0,-0.1537325233221054,0.9579427242279052,3.431610107421875,4.1015625,0,A1,6.1,90,270.0,0.0755909309103031,[17900|0|0|0],start
11801,1.700752854347229,1.1801197528839111,0.0,-0.2022561728954315,0.9503142833709716,3.390540599822998,4.1015625,0,A1,6.1,90,270.0,0.0761517476903538,[18000|0|0|0],start
11902,1.7005645036697388,1.1803278923034668,0.0,-0.2201649099588394,0.9391301274299622,3.371929407119751,4.1015625,0,A1,6.1,90,270.0,0.0764324574972434,[18100|0|0|0],start
12002,1.700921893119812,1.1801574230194092,0.0,-0.2223036587238311,0.9135582447052002,3.362996816635132,4.1015625,0,A1,6.1,90,270.0,0.0768284208741241,[18200|0|0|0],start
12102,1.700600266456604,1.1805362701416016,0.0,-0.2330095916986465,0.900513768196106,3.352835178375244,4.1015625,0,A1,6.1,90,270.0,0.0773253804826234,[18300|0|0|0],start
12202,1.7006385326385498,1.1803888082504272,0.0,-0.221528023481369,0.8848612904548645,3.331737279891968,4.1015625,0,A1,6.1,90,270.0,0.0774777265033441,[18400|0|0|0],start
12302,1.7010477781295776,1.180135726928711,0.0,-0.2041558027267456,0.8778336048126221,3.329540967941284,4.1015625,0,A1,6.1,90,270.0,0.0779589042535864,[18500|0|0|0],start
12402,1.7012280225753784,1.1803337335586548,0.0,-0.2418789118528366,0.8181993365287781,3.314915895462036,4.1015625,0,A1,6.1,90,270.0,0.0782266628869556,[18600|0|0|0],start
12500,1.7014646530151367,1.1801873445510864,0.0,-0.2091716080904007,0.8142926096916199,3.334855079650879,4.1015625,0,A1,6.1,90,270.0,0.0785049140442884,[18700|0|0|0],start
12600,1.7010986804962158,1.1802867650985718,0.0,-0.1901369094848632,0.8292443752288818,3.345818519592285,4.1015625,0,A1,6.1,90,270.0,0.0788841505534323,[18800|0|0|0],start
12700,1.700857400894165,1.1804054975509644,0.0,-0.2059473544359207,0.7976508736610413,3.3220150470733643,4.1015625,0,A1,6.1,90,270.0,0.0791530617685516,[18900|0|0|0],start
12800,1.70101797580719,1.1802977323532104,0.0,-0.173869252204895,0.7948848009109497,3.3342156410217285,4.1015625,0,A1,6.1,90,270.0,0.0793464464642746,[19000|0|0|0],start
12900,1.701020121574402,1.180425047874451,0.0,-0.1434545814990997,0.7954650521278381,3.344000577926636,4.1015625,0,A1,6.1,90,270.0,0.0794737800665391,[19100|0|0|0],start
13000,1.7009456157684326,1.1804492473602295,0.0,-0.1331480890512466,0.8002977967262268,3.3205466270446777,4.1015625,0,A1,6.1,90,270.0,0.0795521173516281,[19200|0|0|0],start
13100,1.7010053396224976,1.180228590965271,0.0,-0.1102089658379554,0.7944449186325073,3.304351806640625,4.1015625,0,A1,6.1,90,270.0,0.0797807134657255,[19300|0|0|0],start
13200,1.7012007236480713,1.180242657661438,0.0,-0.0964536592364311,0.7921006083488464,3.325447559356689,4.1015625,0,A1,6.1,90,270.0,0.079976603203564,[19400|0|0|0],start
13300,1.701329469680786,1.1805901527404783,0.0,-0.0811713486909866,0.8070817589759827,3.3234128952026367,4.1015625,0,A1,6.1,90,270.0,0.0803471816310217,[19500|0|0|0],start
13400,1.701279878616333,1.180142879486084,0.0,-0.0998609960079193,0.7703061103820801,3.3366575241088867,4.1015625,0,A1,6.1,90,270.0,0.0807971956727693,[19600|0|0|0],start
13500,1.7014209032058716,1.180184006690979,0.0,-0.0882424265146255,0.772868275642395,3.3225021362304688,4.1015625,0,A1,6.1,90,270.0,0.0809440948961744,[19700|0|0|0],start
13600,1.700889229774475,1.180557370185852,0.0,-0.1189400777220726,0.766239583492279,3.342981100082397,4.1015625,0,A1,6.1,90,270.0,0.0815937693815566,[19800|0|0|0],start
13700,1.7012858390808103,1.1800153255462646,0.0,-0.0858281999826431,0.7684167623519897,3.349459409713745,4.1015625,0,A1,6.1,90,270.0,0.0822654176028579,[19900|0|0|0],start
13800,1.701533317565918,1.180114984512329,0.0,-0.0670459941029548,0.790651798248291,3.359907865524292,4.1015625,0,A1,6.1,90,270.0,0.0825322087385956,[20000|0|0|0],start
13900,1.7016032934188845,1.1800986528396606,0.0,-0.0505131185054779,0.8087390065193176,3.374938488006592,4.1015625,0,A1,6.1,90,270.0,0.0826040651477081,[20100|0|0|0],start
14000,1.7013250589370728,1.180437445640564,0.0,-0.0356616154313087,0.8349524140357971,3.35889744758606,4.1015625,0,A1,6.1,90,270.0,0.0830424656367737,[20200|0|0|0],start
14100,1.7014042139053345,1.180532455444336,0.0,-0.0292002242058515,0.8371192812919617,3.375314235687256,4.1015625,0,A1,6.1,90,270.0,0.0831661279665808,[20300|0|0|0],start
14200,1.701560378074646,1.1800227165222168,0.0,-0.0129535738378763,0.8462206721305847,3.3694956302642822,4.1015625,0,A1,6.1,90,270.0,0.0836992517950671,[20400|0|0|0],start
14300,1.7013696432113647,1.1800867319107056,0.0,-0.0629481002688407,0.8151336312294006,3.3733456134796143,4.1015625,0,A1,6.1,90,270.0,0.0839004426448448,[20500|0|0|0],start
14400,1.7011483907699585,1.1801273822784424,0.0,-0.0443039014935493,0.8285269737243652,3.361720323562622,4.1015625,0,A1,6.1,90,270.0,0.0841253984076636,[20600|0|0|0],start
14500,1.701345443725586,1.1802706718444824,0.0,-0.0381770767271518,0.8235162496566772,3.357351064682007,4.1015625,0,A1,6.1,90,270.0,0.0843690411113455,[20700|0|0|0],start
14600,1.7009273767471311,1.1803898811340332,0.0,-0.0726706087589263,0.8006979823112488,3.368393659591675,4.1015625,0,A1,6.1,90,270.0,0.0848037718937725,[20800|0|0|0],start
14700,1.7011252641677856,1.1796205043792725,0.0,-0.0478269681334495,0.8120329976081848,3.379587173461914,4.1015625,0,A1,6.1,90,270.0,0.0855981899336101,[20900|0|0|0],start
14800,1.7013890743255615,1.180221676826477,0.0,-0.0394924059510231,0.8151842355728149,3.368556261062622,4.1015625,0,A1,6.1,90,270.0,0.0862546989667724,[21000|0|0|0],start
14900,1.7014694213867188,1.180038571357727,0.0,-0.0130383968353271,0.8229243755340576,3.383795022964477,4.1015625,0,A1,6.1,90,270.0,0.0864546571197014,[21100|0|0|0],start
15000,1.7012970447540283,1.18013596534729,0.0,-0.0165354888886213,0.8335445523262024,3.3563220500946045,4.1015625,0,A1,6.1,90,270.0,0.086652645232225,[21200|0|0|0],start
15100,1.7008872032165527,1.1802797317504885,0.0,-0.066191554069519,0.8055622577667236,3.352460622787476,4.1015625,0,A1,6.1,90,270.0,0.0870869709907623,[21300|0|0|0],start
15200,1.7010427713394165,1.180201292037964,0.0,-0.0622578561305999,0.8068304061889648,3.352930784225464,4.1015625,0,A1,6.1,90,270.0,0.0872611956427271,[21400|0|0|0],start
15300,1.7013742923736572,1.1799911260604858,0.0,-0.0460430234670639,0.8136287331581116,3.3426499366760254,4.1015625,0,A1,6.1,90,270.0,0.0876537207173828,[21500|0|0|0],start
15400,1.7012090682983398,1.1799099445343018,0.0,-0.0295117776840925,0.831008791923523,3.3459157943725586,4.1015625,0,A1,6.1,90,270.0,0.0878378115516415,[21600|0|0|0],start
15500,1.7014613151550293,1.1802197694778442,0.0,-0.0304260104894638,0.8220137357711792,3.352072238922119,4.1015625,0,A1,6.1,90,270.0,0.0882373362346722,[21700|0|0|0],start
15600,1.7012008428573608,1.1799489259719849,0.0,-0.0147687988355755,0.8337061405181885,3.3601326942443848,4.1015625,0,A1,6.1,90,270.0,0.0886131048104192,[21800|0|0|0],start
15700,1.7012044191360474,1.1794878244400024,0.0,-0.0036204694770276,0.8461006879806519,3.3649468421936035,4.1015625,0,A1,6.1,90,270.0,0.0890742202109056,[21900|0|0|0],start
15800,1.7024433612823486,1.180894374847412,0.0,-0.0354442447423934,0.8151746392250061,3.351025342941284,4.1015625,0,A1,6.1,90,270.0,0.0909486165645261,[22000|0|0|0],start
15900,1.7043331861495972,1.1873385906219482,0.0,-0.1769084930419922,0.6012429594993591,3.4679980278015137,4.1015625,0,A1,6.1,90,270.0,0.0976642218967096,[22100|0|0|0],start
16000,1.7026937007904053,1.1876733303070068,0.0,-0.0626261010766029,0.6635764837265015,3.667548894882202,4.1015625,0,A1,6.1,90,270.0,0.0993375308639233,[22200|0|0|0],start
16100,1.7043930292129517,1.181764006614685,0.0,0.2065095752477646,0.7085471749305725,3.8419227600097656,4.1015625,0,A1,6.1,90,270.0,0.1054863375439474,[22300|0|0|0],start
16200,1.701263666152954,1.1794337034225464,0.0,0.1659581363201141,0.8031120896339417,3.722032070159912,4.1015625,0,A1,6.1,90,270.0,0.1093880328329941,[22400|0|0|0],start
16300,1.7014106512069702,1.1796125173568726,0.0,0.0912966355681419,0.8513764142990112,3.648250579833984,4.1015625,0,A1,6.1,90,270.0,0.109619504276618,[22500|0|0|0],start
16400,1.7015230655670166,1.179663896560669,0.0,-0.0260879918932914,0.8432309627532959,3.5873889923095703,4.1015625,0,A1,6.1,90,270.0,0.109743103673572,[22600|0|0|0],start
16500,1.7013309001922607,1.1799099445343018,0.0,-0.0528086349368095,0.8754832744598389,3.54077410697937,4.1015625,0,A1,6.1,90,270.0,0.1100553009454753,[22700|0|0|0],start
16600,1.7011829614639282,1.179766058921814,0.0,-0.0747973769903183,0.8933402895927429,3.5041072368621826,4.1015625,0,A1,6.1,90,270.0,0.1102616718175034,[22800|0|0|0],start
16700,1.701269507408142,1.179906964302063,0.0,-0.1319613754749298,0.8675764203071594,3.4666197299957275,4.1015625,0,A1,6.1,90,270.0,0.1104270336227759,[22900|0|0|0],start
16800,1.7011964321136477,1.1799944639205933,0.0,-0.1280714124441146,0.8723413348197937,3.453911542892456,4.1015625,0,A1,6.1,90,270.0,0.1105410344206169,[23000|0|0|0],start
16900,1.7011381387710571,1.1803205013275146,0.0,-0.1095204800367355,0.8760172724723816,3.424084186553955,4.1015625,0,A1,6.1,90,270.0,0.1108722420662147,[23100|0|0|0],start
17000,1.7013232707977295,1.1800835132598877,0.0,-0.0817151963710784,0.8729785680770874,3.4028515815734863,4.1015625,0,A1,6.1,90,270.0,0.111172969869215,[23200|0|0|0],start
17100,1.7013494968414309,1.180204153060913,0.0,-0.1171383112668991,0.8356967568397522,3.413221836090088,4.1015625,0,A1,6.1,90,270.0,0.111296427420461,[23300|0|0|0],start
17200,1.7012149095535278,1.18019700050354,0.0,-0.1436847001314163,0.8163665533065796,3.393240213394165,4.1015625,0,A1,6.1,90,270.0,0.1114312046334537,[23400|0|0|0],start
17300,1.701444387435913,1.1797534227371216,0.0,-0.1047108694911003,0.8152854442596436,3.373129844665528,4.1015625,0,A1,6.1,90,270.0,0.1119306256315753,[23500|0|0|0],start
17400,1.7012939453125,1.1805161237716677,0.0,-0.0799045264720916,0.8389877080917358,3.360102653503418,4.1015625,0,A1,6.1,90,270.0,0.1127080223775132,[23600|0|0|0],start
17500,1.7015986442565918,1.1802513599395752,0.0,-0.1007413864135742,0.7906510233879089,3.370533227920532,4.1015625,0,A1,6.1,90,270.0,0.1131116823003628,[23700|0|0|0],start
17600,1.7015684843063354,1.1802464723587036,0.0,-0.0737369656562805,0.8084776997566223,3.376794815063477,4.1015625,0,A1,6.1,90,270.0,0.1131422357133676,[23800|0|0|0],start
17700,1.7013200521469116,1.1800795793533323,0.0,-0.0528128072619438,0.825016975402832,3.3489253520965576,4.1015625,0,A1,6.1,90,270.0,0.1134415212176572,[23900|0|0|0],start
17800,1.70137357711792,1.1801092624664309,0.0,-0.0820703729987144,0.809919536113739,3.3422179222106934,4.1015625,0,A1,6.1,90,270.0,0.1135027258720934,[24000|0|0|0],start
17900,1.701241374015808,1.1799300909042358,0.0,-0.0573411770164966,0.8232927918434143,3.349560499191284,4.1015625,0,A1,6.1,90,270.0,0.1137253917853074,[24100|0|0|0],start
18000,1.7011719942092896,1.180443286895752,0.0,-0.0405640341341495,0.852321207523346,3.343904733657837,4.1015625,0,A1,6.1,90,270.0,0.114243256326728,[24200|0|0|0],start
18100,1.701651692390442,1.1804275512695312,0.0,-0.0699182674288749,0.8067507743835449,3.360220193862915,4.1015625,0,A1,6.1,90,270.0,0.1147232125277853,[24300|0|0|0],start
18200,1.701390504837036,1.180256962776184,0.0,-0.093466080725193,0.7975128293037415,3.3547730445861816,4.1015625,0,A1,6.1,90,270.0,0.1150351730575269,[24400|0|0|0],start
18300,1.7012392282485962,1.1799761056900024,0.0,-0.0638825520873069,0.8173198103904724,3.3578431606292725,4.1015625,0,A1,6.1,90,270.0,0.1153541798114812,[24500|0|0|0],start
18400,1.701268196105957,1.1797773838043213,0.0,-0.032130517065525,0.826498806476593,3.3530192375183105,4.1015625,0,A1,6.1,90,270.0,0.1155550019332923,[24600|0|0|0],start
18500,1.701397180557251,1.180234670639038,0.0,-0.0189809128642082,0.8420884013175964,3.3572380542755127,4.1015625,0,A1,6.1,90,270.0,0.1160301316396683,[24700|0|0|0],start
18600,1.7012139558792114,1.1802488565444946,0.0,-0.0573162361979484,0.8111485242843628,3.3584346771240234,4.1015625,0,A1,6.1,90,270.0,0.1162139046587879,[24800|0|0|0],start
18700,1.701589584350586,1.1799486875534058,0.0,-0.0812505632638931,0.7888286709785461,3.370450496673584,4.1015625,0,A1,6.1,90,270.0,0.1166947353688288,[24900|0|0|0],start
18800,1.7013622522354126,1.179757833480835,0.0,-0.0560185052454471,0.8144456148147583,3.3691697120666504,4.1015625,0,A1,6.1,90,270.0,0.1169915605153478,[25000|0|0|0],start
18900,1.7012089490890503,1.1801072359085083,0.0,-0.0230917446315288,0.8441099524497986,3.375993013381958,4.1015625,0,A1,6.1,90,270.0,0.1173731151132085,[25100|0|0|0],start
19000,1.7013221979141235,1.1803089380264282,0.0,-0.006572179030627,0.8545367121696472,3.362492799758911,4.1015625,0,A1,6.1,90,270.0,0.117604435325801,[25200|0|0|0],start
19100,1.7011287212371826,1.1804752349853516,0.0,0.0074421651661396,0.8700675368309021,3.385986328125,4.1015625,0,A1,6.1,90,270.0,0.1178595586353344,[25300|0|0|0],start
19200,1.7014259099960327,1.179843187332153,0.0,0.0293212831020355,0.8673509955406189,3.39700984954834,4.1015625,0,A1,6.1,90,270.0,0.1185579893006839,[25400|0|0|0],start
19300,1.7012693881988523,1.179978847503662,0.0,0.0227260719984769,0.8690791726112366,3.40979266166687,4.1015625,0,A1,6.1,90,270.0,0.1187651191032871,[25500|0|0|0],start
19400,1.7010785341262815,1.1800601482391355,0.0,-0.037265371531248,0.8210676312446594,3.4288876056671143,4.1015625,0,A1,6.1,90,270.0,0.1189725681008874,[25600|0|0|0],start
19500,1.7016332149505615,1.1797295808792114,0.0,-0.025969723239541,0.8173872232437134,3.423065423965454,4.1015625,0,A1,6.1,90,270.0,0.119618281347051,[25700|0|0|0],start
19600,1.7015727758407593,1.1795710325241089,0.0,-0.0222629271447658,0.8299534916877747,3.407536268234253,4.1015625,0,A1,6.1,90,270.0,0.1197879588850441,[25800|0|0|0],start
19700,1.7016178369522097,1.1799349784851074,0.0,-0.0362247750163078,0.8234685063362122,3.389352798461914,4.1015625,0,A1,6.1,90,270.0,0.1201546838041487,[25900|0|0|0],start
19800,1.7013704776763916,1.1797930002212524,0.0,-0.0202399250119924,0.8432549834251404,3.381625175476074,3.103515625,0,fly,6.1,90,270.0,0.1204398932688243,[25900|0|0|0],fly
19900,1.7011626958847046,1.1803890466690063,0.0,-0.0463483519852161,0.7298967838287354,3.343562364578247,3.09375,0,fly,6.1,90,270.0,0.1210711179838321,[25900|0|0|0],fly
20000,1.7000056505203247,1.1816554069519043,0.0,0.9563801288604736,-1.4485323429107666,3.6323554515838623,3.2734375,0,fly,6.1,90,270.0,0.122786467027419,[25900|0|0|0],fly
20100,1.7003165483474731,1.188016414642334,0.0206795055419206,-1.537219524383545,0.6404851078987122,1.953152060508728,3.37890625,0,fly,6.1,90,270.0,0.1444244203907793,[25900|0|0|0],fly
20200,1.7007449865341189,1.198025822639465,0.0943564623594284,-0.7164081931114197,2.062286615371704,-0.5800109505653381,3.416015625,0,fly,6.1,90,270.0,0.2187794187003867,[25900|0|0|0],fly
20300,1.6980172395706177,1.2128978967666626,0.1764631271362304,1.4711313247680664,2.7652690410614014,-2.203930854797364,3.47265625,0,fly,6.1,90,270.0,0.3022666847540304,[25900|0|0|0],fly
20400,1.6914361715316772,1.2269879579544067,0.2606982588768005,2.298502206802368,2.22505259513855,-1.7335437536239624,3.546875,0,fly,6.1,90,270.0,0.387925296114236,[25900|0|0|0],fly
20500,1.683159589767456,1.234814167022705,0.3391938507556915,3.795722007751465,0.4532274305820465,-1.043732762336731,3.509765625,0,fly,6.1,90,270.0,0.4672430702792866,[25900|0|0|0],fly
20600,1.671586275100708,1.2389788627624512,0.4027410745620727,4.11559009552002,-0.6790711879730225,-1.2085081338882446,3.47265625,0,fly,6.1,90,270.0,0.5319696950675337,[25900|0|0|0],fly
20700,1.6603407859802246,1.2377456426620483,0.452185571193695,3.218434810638428,-1.2257845401763916,-1.111481785774231,3.42578125,0,fly,6.1,90,270.0,0.5826918805934893,[25900|0|0|0],fly
20800,1.6505905389785769,1.2316627502441406,0.4904902577400207,2.3479905128479004,-1.9424803256988523,-0.9494705200195312,3.453125,0,fly,6.1,90,270.0,0.6226833535367712,[25900|0|0|0],fly
20900,1.6427398920059204,1.22174334526062,0.5196062326431274,0.97909677028656,-2.292029857635498,-0.4540011584758758,3.47265625,0,fly,6.1,90,270.0,0.6544287035533439,[25900|0|0|0],fly
21000,1.6383163928985596,1.2097982168197632,0.5422308444976807,-0.0553217642009258,-2.144319534301758,2.321175575256348,3.453125,0,fly,6.1,90,270.0,0.6803926496977685,[25900|0|0|0],fly
21100,1.635867476463318,1.2012940645217896,0.5581160187721252,-0.9323056936264038,-1.5099103450775146,1.639245629310608,3.447265625,0,fly,6.1,90,270.0,0.6985766140549542,[25900|0|0|0],fly
21200,1.6358603239059448,1.1928478479385376,0.5727388262748718,-1.3299176692962646,-1.308730125427246,5.340913772583008,3.48828125,0,fly,6.1,90,270.0,0.7154634469431147,[25900|0|0|0],fly
21300,1.636943221092224,1.1854698657989502,0.5864507555961609,-1.2385536432266235,-0.5608968138694763,4.527042388916016,3.44140625,0,fly,6.1,90,270.0,0.7310719155573046,[25900|0|0|0],fly
21400,1.6385455131530762,1.1823017597198486,0.5952450037002563,-1.194735407829285,-0.3355676233768463,-0.9112183451652528,3.44140625,0,fly,6.1,90,270.0,0.7405557457800098,[25900|0|0|0],fly
21500,1.6391764879226685,1.1804245710372925,0.6049580574035645,-0.619569718837738,0.1467270404100418,-3.320556163787842,3.44140625,0,fly,6.1,90,270.0,0.7504686353059314,[25900|0|0|0],fly
21600,1.6407171487808228,1.1789480447769165,0.6129286885261536,0.3716683983802795,-0.5181622505187988,-4.125451564788818,3.435546875,0,fly,6.1,90,270.0,0.7587199822365734,[25900|0|0|0],fly
21700,1.6408023834228516,1.1782528162002563,0.6203091144561768,0.0463541373610496,0.2027714103460312,-4.191957950592041,3.453125,0,fly,6.1,90,270.0,0.7661335707486616,[25900|0|0|0],fly
21800,1.6406341791152954,1.1763358116149902,0.6263983249664307,0.3400976657867431,0.0891404449939727,-3.3076958656311035,3.453125,0,fly,6.1,90,270.0,0.7725196246090044,[25900|0|0|0],fly
21900,1.6404359340667725,1.1737741231918335,0.6310842633247375,0.208851009607315,-0.4533601403236389,-1.2585179805755615,3.431640625,0,fly,6.1,90,270.0,0.777863739781271,[25900|0|0|0],fly
22000,1.6397364139556885,1.1712896823883057,0.6342195272445679,-0.0933945626020431,-0.6206865310668945,1.280128002166748,3.404296875,0,fly,6.1,90,270.0,0.7819247315738057,[25900|0|0|0],fly
22100,1.6399190425872805,1.1697819232940674,0.6367847919464111,-0.234403595328331,-0.847423791885376,3.700606107711792,3.431640625,0,fly,6.1,90,270.0,0.7849058846550577,[25900|0|0|0],fly
22200,1.6416068077087402,1.1681480407714844,0.6386252045631409,-0.132681667804718,-0.8158888220787048,5.606894493103027,3.41015625,0,fly,6.1,90,270.0,0.787890049831893,[25900|0|0|0],fly
22300,1.6438028812408447,1.1672569513320925,0.6400668025016785,-0.0643868520855903,-0.5389006733894348,6.381796360015869,3.41015625,0,fly,6.1,90,270.0,0.7906640332427666,[25900|0|0|0],fly
22400,1.646445393562317,1.1657757759094238,0.6408956050872803,0.0714016780257225,-0.1213021948933601,6.493869304656982,3.3984375,0,fly,6.1,90,270.0,0.793804680584916,[25900|0|0|0],fly
22500,1.6491111516952517,1.1638095378875732,0.6417452692985535,0.9945591688156128,0.0048839165829122,0.126327246427536,3.388671875,0,fly,6.1,90,270.0,0.7972243717484273,[25900|0|0|0],fly
22600,1.6514980792999268,1.1594411134719849,0.6435489058494568,0.3913924694061279,0.3853422403335571,-4.9205002784729,3.37890625,0,fly,6.1,90,270.0,0.8025190539931351,[25900|0|0|0],fly
22700,1.652413249015808,1.1550805568695068,0.6460651159286499,0.23494952917099,0.9072292447090148,-7.020814895629883,3.3984375,0,fly,6.1,90,270.0,0.8076360162418637,[25900|0|0|0],fly
22800,1.651728630065918,1.1504580974578855,0.65040123462677,-0.0046333624050021,0.8368813395500183,-7.462501049041748,3.330078125,0,fly,6.1,90,202.0,0.8140107914914565,[25900|0|0|0],fly
22900,1.647791028022766,1.1423922777175903,0.6603237390518188,11.347250938415527,5.912325859069824,-8.843321800231934,3.236328125,0,fly,6.1,90,202.0,0.8273905617435305,[25900|0|0|0],fly
23000,1.6287517547607422,1.1159510612487793,0.6869139671325684,17.914199829101562,8.39230728149414,-9.83260726928711,3.27734375,0,fly,6.1,90,202.0,0.8694461450123763,[25900|0|0|0],fly
23100,1.5888423919677734,1.0603406429290771,0.7283571362495422,16.160348892211914,4.686948776245117,-7.281407356262207,3.330078125,0,fly,6.1,90,202.0,0.9494637188989368,[25900|0|0|0],fly
23200,1.5340192317962646,0.9809147715568542,0.7812645435333252,11.505353927612305,1.0889031887054443,-4.450369834899902,3.416015625,0,fly,6.1,90,202.0,1.0595238918949843,[25900|0|0|0],fly
23300,1.475372314453125,0.8852927684783936,0.8399066925048828,5.549886703491211,-2.848355293273926,-2.4368066787719727,3.46875,0,fly,6.1,90,202.0,1.1861016546441836,[25900|0|0|0],fly
23400,1.4206823110580444,0.7865328788757324,0.8944699168205261,-1.4507468938827517,-5.81599760055542,0.4723052084445953,3.505859375,0,fly,6.1,90,202.0,1.311487689406445,[25900|0|0|0],fly
23500,1.3754236698150637,0.6942548155784607,0.9395464658737184,-5.640985488891602,-8.413965225219727,-0.3322284817695617,3.48828125,0,fly,6.1,90,202.0,1.4237172792996675,[25900|0|0|0],fly
23600,1.3428900241851809,0.6142740249633789,0.9690541625022888,-8.958984375,-8.697887420654297,-0.5880020260810852,3.462890625,0,fly,6.1,90,202.0,1.5149645758388424,[25900|0|0|0],fly
23700,1.323405623435974,0.5474159717559814,0.985382080078125,-9.097196578979492,-7.795783042907715,-1.6666226387023926,3.416015625,0,fly,6.1,90,202.0,1.586492486779972,[25900|0|0|0],fly
23800,1.3146083354949951,0.4953139424324035,0.9906830191612244,-10.447099685668944,-5.048900127410889,-0.7950093150138855,3.3828125,0,fly,6.1,90,202.0,1.639597229411061,[25900|0|0|0],fly
23900,1.3127634525299072,0.4585118889808655,0.9895101189613342,-9.145020484924316,-4.059026718139648,-0.2753061950206756,3.3515625,0,fly,6.1,90,202.0,1.6764641580366413,[25900|0|0|0],fly
24000,1.3163145780563354,0.4351797997951507,0.9870126247406006,-7.419723033905029,-1.97635018825531,0.3923611342906952,3.37890625,0,fly,6.1,90,202.0,1.700196717014914,[25900|0|0|0],fly
24100,1.3225219249725342,0.4224596917629242,0.9877276420593262,-5.622396945953369,-0.654881477355957,-0.0468702726066112,3.37890625,0,fly,6.1,90,202.0,1.7143686453895437,[25900|0|0|0],fly
24200,1.3294178247451782,0.4166126251220703,0.9911607503890992,-3.5995359420776367,0.3804362118244171,-0.4701660275459289,3.41015625,0,fly,6.1,90,202.0,1.724039625421624,[25900|0|0|0],fly
24300,1.3353374004364014,0.4140579104423523,0.995063841342926,-2.1455981731414795,0.8408887386322021,-0.7667182087898254,3.404296875,0,fly,6.1,90,202.0,1.7315763397224802,[25900|0|0|0],fly
24400,1.339066743850708,0.413195252418518,0.9969338178634644,-1.138612985610962,0.7832283973693848,-1.0889962911605835,3.388671875,0,fly,6.1,90,202.0,1.7358365032586935,[25900|0|0|0],fly
24500,1.341033697128296,0.4120145440101623,0.9973569512367249,-0.3031508922576904,0.610817551612854,-1.2205208539962769,3.373046875,0,fly,6.1,90,202.0,1.7381693168803407,[25900|0|0|0],fly
24600,1.341920018196106,0.4099020659923553,0.9967455863952636,-0.6045127511024475,0.2849397957324981,-1.355236291885376,3.373046875,0,fly,6.1,90,202.0,1.740540370523837,[25900|0|0|0],fly
24700,1.3415626287460327,0.4075300991535187,0.995896577835083,-0.9934026002883912,0.1264649182558059,-1.6237940788269043,3.37890625,0,fly,6.1,90,202.0,1.7430849273494595,[25900|0|0|0],fly
24800,1.3411948680877686,0.405165821313858,0.995305836200714,-1.433945655822754,-0.0002613202086649,-2.0308141708374023,3.404296875,0,fly,6.1,90,202.0,1.7455494827421127,[25900|0|0|0],fly
24900,1.3407855033874512,0.4050675630569458,0.9936374425888062,-1.7907660007476809,-0.134424403309822,-2.2622499465942383,3.388671875,0,fly,6.1,90,202.0,1.747270171960761,[25900|0|0|0],fly
25000,1.3407061100006104,0.4063858985900879,0.9920547008514404,-1.7072862386703491,-0.3053649961948395,-2.3437602519989014,3.388671875,0,fly,6.1,90,202.0,1.7493315751952154,[25900|0|0|0],fly
25100,1.3412026166915894,0.4104579091072082,0.9895102381706238,-1.3314566612243652,-0.2793699502944946,-2.14337158203125,3.39453125,0,fly,6.1,90,202.0,1.7541587978832416,[25900|0|0|0],fly
25200,1.34262216091156,0.415993183851242,0.987059772014618,-0.905476212501526,-0.2038928866386413,-1.825067400932312,3.3984375,0,fly,6.1,90,202.0,1.7603764466885474,[25900|0|0|0],fly
25300,1.3443593978881836,0.4232301115989685,0.984135627746582,-0.5203348994255066,-0.0386631898581981,-1.3440994024276731,3.494140625,0,fly,6.1,90,202.0,1.7683728043118063,[25900|0|0|0],fly
25400,1.3462005853652954,0.4298915565013885,0.9822751879692078,-0.0100054303184151,0.2059231549501419,-1.210741639137268,3.537109375,0,fly,6.1,90,202.0,1.775530042304153,[25900|0|0|0],fly
25500,1.3478996753692627,0.4367248713970184,0.9798448085784912,0.1796683222055435,0.2340064048767089,-1.3327090740203855,3.541015625,0,fly,6.1,90,202.0,1.7829790585672065,[25900|0|0|0],fly
25600,1.3486785888671875,0.4431281387805938,0.9770886301994324,0.2537072002887726,0.3292923271656036,-1.3107142448425293,3.537109375,0,fly,6.1,90,202.0,1.7899936903237563,[25900|0|0|0],fly
25700,1.349200963973999,0.4486313462257385,0.974073886871338,0.6556064486503601,-0.0011853966861963,-1.4036850929260254,3.53125,0,fly,6.1,90,202.0,1.796290264413752,[25900|0|0|0],fly
25800,1.348759651184082,0.454289048910141,0.9708251953125,0.6889150738716125,0.2129483968019485,-1.4290387630462646,3.53125,0,fly,6.1,90,270.0,1.802829251605061,[25900|0|0|0],fly
25900,1.3491886854171753,0.4587163031101227,0.9596042037010192,0.6969049572944641,-1.05470073223114,-1.6415810585021973,3.853515625,0,fly,6.1,90,270.0,1.8148996825364463,[25900|0|0|0],fly
26000,1.3494019508361816,0.4640690982341766,0.9123701453208924,1.4827758073806765,0.437931627035141,-1.84253454208374,3.748046875,0,fly,6.1,90,270.0,1.8624365542134536,[25900|0|0|0],fly
26100,1.348580241203308,0.4682793617248535,0.8233367204666138,0.8870896100997925,-0.8769617676734924,-2.2925918102264404,3.615234375,0,fly,6.1,90,270.0,1.951573259709361,[25900|0|0|0],fly
26200,1.3485519886016846,0.4702921509742737,0.707270085811615,0.5815125107765198,-0.0617314726114273,-3.90350079536438,3.541015625,0,fly,6.1,90,270.0,2.06765734905372,[25900|0|0|0],fly
26300,1.348404884338379,0.4722439050674438,0.5765185356140137,0.9853622317314148,0.505241870880127,-5.880290508270264,3.48828125,0,fly,6.1,90,270.0,2.1984235482902976,[25900|0|0|0],fly
26400,1.3483656644821167,0.4731504321098327,0.4421346485614776,0.9326079487800598,-0.6596729755401611,-9.518413543701172,3.45703125,0,fly,6.1,90,270.0,2.3328104986568583,[25900|0|0|0],fly
26500,1.3469960689544678,0.4729163944721222,0.3198345303535461,1.627219557762146,1.2330312728881836,-15.283846855163574,3.484375,0,fly,6.1,90,270.0,2.455118509347897,[25900|0|0|0],fly
26600,1.345058798789978,0.4720754325389862,0.2096902579069137,-0.1345440596342086,-1.978755474090576,-22.29668426513672,3.505859375,0,fly,6.1,90,270.0,2.5652830271631224,[25900|0|0|0],fly
26700,1.349958062171936,0.4719277322292328,0.1108583658933639,-6.432782173156738,-7.831294536590576,-27.55810165405273,3.462890625,0,fly,6.1,90,270.0,2.6642363872679984,[25900|0|0|0],fly
26800,1.3714250326156616,0.4770595133304596,0.0223311576992273,-10.05555248260498,-8.370305061340332,-29.34697914123535,3.46875,0,fly,6.1,90,270.0,2.755473619733427,[25900|0|0|0],fly
26900,1.4080177545547483,0.4875674843788147,0.0,1.9150718450546265,3.2694382667541504,-27.289501190185547,3.541015625,0,fly,6.1,90,270.0,2.7996111928276983,[25900|0|0|0],fly
27000,1.4354225397109983,0.4974802732467651,0.0171509757637977,9.524012565612791,12.694339752197266,-20.37167930603028,3.611328125,0,fly,6.1,90,270.0,2.83342600618296,[25900|0|0|0],fly
27100,1.443676471710205,0.498063176870346,0.0491705983877182,11.64947509765625,8.960721015930176,-10.55922794342041,3.60546875,0,fly,6.1,90,270.0,2.866497495460889,[25900|0|0|0],fly
27200,1.4345823526382446,0.4842519164085388,0.0690554678440094,6.166210174560547,9.775972366333008,-4.0223798751831055,3.578125,0,fly,6.1,90,270.0,2.892359860985578,[25900|0|0|0],fly
27300,1.4131892919540403,0.4595455527305603,0.0766308382153511,4.197974681854248,4.100175857543945,0.9250940084457396,3.546875,0,fly,6.1,90,270.0,2.925907643146096,[25900|0|0|0],fly
27400,1.3846547603607178,0.4298237264156341,0.0771658644080162,-1.986830830574036,0.7106186151504517,2.8322954177856445,3.525390625,0,fly,6.1,90,270.0,2.9671131367819186,[25900|0|0|0],fly
27500,1.359081149101257,0.4096294641494751,0.0805952399969101,-6.060679912567139,-4.330111980438232,3.744426012039185,3.537109375,0,fly,6.1,90,270.0,2.99987864361844,[25900|0|0|0],fly
27600,1.3374638557434082,0.3971051275730133,0.0811632946133613,-5.216893196105957,-6.246023178100586,5.136264801025391,3.541015625,0,fly,6.1,90,270.0,3.0248684228260894,[25900|0|0|0],fly
27700,1.3258508443832395,0.3990568816661834,0.0807863026857376,-2.970183849334717,-4.82506799697876,5.39097261428833,3.537109375,0,fly,6.1,90,270.0,3.036650336923769,[25900|0|0|0],fly
27800,1.3254693746566772,0.4101454317569732,0.0783012434840202,-2.370458602905273,-5.312055587768555,4.755186080932617,3.53125,0,fly,6.1,90,270.0,3.0480203405079496,[25900|0|0|0],fly
27900,1.3329442739486694,0.4258310496807098,0.0738408267498016,0.8309800624847412,-3.150029182434082,4.467447280883789,3.525390625,0,fly,6.1,90,270.0,3.065959349580855,[25900|0|0|0],fly
28000,1.3477561473846436,0.4408481121063232,0.0718080028891563,2.0670037269592285,-1.1203181743621826,4.053001403808594,3.525390625,0,fly,6.1,90,270.0,3.087149822237841,[25900|0|0|0],fly
28100,1.364894151687622,0.4534416794776916,0.0731700211763382,1.4550065994262695,1.858065128326416,3.921665191650391,3.537109375,0,fly,6.1,90,270.0,3.108460951359517,[25900|0|0|0],fly
28200,1.3807694911956787,0.4624258577823639,0.076943539083004,2.4904963970184326,1.2675549983978271,4.3272199630737305,3.552734375,0,fly,6.1,90,270.0,3.1270883854742344,[25900|0|0|0],fly
28300,1.3945887088775637,0.4686124920845032,0.0790271162986755,1.480056643486023,3.3890645503997803,5.555414199829102,3.537109375,0,fly,6.1,90,270.0,3.142371922870446,[25900|0|0|0],fly
28400,1.4050668478012085,0.4729315340518951,0.0796219632029533,1.079965591430664,2.7923154830932617,7.001629829406738,3.541015625,0,fly,6.1,90,270.0,3.153720903514487,[25900|0|0|0],fly
28501,1.4117664098739624,0.4764062762260437,0.0787745863199234,1.4691694974899292,2.9097330570220947,7.685673236846924,3.525390625,0,fly,6.1,90,270.0,3.1613153760258195,[25900|0|0|0],fly
28601,1.4140591621398926,0.477787435054779,0.0764112547039985,1.5484061241149902,2.61152982711792,6.510292053222656,3.509765625,0,fly,6.1,90,270.0,3.1648860410885145,[25900|0|0|0],fly
28701,1.4131674766540527,0.4772305488586426,0.0751822367310524,2.184840679168701,2.059581995010376,4.784792423248291,3.515625,0,fly,6.1,90,270.0,3.166503356895316,[25900|0|0|0],fly
28801,1.4100090265274048,0.4741547405719757,0.0743693262338638,0.852753758430481,0.8775054216384888,2.926108360290528,3.525390625,0,B2,6.1,90,270.0,3.1709863500132327,[25900|100|0|0],first_intermediate
28901,1.4055776596069336,0.4683990180492401,0.0763774439692497,1.011322021484375,1.0952410697937012,1.931598782539368,3.525390625,0,B2,6.1,90,270.0,3.178522787592205,[25900|200|0|0],first_intermediate
29001,1.4002416133880615,0.4604535698890686,0.0766118541359901,-0.865652322769165,0.0401485860347747,1.990899443626404,3.53125,0,B2,6.1,90,270.0,3.18809663132616,[25900|300|0|0],first_intermediate
29101,1.3935092687606812,0.4517512917518616,0.0780095160007476,-1.5519673824310305,0.0723394528031349,2.598442792892456,3.541015625,0,B2,6.1,90,270.0,3.199187509003212,[25900|400|0|0],first_intermediate
29201,1.3863831758499146,0.4449576437473297,0.0798612833023071,-1.2335351705551147,-0.5032757520675659,3.241240978240967,3.53125,0,B2,6.1,90,270.0,3.20920568725684,[25900|500|0|0],first_intermediate
29301,1.3790624141693115,0.4409375786781311,0.0822318419814109,-0.5191459655761719,0.1978585571050644,4.865900993347168,3.537109375,0,B2,6.1,90,270.0,3.2178875086784,[25900|600|0|0],first_intermediate
29401,1.372548222541809,0.438786119222641,0.0845584794878959,-0.6862919926643372,-0.5072698593139648,5.974403858184815,3.537109375,0,B2,6.1,90,270.0,3.225131589878595,[25900|700|0|0],first_intermediate
29500,1.3666807413101196,0.4378584325313568,0.0871712788939476,0.2155666649341583,-0.2367132157087326,5.174517631530762,3.537109375,0,B2,6.1,90,270.0,3.2316211707077147,[25900|800|0|0],first_intermediate
29600,1.3617438077926636,0.4369728565216064,0.0867850035429,-0.5942016839981079,0.5081622004508972,3.9529483318328857,3.521484375,0,B2,6.1,90,270.0,3.236651753782434,[25900|900|0|0],first_intermediate
29700,1.354606866836548,0.4373732209205627,0.0852067172527313,0.0649466291069984,0.3087672889232635,3.437143325805664,3.525390625,0,B2,6.1,90,270.0,3.243972082018024,[25900|1000|0|0],first_intermediate
29802,1.3469526767730713,0.4383054673671722,0.0847070664167404,-0.8716259598731995,-0.7712014317512512,2.150073289871216,3.525390625,0,B2,6.1,90,270.0,3.251699006368821,[25900|1100|0|0],first_intermediate
29900,1.3397644758224487,0.4401699006557464,0.0833633467555046,0.3063940405845642,-0.0618247538805007,0.6592580676078796,3.521484375,0,B2,6.1,90,270.0,3.25924565641517,[25900|1200|0|0],first_intermediate
30000,1.3316057920455933,0.4421339035034179,0.0835178196430206,0.0563251450657844,-0.9969955086708068,-0.8935427665710449,3.525390625,0,B2,6.1,90,270.0,3.267638825663396,[25900|1300|0|0],first_intermediate
30102,1.323111891746521,0.4439254105091095,0.0862515866756439,-1.7026032209396362,0.5239882469177246,-3.195704221725464,3.537109375,0,B2,6.1,90,270.0,3.276739887240524,[25900|1400|0|0],first_intermediate
30202,1.3135883808135986,0.4481038749217987,0.0890348553657531,-1.1440218687057495,-0.1828533560037613,-4.820340633392334,3.537109375,0,B2,6.1,90,270.0,3.287505731839948,[25900|1500|0|0],first_intermediate
30302,1.303384780883789,0.4547831118106842,0.089312344789505,-0.9640488028526306,-1.325330138206482,-4.466761112213135,3.541015625,0,B2,6.1,90,270.0,3.299704201306473,[25900|1600|0|0],first_intermediate
30402,1.2949727773666382,0.4640833139419555,0.0883199200034141,0.2813878357410431,0.500625491142273,-2.793083906173706,3.515625,0,B2,6.1,90,270.0,3.312283568135178,[25900|1700|0|0],first_intermediate
30500,1.286242961883545,0.473170131444931,0.0869489535689354,-0.0208024699240922,-0.492929607629776,-2.722403049468994,3.521484375,0,B2,6.1,90,270.0,3.3249587201920843,[25900|1800|0|0],first_intermediate
30600,1.2784264087677002,0.4840467274188995,0.086255706846714,-0.0962225049734115,0.0595899559557437,-2.9671709537506104,3.521484375,0,B2,6.1,90,270.0,3.33837063406042,[25900|1900|0|0],first_intermediate
30700,1.2689539194107056,0.4960668385028839,0.0858946442604065,-0.2357968538999557,-0.1394471526145935,-2.181649923324585,3.521484375,0,B2,6.1,90,270.0,3.3536788505235133,[25900|2000|0|0],first_intermediate
30800,1.2592893838882446,0.5092997550964355,0.0755499973893165,5.000250339508057,0.0778470933437347,-1.9829316139221191,3.98046875,0,B2,6.1,90,270.0,3.373057319176231,[25900|2100|0|0],first_intermediate
30900,1.2491456270217896,0.5182127952575684,0.0130744474008679,8.106632232666016,-1.6971421241760254,-4.575865268707275,3.984375,0,B2,6.1,90,270.0,3.4369754890079687,[25900|2200|0|0],first_intermediate
31000,1.239366888999939,0.5266808867454529,0.0,-2.910162687301636,0.2542127072811126,-11.308424949645996,3.990234375,0,B2,6.1,90,270.0,3.455367701098558,[25900|2300|0|0],first_intermediate
31100,1.2364435195922852,0.527817964553833,0.0,-2.568245649337769,0.3106008470058441,-11.999999046325684,3.990234375,0,B2,6.1,90,270.0,3.458504424649641,[25900|2400|0|0],first_intermediate
31200,1.236287236213684,0.5277010202407837,0.0,-2.286208152770996,0.3056409358978271,-11.907865524291992,3.99609375,0,B2,6.1,90,270.0,3.4586996180582936,[25900|2500|0|0],first_intermediate
31300,1.2345008850097656,0.5277441143989563,0.0,-2.089414596557617,0.3757855296134949,-16.445831298828125,3.99609375,0,B2,6.1,90,270.0,3.4604864889910165,[25900|2600|0|0],first_intermediate
31400,1.2295875549316406,0.52857905626297,0.0,-1.714207649230957,0.5441198348999023,-20.09326934814453,3.99609375,0,B2,6.1,90,270.0,3.465470256679512,[25900|2700|0|0],first_intermediate
31500,1.229533553123474,0.527849555015564,0.0,-1.4846646785736084,0.5076680779457092,-20.01289367675781,4.0,0,B2,6.1,90,270.0,3.466201753955824,[25900|2800|0|0],first_intermediate
31600,1.224395990371704,0.5297518372535706,0.0,-1.3551108837127686,2.7851264476776123,-23.527393341064453,4.0,0,B2,6.1,90,270.0,3.471680187011124,[25900|2900|0|0],first_intermediate
31700,1.2224409580230713,0.5373943448066711,0.0,-1.0922672748565674,0.382933646440506,-19.437891006469727,4.0,0,B2,6.1,90,270.0,3.479568791018387,[25900|3000|0|0],first_intermediate
31800,1.222983717918396,0.5390332341194153,0.0,-4.559734344482422,0.8059354424476624,-18.396678924560547,4.0,0,B2,6.1,90,270.0,3.481295216945961,[25900|3100|0|0],first_intermediate
31900,1.2235904932022097,0.5257709622383118,0.001834840979427,-22.28929328918457,7.413577556610107,-16.147340774536133,4.0078125,0,B2,6.1,90,270.0,3.494697555290934,[25900|3200|0|0],first_intermediate
32000,1.2414308786392212,0.5021024346351624,0.0506304986774921,-12.18369197845459,-2.842750072479248,-7.135123252868652,4.0078125,0,B2,6.1,90,270.0,3.551789540381916,[25900|3300|0|0],first_intermediate
32100,1.2790656089782717,0.5032280683517456,0.0466130748391151,-4.163794040679932,0.5291597247123718,-9.404730796813965,4.0078125,0,B2,6.1,90,270.0,3.589654823600904,[25900|3400|0|0],first_intermediate
32200,1.306233048439026,0.5160921216011047,0.0200053416192531,-2.921654462814331,6.6804046630859375,-13.412050247192385,4.0078125,0,B2,6.1,90,270.0,3.629798628850972,[25900|3500|0|0],first_intermediate
32300,1.3145381212234497,0.5192866325378418,0.0,-3.5038037300109863,9.427045822143556,-11.58570671081543,4.0078125,0,B2,6.1,90,270.0,3.6516936700106166,[25900|3600|0|0],first_intermediate
32400,1.3201165199279783,0.519007682800293,0.0,-1.9725884199142456,1.302088499069214,-12.36404037475586,4.01171875,0,B2,6.1,90,270.0,3.657279038849177,[25900|3700|0|0],first_intermediate
32500,1.321847677230835,0.5184697508811951,0.0,-1.054940700531006,-2.896700859069824,-11.898862838745115,4.01171875,0,B2,6.1,90,270.0,3.659091847817827,[25900|3800|0|0],first_intermediate
32600,1.32358717918396,0.5192787647247314,0.0,-4.074584007263184,-4.474364280700684,-12.67142391204834,4.01171875,0,B2,6.1,90,270.0,3.6610102769783537,[25900|3900|0|0],first_intermediate
32700,1.3238306045532229,0.5191861987113953,0.0,-4.0883564949035645,-4.396297931671143,-12.669648170471191,4.01171875,0,B2,6.1,90,270.0,3.661270708115558,[25900|4000|0|0],first_intermediate
32800,1.3241186141967771,0.5186259746551514,0.0,-4.076747417449951,-4.342357158660889,-12.729671478271484,4.015625,0,B2,6.1,90,270.0,3.661900629180434,[25900|4100|0|0],first_intermediate
32900,1.324243187904358,0.5189436078071594,0.0,-4.063528537750244,-4.276944637298584,-12.74893283843994,4.015625,0,B2,6.1,90,270.0,3.6622418174391353,[25900|4200|0|0],first_intermediate
33000,1.3241333961486816,0.5187354683876038,0.0,-4.021454334259033,-4.184073448181152,-12.79183864593506,4.015625,0,B2,6.1,90,270.0,3.6624771390224784,[25900|4300|0|0],first_intermediate
33100,1.3240702152252195,0.5193046927452087,0.0,-3.995166063308716,-4.119151592254639,-12.802369117736816,4.015625,0,B2,6.1,90,270.0,3.663049859022461,[25900|4400|0|0],first_intermediate
33200,1.3243530988693235,0.5190545320510864,0.0,-3.9558401107788086,-4.151292324066162,-12.801916122436523,4.02734375,0,B2,6.1,90,270.0,3.663427487846818,[25900|4500|0|0],first_intermediate
33300,1.3243714570999146,0.5186725854873657,0.0,-3.9306561946868896,-4.100184440612793,-12.80699348449707,4.1015625,0,B2,6.1,90,270.0,3.663809875349449,[25900|4600|0|0],first_intermediate
33400,1.3243601322174072,0.5191030502319336,0.0,-3.9337563514709473,-4.089740753173828,-12.832544326782228,4.1015625,0,B2,6.1,90,270.0,3.664240489038595,[25900|4700|0|0],first_intermediate
