,time.ms,stateEstimate.x,stateEstimate.y,stateEstimate.z,stabilizer.roll,stabilizer.pitch,stabilizer.yaw,pm.vbat,drone_id,node_name,wind_speed,global_wind_direction,relative_wind_direction,travel_dist,waiting_time
0,0,0.6845209002494812,0.3901413977146148,0.0,-0.8161001205444336,0.7602835297584534,-8.340882301330566,4.06640625,0,"['F2', 'B2', 'A1']",6.1,0,450.0,0.0,[6200|0|0]
1,100,0.6844629645347595,0.3892531096935272,0.0,-0.7088032960891724,0.8063606023788452,-8.349583625793457,4.06640625,0,"['F2', 'B2', 'A1']",6.1,0,450.0,0.000890175350955,[6300|0|0]
2,200,0.6846101880073547,0.3893744647502899,0.0,-0.7245981097221375,0.7984349131584167,-8.380653381347656,4.0703125,0,"['F2', 'B2', 'A1']",6.1,0,450.0,0.0010809679102567,[6400|0|0]
3,300,0.684705376625061,0.3896576464176178,0.0,-0.7422061562538147,0.7904007434844971,-8.366671562194824,4.06640625,0,"['F2', 'B2', 'A1']",6.1,0,450.0,0.0013797198636418,[6500|0|0]
4,400,0.6844099760055542,0.3893764317035675,0.0,-0.7378352284431458,0.7944207191467285,-8.36349868774414,4.0703125,0,"['F2', 'B2', 'A1']",6.1,0,450.0,0.0017875718483169,[6600|0|0]
5,500,0.6847856640815735,0.3895366489887237,0.0,-0.7506672739982605,0.7819840908050537,-8.340590476989746,4.06640625,0,"['F2', 'B2', 'A1']",6.1,0,450.0,0.0021959970053848,[6700|0|0]
6,600,0.6842729449272156,0.3895377516746521,0.0,-0.7442309260368347,0.7973111271858215,-8.353116035461426,4.06640625,0,"['F2', 'B2', 'A1']",6.1,0,450.0,0.002708717345494,[6800|0|0]
7,700,0.6846342086791992,0.3895508646965027,0.0,-0.7466351389884949,0.7785552144050598,-8.333239555358887,4.06640625,0,"['F2', 'B2', 'A1']",6.1,0,450.0,0.003070219005019,[6900|0|0]
8,800,0.6842049956321716,0.3898468315601349,0.0,-0.758539617061615,0.7850404977798462,-8.347289085388184,4.0703125,0,"['F2', 'B2', 'A1']",6.1,0,450.0,0.0035915828166775,[7000|0|0]
9,900,0.684493362903595,0.3896472752094269,0.0,-0.7555275559425354,0.774702787399292,-8.340094566345215,4.06640625,0,"['F2', 'B2', 'A1']",6.1,0,450.0,0.0039422656082941,[7100|0|0]
10,1000,0.6842986345291138,0.3895341455936432,0.0,-0.7532649040222168,0.7815690040588379,-8.338134765625,4.0703125,0,"['F2', 'B2', 'A1']",6.1,0,450.0,0.0041674709585757,[7200|0|0]
11,1100,0.6843720078468323,0.3895131647586822,0.0,-0.7508333325386047,0.7714283466339111,-8.33596134185791,4.0703125,0,"['F2', 'B2', 'A1']",6.1,0,450.0,0.0042437850410814,[7300|0|0]
12,1200,0.6838953495025635,0.3895200490951538,0.0,-0.7457224130630493,0.7864090800285339,-8.337345123291016,4.0703125,0,"['F2', 'B2', 'A1']",6.1,0,450.0,0.0047204930977048,[7400|0|0]
13,1300,0.6843313574790955,0.3893767595291137,0.0,-0.7386941909790039,0.7758048176765442,-8.352621078491211,4.06640625,0,"['F2', 'B2', 'A1']",6.1,0,450.0,0.005179442828433,[7500|0|0]
14,1400,0.6844605207443237,0.3894943594932556,0.0,-0.746425449848175,0.7714223861694336,-8.358077049255371,4.0703125,0,"['F2', 'B2', 'A1']",6.1,0,450.0,0.0053541222509492,[7600|0|0]
15,1500,0.6844120621681213,0.3893356621265411,0.0,-0.7425245046615601,0.776078999042511,-8.334273338317871,4.06640625,0,"['F2', 'B2', 'A1']",6.1,0,450.0,0.0055200532239763,[7700|0|0]
16,1600,0.6844068169593811,0.389446347951889,0.0,-0.7498714327812195,0.777549684047699,-8.370018005371094,4.06640625,0,"['F2', 'B2', 'A1']",6.1,0,450.0,0.0056308632602892,[7800|0|0]
17,1700,0.6843674778938293,0.3897286653518677,0.0,-0.7534840106964111,0.784929633140564,-8.375961303710938,4.0703125,0,"['F2', 'B2', 'A1']",6.1,0,450.0,0.0059159083030618,[7900|0|0]
18,1800,0.6846598386764526,0.3895621597766876,0.0,-0.747750461101532,0.7760688066482544,-8.352363586425781,4.06640625,0,"['F2', 'B2', 'A1']",6.1,0,450.0,0.0062523587953814,[8000|0|0]
19,1900,0.6845143437385559,0.3893333077430725,0.0,-0.7478978037834167,0.782929003238678,-8.351205825805664,4.06640625,0,"['F2', 'B2', 'A1']",6.1,0,450.0,0.0065235451339816,[8100|0|0]
20,2000,0.6848359704017639,0.3896136283874511,0.0,-0.7554105520248413,0.7744787931442261,-8.356216430664062,4.0703125,0,"['F2', 'B2', 'A1']",6.1,0,450.0,0.0069501871081838,[8200|0|0]
21,2100,0.6841087341308594,0.3894303441047668,0.0,-0.7459946274757385,0.7913390398025513,-8.333662986755371,4.06640625,0,"['F2', 'B2', 'A1']",6.1,0,450.0,0.0077001642558344,[8300|0|0]
22,2200,0.6846227645874023,0.3893967568874359,0.0,-0.7482053637504578,0.7813067436218262,-8.346231460571289,4.0703125,0,"['F2', 'B2', 'A1']",6.1,0,450.0,0.0082152908533052,[8400|0|0]
23,2300,0.6843018531799316,0.3894515335559845,0.0,-0.7530304193496704,0.7912867665290833,-8.342733383178711,4.06640625,0,"['F2', 'B2', 'A1']",6.1,0,450.0,0.0085408436368321,[8500|0|0]
24,2400,0.6844085454940796,0.389595627784729,0.0,-0.7571281790733337,0.7877097129821777,-8.332029342651367,4.06640625,0,"['F2', 'B2', 'A1']",6.1,0,450.0,0.0087201377991903,[8600|0|0]
25,2500,0.6845192313194275,0.389505535364151,0.0,-0.7555110454559326,0.7858292460441589,-8.347352027893066,4.0703125,0,"['F2', 'B2', 'A1']",6.1,0,450.0,0.0088628542880013,[8700|0|0]
26,2600,0.6843540668487549,0.3896781504154205,0.0,-0.757195234298706,0.7885181903839111,-8.342195510864258,4.0703125,0,"['F2', 'B2', 'A1']",6.1,0,450.0,0.0091017585748974,[8800|0|0]
27,2700,0.6844936013221741,0.3901329636573791,0.0,-0.793114423751831,0.7776650786399841,-8.338912010192871,4.06640625,0,"['F2', 'B2', 'A1']",6.1,0,450.0,0.0095774947983798,[8900|0|0]
28,2800,0.684511125087738,0.3895637989044189,0.0,-0.7606000304222107,0.7854164838790894,-8.355128288269043,4.06640625,0,"['F2', 'B2', 'A1']",6.1,0,450.0,0.0101469292532311,[9000|0|0]
29,2900,0.6843382120132446,0.389530599117279,0.0,-0.748377799987793,0.7993535995483398,-8.355690956115723,4.06640625,0,"['F2', 'B2', 'A1']",6.1,0,450.0,0.0103230007080354,[9100|0|0]
30,3000,0.6844676733016968,0.3897534310817718,0.0,-0.7427911162376404,0.8082626461982727,-8.34642505645752,4.06640625,0,"['F2', 'B2', 'A1']",6.1,0,450.0,0.0105807104470974,[9200|0|0]
31,3100,0.6843382120132446,0.3896481394767761,0.0,-0.7375733256340027,0.8141511678695679,-8.353296279907227,4.06640625,0,"['F2', 'B2', 'A1']",6.1,0,450.0,0.0107475832947696,[9300|0|0]
32,3200,0.6846507787704468,0.3897401690483093,0.0,-0.7387405633926392,0.8160364031791687,-8.366568565368652,4.06640625,0,"['F2', 'B2', 'A1']",6.1,0,450.0,0.0110734167180774,[9400|0|0]
33,3300,0.6846306324005127,0.3894208967685699,0.0,-0.7266535758972168,0.8198565244674683,-8.37074089050293,4.0703125,0,"['F2', 'B2', 'A1']",6.1,0,450.0,0.0113933239934425,[9500|0|0]
34,3400,0.6844922304153442,0.3898048400878906,0.0,-0.7406034469604492,0.8329300284385681,-8.370439529418945,4.06640625,0,"['F2', 'B2', 'A1']",6.1,0,450.0,0.0118014509123655,[9600|0|0]
35,3500,0.6846745610237122,0.3896056115627289,0.0,-0.7316960692405701,0.8237481713294983,-8.365914344787598,4.0703125,0,"['F2', 'B2', 'A1']",6.1,0,450.0,0.0120715184150124,[9700|0|0]
36,3600,0.6846685409545898,0.3897432386875152,0.0,-0.7337576746940613,0.8075279593467712,-8.357633590698242,4.06640625,0,"['F2', 'B2', 'A1']",6.1,0,450.0,0.0122092771414481,[9800|0|0]
37,3700,0.6842613220214844,0.3898258209228515,0.0,-0.7383298277854919,0.8160438537597656,-8.349729537963867,4.06640625,0,"['F2', 'B2', 'A1']",6.1,0,450.0,0.0126247853664843,[9900|0|0]
38,3800,0.684577226638794,0.3898459374904632,0.0,-0.7421391010284424,0.8033396005630493,-8.35289192199707,4.06640625,0,"['F2', 'B2', 'A1']",6.1,0,450.0,0.0129413298397104,[10000|0|0]
39,3900,0.6847066283226013,0.3890403211116791,0.0,-0.7269050478935242,0.8026835918426514,-8.34314250946045,4.06640625,0,"['F2', 'B2', 'A1']",6.1,0,450.0,0.0137572725739371,[10100|0|0]
40,4000,0.6843361258506775,0.3896836936473846,0.0,-0.7449163198471069,0.8139064908027649,-8.353404998779297,4.06640625,0,"['F2', 'B2', 'A1']",6.1,0,450.0,0.0144997012246517,[10200|0|0]
41,4100,0.6845332384109497,0.38969686627388,0.0,-0.7347435355186462,0.8007068037986755,-8.348323822021484,4.0703125,0,"['F2', 'B2', 'A1']",6.1,0,450.0,0.0146972534443452,[10300|0|0]
42,4200,0.6846840977668762,0.389919102191925,0.0,-0.742320716381073,0.7929568290710449,-8.330843925476074,4.06640625,0,"['F2', 'B2', 'A1']",6.1,0,450.0,0.0149658560291055,[10400|0|0]
43,4300,0.6845894455909729,0.38962522149086,0.0,-0.743299663066864,0.7945730686187744,-8.330276489257812,4.06640625,0,"['F2', 'B2', 'A1']",6.1,0,450.0,0.0152746033381815,[10500|0|0]
44,4400,0.6845573782920837,0.389483630657196,0.0,-0.7322770357131958,0.7938578128814697,-8.346094131469727,4.06640625,0,"['F2', 'B2', 'A1']",6.1,0,450.0,0.0154197800437362,[10600|0|0]
45,4500,0.6811589598655701,0.3854419887065887,0.0,-0.6379019021987915,0.846498429775238,-8.377095222473145,4.06640625,0,"['F2', 'B2', 'A1']",6.1,0,450.0,0.0207003214419809,[10700|0|0]
46,4600,0.6811050176620483,0.3857332766056061,0.0,-0.6447591185569763,0.8548811078071594,-8.369876861572266,4.06640625,0,"['F2', 'B2', 'A1']",6.1,0,450.0,0.0209965618872863,[10800|0|0]
47,4700,0.681278645992279,0.3853633403778076,0.0,-0.635437548160553,0.8492622375488281,-8.361674308776855,4.06640625,0,"['F2', 'B2', 'A1']",6.1,0,450.0,0.0214052177445751,[10900|0|0]
48,4800,0.6809969544410706,0.3855213224887848,0.0,-0.6356027722358704,0.8604373335838318,-8.362972259521484,4.0703125,0,"['F2', 'B2', 'A1']",6.1,0,450.0,0.0217281859742991,[11000|0|0]
49,4900,0.684945285320282,0.3894825279712677,0.0,-0.7335308194160461,0.788227915763855,-8.34306526184082,4.06640625,0,"['F2', 'B2', 'A1']",6.1,0,450.0,0.0273210801808962,[11100|0|0]
50,5000,0.6810036301612854,0.3856444954872131,0.0,-0.6310144662857056,0.8630308508872986,-8.383203506469727,4.06640625,0,"['F2', 'B2', 'A1']",6.1,0,450.0,0.0328226380276431,[11200|0|0]
51,5100,0.684790849685669,0.3892208337783813,0.0,-0.7184471487998962,0.7913009524345398,-8.34639835357666,4.06640625,0,"['F2', 'B2', 'A1']",6.1,0,450.0,0.0380315944777153,[11300|0|0]
52,5200,0.6812581419944763,0.3853533864021301,0.0,-0.6268824934959412,0.8464661836624146,-8.38778305053711,4.06640625,0,"['F2', 'B2', 'A1']",6.1,0,450.0,0.0432696449585224,[11400|0|0]
53,5300,0.6813286542892456,0.3854503333568573,0.0,-0.6249808669090271,0.8461316823959351,-8.361577987670898,4.0703125,0,"['F2', 'B2', 'A1']",6.1,0,450.0,0.0433895227952751,[11500|0|0]
54,5400,0.6808444261550903,0.3854518234729767,0.0,-0.6261937022209167,0.8570811748504639,-8.369961738586426,4.06640625,0,"['F2', 'B2', 'A1']",6.1,0,450.0,0.0438737532221934,[11600|0|0]
55,5500,0.6808509826660156,0.3856732547283172,0.0,-0.6347206234931946,0.8609808683395386,-8.357222557067871,4.06640625,0,"['F2', 'B2', 'A1']",6.1,0,450.0,0.044095281524397,[11700|0|0]
56,5600,0.6811168789863586,0.3856468498706817,0.0,-0.6318425536155701,0.8489071726799011,-8.37775993347168,4.06640625,0,"['F2', 'B2', 'A1']",6.1,0,450.0,0.0443624856966674,[11800|0|0]
57,5701,0.6810505986213684,0.3855438828468323,0.0,-0.627162516117096,0.8454729318618774,-8.372710227966309,4.06640625,0,"['F2', 'B2', 'A1']",6.1,0,450.0,0.0444849409733346,[11900|0|0]
58,5801,0.6812395453453064,0.3852528631687164,0.0,-0.6186940670013428,0.8390952348709106,-8.381058692932129,4.06640625,0,"['F2', 'B2', 'A1']",6.1,0,450.0,0.0448319183753907,[12000|0|0]
59,5900,0.6812178492546082,0.3854687213897705,0.0,-0.6240928769111633,0.8327217102050781,-8.393056869506836,4.06640625,0,"['F2', 'B2', 'A1']",6.1,0,450.0,0.0450488642026109,[12100|0|0]
60,6000,0.68133944272995,0.3854674100875854,0.0,-0.6895538568496704,0.8005999326705933,-8.392867088317871,4.06640625,0,"['F2', 'B2', 'A1']",6.1,0,450.0,0.0451704647484942,[12200|0|0]
61,6101,0.6813397407531738,0.3857235014438629,0.0,-0.6803609728813171,0.8128231167793274,-8.3810396194458,4.06640625,0,"['F2', 'B2', 'A1']",6.1,0,450.0,0.0454265562781821,[12300|0|0]
62,6200,0.6811301708221436,0.3852823972702026,0.0,-0.6587726473808289,0.8326322436332703,-8.39039421081543,4.0703125,0,"['F2', 'B2', 'A1']",6.1,0,450.0,0.0459149131640889,[12400|0|0]
63,6301,0.6811726093292236,0.3851446807384491,0.0,-0.651609480381012,0.8328806161880493,-8.395986557006836,4.06640625,0,"['F2', 'B2', 'A1']",6.1,0,450.0,0.0460590203117305,[12500|0|0]
64,6401,0.6810272932052612,0.3856428861618042,0.0,-0.6555349230766296,0.848989725112915,-8.401165962219238,4.06640625,0,"['F2', 'B2', 'A1']",6.1,0,450.0,0.0465779860328951,[12600|0|0]
65,6501,0.6812593340873718,0.3851921260356903,0.0,-0.6463916301727295,0.8406081795692444,-8.400900840759277,4.06640625,0,"['F2', 'B2', 'A1']",6.1,0,450.0,0.0470849649893271,[12700|0|0]
66,6601,0.6809671521186829,0.3853374719619751,0.0,-0.6508234143257141,0.8548638224601746,-8.413546562194824,4.06640625,0,"['F2', 'B2', 'A1']",6.1,0,450.0,0.0474113018415435,[12800|0|0]
67,6701,0.6811040639877319,0.3853908181190491,0.0,-0.6512565016746521,0.8491268157958984,-8.423073768615723,4.06640625,0,"['F2', 'B2', 'A1']",6.1,0,450.0,0.0475582394894118,[12900|0|0]
68,6802,0.6810003519058228,0.3851251602172851,0.0,-0.6391580104827881,0.8578314781188965,-8.430322647094727,4.06640625,0,"['F2', 'B2', 'A1']",6.1,0,450.0,0.0478434241957051,[13000|0|0]
69,6902,0.6810314655303955,0.3855000138282776,0.0,-0.6518084406852722,0.8521791100502014,-8.412053108215332,4.06640625,0,"['F2', 'B2', 'A1']",6.1,0,450.0,0.048219566837941,[13100|0|0]
70,7001,0.681165337562561,0.3854825794696808,0.0,-0.6275485157966614,0.8695778250694275,-8.435976028442383,4.06640625,0,"['F2', 'B2', 'A1']",6.1,0,450.0,0.0483545693484947,[13200|0|0]
71,7102,0.6811689734458923,0.3856790661811828,0.0,-0.626823902130127,0.872162401676178,-8.450079917907715,4.0703125,0,"['F2', 'B2', 'A1']",6.1,0,450.0,0.0485510896971726,[13300|0|0]
72,7202,0.6812825202941895,0.3853853046894073,0.0,-0.6242777705192566,0.8719666004180908,-8.432533264160156,4.06640625,0,"['F2', 'B2', 'A1']",6.1,0,450.0,0.0488660320741376,[13400|0|0]
73,7302,0.680986762046814,0.3854442536830902,0.0,-0.6248003244400024,0.8795299530029297,-8.414182662963867,4.06640625,0,"['F2', 'B2', 'A1']",6.1,0,450.0,0.049167607810474,[13500|0|0]
74,7402,0.6814250946044922,0.3850746154785156,0.0,-0.6264570951461792,0.8608077764511108,-8.416526794433594,4.06640625,0,"['F2', 'B2', 'A1']",6.1,0,450.0,0.0497409906087875,[13600|0|0]
75,7502,0.6809941530227661,0.3855122625827789,0.0,-0.6859152913093567,0.8462950587272644,-8.411467552185059,4.06640625,0,"['F2', 'B2', 'A1']",6.1,0,450.0,0.0503551938607576,[13700|0|0]
76,7600,0.6808662414550781,0.3855595290660858,0.0,-0.6749225854873657,0.8534071445465088,-8.445089340209961,4.06640625,0,"['F2', 'B2', 'A1']",6.1,0,450.0,0.050491559140769,[13800|0|0]
77,7700,0.6809567809104919,0.3856470584869385,0.0,-0.6645188331604004,0.8545848727226257,-8.444080352783203,4.06640625,0,"['F2', 'B2', 'A1']",6.1,0,450.0,0.0506174908385319,[13900|0|0]
78,7800,0.6809837818145752,0.3855848908424377,0.0,-0.6543701887130737,0.851061224937439,-8.4522705078125,4.0703125,0,"['F2', 'B2', 'A1']",6.1,0,450.0,0.0506852688943028,[14000|0|0]
79,7900,0.6809425354003906,0.3854306638240814,0.0,-0.6431622505187988,0.8550338745117188,-8.444077491760254,4.06640625,0,"['F2', 'B2', 'A1']",6.1,0,450.0,0.0508449161300263,[14100|0|0]
80,8002,0.6810562014579773,0.3853230476379394,0.0,-0.63714998960495,0.8447912335395813,-8.410755157470703,4.06640625,0,"['F2', 'B2', 'A1']",6.1,0,450.0,0.0510014447733062,[14200|0|0]
81,8100,0.6805883049964905,0.3854862153530121,0.0,-0.6397728323936462,0.8537123799324036,-8.423069953918457,4.06640625,0,"['F2', 'B2', 'A1']",6.1,0,450.0,0.0514969756017255,[14300|0|0]
82,8200,0.6812219023704529,0.3854802846908569,0.0,-0.6357443928718567,0.8340610861778259,-8.409187316894531,4.06640625,0,"['F2', 'B2', 'A1']",6.1,0,450.0,0.0521306007314716,[14400|0|0]
83,8300,0.6807184815406799,0.3853118419647217,0.0,-0.6370005011558533,0.8455407023429871,-8.385838508605957,4.06640625,0,"['F2', 'B2', 'A1']",6.1,0,450.0,0.0526614542742092,[14500|0|0]
84,8400,0.6810826063156128,0.3852997422218323,0.0,-0.6431130766868591,0.8389248847961426,-8.382664680480957,4.06640625,0,"['F2', 'B2', 'A1']",6.1,0,450.0,0.0530257800288546,[14600|0|0]
85,8500,0.681246817111969,0.3854812383651733,0.0,-0.6492542624473572,0.8386785984039307,-8.389525413513184,4.06640625,0,"['F2', 'B2', 'A1']",6.1,0,450.0,0.0532705371241299,[14700|0|0]
86,8600,0.6808220148086548,0.385485827922821,0.0,-0.6457622647285461,0.8510878682136536,-8.399115562438965,4.06640625,0,"['F2', 'B2', 'A1']",6.1,0,450.0,0.0536953642194763,[14800|0|0]
87,8700,0.6811535954475403,0.3854255974292755,0.0,-0.6452040076255798,0.8373926281929016,-8.413552284240723,4.06640625,0,"['F2', 'B2', 'A1']",6.1,0,450.0,0.0540323707957273,[14900|0|0]
88,8800,0.6810058355331421,0.3856383562088012,0.0,-0.6527750492095947,0.8381426334381104,-8.415279388427734,4.06640625,0,"['F2', 'B2', 'A1']",6.1,0,450.0,0.054291406103298,[15000|0|0]
89,8900,0.6810035705566406,0.3850528001785278,0.0,-0.6421677470207214,0.8375747203826904,-8.392803192138672,4.06640625,0,"['F2', 'B2', 'A1']",6.1,0,450.0,0.0548769665141081,[15100|0|0]
90,9000,0.6810144186019897,0.3853228390216827,0.0,-0.6570940613746643,0.8358151912689209,-8.387815475463867,4.06640625,0,"['F2', 'B2', 'A1']",6.1,0,450.0,0.0551472231641657,[15200|0|0]
91,9100,0.6809899210929871,0.3852633833885193,0.0,-0.65839022397995,0.8378010392189026,-8.395975112915039,4.06640625,0,"['F2', 'B2', 'A1']",6.1,0,450.0,0.0552115279094198,[15300|0|0]
92,9200,0.6809647679328918,0.3852655291557312,0.0,-0.6616491675376892,0.8400368094444275,-8.379287719726562,4.06640625,0,"['F2', 'B2', 'A1']",6.1,0,450.0,0.0552367724292152,[15400|0|0]
93,9300,0.6809558272361755,0.3853606879711151,0.0,-0.6688326001167297,0.8425872325897217,-8.395585060119629,4.06640625,0,"['F2', 'B2', 'A1']",6.1,0,450.0,0.055332350335674,[15500|0|0]
94,9400,0.6808680891990662,0.3853099942207336,0.0,-0.6656323075294495,0.8373041749000549,-8.406081199645996,4.06640625,0,"['F2', 'B2', 'A1']",6.1,0,450.0,0.0554336805852718,[15600|0|0]
95,9500,0.6808179616928101,0.3851876556873321,0.0,-0.5580744743347168,0.8929624557495117,-8.422879219055176,4.06640625,0,"['F2', 'B2', 'A1']",6.1,0,450.0,0.0555658905835257,[15700|0|0]
96,9600,0.6807816624641418,0.385454922914505,0.0,-0.5893736481666565,0.8788228631019592,-8.41977310180664,4.06640625,0,"['F2', 'B2', 'A1']",6.1,0,450.0,0.0558356115592072,[15800|0|0]
97,9700,0.680935263633728,0.3853093981742859,0.0,-0.5931931138038635,0.8673725128173828,-8.411635398864746,4.06640625,0,"['F2', 'B2', 'A1']",6.1,0,450.0,0.0560472026018203,[15900|0|0]
98,9800,0.6811932921409607,0.3850928246974945,0.0,-0.5938095450401306,0.8581018447875977,-8.387697219848633,4.06640625,0,"['F2', 'B2', 'A1']",6.1,0,450.0,0.0563840746567524,[16000|0|0]
99,9900,0.6813255548477173,0.3855185508728027,0.0,-0.6054230332374573,0.850206196308136,-8.38265323638916,4.0703125,0,"['F2', 'B2', 'A1']",6.1,0,450.0,0.0568298730416094,[16100|0|0]
100,10000,0.6810738444328308,0.3854191601276397,0.0,-0.6062089800834656,0.859425961971283,-8.374659538269043,4.06640625,0,"['F2', 'B2', 'A1']",6.1,0,450.0,0.057100495755339,[16200|0|0]
101,10100,0.6813523173332214,0.3851328492164612,0.0,-0.5956619381904602,0.8532431125640869,-8.385051727294922,4.06640625,0,"['F2', 'B2', 'A1']",6.1,0,450.0,0.0574998966743563,[16300|0|0]
102,10200,0.681257963180542,0.3855961561203003,0.0,-0.6045585870742798,0.856654167175293,-8.396239280700684,4.0703125,0,"['F2', 'B2', 'A1']",6.1,0,450.0,0.057972713756612,[16400|0|0]
103,10300,0.6812551021575928,0.3850226998329162,0.0,-0.5911372303962708,0.8520208597183228,-8.4008150100708,4.06640625,0,"['F2', 'B2', 'A1']",6.1,0,450.0,0.058546177180897,[16500|0|0]
104,10400,0.6810488700866699,0.3852064609527588,0.0,-0.5962024927139282,0.8532624244689941,-8.394360542297363,4.06640625,0,"['F2', 'B2', 'A1']",6.1,0,450.0,0.0588224013946129,[16600|0|0]
105,10500,0.681120753288269,0.3852580189704895,0.0,-0.595535397529602,0.8516621589660645,-8.377469062805176,4.06640625,0,"['F2', 'B2', 'A1']",6.1,0,450.0,0.0589108628204688,[16700|0|0]
106,10600,0.6811746954917908,0.3849943876266479,0.0,-0.5886009931564331,0.8585860729217529,-8.372198104858398,4.06640625,0,"['F2', 'B2', 'A1']",6.1,0,450.0,0.0591799561997565,[16800|0|0]
107,10700,0.6809459328651428,0.3853964209556579,0.0,-0.6004825830459595,0.8657202124595642,-8.391620635986328,4.06640625,0,"['F2', 'B2', 'A1']",6.1,0,450.0,0.0596425176951123,[16900|0|0]
108,10800,0.6811065673828125,0.3855478167533874,0.0,-0.6014407277107239,0.857539713382721,-8.39467716217041,4.06640625,0,"['F2', 'B2', 'A1']",6.1,0,450.0,0.0598632531382045,[17000|0|0]
109,10900,0.6810095310211182,0.3853364288806915,0.0,-0.5904125571250916,0.8655325770378113,-8.36707878112793,4.06640625,0,"['F2', 'B2', 'A1']",6.1,0,450.0,0.0600958491145536,[17100|0|0]
110,11000,0.6809902787208557,0.3853437304496765,0.0,-0.5911349058151245,0.8680806756019592,-8.382205963134766,4.06640625,0,"['F2', 'B2', 'A1']",6.1,0,450.0,0.0601164395000536,[17200|0|0]
111,11100,0.681101381778717,0.3850597441196441,0.0,-0.5820749998092651,0.8564432263374329,-8.395042419433594,4.06640625,0,"['F2', 'B2', 'A1']",6.1,0,450.0,0.0604213856020313,[17300|0|0]
112,11200,0.6809609532356262,0.3852949440479278,0.0,-0.5929792523384094,0.8616690635681152,-8.39616584777832,4.06640625,0,"['F2', 'B2', 'A1']",6.1,0,450.0,0.0606953184076229,[17400|0|0]
113,11300,0.68120276927948,0.3856045007705688,0.0,-0.5982427000999451,0.855991780757904,-8.363557815551758,4.06640625,0,"['F2', 'B2', 'A1']",6.1,0,450.0,0.061088129257266,[17500|0|0]
114,11400,0.6813283562660217,0.3851418793201446,0.0,-0.5864555239677429,0.8464844822883606,-8.361148834228516,4.06640625,0,"['F2', 'B2', 'A1']",6.1,0,450.0,0.0615674941470746,[17600|0|0]
115,11500,0.681296169757843,0.3852344155311584,0.0,-0.5908794403076172,0.8508707880973816,-8.350824356079102,4.06640625,0,"['F2', 'B2', 'A1']",6.1,0,450.0,0.061665468233738,[17700|0|0]
116,11600,0.6811794638633728,0.3856158554553985,0.0,-0.6018255949020386,0.8528976440429688,-8.33553695678711,4.06640625,0,"['F2', 'B2', 'A1']",6.1,0,450.0,0.0620643625575988,[17800|0|0]
117,11700,0.6811999082565308,0.3852819800376892,0.0,-0.5902308225631714,0.8515874147415161,-8.352758407592773,4.06640625,0,"['F2', 'B2', 'A1']",6.1,0,450.0,0.0623988633315324,[17900|0|0]
118,11800,0.6812861561775208,0.3853589296340942,0.0,-0.5935841798782349,0.8488476276397705,-8.375020027160645,4.06640625,0,"['F2', 'B2', 'A1']",6.1,0,450.0,0.0625144485566348,[18000|0|0]
119,11900,0.6808836460113525,0.3853685557842254,0.0,-0.5928398966789246,0.865094780921936,-8.368674278259277,4.06640625,0,"['F2', 'B2', 'A1']",6.1,0,450.0,0.0629170738124685,[18100|0|0]
120,12000,0.6812030673027039,0.3849903047084808,0.0,-0.5845790505409241,0.8665106892585754,-8.360462188720703,4.06640625,0,"['F2', 'B2', 'A1']",6.1,0,450.0,0.0634121534400745,[18200|0|0]
121,12100,0.681097149848938,0.3851461112499237,0.0,-0.5908096432685852,0.8692330718040466,-8.357390403747559,4.06640625,0,"['F2', 'B2', 'A1']",6.1,0,450.0,0.0636005524458273,[18300|0|0]
122,12200,0.6811609864234924,0.3856699466705322,0.0,-0.6045523881912231,0.8752857446670532,-8.342446327209473,4.06640625,0,"['F2', 'B2', 'A1']",6.1,0,450.0,0.0641282632152218,[18400|0|0]
123,12300,0.6813750267028809,0.3854041695594787,0.0,-0.5907629728317261,0.8687801361083984,-8.34954833984375,4.06640625,0,"['F2', 'B2', 'A1']",6.1,0,450.0,0.0644695119719385,[18500|0|0]
124,12400,0.6811513304710388,0.3851011097431183,0.0,-0.5825720429420471,0.8731132745742798,-8.380537033081055,4.0703125,0,"['F2', 'B2', 'A1']",6.1,0,450.0,0.0648461885658924,[18600|0|0]
125,12500,0.6811327934265137,0.385524034500122,0.0,-0.5949439406394958,0.8719988465309143,-8.371342658996582,4.06640625,0,"['F2', 'B2', 'A1']",6.1,0,450.0,0.0652695193728346,[18700|0|0]
126,12600,0.6812794804573059,0.3852258622646332,0.0,-0.5908870100975037,0.8629416227340698,-8.387157440185547,4.06640625,0,"['F2', 'B2', 'A1']",6.1,0,450.0,0.0656018200905875,[18800|0|0]
127,12700,0.6812453866004944,0.3851849138736725,0.0,-0.5879334211349487,0.8625420331954956,-8.39276123046875,4.06640625,0,"['F2', 'B2', 'A1']",6.1,0,450.0,0.0656551038760626,[18900|0|0]
128,12800,0.681286633014679,0.3852667808532715,0.0,-0.5907694101333618,0.8653408885002136,-8.3872652053833,4.06640625,0,"['F2', 'B2', 'A1']",6.1,0,450.0,0.0657467743131279,[19000|0|0]
129,12900,0.6811389327049255,0.3854667842388153,0.0,-0.6747852563858032,0.8359515070915222,-8.379097938537598,4.06640625,0,"['F2', 'B2', 'A1']",6.1,0,450.0,0.0659954040292325,[19100|0|0]
130,13000,0.6811453700065613,0.3851324021816253,0.0,-0.6438035368919373,0.8382917642593384,-8.370762825012207,4.06640625,0,"['F2', 'B2', 'A1']",6.1,0,450.0,0.0663298480440137,[19200|0|0]
131,13100,0.6813800930976868,0.3851199150085449,0.0,-0.633747935295105,0.8359608054161072,-8.389939308166504,4.06640625,0,"['F2', 'B2', 'A1']",6.1,0,450.0,0.0665649030567214,[19300|0|0]
132,13200,0.6810410022735596,0.3853072822093963,0.0,-0.6349563598632812,0.8503023386001587,-8.38929271697998,4.06640625,0,"['F2', 'B2', 'A1']",6.1,0,450.0,0.0669523163437447,[19400|0|0]
133,13300,0.6812647581100464,0.3852867782115936,0.0,-0.6349432468414307,0.8465962409973145,-8.379959106445312,4.06640625,0,"['F2', 'B2', 'A1']",6.1,0,450.0,0.067177009664268,[19500|0|0]
134,13400,0.6813498735427856,0.3851491510868072,0.0,-0.6290423274040222,0.8479716181755066,-8.34947395324707,4.06640625,0,"['F2', 'B2', 'A1']",6.1,0,450.0,0.0673388301276444,[19600|0|0]
135,13500,0.6809794902801514,0.3853069841861725,0.0,-0.6322286128997803,0.8597231507301331,-8.362861633300781,4.06640625,0,"['F2', 'B2', 'A1']",6.1,0,450.0,0.0677414404212223,[19700|0|0]
136,13600,0.6809351444244385,0.3852279782295227,0.0,-0.6336686611175537,0.8571241497993469,-8.392862319946289,4.06640625,0,"['F2', 'B2', 'A1']",6.1,0,450.0,0.0678320411723509,[19800|0|0]
137,13700,0.681223452091217,0.3855267465114593,0.0,-0.6402980089187622,0.8527341485023499,-8.406318664550781,4.06640625,0,"['F2', 'B2', 'A1']",6.1,0,450.0,0.0682472324499744,[19900|0|0]
138,13800,0.6810979247093201,0.3856450915336609,0.0,-0.6420937180519104,0.8518922924995422,-8.420602798461914,4.06640625,0,"['F2', 'B2', 'A1']",6.1,0,450.0,0.068419751051539,[20000|0|0]
139,13900,0.6812713742256165,0.3854128718376159,0.0,-0.6401363611221313,0.8508718013763428,-8.41252326965332,4.06640625,0,"['F2', 'B2', 'A1']",6.1,0,450.0,0.0687095970829671,[20100|0|0]
140,14000,0.6812613606452942,0.385084867477417,0.0,-0.6304098963737488,0.8484476208686829,-8.450042724609375,4.06640625,0,"['F2', 'B2', 'A1']",6.1,0,450.0,0.0690377542588758,[20200|0|0]
141,14100,0.6813986301422119,0.385157823562622,0.0,-0.6346870064735413,0.8473759889602661,-8.429550170898438,4.06640625,0,"['F2', 'B2', 'A1']",6.1,0,450.0,0.0691932068405607,[20300|0|0]
142,14200,0.6816282868385315,0.3855808973312378,0.0,-0.6436722874641418,0.8412157297134399,-8.396671295166016,4.06640625,0,"['F2', 'B2', 'A1']",6.1,0,450.0,0.069674594015146,[20400|0|0]
143,14300,0.681330680847168,0.3852047324180603,0.0,-0.6393555998802185,0.8538287281990051,-8.391427993774414,4.06640625,0,"['F2', 'B2', 'A1']",6.1,0,450.0,0.0701542494831658,[20500|0|0]
144,14400,0.6814323663711548,0.3852904438972473,0.0,-0.635715901851654,0.8474072217941284,-8.376786231994629,4.06640625,0,"['F2', 'B2', 'A1']",6.1,0,450.0,0.0702872397213522,[20600|0|0]
145,14500,0.6815199255943298,0.3854410648345947,0.0,-0.6494204998016357,0.8562546372413635,-8.386858940124512,4.06640625,0,"['F2', 'B2', 'A1']",6.1,0,450.0,0.0704614616612176,[20700|0|0]
146,14600,0.6818087697029114,0.3851074278354645,0.0,-0.6360657811164856,0.83558589220047,-8.376367568969727,4.06640625,0,"['F2', 'B2', 'A1']",6.1,0,450.0,0.0709027603879899,[20800|0|0]
147,14700,0.6812852621078491,0.3854410648345947,0.0,-0.6422021389007568,0.8492372632026672,-8.395136833190918,4.06640625,0,"['F2', 'B2', 'A1']",6.1,0,450.0,0.0715235452535243,[20900|0|0]
148,14800,0.6815336346626282,0.3854223191738128,0.0,-0.70533287525177,0.8021666407585144,-8.404491424560547,4.06640625,0,"['F2', 'B2', 'A1']",6.1,0,450.0,0.0717726242084073,[21000|0|0]
149,14900,0.681284487247467,0.3853981494903564,0.0,-0.5892660021781921,0.8569895029067993,-8.393072128295898,4.06640625,0,"['F2', 'B2', 'A1']",6.1,0,450.0,0.0720229412235698,[21100|0|0]
150,15000,0.6809711456298828,0.3853048980236053,0.0,-0.5851762890815735,0.863413393497467,-8.402276992797852,4.06640625,0,"['F2', 'B2', 'A1']",6.1,0,450.0,0.0723498644643489,[21200|0|0]
151,15100,0.6810184717178345,0.3852540254592895,0.0,-0.589367687702179,0.8638476133346558,-8.397913932800293,4.06640625,0,"['F2', 'B2', 'A1']",6.1,0,450.0,0.0724193466663929,[21300|0|0]
152,15200,0.6811909079551697,0.3852671980857849,0.0,-0.5806877613067627,0.8595103025436401,-8.384134292602539,4.06640625,0,"['F2', 'B2', 'A1']",6.1,0,450.0,0.0725922853087927,[21400|0|0]
153,15300,0.68099045753479,0.3852726817131042,0.0,-0.5830913782119751,0.8657780885696411,-8.368385314941406,4.06640625,0,"['F2', 'B2', 'A1']",6.1,0,450.0,0.0727928107216434,[21500|0|0]
154,15400,0.6812521815299988,0.3850201666355133,0.0,-0.5900263786315918,0.8501890301704407,-8.379924774169922,4.06640625,0,"['F2', 'B2', 'A1']",6.1,0,450.0,0.0731564909576733,[21600|0|0]
155,15500,0.6812950968742371,0.3852003514766693,0.0,-0.6136000156402588,0.8511026501655579,-8.395271301269531,4.06640625,0,"['F2', 'B2', 'A1']",6.1,0,450.0,0.0733417159661185,[21700|0|0]
156,15600,0.6815119981765747,0.3852668702602386,0.0,-0.6285389065742493,0.8379332423210144,-8.418354988098145,4.06640625,0,"['F2', 'B2', 'A1']",6.1,0,450.0,0.0735685880082993,[21800|0|0]
157,15700,0.6814321279525757,0.385283887386322,0.0,-0.6387767195701599,0.8367823362350464,-8.391453742980957,4.06640625,0,"['F2', 'B2', 'A1']",6.1,0,450.0,0.0736502509451911,[21900|0|0]
158,15800,0.6818253993988037,0.3852555155754089,0.0,-0.6532263159751892,0.8199147582054138,-8.389660835266113,4.06640625,0,"['F2', 'B2', 'A1']",6.1,0,450.0,0.0740445444780734,[22000|0|0]
159,15900,0.6813009977340698,0.3852046728134155,0.0,-0.6545181274414062,0.8422534465789795,-8.394341468811035,4.06640625,0,"['F2', 'B2', 'A1']",6.1,0,450.0,0.0745714050786337,[22100|0|0]
160,16000,0.6815928220748901,0.3853026330471039,0.0,-0.6567455530166626,0.8356122970581055,-8.390097618103027,4.06640625,0,"['F2', 'B2', 'A1']",6.1,0,450.0,0.074879232389442,[22200|0|0]
161,16100,0.681449294090271,0.3850389122962951,0.0,-0.6520195603370667,0.8396053910255432,-8.372003555297852,4.06640625,0,"['F2', 'B2', 'A1']",6.1,0,450.0,0.0751794804814859,[22300|0|0]
162,16200,0.6814502477645874,0.3851329386234283,0.0,-0.6523256897926331,0.8445903062820435,-8.378426551818848,4.06640625,0,"['F2', 'B2', 'A1']",6.1,0,450.0,0.0752735116448779,[22400|0|0]
163,16300,0.6813417077064514,0.3850957155227661,0.0,-0.6512332558631897,0.846606969833374,-8.374388694763184,4.06640625,0,"['F2', 'B2', 'A1']",6.1,0,450.0,0.0753882570301579,[22500|0|0]
164,16400,0.6815595626831055,0.3851024508476257,0.0,-0.65430748462677,0.8489736914634705,-8.37716293334961,4.06640625,0,"['F2', 'B2', 'A1']",6.1,0,450.0,0.0756062160984572,[22600|0|0]
165,16500,0.6811636686325073,0.3852763772010803,0.0,-0.6347808837890625,0.8651186227798462,-8.355025291442871,4.06640625,0,"['F2', 'B2', 'A1']",6.1,0,450.0,0.0760386308018671,[22700|0|0]
166,16600,0.6810551881790161,0.3851892054080963,0.0,-0.646790623664856,0.8625532984733582,-8.351029396057129,4.06640625,0,"['F2', 'B2', 'A1']",6.1,0,450.0,0.0761777959206351,[22800|0|0]
167,16700,0.6812245845794678,0.3849941194057464,0.0,-0.6564645171165466,0.8517153263092041,-8.359756469726562,4.06640625,0,"['F2', 'B2', 'A1']",6.1,0,450.0,0.0764361632730596,[22900|0|0]
168,16800,0.6811800003051758,0.385446161031723,0.0,-0.6670125722885132,0.8476787209510803,-8.364830017089844,4.06640625,0,"['F2', 'B2', 'A1']",6.1,0,450.0,0.0768903982223201,[23000|0|0]
169,16900,0.680972695350647,0.3852289319038391,0.0,-0.6624513268470764,0.8350502848625183,-8.374114990234375,4.06640625,0,"['F2', 'B2', 'A1']",6.1,0,450.0,0.0771906711617825,[23100|0|0]
170,17000,0.6812909841537476,0.3851067423820495,0.0,-0.5649146437644958,0.870182454586029,-8.376620292663574,4.06640625,0,"['F2', 'B2', 'A1']",6.1,0,450.0,0.0775316081668354,[23200|0|0]
171,17100,0.6810501217842102,0.3850214183330536,0.0,-0.5798001289367676,0.8598778247833252,-8.389689445495605,4.06640625,0,"['F2', 'B2', 'A1']",6.1,0,450.0,0.0777871367844033,[23300|0|0]
172,17200,0.6809372305870056,0.3853819072246551,0.0,-0.5992283821105957,0.8580725193023682,-8.378586769104004,4.06640625,0,"['F2', 'B2', 'A1']",6.1,0,450.0,0.0781648889033575,[23400|0|0]
173,17300,0.681272566318512,0.3849260807037353,0.0,-0.5965313911437988,0.845075249671936,-8.377331733703613,4.06640625,0,"['F2', 'B2', 'A1']",6.1,0,450.0,0.0787307757029904,[23500|0|0]
174,17400,0.6811308264732361,0.3850226700305938,0.0,-0.6054871678352356,0.8507481813430786,-8.355441093444824,4.06640625,0,"['F2', 'B2', 'A1']",6.1,0,450.0,0.0789022973686826,[23600|0|0]
175,17500,0.6811864376068115,0.3852487802505493,0.0,-0.6190972924232483,0.8515187501907349,-8.38731575012207,4.06640625,0,"['F2', 'B2', 'A1']",6.1,0,450.0,0.0791351458811233,[23700|0|0]
176,17600,0.6809500455856323,0.3851290047168731,0.0,-0.6166359782218933,0.8586075305938721,-8.403229713439941,4.06640625,0,"['F2', 'B2', 'A1']",6.1,0,450.0,0.0794001503455095,[23800|0|0]
177,17700,0.6812877058982849,0.3850210607051849,0.0,-0.6124980449676514,0.8503027558326721,-8.41699504852295,4.06640625,0,"['F2', 'B2', 'A1']",6.1,0,450.0,0.0797546449102069,[23900|0|0]
178,17800,0.6808363795280457,0.3853375613689422,0.0,-0.618990957736969,0.8667543530464172,-8.380860328674316,4.06640625,0,"['F2', 'B2', 'A1']",6.1,0,450.0,0.0803058872912265,[24000|0|0]
179,17900,0.6810746788978577,0.3851729333400726,0.0,-0.6111540198326111,0.858601450920105,-8.367779731750488,4.06640625,0,"['F2', 'B2', 'A1']",6.1,0,450.0,0.0805955232308858,[24100|0|0]
180,18000,0.6812406778335571,0.3854691982269287,0.0,-0.6107553243637085,0.8555150032043457,-8.351971626281738,4.06640625,0,"['F2', 'B2', 'A1']",6.1,0,450.0,0.0809351237754042,[24200|0|0]
181,18100,0.6810675263404846,0.3853894770145416,0.0,-0.602161169052124,0.8636160492897034,-8.378030776977539,4.06640625,0,"['F2', 'B2', 'A1']",6.1,0,450.0,0.0811257462065547,[24300|0|0]
182,18200,0.6813182234764099,0.3851878643035888,0.0,-0.592258632183075,0.8588312268257141,-8.390389442443848,4.06640625,0,"['F2', 'B2', 'A1']",6.1,0,450.0,0.0814474552974721,[24400|0|0]
183,18300,0.68095463514328,0.3853943049907684,0.0,-0.5927404165267944,0.8718359470367432,-8.375006675720215,4.06640625,0,"['F2', 'B2', 'A1']",6.1,0,450.0,0.0818655632181233,[24500|0|0]
184,18400,0.6815981864929199,0.3851279616355896,0.0,-0.58546382188797,0.8634073138237,-8.389453887939453,4.06640625,0,"['F2', 'B2', 'A1']",6.1,0,450.0,0.0825620523583626,[24600|0|0]
185,18500,0.6814369559288025,0.3850663006305694,0.0,-0.5964543223381042,0.8633828163146973,-8.3953218460083,4.06640625,0,"['F2', 'B2', 'A1']",6.1,0,450.0,0.082734671518208,[24700|0|0]
186,18600,0.6812731027603149,0.385414719581604,0.0,-0.6038984060287476,0.8732763528823853,-8.401259422302246,4.06640625,0,"['F2', 'B2', 'A1']",6.1,0,450.0,0.0831196957074006,[24800|0|0]
187,18700,0.681573212146759,0.3850030601024627,0.0,-0.5955907106399536,0.8701646327972412,-8.385377883911133,4.06640625,0,"['F2', 'B2', 'A1']",6.1,0,450.0,0.0836291357633432,[24900|0|0]
188,18800,0.6813246011734009,0.3850661218166351,0.0,-0.5992501378059387,0.8838455080986023,-8.365559577941895,4.06640625,0,"['F2', 'B2', 'A1']",6.1,0,450.0,0.0838856200628011,[25000|0|0]
189,18900,0.6812848448753357,0.3850531876087188,0.0,-0.5956211686134338,0.8884775638580322,-8.373580932617188,4.06640625,0,"['F2', 'B2', 'A1']",6.1,0,450.0,0.0839274274421769,[25100|0|0]
190,19000,0.6814567446708679,0.3849109709262848,0.0,-0.5948125123977661,0.8840277194976807,-8.389687538146973,4.06640625,0,"['F2', 'B2', 'A1']",6.1,0,450.0,0.084150530836294,[25200|0|0]
191,19100,0.6815014481544495,0.3850905895233154,0.0,-0.6038892865180969,0.8744559288024902,-8.39706802368164,4.06640625,0,"['F2', 'B2', 'A1']",6.1,0,450.0,0.0843356287613055,[25300|0|0]
192,19200,0.681565523147583,0.3850753307342529,0.0,-0.6024783849716187,0.8776018619537354,-8.388956069946289,4.06640625,0,"['F2', 'B2', 'A1']",6.1,0,450.0,0.0844014955616583,[25400|0|0]
193,19300,0.68141770362854,0.3854748904705047,0.0,-0.6883717775344849,0.8401311039924622,-8.392563819885254,4.06640625,0,"['F2', 'B2', 'A1']",6.1,0,450.0,0.08482752207849,[25500|0|0]
194,19400,0.6813440322875977,0.3850772082805633,0.0,-0.6553448438644409,0.8488637208938599,-8.41176986694336,4.06640625,0,"['F2', 'B2', 'A1']",6.1,0,450.0,0.0852319705803698,[25600|0|0]
195,19500,0.6811612248420715,0.3854380548000335,0.0,-0.6454342007637024,0.860253095626831,-8.435211181640625,4.06640625,0,"['F2', 'B2', 'A1']",6.1,0,450.0,0.0856364811151567,[25700|0|0]
196,19600,0.6812974214553833,0.3852368891239166,0.0,-0.6375676989555359,0.8532201647758484,-8.402689933776855,4.06640625,0,"['F2', 'B2', 'A1']",6.1,0,450.0,0.0858794155645976,[25800|0|0]
197,19700,0.6817014217376709,0.3850589692592621,0.0,-0.6303507685661316,0.8373668789863586,-8.394760131835938,4.06640625,0,"['F2', 'B2', 'A1']",6.1,0,450.0,0.0863208583200338,[25900|0|0]
198,19800,0.6812552213668823,0.3855426013469696,0.0,-0.6386340856552124,0.8510445356369019,-8.394597053527832,4.06640625,0,"['F2', 'B2', 'A1']",6.1,0,450.0,0.0869788816989135,[26000|0|0]
199,19900,0.6812663674354553,0.3851042687892914,0.0,-0.622197151184082,0.8486316204071045,-8.373038291931152,4.06640625,0,"['F2', 'B2', 'A1']",6.1,0,450.0,0.0874173559466925,[26100|0|0]
200,20000,0.6814916729927063,0.3851849436759949,0.0,-0.6311406493186951,0.846593976020813,-8.362508773803711,4.06640625,0,"['F2', 'B2', 'A1']",6.1,0,450.0,0.0876566696142353,[26200|0|0]
201,20100,0.6812071800231934,0.385420560836792,0.0,-0.6428156495094299,0.8565426468849182,-8.359112739562988,4.06640625,0,"['F2', 'B2', 'A1']",6.1,0,450.0,0.088026063301464,[26300|0|0]
202,20200,0.6811667680740356,0.3855052292346954,0.0,-0.6399314999580383,0.8593589663505554,-8.351605415344238,4.06640625,0,"['F2', 'B2', 'A1']",6.1,0,450.0,0.0881198815472281,[26400|0|0]
203,20300,0.6814891695976257,0.385208249092102,0.0,-0.6386751532554626,0.8499981760978699,-8.363517761230469,4.06640625,0,"['F2', 'B2', 'A1']",6.1,0,450.0,0.0885582192566577,[26500|0|0]
204,20400,0.6815598607063293,0.3851848840713501,0.0,-0.6359253525733948,0.8512224555015564,-8.36913776397705,4.06640625,0,"['F2', 'B2', 'A1']",6.1,0,450.0,0.0886326716377108,[26600|0|0]
205,20500,0.681550920009613,0.385242611169815,0.0,-0.6400681734085083,0.8596162796020508,-8.375883102416992,4.06640625,0,"['F2', 'B2', 'A1']",6.1,0,450.0,0.088691086994895,[26700|0|0]
206,20600,0.6816190481185913,0.3853552043437958,0.0,-0.6421383619308472,0.8646215796470642,-8.394290924072266,4.06640625,0,"['F2', 'B2', 'A1']",6.1,0,450.0,0.0888226873826604,[26800|0|0]
207,20700,0.6811521649360657,0.3856313228607178,0.0,-0.7065257430076599,0.8455438613891602,-8.423022270202637,4.06640625,0,"['F2', 'B2', 'A1']",6.1,0,450.0,0.0893651091203447,[26900|0|0]
208,20800,0.681023359298706,0.3855192959308624,0.0,-0.6815467476844788,0.8561967015266418,-8.415628433227539,4.06640625,0,"['F2', 'B2', 'A1']",6.1,0,450.0,0.0895358162532608,[27000|0|0]
209,20900,0.6812060475349426,0.3851556479930877,0.0,-0.6590695381164551,0.8548850417137146,-8.402609825134277,4.06640625,0,"['F2', 'B2', 'A1']",6.1,0,450.0,0.089942774253928,[27100|0|0]
210,21000,0.6813292503356934,0.3853166997432709,0.0,-0.6485188603401184,0.8472438454627991,-8.400144577026367,4.06640625,0,"['F2', 'B2', 'A1']",6.1,0,450.0,0.0901455465310023,[27200|0|0]
211,21100,0.680888295173645,0.3853939175605774,0.0,-0.6399489641189575,0.8564979434013367,-8.404078483581543,4.06640625,0,"['F2', 'B2', 'A1']",6.1,0,450.0,0.0905932116360157,[27300|0|0]
212,21200,0.6813139915466309,0.3850585222244262,0.0,-0.5184852480888367,0.9055130481719972,-8.389483451843262,4.06640625,0,"['F2', 'B2', 'A1']",6.1,0,450.0,0.0911351594503717,[27400|0|0]
213,21300,0.6813197135925293,0.385107934474945,0.0,-0.5373857021331787,0.887944757938385,-8.396875381469727,4.06640625,0,"['F2', 'B2', 'A1']",6.1,0,450.0,0.0911849019102083,[27500|0|0]
214,21400,0.681744396686554,0.3850261569023132,0.0,-0.5512063503265381,0.8627763986587524,-8.390369415283203,4.06640625,0,"['F2', 'B2', 'A1']",6.1,0,450.0,0.0916173869408578,[27600|0|0]
215,21500,0.681451678276062,0.3854348361492157,0.0,-0.5707330703735352,0.8595320582389832,-8.42069149017334,4.06640625,0,"['F2', 'B2', 'A1']",6.1,0,450.0,0.092120082469672,[27700|0|0]
216,21600,0.6811948418617249,0.3853794038295746,0.0,-0.5716601014137268,0.8649559617042542,-8.423527717590332,4.06640625,0,"['F2', 'B2', 'A1']",6.1,0,450.0,0.0923828327042872,[27800|0|0]
217,21700,0.6817044019699097,0.3851930797100067,0.0,-0.6634880304336548,0.8028388619422913,-8.429046630859375,4.06640625,0,"['F2', 'B2', 'A1']",6.1,0,450.0,0.0929253897809032,[27900|0|0]
218,21800,0.6815052628517151,0.3848849833011627,0.0,-0.6491227149963379,0.8171584606170654,-8.39818000793457,4.06640625,0,"['F2', 'B2', 'A1']",6.1,0,450.0,0.093292240957183,[28000|0|0]
219,21900,0.6816198825836182,0.3847809433937073,0.0,-0.6396782398223877,0.8285109400749207,-8.424392700195312,4.06640625,0,"['F2', 'B2', 'A1']",6.1,0,450.0,0.0934470375504429,[28100|0|0]
220,22000,0.6816138029098511,0.3851330876350403,0.0,-0.6472009420394897,0.8299130797386169,-8.427139282226562,4.06640625,0,"['F2', 'B2', 'A1']",6.1,0,450.0,0.0937992342698159,[28200|0|0]
221,22100,0.6812412142753601,0.385179728269577,0.0,-0.6382394433021545,0.8419929146766663,-8.426294326782227,4.06640625,0,"['F2', 'B2', 'A1']",6.1,0,450.0,0.0941747307935573,[28300|0|0]
222,22200,0.6812593936920166,0.3851952850818634,0.0,-0.6314451098442078,0.8458017110824585,-8.394708633422852,4.06640625,0,"['F2', 'B2', 'A1']",6.1,0,450.0,0.0941986578827761,[28400|0|0]
223,22300,0.684592604637146,0.3898171484470367,0.0,-0.7916457653045654,0.74896240234375,-8.333868980407715,4.06640625,0,"['F2', 'B2', 'A1']",6.1,0,450.0,0.099897071361198,[28500|0|0]
224,22400,0.6843670606613159,0.3899938762187958,0.0,-0.798332929611206,0.7604359984397888,-8.333808898925781,4.06640625,0,"['F2', 'B2', 'A1']",6.1,0,450.0,0.1001836072059787,[28600|0|0]
225,22500,0.6847449541091919,0.3898871541023254,0.0,-0.7894666194915771,0.7498047351837158,-8.326364517211914,4.06640625,0,"['F2', 'B2', 'A1']",6.1,0,450.0,0.1005762814578612,[28700|0|0]
226,22600,0.6844781041145325,0.389972060918808,0.0,-0.7922456860542297,0.7587364912033081,-8.333938598632812,4.06640625,0,"['F2', 'B2', 'A1']",6.1,0,450.0,0.1008563137544539,[28800|0|0]
227,22700,0.6812788248062134,0.3851875364780426,0.0,-0.6254024505615234,0.8496229648590088,-8.37174129486084,4.06640625,0,"['F2', 'B2', 'A1']",6.1,0,450.0,0.106611925122234,[28900|0|0]
228,22800,0.6843498349189758,0.3901443183422088,0.0,-0.7853986024856567,0.7660660743713379,-8.316168785095215,4.06640625,0,"['F2', 'B2', 'A1']",6.1,0,450.0,0.1124429447210363,[29000|0|0]
229,22900,0.684583306312561,0.3898369669914245,0.0,-0.7649561166763306,0.7494264245033264,-8.333148956298828,4.06640625,0,"['F2', 'B2', 'A1']",6.1,0,450.0,0.112828915891529,[29100|0|0]
230,23000,0.6842870712280273,0.3896932005882263,0.0,-0.7495629787445068,0.7628638744354248,-8.337116241455078,4.06640625,0,"['F2', 'B2', 'A1']",6.1,0,450.0,0.113158193895649,[29200|0|0]
231,23100,0.6846590042114258,0.389695256948471,0.0,-0.7424558401107788,0.7584319114685059,-8.349752426147461,4.06640625,0,"['F2', 'B2', 'A1']",6.1,0,450.0,0.1135301325636537,[29300|0|0]
232,23200,0.6844978332519531,0.3899692893028259,0.0,-0.7435199022293091,0.7729048132896423,-8.334397315979004,4.06640625,0,"['F2', 'B2', 'A1']",6.1,0,450.0,0.1138480473469065,[29400|0|0]
233,23300,0.6841264367103577,0.3896609544754028,0.0,-0.7319359183311462,0.789003312587738,-8.338947296142578,4.06640625,0,"['F2', 'B2', 'A1']",6.1,0,450.0,0.1143307540455456,[29500|0|0]
234,23400,0.6846573948860168,0.3899580836296081,0.0,-0.7387405037879944,0.7805464863777161,-8.324771881103516,4.06640625,0,"['F2', 'B2', 'A1']",6.1,0,450.0,0.1149391965806943,[29600|0|0]
235,23500,0.6844567656517029,0.389757364988327,0.0,-0.7284477353096008,0.7833417654037476,-8.30440616607666,4.06640625,0,"['F2', 'B2', 'A1']",6.1,0,450.0,0.115222992392184,[29700|0|0]
236,23600,0.6845435500144958,0.3897348046302795,0.0,-0.734530508518219,0.7863876223564148,-8.310422897338867,4.06640625,0,"['F2', 'B2', 'A1']",6.1,0,450.0,0.1153126612015918,[29800|0|0]
237,23700,0.6843389272689819,0.3894168138504028,0.0,-0.7294384241104126,0.7885411977767944,-8.30168628692627,4.06640625,0,"['F2', 'B2', 'A1']",6.1,0,450.0,0.1156907995414468,[29900|0|0]
238,23800,0.6842000484466553,0.3901697099208832,0.0,-0.7533581852912903,0.7940918207168579,-8.303689002990723,4.06640625,0,"['F2', 'B2', 'A1']",6.1,0,450.0,0.116456397229685,[30000|0|0]
239,23900,0.6845512390136719,0.3898172080516815,0.0,-0.742686927318573,0.7846832275390625,-8.303525924682617,4.06640625,0,"['F2', 'B2', 'A1']",6.1,0,450.0,0.1169539837871321,[30100|0|0]
240,24000,0.6840068101882935,0.3898458480834961,0.0,-0.7400410175323486,0.7979152798652649,-8.321833610534668,4.06640625,0,"['F2', 'B2', 'A1']",6.1,0,450.0,0.1174991654057926,[30200|0|0]
241,24100,0.6844484210014343,0.3901699781417846,0.0,-0.7701061367988586,0.7830370664596558,-8.307835578918457,4.06640625,0,"['F2', 'B2', 'A1']",6.1,0,450.0,0.1180469613577392,[30300|0|0]
242,24201,0.6845987439155579,0.390383243560791,0.0,-0.7579247355461121,0.7831169962882996,-8.30502700805664,4.06640625,0,"['F2', 'B2', 'A1']",6.1,0,450.0,0.1183078811106414,[30400|0|0]
243,24301,0.6847068667411804,0.3900341391563415,0.0,-0.7352719306945801,0.7816222906112671,-8.301253318786621,4.06640625,0,"['F2', 'B2', 'A1']",6.1,0,450.0,0.1186733457883145,[30500|0|0]
244,24401,0.6845467686653137,0.3898284435272217,0.0,-0.7284800410270691,0.7865789532661438,-8.339534759521484,4.06640625,0,"['F2', 'B2', 'A1']",6.1,0,450.0,0.118934002815335,[30600|0|0]
245,24501,0.6843689680099487,0.3899446129798889,0.0,-0.728690505027771,0.7851920127868652,-8.35018539428711,4.06640625,0,"['F2', 'B2', 'A1']",6.1,0,450.0,0.1191463902320556,[30700|0|0]
246,24601,0.6844648122787476,0.3901991844177246,0.0,-0.730443000793457,0.7870529294013977,-8.358784675598145,4.06640625,0,"['F2', 'B2', 'A1']",6.1,0,450.0,0.119418406299271,[30800|0|0]
247,24701,0.6846567988395691,0.390079528093338,0.0,-0.7241508960723877,0.7928050756454468,-8.35689926147461,4.06640625,0,"['F2', 'B2', 'A1']",6.1,0,450.0,0.1196446284809902,[30900|0|0]
248,24801,0.6840776205062866,0.3897854089736938,0.0,-0.7202074527740479,0.8026856780052185,-8.36798095703125,4.06640625,0,"['F2', 'B2', 'A1']",6.1,0,450.0,0.120294208035998,[31000|0|0]
249,24901,0.6843066811561584,0.3899289965629577,0.0,-0.7237065434455872,0.7891852259635925,-8.381685256958008,4.06640625,0,"['F2', 'B2', 'A1']",6.1,0,450.0,0.1205645525885792,[31100|0|0]
250,25001,0.6842827200889587,0.3897558152675628,0.0,-0.724237859249115,0.7831910848617554,-8.378557205200195,4.06640625,0,"['F2', 'B2', 'A1']",6.1,0,450.0,0.120739383632207,[31200|0|0]
251,25101,0.6843368411064148,0.3900347352027893,0.0,-0.7354591488838196,0.7798482179641724,-8.338448524475098,4.06640625,0,"['F2', 'B2', 'A1']",6.1,0,450.0,0.1210235058150742,[31300|0|0]
252,25202,0.6843154430389404,0.3902820348739624,0.0,-0.7426743507385254,0.7824352383613586,-8.320769309997559,4.06640625,0,"['F2', 'B2', 'A1']",6.1,0,450.0,0.1212717295138904,[31400|0|0]
253,25302,0.6845464706420898,0.3900803625583648,0.0,-0.7392380237579346,0.7739555239677429,-8.308587074279785,4.06640625,0,"['F2', 'B2', 'A1']",6.1,0,450.0,0.1215783978629182,[31500|0|0]
254,25402,0.6847053170204163,0.3899865448474884,0.0,-0.8305407762527466,0.7259419560432434,-8.312993049621582,4.06640625,0,"['F2', 'B2', 'A1']",6.1,0,450.0,0.1217628807477111,[31600|0|0]
255,25500,0.6845073103904724,0.3896546065807342,0.0,-0.8210597634315491,0.7425896525382996,-8.304220199584961,4.06640625,0,"['F2', 'B2', 'A1']",6.1,0,450.0,0.1221493903057268,[31700|0|0]
256,25600,0.684540331363678,0.3895401060581207,0.0,-0.807015597820282,0.7525948882102966,-8.311943054199219,4.06640625,0,"['F2', 'B2', 'A1']",6.1,0,450.0,0.122268557223746,[31800|0|0]
257,25700,0.6845352053642273,0.389659583568573,0.0,-0.8071531057357788,0.7557433247566223,-8.311830520629883,4.06640625,0,"['F2', 'B2', 'A1']",6.1,0,450.0,0.1223881446452177,[31900|0|0]
258,25802,0.6843554377555847,0.3906234204769134,0.0,-0.814579427242279,0.7538020014762878,-8.300152778625488,4.06640625,0,"['F2', 'B2', 'A1']",6.1,0,450.0,0.1233686026907231,[32000|0|0]
259,25902,0.6845573782920837,0.3897377848625183,0.0,-0.8006293773651123,0.746839702129364,-8.336712837219238,4.06640625,0,"['F2', 'B2', 'A1']",6.1,0,450.0,0.1242769695889346,[32100|0|0]
260,26002,0.684864342212677,0.3896001577377319,0.0,-0.8028506636619568,0.7365483641624451,-8.376976013183594,4.06640625,0,"['F2', 'B2', 'A1']",6.1,0,450.0,0.1246133742173555,[32200|0|0]
261,26100,0.6843170523643494,0.3897705376148224,0.0,-0.7971236705780029,0.7564913034439087,-8.379940032958984,4.06640625,0,"['F2', 'B2', 'A1']",6.1,0,450.0,0.1251865718103371,[32300|0|0]
262,26200,0.684572696685791,0.3900208473205566,0.0,-0.8040661811828613,0.7528530359268188,-8.354459762573242,4.06640625,0,"['F2', 'B2', 'A1']",6.1,0,450.0,0.125544355219497,[32400|0|0]
263,26300,0.6845740675926208,0.3901647627353668,0.0,-0.8015011548995972,0.7604255080223083,-8.365312576293945,4.06640625,0,"['F2', 'B2', 'A1']",6.1,0,450.0,0.1256882771636387,[32500|0|0]
264,26400,0.6845764517784119,0.389751672744751,0.0,-0.7978562116622925,0.7565296292304993,-8.358245849609375,4.06640625,0,"['F2', 'B2', 'A1']",6.1,0,450.0,0.1261013740344679,[32600|0|0]
265,26500,0.6844022274017334,0.3898561000823974,0.0,-0.7968705296516418,0.7700856924057007,-8.37295150756836,4.06640625,0,"['F2', 'B2', 'A1']",6.1,0,450.0,0.1263044976477602,[32700|0|0]
266,26600,0.6846471428871155,0.3897287249565124,0.0,-0.7941207885742188,0.7630022764205933,-8.36760425567627,4.06640625,0,"['F2', 'B2', 'A1']",6.1,0,450.0,0.1265805556446996,[32800|0|0]
267,26700,0.6843982934951782,0.3902591466903686,0.0,-0.7942282557487488,0.7755456566810608,-8.340672492980957,4.06640625,0,"['F2', 'B2', 'A1']",6.1,0,450.0,0.1271664508875669,[32900|0|0]
268,26800,0.6843592524528503,0.3899092376232147,0.0,-0.7695237994194031,0.7799672484397888,-8.338615417480469,4.06640625,0,"['F2', 'B2', 'A1']",6.1,0,450.0,0.1275185312168421,[33000|0|0]
269,26900,0.6842355132102966,0.3899663686752319,0.0,-0.7506431341171265,0.7897743582725525,-8.324355125427246,4.06640625,0,"['F2', 'B2', 'A1']",6.1,0,450.0,0.127654822659172,[33100|0|0]
270,27000,0.684411883354187,0.3898853063583374,0.0,-0.7444124221801758,0.7854318022727966,-8.318622589111328,4.06640625,0,"['F2', 'B2', 'A1']",6.1,0,450.0,0.1278489296576965,[33200|0|0]
271,27100,0.6844034194946289,0.3896267414093017,0.0,-0.7358835339546204,0.7896632552146912,-8.344858169555664,4.06640625,0,"['F2', 'B2', 'A1']",6.1,0,450.0,0.1281076330975431,[33300|0|0]
272,27200,0.6843838095664978,0.3896426856517792,0.0,-0.7363795042037964,0.789364218711853,-8.374921798706055,4.06640625,0,"['F2', 'B2', 'A1']",6.1,0,450.0,0.1281329069605143,[33400|0|0]
273,27300,0.6843634843826294,0.3897759020328522,0.0,-0.7438884973526001,0.7963153719902039,-8.378679275512695,4.06640625,0,"['F2', 'B2', 'A1']",6.1,0,450.0,0.1282676649557705,[33500|0|0]
274,27400,0.6844682097434998,0.3899182379245758,0.0,-0.7445022463798523,0.7905452847480774,-8.363767623901367,4.06640625,0,"['F2', 'B2', 'A1']",6.1,0,450.0,0.1284443763229266,[33600|0|0]
275,27500,0.6845173835754395,0.3897134065628052,0.0,-0.7413817048072815,0.7871741652488708,-8.36036491394043,4.06640625,0,"['F2', 'B2', 'A1']",6.1,0,450.0,0.1286550275809634,[33700|0|0]
276,27600,0.6844009160995483,0.3900453746318817,0.0,-0.7479293346405029,0.7846270203590393,-8.36050796508789,4.06640625,0,"['F2', 'B2', 'A1']",6.1,0,450.0,0.129006833595447,[33800|0|0]
277,27700,0.6844714283943176,0.3899056613445282,0.0,-0.7427423596382141,0.7847713232040405,-8.363162994384766,4.06640625,0,"['F2', 'B2', 'A1']",6.1,0,450.0,0.1291633321142155,[33900|0|0]
278,27800,0.6844223737716675,0.3898775279521942,0.0,-0.7396297454833984,0.7918555736541748,-8.344786643981934,4.06640625,0,"['F2', 'B2', 'A1']",6.1,0,450.0,0.1292198815949166,[34000|0|0]
279,27900,0.6842181086540222,0.389833927154541,0.0,-0.7453538775444031,0.7952187657356262,-8.344820976257324,4.06640625,0,"['F2', 'B2', 'A1']",6.1,0,450.0,0.1294287482218407,[34100|0|0]
280,28000,0.6843621730804443,0.3897137939929962,0.0,-0.7444596290588379,0.7942249774932861,-8.35327434539795,4.06640625,0,"['F2', 'B2', 'A1']",6.1,0,450.0,0.1296163289656901,[34200|0|0]
281,28100,0.6842051148414612,0.3897284269332886,0.0,-0.7432597279548645,0.7993442416191101,-8.351944923400879,4.06640625,0,"['F2', 'B2', 'A1']",6.1,0,450.0,0.1297740673990983,[34300|0|0]
282,28200,0.6844205260276794,0.3895819187164306,0.0,-0.741226315498352,0.8020931482315063,-8.352036476135254,4.06640625,0,"['F2', 'B2', 'A1']",6.1,0,450.0,0.1300345796574564,[34400|0|0]
283,28300,0.6844260096549988,0.3897084593772888,0.0,-0.7452192306518555,0.7992486357688904,-8.363734245300293,4.06640625,0,"['F2', 'B2', 'A1']",6.1,0,450.0,0.1301612390788155,[34500|0|0]
284,28400,0.6842033267021179,0.3898521959781647,0.0,-0.7563410401344299,0.8020099401473999,-8.373757362365723,4.06640625,0,"['F2', 'B2', 'A1']",6.1,0,450.0,0.1304262822978102,[34600|0|0]
285,28500,0.6843256950378418,0.389551967382431,0.0,-0.7449132204055786,0.793832540512085,-8.37349796295166,4.06640625,0,"['F2', 'B2', 'A1']",6.1,0,450.0,0.1307504909023908,[34700|0|0]
286,28600,0.6845993399620056,0.3896870017051697,0.0,-0.7473723292350769,0.7843620777130127,-8.383528709411621,4.06640625,0,"['F2', 'B2', 'A1']",6.1,0,450.0,0.1310556397395803,[34800|0|0]
287,28700,0.6846963167190552,0.3897532522678375,0.0,-0.7446287274360657,0.7740592956542969,-8.35993480682373,4.06640625,0,"['F2', 'B2', 'A1']",6.1,0,450.0,0.1311730860186259,[34900|0|0]
288,28800,0.6846663355827332,0.3900432884693146,0.0,-0.7508697509765625,0.7747209668159485,-8.360077857971191,4.06640625,0,"['F2', 'B2', 'A1']",6.1,0,450.0,0.1314646676824911,[35000|0|0]
289,28900,0.6842049956321716,0.3896340429782867,0.0,-0.7347974181175232,0.7858060002326965,-8.356282234191895,4.06640625,0,"['F2', 'B2', 'A1']",6.1,0,450.0,0.1320813656814425,[35100|0|0]
290,29000,0.6847352385520935,0.3896040916442871,0.0,-0.7326109409332275,0.7741342186927795,-8.350062370300293,4.06640625,0,"['F2', 'B2', 'A1']",6.1,0,450.0,0.1326124538441195,[35200|0|0]
291,29100,0.684432864189148,0.389871597290039,0.0,-0.7353838086128235,0.7871440649032593,-8.383040428161621,4.06640625,0,"['F2', 'B2', 'A1']",6.1,0,450.0,0.1330161734570638,[35300|0|0]
292,29200,0.6847178339958191,0.3899503648281097,0.0,-0.7437044382095337,0.7805296182632446,-8.384461402893066,4.06640625,0,"['F2', 'B2', 'A1']",6.1,0,450.0,0.1333118288574337,[35400|0|0]
293,29300,0.6847550868988037,0.3897148668766022,0.0,-0.7364432215690613,0.776409924030304,-8.390154838562012,4.06640625,0,"['F2', 'B2', 'A1']",6.1,0,450.0,0.1335502550807084,[35500|0|0]
294,29400,0.6839538216590881,0.3900401294231415,0.0,-0.7394389510154724,0.7972776889801025,-8.37248420715332,4.06640625,0,"['F2', 'B2', 'A1']",6.1,0,450.0,0.134415021932847,[35600|0|0]
295,29500,0.6844091415405273,0.3897613286972046,0.0,-0.7312681078910828,0.7877646088600159,-8.374439239501953,4.06640625,0,"['F2', 'B2', 'A1']",6.1,0,450.0,0.1349489189633845,[35700|0|0]
296,29600,0.6842784881591797,0.389656126499176,0.0,-0.7319255471229553,0.7873165607452393,-8.376707077026367,4.06640625,0,"['F2', 'B2', 'A1']",6.1,0,450.0,0.1351166622450014,[35800|0|0]
297,29700,0.6842526197433472,0.3896387219429016,0.0,-0.7379823923110962,0.7849865555763245,-8.374832153320312,4.06640625,0,"['F2', 'B2', 'A1']",6.1,0,450.0,0.1351478406592779,[35900|0|0]
298,29800,0.6842358112335205,0.3900463283061981,0.0,-0.7460143566131592,0.7942029237747192,-8.39515495300293,4.06640625,0,"['F2', 'B2', 'A1']",6.1,0,450.0,0.1355557934425781,[36000|0|0]
299,29900,0.6841818690299988,0.3896124362945556,0.0,-0.7326077222824097,0.7942193150520325,-8.398275375366211,4.06640625,0,"['F2', 'B2', 'A1']",6.1,0,450.0,0.1359930256910319,[36100|0|0]
300,30000,0.6844514012336731,0.3899468183517456,0.0,-0.7390506267547607,0.7875188589096069,-8.356632232666016,4.06640625,0,"['F2', 'B2', 'A1']",6.1,0,450.0,0.1364225125581048,[36200|0|0]
301,30100,0.68412846326828,0.389547735452652,0.0,-0.7254403829574585,0.793425440788269,-8.37318229675293,4.06640625,0,"['F2', 'B2', 'A1']",6.1,0,450.0,0.1369358897000202,[36300|0|0]
302,30200,0.6844148635864258,0.3896409869194031,0.0,-0.6818621754646301,0.8219046592712402,-8.410390853881836,4.06640625,0,"['F2', 'B2', 'A1']",6.1,0,450.0,0.1372370889335604,[36400|0|0]
303,30300,0.6844397783279419,0.3899174034595489,0.0,-0.6975537538528442,0.8134987354278564,-8.432048797607422,4.06640625,0,"['F2', 'B2', 'A1']",6.1,0,450.0,0.1375146260446123,[36500|0|0]
304,30400,0.6845235824584961,0.3893661499023437,0.0,-0.6997957825660706,0.7977724075317383,-8.42219352722168,4.06640625,0,"['F2', 'B2', 'A1']",6.1,0,450.0,0.1380722133621055,[36600|0|0]
305,30500,0.6845601797103882,0.3898527324199676,0.0,-0.7284877300262451,0.7910181283950806,-8.386697769165039,4.06640625,0,"['F2', 'B2', 'A1']",6.1,0,450.0,0.1385601702303872,[36700|0|0]
306,30600,0.6842514276504517,0.3898384869098663,0.0,-0.7360948920249939,0.7951657176017761,-8.380502700805664,4.06640625,0,"['F2', 'B2', 'A1']",6.1,0,450.0,0.1388692507523763,[36800|0|0]
307,30700,0.6841992735862732,0.3898395597934723,0.0,-0.7416129112243652,0.7880480289459229,-8.37894344329834,4.06640625,0,"['F2', 'B2', 'A1']",6.1,0,450.0,0.1389214158507618,[36900|0|0]
308,30800,0.684413492679596,0.3899351060390472,0.0,-0.7470828294754028,0.7750639319419861,-8.353304862976074,4.06640625,0,"['F2', 'B2', 'A1']",6.1,0,450.0,0.1391559769408588,[37000|0|0]
309,30900,0.6847490668296814,0.3897108435630798,0.0,-0.7414193153381348,0.7691950798034668,-8.336665153503418,4.06640625,0,"['F2', 'B2', 'A1']",6.1,0,450.0,0.1395595902066623,[37100|0|0]
310,31000,0.684679388999939,0.3898070454597473,0.0,-0.7362841963768005,0.7705351114273071,-8.319992065429688,4.06640625,0,"['F2', 'B2', 'A1']",6.1,0,450.0,0.1396783749063506,[37200|0|0]
311,31100,0.6841787099838257,0.3898670375347137,0.0,-0.8336494565010071,0.7242728471755981,-8.337207794189453,4.06640625,0,"['F2', 'B2', 'A1']",6.1,0,450.0,0.1401826352817867,[37300|0|0]
312,31200,0.684522807598114,0.3902516067028045,0.0,-0.8237592577934265,0.725709080696106,-8.34183120727539,4.06640625,0,"['F2', 'B2', 'A1']",6.1,0,450.0,0.1406986746341669,[37400|0|0]
313,31300,0.6846728324890137,0.3893152773380279,0.0,-0.7892311811447144,0.731072723865509,-8.355696678161621,4.06640625,0,"['F2', 'B2', 'A1']",6.1,0,450.0,0.1416469468246441,[37500|0|0]
314,31400,0.6843686699867249,0.3897816240787506,0.0,-0.792864203453064,0.7500083446502686,-8.33897876739502,4.06640625,0,"['F2', 'B2', 'A1']",6.1,0,450.0,0.1422037179718683,[37600|0|0]
315,31500,0.6845247149467468,0.3895795047283172,0.0,-0.7880008816719055,0.7470560073852539,-8.327777862548828,4.06640625,0,"['F2', 'B2', 'A1']",6.1,0,450.0,0.142459065306626,[37700|0|0]
316,31600,0.6842751502990723,0.3901425302028656,0.0,-0.7922404408454895,0.7650607824325562,-8.343632698059082,4.06640625,0,"['F2', 'B2', 'A1']",6.1,0,450.0,0.1430749225939575,[37800|0|0]
317,31700,0.6845583319664001,0.3899809122085571,0.0,-0.7920791506767273,0.7513414025306702,-8.356146812438965,4.06640625,0,"['F2', 'B2', 'A1']",6.1,0,450.0,0.1434009781609931,[37900|0|0]
318,31800,0.6844664216041565,0.3896247744560241,0.0,-0.7813171744346619,0.7559476494789124,-8.343533515930176,4.06640625,0,"['F2', 'B2', 'A1']",6.1,0,450.0,0.1437687846501515,[38000|0|0]
319,31900,0.6845947504043579,0.3899218142032623,0.0,-0.7891915440559387,0.7531952261924744,-8.339458465576172,4.06640625,0,"['F2', 'B2', 'A1']",6.1,0,450.0,0.144092359822871,[38100|0|0]
320,32000,0.6842701435089111,0.3899961709976196,0.0,-0.7654327750205994,0.7657666206359863,-8.362333297729492,4.06640625,0,"['F2', 'B2', 'A1']",6.1,0,450.0,0.1444253741910876,[38200|0|0]
321,32100,0.684255063533783,0.3901055753231048,0.0,-0.7621707916259766,0.7791150808334351,-8.365669250488281,4.06640625,0,"['F2', 'B2', 'A1']",6.1,0,450.0,0.1445358129165635,[38300|0|0]
