,time.ms,stateEstimate.x,stateEstimate.y,stateEstimate.z,stabilizer.roll,stabilizer.pitch,stabilizer.yaw,pm.vbat,drone_id,node_name,wind_speed,global_wind_direction,relative_wind_direction,travel_dist,waiting_time
0,0,0.7607844471931458,0.7382651567459106,-0.0290381032973527,-1.1358174085617063,0.3977441489696502,4.432630062103272,4.09765625,1,"['A1', 'B2', 'F2']",6.1,180,0.0,0.0707839238454883,[100|0|0]
1,100,0.7603322267532349,0.7380264401435852,-0.0291437171399593,-1.1294798851013184,0.4121065139770508,4.423267841339111,4.09765625,1,"['A1', 'B2', 'F2']",6.1,180,0.0,0.0713060763387785,[200|0|0]
2,200,0.7604042887687683,0.7381172180175781,-0.0290176887065172,-1.1362138986587524,0.4037471115589142,4.4194416999816895,4.09765625,1,"['A1', 'B2', 'F2']",6.1,180,0.0,0.0714772976065149,[300|0|0]
3,300,0.7605278491973877,0.7379781007766724,-0.0290364846587181,-1.1359020471572876,0.3944354057312011,4.429739952087402,4.09765625,1,"['A1', 'B2', 'F2']",6.1,180,0.0,0.0716643111730201,[400|0|0]
4,400,0.7605554461479187,0.7383856177330017,-0.0294665209949016,-1.1444132328033447,0.3895163834095001,4.435407638549805,4.09765625,1,"['A1', 'B2', 'F2']",6.1,180,0.0,0.0722574072123027,[500|0|0]
5,500,0.7604087591171265,0.7385283708572388,-0.0294235423207283,-1.146049737930298,0.3928094208240509,4.4373297691345215,4.09765625,1,"['A1', 'B2', 'F2']",6.1,180,0.0,0.0724665547820131,[600|0|0]
6,600,0.7607452273368835,0.7383308410644531,-0.0292073618620634,-1.1427704095840454,0.3862426578998565,4.438579559326172,4.1015625,1,"['A1', 'B2', 'F2']",6.1,180,0.0,0.0729126073267352,[700|0|0]
7,700,0.7606344819068909,0.738258421421051,-0.0291708875447511,-1.14171040058136,0.3895652890205383,4.433537006378174,4.09765625,1,"['A1', 'B2', 'F2']",6.1,180,0.0,0.0730498644971786,[800|0|0]
8,800,0.760800302028656,0.7382029294967651,-0.0292143244296312,-1.1377185583114624,0.3916894495487213,4.455938816070557,4.1015625,1,"['A1', 'B2', 'F2']",6.1,180,0.0,0.0732300378287547,[900|0|0]
9,900,0.7606855630874634,0.7381422519683838,-0.0292877405881881,-1.142162561416626,0.3985950350761413,4.43373441696167,4.09765625,1,"['A1', 'B2', 'F2']",6.1,180,0.0,0.0733791576443854,[1000|0|0]
10,1000,0.7607104778289795,0.7382854223251343,-0.0295432228595018,-1.146666407585144,0.3958444893360138,4.439332962036133,4.09765625,1,"['A1', 'B2', 'F2']",6.1,180,0.0,0.0736730788691251,[1100|0|0]
11,1100,0.760982096195221,0.7383097410202026,-0.0292392540723085,-1.1437770128250122,0.388239711523056,4.453506946563721,4.09765625,1,"['A1', 'B2', 'F2']",6.1,180,0.0,0.0740814475253627,[1200|0|0]
12,1200,0.7606479525566101,0.738061249256134,-0.0292163286358118,-1.135959506034851,0.3986162543296814,4.448280811309815,4.09765625,1,"['A1', 'B2', 'F2']",6.1,180,0.0,0.0744984915322403,[1300|0|0]
13,1300,0.7607682943344116,0.7383779287338257,-0.0296215526759624,-1.1409400701522827,0.400392472743988,4.450512886047363,4.09765625,1,"['A1', 'B2', 'F2']",6.1,180,0.0,0.0750266719538687,[1400|0|0]
14,1400,0.7604869604110718,0.7383873462677002,-0.0291540697216987,-1.1404917240142822,0.406366765499115,4.455202579498291,4.09765625,1,"['A1', 'B2', 'F2']",6.1,180,0.0,0.0755723621396822,[1500|0|0]
15,1500,0.7607677578926086,0.7381877303123474,-0.0292736310511827,-1.1295735836029053,0.4020881056785583,4.447677135467529,4.09765625,1,"['A1', 'B2', 'F2']",6.1,180,0.0,0.0759370382518377,[1600|0|0]
16,1600,0.7608100175857544,0.7378658056259155,-0.0293660331517457,-1.120017409324646,0.3992573916912079,4.455678939819336,4.09765625,1,"['A1', 'B2', 'F2']",6.1,180,0.0,0.0762746171812564,[1700|0|0]
17,1700,0.7608985900878906,0.7381136417388916,-0.0292454101145267,-1.1340034008026123,0.4014650285243988,4.445696830749512,4.09765625,1,"['A1', 'B2', 'F2']",6.1,180,0.0,0.0765641301242101,[1800|0|0]
18,1800,0.7606843709945679,0.7383009791374207,-0.0292905494570732,-1.140262246131897,0.4124508798122406,4.457282066345215,4.09765625,1,"['A1', 'B2', 'F2']",6.1,180,0.0,0.0768522666909231,[1900|0|0]
19,1900,0.760761559009552,0.7381777763366699,-0.0292830485850572,-1.131547212600708,0.4140704274177551,4.467955589294434,4.09765625,1,"['A1', 'B2', 'F2']",6.1,180,0.0,0.0769978454766407,[2000|0|0]
20,2000,0.7604579329490662,0.7382881045341492,-0.0292618442326784,-1.1352155208587646,0.4207845628261566,4.464489936828613,4.09765625,1,"['A1', 'B2', 'F2']",6.1,180,0.0,0.0773215903149393,[2100|0|0]
21,2100,0.7606627345085144,0.7379338145256042,-0.0292918644845485,-1.1227411031723022,0.4159570336341858,4.450789451599121,4.09765625,1,"['A1', 'B2', 'F2']",6.1,180,0.0,0.0777319149479186,[2200|0|0]
22,2200,0.763145387172699,0.7405675053596497,-0.029104720801115,-0.5182536244392395,-1.9048997163772583,3.8914060592651367,4.09765625,1,"['A1', 'B2', 'F2']",6.1,180,0.0,0.0813561271959204,[2300|0|0]
23,2300,0.7687400579452515,0.7383776903152466,-0.0327133126556873,0.7263911366462708,0.7992814183235168,4.527047634124756,4.09765625,1,"['A1', 'B2', 'F2']",6.1,180,0.0,0.0883645197473428,[2400|0|0]
24,2400,0.763599157333374,0.7379217147827148,-0.0315066166222095,1.161716341972351,3.802680253982544,4.438534259796143,4.09765625,1,"['A1', 'B2', 'F2']",6.1,180,0.0,0.0936647922030455,[2500|0|0]
25,2500,0.7605401873588562,0.738226056098938,-0.0297355856746435,0.9800894856452942,4.359396934509277,4.2545318603515625,4.09765625,1,"['A1', 'B2', 'F2']",6.1,180,0.0,0.0972125339578803,[2600|0|0]
26,2600,0.7597410082817078,0.7385289669036865,-0.0294703040271997,0.6792296767234802,3.9736406803131104,4.137035369873047,4.09765625,1,"['A1', 'B2', 'F2']",6.1,180,0.0,0.098107417472901,[2700|0|0]
27,2700,0.759579598903656,0.7384184002876282,-0.0292686205357313,0.3851670920848846,3.41940975189209,4.0865325927734375,4.09765625,1,"['A1', 'B2', 'F2']",6.1,180,0.0,0.0983884053634595,[2800|0|0]
28,2800,0.7591401934623718,0.7383288145065308,-0.0292820539325475,0.1216809451580047,2.9529995918273926,4.076395511627197,4.09765625,1,"['A1', 'B2', 'F2']",6.1,180,0.0,0.0988370513376474,[2900|0|0]
29,2900,0.7592305541038513,0.7385313510894775,-0.0289586633443832,-0.1017721444368362,2.519261121749878,4.072082042694092,4.09765625,1,"['A1', 'B2', 'F2']",6.1,180,0.0,0.0992291834397171,[3000|0|0]
30,3000,0.7592125535011292,0.7383921146392822,-0.0287863984704017,-0.275303304195404,2.156977653503418,4.077997207641602,4.09765625,1,"['A1', 'B2', 'F2']",6.1,180,0.0,0.0994514130452363,[3100|0|0]
31,3100,0.7593017220497131,0.7376571297645569,-0.0292348563671112,-0.3930598199367523,1.8419982194900515,4.105809211730957,4.09765625,1,"['A1', 'B2', 'F2']",6.1,180,0.0,0.1003170158879145,[3200|0|0]
32,3200,0.7589616179466248,0.7377873659133911,-0.0288261454552412,-0.5129970908164978,1.6220054626464844,4.107076168060303,4.09765625,1,"['A1', 'B2', 'F2']",6.1,180,0.0,0.1008644433852896,[3300|0|0]
33,3300,0.7592159509658813,0.7378882169723511,-0.0292882453650236,-0.6306952834129333,1.3868980407714844,4.144340991973877,4.09765625,1,"['A1', 'B2', 'F2']",6.1,180,0.0,0.101401465309794,[3400|0|0]
34,3400,0.7593960762023926,0.7379904985427856,-0.0290277954190969,-0.7350426912307739,1.197865009307861,4.195362567901611,4.09765625,1,"['A1', 'B2', 'F2']",6.1,180,0.0,0.101734242705078,[3500|0|0]
35,3500,0.7597213387489319,0.7376540899276733,-0.0292539000511169,-0.8011915683746338,1.0432188510894775,4.250725269317627,4.09765625,1,"['A1', 'B2', 'F2']",6.1,180,0.0,0.1022539443359432,[3600|0|0]
36,3600,0.7592796087265015,0.738000750541687,-0.0295516643673181,-0.8732841610908508,0.9356515407562256,4.287578582763672,4.09765625,1,"['A1', 'B2', 'F2']",6.1,180,0.0,0.1028895248438472,[3700|0|0]
37,3700,0.7601554989814758,0.738420844078064,-0.0290912892669439,-0.9362190961837769,0.8087576627731323,4.331722736358643,4.09765625,1,"['A1', 'B2', 'F2']",6.1,180,0.0,0.1039645167280534,[3800|0|0]
38,3800,0.7600876092910767,0.7383853197097778,-0.0295272544026374,-0.981900691986084,0.7198602557182312,4.336441516876221,4.09765625,1,"['A1', 'B2', 'F2']",6.1,180,0.0,0.1044071639807783,[3900|0|0]
39,3900,0.76038658618927,0.7381704449653625,-0.0291213523596525,-1.014222502708435,0.6375706791877747,4.343241691589356,4.09765625,1,"['A1', 'B2', 'F2']",6.1,180,0.0,0.1049551738437737,[4000|0|0]
40,4000,0.7603533267974854,0.7382875680923462,-0.0295789651572704,-1.0525610446929932,0.5922034382820129,4.379485607147217,4.09765625,1,"['A1', 'B2', 'F2']",6.1,180,0.0,0.1054287068273768,[4100|0|0]
41,4100,0.7603241801261902,0.7382554411888123,-0.029192442074418,-1.0844653844833374,0.5541326999664307,4.405428409576416,4.09765625,1,"['A1', 'B2', 'F2']",6.1,180,0.0,0.1058176563870319,[4200|0|0]
42,4200,0.7600781917572021,0.7380909323692322,-0.0291145127266645,-1.1006791591644287,0.5178402662277222,4.407649517059326,4.09765625,1,"['A1', 'B2', 'F2']",6.1,180,0.0,0.1061236734006739,[4300|0|0]
43,4300,0.7602982521057129,0.7383375763893127,-0.0292481277137994,-1.1208562850952148,0.4824635088443756,4.396964073181152,4.09765625,1,"['A1', 'B2', 'F2']",6.1,180,0.0,0.1064802022135561,[4400|0|0]
44,4400,0.760819137096405,0.7384511828422546,-0.0288892108947038,-1.1320992708206177,0.4452866017818451,4.408286094665527,4.09765625,1,"['A1', 'B2', 'F2']",6.1,180,0.0,0.1071228910050471,[4500|0|0]
45,4500,0.7606039643287659,0.7384388446807861,-0.0291456803679466,-1.14238178730011,0.4322955012321472,4.418111324310303,4.09765625,1,"['A1', 'B2', 'F2']",6.1,180,0.0,0.107457895692876,[4600|0|0]
46,4600,0.7602570652961731,0.7381654381752014,-0.0294109620153903,-1.1401833295822144,0.4364999830722809,4.429510593414307,4.09765625,1,"['A1', 'B2', 'F2']",6.1,180,0.0,0.1079731280759618,[4700|0|0]
47,4700,0.7609232068061829,0.7382965683937073,-0.0293524358421564,-1.1442487239837646,0.4055694043636322,4.419589996337891,4.09765625,1,"['A1', 'B2', 'F2']",6.1,180,0.0,0.1086545713667182,[4800|0|0]
48,4800,0.7604483962059021,0.7381756901741028,-0.0293393526226282,-1.146233320236206,0.4121632874011993,4.449240684509277,4.09765625,1,"['A1', 'B2', 'F2']",6.1,180,0.0,0.1091447017786975,[4900|0|0]
49,4900,0.7606757879257202,0.7383213043212891,-0.0289564989507198,-1.1503946781158447,0.405289351940155,4.4241790771484375,4.09765625,1,"['A1', 'B2', 'F2']",6.1,180,0.0,0.1096131966113225,[5000|0|0]
50,5000,0.7605251669883728,0.7383631467819214,-0.0290965046733617,-1.1527878046035769,0.4112410545349121,4.431223392486572,4.09765625,1,"['A1', 'B2', 'F2']",6.1,180,0.0,0.1098230514674771,[5100|0|0]
51,5100,0.7601669430732727,0.7381817102432251,-0.0292688943445682,-1.1470264196395874,0.4161285161972046,4.436196327209473,4.09765625,1,"['A1', 'B2', 'F2']",6.1,180,0.0,0.1102600432175851,[5200|0|0]
52,5200,0.7606691122055054,0.7382181286811829,-0.0293647311627864,-1.1434911489486694,0.3987446427345276,4.438815116882324,4.09765625,1,"['A1', 'B2', 'F2']",6.1,180,0.0,0.1107725711053305,[5300|0|0]
53,5300,0.7607671618461609,0.7385196685791016,-0.0296319928020238,-1.1526471376419067,0.4001882374286651,4.427372455596924,4.09765625,1,"['A1', 'B2', 'F2']",6.1,180,0.0,0.1111872623469517,[5400|0|0]
54,5400,0.7604926228523254,0.7381635308265686,-0.0291228182613849,-1.139827847480774,0.4001555740833282,4.450100421905518,4.09765625,1,"['A1', 'B2', 'F2']",6.1,180,0.0,0.1118665741095102,[5500|0|0]
55,5500,0.7608200907707214,0.7382427453994751,-0.0293849781155586,-1.1372684240341189,0.3922511339187622,4.456614971160889,4.09765625,1,"['A1', 'B2', 'F2']",6.1,180,0.0,0.1122934675098805,[5600|0|0]
56,5600,0.7607797980308533,0.7381322979927063,-0.0293176379054784,-1.1431084871292114,0.3970657587051391,4.4488205909729,4.09765625,1,"['A1', 'B2', 'F2']",6.1,180,0.0,0.1124289549205195,[5700|0|0]
57,5700,0.7605855464935303,0.7379964590072632,-0.0292526930570602,-1.1426106691360474,0.4051399827003479,4.467162132263184,4.09765625,1,"['A1', 'B2', 'F2']",6.1,180,0.0,0.1126747266093989,[5800|0|0]
58,5800,0.7606936693191528,0.7382189631462097,-0.0296678338199853,-1.1491097211837769,0.4067466557025909,4.4554219245910645,4.09765625,1,"['A1', 'B2', 'F2']",6.1,180,0.0,0.1131579868812101,[5900|0|0]
59,5900,0.760269284248352,0.738457977771759,-0.0292790569365024,-1.1547889709472656,0.41524139046669,4.454646110534668,4.09765625,1,"['A1', 'B2', 'F2']",6.1,180,0.0,0.1137811868047305,[6000|0|0]
60,6000,0.760648787021637,0.7384898066520691,-0.0292984507977962,-1.1505666971206665,0.4122686386108398,4.442868232727051,4.09765625,1,"['A1', 'B2', 'F2']",6.1,180,0.0,0.1141625154745268,[6100|0|0]
61,6100,0.760665237903595,0.7386389970779419,-0.0292931534349918,-1.1562217473983765,0.4047464728355407,4.456049919128418,4.09765625,1,"['A1', 'B2', 'F2']",6.1,180,0.0,0.1143127036123473,[6200|0|0]
62,6200,0.7608455419540405,0.738434910774231,-0.0294783394783735,-1.1533936262130735,0.3924705386161804,4.493215560913086,4.09765625,1,"['A1', 'B2', 'F2']",6.1,180,0.0,0.1146420281341078,[6300|0|0]
63,6300,0.7605645060539246,0.7382217049598694,-0.0294557083398103,-1.1483056545257568,0.4036215543746948,4.504422187805176,4.09765625,1,"['A1', 'B2', 'F2']",6.1,180,0.0,0.1149955108987007,[6400|0|0]
64,6400,0.7607316970825195,0.7383524179458618,-0.0292736664414405,-1.1517341136932373,0.4037829041481018,4.541733741760254,3.283203125,1,"['A/E1', 'B2', 'C1']",6.1,180,0.0,0.1152751141488817,[6400|0|0]
65,6500,0.7600266337394714,0.7398714423179626,-0.0278902798891067,-2.26780104637146,0.9439501166343688,5.643896102905273,3.53125,1,"['A/E1', 'B2', 'C1']",6.1,180,0.0,0.1174472807433041,[6400|0|0]
66,6600,0.7528849840164185,0.7485166788101196,-0.006841295864433,-7.243498802185059,11.734017372131348,9.321134567260742,3.720703125,1,"['A/E1', 'B2', 'C1']",6.1,180,0.0,0.1412968720027592,[6400|0|0]
67,6700,0.7218537330627441,0.7664919495582581,0.0313464403152465,-5.461846351623535,15.51085376739502,11.386445999145508,3.716796875,1,"['A/E1', 'B2', 'C1']",6.1,180,0.0,0.1936834360125089,[6400|0|0]
68,6800,0.6703025102615356,0.78836590051651,0.0758909657597541,2.377631187438965,-1.666912317276001,9.486188888549805,3.658203125,1,"['A/E1', 'B2', 'C1']",6.1,180,0.0,0.2652391000084515,[6400|0|0]
69,6900,0.6238470673561096,0.8043552041053772,0.1344971507787704,8.399918556213379,-12.140822410583496,7.511781215667725,3.68359375,1,"['A/E1', 'B2', 'C1']",6.1,180,0.0,0.3417142654367095,[6400|0|0]
70,7000,0.6031160950660706,0.809553325176239,0.2063697725534439,7.951902389526367,-14.933199882507324,4.186841011047363,3.701171875,1,"['A/E1', 'B2', 'C1']",6.1,180,0.0,0.4166973797726916,[6400|0|0]
71,7100,0.6097667813301086,0.8043215274810791,0.2864148020744324,4.535832405090332,-11.57206916809082,1.3359578847885132,3.705078125,1,"['A/E1', 'B2', 'C1']",6.1,180,0.0,0.4971884357101165,[6400|0|0]
72,7200,0.6364873051643372,0.792010486125946,0.3727839589118957,2.581820487976074,-6.087799549102783,-0.4414729177951813,3.716796875,1,"['A/E1', 'B2', 'C1']",6.1,180,0.0,0.5884308566887256,[6400|0|0]
73,7300,0.671534538269043,0.7771791815757751,0.4643211960792541,0.178678348660469,-0.0325712263584136,-0.8367419242858887,3.720703125,1,"['A/E1', 'B2', 'C1']",6.1,180,0.0,0.6875638074729564,[6400|0|0]
74,7400,0.7046116590499878,0.7614744901657104,0.5579431653022766,-1.4564367532730105,4.13876485824585,-0.5351540446281433,3.720703125,1,"['A/E1', 'B2', 'C1']",6.1,180,0.0,0.7880914473171263,[6400|0|0]
75,7500,0.7293463349342346,0.7484251856803894,0.651986300945282,-2.53553318977356,6.313745498657227,-0.0596631057560443,3.716796875,1,"['A/E1', 'B2', 'C1']",6.1,180,0.0,0.8862046467360529,[6400|0|0]
76,7600,0.7412409782409668,0.7393912672996521,0.7448258996009827,-3.089437961578369,6.496529579162598,0.0869075730443,3.705078125,1,"['A/E1', 'B2', 'C1']",6.1,180,0.0,0.9802380732356536,[6400|0|0]
77,7700,0.7430686354637146,0.7350104451179504,0.837074339389801,-2.56267523765564,4.930957317352295,-1.1298208236694336,3.705078125,1,"['A/E1', 'B2', 'C1']",6.1,180,0.0,1.0726085586592065,[6400|0|0]
78,7800,0.7356916069984436,0.7349721789360046,0.9311405420303344,-1.835707783699036,2.928297758102417,-0.613118588924408,3.7421875,1,"['A/E1', 'B2', 'C1']",6.1,180,0.0,1.1669635929313005,[6400|0|0]
79,7900,0.7233266830444336,0.7382112145423889,1.0233861207962036,-1.2344043254852295,0.5690621137619019,-0.7043954133987427,3.7734375,1,"['A/E1', 'B2', 'C1']",6.1,180,0.0,1.260090546590797,[6400|0|0]
80,8000,0.7107658386230469,0.7438901662826538,1.1049129962921145,-0.4195877611637115,-1.4945132732391355,-0.7046178579330444,3.7734375,1,"['A/E1', 'B2', 'C1']",6.1,180,0.0,1.342774624462974,[6400|0|0]
81,8100,0.6993431448936462,0.7509812712669373,1.1714552640914917,-0.0995122343301773,-2.409256219863892,-0.0517659224569797,3.76953125,1,"['A/E1', 'B2', 'C1']",6.1,180,0.0,1.4106615532918576,[6400|0|0]
82,8200,0.6911570429801941,0.7594102025032043,1.2212061882019043,-0.0642278268933296,-2.134903907775879,0.6594657301902771,3.748046875,1,"['A/E1', 'B2', 'C1']",6.1,180,0.0,1.4617811541917392,[6400|0|0]
83,8300,0.6857356429100037,0.7684902548789978,1.256149411201477,0.3006468415260315,-2.1418230533599854,0.6267993450164795,3.736328125,1,"['A/E1', 'B2', 'C1']",6.1,180,0.0,1.4982896157241852,[6400|0|0]
84,8400,0.6835532188415527,0.7786244750022888,1.280930519104004,0.5515521764755249,-0.8653654456138611,0.7434185147285461,3.732421875,1,"['A/E1', 'B2', 'C1']",6.1,180,0.0,1.5251516465706896,[6400|0|0]
85,8500,0.6831893920898438,0.7877969145774841,1.2996103763580322,1.0809860229492188,-0.5689088702201843,0.9193743467330932,3.732421875,1,"['A/E1', 'B2', 'C1']",6.1,180,0.0,1.5459651778591743,[6400|0|0]
86,8600,0.6829504370689392,0.7961610555648804,1.3134105205535889,1.354109287261963,0.3361636102199554,0.8577721118927002,3.7265625,1,"['A/E1', 'B2', 'C1']",6.1,180,0.0,1.5621039489950823,[6400|0|0]
87,8700,0.6827152967453003,0.8030687570571899,1.321958065032959,1.2834268808364868,0.6602761745452881,0.3204683661460876,3.7265625,1,"['A/E1', 'B2', 'C1']",6.1,180,0.0,1.5730963166884169,[6400|0|0]
88,8800,0.682159423828125,0.8082701563835144,1.326391339302063,1.916340947151184,0.0512244775891304,-0.0452340431511402,3.720703125,1,"['A/E1', 'B2', 'C1']",6.1,180,0.0,1.5799532453300928,[6400|0|0]
89,8900,0.6800025701522827,0.8116576075553894,1.3269070386886597,1.7718061208724976,0.4759501814842224,-0.4921835660934448,3.7109375,1,"['A/E1', 'B2', 'C1']",6.1,180,0.0,1.584002046273356,[6400|0|0]
90,9000,0.6778408885002136,0.8123000860214233,1.3249127864837646,1.242176175117493,0.1327443122863769,-1.1114431619644165,3.7109375,1,"['A/E1', 'B2', 'C1']",6.1,180,0.0,1.5870124761431483,[6400|0|0]
91,9100,0.6750823259353638,0.8105099201202393,1.3211160898208618,0.9968274235725404,-0.530953049659729,-1.7749202251434326,3.7109375,1,"['A/E1', 'B2', 'C1']",6.1,180,0.0,1.592035350512277,[6400|0|0]
92,9200,0.6729325652122498,0.8081616163253784,1.316250205039978,0.6456552147865295,-0.2683213353157043,-2.348484992980957,3.701171875,1,"['A/E1', 'B2', 'C1']",6.1,180,0.0,1.597850231128458,[6400|0|0]
93,9300,0.671751856803894,0.8048651814460754,1.309958815574646,0.2882808148860931,-0.4496051669120788,-2.8342573642730717,3.6953125,1,"['A/E1', 'B2', 'C1']",6.1,180,0.0,1.6050503795063416,[6400|0|0]
94,9400,0.6747708916664124,0.808696448802948,1.3147594928741455,0.720090389251709,-1.3803356885910034,-2.9550061225891118,3.6953125,1,"['A/E1', 'B2', 'C1']",6.1,180,205.11483488614456,1.6118943318436147,[6400|0|0]
95,9500,0.6834506988525391,0.7995315790176392,1.3089795112609863,9.27486801147461,-13.39550495147705,-2.6038169860839844,3.701171875,1,"['A/E1', 'B2', 'C1']",6.1,180,205.11483488614456,1.6257774899288078,[6400|0|0]
96,9600,0.7114966511726379,0.772382378578186,1.302788496017456,8.56828498840332,-15.57961654663086,-2.813688278198242,3.6953125,1,"['A/E1', 'B2', 'C1']",6.1,180,205.11483488614456,1.665299423026627,[6400|0|0]
97,9700,0.7631968855857849,0.7284982204437256,1.2947585582733154,6.317671298980713,-15.718181610107422,-2.741077184677124,3.68359375,1,"['A/E1', 'B2', 'C1']",6.1,180,205.11483488614456,1.7335871486712804,[6400|0|0]
98,9800,0.8364917635917664,0.6750792860984802,1.2878215312957764,2.5341544151306152,-11.867130279541016,-2.2027037143707275,3.689453125,1,"['A/E1', 'B2', 'C1']",6.1,180,205.11483488614456,1.8245478216667044,[6400|0|0]
99,9900,0.9251540303230286,0.621118426322937,1.2826974391937256,-1.8598164319992063,-5.30992317199707,-1.2492660284042358,3.701171875,1,"['A/E1', 'B2', 'C1']",6.1,180,205.11483488614456,1.9284661946789472,[6400|0|0]
100,10000,0.9979462027549744,0.6084772944450378,1.2602914571762085,-3.6006219387054443,0.1119929552078247,-0.4403629601001739,3.673828125,1,"['A/E1', 'B2', 'C1']",6.1,180,205.11483488614456,2.0056706415242287,[6400|0|0]
101,10100,1.0880012512207031,0.5731474757194519,1.2578638792037964,-4.080875396728516,4.895782470703125,0.1615098267793655,3.68359375,1,"['A/E1', 'B2', 'C1']",6.1,180,205.11483488614456,2.1024384098159468,[6400|0|0]
102,10200,1.1683485507965088,0.5450343489646912,1.2587735652923584,-3.861210823059082,7.928636074066162,0.4358003437519073,3.6953125,1,"['A/E1', 'B2', 'C1']",6.1,180,205.11483488614456,2.1875669242739897,[6400|0|0]
103,10300,1.2339879274368286,0.5241796970367432,1.261017084121704,-3.791770696640015,9.40293312072754,0.5719819664955139,3.6953125,1,"['A/E1', 'B2', 'C1']",6.1,180,205.11483488614456,2.256476122858092,[6400|0|0]
104,10400,1.282821536064148,0.5094603896141052,1.2617164850234983,-3.313619375228882,9.327449798583984,0.1737073212862014,3.689453125,1,"['A/E1', 'B2', 'C1']",6.1,180,205.11483488614456,2.307484636894376,[6400|0|0]
105,10501,1.3168460130691528,0.4996199309825897,1.2603682279586792,-2.442669153213501,8.164219856262207,-0.2538779079914093,3.689453125,1,"['A/E1', 'B2', 'C1']",6.1,180,205.11483488614456,2.3429292057118336,[6400|0|0]
106,10601,1.337462306022644,0.4929966032505035,1.257679104804993,-1.6277930736541748,6.415613174438477,-0.6041630506515503,3.689453125,1,"['A/E1', 'B2', 'C1']",6.1,180,205.11483488614456,2.3647496408295505,[6400|0|0]
107,10701,1.348513960838318,0.4892155528068542,1.2550746202468872,-1.098310470581055,4.5145583152771,-0.6127768158912659,3.68359375,1,"['A/E1', 'B2', 'C1']",6.1,180,205.11483488614456,2.3767170447433337,[6400|0|0]
108,10801,1.352721095085144,0.4866667091846466,1.2519699335098269,-0.4254033267498016,2.8388864994049072,-0.5013328790664673,3.689453125,1,"['A/E1', 'B2', 'C1']",6.1,180,205.11483488614456,2.3825338877115225,[6400|0|0]
109,10901,1.3535526990890503,0.4844699501991272,1.250068426132202,-0.2399243414402008,1.3839101791381836,-0.5994592308998108,3.68359375,1,"['A/E1', 'B2', 'C1']",6.1,180,205.11483488614456,2.38555598062322,[6400|0|0]
110,11001,1.352961182594299,0.4824511408805847,1.2491239309310913,-0.0725171267986297,0.7442604899406433,-0.510155200958252,3.689453125,1,"['A/E1', 'B2', 'C1']",6.1,180,205.11483488614456,2.3878619628462907,[6400|0|0]
111,11101,1.3520768880844116,0.4809153974056244,1.248416781425476,-0.1886347234249115,0.2963294982910156,-0.3570879399776459,3.689453125,1,"['A/E1', 'B2', 'C1']",6.1,180,205.11483488614456,2.38976998413139,[6400|0|0]
112,11201,1.351434350013733,0.4784913957118988,1.246901512145996,-0.4139319956302643,0.2115931957960128,-0.3791533708572387,3.68359375,1,"['A/E1', 'B2', 'C1']",6.1,180,205.11483488614456,2.3926999466521046,[6400|0|0]
113,11300,1.3507546186447144,0.4785165190696716,1.244160294532776,-0.5241751074790955,0.3318144977092743,-0.5575324892997742,3.68359375,1,"['A/E1', 'B2', 'C1']",6.1,180,205.11483488614456,2.3955242943502757,[6400|0|0]
114,11401,1.3502461910247805,0.4769310653209686,1.240657925605774,-0.7176050543785095,0.5644077658653259,-0.3110148906707763,3.68359375,1,"['A/E1', 'B2', 'C1']",6.1,180,205.11483488614456,2.399402277116459,[6400|0|0]
115,11500,1.3496932983398438,0.4770717620849609,1.2373449802398682,-0.6767588257789612,0.6125615835189819,0.1545946151018142,3.68359375,1,"['A/E1', 'B2', 'C1']",6.1,180,205.11483488614456,2.402763986934086,[6400|0|0]
116,11600,1.3482409715652466,0.4780623912811279,1.2336407899856567,-0.5341240763664246,0.5664922595024109,0.3881266117095947,3.6796875,1,"['A/E1', 'B2', 'C1']",6.1,180,205.11483488614456,2.4068641850639216,[6400|0|0]
117,11700,1.3461331129074097,0.479701429605484,1.2309178113937378,-0.3654133677482605,0.5333281755447388,0.4283038079738617,3.6796875,1,"['A/E1', 'B2', 'C1']",6.1,180,205.11483488614456,2.4106778613955178,[6400|0|0]
118,11800,1.343189716339111,0.4825235307216644,1.2278879880905151,-0.0140016740188002,0.4649080038070678,0.3155706822872162,3.673828125,1,"['A/E1', 'B2', 'C1']",6.1,180,205.11483488614456,2.415757986129909,[6400|0|0]
119,11900,1.3398536443710327,0.4843526184558868,1.2259975671768188,0.1280795335769653,0.2950124442577362,0.1070402786135673,3.6796875,1,"['A/E1', 'B2', 'C1']",6.1,180,205.11483488614456,2.4200063539749315,[6400|0|0]
120,12000,1.3367700576782229,0.4863436222076416,1.223571538925171,0.1811301708221435,-0.2226722985506057,-0.1890831589698791,3.6796875,1,"['A/E1', 'B2', 'C1']",6.1,180,205.11483488614456,2.424406151232689,[6400|0|0]
121,12102,1.333721399307251,0.487834095954895,1.2216238975524902,0.2924290001392364,-0.0960622802376747,-0.5434022545814514,3.673828125,1,"['A/E1', 'B2', 'C1']",6.1,180,205.11483488614456,2.428318840432041,[6400|0|0]
122,12202,1.3306516408920288,0.4884207248687744,1.219396710395813,0.2140242159366607,-0.0437122359871864,-0.8499710559844971,3.673828125,1,"['A/E1', 'B2', 'C1']",6.1,180,205.11483488614456,2.4321565367255604,[6400|0|0]
123,12300,1.3281804323196411,0.4888502657413482,1.216516613960266,0.0910300686955452,-0.2271169871091842,-0.933593451976776,3.6796875,1,"['A/E1', 'B2', 'C1']",6.1,180,205.11483488614456,2.435975742486907,[6400|0|0]
124,12400,1.3259068727493286,0.4893622100353241,1.2133393287658691,0.0073385732248425,-0.2965401709079742,-1.174010157585144,3.900390625,1,"['A/E1', 'B2', 'C1']",6.1,180,0.0,2.4399160852748416,[6400|0|0]
125,12500,1.3245569467544556,0.4894937872886657,1.192774772644043,0.8292603492736816,-2.096730947494507,-1.5384111404418943,3.86328125,1,"['A/E1', 'B2', 'C1']",6.1,180,0.0,2.4605253206137125,[6400|0|0]
126,12600,1.3231910467147827,0.4898827373981476,1.1329323053359983,-0.2331695705652237,-0.2739812135696411,-1.9144827127456665,3.78515625,1,"['A/E1', 'B2', 'C1']",6.1,180,0.0,2.5203846378385224,[6400|0|0]
127,12700,1.3214778900146484,0.4900272488594055,1.037202000617981,-0.3434435725212097,0.2898533940315246,-1.4565757513046265,3.701171875,1,"['A/E1', 'B2', 'C1']",6.1,180,0.0,2.616130379419264,[6400|0|0]
128,12800,1.3184072971343994,0.4903895556926727,0.9191191792488098,-0.266977459192276,0.8114384412765503,-0.8069554567337036,3.66796875,1,"['A/E1', 'B2', 'C1']",6.1,180,0.0,2.734253673097443,[6400|0|0]
129,12900,1.3149142265319824,0.4901330173015594,0.7925285696983337,-0.3083575367927551,0.255373477935791,-0.4434618055820465,3.6640625,1,"['A/E1', 'B2', 'C1']",6.1,180,0.0,2.860892726238805,[6400|0|0]
130,13000,1.3119159936904907,0.4895142614841461,0.6643955111503601,1.189357042312622,-0.5189383029937744,-0.30263152718544,3.673828125,1,"['A/E1', 'B2', 'C1']",6.1,180,0.0,2.989062351937688,[6400|0|0]
131,13100,1.3108066320419312,0.4885240793228149,0.5384012460708618,-1.4311940670013428,-1.5378857851028442,-1.5361144542694092,3.6640625,1,"['A/E1', 'B2', 'C1']",6.1,180,0.0,3.11506539149191,[6400|0|0]
132,13200,1.31151282787323,0.4943404495716095,0.4145711362361908,-4.857619285583496,2.3150949478149414,0.2636411190032959,3.65234375,1,"['A/E1', 'B2', 'C1']",6.1,180,0.0,3.2390340366288557,[6400|0|0]
133,13300,1.3116110563278198,0.5145761966705322,0.2907979786396026,-4.316508769989014,-2.493999481201172,4.68376350402832,3.599609375,1,"['A/E1', 'B2', 'C1']",6.1,180,0.0,3.3644505014606736,[6400|0|0]
134,13400,1.3138073682785034,0.5454386472702026,0.17545185983181,-1.4093575477600098,5.840911388397217,14.203661918640137,3.65234375,1,"['A/E1', 'B2', 'C1']",6.1,180,0.0,3.4838742920855874,[6400|0|0]
135,13500,1.3047947883605957,0.5838976502418518,0.0692249834537506,-14.305371284484863,22.70084571838379,24.07634162902832,3.63671875,1,"['A/E1', 'B2', 'C1']",6.1,180,0.0,3.597207741567148,[6400|0|0]
136,13600,1.256688117980957,0.6201304793357849,-0.0106817688792943,22.81176376342773,-2.418064594268799,26.520137786865234,3.599609375,1,"['A/E1', 'B2', 'C1']",6.1,180,0.0,3.6972685166370014,[6400|0|0]
137,13700,1.2440855503082275,0.6277607679367065,0.024185599759221,-4.247345924377441,-13.772563934326172,29.435306549072266,3.7265625,1,"['A/E1', 'B2', 'C1']",6.1,180,0.0,3.735120589392048,[6400|0|0]
138,13800,1.239315152168274,0.6423069834709167,0.0511228404939174,-1.0743775367736816,-0.2361719757318496,26.651586532592773,3.689453125,1,"['A/E1', 'B2', 'C1']",6.1,180,0.0,3.7661038755828367,[6400|0|0]
139,13900,1.2367180585861206,0.6522113084793091,0.0620374046266078,19.3604793548584,-9.829686164855955,20.69458770751953,3.66796875,1,"['A/E1', 'B2', 'C1']",6.1,180,0.0,3.78106944470509,[6400|0|0]
140,14000,1.2458205223083496,0.6410983800888062,0.0611114650964736,15.22624969482422,-4.145163059234619,12.445366859436035,3.6484375,1,"['A/E1', 'B2', 'C1']",6.1,180,0.0,3.795464214145425,[6400|0|0]
141,14100,1.2624191045761108,0.6072467565536499,0.0548566281795501,10.743693351745604,-3.274113893508911,6.81748104095459,3.615234375,1,"['A/E1', 'B2', 'C1']",6.1,180,0.0,3.833681596762801,[6400|0|0]
142,14200,1.2818278074264526,0.5535167455673218,0.050165519118309,7.124234199523926,-1.7776033878326416,2.9860846996307373,3.626953125,1,"['A/E1', 'B2', 'C1']",6.1,180,0.0,3.891001910187871,[6400|0|0]
143,14300,1.2992422580718994,0.4884337782859802,0.0521594658493995,-1.290895700454712,-0.4057042598724365,-2.0239901542663574,3.658203125,1,"['A/E1', 'B2', 'C1']",6.1,180,0.0,3.958403924586502,[6400|0|0]
144,14400,1.312074065208435,0.4245204031467438,0.0620085410773754,-5.187707424163818,2.627401828765869,-4.987401962280273,3.673828125,1,"['A/E1', 'B2', 'C1']",6.1,180,0.0,4.024332515341381,[6400|0|0]
145,14500,1.318459391593933,0.3699777126312256,0.0709056630730629,-9.406370162963867,2.9890851974487305,-5.72421407699585,3.673828125,1,"['A/E1', 'B2', 'C1']",6.1,180,0.0,4.079963767902573,[6400|0|0]
146,14600,1.3177965879440308,0.3301595747470855,0.0764652714133262,-10.210010528564451,2.4073050022125244,-5.0386152267456055,3.66796875,1,"['A/E1', 'B2', 'C1']",6.1,180,0.0,4.12017362562597,[6400|0|0]
147,14700,1.3120498657226562,0.3058401346206665,0.0787663385272026,-10.412665367126465,1.973689079284668,-4.21333122253418,3.658203125,1,"['A/E1', 'B2', 'C1']",6.1,180,0.0,4.14526854332288,[6400|0|0]
148,14800,1.3023210763931274,0.2956145405769348,0.0763671696186065,-8.256701469421387,-0.4927102923393249,-3.29681396484375,3.658203125,1,"['A/E1', 'B2', 'C1']",6.1,180,0.0,4.159585251283075,[6400|0|0]
149,14900,1.2904263734817505,0.2973796725273132,0.0738868787884712,-7.070938587188721,-0.8712076544761658,-1.762447953224182,3.658203125,1,"['A/E1', 'B2', 'C1']",6.1,180,0.0,4.1718633411489385,[6400|0|0]
150,15000,1.2795464992523191,0.3059654533863067,0.0708314776420593,-3.592481136322021,-2.931678295135498,-2.0755741596221924,3.65234375,1,"['A/E1', 'B2', 'C1']",6.1,180,0.0,4.186055690227664,[6400|0|0]
151,15100,1.2718918323516846,0.3175606429576874,0.0688975378870964,-2.354721784591675,-4.002877712249756,-1.1628657579421997,3.658203125,1,"['A/E1', 'B2', 'C1']",6.1,180,0.0,4.200083607732831,[6400|0|0]
152,15200,1.2701483964920044,0.3305419683456421,0.0684008672833442,0.9430974125862122,-5.278922080993652,-0.2012374550104141,3.658203125,1,"['A/E1', 'B2', 'C1']",6.1,180,0.0,4.213190898036833,[6400|0|0]
153,15300,1.2762259244918823,0.3391731977462768,0.0683605447411537,2.8691658973693848,-3.805886745452881,-0.4460675120353699,3.658203125,1,"['A/E1', 'B2', 'C1']",6.1,180,0.0,4.223747227581855,[6400|0|0]
154,15400,1.2895113229751587,0.341901570558548,0.0658156126737594,-1.9257538318634035,-1.1034127473831177,-1.00910222530365,3.6484375,1,"['F1', 'B2', 'B1']",6.1,180,0.0,4.237546593882154,[6400|100|0]
155,15500,1.3036788702011108,0.3460142910480499,0.0614650249481201,0.0693217888474464,-0.5912830233573914,-0.01713777333498,3.6484375,1,"['F1', 'B2', 'B1']",6.1,180,0.0,4.252927149066634,[6400|200|0]
156,15600,1.3170353174209597,0.3526381254196167,0.0587616227567195,-5.265501499176025,2.953050374984741,-0.6807524561882019,3.658203125,1,"['F1', 'B2', 'B1']",6.1,180,0.0,4.268078988807306,[6400|300|0]
157,15700,1.3260698318481443,0.3643411695957184,0.0560674928128719,-0.5056973695755005,0.8843599557876587,-0.9874569177627563,3.63671875,1,"['F1', 'B2', 'B1']",6.1,180,0.0,4.283107030265764,[6400|400|0]
158,15800,1.3324618339538574,0.3786818981170654,0.0564702153205871,-1.239885687828064,1.7048550844192505,0.5268276333808899,3.658203125,1,"['F1', 'B2', 'B1']",6.1,180,0.0,4.298812964521982,[6400|500|0]
159,15900,1.3368468284606934,0.3913354575634002,0.0569404065608978,0.214089423418045,-0.817746102809906,2.1766982078552246,3.6484375,1,"['F1', 'B2', 'B1']",6.1,180,0.0,4.312213032554995,[6400|600|0]
160,16000,1.341676115989685,0.4002503752708435,0.0584880150854587,1.6401082277297974,0.7255339026451111,2.020564556121826,3.658203125,1,"['F1', 'B2', 'B1']",6.1,180,0.0,4.322469389993845,[6400|700|0]
161,16100,1.3463507890701294,0.4073169827461242,0.061422873288393,0.5943068861961365,-1.1994657516479492,0.2351626753807068,3.65234375,1,"['F1', 'B2', 'B1']",6.1,180,0.0,4.331436156539822,[6400|800|0]
162,16200,1.3508903980255127,0.4122925996780395,0.064928688108921,1.0687057971954346,-0.7942889332771301,-2.178654670715332,3.65234375,1,"['F1', 'B2', 'B1']",6.1,180,0.0,4.339029281777614,[6400|900|0]
163,16300,1.3563663959503174,0.4159714877605438,0.0690477266907692,1.0365304946899414,-0.3538204729557037,-3.734510660171509,3.658203125,1,"['F1', 'B2', 'B1']",6.1,180,0.0,4.3468066367029605,[6400|1000|0]
164,16400,1.3618745803833008,0.4199170470237732,0.0694859698414802,1.5042181015014648,-0.4677973389625549,-3.959805250167847,3.65234375,1,"['F1', 'B2', 'B1']",6.1,180,0.0,4.353596304640832,[6400|1100|0]
165,16500,1.3681541681289673,0.4218693971633911,0.0673668533563613,2.1200904846191406,-2.15673828125,-3.862459897994995,3.642578125,1,"['F1', 'B2', 'B1']",6.1,180,0.0,4.36050539633227,[6400|1200|0]
166,16600,1.3762410879135132,0.4199997782707214,0.0669959485530853,1.3878061771392822,0.75664222240448,-3.4380152225494385,3.65234375,1,"['F1', 'B2', 'B1']",6.1,180,0.0,4.3688139050299,[6400|1300|0]
167,16700,1.3830761909484863,0.4155179858207702,0.0670577362179756,1.9858477115631104,0.347839891910553,-3.022218704223633,3.6484375,1,"['F1', 'B2', 'B1']",6.1,180,0.0,4.376987577079761,[6400|1400|0]
168,16800,1.3874558210372925,0.408351719379425,0.0673833042383194,0.995711088180542,-0.1846615970134735,-2.860649347305298,3.6484375,1,"['F1', 'B2', 'B1']",6.1,180,0.0,4.385392488082204,[6400|1500|0]
169,16900,1.3911041021347046,0.3971478641033172,0.0684139728546142,0.8542220592498779,-0.531156063079834,-2.258845567703247,3.65234375,1,"['F1', 'B2', 'B1']",6.1,180,0.0,4.397220362185792,[6400|1600|0]
170,17000,1.3938897848129272,0.3838168382644653,0.069307766854763,0.7558989524841309,0.7508322596549988,-2.7478299140930176,3.65234375,1,"['F1', 'B2', 'B1']",6.1,180,0.0,4.410868627482693,[6400|1700|0]
171,17100,1.395851731300354,0.3696471750736236,0.0698765516281127,0.4715298116207123,-1.0923492908477783,-4.305597305297852,3.65234375,1,"['F1', 'B2', 'B1']",6.1,180,0.0,4.425184775885103,[6400|1800|0]
172,17200,1.3973541259765625,0.3546423017978668,0.0701440423727035,0.4052357971668243,-0.2188919633626938,-6.025852203369141,3.6484375,1,"['F1', 'B2', 'B1']",6.1,180,0.0,4.44026704902555,[6400|1900|0]
173,17300,1.398682951927185,0.3385257720947265,0.0706161260604858,0.4316419661045074,-1.5964105129241943,-7.077304363250732,3.86328125,1,"['F1', 'B2', 'B1']",6.1,180,0.0,4.456445156797707,[6400|2000|0]
174,17400,1.402801275253296,0.3205949962139129,0.0535167828202247,0.0248745493590831,-1.693050503730774,-7.297607421875,3.984375,1,"['F1', 'B2', 'B1']",6.1,180,0.0,4.4815621002812325,[6400|2100|0]
175,17500,1.4073808193206787,0.3015730381011963,-0.0166381243616342,-0.6433244347572327,0.6739944219589233,-6.874495506286621,3.984375,1,"['F1', 'B2', 'B1']",6.1,180,0.0,4.554394223111768,[6400|2200|0]
176,17600,1.411359786987305,0.2930493652820587,-0.0078113423660397,6.827856540679932,-6.015113830566406,-2.885847806930542,3.990234375,1,"['F1', 'B2', 'B1']",6.1,180,0.0,4.567293729397573,[6400|2300|0]
177,17700,1.408972144126892,0.2939051389694214,-0.0133078647777438,0.2534748613834381,0.2948524951934814,-3.264103889465332,3.990234375,1,"['F1', 'B2', 'B1']",6.1,180,0.0,4.573347236286578,[6400|2400|0]
178,17800,1.408725380897522,0.293025404214859,-0.01194354519248,-0.6644706130027771,1.462418556213379,-2.39509654045105,3.99609375,1,"['F1', 'B2', 'B1']",6.1,180,0.0,4.574989245196568,[6400|2500|0]
179,17900,1.409074306488037,0.2923099398612976,-0.0108081419020891,-0.149528756737709,1.1724486351013184,-2.4210307598114014,3.99609375,1,"['F1', 'B2', 'B1']",6.1,180,0.0,4.576375888243918,[6400|2600|0]
180,18000,1.409175992012024,0.2917797565460205,-0.0104464991018176,0.4395400583744049,0.7918172478675842,-2.414484024047852,3.99609375,1,"['F1', 'B2', 'B1']",6.1,180,0.0,4.5770256726763066,[6400|2700|0]
181,18100,1.408981442451477,0.2918314635753631,-0.0103242918848991,0.5950193405151367,0.8078775405883789,-2.472805976867676,4.0,1,"['F1', 'B2', 'B1']",6.1,180,0.0,4.577261167373188,[6400|2800|0]
182,18200,1.4094598293304443,0.2922253012657165,-0.0101410448551177,0.6256996393203735,0.8000644445419312,-2.5198447704315186,4.0,1,"['F1', 'B2', 'B1']",6.1,180,0.0,4.577907341967423,[6400|2900|0]
183,18300,1.4095640182495115,0.2919793725013733,-0.0103278150781989,0.923754096031189,0.5730873942375183,-2.531226873397827,4.0,1,"['F1', 'B2', 'B1']",6.1,180,0.0,4.578233255152516,[6400|3000|0]
184,18400,1.4090787172317505,0.2916682958602905,-0.0103662395849823,0.9100539088249208,0.5935662984848022,-2.534143686294556,4.0,1,"['F1', 'B2', 'B1']",6.1,180,0.0,4.578810976709314,[6400|3100|0]
185,18500,1.4090099334716797,0.2918175458908081,-0.0107282567769289,0.886466920375824,0.6574258804321289,-2.536803960800171,4.0,1,"['F1', 'B2', 'B1']",6.1,180,0.0,4.579208548368922,[6400|3200|0]
186,18600,1.4079954624176023,0.2920810580253601,-0.0103674260899424,1.713141918182373,-0.1250044703483581,-1.2719066143035889,4.0078125,1,"['F1', 'B2', 'B1']",6.1,180,0.0,4.580317055901277,[6400|3300|0]
187,18700,1.4078601598739624,0.2911552190780639,-0.0106157213449478,0.4467716515064239,1.191387414932251,-2.319437026977539,4.0078125,1,"['F1', 'B2', 'B1']",6.1,180,0.0,4.581285113269569,[6400|3400|0]
188,18800,1.406174659729004,0.2932507693767547,-0.0098624201491475,0.1845806688070297,1.543511986732483,1.910523772239685,4.0078125,1,"['F1', 'B2', 'B1']",6.1,180,0.0,4.584077908372077,[6400|3500|0]
189,18900,1.4006863832473757,0.3049430251121521,-0.0002954077208414,-0.1612424403429031,16.4132022857666,9.483963966369627,4.0078125,1,"['F1', 'B2', 'B1']",6.1,180,0.0,4.600151419180985,[6400|3600|0]
190,19000,1.3884048461914062,0.3561325371265411,0.0443971790373325,4.04566764831543,7.45810079574585,-0.4162047803401947,4.01171875,1,"['F1', 'B2', 'B1']",6.1,180,0.0,4.669206684033604,[6400|3700|0]
191,19100,1.3905638456344604,0.4338290989398956,0.0645183399319648,-1.907839059829712,-4.412711143493652,-4.447555065155029,4.01171875,1,"['F1', 'B2', 'B1']",6.1,180,0.0,4.749495401248161,[6400|3800|0]
192,19200,1.3866002559661863,0.5054938197135925,0.0503420121967792,2.735449314117432,-1.2160507440567017,-12.524941444396973,4.01171875,1,"['F1', 'B2', 'B1']",6.1,180,0.0,4.8226562549520775,[6400|3900|0]
193,19300,1.3933300971984863,0.5325746536254883,0.0289452690631151,2.3348581790924072,2.3169283866882324,-8.992472648620605,4.01171875,1,"['F1', 'B2', 'B1']",6.1,180,0.0,4.857819914390532,[6400|4000|0]
194,19400,1.397807240486145,0.5328529477119446,0.0131372259929776,3.006675243377685,5.442804336547852,-3.301975727081299,4.01171875,1,"['F1', 'B2', 'B1']",6.1,180,0.0,4.874252092740468,[6400|4100|0]
195,19500,1.392091989517212,0.5293262600898743,0.0085207344964146,-1.5977904796600342,4.037267684936523,-5.718472957611084,4.01171875,1,"['F1', 'B2', 'B1']",6.1,180,0.0,4.882401547505014,[6400|4200|0]
196,19600,1.390973448753357,0.5268224477767944,0.0006840662681497,0.9459574818611144,1.2245359420776367,-5.307163715362549,4.015625,1,"['F1', 'B2', 'B1']",6.1,180,0.0,4.890704172298381,[6400|4300|0]
197,19700,1.3919627666473389,0.5289872884750366,-0.001885458594188,0.0278385523706674,-2.1032724380493164,-2.051914691925049,4.015625,1,"['F1', 'B2', 'B1']",6.1,180,0.0,4.894206706118673,[6400|4400|0]
198,19800,1.391953706741333,0.5288940072059631,-0.0016169809969142,-0.1754035502672195,-1.693384885787964,-2.099992036819458,4.015625,1,"['F1', 'B2', 'B1']",6.1,180,0.0,4.894491071547821,[6400|4500|0]
199,19900,1.3921607732772827,0.5287262201309204,-0.0007153284968808,-0.1607900112867355,-1.6581932306289673,-2.196465253829956,4.015625,1,"['F1', 'B2', 'B1']",6.1,180,0.0,4.895431287631324,[6400|4600|0]
200,20000,1.3917790651321411,0.5287675261497498,-0.0011344996746629,-0.1467359066009521,-1.592131733894348,-2.2657294273376465,4.015625,1,"['F1', 'B2', 'B1']",6.1,180,0.0,4.8959997168455125,[6400|4700|0]
201,20100,1.3920063972473145,0.5289060473442078,-0.0008492335909977,-0.1293223202228546,-1.5316716432571411,-2.335818290710449,4.015625,1,"['F1', 'B2', 'B1']",6.1,180,0.0,4.896389902378808,[6400|4800|0]
202,20200,1.3918116092681885,0.5285376310348511,-0.0007550568552687,-0.1083240807056427,-1.438759446144104,-2.3610353469848637,4.015625,1,"['F1', 'B2', 'B1']",6.1,180,0.0,4.896817151944478,[6400|4900|0]
203,20300,1.3918721675872805,0.5290621519088745,-0.000717771530617,-0.0188115742057561,-1.2467374801635742,-2.414280414581299,4.0234375,1,"['F1', 'B2', 'B1']",6.1,180,0.0,4.897346471935346,[6400|5000|0]
204,20400,1.3921689987182615,0.5286375284194946,-0.0004236093664076,-0.0037805202882736,-1.226698398590088,-2.457582473754883,4.0859375,1,"['F1', 'B2', 'B1']",6.1,180,0.0,4.897942244716618,[6400|5100|0]
205,20500,1.392008662223816,0.5286351442337036,-0.0006459899595938,0.0089707467705011,-1.1912842988967896,-2.4654550552368164,4.0859375,1,"['F1', 'B2', 'B1']",6.1,180,0.0,4.898216410002566,[6400|5200|0]
206,20600,1.391979694366455,0.5287714600563049,-0.0007686708704568,0.0210894085466861,-1.167121410369873,-2.4834256172180176,4.08984375,1,"['F1', 'B2', 'B1']",6.1,180,0.0,4.898402075686368,[6400|5300|0]
207,20700,1.3917540311813354,0.528663694858551,-0.0007670037448406,0.0331238992512226,-1.135542392730713,-2.5105578899383545,4.0859375,1,"['F1', 'B2', 'B1']",6.1,180,0.0,4.8986521556541245,[6400|5400|0]
208,20800,1.3920507431030271,0.5289149880409241,-0.0005719833425246,0.0311746094375848,-1.12404203414917,-2.4957218170166016,4.08984375,1,"['F1', 'B2', 'B1']",6.1,180,0.0,4.899087148970511,[6400|5500|0]
209,20900,1.3919249773025513,0.5284677743911743,-0.000691388384439,0.0383504144847393,-1.1073716878890991,-2.487741708755493,4.08984375,1,"['F1', 'B2', 'B1']",6.1,180,0.0,4.899566809943623,[6400|5600|0]
210,21000,1.3920444250106812,0.5284024477005005,-0.000520616187714,0.0349755957722663,-1.1027321815490725,-2.489919662475586,4.08984375,1,"['F1', 'B2', 'B1']",6.1,180,0.0,4.899785209748262,[6400|5700|0]
211,21100,1.3920763731002808,0.528666615486145,-0.0007183486013673,0.0237673986703157,-1.0955997705459597,-2.49609112739563,4.08984375,1,"['F1', 'B2', 'B1']",6.1,180,0.0,4.900116726575604,[6400|5800|0]
212,21200,1.3919572830200195,0.5287940502166748,-0.0003202639927621,0.0201496481895446,-1.0805710554122925,-2.516189813613892,4.09765625,1,"['F1', 'B2', 'B1']",6.1,180,0.0,4.900551345274431,[6400|5900|0]
213,21300,1.3918720483779907,0.5282781720161438,-0.000651336449664,0.0340450629591941,-1.070923089981079,-2.530925273895264,4.09765625,1,"['F1', 'B2', 'B1']",6.1,180,0.0,4.901170218632804,[6400|6000|0]
214,21400,1.391899347305298,0.5286047458648682,-0.0003469745279289,0.0365780927240848,-1.0627413988113403,-2.524065494537353,4.09765625,1,"['F1', 'B2', 'B1']",6.1,180,0.0,4.901617467880433,[6400|6100|0]
215,21500,1.3916581869125366,0.5286269783973694,-0.0004797196597792,0.0437605008482933,-1.0492990016937256,-2.5160107612609863,4.09765625,1,"['F1', 'B2', 'B1']",6.1,180,0.0,4.901893645161483,[6400|6200|0]
216,21600,1.392059564590454,0.5284302830696106,-0.0003591499989852,0.0503018945455551,-1.0634193420410156,-2.538100481033325,4.09765625,1,"['F1', 'B2', 'B1']",6.1,180,0.0,4.902356603189166,[6400|6300|0]
217,21700,1.3917163610458374,0.5285447835922241,-0.0006248747813515,0.0490732751786708,-1.050415277481079,-2.5202040672302246,4.09765625,1,"['F1', 'B2', 'B1']",6.1,180,0.0,4.902805500396419,[6400|6400|0]
218,21800,1.391798734664917,0.5285873413085938,-0.0009215815225616,0.0484107881784439,-1.0501550436019895,-2.513359308242798,4.1015625,1,"['F1', 'B2', 'B1']",6.1,180,0.0,4.903116356412321,[6400|6500|0]
219,21900,1.39197838306427,0.5286917090415955,-0.0007940076175145,0.0461217872798442,-1.0442529916763306,-2.524153709411621,4.09765625,1,"['F1', 'B2', 'B1']",6.1,180,0.0,4.90336016222097,[6400|6600|0]
220,22000,1.391953468322754,0.5282173752784729,-0.0003570819681044,0.0578023009002208,-1.0346132516860962,-2.52166748046875,4.1015625,1,"['F1', 'B2', 'B1']",6.1,180,0.0,4.904005543725427,[6400|6700|0]
221,22100,1.3920438289642334,0.5285896062850952,-0.0004225430602673,0.0445030629634857,-1.032784938812256,-2.5362660884857178,4.1015625,1,"['F1', 'B2', 'B1']",6.1,180,0.0,4.904394138787679,[6400|6800|0]
222,22200,1.391734600067139,0.5283987522125244,-0.0005113184452056,0.0575911700725555,-1.0232329368591309,-2.5114495754241943,4.1015625,1,"['F1', 'B2', 'B1']",6.1,180,0.0,4.904768209445157,[6400|6900|0]
223,22300,1.3918126821517944,0.5287195444107056,-0.0005048676976002,0.050562247633934,-1.0286407470703125,-2.5095839500427246,4.1015625,1,"['F1', 'B2', 'B1']",6.1,180,0.0,4.9050984306717655,[6400|7000|0]
224,22400,1.3918873071670532,0.5287643074989319,-0.0004257069958839,0.0521190427243709,-1.0359936952590942,-2.5313990116119385,4.1015625,1,"['F1', 'B2', 'B1']",6.1,180,0.0,4.905216070136514,[6400|7100|0]
225,22500,1.3920273780822754,0.5284284949302673,-0.0004414845898281,0.0622378624975681,-1.03831148147583,-2.52408218383789,4.1015625,1,"['F1', 'B2', 'B1']",6.1,180,0.0,4.905580266340551,[6400|7200|0]
226,22600,1.3919059038162231,0.5287952423095703,-0.0007446158560924,0.0542612187564373,-1.037016987800598,-2.520230770111084,4.10546875,1,"['F1', 'B2', 'B1']",6.1,180,0.0,4.906071334769719,[6400|7300|0]
227,22700,1.3918888568878174,0.5284143686294556,-0.000676174648106,0.0582078620791435,-1.0377082824707031,-2.510390043258667,4.10546875,1,"['F1', 'B2', 'B1']",6.1,180,0.0,4.906458684168742,[6400|7400|0]
228,22800,1.391855001449585,0.5286509990692139,-0.0004466274403966,0.0522321872413158,-1.0311187505722046,-2.512548446655273,4.10546875,1,"['F1', 'B2', 'B1']",6.1,180,0.0,4.906790093396563,[6400|7500|0]
229,22900,1.3919267654418943,0.528769850730896,-0.0007490655407309,0.0399849750101566,-1.0496509075164795,-2.5304031372070312,4.10546875,1,"['F1', 'B2', 'B1']",6.1,180,0.0,4.907122876498013,[6400|7600|0]
230,23000,1.392082691192627,0.5288142561912537,-0.0008431561291217,0.0447973422706127,-1.0525063276290894,-2.5486724376678467,4.10546875,1,"['F1', 'B2', 'B1']",6.1,180,0.0,4.907310327087435,[6400|7700|0]
231,23100,1.391960859298706,0.528702437877655,-0.0006406997563317,0.0439415574073791,-1.0551549196243286,-2.559002637863159,4.10546875,1,"['F1', 'B2', 'B1']",6.1,180,0.0,4.907571736590927,[6400|7800|0]
232,23200,1.3918912410736084,0.5288527011871338,-0.0005812650197185,0.0407895445823669,-1.046337604522705,-2.5463192462921143,4.10546875,1,"['F1', 'B2', 'B1']",6.1,180,0.0,4.907747686150056,[6400|7900|0]
233,23300,1.3918399810791016,0.5285292863845825,-0.0005374524043872,0.0518121309578418,-1.0360568761825562,-2.5343027114868164,4.10546875,1,"['F1', 'B2', 'B1']",6.1,180,0.0,4.908078056043975,[6400|8000|0]
234,23400,1.3917853832244873,0.5282235145568848,-0.0005488964379765,0.0648273602128028,-1.0314934253692627,-2.527816772460937,4.10546875,1,"['F1', 'B2', 'B1']",6.1,180,0.0,4.908388874805067,[6400|8100|0]
235,23500,1.3917847871780396,0.5286543965339661,-0.000709633459337,0.045193750411272,-1.035006046295166,-2.540170192718506,4.11328125,1,"['F1', 'B2', 'B1']",6.1,180,0.0,4.908848761773224,[6400|8200|0]
236,23600,1.391857624053955,0.5289127826690674,-0.0005492545315064,0.0451328381896019,-1.0385451316833496,-2.5615551471710205,4.11328125,1,"['F1', 'B2', 'B1']",6.1,180,0.0,4.90916147570927,[6400|8300|0]
237,23700,1.3919756412506104,0.5286355018615723,-0.0003984253562521,0.0600520260632038,-1.03528892993927,-2.544489622116089,4.11328125,1,"['F1', 'B2', 'B1']",6.1,180,0.0,4.9094984655385225,[6400|8400|0]
238,23800,1.3921624422073364,0.5284006595611572,-0.0002960161073133,0.0699086487293243,-1.0465221405029297,-2.556426286697388,4.11328125,1,"['F1', 'B2', 'B1']",6.1,180,0.0,4.909815535180346,[6400|8500|0]
239,23900,1.391770362854004,0.5285021066665649,-0.0004079529899172,0.0620546601712703,-1.036296248435974,-2.546429395675659,4.11328125,1,"['F1', 'B2', 'B1']",6.1,180,0.0,4.91023571085812,[6400|8600|0]
240,24000,1.39206862449646,0.5286558270454407,-0.0005909954779781,0.0520526617765426,-1.0519477128982544,-2.535195827484131,4.11328125,1,"['F1', 'B2', 'B1']",6.1,180,0.0,4.91061793397971,[6400|8700|0]
241,24100,1.3920842409133911,0.5283999443054199,-0.0005447281291708,0.0617894046008586,-1.0529866218566897,-2.5441839694976807,4.11328125,1,"['F1', 'B2', 'B1']",6.1,180,0.0,4.910878434491579,[6400|8800|0]
242,24200,1.3919527530670166,0.5283527970314026,-0.0006185824167914,0.0611916333436965,-1.0474542379379272,-2.55410099029541,4.11328125,1,"['F1', 'B2', 'B1']",6.1,180,0.0,4.911036442007196,[6400|8900|0]
243,24300,1.39192795753479,0.5291350483894348,-8.111928764265031e-07,0.0419046990573406,-1.035810112953186,-2.5863258838653564,4.1171875,1,"['F1', 'B2', 'B1']",6.1,180,0.0,4.912033524396298,[6400|9000|0]
244,24400,1.3922302722930908,0.5291003584861755,-1.5750734746688977e-05,0.041270762681961,-1.0482980012893677,-2.5936391353607178,4.11328125,1,"['F1', 'B2', 'B1']",6.1,180,0.0,4.912338189445797,[6400|9100|0]
245,24500,1.392008662223816,0.5288007855415344,-0.0004339319712016,0.0524515956640243,-1.0444037914276123,-2.589446544647217,4.1171875,1,"['F1', 'B2', 'B1']",6.1,180,0.0,4.912898305968039,[6400|9200|0]
246,24600,1.3919373750686646,0.5292434692382812,-0.0003114839782938,0.047793474048376,-1.0392968654632568,-2.5943822860717773,4.1171875,1,"['F1', 'B2', 'B1']",6.1,180,0.0,4.913363111545482,[6400|9300|0]
247,24700,1.3918498754501345,0.5288755893707275,-0.0005723465583287,0.0585003085434436,-1.0412873029708862,-2.5813798904418945,4.1171875,1,"['F1', 'B2', 'B1']",6.1,180,0.0,4.913822503606641,[6400|9400|0]
248,24800,1.3923105001449585,0.5292381644248962,-0.0005882137920707,0.0437370799481868,-1.051511287689209,-2.573467254638672,4.1171875,1,"['F1', 'B2', 'B1']",6.1,180,0.0,4.914408922866637,[6400|9500|0]
249,24900,1.3921079635620115,0.5292208790779114,-2.848063741112128e-05,0.0400411188602447,-1.0363008975982666,-2.5900049209594727,4.1171875,1,"['F1', 'B2', 'B1']",6.1,180,0.0,4.915004423542604,[6400|9600|0]
250,25000,1.391734957695007,0.5289911031723022,-0.0002612220996525,0.0443543046712875,-1.033735752105713,-2.571974039077759,4.1171875,1,"['F1', 'B2', 'B1']",6.1,180,0.0,4.91550050713623,[6400|9700|0]
251,25100,1.3921161890029907,0.5292689800262451,-0.0003373001236468,0.0389845818281173,-1.042819857597351,-2.5694446563720703,4.1171875,1,"['F1', 'B2', 'B1']",6.1,180,0.0,4.915978357240215,[6400|9800|0]
252,25200,1.3918111324310305,0.5289924740791321,-0.0004115509800612,0.0445260144770145,-1.046320557594299,-2.5438506603240967,4.1171875,1,"['F1', 'B2', 'B1']",6.1,180,0.0,4.91639672100605,[6400|9900|0]
253,25300,1.3922905921936035,0.5292277336120605,-0.0002990433713421,0.036859106272459,-1.0513935089111328,-2.5411417484283447,4.1171875,1,"['F1', 'B2', 'B1']",6.1,180,0.0,4.916942510959952,[6400|10000|0]
254,25400,1.3918901681900024,0.5292174220085144,-0.0002109693159582,0.0302605312317609,-1.0462162494659424,-2.5534651279449463,4.1171875,1,"['F1', 'B2', 'B1']",6.1,180,0.0,4.91735263624698,[6400|10100|0]
255,25500,1.3919304609298706,0.5293457508087158,-0.0001599171810084,0.0234804470092058,-1.0435622930526731,-2.551774740219116,4.12109375,1,"['F1', 'B2', 'B1']",6.1,180,0.0,4.917496504611571,[6400|10200|0]
256,25600,1.392169713973999,0.5290377140045166,0.0001801562175387,0.026393599808216,-1.0477100610733032,-2.575458526611328,4.12109375,1,"['F1', 'B2', 'B1']",6.1,180,0.0,4.918013977903892,[6400|10300|0]
257,25700,1.3920598030090332,0.529288649559021,-0.000373669055989,0.0153046287596225,-1.0420016050338743,-2.5639524459838867,4.12109375,1,"['F1', 'B2', 'B1']",6.1,180,0.0,4.91863185451482,[6400|10400|0]
258,25800,1.3919206857681274,0.5287405848503113,-1.9948125554947183e-05,0.0320168994367122,-1.039170265197754,-2.566457271575928,4.12109375,1,"['F1', 'B2', 'B1']",6.1,180,0.0,4.919298823051018,[6400|10500|0]
259,25900,1.3923606872558594,0.5292693376541138,-0.0001437247701687,0.0146201439201831,-1.0491045713424685,-2.576998233795166,4.12109375,1,"['F1', 'B2', 'B1']",6.1,180,0.0,4.919997751870346,[6400|10600|0]
260,26000,1.392162561416626,0.529106855392456,-0.0001705276517895,0.0213970057666301,-1.0427511930465698,-2.569546699523926,4.12109375,1,"['F1', 'B2', 'B1']",6.1,180,0.0,4.92025538092148,[6400|10700|0]
261,26100,1.392071008682251,0.5292527079582214,-0.0002978875418193,0.0171328354626894,-1.0416598320007324,-2.5749542713165283,4.12109375,1,"['F1', 'B2', 'B1']",6.1,180,0.0,4.92046956639181,[6400|10800|0]
262,26200,1.3920338153839111,0.5288849472999573,-1.657713801250793e-05,0.0296439006924629,-1.0415081977844238,-2.5672292709350586,4.12109375,1,"['F1', 'B2', 'B1']",6.1,180,0.0,4.920934073427815,[6400|10900|0]
263,26300,1.3922196626663208,0.5288664698600769,-0.0001634205837035,0.0335227362811565,-1.0468839406967163,-2.566603899002075,4.12109375,1,"['F1', 'B2', 'B1']",6.1,180,0.0,4.921171652100481,[6400|11000|0]
264,26401,1.3920822143554688,0.5293202996253967,-0.0002896155929192,0.0209221187978982,-1.0340356826782229,-2.5934321880340576,4.12109375,1,"['F1', 'B2', 'B1']",6.1,180,0.0,4.9216623441366885,[6400|11100|0]
265,26501,1.392187237739563,0.5290800929069519,-0.0005274360883049,0.0327726081013679,-1.03263258934021,-2.588066816329956,4.12109375,1,"['F1', 'B2', 'B1']",6.1,180,0.0,4.922016304257067,[6400|11200|0]
266,26601,1.3923312425613403,0.5290891528129578,-0.0003357964160386,0.0336991138756275,-1.03069269657135,-2.5896356105804443,4.12890625,1,"['F1', 'B2', 'B1']",6.1,180,0.0,4.922256190135306,[6400|11300|0]
267,26701,1.3920526504516602,0.5289258360862732,-0.0001591730542713,0.0447821095585823,-1.0212359428405762,-2.6047816276550293,4.12109375,1,"['F1', 'B2', 'B1']",6.1,180,0.0,4.9226242685627,[6400|11400|0]
268,26801,1.3921595811843872,0.5292474627494812,-0.0002960589772555,0.0367548614740371,-1.0244202613830566,-2.5926239490509038,4.12109375,1,"['F1', 'B2', 'B1']",6.1,180,0.0,4.922989803305233,[6400|11500|0]
269,26901,1.3922349214553833,0.5291376113891602,5.0207563617732376e-05,0.0405432768166065,-1.0257821083068848,-2.590338945388794,4.12109375,1,"['F1', 'B2', 'B1']",6.1,180,0.0,4.92336080734177,[6400|11600|0]
270,27001,1.392411708831787,0.5292405486106873,-0.00011584967433,0.0343753211200237,-1.0208431482315063,-2.59371280670166,4.12890625,1,"['F1', 'B2', 'B1']",6.1,180,0.0,4.923624293307822,[6400|11700|0]
271,27102,1.392231822013855,0.5293102860450745,-0.0001005051162792,0.0389645285904407,-1.0152744054794312,-2.560343742370605,4.12890625,1,"['F1', 'B2', 'B1']",6.1,180,0.0,4.923817834085134,[6400|11800|0]
272,27202,1.39167320728302,0.5290713906288147,-0.0003954089188482,0.0476267039775848,-1.0051075220108032,-2.569212913513184,4.12890625,1,"['F1', 'B2', 'B1']",6.1,180,0.0,4.924493178212365,[6400|11900|0]
273,27302,1.3924521207809448,0.5290042757987976,-3.529080277075991e-05,0.0475271008908748,-1.027040958404541,-2.5830698013305664,4.12890625,1,"['F1', 'B2', 'B1']",6.1,180,0.0,4.925353931193879,[6400|12000|0]
274,27402,1.39203941822052,0.5291029810905457,-0.0002851844474207,0.0470845662057399,-1.025111436843872,-2.5822882652282715,4.12890625,1,"['F1', 'B2', 'B1']",6.1,180,0.0,4.925846387254494,[6400|12100|0]
275,27500,1.3921740055084229,0.5290245413780212,4.244774390826933e-05,0.0530111901462078,-1.0397565364837646,-2.571000337600708,4.12890625,1,"['F1', 'B2', 'B1']",6.1,180,0.0,4.926209167324731,[6400|12200|0]
276,27600,1.3921576738357544,0.5290923118591309,0.000116305614938,0.0519737415015697,-1.0363527536392212,-2.584204912185669,4.12890625,1,"['F1', 'B2', 'B1']",6.1,180,0.0,4.926310727881814,[6400|12300|0]
277,27700,1.3920878171920776,0.5291928648948669,9.462411981076002e-05,0.0468062050640583,-1.0297691822052002,-2.5942344665527344,4.12890625,1,"['F1', 'B2', 'B1']",6.1,180,0.0,4.926435069953908,[6400|12400|0]
278,27800,1.3918927907943726,0.5291239023208618,-0.0002895141951739,0.0444872118532657,-1.0217031240463257,-2.585441827774048,4.12890625,1,"['F1', 'B2', 'B1']",6.1,180,0.0,4.926871365011701,[6400|12500|0]
279,27900,1.392210841178894,0.529249370098114,0.0001276376715395,0.0421842969954013,-1.0364364385604858,-2.60254454612732,4.12890625,1,"['F1', 'B2', 'B1']",6.1,180,0.0,4.927410729350646,[6400|12600|0]
280,28000,1.3924134969711304,0.5292831659317017,-0.0004721207078546,0.0373151712119579,-1.0364097356796265,-2.6153013706207275,4.12890625,1,"['F1', 'B2', 'B1']",6.1,180,0.0,4.9280447022539695,[6400|12700|0]
281,28100,1.3925336599349976,0.5290830135345459,1.0309622666682117e-05,0.0425921082496643,-1.047932267189026,-2.599733829498291,4.12890625,1,"['F1', 'B2', 'B1']",6.1,180,0.0,4.928580649213826,[6400|12800|0]
282,28200,1.3918533325195312,0.5291131734848022,-0.0003654808388091,0.0495966039597988,-1.0345189571380615,-2.592111587524414,4.12890625,1,"['F1', 'B2', 'B1']",6.1,180,0.0,4.929358449628952,[6400|12900|0]
283,28300,1.3919259309768677,0.5290085673332214,-0.0001186926965601,0.0552113652229309,-1.0404003858566284,-2.5885934829711914,4.12890625,1,"['F1', 'B2', 'B1']",6.1,180,0.0,4.929636149773192,[6400|13000|0]
284,28400,1.3923102617263794,0.528921365737915,-0.0003063173498958,0.0509230010211467,-1.0463193655014038,-2.601360321044922,4.1328125,1,"['F1', 'B2', 'B1']",6.1,180,0.0,4.930072632595058,[6400|13100|0]
285,28500,1.3921362161636353,0.5290022492408752,-0.0002234505955129,0.0478075519204139,-1.0431065559387207,-2.587076425552368,4.1328125,1,"['F1', 'B2', 'B1']",6.1,180,0.0,4.930281680192375,[6400|13200|0]
286,28600,1.3918159008026123,0.528947651386261,-6.123473576735705e-05,0.0388506762683391,-1.0285508632659912,-2.583346366882324,4.1328125,1,"['F1', 'B2', 'B1']",6.1,180,0.0,4.930644856239753,[6400|13300|0]
287,28700,1.391845464706421,0.5289146304130554,-0.0004667299799621,0.0362906120717525,-1.0288398265838623,-2.578761577606201,4.1328125,1,"['F1', 'B2', 'B1']",6.1,180,0.0,4.931052766526635,[6400|13400|0]
288,28800,1.3920018672943115,0.5288994908332825,-8.166329644154757e-05,0.0341202393174171,-1.0371168851852417,-2.5854268074035645,4.1328125,1,"['F1', 'B2', 'B1']",6.1,180,0.0,4.931468659935013,[6400|13500|0]
289,28900,1.3920457363128662,0.5292261242866516,-0.000142923410749,0.0235810000449419,-1.0292575359344482,-2.576147079467773,4.12890625,1,"['F1', 'B2', 'B1']",6.1,180,0.0,4.931803871368669,[6400|13600|0]
290,29000,1.3919066190719604,0.5288150906562805,0.0001786504435585,0.0302303954958915,-1.0243173837661743,-2.569352865219116,4.1328125,1,"['F1', 'B2', 'B1']",6.1,180,0.0,4.932343975058517,[6400|13700|0]
291,29100,1.3919841051101685,0.5293187499046326,-8.668340888107195e-05,0.018595578148961,-1.0237981081008911,-2.5589439868927,4.1328125,1,"['F1', 'B2', 'B1']",6.1,180,0.0,4.932918499886369,[6400|13800|0]
292,29200,1.3922295570373535,0.5289728045463562,-4.3149542761966586e-05,0.0177379827946424,-1.0384052991867063,-2.57999587059021,4.1328125,1,"['F1', 'B2', 'B1']",6.1,180,0.0,4.933344903494434,[6400|13900|0]
293,29300,1.392225742340088,0.528864324092865,0.0001899253838928,0.0280172303318977,-1.0397332906723022,-2.5691635608673096,4.1328125,1,"['F1', 'B2', 'B1']",6.1,180,0.0,4.9336020153030695,[6400|14000|0]
294,29400,1.3922779560089111,0.529262363910675,-0.0003602856886573,0.0171566363424062,-1.0372997522354126,-2.5834264755249023,4.1328125,1,"['F1', 'B2', 'B1']",6.1,180,0.0,4.934283113084692,[6400|14100|0]
