,time.ms,stateEstimate.x,stateEstimate.y,stateEstimate.z,stabilizer.roll,stabilizer.pitch,stabilizer.yaw,pm.vbat,drone_id,node_name,wind_speed,global_wind_direction,relative_wind_direction,travel_dist,waiting_time
0,0,0.0264472775161266,0.5226065516471863,0.0,0.0737719014286995,-0.2552676498889923,3.929407119750977,4.15234375,2,J1,6.1,90,450.0,0.0,[6200|0|0|0]
1,100,0.0264705382287502,0.5227533578872681,0.0,0.067641943693161,-0.2589331865310669,3.921383857727051,4.15234375,2,J1,6.1,90,450.0,0.0001486375890503,[6300|0|0|0]
2,200,0.0264878254383802,0.5228123664855957,0.0,0.0806100666522979,-0.2526249587535858,3.91745400428772,4.15234375,2,J1,6.1,90,450.0,0.0002101263058477,[6400|0|0|0]
3,300,0.0264197438955307,0.5228814482688904,0.0,0.0755598843097686,-0.2515956461429596,3.923612117767334,4.15234375,2,A/E1,6.1,90,450.0,0.0003071180027085,[6400|0|0|0]
4,400,0.0265703778713941,0.5229963660240173,0.0,0.0793990045785904,-0.2402788698673248,3.932584047317505,2.908203125,2,A/E1,6.1,90,450.0,0.0004965822081084,[6400|0|0|0]
5,500,0.0274320319294929,0.5237106680870056,0.0,-0.1648920774459839,-1.3478739261627195,4.166929721832275,3.19921875,2,A/E1,6.1,90,450.0,0.0016158119222545,[6400|0|0|0]
6,600,0.0337255299091339,0.5276583433151245,0.0,0.1754308491945266,-3.715888738632202,3.757728576660156,3.431640625,2,A/E1,6.1,90,450.0,0.0090449610341279,[6400|0|0|0]
7,700,0.048053216189146,0.5379588007926941,0.0615718550980091,-0.4244110286235809,0.8540909290313721,2.811281204223633,3.5,2,A/E1,6.1,90,450.0,0.0730955297950366,[6400|0|0|0]
8,800,0.0622760728001594,0.5529288649559021,0.1424370408058166,-0.056708674877882,2.9263174533843994,1.3792219161987305,3.537109375,2,A/E1,6.1,90,450.0,0.1565555245876688,[6400|0|0|0]
9,900,0.0730875134468078,0.5699354410171509,0.2284797728061676,1.5832955837249756,3.924983024597168,0.5649847984313965,3.537109375,2,A/E1,6.1,90,450.0,0.244926688483293,[6400|0|0|0]
10,1000,0.0779625326395034,0.5864796042442322,0.3162839412689209,2.627962827682495,3.7908146381378174,0.229883536696434,3.53125,2,A/E1,6.1,90,450.0,0.3344087936689055,[6400|0|0|0]
11,1100,0.077576033771038,0.5990873575210571,0.4059035181999206,3.561386585235596,2.993853807449341,0.1381609737873077,3.53125,2,A/E1,6.1,90,450.0,0.4249116852987092,[6400|0|0|0]
12,1200,0.0733909159898758,0.6069080233573914,0.4971161782741546,3.619106531143189,1.765270471572876,0.0812647864222526,3.541015625,2,A/E1,6.1,90,450.0,0.5165546194659627,[6400|0|0|0]
13,1300,0.0625037103891372,0.6125773191452026,0.5950639247894287,3.410787343978882,0.9237602949142456,-0.0717374309897422,3.53125,2,A/E1,6.1,90,450.0,0.6152685151845637,[6400|0|0|0]
14,1400,0.056021362543106,0.6101472973823547,0.6876545548439026,2.40860652923584,-0.2785918414592743,-0.2636537849903106,3.505859375,2,A/E1,6.1,90,450.0,0.7081175895647066,[6400|0|0|0]
15,1500,0.048726137727499,0.6055348515510559,0.7829792499542236,1.541555404663086,-0.7597495913505554,-0.4697352945804596,3.509765625,2,A/E1,6.1,90,450.0,0.8038322303441223,[6400|0|0|0]
16,1600,0.0431444495916366,0.5983831286430359,0.8804715275764465,0.8665501475334167,-0.7767127752304077,-0.550880491733551,3.48828125,2,A/E1,6.1,90,450.0,0.9017456950921728,[6400|0|0|0]
17,1700,0.0395480059087276,0.5911109447479248,0.9804163575172424,0.1475535482168197,-0.6961514353752136,-0.6389861106872559,3.505859375,2,A/E1,6.1,90,450.0,1.0020192613878982,[6400|0|0|0]
18,1800,0.0365624204277992,0.5839298367500305,1.0818090438842771,-0.1086418405175209,-0.150107055902481,-0.5037360191345215,3.509765625,2,A/E1,6.1,90,450.0,1.1037097667532725,[6400|0|0|0]
19,1900,0.0339710526168346,0.5780509114265442,1.1742634773254397,-0.4074242711067199,-0.3480080962181091,-0.0961797311902046,3.53125,2,A/E1,6.1,90,450.0,1.196387159967676,[6400|0|0|0]
20,2000,0.0318171232938766,0.5711436867713928,1.2767773866653442,-0.5668479204177856,-0.3375305831432342,0.1864662170410156,3.60546875,2,A/E1,6.1,90,450.0,1.2991560792580683,[6400|0|0|0]
21,2100,0.0304434243589639,0.5642918944358826,1.3726272583007812,-0.6958757042884827,-0.2239575684070587,0.1355558037757873,3.615234375,2,A/E1,6.1,90,450.0,1.3952603559553232,[6400|0|0|0]
22,2200,0.0332529544830322,0.553433895111084,1.4563395977020264,-0.7556615471839905,-0.5057064294815063,0.0138128269463777,3.62109375,2,A/E1,6.1,90,450.0,1.4797206743118427,[6400|0|0|0]
23,2300,0.0289381630718708,0.5508515238761902,1.5169886350631714,-0.8832782506942749,-0.1655644029378891,-0.5454440712928772,3.63671875,2,A/E1,6.1,90,450.0,1.5405778168585496,[6400|0|0|0]
24,2400,0.0260858312249183,0.5491318106651306,1.562203288078308,-0.6975283026695251,-0.5688557028770447,-1.0139248371124268,3.59375,2,A/E1,6.1,90,450.0,1.5859149766479832,[6400|0|0|0]
25,2500,0.0218148157000541,0.5440548062324524,1.5854724645614624,-0.3664328455924988,-0.5391754508018494,-0.7092671394348145,3.55859375,2,A/E1,6.1,90,450.0,1.6101115078420871,[6400|0|0|0]
26,2600,0.0201014149934053,0.547149121761322,1.6089001893997192,-0.2283930778503418,-0.7098190188407898,-0.2166861593723297,3.583984375,2,A/E1,6.1,90,450.0,1.6338047309590635,[6400|0|0|0]
27,2700,0.0179891604930162,0.5476437211036682,1.619672179222107,-0.1030607521533966,-0.8371829390525818,-0.0245242863893508,3.599609375,2,A/E1,6.1,90,450.0,1.6447929979888316,[6400|0|0|0]
28,2800,0.0163934212177991,0.5440966486930847,1.6196093559265137,0.0290507543832063,-0.7008793354034424,0.0642702132463455,3.578125,2,A/E1,6.1,90,450.0,1.6486829919845676,[6400|0|0|0]
29,2900,0.0169963575899601,0.5447956919670105,1.621841311454773,-0.0756028890609741,-0.7020432353019714,0.2614862024784088,3.59375,2,A/E1,6.1,90,450.0,1.6510983220340272,[6400|0|0|0]
30,3000,0.0184157658368349,0.5502017736434937,1.6271953582763672,-0.2718785107135772,-0.7505666613578796,0.437901884317398,3.58984375,2,A/E1,6.1,90,450.0,1.6588382352268174,[6400|0|0|0]
31,3100,0.0200059432536363,0.5495997667312622,1.621731877326965,0.0011118086986243,-0.3937764763832092,0.3676582276821136,3.60546875,2,A/E1,6.1,90,450.0,1.6645601842499878,[6400|0|0|0]
32,3200,0.0228507611900568,0.5517171621322632,1.6182234287261963,0.11104117333889,-0.1428847014904022,0.638355553150177,3.59375,2,A/E1,6.1,90,450.0,1.6695487275203018,[6400|0|0|0]
33,3300,0.0262319575995206,0.5545508861541748,1.6133726835250854,0.3764833807945251,0.2343805134296417,0.8222819566726685,3.5625,2,A/E1,6.1,90,450.0,1.6761055720356026,[6400|0|0|0]
34,3400,0.0293946620076894,0.5561139583587646,1.606534719467163,-0.6770690083503723,-1.2690801620483398,0.3078468143939972,3.65234375,2,A/E1,6.1,90,70.0,1.6837999626123572,[6400|0|0|0]
35,3500,0.0409778766334056,0.562171995639801,1.5959211587905884,-6.531909942626953,-14.952709197998049,0.7312760353088379,3.60546875,2,A/E1,6.1,90,70.0,1.70063796567089,[6400|0|0|0]
36,3600,0.0688389837741851,0.5795740485191345,1.5764384269714355,-8.351675987243652,-14.601433753967283,-7.0782623291015625,3.546875,2,A/E1,6.1,90,70.0,1.738830236808676,[6400|0|0|0]
37,3700,0.1221584752202034,0.6071232557296753,1.548290491104126,-6.647398948669434,-13.99595069885254,-10.51841926574707,3.5,2,A/E1,6.1,90,70.0,1.8051192500731792,[6400|0|0|0]
38,3800,0.1974067836999893,0.6385366320610046,1.5218164920806885,-3.9626753330230713,-11.022161483764648,-11.61713981628418,3.505859375,2,A/E1,6.1,90,70.0,1.8908512788949428,[6400|0|0|0]
39,3900,0.2891661524772644,0.6767013072967529,1.5017013549804688,0.0987853705883026,-5.152245044708252,-6.317012786865234,3.505859375,2,A/E1,6.1,90,70.0,1.9922462636565903,[6400|0|0|0]
40,4000,0.3912790715694427,0.7034558653831482,1.4916037321090698,3.083907127380371,1.11586594581604,-2.985612869262696,3.55859375,2,A/E1,6.1,90,70.0,2.09828784329202,[6400|0|0|0]
41,4100,0.4975225031375885,0.7174149751663208,1.4909021854400637,3.183131456375122,7.194307804107666,-1.1644259691238403,3.583984375,2,A/E1,6.1,90,70.0,2.205446677109128,[6400|0|0|0]
42,4200,0.5896323323249817,0.7169656157493591,1.4889345169067385,1.5323861837387085,10.819241523742676,1.655217170715332,3.57421875,2,A/E1,6.1,90,70.0,2.29757861661044,[6400|0|0|0]
43,4300,0.6682850122451782,0.7027277946472168,1.4843497276306152,0.4303453266620636,12.161139488220217,2.674057483673096,3.568359375,2,A/E1,6.1,90,70.0,2.377640966695058,[6400|0|0|0]
44,4400,0.7274534702301025,0.6792567372322083,1.4762517213821411,-1.722441554069519,12.043475151062012,2.64521598815918,3.53125,2,A/E1,6.1,90,70.0,2.441807738950585,[6400|0|0|0]
45,4500,0.7704373002052307,0.6504191756248474,1.464507222175598,-3.909888744354248,10.79685878753662,2.11135196685791,3.521484375,2,A/E1,6.1,90,70.0,2.4948845498985084,[6400|0|0|0]
46,4601,0.7961120009422302,0.6218125820159912,1.4523661136627195,-5.947429180145264,9.048846244812012,1.2071281671524048,3.53125,2,A/E1,6.1,90,70.0,2.535195019652137,[6400|0|0|0]
47,4700,0.8095332384109497,0.5980085730552673,1.44102680683136,-7.561821460723877,6.802765369415283,0.6981955766677856,3.525390625,2,A/E1,6.1,90,70.0,2.5647811707571675,[6400|0|0|0]
48,4800,0.8123327493667603,0.583250880241394,1.4321694374084473,-7.824600219726562,4.698429107666016,0.2750092148780823,3.521484375,2,A/E1,6.1,90,70.0,2.5822190534231995,[6400|0|0|0]
49,4901,0.8088070154190063,0.5784673690795898,1.425107717514038,-7.361199378967285,2.846241950988769,-0.0327104330062866,3.537109375,2,A/E1,6.1,90,70.0,2.5914483907110304,[6400|0|0|0]
50,5001,0.8022037148475647,0.584594190120697,1.4204150438308716,-5.920510292053223,1.5966309309005735,-0.0572579279541969,3.55859375,2,A/E1,6.1,90,70.0,2.6016052948064345,[6400|0|0|0]
51,5101,0.794605016708374,0.598734438419342,1.4160926342010498,-4.225614547729492,0.69147127866745,0.1541700065135955,3.53125,2,A/E1,6.1,90,70.0,2.618229676309692,[6400|0|0|0]
52,5201,0.7879326343536377,0.6171566247940063,1.4136288166046145,-2.0174002647399902,0.3219616413116455,0.3341967761516571,3.546875,2,A/E1,6.1,90,70.0,2.637977284627136,[6400|0|0|0]
53,5301,0.7818043231964111,0.6372690200805664,1.4105898141860962,-0.071093164384365,-0.0860738381743431,0.4365356862545013,3.546875,2,A/E1,6.1,90,70.0,2.659221111436409,[6400|0|0|0]
54,5401,0.776957631111145,0.6552747488021851,1.406806707382202,0.8490379452705383,0.2326837182044983,9.59491662797518e-05,3.537109375,2,A/E1,6.1,90,70.0,2.6782476347146007,[6400|0|0|0]
55,5501,0.7732755541801453,0.6713709831237793,1.405848264694214,0.9046428203582764,0.41404989361763,-0.4340215623378753,3.53125,2,A/E1,6.1,90,70.0,2.694787437078826,[6400|0|0|0]
56,5601,0.7688699960708618,0.687534511089325,1.404538631439209,1.245326280593872,0.5086228251457214,-0.8156808018684387,3.55859375,2,A/E1,6.1,90,70.0,2.7115917138502272,[6400|0|0|0]
57,5701,0.7660799026489258,0.698893129825592,1.4029380083084106,1.1963586807250977,0.5796490907669067,-1.1545772552490234,3.53125,2,A/E1,6.1,90,70.0,2.723397002296761,[6400|0|0|0]
58,5802,0.7622866034507751,0.7068537473678589,1.4009076356887815,0.9851334691047668,0.4937276244163513,-1.1973800659179688,3.53125,2,A/E1,6.1,90,70.0,2.732445922864181,[6400|0|0|0]
59,5900,0.7593206763267517,0.711519718170166,1.39947247505188,0.663846492767334,0.5349301695823669,-1.414556622505188,3.57421875,2,A/E1,6.1,90,70.0,2.738157988452627,[6400|0|0|0]
60,6002,0.7550150156021118,0.7170885801315308,1.3978294134140017,0.1347523331642151,0.1505452245473861,-1.3153918981552124,3.568359375,2,A/E1,6.1,90,70.0,2.7453864453672328,[6400|0|0|0]
61,6102,0.7511441707611084,0.721174418926239,1.3946751356124878,-0.0311771910637617,0.0417200699448585,-1.1786948442459106,3.546875,2,A/E1,6.1,90,70.0,2.751838343296415,[6400|0|0|0]
62,6200,0.7472270727157593,0.7258634567260742,1.391794204711914,-0.1910061538219452,-0.0209136940538883,-1.0044643878936768,3.53125,2,A/E1,6.1,90,70.0,2.758593378117868,[6400|0|0|0]
63,6300,0.7433847188949585,0.7308036684989929,1.3883670568466189,0.1421568244695663,-0.0005693903658539,-0.4189989864826202,3.53125,2,A/E1,6.1,90,70.0,2.7657288330953804,[6400|0|0|0]
64,6400,0.7398855686187744,0.7347268462181091,1.386176824569702,0.2628667652606964,0.1193093508481979,0.3695704638957977,3.6640625,2,A/E1,6.1,90,450.0,2.771423786431268,[6400|0|0|0]
65,6502,0.7363985180854797,0.7387317419052124,1.3747854232788086,0.2135719060897827,0.0989365726709365,0.9714576601982116,3.90625,2,A/E1,6.1,90,450.0,2.783992109082143,[6400|0|0|0]
66,6600,0.7322556972503662,0.7415840029716492,1.326074242591858,1.155767798423767,-0.4352941513061523,1.811345100402832,3.810546875,2,A/E1,6.1,90,450.0,2.8329622783852986,[6400|0|0|0]
67,6700,0.7285110354423523,0.7427263855934143,1.236217737197876,1.293099045753479,-0.642248272895813,2.609987258911133,3.65234375,2,A/E1,6.1,90,450.0,2.922904032269296,[6400|0|0|0]
68,6800,0.724346935749054,0.7418781518936157,1.117069959640503,1.8259735107421875,-0.4329912066459656,3.531738519668579,3.505859375,2,A/E1,6.1,90,450.0,3.0421275707318265,[6400|0|0|0]
69,6900,0.7192359566688538,0.7384077310562134,0.9869006276130676,1.4949393272399902,-0.6004481911659241,3.664052963256836,3.46875,2,A/E1,6.1,90,450.0,3.1724434213733184,[6400|0|0|0]
70,7000,0.7132663726806641,0.7340453863143921,0.8578915596008301,0.8420526385307312,-1.2518913745880127,4.037006378173828,3.5,2,A/E1,6.1,90,450.0,3.301664184465109,[6400|0|0|0]
71,7100,0.7105617523193359,0.728553295135498,0.732559323310852,-0.5867044925689697,-0.6556434631347656,3.912941694259644,3.53125,2,A/E1,6.1,90,450.0,3.4271458464331555,[6400|0|0|0]
72,7200,0.7078450918197632,0.7242980599403381,0.6122286915779114,-1.11849844455719,-0.841238796710968,4.034584999084473,3.57421875,2,A/E1,6.1,90,450.0,3.5475823367676247,[6400|0|0|0]
73,7300,0.7067342400550842,0.7238239049911499,0.4936117827892303,-1.9017821550369265,-0.1968667656183242,3.9661126136779785,3.42578125,2,A/E1,6.1,90,450.0,3.666205394665915,[6400|0|0|0]
74,7400,0.7061470150947571,0.7278783917427063,0.3783755898475647,-1.221611261367798,-1.5036442279815674,5.012961387634277,3.3984375,2,A/E1,6.1,90,450.0,3.781514387635507,[6400|0|0|0]
75,7500,0.7078453898429871,0.7351047396659851,0.2755636870861053,0.4109977483749389,-0.7163534164428711,6.613860607147217,3.39453125,2,A/E1,6.1,90,450.0,3.884593929400716,[6400|0|0|0]
76,7600,0.7093137502670288,0.745867908000946,0.193223625421524,-2.125728368759156,1.9198559522628784,8.06775951385498,3.447265625,2,A/E1,6.1,90,450.0,3.967647452082591,[6400|0|0|0]
77,7700,0.7068367004394531,0.7605761885643005,0.1320576667785644,0.7976837754249573,1.2513771057128906,7.9332404136657715,3.41015625,2,A/E1,6.1,90,450.0,4.030605722307327,[6400|0|0|0]
78,7800,0.7025234699249268,0.7751123309135437,0.0905355289578437,1.742953538894653,-0.1841684132814407,5.655373573303223,3.435546875,2,A/E1,6.1,90,450.0,4.074809696348943,[6400|0|0|0]
79,7900,0.7005451917648315,0.7874048352241516,0.0661277472972869,2.406778335571289,-2.3779520988464355,3.85300350189209,3.47265625,2,A/E1,6.1,90,450.0,4.102209679055041,[6400|0|0|0]
80,8000,0.7030150294303894,0.7971858978271484,0.0563913099467754,2.9994287490844727,0.3488487005233764,4.8006463050842285,3.509765625,2,A/E1,6.1,90,450.0,4.11622993212046,[6400|0|0|0]
81,8100,0.7063418626785278,0.8032289147377014,0.0547595173120498,2.9684386253356934,0.3383802771568298,5.729361057281494,3.55859375,2,A/E1,6.1,90,450.0,4.123318558224642,[6400|0|0|0]
82,8200,0.7103816270828247,0.8052757382392883,0.0566261783242225,1.990408420562744,0.0822155997157096,5.150407791137695,3.541015625,2,A/E1,6.1,90,450.0,4.128216885104632,[6400|0|0|0]
83,8300,0.7140315175056458,0.8052353262901306,0.0596534013748168,2.044996976852417,0.68238765001297,3.184282064437866,3.505859375,2,A/E1,6.1,90,450.0,4.132958974583151,[6400|0|0|0]
84,8400,0.7167117595672607,0.8050177097320557,0.0620393343269825,1.207550287246704,0.7966753840446472,1.4042463302612305,3.509765625,2,A/E1,6.1,90,450.0,4.1365539336270665,[6400|0|0|0]
85,8500,0.7191684246063232,0.804180920124054,0.0660137385129928,0.8454357385635376,0.3784847855567932,0.3383554518222809,3.53125,2,A/E1,6.1,90,450.0,4.141300649185849,[6400|0|0|0]
86,8600,0.7189229130744934,0.8030162453651428,0.0707254409790039,1.6182091236114502,1.662785887718201,0.4749605059623718,3.521484375,2,A/E1,6.1,90,450.0,4.146160369685479,[6400|0|0|0]
87,8700,0.7173349261283875,0.8005724549293518,0.0754496529698371,0.4927449822425842,-0.680930495262146,0.6653321385383606,3.53125,2,A/E1,6.1,90,450.0,4.1517112248600805,[6400|0|0|0]
88,8800,0.7146927118301392,0.7978724837303162,0.0781445726752281,1.526076078414917,1.497058391571045,0.3964983820915222,3.5,2,A/E1,6.1,90,450.0,4.156351670215,[6400|0|0|0]
89,8900,0.7112271189689636,0.7947239279747009,0.0801469609141349,1.4456753730773926,-1.137973666191101,-1.3990575075149536,3.478515625,2,A/E1,6.1,90,450.0,4.161444144651358,[6400|0|0|0]
90,9000,0.7075254917144775,0.788476288318634,0.0806255638599395,2.0679855346679688,0.5104979872703552,-2.905571937561035,3.48828125,2,A/E1,6.1,90,450.0,4.1687217889393775,[6400|0|0|0]
91,9100,0.703388512134552,0.7783740162849426,0.0830446779727935,1.5031803846359253,-0.8804046511650085,-2.9199864864349365,3.509765625,2,A/E1,6.1,90,450.0,4.17990314008217,[6400|0|0|0]
92,9200,0.7001503109931946,0.7663101553916931,0.086820513010025,-0.1093714386224746,-1.1594268083572388,-2.952711820602417,3.525390625,2,A/E1,6.1,90,450.0,4.192952263290722,[6400|0|0|0]
93,9300,0.6995933651924133,0.7532976269721985,0.0901683568954467,-1.3868862390518188,-1.217215657234192,-2.6794891357421875,3.53125,2,A/E1,6.1,90,450.0,4.206400093717014,[6400|0|0|0]
94,9400,0.7012496590614319,0.7421375513076782,0.092485673725605,-2.840566635131836,-0.0357670709490776,-2.058807611465454,3.521484375,2,F1,6.1,90,450.0,4.217917930124504,[6400|0|100|0]
95,9500,0.70380038022995,0.7354259490966797,0.0948584601283073,-2.316690921783448,-0.1647336930036544,-3.1632444858551025,3.5,2,F1,6.1,90,450.0,4.2254798014558,[6400|0|200|0]
96,9600,0.7061143517494202,0.731030285358429,0.0964491665363311,-1.2402993440628052,-0.8295990824699402,-5.171757698059082,3.509765625,2,F1,6.1,90,450.0,4.23069580287156,[6400|0|300|0]
97,9700,0.7094324231147766,0.7282653450965881,0.098408505320549,-0.4981932640075683,0.8640633225440979,-4.9436774253845215,3.5,2,F1,6.1,90,450.0,4.235438534226854,[6400|0|400|0]
98,9800,0.7096223831176758,0.7245576977729797,0.1009947061538696,-0.1756473332643509,1.1044597625732422,-3.1860463619232178,3.521484375,2,F1,6.1,90,450.0,4.239963041739195,[6400|0|500|0]
99,9900,0.7078664302825928,0.7209382057189941,0.1007345542311668,-0.0394110307097435,-0.4854930639266968,-1.804919004440308,3.5,2,F1,6.1,90,450.0,4.243994390410643,[6400|0|600|0]
100,10000,0.7054511904716492,0.7174250483512878,0.0985562428832054,-1.1792571544647217,0.3645544350147247,-0.5654642581939697,3.48828125,2,F1,6.1,90,450.0,4.248781947027885,[6400|0|700|0]
101,10100,0.702461838722229,0.7157552242279053,0.0971599146723747,-0.4397401511669159,0.6395279765129089,0.9272719025611876,3.494140625,2,F1,6.1,90,450.0,4.252479820600244,[6400|0|800|0]
102,10200,0.6985974311828613,0.7157925963401794,0.0948379039764404,-0.4358420372009277,0.3136827051639557,1.6390678882598877,3.484375,2,F1,6.1,90,450.0,4.256988343193858,[6400|0|900|0]
103,10300,0.6948731541633606,0.7168253660202026,0.0923084616661071,-0.2739207148551941,-0.3711207807064056,2.193923234939575,3.484375,2,F1,6.1,90,450.0,4.261607318289186,[6400|0|1000|0]
104,10400,0.6907145977020264,0.7179978489875793,0.0904526785016059,0.8813192248344421,-0.091482862830162,1.9165831804275515,3.484375,2,F1,6.1,90,450.0,4.266309683577479,[6400|0|1100|0]
105,10500,0.6868618130683899,0.7169256806373596,0.0902342796325683,0.4876921772956848,0.5076212286949158,2.098718881607056,3.47265625,2,F1,6.1,90,450.0,4.270314829326437,[6400|0|1200|0]
106,10600,0.681861162185669,0.7137228846549988,0.0922167748212814,0.0235786940902471,0.8022375106811523,3.305610656738281,3.505859375,2,F1,6.1,90,450.0,4.276575396275904,[6400|0|1300|0]
107,10700,0.6772112250328064,0.7095360159873962,0.0960351526737213,0.9092993140220642,-0.1985785216093063,3.855084896087648,3.521484375,2,F1,6.1,90,450.0,4.283905593694072,[6400|0|1400|0]
108,10800,0.67278653383255,0.7033133506774902,0.1002059429883956,0.5754803419113159,-0.9985198378562928,3.974802255630493,3.505859375,2,F1,6.1,90,450.0,4.292605878035731,[6400|0|1500|0]
109,10900,0.6705949306488037,0.6949504017829895,0.1025699600577354,0.5527754426002502,-0.0361993797123432,4.295612812042236,3.5,2,F1,6.1,90,450.0,4.301568612854478,[6400|0|1600|0]
110,11000,0.6680846810340881,0.6862029433250427,0.1041523069143295,-0.345310628414154,-0.4456667900085449,4.73863697052002,3.48828125,2,F1,6.1,90,450.0,4.310805668888532,[6400|0|1700|0]
111,11100,0.6662659645080566,0.6776020526885986,0.1051828041672706,-0.1527394205331802,0.0055330009199678,4.027778148651123,3.478515625,2,F1,6.1,90,450.0,4.319656938522344,[6400|0|1800|0]
112,11200,0.6651500463485718,0.6696508526802063,0.1058689430356025,-0.4508277177810669,-0.5687149167060852,2.294851779937744,3.484375,2,F1,6.1,90,450.0,4.327715328030104,[6400|0|1900|0]
113,11300,0.6657867431640625,0.6625589728355408,0.1088719591498375,-0.4571757614612579,-0.7744500041007996,-0.3171217739582062,3.990234375,2,F1,6.1,90,450.0,4.335443086330439,[6400|0|2000|0]
114,11400,0.6672826409339905,0.6566671133041382,0.0933788120746612,1.0028560161590576,-1.740745186805725,-3.524765491485596,4.0390625,2,F1,6.1,90,450.0,4.352086082610223,[6400|0|2100|0]
115,11500,0.6729992628097534,0.6475000381469727,0.0147180268540978,2.4435858726501465,-3.6217200756073,-6.655728340148926,4.0390625,2,F1,6.1,90,450.0,4.431485290188908,[6400|0|2200|0]
116,11600,0.677173912525177,0.6387052536010742,0.0,-7.903903961181641,-5.976904392242432,-9.894888877868652,4.04296875,2,F1,6.1,90,450.0,4.449131713337331,[6400|0|2300|0]
117,11700,0.6812947392463684,0.6342073082923889,0.0,-4.311198711395264,-0.6869150996208191,-10.349676132202148,4.046875,2,F1,6.1,90,450.0,4.455231936682915,[6400|0|2400|0]
118,11800,0.678998589515686,0.63507479429245,0.0,-3.8550593852996826,0.0495975613594055,-10.239810943603516,4.046875,2,F1,6.1,90,450.0,4.457686490725101,[6400|0|2500|0]
119,11900,0.678778350353241,0.6354330778121948,0.0,-3.6120548248291016,0.058134738355875,-10.14053440093994,4.046875,2,F1,6.1,90,450.0,4.458107052693419,[6400|0|2600|0]
120,12000,0.6787155866622925,0.6355712413787842,0.0,-3.3837876319885254,0.0825934782624244,-10.068244934082031,4.0546875,2,F1,6.1,90,450.0,4.458258803976887,[6400|0|2700|0]
121,12100,0.6786283254623413,0.6354667544364929,0.0,-3.164547204971313,0.1294885128736496,-9.97620964050293,4.0546875,2,F1,6.1,90,450.0,4.458394936405522,[6400|0|2800|0]
122,12200,0.6792262196540833,0.6354243159294128,0.0,-2.859365940093994,0.0725474804639816,-9.56484031677246,4.0546875,2,F1,6.1,90,450.0,4.458994334846796,[6400|0|2900|0]
123,12300,0.6749021410942078,0.6436591148376465,0.0,-6.7357916831970215,0.5600224137306213,-14.9783935546875,4.0546875,2,F1,6.1,90,450.0,4.468295386854554,[6400|0|3000|0]
124,12400,0.6895601749420166,0.6626805663108826,0.0,-5.489974021911621,3.782935380935669,-12.787871360778809,4.05859375,2,F1,6.1,90,450.0,4.49230941551349,[6400|0|3100|0]
125,12500,0.7157028913497925,0.7155991196632385,0.0029763281345367,1.3543592691421509,6.753543376922607,-12.607319831848145,4.05859375,2,F1,6.1,90,450.0,4.551408260165886,[6400|0|3200|0]
126,12600,0.7524921298027039,0.7549781203269958,0.0,3.791072368621826,3.057237386703491,-3.70569109916687,4.06640625,2,F1,6.1,90,450.0,4.605380589079745,[6400|0|3300|0]
127,12700,0.7614409327507019,0.7626579403877258,0.0,0.667791485786438,-0.2172797322273254,-2.829068422317505,4.06640625,2,F1,6.1,90,450.0,4.617172989614296,[6400|0|3400|0]
128,12800,0.7628059387207031,0.7588944435119629,0.0,-0.4815437197685241,0.5442067384719849,-4.134247303009033,4.06640625,2,F1,6.1,90,450.0,4.621176381929823,[6400|0|3500|0]
129,12900,0.7606227993965149,0.7595586776733398,0.0,-0.3886598646640777,0.7482239007949829,-4.50944185256958,4.06640625,2,F1,6.1,90,450.0,4.623458333798281,[6400|0|3600|0]
130,13000,0.7592384219169617,0.7604926824569702,0.0,-0.4418386220932007,1.028151512145996,-5.378125190734863,4.06640625,2,F1,6.1,90,450.0,4.6251283236011655,[6400|0|3700|0]
131,13100,0.7589659690856934,0.7611870765686035,0.0,-0.2284375876188278,1.264649748802185,-7.400399208068848,4.0703125,2,F1,6.1,90,450.0,4.625874255050789,[6400|0|3800|0]
132,13200,0.7579207420349121,0.7615228891372681,0.0,-0.1499283462762832,1.3496909141540527,-9.01214599609375,4.0703125,2,F1,6.1,90,450.0,4.626972102794767,[6400|0|3900|0]
133,13300,0.7578895092010498,0.7614275813102722,0.0,-0.0385640487074852,1.3806017637252808,-10.256378173828123,4.0703125,2,F1,6.1,90,450.0,4.627072397718854,[6400|0|4000|0]
134,13400,0.7579506039619446,0.7614721059799194,0.0,0.0789018273353576,1.3945118188858032,-11.184062957763672,4.0703125,2,F1,6.1,90,450.0,4.627147995443794,[6400|0|4100|0]
135,13500,0.7581331729888916,0.7615397572517395,0.0,0.2154800742864608,1.3724696636199951,-11.905036926269531,4.1484375,2,F1,6.1,90,450.0,4.6273426955829295,[6400|0|4200|0]
136,13600,0.7586016654968262,0.7604380249977112,0.0,0.3921738564968109,1.3172504901885986,-12.500898361206056,4.15234375,2,F1,6.1,90,450.0,4.628539900322963,[6400|0|4300|0]
137,13700,0.7586721181869507,0.7610435485839844,0.0,0.3734240531921386,1.2220879793167114,-12.950326919555664,4.15234375,2,F1,6.1,90,450.0,4.629149508717819,[6400|0|4400|0]
138,13800,0.7590448260307312,0.7605699300765991,0.0,0.4908935725688934,1.1914119720458984,-13.235780715942385,4.15234375,2,F1,6.1,90,450.0,4.629752190746217,[6400|0|4500|0]
139,13900,0.758901834487915,0.7608652710914612,0.0,0.5492272973060608,1.1919711828231812,-13.462092399597168,4.16015625,2,F1,6.1,90,450.0,4.630080326231004,[6400|0|4600|0]
140,14000,0.758628249168396,0.7608626484870911,0.0,0.5758590698242188,1.1896142959594729,-13.63767147064209,4.16015625,2,F1,6.1,90,450.0,4.630353924120452,[6400|0|4700|0]
141,14100,0.7590418457984924,0.7602441906929016,0.0,0.6197795271873474,1.1684080362319946,-13.771357536315918,4.16015625,2,F1,6.1,90,450.0,4.631097935017967,[6400|0|4800|0]
142,14200,0.7590600848197937,0.7606139183044434,0.0,0.6214134097099304,1.1717888116836548,-13.86709690093994,4.1640625,2,F1,6.1,90,450.0,4.63146811223044,[6400|0|4900|0]
143,14300,0.759046196937561,0.7602888941764832,0.0,0.6265079379081726,1.178209662437439,-13.957630157470703,4.1640625,2,F1,6.1,90,450.0,4.6317934329291806,[6400|0|5000|0]
144,14400,0.7589105367660522,0.7607933282852173,0.0,0.6189823746681213,1.1765568256378174,-14.010756492614746,4.1640625,2,F1,6.1,90,450.0,4.632315790519523,[6400|0|5100|0]
145,14500,0.7588317394256592,0.7607585787773132,0.0,0.620869517326355,1.1774321794509888,-14.06112575531006,4.1640625,2,F1,6.1,90,450.0,4.63240190990847,[6400|0|5200|0]
146,14600,0.7593082189559937,0.7604959011077881,0.0,0.6141704320907593,1.1584370136260986,-14.104642868041992,4.1640625,2,F1,6.1,90,450.0,4.632945998413122,[6400|0|5300|0]
147,14700,0.7591958045959473,0.760394811630249,0.0,0.6080342531204224,1.1587295532226562,-14.138436317443848,4.171875,2,F1,6.1,90,450.0,4.633097180656834,[6400|0|5400|0]
148,14800,0.7587497234344482,0.760481595993042,0.0,0.5931892395019531,1.1741783618927002,-14.13576602935791,4.171875,2,F1,6.1,90,450.0,4.633551625294023,[6400|0|5500|0]
149,14900,0.7588521838188171,0.7605611681938171,0.0,0.5625023245811462,1.1884292364120483,-14.132107734680176,4.171875,2,F1,6.1,90,450.0,4.633681355265506,[6400|0|5600|0]
150,15000,0.758830726146698,0.7605569958686829,0.0,0.5302413105964661,1.1954177618026731,-14.122692108154297,4.171875,2,F1,6.1,90,450.0,4.63370321481696,[6400|0|5700|0]
151,15100,0.7586424946784973,0.760430097579956,0.0,0.4914141595363617,1.2169420719146729,-14.156001091003418,4.171875,2,F1,6.1,90,450.0,4.633930226405437,[6400|0|5800|0]
152,15200,0.7583303451538086,0.7605269551277161,0.0,0.4088463187217712,1.270858883857727,-14.157286643981934,4.17578125,2,F1,6.1,90,450.0,4.634257057723278,[6400|0|5900|0]
153,15300,0.7582414150238037,0.7610864043235779,0.0,0.377714604139328,1.289587140083313,-14.184657096862791,4.17578125,2,F1,6.1,90,450.0,4.634823530997822,[6400|0|6000|0]
154,15400,0.7580926418304443,0.7603672742843628,0.0,0.3721866309642792,1.2933858633041382,-14.193928718566896,4.17578125,2,F1,6.1,90,450.0,4.635557888864508,[6400|0|6100|0]
155,15500,0.7580678462982178,0.7603029608726501,0.0,0.4761399328708648,1.3212881088256836,-14.189085006713867,4.17578125,2,F1,6.1,90,450.0,4.635626816604529,[6400|0|6200|0]
156,15600,0.7579396367073059,0.7602541446685791,0.0,0.4604358375072479,1.3092865943908691,-14.193830490112305,4.17578125,2,F1,6.1,90,450.0,4.635764005237373,[6400|0|6300|0]
157,15700,0.758195161819458,0.7600411176681519,0.0,0.4461410939693451,1.294348120689392,-14.187383651733398,4.17578125,2,F1,6.1,90,450.0,4.636096681635471,[6400|0|6400|0]
158,15800,0.7581378221511841,0.7604133486747742,0.0,0.4267060458660126,1.2902199029922483,-14.197321891784668,4.1796875,2,F1,6.1,90,450.0,4.636473303142887,[6400|0|6500|0]
159,15900,0.7580375671386719,0.7603363394737244,0.0,0.4203450679779053,1.287549376487732,-14.183708190917969,4.17578125,2,F1,6.1,90,450.0,4.6365997210394845,[6400|0|6600|0]
160,16000,0.7582082748413086,0.7604081630706787,0.0,0.4007619321346283,1.272954344749451,-14.201791763305664,4.1796875,2,F1,6.1,90,450.0,4.636784922953133,[6400|0|6700|0]
161,16100,0.7586066722869873,0.7610236406326294,0.0,0.3515359461307525,1.2606765031814575,-14.198906898498535,4.1796875,2,F1,6.1,90,450.0,4.637518089478547,[6400|0|6800|0]
162,16200,0.7581839561462402,0.7606677412986755,0.0,0.3815110623836517,1.2744630575180054,-14.210561752319336,4.1796875,2,F1,6.1,90,450.0,4.638070677273886,[6400|0|6900|0]
163,16300,0.7585541009902954,0.7609694600105286,0.0,0.3906562924385071,1.2661693096160889,-14.217318534851074,4.1796875,2,F1,6.1,90,450.0,4.638548214064786,[6400|0|7000|0]
164,16400,0.7584954500198364,0.7607060074806213,0.0,0.4137415289878845,1.2711443901062012,-14.197643280029297,4.1796875,2,F1,6.1,90,450.0,4.6388181162171485,[6400|0|7100|0]
165,16500,0.7584207057952881,0.7609007358551025,0.0,0.4215041399002075,1.2786946296691897,-14.193011283874512,4.1796875,2,F1,6.1,90,450.0,4.639026696750592,[6400|0|7200|0]
166,16600,0.7582722306251526,0.7608928084373474,0.0,0.432240217924118,1.2871853113174438,-14.163422584533691,4.1796875,2,F1,6.1,90,450.0,4.639175383401301,[6400|0|7300|0]
167,16700,0.7586626410484314,0.7610135078430176,0.0,0.4347155392169952,1.279244065284729,-14.168701171875,4.1875,2,F1,6.1,90,450.0,4.639584025842971,[6400|0|7400|0]
168,16800,0.7583332657814026,0.7606140375137329,0.0,0.4462038874626159,1.2798033952713013,-14.162412643432615,4.1875,2,F1,6.1,90,450.0,4.640101775406476,[6400|0|7500|0]
169,16900,0.7582554221153259,0.7610753774642944,0.0,0.301187515258789,1.229463815689087,-14.173599243164062,4.1875,2,F1,6.1,90,450.0,4.640569636696103,[6400|0|7600|0]
170,17000,0.7582117319107056,0.7604135870933533,0.0,0.4489082396030426,1.2747621536254885,-14.186612129211426,4.1875,2,F1,6.1,90,450.0,4.641232867673252,[6400|0|7700|0]
171,17100,0.7582548260688782,0.7601475119590759,0.0,0.4456179440021515,1.273702621459961,-14.177736282348633,4.1875,2,F1,6.1,90,450.0,4.641502410032723,[6400|0|7800|0]
172,17200,0.7580244541168213,0.7604955434799194,0.0,0.4319889545440674,1.2801456451416016,-14.18380355834961,4.1875,2,F1,6.1,90,450.0,4.641919779384491,[6400|0|7900|0]
173,17300,0.7581162452697754,0.7605970501899719,0.0,0.4071284234523773,1.2712290287017822,-14.191476821899414,4.1875,2,F1,6.1,90,450.0,4.642056634154033,[6400|0|8000|0]
174,17400,0.7582347989082336,0.7610991597175598,0.0,0.3685922622680664,1.2671340703964231,-14.203276634216309,4.1875,2,F1,6.1,90,450.0,4.642572549789468,[6400|0|8100|0]
175,17500,0.7583169937133789,0.7607330083847046,0.0,0.391120970249176,1.2690821886062622,-14.187004089355469,4.1875,2,F1,6.1,90,450.0,4.642947813409533,[6400|0|8200|0]
176,17600,0.7580667734146118,0.7609420418739319,0.0,0.4024971723556518,1.28080153465271,-14.170957565307615,4.19140625,2,F1,6.1,90,450.0,4.643273858187951,[6400|0|8300|0]
177,17700,0.7582086324691772,0.7609036564826965,0.0,0.4189248979091644,1.2821178436279297,-14.183682441711426,4.19140625,2,F1,6.1,90,450.0,4.643420818827655,[6400|0|8400|0]
178,17800,0.7582032084465027,0.7608150243759155,0.0,0.4254754185676574,1.2876191139221191,-14.168310165405272,4.19140625,2,F1,6.1,90,450.0,4.643509616746406,[6400|0|8500|0]
179,17900,0.7582078576087952,0.76104736328125,0.0,0.4200243949890136,1.2896806001663208,-14.185343742370604,4.19140625,2,F1,6.1,90,450.0,4.643742002162562,[6400|0|8600|0]
180,18000,0.758251965045929,0.7607409358024597,0.0,0.4334487318992615,1.2808533906936646,-14.174839973449709,4.19140625,2,F1,6.1,90,450.0,4.64405158779816,[6400|0|8700|0]
181,18100,0.75827556848526,0.7610687613487244,0.0,0.4310616850852966,1.2821460962295532,-14.18821907043457,4.19140625,2,F1,6.1,90,450.0,4.644380261969843,[6400|0|8800|0]
182,18200,0.7582787275314331,0.7605998516082764,0.0,0.4438893795013428,1.2824794054031372,-14.159708023071287,4.19140625,2,F1,6.1,90,450.0,4.644849182351422,[6400|0|8900|0]
183,18300,0.758032500743866,0.7608952522277832,0.0,0.428449422121048,1.2903419733047483,-14.162002563476562,4.1953125,2,F1,6.1,90,450.0,4.645233745944239,[6400|0|9000|0]
184,18400,0.7579860687255859,0.7607744932174683,0.0,0.4334011971950531,1.2919902801513672,-14.151381492614746,4.1953125,2,F1,6.1,90,450.0,4.645363123959736,[6400|0|9100|0]
185,18500,0.7580465078353882,0.7610535025596619,0.0,0.4336729347705841,1.2877293825149536,-14.15340805053711,4.19140625,2,F1,6.1,90,450.0,4.645648604430215,[6400|0|9200|0]
186,18600,0.7582144141197205,0.7600654363632202,0.0,0.4430243074893951,1.2770479917526243,-14.21959114074707,4.1953125,2,F1,6.1,90,450.0,4.646650835605578,[6400|0|9300|0]
187,18700,0.758409857749939,0.7605839371681213,0.0,0.2898072302341461,1.2230116128921509,-14.218057632446287,4.1953125,2,F1,6.1,90,450.0,4.647204948678223,[6400|0|9400|0]
188,18800,0.7584050297737122,0.7605061531066895,0.0,0.3221098482608795,1.2400026321411133,-14.201807022094728,4.1953125,2,F1,6.1,90,450.0,4.647282882429366,[6400|0|9500|0]
189,18900,0.7582354545593262,0.7605840563774109,0.0,0.3367981314659118,1.254032850265503,-14.203649520874023,4.1953125,2,F1,6.1,90,450.0,4.647469496129085,[6400|0|9600|0]
190,19000,0.7581092715263367,0.760409414768219,0.0,0.3456015288829803,1.25591778755188,-14.20544147491455,4.1953125,2,F1,6.1,90,450.0,4.647684953432224,[6400|0|9700|0]
191,19100,0.7583034634590149,0.7602246403694153,0.0,0.350123256444931,1.2547624111175537,-14.203144073486328,4.1953125,2,F1,6.1,90,450.0,4.647953005824808,[6400|0|9800|0]
192,19200,0.7580670714378357,0.7603899240493774,0.0,0.3530332744121551,1.262775182723999,-14.207781791687012,4.1953125,2,F1,6.1,90,450.0,4.648241449723234,[6400|0|9900|0]
193,19300,0.7583194375038147,0.7603647112846375,0.0,0.3566280007362366,1.2565373182296753,-14.18795108795166,4.1953125,2,F1,6.1,90,450.0,4.648495072109398,[6400|0|10000|0]
194,19400,0.7581708431243896,0.760761559009552,0.0,0.352748155593872,1.263924479484558,-14.238337516784668,4.1953125,2,A/E1,6.1,90,450.0,4.648918827234874,[6400|0|10000|0]
195,19500,0.7579095363616943,0.760538637638092,0.0,0.5344270467758179,1.2341370582580566,-14.320409774780272,3.220703125,2,A/E1,6.1,90,450.0,4.649262302360732,[6400|0|10000|0]
196,19600,0.7567355632781982,0.7615269422531128,0.0,0.6906086206436157,1.5906898975372314,-12.95474910736084,3.525390625,2,A/E1,6.1,90,450.0,4.650796889866496,[6400|0|10000|0]
197,19700,0.7545394897460938,0.7673874497413635,0.0122521687299013,-1.6676435470581057,-0.1719489097595214,-9.032021522521973,3.611328125,2,A/E1,6.1,90,450.0,4.664554939349043,[6400|0|10000|0]
198,19800,0.7506512403488159,0.7752087116241455,0.0745751187205314,1.099871277809143,-0.4253320097923279,-4.960355281829834,3.658203125,2,A/E1,6.1,90,450.0,4.72748697186309,[6400|0|10000|0]
199,19900,0.7541640996932983,0.7911759614944458,0.1549593061208725,2.120447158813477,1.354020357131958,-2.040339469909668,3.68359375,2,A/E1,6.1,90,450.0,4.809516910502637,[6400|0|10000|0]
200,20000,0.756508469581604,0.8060757517814636,0.2419055253267288,3.5850043296813965,1.804804444313049,0.2053935974836349,3.68359375,2,A/E1,6.1,90,450.0,4.8977617112274565,[6400|0|10000|0]
201,20100,0.7597386837005615,0.8208194971084595,0.335202544927597,3.878106594085693,2.097738981246948,1.859279036521912,3.6796875,2,A/E1,6.1,90,450.0,4.992271743371808,[6400|0|10000|0]
202,20200,0.7532325983047485,0.823233425617218,0.421066403388977,4.25325345993042,1.7179255485534668,2.82165265083313,3.673828125,2,A/E1,6.1,90,450.0,5.078415567224124,[6400|0|10000|0]
203,20300,0.7508816123008728,0.8189045190811157,0.5178989171981812,4.306265354156494,1.0231267213821411,2.9861347675323486,3.6796875,2,A/E1,6.1,90,450.0,5.175373301818113,[6400|0|10000|0]
204,20400,0.7453761696815491,0.8129516839981079,0.6097218990325928,3.1801095008850098,1.533487319946289,3.271618604660034,3.66796875,2,A/E1,6.1,90,450.0,5.267553593295863,[6400|0|10000|0]
205,20500,0.7376996278762817,0.8036374449729919,0.7018352746963501,1.5751551389694214,1.3431580066680908,4.5302252769470215,3.6640625,2,A/E1,6.1,90,450.0,5.36045439156411,[6400|0|10000|0]
206,20600,0.7284102439880371,0.7953050136566162,0.7858569622039795,0.2589733302593231,0.9709151983261108,5.2055182456970215,3.6640625,2,A/E1,6.1,90,450.0,5.445397702285408,[6400|0|10000|0]
207,20700,0.7143071889877319,0.786445140838623,0.8892430067062378,0.4416680335998535,-1.4814817905426023,4.040444850921631,3.658203125,2,A/E1,6.1,90,450.0,5.550116696286094,[6400|0|10000|0]
208,20800,0.7038623690605164,0.7801110744476318,0.9855366945266724,0.0988649055361747,-2.0160229206085205,2.930506944656372,3.6640625,2,A/E1,6.1,90,450.0,5.64718208133358,[6400|0|10000|0]
209,20900,0.6967160701751709,0.7746633887290955,1.0841339826583862,0.4510490298271179,-2.6321663856506348,2.479963541030884,3.68359375,2,A/E1,6.1,90,450.0,5.746188000825168,[6400|0|10000|0]
210,21000,0.6945035457611084,0.7700318098068237,1.1729122400283811,1.0059083700180054,-1.9840776920318604,2.404305934906006,3.7265625,2,A/E1,6.1,90,450.0,5.835114519756525,[6400|0|10000|0]
211,21101,0.6947157382965088,0.7619936466217041,1.2629700899124146,1.175761342048645,-1.4992613792419434,2.2449042797088623,3.763671875,2,A/E1,6.1,90,450.0,5.9255306323626185,[6400|0|10000|0]
212,21201,0.6955741047859192,0.7531970143318176,1.33879554271698,0.2867879271507263,-0.5326929688453674,1.8595571517944336,3.763671875,2,A/E1,6.1,90,450.0,6.001869461445144,[6400|0|10000|0]
213,21300,0.6964591145515442,0.7417691946029663,1.398232340812683,-0.0304018948227167,-0.1186292394995689,1.6490949392318726,3.7578125,2,A/E1,6.1,90,450.0,6.062401364388218,[6400|0|10000|0]
214,21401,0.6962700486183167,0.7303053736686707,1.4399652481079102,-0.6929016709327698,-0.0819509625434875,1.364185452461243,3.736328125,2,A/E1,6.1,90,450.0,6.105680579811475,[6400|0|10000|0]
215,21501,0.6952061653137207,0.7186397314071655,1.4665393829345703,-1.460030436515808,-0.0850914418697357,1.3970094919204712,3.716796875,2,A/E1,6.1,90,450.0,6.134721993324676,[6400|0|10000|0]
216,21600,0.6969632506370544,0.7122517228126526,1.4935529232025146,-2.02466368675232,-0.6390519142150879,1.423359751701355,3.705078125,2,A/E1,6.1,90,450.0,6.1625361149258495,[6400|0|10000|0]
217,21701,0.6955274939537048,0.7047534584999084,1.502694845199585,-2.3529038429260254,-0.6921395063400269,2.045892238616944,3.705078125,2,A/E1,6.1,90,450.0,6.174446618809316,[6400|0|10000|0]
218,21801,0.6907346844673157,0.695895791053772,1.497390627861023,-2.165722370147705,-0.8545283675193787,2.416379928588867,3.701171875,2,A/E1,6.1,90,450.0,6.185829237881124,[6400|0|10000|0]
219,21902,0.6940226554870605,0.6969872713088989,1.5101958513259888,-2.182213068008423,-1.0664106607437134,2.0680954456329346,3.6953125,2,A/E1,6.1,90,450.0,6.199094826091291,[6400|0|10000|0]
220,22001,0.6918100714683533,0.6941385865211487,1.4990785121917725,-1.577842116355896,-1.157229781150818,1.565991997718811,3.689453125,2,A/E1,6.1,90,450.0,6.210782672876947,[6400|0|10000|0]
221,22102,0.6940251588821411,0.6970211863517761,1.4964593648910522,-0.6879268884658813,-0.9006035923957825,0.398279070854187,3.68359375,2,A/E1,6.1,90,450.0,6.215263289644438,[6400|0|10000|0]
222,22200,0.7024866342544556,0.7049741744995117,1.5057674646377563,-0.5056796669960022,-0.4857112169265747,-0.9646181464195251,3.689453125,2,A/E1,6.1,90,450.0,6.230145739269715,[6400|0|10000|0]
223,22301,0.7088256478309631,0.709492564201355,1.5036245584487915,0.0494577959179878,-0.3300408124923706,-2.522829532623291,3.6796875,2,A/E1,6.1,90,450.0,6.2382198327516845,[6400|0|10000|0]
224,22400,0.7128815650939941,0.708126425743103,1.4893535375595093,0.2283956110477447,0.1042185500264167,-3.6059627532958975,3.6796875,2,A/E1,6.1,90,53.0,6.25311878695505,[6400|0|10000|0]
225,22502,0.7214348912239075,0.7119436264038086,1.480360507965088,-5.868010997772217,-5.761951446533203,-4.64216947555542,3.916015625,2,A/E1,6.1,90,53.0,6.266103585376855,[6400|0|10000|0]
226,22601,0.7395143508911133,0.7223948836326599,1.4397733211517334,-14.961343765258787,-14.80718994140625,-9.984750747680664,3.859375,2,A/E1,6.1,90,53.0,6.311748030525678,[6400|0|10000|0]
227,22700,0.7701958417892456,0.740982711315155,1.3564032316207886,-13.590911865234377,-11.670370101928713,-6.285453796386719,3.7578125,2,A/E1,6.1,90,53.0,6.402508336001607,[6400|0|10000|0]
228,22801,0.814802348613739,0.7733288407325745,1.2375715970993042,-12.29152774810791,-12.26197910308838,-3.444809913635254,3.615234375,2,A/E1,6.1,90,53.0,6.5334929530465855,[6400|0|10000|0]
229,22902,0.8742691874504089,0.8200951814651489,1.1059845685958862,-8.109607696533203,-5.505390644073486,-6.386961460113525,3.546875,2,A/E1,6.1,90,53.0,6.685277476688165,[6400|0|10000|0]
230,23000,0.945563554763794,0.8778481483459473,0.9870830774307252,-3.3482937812805176,-1.1533842086791992,-3.5040950775146484,3.53125,2,A/E1,6.1,90,53.0,6.835463549928826,[6400|0|10000|0]
231,23100,1.0206401348114014,0.9375756978988647,0.8927316665649414,-0.7005130648612976,4.878314018249512,3.0757405757904053,3.568359375,2,A/E1,6.1,90,53.0,6.970022316940139,[6400|0|10000|0]
232,23200,1.089707612991333,0.9926490187644958,0.8227171301841736,0.5848117470741272,8.398016929626465,7.662433624267578,3.599609375,2,A/E1,6.1,90,53.0,7.082740649601326,[6400|0|10000|0]
233,23300,1.143738865852356,1.0375862121582031,0.7731513977050781,2.8222992420196533,9.338715553283691,8.999152183532715,3.578125,2,A/E1,6.1,90,53.0,7.168737681364198,[6400|0|10000|0]
234,23400,1.1965432167053225,1.065985083580017,0.7388749718666077,7.075414657592773,6.216375827789307,7.817601203918457,3.583984375,2,A/E1,6.1,90,53.0,7.237800469718681,[6400|0|10000|0]
235,23500,1.2444559335708618,1.0766443014144895,0.7195357084274292,7.361576557159424,5.200798988342285,5.483179092407227,3.615234375,2,A/E1,6.1,90,53.0,7.290557028293422,[6400|0|10000|0]
236,23600,1.2895444631576538,1.0706937313079834,0.7140979766845703,4.263660907745361,6.1994948387146,3.564446926116944,3.6484375,2,A/E1,6.1,90,53.0,7.336360452962312,[6400|0|10000|0]
237,23700,1.3261654376983645,1.0543875694274902,0.7162917852401733,1.6150201559066772,6.911621570587158,2.180751323699951,3.6640625,2,A/E1,6.1,90,53.0,7.376507675625441,[6400|0|10000|0]
238,23800,1.353332757949829,1.0358699560165403,0.7215640544891357,-1.102277159690857,7.649398326873779,1.66498064994812,3.6796875,2,A/E1,6.1,90,53.0,7.409805755436694,[6400|0|10000|0]
239,23900,1.3699761629104614,1.0190054178237915,0.7276520729064941,-3.7975995540618896,6.93834400177002,1.3871188163757324,3.6796875,2,A/E1,6.1,90,53.0,7.43426959702767,[6400|0|10000|0]
240,24000,1.3783810138702393,1.0069471597671509,0.7320439219474792,-4.272355556488037,6.305411815643311,1.5330846309661863,3.66796875,2,A/E1,6.1,90,53.0,7.449610113479714,[6400|0|10000|0]
241,24100,1.376509666442871,1.0028817653656006,0.7330350279808044,-3.9582839012146,5.806976318359375,1.6094039678573608,3.6640625,2,A/E1,6.1,90,53.0,7.454193961645107,[6400|0|10000|0]
242,24200,1.371511936187744,1.001142144203186,0.7310224175453186,-2.335103273391724,4.287238597869873,1.3918286561965942,3.65234375,2,A/E1,6.1,90,53.0,7.459855603655757,[6400|0|10000|0]
243,24300,1.3598593473434448,1.0042613744735718,0.7269744277000427,-2.146314144134521,3.664803981781006,0.3228293359279632,3.63671875,2,A/E1,6.1,90,53.0,7.47257954353464,[6400|0|10000|0]
244,24400,1.345229148864746,1.0095933675765991,0.722904622554779,-1.5878411531448364,2.025020837783813,-0.7879336476325989,3.63671875,2,A/E1,6.1,90,53.0,7.488674144241003,[6400|0|10000|0]
245,24500,1.3316651582717896,1.0166003704071045,0.7203144431114197,-1.032620549201965,1.3113863468170166,-0.8638787865638733,3.6484375,2,A/E1,6.1,90,53.0,7.5041592648095135,[6400|0|10000|0]
246,24600,1.3145557641983032,1.024179220199585,0.7188603281974792,-0.6302707195281982,0.6622338891029358,-0.5630060434341431,3.642578125,2,A/E1,6.1,90,53.0,7.522928515724821,[6400|0|10000|0]
247,24700,1.2983471155166626,1.033287763595581,0.7173333764076233,-0.4854106903076172,-0.0488046891987323,-0.0197711437940597,3.63671875,2,A/E1,6.1,90,53.0,7.541583741176424,[6400|0|10000|0]
248,24800,1.2828774452209473,1.0428251028060913,0.7162647247314453,0.724205493927002,-0.4886448383331299,-0.3275384902954101,3.6484375,2,A/E1,6.1,90,53.0,7.559788508537736,[6400|0|10000|0]
249,24900,1.2695097923278809,1.0521022081375122,0.7167273759841919,0.571523904800415,-1.9236993789672847,-1.1872116327285769,3.6484375,2,A/E1,6.1,90,53.0,7.576066495925047,[6400|0|10000|0]
250,25000,1.2587236166000366,1.0600700378417969,0.718156635761261,1.702658772468567,-1.3625972270965576,-1.974267601966858,3.65234375,2,A/E1,6.1,90,53.0,7.589552439738468,[6400|0|10000|0]
251,25100,1.2504589557647705,1.0674655437469482,0.7182455658912659,1.6447874307632446,-1.315677046775818,-2.524000644683838,3.6484375,2,A/E1,6.1,90,53.0,7.600643248315084,[6400|0|10000|0]
252,25200,1.2452764511108398,1.0721290111541748,0.717188835144043,1.141378402709961,-0.3655643165111542,-2.639791488647461,3.63671875,2,A/E1,6.1,90,53.0,7.607694699415276,[6400|0|10000|0]
253,25300,1.2418906688690186,1.0746707916259766,0.7151520848274231,0.8946423530578613,-0.1391667425632476,-2.449948310852051,3.642578125,2,A/E1,6.1,90,53.0,7.612392839601362,[6400|0|10000|0]
254,25400,1.2388180494308472,1.0767908096313477,0.7135111093521118,1.0751343965530396,0.4958274662494659,-1.8292253017425537,3.642578125,2,A/E1,6.1,90,53.0,7.616470616822533,[6400|0|10000|0]
255,25500,1.236452341079712,1.0783395767211914,0.7097918391227722,0.3265232741832733,0.6208996772766113,-1.7814836502075195,3.890625,2,A/E1,6.1,90,450.0,7.621142685587017,[6400|0|10000|0]
256,25600,1.2328180074691772,1.0807832479476929,0.682475209236145,-0.0384152792394161,0.6129740476608276,-1.480324625968933,3.826171875,2,A/E1,6.1,90,450.0,7.648808154645374,[6400|0|10000|0]
257,25700,1.2279702425003052,1.0838022232055664,0.6171126365661621,0.06871048361063,0.7195058465003967,-0.7860259413719177,3.6953125,2,A/E1,6.1,90,450.0,7.714419746173394,[6400|0|10000|0]
258,25800,1.221394658088684,1.087140440940857,0.5219511985778809,0.2067731767892837,0.7282191514968872,-0.926569938659668,3.568359375,2,A/E1,6.1,90,450.0,7.809866491995345,[6400|0|10000|0]
259,25900,1.2143560647964478,1.090880274772644,0.420244425535202,-0.2014435678720474,-1.04780375957489,-1.378092885017395,3.521484375,2,A/E1,6.1,90,450.0,7.911885097334655,[6400|0|10000|0]
260,26000,1.2090688943862915,1.096439003944397,0.330266535282135,-1.131657958030701,-0.5146197080612183,0.2831200063228607,3.53125,2,A/E1,6.1,90,450.0,8.002189440393801,[6400|0|10000|0]
261,26100,1.208279013633728,1.105028748512268,0.2593872547149658,1.2277789115905762,-1.6957757472991943,4.178866386413574,3.552734375,2,A/E1,6.1,90,450.0,8.07359168151454,[6400|0|10000|0]
262,26200,1.2124509811401367,1.1128486394882202,0.2086985558271408,0.464212566614151,-0.3553259968757629,7.491308212280273,3.568359375,2,A/E1,6.1,90,450.0,8.125049433143335,[6400|0|10000|0]
263,26300,1.2209199666976929,1.1210150718688965,0.1742627471685409,3.0317492485046387,-0.2004065811634063,7.846180915832519,3.57421875,2,A/E1,6.1,90,450.0,8.161439531414349,[6400|0|10000|0]
264,26400,1.2306127548217771,1.124996542930603,0.1540694236755371,2.82134222984314,0.8123432993888855,6.571366786956787,3.58984375,2,A/E1,6.1,90,450.0,8.184189752668804,[6400|0|10000|0]
265,26500,1.2412630319595337,1.1237887144088743,0.1472420692443847,2.300719738006592,2.3246874809265137,5.791447639465332,3.615234375,2,A/E1,6.1,90,450.0,8.196898018537029,[6400|0|10000|0]
266,26600,1.2492493391036987,1.1198431253433228,0.1484787762165069,2.366463422775269,4.205934524536133,4.858543872833252,3.630859375,2,A/E1,6.1,90,450.0,8.20589125038159,[6400|0|10000|0]
267,26700,1.2524968385696411,1.1145522594451904,0.1509396582841873,-0.1589382439851761,2.681530475616455,4.619572639465332,3.630859375,2,A/E1,6.1,90,450.0,8.212569233257007,[6400|0|10000|0]
268,26800,1.250732660293579,1.109045147895813,0.154398113489151,-0.8943329453468323,2.740131378173828,5.717556476593018,3.630859375,2,A/E1,6.1,90,450.0,8.219307297890992,[6400|0|10000|0]
269,26900,1.2469505071640017,1.1040318012237549,0.1583534479141235,1.262710690498352,1.2761732339859009,6.988399982452393,3.630859375,2,A/E1,6.1,90,450.0,8.226729089963207,[6400|0|10000|0]
270,27000,1.2409361600875854,1.0985417366027832,0.1611057370901107,-0.5245957374572754,0.2196633964776992,6.274785041809082,3.626953125,2,A/E1,6.1,90,450.0,8.2353249189521,[6400|0|10000|0]
271,27100,1.233750581741333,1.0925462245941162,0.1630990505218505,0.1917837113142013,1.7241783142089844,4.967286586761475,3.626953125,2,A/E1,6.1,90,450.0,8.244893199824512,[6400|0|10000|0]
272,27200,1.223630428314209,1.0874712467193604,0.16421639919281,-0.0945039615035057,0.1179158166050911,2.161831855773926,3.615234375,2,A/E1,6.1,90,450.0,8.256269551342916,[6400|0|10000|0]
273,27300,1.211129069328308,1.0815829038619995,0.1636300384998321,0.2360197901725769,-0.086107313632965,-0.3225970268249511,3.615234375,2,A/E1,6.1,90,450.0,8.270100689291851,[6400|0|10000|0]
274,27400,1.1971142292022705,1.0742974281311035,0.1637433767318725,-0.948943555355072,-0.79222172498703,-1.9613211154937744,3.62109375,2,A/E1,6.1,90,450.0,8.285896471828298,[6400|0|10000|0]
275,27500,1.182740330696106,1.0684194564819336,0.1645624637603759,-3.0935728549957275,-1.573498010635376,-2.2319819927215576,3.62109375,2,A/E1,6.1,90,450.0,8.301447369311537,[6400|0|10000|0]
276,27600,1.1710082292556765,1.067104697227478,0.1634086817502975,-1.8009991645812988,-2.69257926940918,-2.6637651920318604,3.615234375,2,A/E1,6.1,90,450.0,8.313309157078669,[6400|0|10000|0]
277,27700,1.1631869077682495,1.0704433917999268,0.1621510982513427,-0.7190678119659424,-3.25388240814209,-2.7957088947296143,3.615234375,2,A/E1,6.1,90,450.0,8.321905753353628,[6400|0|10000|0]
278,27800,1.1598172187805176,1.0760352611541748,0.162839338183403,-1.6684823036193848,-1.724476337432861,-1.6539541482925415,3.615234375,2,A/E1,6.1,90,450.0,8.328470620523122,[6400|0|10000|0]
279,27900,1.1594526767730713,1.0831894874572754,0.1626116782426834,-0.7247104644775391,-2.1160755157470703,-0.8388657569885254,3.611328125,2,A/E1,6.1,90,450.0,8.335637745045535,[6400|0|10000|0]
280,28000,1.163021206855774,1.092674732208252,0.1611205339431762,2.354954957962036,-1.5266612768173218,-0.7535107731819153,3.615234375,2,A/E1,6.1,90,450.0,8.345881171535682,[6400|0|10000|0]
281,28100,1.1689926385879517,1.0992201566696167,0.1598888933658599,1.6194003820419312,-1.3515989780426023,-1.42625892162323,3.60546875,2,A/E1,6.1,90,450.0,8.35482642261227,[6400|0|10000|0]
282,28200,1.175205111503601,1.1022647619247437,0.1589806079864502,2.192627191543579,-0.1991256773471832,-2.5485758781433105,3.611328125,2,A/E1,6.1,90,450.0,8.361804203292234,[6400|0|10000|0]
283,28300,1.1812996864318848,1.1027969121932983,0.158891350030899,0.2398951202630996,-0.1211697086691856,-3.786514043807984,3.615234375,2,A/E1,6.1,90,450.0,8.367922617665862,[6400|0|10000|0]
284,28400,1.1864839792251587,1.1034669876098633,0.1583580076694488,1.2828445434570312,0.9293147325515748,-4.276329517364502,3.611328125,2,A/E1,6.1,90,450.0,8.373177172538046,[6400|0|10000|0]
285,28500,1.1909754276275637,1.102567434310913,0.1571114957332611,0.2736278474330902,0.3156432211399078,-3.8457224369049072,3.599609375,2,A/E1,6.1,90,450.0,8.377924392450392,[6400|0|10000|100]
286,28600,1.1960138082504272,1.101071000099182,0.1565507501363754,-0.7975552082061768,-0.596730649471283,-3.889577865600586,3.615234375,2,A/E1,6.1,90,450.0,8.383210130835455,[6400|0|10000|200]
287,28700,1.2022181749343872,1.1011154651641846,0.158413678407669,-0.0995935425162315,0.640911877155304,-2.8463737964630127,3.611328125,2,A/E1,6.1,90,450.0,8.389688297615882,[6400|0|10000|300]
288,28800,1.2093650102615356,1.1034047603607178,0.1612640470266342,0.7375075817108154,1.1692769527435305,-2.283616781234741,3.62109375,2,A/E1,6.1,90,450.0,8.397715920486585,[6400|0|10000|400]
289,28900,1.21631920337677,1.1052236557006836,0.1632130593061447,0.6943150758743286,0.5656694173812866,-2.452981472015381,3.62109375,2,A/E1,6.1,90,450.0,8.405163593345096,[6400|0|10000|500]
290,29000,1.221752643585205,1.106126070022583,0.1630882769823074,0.5811427235603333,0.9050215482711792,-2.823154926300049,3.615234375,2,A/E1,6.1,90,450.0,8.410672875942254,[6400|0|10000|600]
291,29100,1.2259598970413208,1.1063711643218994,0.1615420132875442,0.1833391487598419,0.5362747311592102,-3.388184070587158,3.611328125,2,A/E1,6.1,90,450.0,8.415161972095524,[6400|0|10000|700]
292,29200,1.2298641204833984,1.106309175491333,0.1601825952529907,0.1975477933883667,-0.1128749400377273,-4.178919792175293,3.611328125,2,A/E1,6.1,90,450.0,8.419296560429741,[6400|0|10000|800]
293,29300,1.2331463098526,1.1060421466827393,0.1596362143754959,0.940930962562561,0.4593508541584015,-4.94041919708252,3.611328125,2,A/E1,6.1,90,450.0,8.422634614279398,[6400|0|10000|900]
294,29400,1.236043095588684,1.1051243543624878,0.1600764393806457,1.4382203817367554,0.5418843030929565,-3.824165105819702,3.615234375,2,A/E1,6.1,90,450.0,8.425705039070701,[6400|0|10000|1000]
295,29500,1.2380989789962769,1.1004332304000854,0.1597197204828262,0.8658923506736755,-0.2248117923736572,-2.328511476516724,3.615234375,2,A/E1,6.1,90,450.0,8.43083929159549,[6400|0|10000|1100]
296,29600,1.2380950450897217,1.0930397510528564,0.1579882204532623,1.122261643409729,1.1108431816101074,-1.3880192041397097,3.60546875,2,A/E1,6.1,90,450.0,8.438432818094153,[6400|0|10000|1200]
297,29700,1.2369776964187622,1.0816893577575684,0.1533508449792862,1.9568456411361688,0.3041143417358398,-1.3706271648406982,3.599609375,2,A/E1,6.1,90,450.0,8.450744810105881,[6400|0|10000|1300]
298,29800,1.2355691194534302,1.0675712823867798,0.1500448733568191,1.5739541053771973,0.0153936082497239,-1.5642094612121582,3.59375,2,A/E1,6.1,90,450.0,8.465313049176238,[6400|0|10000|1400]
299,29900,1.2324258089065552,1.048592448234558,0.1474103480577469,0.0845472142100334,1.2085670232772827,-1.1025903224945068,3.599609375,2,A/E1,6.1,90,450.0,8.48472998174869,[6400|0|10000|1500]
300,30000,1.2265839576721191,1.0269674062728882,0.1466125845909118,0.7561963200569153,0.2058514058589935,-1.0158003568649292,3.60546875,2,A/E1,6.1,90,450.0,8.50714439881089,[6400|0|10000|1600]
301,30100,1.2217060327529907,1.0062406063079834,0.1454933285713195,-0.057535670697689,0.0815970599651336,-1.2869666814804075,3.599609375,2,A/E1,6.1,90,450.0,8.528466854634253,[6400|0|10000|1700]
302,30200,1.2153900861740112,0.9842727780342102,0.143412709236145,-0.4316804111003876,0.0093403402715921,-1.548330545425415,3.59375,2,A/E1,6.1,90,450.0,8.551419101519306,[6400|0|10000|1800]
303,30300,1.2160381078720093,0.9761687517166138,0.1550473570823669,-2.133193254470825,-0.5861117243766785,-1.3891888856887815,3.615234375,2,A/E1,6.1,90,450.0,8.565612769304025,[6400|0|10000|1900]
304,30400,1.2082173824310305,0.9499751329421996,0.1434463262557983,-0.0759043246507644,0.6329700946807861,-0.2956462800502777,4.0078125,2,A/E1,6.1,90,450.0,8.595308784645507,[6400|0|10000|2000]
305,30500,1.207093358039856,0.9490302205085754,0.1252111792564392,6.40682315826416,4.271922588348389,0.961520254611969,4.01171875,2,A/E1,6.1,90,450.0,8.613602960670335,[6400|0|10000|2100]
306,30600,1.1995891332626345,0.9337183833122252,0.0291211828589439,10.875164985656738,7.08903169631958,-0.1444045305252075,4.01171875,2,A/E1,6.1,90,450.0,8.711194216198201,[6400|0|10000|2200]
307,30700,1.1776832342147827,0.9007530212402344,0.0,17.88686752319336,15.015579223632812,9.6918363571167,4.015625,2,A/E1,6.1,90,450.0,8.760333068451141,[6400|0|10000|2300]
308,30800,1.1731427907943726,0.9039618968963624,0.0,14.72630500793457,13.237615585327148,17.006591796875,4.015625,2,A/E1,6.1,90,450.0,8.765892970377474,[6400|0|10000|2400]
309,30900,1.175687551498413,0.9178752303123474,0.0,-0.5322328209877014,1.3735647201538086,17.71444320678711,4.0234375,2,A/E1,6.1,90,450.0,8.780037108873161,[6400|0|10000|2500]
310,31000,1.1771736145019531,0.9209392666816713,0.0,-3.634300708770752,-1.863053679466248,17.51572608947754,4.0234375,2,A/E1,6.1,90,450.0,8.783442501966922,[6400|0|10000|2600]
311,31100,1.1771175861358645,0.9191302061080932,0.0,-1.1281907558441162,0.621675431728363,17.588102340698242,4.0234375,2,A/E1,6.1,90,450.0,8.785252429959048,[6400|0|10000|2700]
312,31200,1.1783267259597778,0.9204732775688172,0.0,-2.70684814453125,-1.092698574066162,17.44183349609375,4.02734375,2,A/E1,6.1,90,450.0,8.787059599033148,[6400|0|10000|2800]
313,31300,1.1778892278671265,0.9193446636199952,0.0,-1.5064687728881836,0.1520526856184005,17.44619369506836,4.02734375,2,A/E1,6.1,90,450.0,8.78827004276441,[6400|0|10000|2900]
314,31400,1.1782304048538208,0.9192564487457277,0.0,-0.9396170973777772,0.7382806539535522,17.353759765625,4.02734375,2,A/E1,6.1,90,450.0,8.788622439700111,[6400|0|10000|3000]
315,31500,1.1785212755203247,0.9197561740875244,0.0,-2.093276023864746,-0.4886520802974701,17.283706665039062,4.02734375,2,A/E1,6.1,90,450.0,8.789200653468423,[6400|0|10000|3100]
316,31600,1.1785969734191897,0.9177508354187012,0.0,-0.6024554967880249,1.0738277435302734,17.349855422973633,4.03125,2,A/E1,6.1,90,450.0,8.791207420357868,[6400|0|10000|3200]
317,31700,1.1788098812103271,0.9177383184432985,0.0,-0.6236417293548584,1.0620217323303225,17.312673568725586,4.03125,2,A/E1,6.1,90,450.0,8.791420695771828,[6400|0|10000|3300]
318,31800,1.178719997406006,0.91804701089859,0.0,-1.1196874380111694,0.5272733569145203,17.261056900024414,4.03125,2,A/E1,6.1,90,450.0,8.791742208027012,[6400|0|10000|3400]
319,31900,1.1785669326782229,0.9182416796684264,0.0,-0.8141900897026062,0.8540927767753601,17.214757919311523,4.0390625,2,A/E1,6.1,90,450.0,8.791989846353692,[6400|0|10000|3500]
320,32000,1.1785709857940674,0.917754590511322,0.0,-0.1838052123785019,1.5392102003097534,17.214021682739258,4.0390625,2,A/E1,6.1,90,450.0,8.792476952373688,[6400|0|10000|3600]
321,32100,1.1786766052246094,0.9176029562950134,0.0,-0.6528292894363403,1.0380254983901978,17.200164794921875,4.0390625,2,A/E1,6.1,90,450.0,8.792661745229783,[6400|0|10000|3700]
322,32200,1.1782468557357788,0.9176368117332458,0.0,-0.2661840915679931,1.5007957220077517,17.157766342163086,4.0390625,2,A/E1,6.1,90,450.0,8.793092826212717,[6400|0|10000|3800]
323,32300,1.1783199310302734,0.9173923134803772,0.0,-0.254705935716629,1.5140012502670288,17.13142967224121,4.04296875,2,A/E1,6.1,90,450.0,8.7933480112325,[6400|0|10000|3900]
324,32400,1.1781327724456787,0.9171063303947448,0.0,0.1837862133979797,2.013255834579468,17.104801177978516,4.04296875,2,A/E1,6.1,90,450.0,8.793689792830973,[6400|0|10000|4000]
325,32500,1.1784110069274902,0.9171531796455384,0.0,0.0146719329059124,1.836525082588196,17.149667739868164,4.04296875,2,A/E1,6.1,90,450.0,8.793971943994658,[6400|0|10000|4100]
326,32600,1.1781102418899536,0.9174115657806396,0.0,0.0174405463039875,1.8571816682815552,17.154621124267578,4.04296875,2,A/E1,6.1,90,450.0,8.794368457553842,[6400|0|10000|4200]
327,32700,1.178195238113403,0.9167972803115844,0.0,0.1229627579450607,1.9675464630126955,17.150428771972656,4.04296875,2,A/E1,6.1,90,450.0,8.7949885954381,[6400|0|10000|4300]
328,32800,1.1778796911239624,0.9169638752937316,0.0,0.160725325345993,2.030848264694214,17.136810302734375,4.046875,2,A/E1,6.1,90,450.0,8.795345420031735,[6400|0|10000|4400]
