time.ms,stateEstimate.x,stateEstimate.y,stateEstimate.z,stabilizer.roll,stabilizer.pitch,stabilizer.yaw,pm.vbat,drone_id,node_name,wind_speed,global_wind_direction,relative_wind_direction,travel_dist,waiting_time
0,1.271247386932373,-0.3300400972366333,0.009111800231039524,-1.5005301237106323,-2.4723896980285645,0.06493309885263443,4.0703125,0,"['C1', 'F1', 'J1']",6.1,180,0,0.03822341678612115,[100|0|0]
100,1.3141533136367798,-0.39803922176361084,0.12432221323251724,1.4033715724945068,-7.3777289390563965,-0.26137474179267883,4.0703125,0,"['C1', 'F1', 'J1']",6.1,180,0,0.17871625911899727,[200|0|0]
200,1.329379916191101,-0.41967037320137024,0.1596815586090088,-2.0047411918640137,-7.022219181060791,-0.7021896243095398,4.0703125,0,"['C1', 'F1', 'J1']",6.1,180,0,0.22287551005608358,[300|0|0]
300,1.3068716526031494,-0.376546174287796,0.08944015204906464,-5.898740291595459,-4.790337085723877,-0.8042495250701904,4.07421875,0,"['C1', 'F1', 'J1']",6.1,180,0,0.3083165637551198,[400|0|0]
400,1.2645399570465088,-0.31576865911483765,-0.015110353007912636,-8.352949142456055,-2.7064762115478516,-0.6684572696685791,4.0703125,0,"['C1', 'F1', 'J1']",6.1,180,0,0.43644418336528945,[500|0|0]
500,1.2638472318649292,-0.31414374709129333,-0.01597699336707592,-7.733820915222168,-2.321974277496338,-0.8174079060554504,4.0703125,0,"['C1', 'F1', 'J1']",6.1,180,0,0.43841173838957315,[600|0|0]
600,1.2637417316436768,-0.31363409757614136,-0.01595309190452099,-6.735020160675049,-1.6570895910263062,-0.8820798993110657,4.0703125,0,"['C1', 'F1', 'J1']",6.1,180,0,0.4389327414652754,[700|0|0]
700,1.2640049457550049,-0.31384000182151794,-0.015371267683804035,-5.538869380950928,-0.9373691082000732,-0.9260988831520081,4.0703125,0,"['C1', 'F1', 'J1']",6.1,180,0,0.4396037091623214,[800|0|0]
800,1.2644011974334717,-0.31422215700149536,-0.015203610993921757,-4.413958549499512,-0.3257923424243927,-0.9065206050872803,4.0703125,0,"['C1', 'F1', 'J1']",6.1,180,0,0.44017918004771317,[900|0|0]
900,1.2639857530593872,-0.31430724263191223,-0.014877484180033207,-3.4953219890594482,0.14717788994312286,-0.9067760705947876,4.0703125,0,"['C1', 'F1', 'J1']",6.1,180,0,0.44071414947786686,[1000|0|0]
1000,1.2642635107040405,-0.314993679523468,-0.014441941864788532,-2.7550907135009766,0.4498920440673828,-0.8831421732902527,4.0703125,0,"['C1', 'F1', 'J1']",6.1,180,0,0.44157324320012353,[1100|0|0]
1100,1.2641894817352295,-0.3154241740703583,-0.014413468539714813,-2.20218563079834,0.6665453314781189,-0.8652204871177673,4.0703125,0,"['C1', 'F1', 'J1']",6.1,180,0,0.4420109835036897,[1200|0|0]
1200,1.2642261981964111,-0.31524473428726196,-0.014238941483199596,-1.7854796648025513,0.8036907315254211,-0.8697154521942139,4.0703125,0,"['C1', 'F1', 'J1']",6.1,180,0,0.44226397842011145,[1300|0|0]
1300,1.2641627788543701,-0.3158247768878937,-0.013936968520283699,-1.4411070346832275,0.8949511647224426,-0.8392448425292969,4.0703125,0,"['C1', 'F1', 'J1']",6.1,180,0,0.4429209861079087,[1400|0|0]
1400,1.2643003463745117,-0.3162968158721924,-0.0137025760486722,-1.177052617073059,0.946186900138855,-0.804215133190155,4.0703125,0,"['C1', 'F1', 'J1']",6.1,180,0,0.44346567451061597,[1500|0|0]
1500,1.2640336751937866,-0.3161381483078003,-0.013454360887408257,-0.979276716709137,0.9971539974212646,-0.7858818173408508,4.0703125,0,"['C1', 'F1', 'J1']",6.1,180,0,0.44386304043882413,[1600|0|0]
1600,1.2645844221115112,-0.3163440227508545,-0.013206509873270988,-0.8263067603111267,0.9904529452323914,-0.759255588054657,4.0703125,0,"['C1', 'F1', 'J1']",6.1,180,0,0.444501112988692,[1700|0|0]
1700,1.2645385265350342,-0.3161907196044922,-0.013602062128484249,-0.7077457904815674,1.0080289840698242,-0.7416626214981079,4.0703125,0,"['C1', 'F1', 'J1']",6.1,180,0,0.44492780942086485,[1800|0|0]
1800,1.2644320726394653,-0.31626659631729126,-0.013130338862538338,-0.606951892375946,1.014163613319397,-0.7048487663269043,4.0703125,0,"['C1', 'F1', 'J1']",6.1,180,0,0.4454173117671939,[1900|0|0]
1900,1.2642030715942383,-0.31647989153862,-0.01349695399403572,-0.5255151391029358,1.017309546470642,-0.6606998443603516,4.0703125,0,"['C1', 'F1', 'J1']",6.1,180,0,0.4458993314605671,[2000|0|0]
2000,1.264471411705017,-0.31668829917907715,-0.012881439179182053,-0.4706569314002991,0.9983274936676025,-0.6632802486419678,4.0703125,0,"['C1', 'F1', 'J1']",6.1,180,0,0.446602395217959,[2100|0|0]
2100,1.2644238471984863,-0.3167698085308075,-0.0127630066126585,-0.43698209524154663,0.9829557538032532,-0.658690869808197,4.0703125,0,"['C1', 'F1', 'J1']",6.1,180,0,0.4467538297896868,[2200|0|0]
2200,1.26450514793396,-0.31654003262519836,-0.01297070924192667,-0.4059005677700043,0.9779713749885559,-0.6540732383728027,4.0703125,0,"['C1', 'F1', 'J1']",6.1,180,0,0.4470740596424363,[2300|0|0]
2300,1.2646280527114868,-0.31653332710266113,-0.012923537753522396,-0.3771364390850067,0.9646304249763489,-0.6262831687927246,4.0703125,0,"['C1', 'F1', 'J1']",6.1,180,0,0.44720587655216226,[2400|0|0]
2400,1.2646592855453491,-0.3168638348579407,-0.01272081583738327,-0.5152046084403992,0.8184203505516052,-0.6297572255134583,4.0703125,0,"['C1', 'F1', 'J1']",6.1,180,0,0.4475948586102242,[2500|0|0]
2500,1.2643253803253174,-0.3162342607975006,-0.01324720960110426,-0.4935404658317566,0.8449795246124268,-0.6265916228294373,4.0703125,0,"['C1', 'F1', 'J1']",6.1,180,0,0.4484808307249252,[2600|0|0]
2600,1.2647651433944702,-0.3168250024318695,-0.013100880198180676,-0.4396039843559265,0.8428520560264587,-0.6242120265960693,4.0703125,0,"['C1', 'F1', 'J1']",6.1,180,0,0.44923168326019924,[2700|0|0]
2700,1.2704700231552124,-0.30600595474243164,-0.008721503429114819,-0.7522079348564148,0.6362874507904053,-0.6092584729194641,4.0703125,0,"['C1', 'F1', 'J1']",6.1,180,0,0.46222307990860817,[2800|0|0]
2800,1.2708584070205688,-0.30595359206199646,-0.008497352711856365,-0.7376733422279358,0.6356422901153564,-0.5867161750793457,4.0703125,0,"['C1', 'F1', 'J1']",6.1,180,0,0.46267455241188943,[2900|0|0]
2900,1.264518141746521,-0.316934198141098,-0.012993189506232738,-0.38745245337486267,0.8579855561256409,-0.6046199202537537,4.0703125,0,"['C1', 'F1', 'J1']",6.1,180,0,0.47612762723110336,[3000|0|0]
3000,1.2644718885421753,-0.31694504618644714,-0.012882276438176632,-0.3900812566280365,0.8568924069404602,-0.6311261653900146,4.0703125,0,"['C1', 'F1', 'J1']",6.1,180,0,0.4762482868667143,[3100|0|0]
3100,1.2644264698028564,-0.3169548809528351,-0.013019101694226265,-0.4001269042491913,0.8457946181297302,-0.6307594776153564,4.0703125,0,"['C1', 'F1', 'J1']",6.1,180,0,0.476392788545612,[3200|0|0]
3200,1.264573097229004,-0.3165382146835327,-0.01297140121459961,-0.407028466463089,0.8382073640823364,-0.6087337732315063,4.0703125,0,"['C1', 'F1', 'J1']",6.1,180,0,0.476837069670385,[3300|0|0]
3300,1.270902156829834,-0.30653002858161926,-0.008831001818180084,-0.7286763191223145,0.6229234933853149,-0.5892037749290466,4.0703125,0,"['C1', 'F1', 'J1']",6.1,180,0,0.4893815382379755,[3400|0|0]
3400,1.2713230848312378,-0.3062712252140045,-0.009296220727264881,-0.7383055686950684,0.6037298440933228,-0.5743454098701477,4.0703125,0,"['C1', 'F1', 'J1']",6.1,180,0,0.49006020472368444,[3500|0|0]
3500,1.270890235900879,-0.3064112365245819,-0.009139526635408401,-0.7418779730796814,0.6128774881362915,-0.5882205963134766,4.0703125,0,"['C1', 'F1', 'J1']",6.1,180,0,0.4905413641588254,[3600|0|0]
3600,1.2713552713394165,-0.3063569664955139,-0.009157031774520874,-0.7505623698234558,0.6001174449920654,-0.5730680227279663,4.0703125,0,"['C1', 'F1', 'J1']",6.1,180,0,0.49100988270173085,[3700|0|0]
3700,1.2708330154418945,-0.3059241771697998,-0.008408745750784874,-0.7570616602897644,0.6019085049629211,-0.6001759171485901,4.0703125,0,"['C1', 'F1', 'J1']",6.1,180,0,0.49201982814395395,[3800|0|0]
3800,1.27095365524292,-0.30627351999282837,-0.008725396357476711,-0.7554118037223816,0.6047608852386475,-0.612595796585083,4.0703125,0,"['C1', 'F1', 'J1']",6.1,180,0,0.4925065128224793,[3900|0|0]
3900,1.2706341743469238,-0.3061235547065735,-0.008696291595697403,-0.7580200433731079,0.6123930215835571,-0.6291496753692627,4.0703125,0,"['C1', 'F1', 'J1']",6.1,180,0,0.4928606381070132,[4000|0|0]
4000,1.2710912227630615,-0.3064654767513275,-0.009009754285216331,-0.7616151571273804,0.612101137638092,-0.6319637894630432,4.0703125,0,"['C1', 'F1', 'J1']",6.1,180,0,0.4935118391490142,[4100|0|0]
4100,1.2709578275680542,-0.30609405040740967,-0.009293388575315475,-0.7721949815750122,0.6128883957862854,-0.6154835820198059,4.0703125,0,"['C1', 'F1', 'J1']",6.1,180,0,0.4939978434880147,[4200|0|0]
4200,1.2710826396942139,-0.3064810335636139,-0.008946409448981285,-0.7526868581771851,0.6111516952514648,-0.6051278710365295,4.0703125,0,"['C1', 'F1', 'J1']",6.1,180,0,0.4945323793092034,[4300|0|0]
4300,1.271057367324829,-0.30651307106018066,-0.00906442292034626,-0.7522608041763306,0.6112890243530273,-0.601034939289093,4.0703125,0,"['C1', 'F1', 'J1']",6.1,180,0,0.49465724833364183,[4400|0|0]
4400,1.2709708213806152,-0.3064350485801697,-0.009004292078316212,-0.756479024887085,0.6088343858718872,-0.5965402126312256,4.0703125,0,"['C1', 'F1', 'J1']",6.1,180,0,0.49478837203863135,[4500|0|0]
4501,1.2713241577148438,-0.3063497841358185,-0.008756051771342754,-0.7643946409225464,0.6004026532173157,-0.6002700924873352,4.0703125,0,"['C1', 'F1', 'J1']",6.1,180,0,0.4952285309196764,[4600|0|0]
4601,1.2714133262634277,-0.3066060245037079,-0.00906425528228283,-0.7566810250282288,0.6067237854003906,-0.5862044095993042,4.0703125,0,"['C1', 'F1', 'J1']",6.1,180,0,0.4956391396876642,[4700|0|0]
4701,1.2713372707366943,-0.30627280473709106,-0.009280123747885227,-0.768645167350769,0.6082788705825806,-0.5801258087158203,4.0703125,0,"['C1', 'F1', 'J1']",6.1,180,0,0.4960433909096196,[4800|0|0]
4801,1.2707616090774536,-0.3059297800064087,-0.00877047423273325,-0.768196702003479,0.607263445854187,-0.5521951913833618,4.0703125,0,"['C1', 'F1', 'J1']",6.1,180,0,0.496885290511754,[4900|0|0]
4901,1.270748496055603,-0.3058945834636688,-0.008896672166883945,-0.7713558673858643,0.609345018863678,-0.588309109210968,4.0703125,0,"['C1', 'F1', 'J1']",6.1,180,0,0.4970169592876532,[5000|0|0]
5001,1.2705206871032715,-0.30621862411499023,-0.009086408652365208,-0.7645949125289917,0.6101758480072021,-0.598172128200531,4.0703125,0,"['C1', 'F1', 'J1']",6.1,180,0,0.49745616219792815,[5100|0|0]
5101,1.271188735961914,-0.3067574203014374,-0.009045645594596863,-0.7677972316741943,0.602734386920929,-0.6065523028373718,4.0703125,0,"['C1', 'F1', 'J1']",6.1,180,0,0.4983153782562873,[5200|0|0]
5201,1.2709486484527588,-0.3063897490501404,-0.009131824597716331,-0.7746267318725586,0.6151421070098877,-0.6098901033401489,4.0703125,0,"['C1', 'F1', 'J1']",6.1,180,0,0.4987628723698367,[5300|0|0]
5301,1.2709463834762573,-0.30618616938591003,-0.009119187481701374,-0.7754709124565125,0.6132407188415527,-0.5962037444114685,4.0703125,0,"['C1', 'F1', 'J1']",6.1,180,0,0.4989668564537939,[5400|0|0]
5401,1.2711646556854248,-0.3062278926372528,-0.00920955277979374,-0.7794933319091797,0.6042540669441223,-0.603256106376648,4.0703125,0,"['C1', 'F1', 'J1']",6.1,180,0,0.49920675116840174,[5500|0|0]
5501,1.2710258960723877,-0.3061802089214325,-0.009113260544836521,-0.7786192297935486,0.6087488532066345,-0.6232065558433533,4.0703125,0,"['C1', 'F1', 'J1']",6.1,180,0,0.49938225091620125,[5600|0|0]
5601,1.2706557512283325,-0.30644690990448,-0.009064511395990849,-0.7682012915611267,0.6161477565765381,-0.6179220080375671,4.0703125,0,"['C1', 'F1', 'J1']",6.1,180,0,0.4998410679815468,[5700|0|0]
5702,1.2714462280273438,-0.3063717186450958,-0.009000205434858799,-0.7705324292182922,0.5907872319221497,-0.6210386157035828,4.0703125,0,"['C1', 'F1', 'J1']",6.1,180,0,0.5006377125396152,[5800|0|0]
5802,1.2711855173110962,-0.3067881166934967,-0.009006462059915066,-0.7558934688568115,0.6036304831504822,-0.61586993932724,4.0703125,0,"['C1', 'F1', 'J1']",6.1,180,0,0.5011290337763183,[5900|0|0]
5902,1.2712355852127075,-0.3063008189201355,-0.008805585093796253,-0.7740593552589417,0.5970157980918884,-0.5985974669456482,4.0703125,0,"['C1', 'F1', 'J1']",6.1,180,0,0.5016584839347012,[6000|0|0]
6000,1.2712397575378418,-0.3065020740032196,-0.008968794718384743,-0.7661266326904297,0.6054849624633789,-0.6112685203552246,4.0703125,0,"['C1', 'F1', 'J1']",6.1,180,0,0.5019176333092376,[6100|0|0]
6100,1.2708605527877808,-0.30677443742752075,-0.009376449510455132,-0.5902107954025269,0.7373829483985901,-0.5888352990150452,4.0703125,0,"['C1', 'F1', 'J1']",6.1,180,0,0.5025374401395193,[6200|0|0]
6202,1.2706142663955688,-0.30668532848358154,-0.009357606060802937,-0.624562680721283,0.7195497155189514,-0.6040975451469421,4.0703125,0,"['C1', 'F1', 'J1']",6.1,180,0,0.5028000281561413,[6300|0|0]
6302,1.270949363708496,-0.3066503405570984,-0.009229608811438084,-0.650444507598877,0.6930153369903564,-0.5809373259544373,4.0703125,0,"['C1', 'F1', 'J1']",6.1,180,0,0.5031604413356667,[6400|0|0]
6402,1.2706364393234253,-0.3068348467350006,-0.009247008711099625,-0.6657102108001709,0.6883633732795715,-0.5800825953483582,4.0703125,0,"['C1', 'F1', 'J1']",6.1,180,0,0.5035241265800254,[6500|0|0]
6502,1.2706341743469238,-0.30695462226867676,-0.009041442535817623,-0.6763359904289246,0.6821177005767822,-0.5736206769943237,4.0703125,0,"['C1', 'F1', 'J1']",6.1,180,0,0.5037620525370079,[6600|0|0]
6602,1.271043062210083,-0.3067501187324524,-0.008999410085380077,-0.6886852383613586,0.6591808795928955,-0.5875540375709534,4.0703125,0,"['C1', 'F1', 'J1']",6.1,180,0,0.5042211578711709,[6700|0|0]
6700,1.2710466384887695,-0.30705732107162476,-0.009173866361379623,-0.6788161993026733,0.6523000597953796,-0.5991706252098083,4.0703125,0,"['C1', 'F1', 'J1']",6.1,180,0,0.5045744581106244,[6800|0|0]
6800,1.2711403369903564,-0.30710890889167786,-0.009322800673544407,-0.6813938021659851,0.647942841053009,-0.5936231017112732,4.0703125,0,"['C1', 'F1', 'J1']",6.1,180,0,0.5047578215249617,[6900|0|0]
6900,1.2710400819778442,-0.3066690266132355,-0.009404079988598824,-0.6877467036247253,0.6528807282447815,-0.5955166220664978,4.0703125,0,"['C1', 'F1', 'J1']",6.1,180,0,0.5052162468880005,[7000|0|0]
7000,1.2709290981292725,-0.3067975640296936,-0.008869211189448833,-0.692974865436554,0.6593185663223267,-0.5845649242401123,4.0703125,0,"['C1', 'F1', 'J1']",6.1,180,0,0.5057774277094633,[7100|0|0]
7100,1.2710763216018677,-0.30701133608818054,-0.009095147252082825,-0.6885303854942322,0.6506884098052979,-0.5880787968635559,4.0703125,0,"['C1', 'F1', 'J1']",6.1,180,0,0.5061215502868559,[7200|0|0]
7200,1.270622968673706,-0.3065595328807831,-0.00936716515570879,-0.6992529034614563,0.6681382656097412,-0.6034272313117981,4.0703125,0,"['C1', 'F1', 'J1']",6.1,180,0,0.5068169988870992,[7300|0|0]
7300,1.2708687782287598,-0.306364506483078,-0.009332258254289627,-0.7049665451049805,0.6650984883308411,-0.5867897868156433,4.0703125,0,"['C1', 'F1', 'J1']",6.1,180,0,0.5071327141463506,[7400|0|0]
7400,1.2707170248031616,-0.3067435026168823,-0.00922729354351759,-0.6907225251197815,0.6749354600906372,-0.6011255979537964,4.0703125,0,"['C1', 'F1', 'J1']",6.1,180,0,0.5075542408502816,[7500|0|0]
7500,1.2708054780960083,-0.3067878782749176,-0.009432367980480194,-0.6858239769935608,0.6708630323410034,-0.5988770723342896,4.0703125,0,"['C1', 'F1', 'J1']",6.1,180,0,0.5077819439656248,[7600|0|0]
7600,1.2711178064346313,-0.30698922276496887,-0.009140202775597572,-0.6772416234016418,0.6614904999732971,-0.6136713027954102,4.0703125,0,"['C1', 'F1', 'J1']",6.1,180,0,0.5082546479974726,[7700|0|0]
7700,1.2709941864013672,-0.3071405589580536,-0.009301964193582535,-0.6728442907333374,0.6515922546386719,-0.590118944644928,4.0703125,0,"['C1', 'F1', 'J1']",6.1,180,0,0.5085083236019562,[7800|0|0]
7800,1.2711668014526367,-0.3067464530467987,-0.009380259551107883,-0.6824150681495667,0.6421974301338196,-0.5887486338615417,4.0703125,0,"['C1', 'F1', 'J1']",6.1,180,0,0.5089456399499479,[7900|0|0]
7900,1.2709897756576538,-0.30646318197250366,-0.008966834284365177,-0.6996874809265137,0.6383130550384521,-0.5876310467720032,4.0703125,0,"['C1', 'F1', 'J1']",6.1,180,0,0.5094771482610804,[8000|0|0]
8000,1.2712445259094238,-0.30652448534965515,-0.009157096035778522,-0.715498685836792,0.6182620525360107,-0.5888931155204773,4.0703125,0,"['C1', 'F1', 'J1']",6.1,180,0,0.5098009619866665,[8100|0|0]
8100,1.271117925643921,-0.30640164017677307,-0.008996100164949894,-0.6829752326011658,0.6463918089866638,-0.6100141406059265,4.0703125,0,"['C1', 'F1', 'J1']",6.1,180,0,0.5100397887735848,[8200|0|0]
8200,1.2710890769958496,-0.3066185712814331,-0.009121033363044262,-0.6539515256881714,0.6664922833442688,-0.5924657583236694,4.0703125,0,"['C1', 'F1', 'J1']",6.1,180,0,0.510291780147744,[8300|0|0]
8300,1.2709311246871948,-0.3066790699958801,-0.009104310534894466,-0.6380411386489868,0.6835180521011353,-0.5914580225944519,4.0703125,0,"['C1', 'F1', 'J1']",6.1,180,0,0.5104617468481311,[8400|0|0]
8400,1.2712196111679077,-0.30662840604782104,-0.009008072316646576,-0.6301181316375732,0.6887742280960083,-0.5989874005317688,4.0703125,0,"['C1', 'F1', 'J1']",6.1,180,0,0.5107700536431236,[8500|0|0]
8500,1.2707438468933105,-0.3067232668399811,-0.008940848521888256,-0.6190313696861267,0.7060117721557617,-0.6068194508552551,4.0703125,0,"['C1', 'F1', 'J1']",6.1,180,0,0.5112598181308663,[8600|0|0]
8600,1.270664095878601,-0.3065791428089142,-0.009364362806081772,-0.6229954957962036,0.7118387818336487,-0.6139349937438965,4.0703125,0,"['C1', 'F1', 'J1']",6.1,180,0,0.5117142367810052,[8700|0|0]
8700,1.2713608741760254,-0.30685004591941833,-0.009309112094342709,-0.6147344708442688,0.7126359939575195,-0.629639744758606,4.0703125,0,"['C1', 'F1', 'J1']",6.1,180,0,0.5124638641098761,[8800|0|0]
8800,1.2716668844223022,-0.30691584944725037,-0.009441419504582882,-0.6124691963195801,0.7046807408332825,-0.6054482460021973,4.0703125,0,"['C1', 'F1', 'J1']",6.1,180,0,0.5128036841003211,[8900|0|0]
8900,1.271744728088379,-0.3067529499530792,-0.009490052238106728,-0.6079498529434204,0.699604868888855,-0.6067854762077332,4.0703125,0,"['C1', 'F1', 'J1']",6.1,180,0,0.5129906627737559,[9000|0|0]
9000,1.2716337442398071,-0.3065983057022095,-0.009292359463870525,-0.6121770739555359,0.7026249170303345,-0.6049851775169373,4.0703125,0,"['C1', 'F1', 'J1']",6.1,180,0,0.5132650979973626,[9100|0|0]
9100,1.2715305089950562,-0.30706387758255005,-0.00907274428755045,-0.5963873267173767,0.7057164311408997,-0.6081485152244568,4.0703125,0,"['C1', 'F1', 'J1']",6.1,180,0,0.5137901175371826,[9200|0|0]
9200,1.2708007097244263,-0.3066832423210144,-0.009085696190595627,-0.6635587215423584,0.6810410022735596,-0.589131772518158,4.0703125,0,"['C1', 'F1', 'J1']",6.1,180,0,0.5146133173486067,[9300|0|0]
9300,1.2708909511566162,-0.3066115975379944,-0.00948522798717022,-0.6997512578964233,0.6499243974685669,-0.597646176815033,4.0703125,0,"['C1', 'F1', 'J1']",6.1,180,0,0.5150291323886086,[9400|0|0]
9400,1.271061658859253,-0.3064430356025696,-0.00877759326249361,-0.7233317494392395,0.6259791851043701,-0.5839510560035706,4.0703125,0,"['C1', 'F1', 'J1']",6.1,180,0,0.5157763279114684,[9500|0|0]
9500,1.2710151672363281,-0.30658158659935,-0.009197935461997986,-0.7395778894424438,0.6121695041656494,-0.5934712886810303,4.0703125,0,"['C1', 'F1', 'J1']",6.1,180,0,0.5162213508484,[9600|0|0]
9600,1.2710849046707153,-0.3064025938510895,-0.008666961453855038,-0.7505282163619995,0.6007781624794006,-0.6200678944587708,4.0703125,0,"['C1', 'F1', 'J1']",6.1,180,0,0.5167860057084767,[9700|0|0]
9700,1.2709637880325317,-0.30660808086395264,-0.008941339328885078,-0.7534847855567932,0.5986297130584717,-0.6238278746604919,4.0703125,0,"['C1', 'F1', 'J1']",6.1,180,0,0.5171495677675619,[9800|0|0]
9800,1.2710833549499512,-0.3063274025917053,-0.009408053942024708,-0.7684426307678223,0.5943936109542847,-0.6082468032836914,4.0703125,0,"['C1', 'F1', 'J1']",6.1,180,0,0.5177071510083171,[9900|0|0]
9900,1.271151065826416,-0.30608898401260376,-0.009105143137276173,-0.7770490646362305,0.5874460935592651,-0.5892717838287354,4.0703125,0,"['C1', 'F1', 'J1']",6.1,180,0,0.5180985371824288,[10000|0|0]
10000,1.271240472793579,-0.30682456493377686,-0.008996548131108284,-0.7659572958946228,0.5817452669143677,-0.5841853022575378,4.0703125,0,"['C1', 'F1', 'J1']",6.1,180,0,0.5188474469051163,[10100|0|0]
10100,1.271114468574524,-0.3060559630393982,-0.009243411011993885,-0.786267876625061,0.5903751254081726,-0.5851376056671143,4.0703125,0,"['C1', 'F1', 'J1']",6.1,180,0,0.5196644947722705,[10200|0|0]
10200,1.2714579105377197,-0.30647698044776917,-0.00871584564447403,-0.7859548926353455,0.5769254565238953,-0.581197202205658,4.0703125,0,"['C1', 'F1', 'J1']",6.1,180,0,0.5204218145575934,[10300|0|0]
10300,1.2712169885635376,-0.3063768148422241,-0.008760171942412853,-0.7820442914962769,0.5975077152252197,-0.5748116970062256,4.0703125,0,"['C1', 'F1', 'J1']",6.1,180,0,0.5206864678531841,[10400|0|0]
10400,1.2712581157684326,-0.30656006932258606,-0.009135209023952484,-0.7728040814399719,0.5991711616516113,-0.5903663039207458,4.0703125,0,"['C1', 'F1', 'J1']",6.1,180,0,0.5211059037411157,[10500|0|0]
10500,1.2712959051132202,-0.30673748254776,-0.008937204256653786,-0.7648346424102783,0.5994940996170044,-0.6048559546470642,4.0703125,0,"['C1', 'F1', 'J1']",6.1,180,0,0.5213744356292018,[10600|0|0]
10600,1.271133542060852,-0.30616772174835205,-0.008913815952837467,-0.7793067693710327,0.6084092259407043,-0.5993022918701172,4.0703125,0,"['C1', 'F1', 'J1']",6.1,180,0,0.52196734046311,[10700|0|0]
10700,1.27119779586792,-0.30604231357574463,-0.00892111286520958,-0.791986882686615,0.6048372387886047,-0.6007428765296936,4.0703125,0,"['C1', 'F1', 'J1']",6.1,180,0,0.5221084397416681,[10800|0|0]
10800,1.2712182998657227,-0.30661335587501526,-0.009031970053911209,-0.7396228909492493,0.6210900545120239,-0.593786358833313,4.0703125,0,"['C1', 'F1', 'J1']",6.1,180,0,0.5226905042035355,[10900|0|0]
10900,1.2710623741149902,-0.30667567253112793,-0.009322832338511944,-0.7136965394020081,0.6432617902755737,-0.583579421043396,4.0703125,0,"['C1', 'F1', 'J1']",6.1,180,0,0.5230263569599238,[11000|0|0]
11000,1.2714829444885254,-0.30678728222846985,-0.009042961522936821,-0.6922389268875122,0.6497030854225159,-0.5675954818725586,4.0703125,0,"['C1', 'F1', 'J1']",6.1,180,0,0.5235437193445701,[11100|0|0]
11100,1.2708110809326172,-0.30671584606170654,-0.009168782271444798,-0.6817808747291565,0.6726620197296143,-0.5798271298408508,4.0703125,0,"['C1', 'F1', 'J1']",6.1,180,0,0.5242309853952627,[11200|0|0]
11200,1.2709153890609741,-0.306586354970932,-0.00909721851348877,-0.6802219152450562,0.6801355481147766,-0.6015762686729431,4.0703125,0,"['C1', 'F1', 'J1']",6.1,180,0,0.5244120088735302,[11300|0|0]
11300,1.2712290287017822,-0.30658644437789917,-0.009163846261799335,-0.6811851263046265,0.6714891791343689,-0.5709323287010193,4.0703125,0,"['C1', 'F1', 'J1']",6.1,180,0,0.5247326474381553,[11400|0|0]
11400,1.2707711458206177,-0.3066539466381073,-0.009053346700966358,-0.6711468696594238,0.6942027807235718,-0.5687838196754456,4.0703125,0,"['C1', 'F1', 'J1']",6.1,180,0,0.5252084871600586,[11500|0|0]
11500,1.2708635330200195,-0.3063858449459076,-0.009380999021232128,-0.6711239218711853,0.6914859414100647,-0.588995099067688,4.0703125,0,"['C1', 'F1', 'J1']",6.1,180,0,0.5256418114669573,[11600|0|0]
11600,1.2710003852844238,-0.3063192665576935,-0.009001782163977623,-0.6637044548988342,0.6868312358856201,-0.5877189040184021,4.0703125,0,"['C1', 'F1', 'J1']",6.1,180,0,0.5260504269939209,[11700|0|0]
11700,1.2710427045822144,-0.3068898618221283,-0.009450738318264484,-0.6497665643692017,0.6856614947319031,-0.5896921753883362,4.0703125,0,"['C1', 'F1', 'J1']",6.1,180,0,0.5267777037687686,[11800|0|0]
11800,1.2707077264785767,-0.3064832389354706,-0.009374928660690784,-0.6559064388275146,0.6948592662811279,-0.602385401725769,4.0703125,0,"['C1', 'F1', 'J1']",6.1,180,0,0.5273099627339839,[11900|0|0]
11900,1.2708662748336792,-0.30681857466697693,-0.00945365335792303,-0.645838737487793,0.684116005897522,-0.6046884059906006,4.0703125,0,"['C1', 'F1', 'J1']",6.1,180,0,0.5276891529391382,[12000|0|0]
12000,1.2709901332855225,-0.30691006779670715,-0.009209237061440945,-0.6468585729598999,0.6797282099723816,-0.6065955758094788,4.0703125,0,"['C1', 'F1', 'J1']",6.1,180,0,0.5279780322129999,[12100|0|0]
12100,1.2710028886795044,-0.30684348940849304,-0.009229307994246483,-0.6475216746330261,0.6737470626831055,-0.5925042033195496,4.0703125,0,"['C1', 'F1', 'J1']",6.1,180,0,0.5280487303331765,[12200|0|0]
12200,1.2707537412643433,-0.30664584040641785,-0.009408526122570038,-0.6521745324134827,0.6773038506507874,-0.5899795889854431,4.0703125,0,"['C1', 'F1', 'J1']",6.1,180,0,0.5284137764946719,[12300|0|0]
12300,1.2713561058044434,-0.3071775436401367,-0.00930801685899496,-0.6406775712966919,0.6768991947174072,-0.6087587475776672,4.0703125,0,"['C1', 'F1', 'J1']",6.1,180,0,0.5292235008181188,[12400|0|0]
12400,1.271671175956726,-0.30640316009521484,-0.009373748674988747,-0.6942442655563354,0.6457706093788147,-0.5821704268455505,4.0703125,0,"['C1', 'F1', 'J1']",6.1,180,0,0.5300621066535022,[12500|0|0]
12500,1.2715319395065308,-0.3067207634449005,-0.009012237191200256,-0.6567197442054749,0.6725053787231445,-0.5788715481758118,4.0703125,0,"['C1', 'F1', 'J1']",6.1,180,0,0.5305630549838771,[12600|0|0]
12600,1.271551251411438,-0.30649471282958984,-0.009266367182135582,-0.6396135091781616,0.6887012124061584,-0.5951583385467529,4.0703125,0,"['C1', 'F1', 'J1']",6.1,180,0,0.5309037218044603,[12700|0|0]
12700,1.2715133428573608,-0.3064853549003601,-0.009419271722435951,-0.6310045719146729,0.698036789894104,-0.5980488657951355,4.0703125,0,"['C1', 'F1', 'J1']",6.1,180,0,0.5310615331720995,[12800|0|0]
12800,1.2718104124069214,-0.3068884611129761,-0.00901584792882204,-0.6154947876930237,0.6960746645927429,-0.5985532402992249,4.0703125,0,"['C1', 'F1', 'J1']",6.1,180,0,0.5317045694799232,[12900|0|0]
12900,1.2715810537338257,-0.3067243695259094,-0.00946873426437378,-0.6064767837524414,0.7149190306663513,-0.6034685373306274,4.0703125,0,"['C1', 'F1', 'J1']",6.1,180,0,0.5322380837560206,[13000|0|0]
13000,1.2714874744415283,-0.3065878450870514,-0.009326152503490448,-0.6114333271980286,0.718988299369812,-0.599855899810791,4.0703125,0,"['C1', 'F1', 'J1']",6.1,180,0,0.532456545571652,[13100|0|0]
13100,1.2711970806121826,-0.30693894624710083,-0.009570994414389133,-0.6022206544876099,0.7271710634231567,-0.6055848002433777,4.0703125,0,"['C1', 'F1', 'J1']",6.1,180,0,0.5329737961511999,[13200|0|0]
13200,1.2715623378753662,-0.30677637457847595,-0.009473687969148159,-0.6087079644203186,0.7194088697433472,-0.5898122191429138,4.0703125,0,"['C1', 'F1', 'J1']",6.1,180,0,0.5333852702816544,[13300|0|0]
13300,1.2715919017791748,-0.3067072033882141,-0.009350430220365524,-0.6130042672157288,0.7173846364021301,-0.5941314101219177,4.0703125,0,"['C1', 'F1', 'J1']",6.1,180,0,0.5335296695566027,[13400|0|0]
13400,1.2715461254119873,-0.3064689636230469,-0.00906050018966198,-0.6195828318595886,0.7184715270996094,-0.5793209075927734,4.0703125,0,"['C1', 'F1', 'J1']",6.1,180,0,0.533907708025814,[13500|0|0]
13500,1.270699143409729,-0.3065875470638275,-0.009241756051778793,-0.6821868419647217,0.6832351088523865,-0.5739791393280029,4.0703125,0,"['C1', 'F1', 'J1']",6.1,180,0,0.5347819472563045,[13600|0|0]
13600,1.2709264755249023,-0.30639928579330444,-0.008899797685444355,-0.7146837711334229,0.6533315181732178,-0.5733428597450256,4.0703125,0,"['C1', 'F1', 'J1']",6.1,180,0,0.5352336747414924,[13700|0|0]
13700,1.2710473537445068,-0.30674439668655396,-0.009479587897658348,-0.7296915650367737,0.6315963864326477,-0.5675087571144104,4.0703125,0,"['C1', 'F1', 'J1']",6.1,180,0,0.5359191452097063,[13800|0|0]
13800,1.2708468437194824,-0.30665382742881775,-0.008714861236512661,-0.750452995300293,0.6300879120826721,-0.580010712146759,4.0703125,0,"['C1', 'F1', 'J1']",6.1,180,0,0.5367148926111153,[13900|0|0]
13900,1.2707910537719727,-0.30646005272865295,-0.009342470206320286,-0.7662028670310974,0.628578245639801,-0.5739524364471436,4.0703125,0,"['C1', 'F1', 'J1']",6.1,180,0,0.537374099840786,[14000|0|0]
14000,1.2711694240570068,-0.3063015639781952,-0.008852997794747353,-0.7761207818984985,0.617521345615387,-0.5758422613143921,4.0703125,0,"['C1', 'F1', 'J1']",6.1,180,0,0.5380127437151867,[14100|0|0]
14100,1.2709243297576904,-0.3062066435813904,-0.008941106498241425,-0.7888997793197632,0.6196615695953369,-0.58027583360672,4.0703125,0,"['C1', 'F1', 'J1']",6.1,180,0,0.5382899516532376,[14200|0|0]
14200,1.2710158824920654,-0.30626180768013,-0.008928627707064152,-0.7927396893501282,0.6124745011329651,-0.5681926012039185,4.0703125,0,"['C1', 'F1', 'J1']",6.1,180,0,0.5383975653196119,[14300|0|0]
14300,1.2709232568740845,-0.30640900135040283,-0.009151925332844257,-0.7876878976821899,0.6153920888900757,-0.5781606435775757,4.0703125,0,"['C1', 'F1', 'J1']",6.1,180,0,0.538680597669978,[14400|0|0]
14400,1.271186113357544,-0.30634433031082153,-0.008940697647631168,-0.7809131145477295,0.6079967617988586,-0.5894248485565186,4.0703125,0,"['C1', 'F1', 'J1']",6.1,180,0,0.5390239531843617,[14500|0|0]
14500,1.2711516618728638,-0.3061257004737854,-0.009306082502007484,-0.7927765846252441,0.6066820025444031,-0.6036463975906372,4.0703125,0,"['C1', 'F1', 'J1']",6.1,180,0,0.5394511440108628,[14600|0|0]
14600,1.2711951732635498,-0.30638211965560913,-0.008767802268266678,-0.7838680148124695,0.6078057885169983,-0.5806325078010559,4.0703125,0,"['C1', 'F1', 'J1']",6.1,180,0,0.540048964759886,[14700|0|0]
14700,1.2712846994400024,-0.30647796392440796,-0.008718041703104973,-0.7818391919136047,0.6034131050109863,-0.5968221426010132,4.0703125,0,"['C1', 'F1', 'J1']",6.1,180,0,0.5401892401104541,[14800|0|0]
14800,1.2710275650024414,-0.30624890327453613,-0.009012161754071712,-0.7937105894088745,0.6092614531517029,-0.5887461304664612,4.0703125,0,"['C1', 'F1', 'J1']",6.1,180,0,0.5406421126142343,[14900|0|0]
14900,1.2712396383285522,-0.30612441897392273,-0.00936965737491846,-0.7968741655349731,0.6089317798614502,-0.5719534754753113,4.0703125,0,"['C1', 'F1', 'J1']",6.1,180,0,0.5410760187742177,[15000|0|0]
15000,1.2711642980575562,-0.3062417805194855,-0.009100276045501232,-0.7862508893013,0.613652229309082,-0.5572110414505005,4.0703125,0,"['C1', 'F1', 'J1']",6.1,180,0,0.5413793604783226,[15100|0|0]
15100,1.2709932327270508,-0.30650967359542847,-0.00888486485928297,-0.7811468243598938,0.6087033748626709,-0.5777637958526611,4.0703125,0,"['C1', 'F1', 'J1']",6.1,180,0,0.5417633292616723,[15200|0|0]
15200,1.2708542346954346,-0.3062949776649475,-0.009183511137962341,-0.7879542708396912,0.6066362261772156,-0.5840555429458618,4.0703125,0,"['C1', 'F1', 'J1']",6.1,180,0,0.5421565269156928,[15300|0|0]
15300,1.271268367767334,-0.3060711622238159,-0.009039724245667458,-0.8006464838981628,0.5934746265411377,-0.5676876306533813,4.0703125,0,"['C1', 'F1', 'J1']",6.1,180,0,0.5426487405109192,[15400|0|0]
15400,1.27103590965271,-0.3061393201351166,-0.008913207799196243,-0.7975006699562073,0.6019245386123657,-0.5852552056312561,4.0703125,0,"['C1', 'F1', 'J1']",6.1,180,0,0.5429220328217425,[15500|0|0]
15500,1.2711129188537598,-0.3062118887901306,-0.009179150685667992,-0.795929491519928,0.6086783409118652,-0.6081652045249939,4.0703125,0,"['C1', 'F1', 'J1']",6.1,180,0,0.5432082534457404,[15600|0|0]
15600,1.2713264226913452,-0.30666521191596985,-0.008914008736610413,-0.7853876948356628,0.6039178371429443,-0.6103801131248474,4.0703125,0,"['C1', 'F1', 'J1']",6.1,180,0,0.5437751626079829,[15700|0|0]
15700,1.2710907459259033,-0.30635833740234375,-0.008887933567166328,-0.7899176478385925,0.6145896315574646,-0.6119673252105713,4.0703125,0,"['C1', 'F1', 'J1']",6.1,180,0,0.5441629710907987,[15800|0|0]
15800,1.2713580131530762,-0.30635866522789,-0.008843008428812027,-0.7877762317657471,0.603869616985321,-0.5926306843757629,4.0703125,0,"['C1', 'F1', 'J1']",6.1,180,0,0.5444339879652667,[15900|0|0]
15900,1.2709556818008423,-0.3064858019351959,-0.009264953434467316,-0.7829540371894836,0.6181282997131348,-0.60004061460495,4.0703125,0,"['C1', 'F1', 'J1']",6.1,180,0,0.54503070552587,[16000|0|0]
16000,1.2711185216903687,-0.30657586455345154,-0.009016529656946659,-0.7826282382011414,0.6060712337493896,-0.6011883616447449,4.0703125,0,"['C1', 'F1', 'J1']",6.1,180,0,0.5453410963731345,[16100|0|0]
16100,1.2710336446762085,-0.306187242269516,-0.008711133152246475,-0.7986513376235962,0.60356205701828,-0.5868780612945557,4.0703125,0,"['C1', 'F1', 'J1']",6.1,180,0,0.545842592546786,[16200|0|0]
16200,1.2715106010437012,-0.30672788619995117,-0.009461363777518272,-0.7884318232536316,0.5998952984809875,-0.6071028113365173,4.0703125,0,"['C1', 'F1', 'J1']",6.1,180,0,0.5468830872498499,[16300|0|0]
16300,1.2714232206344604,-0.30673184990882874,-0.009468385949730873,-0.7813135385513306,0.6013317704200745,-0.5910972952842712,4.0703125,0,"['C1', 'F1', 'J1']",6.1,180,0,0.5469708389325103,[16400|0|0]
16400,1.2712289094924927,-0.30684569478034973,-0.009356831200420856,-0.7799766063690186,0.6011320948600769,-0.596810519695282,4.0703125,0,"['C1', 'F1', 'J1']",6.1,180,0,0.5472221593191845,[16500|0|0]
16500,1.2713816165924072,-0.3068232238292694,-0.009261778555810452,-0.7759698629379272,0.6037654280662537,-0.5955415368080139,4.0703125,0,"['C1', 'F1', 'J1']",6.1,180,0,0.547403430958594,[16600|0|0]
16600,1.2718212604522705,-0.3067460358142853,-0.009318535216152668,-0.7752076387405396,0.594148576259613,-0.5756481289863586,4.0703125,0,"['C1', 'F1', 'J1']",6.1,180,0,0.5478533932144176,[16700|0|0]
16700,1.2713892459869385,-0.30670443177223206,-0.009342001751065254,-0.7808268666267395,0.6013305187225342,-0.5777149200439453,4.0703125,0,"['C1', 'F1', 'J1']",6.1,180,0,0.5482880402813951,[16800|0|0]
16800,1.2716240882873535,-0.30652961134910583,-0.009787965565919876,-0.789207398891449,0.5949780941009521,-0.5852956175804138,4.0703125,0,"['C1', 'F1', 'J1']",6.1,180,0,0.5488215164388436,[16900|0|0]
16900,1.2715210914611816,-0.3064345717430115,-0.009323091246187687,-0.7871702909469604,0.5947341918945312,-0.574168860912323,4.0703125,0,"['C1', 'F1', 'J1']",6.1,180,0,0.549307056350771,[17000|0|0]
17000,1.2716809511184692,-0.3068106472492218,-0.009194500744342804,-0.7697064876556396,0.5895749926567078,-0.5611414313316345,4.0703125,0,"['C1', 'F1', 'J1']",6.1,180,0,0.5497354526784446,[17100|0|0]
17100,1.2716461420059204,-0.3068874180316925,-0.009141473099589348,-0.7682065963745117,0.5880649089813232,-0.5642613768577576,4.0703125,0,"['C1', 'F1', 'J1']",6.1,180,0,0.5498350386135243,[17200|0|0]
17200,1.2714602947235107,-0.30630868673324585,-0.009555742144584656,-0.7940847873687744,0.5840984582901001,-0.5926386117935181,4.0703125,0,"['C1', 'F1', 'J1']",6.1,180,0,0.5505706254335682,[17300|0|0]
17300,1.2716209888458252,-0.3069485127925873,-0.009485134854912758,-0.741928219795227,0.6053194403648376,-0.6030691266059875,4.0703125,0,"['C1', 'F1', 'J1']",6.1,180,0,0.5512340901097293,[17400|0|0]
17400,1.2712745666503906,-0.3071802854537964,-0.009300237521529198,-0.7100275158882141,0.6349257230758667,-0.5942955017089844,4.0703125,0,"['C1', 'F1', 'J1']",6.1,180,0,0.5516900659071857,[17500|0|0]
17500,1.2712923288345337,-0.3070896863937378,-0.009336493909358978,-0.6852612495422363,0.6492297053337097,-0.5946853756904602,4.0703125,0,"['C1', 'F1', 'J1']",6.1,180,0,0.5517892536611048,[17600|0|0]
17600,1.2711269855499268,-0.30680742859840393,-0.00955093465745449,-0.6955200433731079,0.6532764434814453,-0.613018274307251,4.0703125,0,"['C1', 'F1', 'J1']",6.1,180,0,0.5521803964729205,[17700|0|0]
17700,1.271257996559143,-0.3069714605808258,-0.009677204303443432,-0.6763663291931152,0.6684449911117554,-0.6137620210647583,4.0703125,0,"['C1', 'F1', 'J1']",6.1,180,0,0.5524253748378658,[17800|0|0]
17800,1.2719173431396484,-0.30680516362190247,-0.00898338295519352,-0.6892693638801575,0.6458905935287476,-0.6108737587928772,4.0703125,0,"['C1', 'F1', 'J1']",6.1,180,0,0.5533968585768232,[17900|0|0]
17900,1.2716927528381348,-0.3071950078010559,-0.009386623278260231,-0.6412152647972107,0.6859655976295471,-0.5971465706825256,4.0703125,0,"['C1', 'F1', 'J1']",6.1,180,0,0.5540010291203792,[18000|0|0]
18000,1.271496295928955,-0.30682602524757385,-0.009427935816347599,-0.6342489719390869,0.7035166621208191,-0.6077905297279358,4.0703125,0,"['C1', 'F1', 'J1']",6.1,180,0,0.5544210888396356,[18100|0|0]
18100,1.2719182968139648,-0.30683889985084534,-0.009245134890079498,-0.614142119884491,0.7024320960044861,-0.6006649136543274,4.0703125,0,"['C1', 'F1', 'J1']",6.1,180,0,0.5548811613132774,[18200|0|0]
18200,1.2714523077011108,-0.3069573640823364,-0.009010576643049717,-0.596424400806427,0.7335970401763916,-0.6076552867889404,4.0703125,0,"['C1', 'F1', 'J1']",6.1,180,0,0.5554161353301146,[18300|0|0]
18300,1.271518349647522,-0.30686062574386597,-0.009171102195978165,-0.8247652053833008,0.5759822130203247,-0.6141180396080017,4.0703125,0,"['C1', 'F1', 'J1']",6.1,180,0,0.5556148519573977,[18400|0|0]
18400,1.2715895175933838,-0.3066033720970154,-0.009174344129860401,-0.799589991569519,0.6001299023628235,-0.6256948113441467,4.0703125,0,"['C1', 'F1', 'J1']",6.1,180,0,0.5558817879524816,[18500|0|0]
18500,1.2713724374771118,-0.30677056312561035,-0.009436714462935925,-0.7755009531974792,0.6233058571815491,-0.6333280801773071,4.0703125,0,"['C1', 'F1', 'J1']",6.1,180,0,0.5562611490055714,[18600|0|0]
18600,1.271691918373108,-0.3067868947982788,-0.009363183751702309,-0.7585247755050659,0.6210675239562988,-0.6300180554389954,4.0703125,0,"['C1', 'F1', 'J1']",6.1,180,0,0.5565893890578703,[18700|0|0]
18700,1.2715661525726318,-0.30667003989219666,-0.00912884809076786,-0.7605690360069275,0.6237797737121582,-0.6062740087509155,4.0703125,0,"['C1', 'F1', 'J1']",6.1,180,0,0.5568798805510855,[18800|0|0]
18800,1.271738886833191,-0.30686691403388977,-0.009227320551872253,-0.7499205470085144,0.6100864410400391,-0.6001296043395996,4.0703125,0,"['C1', 'F1', 'J1']",6.1,180,0,0.5571596900899405,[18900|0|0]
18900,1.2713286876678467,-0.30677542090415955,-0.009531298652291298,-0.707384467124939,0.6584073901176453,-0.6108471751213074,4.0703125,0,"['C1', 'F1', 'J1']",6.1,180,0,0.5576783778896537,[19000|0|0]
19000,1.2712600231170654,-0.30681753158569336,-0.009442264214158058,-0.6765708327293396,0.6785606145858765,-0.6266982555389404,4.0703125,0,"['C1', 'F1', 'J1']",6.1,180,0,0.557798441461177,[19100|0|0]
19100,1.2714881896972656,-0.30686986446380615,-0.00924694538116455,-0.661263108253479,0.683008074760437,-0.6090964674949646,4.0703125,0,"['C1', 'F1', 'J1']",6.1,180,0,0.5581033154760975,[19200|0|0]
19200,1.2715119123458862,-0.30708134174346924,-0.009464415721595287,-0.6410940289497375,0.6925475001335144,-0.6098264455795288,4.0703125,0,"['C1', 'F1', 'J1']",6.1,180,0,0.5584075830439359,[19300|0|0]
19300,1.2712293863296509,-0.306667685508728,-0.00956560205668211,-0.6663315892219543,0.6834994554519653,-0.6010964512825012,4.0703125,0,"['C1', 'F1', 'J1']",6.1,180,0,0.5589186320678058,[19400|0|0]
19400,1.2715959548950195,-0.30723822116851807,-0.0093902088701725,-0.6359381675720215,0.687573254108429,-0.6034151911735535,4.0703125,0,"['C1', 'F1', 'J1']",6.1,180,0,0.5596190935029202,[19500|0|0]
19500,1.271203875541687,-0.30697372555732727,-0.009561408311128616,-0.6378147602081299,0.7012093663215637,-0.6096658706665039,4.0703125,0,"['C1', 'F1', 'J1']",6.1,180,0,0.5601220779919778,[19600|0|0]
19600,1.2716809511184692,-0.30711451172828674,-0.009474222548305988,-0.6349347233772278,0.6865779161453247,-0.5888559818267822,4.0703125,0,"['C1', 'F1', 'J1']",6.1,180,0,0.5606270762188404,[19700|0|0]
19700,1.271484136581421,-0.3068997859954834,-0.009417293593287468,-0.6420328617095947,0.6893537044525146,-0.5758787393569946,4.0703125,0,"['C1', 'F1', 'J1']",6.1,180,0,0.5609238657204084,[19800|0|0]
19800,1.2715667486190796,-0.3068350851535797,-0.009265546686947346,-0.6441846489906311,0.6854394674301147,-0.5738934874534607,4.0703125,0,"['C1', 'F1', 'J1']",6.1,180,0,0.5611083598159589,[19900|0|0]
19900,1.2710915803909302,-0.3068602383136749,-0.009565196000039577,-0.6449393033981323,0.7002498507499695,-0.5789287686347961,4.0703125,0,"['C1', 'F1', 'J1']",6.1,180,0,0.5616706828879932,[20000|0|0]
20000,1.2712247371673584,-0.3069070875644684,-0.009359593503177166,-0.6417894959449768,0.6977428793907166,-0.5698102712631226,4.0703125,0,"['C1', 'F1', 'J1']",6.1,180,0,0.5619200780886782,[20100|0|0]
20100,1.271329641342163,-0.3071680963039398,-0.009600654244422913,-0.6401291489601135,0.6893490552902222,-0.5963295102119446,4.0703125,0,"['C1', 'F1', 'J1']",6.1,180,0,0.5622905382470513,[20200|0|0]
20200,1.2715455293655396,-0.306948184967041,-0.009289161302149296,-0.6512362957000732,0.6804407835006714,-0.6116133332252502,4.0703125,0,"['C1', 'F1', 'J1']",6.1,180,0,0.5627287122853287,[20300|0|0]
20300,1.2715193033218384,-0.30709561705589294,-0.009705673903226852,-0.6547688245773315,0.6756657958030701,-0.6298213005065918,4.0703125,0,"['C1', 'F1', 'J1']",6.1,180,0,0.5631713258561192,[20400|0|0]
20400,1.2715651988983154,-0.30689695477485657,-0.009157263673841953,-0.6731864213943481,0.6588774919509888,-0.6124936938285828,4.0703125,0,"['C1', 'F1', 'J1']",6.1,180,0,0.5637564129312975,[20500|0|0]
20500,1.2634371519088745,-0.31700897216796875,-0.012864846736192703,-0.3412572145462036,0.9000753164291382,-0.6235851645469666,4.0703125,0,"['C1', 'F1', 'J1']",6.1,180,0,0.5772495302799828,[20600|0|0]
20600,1.2636933326721191,-0.3172088861465454,-0.013059110380709171,-0.3332933485507965,0.8975452780723572,-0.5982142686843872,4.0703125,0,"['C1', 'F1', 'J1']",6.1,180,0,0.5776281231297142,[20700|0|0]
20700,1.2637488842010498,-0.31727102398872375,-0.012896940112113953,-0.33749836683273315,0.9011036157608032,-0.5928826332092285,4.0703125,0,"['C1', 'F1', 'J1']",6.1,180,0,0.5778104587538072,[20800|0|0]
20800,1.263594627380371,-0.3165922462940216,-0.013163033872842789,-0.3557497262954712,0.9053718447685242,-0.593487560749054,4.0703125,0,"['C1', 'F1', 'J1']",6.1,180,0,0.5785556702775035,[20900|0|0]
20900,1.271527886390686,-0.30688485503196716,-0.00917256809771061,-0.6668493151664734,0.6704696416854858,-0.577418327331543,4.0703125,0,"['C1', 'F1', 'J1']",6.1,180,0,0.591712184281671,[21000|0|0]
21000,1.2716988325119019,-0.30668455362319946,-0.00928499922156334,-0.7104699611663818,0.6488512754440308,-0.5949696898460388,4.0703125,0,"['C1', 'F1', 'J1']",6.1,180,0,0.5919985127439724,[21100|0|0]
21100,1.2637726068496704,-0.3166945278644562,-0.01266647968441248,-0.4892907738685608,0.7999106049537659,-0.6223391890525818,4.0703125,0,"['C1', 'F1', 'J1']",6.1,180,0,0.605206807398464,[21200|0|0]
21200,1.263800859451294,-0.3164198696613312,-0.013074581511318684,-0.4713919460773468,0.8116310238838196,-0.640666127204895,4.0703125,0,"['C1', 'F1', 'J1']",6.1,180,0,0.6056995369786259,[21300|0|0]
21300,1.2718899250030518,-0.3069027066230774,-0.009555903263390064,-0.638511061668396,0.7123634219169617,-0.6325100660324097,4.0703125,0,"['C1', 'F1', 'J1']",6.1,180,0,0.6186760723563677,[21400|0|0]
21400,1.2638161182403564,-0.31719890236854553,-0.012712668627500534,-0.4047885239124298,0.8420718908309937,-0.6634203195571899,4.0703125,0,"['C1', 'F1', 'J1']",6.1,180,0,0.632135759203928,[21500|0|0]
21500,1.263795256614685,-0.31658339500427246,-0.01306893303990364,-0.42146897315979004,0.8453266024589539,-0.6574652194976807,4.0703125,0,"['C1', 'F1', 'J1']",6.1,180,0,0.6328472427627295,[21600|0|0]
21600,1.2637789249420166,-0.31660351157188416,-0.013109632767736912,-0.42769917845726013,0.8496274948120117,-0.6242309808731079,4.0703125,0,"['C1', 'F1', 'J1']",6.1,180,0,0.632895490743727,[21700|0|0]
21701,1.2636116743087769,-0.31674906611442566,-0.01303049549460411,-0.4282187819480896,0.8480309844017029,-0.6258173584938049,4.0703125,0,"['C1', 'F1', 'J1']",6.1,180,0,0.6331309086852107,[21800|0|0]
21801,1.2636148929595947,-0.3168869614601135,-0.012968255206942558,-0.4271145761013031,0.846808910369873,-0.6103678941726685,4.0703125,0,"['C1', 'F1', 'J1']",6.1,180,0,0.6332822339622918,[21900|0|0]
21901,1.263636827468872,-0.31684428453445435,-0.01267037633806467,-0.4248940348625183,0.8486858010292053,-0.6041473746299744,4.0703125,0,"['C1', 'F1', 'J1']",6.1,180,0,0.6335839528102363,[22000|0|0]
22000,1.2636692523956299,-0.316502183675766,-0.013119994662702084,-0.4370059370994568,0.8376729488372803,-0.6109499931335449,4.0703125,0,"['C1', 'F1', 'J1']",6.1,180,0,0.6341498512209429,[22100|0|0]
22100,1.2636001110076904,-0.3167446553707123,-0.01313595287501812,-0.42965325713157654,0.8374744057655334,-0.6313174366950989,4.0703125,0,"['C1', 'F1', 'J1']",6.1,180,0,0.6344024927039117,[22200|0|0]
22200,1.2635109424591064,-0.316592276096344,-0.013276898302137852,-0.4393901228904724,0.8392612934112549,-0.6644572019577026,4.0703125,0,"['C1', 'F1', 'J1']",6.1,180,0,0.6346284043829802,[22300|0|0]
22302,1.2636997699737549,-0.31706538796424866,-0.012879225425422192,-0.42358607053756714,0.8352243304252625,-0.6478184461593628,4.0703125,0,"['C1', 'F1', 'J1']",6.1,180,0,0.6352746507653421,[22400|0|0]
22401,1.263563632965088,-0.31692615151405334,-0.013113480061292648,-0.4287864565849304,0.8375349044799805,-0.640201210975647,4.0703125,0,"['C1', 'F1', 'J1']",6.1,180,0,0.6355792739893723,[22500|0|0]
22501,1.2639042139053345,-0.3171826899051666,-0.012769865803420544,-0.4272209107875824,0.8212106823921204,-0.6213428974151611,4.0703125,0,"['C1', 'F1', 'J1']",6.1,180,0,0.6361268852394277,[22600|0|0]
22601,1.2638416290283203,-0.31677114963531494,-0.013025501742959023,-0.4353041648864746,0.822802722454071,-0.6170965433120728,4.0703125,0,"['C1', 'F1', 'J1']",6.1,180,0,0.6366153849775281,[22700|0|0]
22701,1.263704538345337,-0.31690695881843567,-0.013028498739004135,-0.4285261332988739,0.8276481032371521,-0.6269525289535522,4.0703125,0,"['C1', 'F1', 'J1']",6.1,180,0,0.6368083797224464,[22800|0|0]
22802,1.2638473510742188,-0.3169187903404236,-0.01274147629737854,-0.42918792366981506,0.8328444957733154,-0.6200801730155945,4.0703125,0,"['C1', 'F1', 'J1']",6.1,180,0,0.637129187051602,[22900|0|0]
22901,1.2638740539550781,-0.3165748119354248,-0.013159351423382759,-0.4355173707008362,0.8366087079048157,-0.6276097893714905,4.0703125,0,"['C1', 'F1', 'J1']",6.1,180,0,0.6376710853888248,[23000|0|0]
23002,1.263559103012085,-0.31658807396888733,-0.012958082370460033,-0.43631917238235474,0.8437004089355469,-0.6231939792633057,4.0703125,0,"['C1', 'F1', 'J1']",6.1,180,0,0.6380450896798272,[23100|0|0]
23101,1.264068365097046,-0.31718865036964417,-0.01266296673566103,-0.42332711815834045,0.8345566391944885,-0.6010350584983826,4.0703125,0,"['C1', 'F1', 'J1']",6.1,180,0,0.6388860017574118,[23200|0|0]
23201,1.2636711597442627,-0.31692028045654297,-0.012642682529985905,-0.4324169456958771,0.8460947871208191,-0.5694722533226013,4.0703125,0,"['C1', 'F1', 'J1']",6.1,180,0,0.6393657995810182,[23300|0|0]
23300,1.2638351917266846,-0.3168328106403351,-0.012590698897838593,-0.4402863681316376,0.8374900221824646,-0.5748578310012817,4.0703125,0,"['C1', 'F1', 'J1']",6.1,180,0,0.6395588274495138,[23400|0|0]
23401,1.2720774412155151,-0.30725595355033875,-0.009639183059334755,-0.6276143789291382,0.7136770486831665,-0.5713813900947571,4.0703125,0,"['C1', 'F1', 'J1']",6.1,180,0,0.6525342778888349,[23500|0|0]
23502,1.2637202739715576,-0.316911906003952,-0.013182006776332855,-0.4377900958061218,0.839590847492218,-0.5903859734535217,4.0703125,0,"['C1', 'F1', 'J1']",6.1,180,0,0.6657868724280049,[23600|0|0]
23602,1.2636966705322266,-0.316834956407547,-0.013223917223513126,-0.4486408829689026,0.831397294998169,-0.5944343209266663,4.0703125,0,"['C1', 'F1', 'J1']",6.1,180,0,0.6658776184930326,[23700|0|0]
23702,1.2626243829727173,-0.31705570220947266,-0.013110044412314892,-0.39480817317962646,0.8990277647972107,-0.6058488488197327,4.0703125,0,"['C1', 'F1', 'J1']",6.1,180,0,0.66697829843583,[23800|0|0]
23800,1.2629321813583374,-0.3171325922012329,-0.01296126376837492,-0.42104417085647583,0.8677787780761719,-0.5822766423225403,4.0703125,0,"['C1', 'F1', 'J1']",6.1,180,0,0.667328709047876,[23900|0|0]
23900,1.2628406286239624,-0.31704166531562805,-0.012742450460791588,-0.44626331329345703,0.8473943471908569,-0.5903247594833374,4.0703125,0,"['C1', 'F1', 'J1']",6.1,180,0,0.6675827343719539,[24000|0|0]
24000,1.2631356716156006,-0.31703057885169983,-0.012791167013347149,-0.46197640895843506,0.8258758187294006,-0.5878881812095642,4.0703125,0,"['C1', 'F1', 'J1']",6.1,180,0,0.6678819777162244,[24100|0|0]
24102,1.2629735469818115,-0.31720176339149475,-0.012654099613428116,-0.4658890962600708,0.8222910165786743,-0.5989577770233154,4.0703125,0,"['C1', 'F1', 'J1']",6.1,180,0,0.668154697381204,[24200|0|0]
24202,1.2629083395004272,-0.3167791962623596,-0.012800890021026134,-0.49582555890083313,0.8128834366798401,-0.5957053899765015,4.0703125,0,"['C1', 'F1', 'J1']",6.1,180,0,0.6686067619982853,[24300|0|0]
24300,1.2631312608718872,-0.3171423077583313,-0.012650392949581146,-0.4852994680404663,0.8045986890792847,-0.5814526677131653,4.0703125,0,"['C1', 'F1', 'J1']",6.1,180,0,0.6690586394870739,[24400|0|0]
24400,1.2628694772720337,-0.3169877827167511,-0.012847570702433586,-0.48489275574684143,0.815477728843689,-0.5872166156768799,4.0703125,0,"['C1', 'F1', 'J1']",6.1,180,0,0.6694209759437652,[24500|0|0]
24500,1.2630517482757568,-0.31664031744003296,-0.012764662504196167,-0.49061986804008484,0.8116501569747925,-0.590346097946167,4.0703125,0,"['C1', 'F1', 'J1']",6.1,180,0,0.6698220103645547,[24600|0|0]
24600,1.2629247903823853,-0.3168778419494629,-0.012685810215771198,-0.4818134307861328,0.8150279521942139,-0.590863049030304,4.0703125,0,"['C1', 'F1', 'J1']",6.1,180,0,0.6701026415863728,[24700|0|0]
24700,1.2631163597106934,-0.3168005347251892,-0.0127554377540946,-0.47933393716812134,0.8132578730583191,-0.5896158218383789,4.0703125,0,"['C1', 'F1', 'J1']",6.1,180,0,0.6703206397711503,[24800|0|0]
24800,1.2631217241287231,-0.3168810307979584,-0.012960577383637428,-0.4795752465724945,0.8198282122612,-0.5965307354927063,4.0703125,0,"['C1', 'F1', 'J1']",6.1,180,0,0.6705410726686974,[24900|0|0]
24900,1.2628169059753418,-0.31700384616851807,-0.0133798997849226,-0.4746863842010498,0.8278339505195618,-0.6155005693435669,4.0703125,0,"['C1', 'F1', 'J1']",6.1,180,0,0.6710738287086407,[25000|0|0]
25000,1.2629621028900146,-0.31699803471565247,-0.013001129031181335,-0.47081783413887024,0.8240237236022949,-0.6111560463905334,4.0703125,0,"['C1', 'F1', 'J1']",6.1,180,0,0.6714795172602473,[25100|0|0]
25100,1.2632224559783936,-0.31671616435050964,-0.013142039068043232,-0.4751240909099579,0.8189476132392883,-0.6060748100280762,4.0703125,0,"['C1', 'F1', 'J1']",6.1,180,0,0.6718882840297659,[25200|0|0]
25200,1.2626591920852661,-0.3167458474636078,-0.01324693113565445,-0.47077155113220215,0.8383461833000183,-0.6018460988998413,4.0703125,0,"['C1', 'F1', 'J1']",6.1,180,0,0.6724619996791533,[25300|0|0]
25300,1.2630813121795654,-0.31681063771247864,-0.012704513035714626,-0.4726123511791229,0.8292459845542908,-0.6140434145927429,4.0703125,0,"['C1', 'F1', 'J1']",6.1,180,0,0.6731523622980011,[25400|0|0]
25400,1.262823462486267,-0.31695038080215454,-0.013134782202541828,-0.46503591537475586,0.8353831768035889,-0.6200075149536133,4.0703125,0,"['C1', 'F1', 'J1']",6.1,180,0,0.6736730792569802,[25500|0|0]
25500,1.2631821632385254,-0.31699541211128235,-0.012785270810127258,-0.46370503306388855,0.8239591717720032,-0.5985793471336365,4.0703125,0,"['C1', 'F1', 'J1']",6.1,180,0,0.6741759234295625,[25600|0|0]
25600,1.2631173133850098,-0.3169288635253906,-0.01253371313214302,-0.46870478987693787,0.8233929872512817,-0.6173677444458008,4.0703125,0,"['C1', 'F1', 'J1']",6.1,180,0,0.6744440940527447,[25700|0|0]
25700,1.2628222703933716,-0.31700846552848816,-0.013016613200306892,-0.4689883589744568,0.8294805884361267,-0.6365904211997986,4.0703125,0,"['C1', 'F1', 'J1']",6.1,180,0,0.6750155652433087,[25800|0|0]
25800,1.2628976106643677,-0.3167959451675415,-0.012870398350059986,-0.4719107747077942,0.8228020071983337,-0.6338600516319275,4.0703125,0,"['C1', 'F1', 'J1']",6.1,180,0,0.6752843027410336,[25900|0|0]
25900,1.2629729509353638,-0.31673091650009155,-0.012706348672509193,-0.4722123146057129,0.8183224201202393,-0.6416423916816711,4.0703125,0,"['C1', 'F1', 'J1']",6.1,180,0,0.6754761807771101,[26000|0|0]
26000,1.2628449201583862,-0.31687507033348083,-0.013271215371787548,-0.46280670166015625,0.82216876745224,-0.6522894501686096,4.0703125,0,"['C1', 'F1', 'J1']",6.1,180,0,0.6760730447444326,[26100|0|0]
26100,1.2628415822982788,-0.31686630845069885,-0.012899084016680717,-0.45952731370925903,0.8193007707595825,-0.6376287937164307,4.0703125,0,"['C1', 'F1', 'J1']",6.1,180,0,0.6764452942002463,[26200|0|0]
26200,1.2627766132354736,-0.3168540596961975,-0.012896275147795677,-0.463180810213089,0.8249094486236572,-0.6371925473213196,4.0703125,0,"['C1', 'F1', 'J1']",6.1,180,0,0.6765114674641302,[26300|0|0]
26300,1.2630548477172852,-0.31693845987319946,-0.012580033391714096,-0.46212124824523926,0.8200342655181885,-0.645788848400116,4.0703125,0,"['C1', 'F1', 'J1']",6.1,180,0,0.6769410564130528,[26400|0|0]
26400,1.2632298469543457,-0.31685516238212585,-0.012496395036578178,-0.45066696405410767,0.8195736408233643,-0.640766978263855,4.0703125,0,"['C1', 'F1', 'J1']",6.1,180,0,0.6771521454450766,[26500|0|0]
26500,1.2635360956192017,-0.31671613454818726,-0.012968459166586399,-0.4518378674983978,0.8314972519874573,-0.6383934020996094,4.0703125,0,"['C1', 'F1', 'J1']",6.1,180,0,0.6777317673271481,[26600|0|0]
26600,1.263612985610962,-0.3169387876987457,-0.01279233768582344,-0.4475874602794647,0.832703709602356,-0.6174079775810242,4.0703125,0,"['C1', 'F1', 'J1']",6.1,180,0,0.678025885113541,[26700|0|0]
26700,1.2637804746627808,-0.31686699390411377,-0.013176046311855316,-0.45424169301986694,0.8255102038383484,-0.6210475564002991,4.0703125,0,"['C1', 'F1', 'J1']",6.1,180,0,0.6784506665174632,[26800|0|0]
26800,1.263846755027771,-0.31675130128860474,-0.012721271254122257,-0.4535876512527466,0.8260924220085144,-0.6214665174484253,4.0703125,0,"['C1', 'F1', 'J1']",6.1,180,0,0.6789245844652165,[26900|0|0]
26900,1.2628958225250244,-0.3170320391654968,-0.012727394700050354,-0.44485437870025635,0.8357219696044922,-0.628401517868042,4.0703125,0,"['C1', 'F1', 'J1']",6.1,180,0,0.679916110499616,[27000|0|0]
27000,1.2636295557022095,-0.3171044588088989,-0.01276253443211317,-0.43962472677230835,0.8374109268188477,-0.6419172883033752,4.0703125,0,"['C1', 'F1', 'J1']",6.1,180,0,0.6806542458400665,[27100|0|0]
27100,1.2637039422988892,-0.31688234210014343,-0.01322647649794817,-0.4488268494606018,0.832435131072998,-0.641940712928772,4.0703125,0,"['C1', 'F1', 'J1']",6.1,180,0,0.6811739683030458,[27200|0|0]
27200,1.2639646530151367,-0.3169781565666199,-0.012777606025338173,-0.45165467262268066,0.8241726160049438,-0.6163399815559387,4.0703125,0,"['C1', 'F1', 'J1']",6.1,180,0,0.6817018273663701,[27300|0|0]
27300,1.2635085582733154,-0.3167632520198822,-0.012964023277163506,-0.46320274472236633,0.8278340697288513,-0.6451479196548462,4.0703125,0,"['C1', 'F1', 'J1']",6.1,180,0,0.6822393752893534,[27400|0|0]
27400,1.2635647058486938,-0.31680402159690857,-0.013055549003183842,-0.4333929717540741,0.8407078385353088,-0.6559165716171265,4.0703125,0,"['C1', 'F1', 'J1']",6.1,180,0,0.6823542302725075,[27500|0|0]
27500,1.2638661861419678,-0.3168129324913025,-0.013019629754126072,-0.4020034372806549,0.860747754573822,-0.659694254398346,4.0703125,0,"['C1', 'F1', 'J1']",6.1,180,0,0.6826579735254767,[27600|0|0]
27600,1.263511061668396,-0.31680378317832947,-0.01302141509950161,-0.3767959773540497,0.8873409628868103,-0.6413034796714783,4.0703125,0,"['C1', 'F1', 'J1']",6.1,180,0,0.6830132203257658,[27700|0|0]
27700,1.2634868621826172,-0.3166101574897766,-0.013222993351519108,-0.368939071893692,0.9010836482048035,-0.6297532916069031,4.0703125,0,"['C1', 'F1', 'J1']",6.1,180,0,0.6832937739107829,[27800|0|0]
27800,1.263419270515442,-0.3169410228729248,-0.013513184152543545,-0.3520713448524475,0.908639669418335,-0.6329401731491089,4.0703125,0,"['C1', 'F1', 'J1']",6.1,180,0,0.68373902803624,[27900|0|0]
27900,1.2636644840240479,-0.316660612821579,-0.013198752887547016,-0.36126312613487244,0.9026868343353271,-0.6630192399024963,4.0703125,0,"['C1', 'F1', 'J1']",6.1,180,0,0.6842264975041105,[28000|0|0]
28000,1.263654112815857,-0.3170912563800812,-0.013118643313646317,-0.34588900208473206,0.904940664768219,-0.6449984312057495,4.0703125,0,"['C1', 'F1', 'J1']",6.1,180,0,0.6846646515640817,[28100|0|0]
28100,1.263529896736145,-0.31686070561408997,-0.013476601801812649,-0.3406231701374054,0.9231265783309937,-0.6252371668815613,4.0703125,0,"['C1', 'F1', 'J1']",6.1,180,0,0.6851081801081558,[28200|0|0]
28200,1.2633284330368042,-0.3167990744113922,-0.013423655182123184,-0.3353269696235657,0.9260844588279724,-0.6316869854927063,4.0703125,0,"['C1', 'F1', 'J1']",6.1,180,0,0.6853254112565544,[28300|0|0]
28300,1.2633960247039795,-0.31694456934928894,-0.012966888956725597,-0.32712894678115845,0.9343042969703674,-0.6220043301582336,4.0703125,0,"['C1', 'F1', 'J1']",6.1,180,0,0.6858095318976027,[28400|0|0]
28400,1.2634210586547852,-0.3170436918735504,-0.012872198596596718,-0.3214714229106903,0.9289255142211914,-0.6155905723571777,4.0703125,0,"['C1', 'F1', 'J1']",6.1,180,0,0.6859488812349182,[28500|0|0]
28500,1.2635055780410767,-0.31686726212501526,-0.012886152602732182,-0.32958143949508667,0.9207360148429871,-0.636703610420227,4.0703125,0,"['C1', 'F1', 'J1']",6.1,180,0,0.686145007972296,[28600|0|0]
28600,1.2635493278503418,-0.3170684278011322,-0.013208433985710144,-0.32791146636009216,0.9147244095802307,-0.6479302048683167,4.0703125,0,"['C1', 'F1', 'J1']",6.1,180,0,0.686527430467545,[28700|0|0]
28700,1.263611078262329,-0.31729957461357117,-0.012697149999439716,-0.3280838429927826,0.9099900126457214,-0.6257464289665222,4.0703125,0,"['C1', 'F1', 'J1']",6.1,180,0,0.6870919242911586,[28800|0|0]
28800,1.2633724212646484,-0.31694892048835754,-0.01304213423281908,-0.34277641773223877,0.9127436280250549,-0.6179400682449341,4.0703125,0,"['C1', 'F1', 'J1']",6.1,180,0,0.6876386688378636,[28900|0|0]
28900,1.263445258140564,-0.3170456290245056,-0.012997042387723923,-0.3428824245929718,0.9147684574127197,-0.6082049608230591,4.0703125,0,"['C1', 'F1', 'J1']",6.1,180,0,0.6877678625913934,[29000|0|0]
29000,1.2634830474853516,-0.3171376883983612,-0.01285094115883112,-0.3374789357185364,0.9198769927024841,-0.6059455871582031,4.0703125,0,"['C1', 'F1', 'J1']",6.1,180,0,0.6879446351344485,[29100|0|0]
29100,1.2634093761444092,-0.316997230052948,-0.012991725467145443,-0.346857488155365,0.9198513031005859,-0.6058246493339539,4.0703125,0,"['C1', 'F1', 'J1']",6.1,180,0,0.6881567111461518,[29200|0|0]
29200,1.2635504007339478,-0.31718432903289795,-0.013103748671710491,-0.35005059838294983,0.9213660955429077,-0.588142454624176,4.0703125,0,"['C1', 'F1', 'J1']",6.1,180,0,0.6884164093585328,[29300|0|0]
29300,1.2637301683425903,-0.31722018122673035,-0.013077878393232822,-0.3499591052532196,0.9166331887245178,-0.5694407224655151,4.06640625,0,"['C1', 'F1', 'J1']",6.1,180,0,0.6886015337605661,[29400|0|0]
29400,1.263566017150879,-0.3169735372066498,-0.013272407464683056,-0.35503438115119934,0.9155516028404236,-0.5861599445343018,4.0703125,0,"['C1', 'F1', 'J1']",6.1,180,0,0.6889559635082186,[29500|0|0]
29500,1.2635189294815063,-0.31699103116989136,-0.013254278339445591,-0.3579699695110321,0.9097864627838135,-0.6163358092308044,4.0703125,0,"['C1', 'F1', 'J1']",6.1,180,0,0.6890093671835482,[29600|0|0]
29600,1.2635931968688965,-0.3171994388103485,-0.01307663880288601,-0.352367103099823,0.9038426280021667,-0.6140333414077759,4.0703125,0,"['C1', 'F1', 'J1']",6.1,180,0,0.6892931015564744,[29700|0|0]
29700,1.2636183500289917,-0.31694668531417847,-0.012937519699335098,-0.3559471666812897,0.9062548279762268,-0.622879147529602,4.0703125,0,"['C1', 'F1', 'J1']",6.1,180,0,0.6895827066950023,[29800|0|0]
29800,1.2635570764541626,-0.31719252467155457,-0.012870815582573414,-0.3483774960041046,0.9082995057106018,-0.63790363073349,4.0703125,0,"['C1', 'F1', 'J1']",6.1,180,0,0.6898447007403552,[29900|0|0]
