time.ms,stateEstimate.x,stateEstimate.y,stateEstimate.z,stabilizer.roll,stabilizer.pitch,stabilizer.yaw,pm.vbat,drone_id,node_name,wind_speed,global_wind_direction,relative_wind_direction,travel_dist,waiting_time,curr_node_role
0,1.8878169059753416,-0.1238525137305259,0.0,0.235218197107315,0.5739778876304626,2.7617812156677246,4.12109375,1,B1,0,None,None,0.0,[6100|0|0],start
100,1.887728929519653,-0.1238101869821548,0.0,0.2360459864139557,0.5728937983512878,2.7514536380767822,4.12109375,1,B1,0,None,None,9.76289423438388e-05,[6200|0|0],start
200,1.8879207372665403,-0.1234455630183219,0.0,0.1228944137692451,0.4523831605911255,2.764829158782959,4.12109375,1,B1,0,None,None,0.0005096251155871,[6300|0|0],start
300,1.8879014253616333,-0.1235454976558685,0.0,0.1389437168836593,0.4725703597068786,2.768775701522827,4.12109375,1,B1,0,None,None,0.0006114086184386,[6400|0|0],start
401,1.8875623941421509,-0.1236218810081482,0.0,0.1638566553592682,0.4899315237998962,2.813815832138061,3.240234375,1,fly,0,None,None,0.0009589378751771,[6400|0|0],fly
501,1.8876231908798216,-0.1230406761169433,0.0,-0.4529246389865875,0.213456317782402,3.331585168838501,3.47265625,1,fly,0,None,None,0.0015433139260826,[6400|0|0],fly
601,1.889217972755432,-0.1221195608377456,0.005260398145765,2.344692707061768,-4.049783706665039,3.640001058578491,3.6796875,1,fly,0,None,None,0.0071167842310465,[6400|0|0],fly
701,1.8976190090179443,-0.1242249906063079,0.0574750378727912,3.577686786651612,-2.0680317878723145,3.1950995922088623,3.7109375,1,fly,0,None,None,0.0600448377246102,[6400|0|0],fly
801,1.910161137580872,-0.1295044124126434,0.132796362042427,2.1168346405029297,1.2704110145568848,1.801315188407898,3.7421875,1,fly,0,None,None,0.1365855403485447,[6400|0|0],fly
901,1.920403957366944,-0.1409928947687149,0.2145173102617263,0.5883768200874329,2.810680389404297,0.9562111496925354,3.7578125,1,fly,0,None,None,0.2197433058420758,[6400|0|0],fly
1001,1.9252721071243288,-0.1533005386590957,0.301027774810791,-0.899855375289917,3.1824750900268555,0.3667205572128296,3.75390625,1,fly,0,None,None,0.3072603753581864,[6400|0|0],fly
1101,1.924639344215393,-0.1631583124399185,0.3893182575702667,-2.01440978050232,2.7945432662963867,0.1708266139030456,3.748046875,1,fly,0,None,None,0.3961017251831079,[6400|0|0],fly
1201,1.9195908308029173,-0.1697012037038803,0.4791832566261291,-2.190869808197021,1.898898959159851,-0.1869172751903534,3.7578125,1,fly,0,None,None,0.4863459215010879,[6400|0|0],fly
1301,1.911878228187561,-0.1722345799207687,0.569223940372467,-2.21297287940979,0.7564527988433838,-0.3520115911960602,3.794921875,1,fly,0,None,None,0.5767518226561936,[6400|0|0],fly
1399,1.903563499450684,-0.1722198873758316,0.6535331606864929,-1.620597004890442,-0.1177066564559936,-0.5066168308258057,3.810546875,1,fly,0,None,None,0.6614700589444785,[6400|0|0],fly
1499,1.895400881767273,-0.1692422330379486,0.7259991765022278,-0.8304092884063721,-0.7092083096504211,-0.7286638021469116,3.81640625,1,fly,0,None,None,0.7344551135858761,[6400|0|0],fly
1599,1.8882615566253664,-0.1654175519943237,0.7835001945495605,-0.2206641286611557,-1.0872304439544678,-0.7378594279289246,3.806640625,1,fly,0,None,None,0.7925237387206855,[6400|0|0],fly
1699,1.8828340768814087,-0.1624030321836471,0.8276970982551575,0.2465802431106567,-1.1579283475875854,-0.8408782482147217,3.794921875,1,fly,0,None,None,0.8371545707006278,[6400|0|0],fly
1799,1.8783867359161377,-0.1591558158397674,0.8589752316474915,0.6599328517913818,-0.8656830191612244,-0.882580041885376,3.7734375,1,fly,0,None,None,0.8689137407803698,[6400|0|0],fly
1899,1.8750146627426147,-0.1573967635631561,0.882287323474884,0.6424434781074524,-0.5917290449142456,-0.4074862003326416,3.76953125,1,fly,0,None,None,0.8925340449225316,[6400|0|0],fly
1999,1.871659517288208,-0.1562811732292175,0.8990014791488647,0.3700520694255829,-0.4174697697162628,-0.7247076630592346,3.763671875,1,fly,0,None,None,0.9096180884341676,[6400|0|0],fly
2099,1.8677870035171509,-0.1545421034097671,0.9113351702690125,0.3609561920166015,-0.1744320094585418,1.2143826484680176,3.7578125,1,fly,0,None,None,0.9226618863240138,[6400|0|0],fly
2199,1.864060044288636,-0.1552200317382812,0.9223506450653076,0.2445311695337295,-0.3228954970836639,2.130610942840576,3.7578125,1,fly,0,None,None,0.9343105127193202,[6400|0|0],fly
2299,1.8602187633514404,-0.1545117497444152,0.930534839630127,-0.0545445345342159,-0.4627538919448852,-0.124854676425457,3.7578125,1,fly,0,None,None,0.943379037588124,[6400|0|0],fly
2399,1.856276035308838,-0.1545557528734207,0.9373509883880616,0.1661150902509689,-0.3999080955982208,-1.3566036224365234,3.7578125,1,fly,0,None,None,0.9512534851613562,[6400|0|0],fly
2499,1.852616548538208,-0.1542472094297409,0.942261278629303,0.0704517811536789,-0.5317886471748352,-1.8518308401107788,3.7578125,1,fly,0,None,None,0.957385205371402,[6400|0|0],fly
2599,1.8490407466888428,-0.1541779786348343,0.9448428750038148,0.1136064231395721,-0.6313508152961731,-1.429397702217102,3.75390625,1,fly,0,None,None,0.9617960773497958,[6400|0|0],fly
2699,1.846056699752808,-0.1549039185047149,0.9462369680404664,0.2500562071800232,-0.66387540102005,-0.7125571370124817,3.75390625,1,fly,0,None,None,0.9651687647361364,[6400|0|0],fly
2799,1.843839764595032,-0.1555229425430297,0.9469719529151917,0.0670875385403633,-0.8244313597679138,-1.0786962509155271,3.75390625,1,fly,0,None,None,0.9675850004489488,[6400|0|0],fly
2899,1.8423084020614624,-0.1565926671028137,0.9473780393600464,-0.1309462040662765,-0.7261831164360046,-1.5837825536727903,3.748046875,1,fly,0,None,None,0.9694966196693272,[6400|0|0],fly
2999,1.8415766954422,-0.1568497568368911,0.9469196200370787,-0.2710223793983459,-0.6357628107070923,-1.795893311500549,3.748046875,1,fly,0,None,None,0.9703975292006958,[6400|0|0],fly
3099,1.8417185544967647,-0.1570113599300384,0.9463520050048828,-0.2102944552898407,-0.547598659992218,-1.832200527191162,3.748046875,1,fly,0,None,None,0.9710045105643732,[6400|0|0],fly
3199,1.8423067331314087,-0.1574945598840713,0.9463309645652772,-0.088996909558773,-0.5679246783256531,-1.7425237894058228,3.748046875,1,fly,0,None,None,0.9717660084316898,[6400|0|0],fly
3299,1.84365463256836,-0.1569091826677322,0.9456582069396972,-0.047825813293457,-0.4252775907516479,-1.622768521308899,3.7421875,1,fly,0,None,None,0.9733822083575402,[6400|0|0],fly
3399,1.8453373908996584,-0.1561189740896225,0.9446877837181092,-0.7761805653572083,0.2260145246982574,-1.231430172920227,3.736328125,1,fly,0,None,None,0.9754793078848564,[6400|0|0],fly
3499,1.8411242961883545,-0.1491388529539108,0.9457982778549194,-13.66274070739746,12.762751579284668,0.8076833486557007,3.7109375,1,fly,0,None,None,0.9837076403613376,[6400|0|0],fly
3599,1.8173450231552124,-0.1210845336318016,0.9460142254829408,-16.135183334350586,15.767101287841797,0.8473959565162659,3.705078125,1,fly,0,None,None,1.020484607229061,[6400|0|0],fly
3699,1.7675633430480957,-0.0659934654831886,0.945138156414032,-16.12494468688965,14.845244407653809,-0.6177592277526855,3.701171875,1,fly,0,None,None,1.0947409804306651,[6400|0|0],fly
3799,1.702276349067688,0.0046184142120182,0.9447600841522216,-11.401702880859377,9.71689510345459,-2.5179922580718994,3.6953125,1,fly,0,None,None,1.1909104770276802,[6400|0|0],fly
3899,1.6201295852661133,0.0966838300228118,0.9500713348388672,-4.056436538696289,2.2202677726745605,-3.524735689163208,3.716796875,1,fly,0,None,None,1.3144108453483554,[6400|0|0],fly
3999,1.5368446111679075,0.1922743320465088,0.9626066088676452,2.5593738555908203,-4.129222393035889,-3.155789852142334,3.736328125,1,fly,0,None,None,1.44181203875979,[6400|0|0],fly
4099,1.462030053138733,0.285840094089508,0.9748629927635192,7.582921504974365,-8.193267822265625,-2.1696791648864746,3.748046875,1,fly,0,None,None,1.5622362425810774,[6400|0|0],fly
4199,1.404891848564148,0.3544824123382568,0.990383505821228,10.177123069763184,-10.534711837768556,-3.6509430408477774,3.7421875,1,fly,0,None,None,1.6528862762387884,[6400|0|0],fly
4299,1.3629071712493896,0.4072957038879394,0.999151051044464,10.482297897338867,-9.693421363830566,-3.593078851699829,3.736328125,1,fly,0,None,None,1.7209217577376184,[6400|0|0],fly
4399,1.3356122970581057,0.4446907937526703,1.0020697116851809,9.14122200012207,-8.072863578796387,-2.222373008728028,3.7265625,1,fly,0,None,None,1.7673105654722971,[6400|0|0],fly
4499,1.320393204689026,0.4657171368598938,1.003406286239624,7.048794746398926,-6.029359340667725,-1.2922364473342896,3.7265625,1,fly,0,None,None,1.793301223573639,[6400|0|0],fly
4599,1.3148415088653564,0.4709486365318298,1.0070061683654783,4.453431606292725,-3.95368218421936,1.945464015007019,3.732421875,1,fly,0,None,None,1.801736214187508,[6400|0|0],fly
4699,1.3141015768051147,0.4746792018413543,1.0088001489639282,1.9800843000411987,-2.0744383335113525,0.6103107929229736,3.732421875,1,fly,0,None,None,1.8059413281419707,[6400|0|0],fly
4799,1.3156143426895142,0.4776188433170318,1.009766697883606,0.3278466165065765,-0.7930411100387573,-0.1585911810398101,3.7265625,1,fly,0,None,None,1.809385768508802,[6400|0|0],fly
4899,1.31643807888031,0.4823460280895233,1.0098704099655151,-0.1659854799509048,0.0738439038395881,-0.622791588306427,3.732421875,1,fly,0,None,None,1.8141853073805307,[6400|0|0],fly
4999,1.3159093856811523,0.4880240857601166,1.0097315311431885,0.0628727748990058,0.3718619346618652,-0.9933956861495972,3.732421875,1,fly,0,None,None,1.8198896165180785,[6400|0|0],fly
5099,1.3137637376785278,0.4939644336700439,1.007975935935974,0.6089497804641724,0.201883390545845,-1.348846435546875,3.7265625,1,fly,0,None,None,1.826445045807892,[6400|0|0],fly
5199,1.310489535331726,0.5005976557731628,1.0052402019500732,1.1348956823349,-0.1855220943689346,-1.5037471055984497,3.7265625,1,fly,0,None,None,1.8343320146121105,[6400|0|0],fly
5299,1.3065799474716189,0.5049384832382202,1.0028564929962158,1.2775832414627075,-0.6998218297958374,-1.6105685234069824,3.7265625,1,fly,0,None,None,1.840641509734067,[6400|0|0],fly
5399,1.303341031074524,0.5083995461463928,0.9999700784683228,1.5255287885665894,-1.0610774755477903,-1.8501681089401243,3.720703125,1,fly,0,None,None,1.846191367814102,[6400|0|0],fly
5499,1.3007439374923706,0.5091005563735962,0.99667090177536,1.558441162109375,-1.3241223096847534,-1.898778796195984,3.720703125,1,fly,0,None,None,1.850448230187317,[6400|0|0],fly
5599,1.299395203590393,0.5088043808937073,0.9931291341781616,1.2177342176437378,-1.4959938526153564,-1.8106873035430908,3.720703125,1,fly,0,None,None,1.8542496668586028,[6400|0|0],fly
5699,1.2999252080917358,0.506840705871582,0.9893750548362732,1.0928465127944946,-1.3963335752487185,-1.8437492847442627,3.720703125,1,fly,0,None,None,1.858519331490533,[6400|0|0],fly
5799,1.3020310401916504,0.5033674836158752,0.9860620498657228,0.8154765963554382,-0.8734182715415955,-1.9985390901565552,3.720703125,1,fly,0,None,None,1.863760877408052,[6400|0|0],fly
5899,1.3051800727844238,0.499031126499176,0.9825969338417052,0.2551580667495727,-0.822570264339447,-1.901695728302002,3.720703125,1,fly,0,None,None,1.8701426818843585,[6400|0|0],fly
5999,1.3088172674179075,0.4948478639125824,0.9786487221717834,0.0612817741930484,-0.1822640001773834,-2.048208713531494,3.716796875,1,fly,0,None,None,1.876948359371629,[6400|0|0],fly
6099,1.312450885772705,0.490175724029541,0.9754629135131836,-0.3052185475826263,-0.0534487068653106,-2.050358295440674,3.716796875,1,fly,0,None,None,1.8836700742007657,[6400|0|0],fly
6199,1.315870761871338,0.4867419898509979,0.971995770931244,-0.1091332733631134,0.0859696939587593,-1.9761409759521484,3.716796875,1,fly,0,None,None,1.889628862720456,[6400|0|0],fly
6299,1.318725824356079,0.4844442009925842,0.969181478023529,-0.1655898541212082,0.172755479812622,-1.9270570278167725,3.7109375,1,fly,0,None,None,1.8942496267265527,[6400|0|0],fly
6399,1.3216289281845093,0.4815529584884643,0.9671767950057985,-0.3263309895992279,0.2375274449586868,-2.0757040977478027,3.90625,1,fly,0,None,None,1.8988109915505784,[6400|0|0],fly
6499,1.324175477027893,0.4783551394939422,0.9514846801757812,0.6793512105941772,0.3626797199249267,-2.069534540176392,3.927734375,1,fly,0,None,None,1.91502683026376,[6400|0|0],fly
6599,1.3262531757354736,0.4749710261821747,0.8973492980003357,-0.3689033389091491,0.4110890626907348,-2.0202770233154297,3.837890625,1,fly,0,None,None,1.969307661669588,[6400|0|0],fly
6699,1.326716423034668,0.4716663360595703,0.8031708002090454,-0.3429798483848572,0.1434463113546371,-1.4584898948669434,3.748046875,1,fly,0,None,None,2.063545260435105,[6400|0|0],fly
6799,1.326491117477417,0.4685622453689575,0.6843259930610657,-0.491261214017868,0.0177672076970338,-0.7502037882804871,3.701171875,1,fly,0,None,None,2.1824308118181484,[6400|0|0],fly
6899,1.3252462148666382,0.4659179151058197,0.5568735003471375,-0.3943451941013336,-0.4206586182117462,0.0127881094813346,3.6796875,1,fly,0,None,None,2.30991681169282,[6400|0|0],fly
6999,1.3254984617233276,0.4641136825084686,0.4331466257572174,-0.2846577167510986,-0.1563208699226379,0.7858424782752991,3.63671875,1,fly,0,None,None,2.4336570976935072,[6400|0|0],fly
7099,1.3262900114059448,0.4622401595115661,0.3221574127674103,0.0243338607251644,-0.2306355983018875,1.491033911705017,3.62109375,1,fly,0,None,None,2.5446649444405582,[6400|0|0],fly
7199,1.328296780586243,0.4615205228328705,0.2309726923704147,0.2691793143749237,-0.4760935008525848,1.7176783084869385,3.626953125,1,fly,0,None,None,2.635874583368528,[6400|0|0],fly
7299,1.3314470052719116,0.4598051011562347,0.1624694317579269,0.6238646507263184,0.1957032978534698,2.073413610458374,3.63671875,1,fly,0,None,None,2.704471691920137,[6400|0|0],fly
7399,1.335200548171997,0.4573716819286346,0.1147555708885192,0.1533765792846679,-0.1379906237125396,2.6123454570770264,3.65234375,1,fly,0,None,None,2.752394787943926,[6400|0|0],fly
7499,1.3395750522613523,0.4547807872295379,0.0834396481513977,0.0199911557137966,0.1812520772218704,3.0902295112609863,3.6640625,1,fly,0,None,None,2.78412074006907,[6400|0|0],fly
7599,1.344667673110962,0.4525964558124542,0.0651132613420486,-0.2364612370729446,0.1138042286038398,3.3032889366149902,3.68359375,1,fly,0,None,None,2.80326656322566,[6400|0|0],fly
7699,1.3494645357131958,0.4506204128265381,0.0556564629077911,-0.2035840600728988,0.296505719423294,3.1692264080047607,3.6953125,1,fly,0,None,None,2.814052928384186,[6400|0|0],fly
7799,1.354069709777832,0.4493442177772522,0.0519949905574321,-0.3278226554393768,0.1416138410568237,2.850105047225952,3.701171875,1,fly,0,None,None,2.820073117894648,[6400|0|0],fly
7899,1.3583428859710691,0.4472576677799225,0.0516353212296962,-0.121486097574234,0.7723879218101501,2.5186026096343994,3.705078125,1,fly,0,None,None,2.824842089240244,[6400|0|0],fly
7999,1.3608015775680542,0.4455276727676391,0.0524014346301555,-0.1817725151777267,1.1123759746551514,1.9890916347503664,3.705078125,1,fly,0,None,None,2.82794450392142,[6400|0|0],fly
8099,1.361772894859314,0.4437386691570282,0.0540641471743583,-0.574758768081665,1.186424732208252,1.4192265272140503,3.705078125,1,fly,0,None,None,2.830572926300667,[6400|0|0],fly
8199,1.361822485923767,0.442541241645813,0.0553913377225399,-0.31189626455307,0.2169197648763656,0.8537733554840088,3.705078125,1,fly,0,None,None,2.8323611451545747,[6400|0|0],fly
8299,1.361563801765442,0.440839409828186,0.0567455850541591,-0.5167348384857178,0.5430498719215393,0.5304551124572754,3.705078125,1,fly,0,None,None,2.834551381412254,[6400|0|0],fly
8399,1.3610889911651611,0.4406325221061706,0.057573027908802,-0.5692492127418518,0.2850389182567596,0.2831454873085022,3.705078125,1,fly,0,None,None,2.835527552152114,[6400|0|0],fly
8499,1.3607745170593262,0.4411893486976623,0.0575527399778366,-0.0863357931375503,0.2985625863075256,0.2055126577615738,3.705078125,1,fly,0,None,None,2.8361673657315074,[6400|0|0],fly
8599,1.3601090908050537,0.4415671527385711,0.0569489449262619,-0.0778141394257545,0.1819125264883041,0.2589494287967682,3.701171875,1,fly,0,None,None,2.83714209464639,[6400|0|0],fly
8699,1.3595412969589231,0.4418045580387115,0.0556556098163127,-0.0692944750189781,0.1157668828964233,0.2955985963344574,3.6953125,1,fly,0,None,None,2.838574388902074,[6400|0|0],fly
8799,1.359062433242798,0.4417082369327545,0.0547264516353607,0.2169818580150604,-0.0192682482302188,0.2450066357851028,3.701171875,1,fly,0,None,None,2.839624114170563,[6400|0|0],fly
8899,1.3593404293060305,0.441972404718399,0.0536892116069793,0.3242742419242859,-0.0354431383311748,0.0089015532284975,3.701171875,1,fly,0,None,None,2.8407299773206054,[6400|0|0],fly
8999,1.3596400022506714,0.4420552551746368,0.0529180839657783,-0.0924588814377784,-0.1755789667367935,-0.3629142045974731,3.6953125,1,fly,0,None,None,2.8415613893642298,[6400|0|0],fly
9099,1.3603794574737549,0.4423590004444122,0.0527234338223934,0.1168560162186622,0.4791989624500274,-0.3603098392486572,3.6953125,1,fly,0,None,None,2.8423841553663083,[6400|0|0],fly
9199,1.3614124059677124,0.4423312842845917,0.0532726235687732,-0.1716901957988739,0.3858707547187805,-0.6189079284667969,3.701171875,1,fly,0,None,None,2.843554351996885,[6400|0|0],fly
9299,1.361584186553955,0.4426668584346771,0.0542141869664192,0.0436660572886467,0.7333394289016724,-0.8564513325691223,3.6953125,1,fly,0,None,None,2.844568580872338,[6400|0|0],fly
9399,1.3618707656860352,0.4435822069644928,0.0542829893529415,-0.0703463926911354,0.1243461519479751,-1.3118494749069214,3.6953125,1,B2,0,None,None,2.845530206734288,[6400|100|0],intermediate
9499,1.3623532056808472,0.4445309638977051,0.0556170865893363,-0.3815730214118957,0.0886340960860252,-1.6471651792526243,3.701171875,1,B2,0,None,None,2.847236871172034,[6400|200|0],intermediate
9599,1.362154483795166,0.4459705650806427,0.0560026876628398,0.119333416223526,-0.0859137848019599,-1.645344376564026,3.6953125,1,B2,0,None,None,2.84874041037726,[6400|300|0],intermediate
9699,1.361844778060913,0.4472201466560364,0.0569768324494361,0.2069483697414398,0.3950272798538208,-1.209406852722168,3.701171875,1,B2,0,None,None,2.8503548235278027,[6400|400|0],intermediate
9799,1.3610247373580933,0.4485939145088196,0.0587232820689678,0.4447430074214935,0.1072345227003097,-0.8237038254737854,3.701171875,1,B2,0,None,None,2.852723323293727,[6400|500|0],intermediate
9899,1.3600342273712158,0.4500054121017456,0.0599268525838851,-0.0521966964006423,0.2434971183538437,-0.677959680557251,3.701171875,1,B2,0,None,None,2.8548261826502506,[6400|600|0],intermediate
9999,1.3578640222549438,0.4512185156345367,0.060061689466238,-0.2131089717149734,0.4463027715682983,-0.6043103337287903,3.6953125,1,B2,0,None,None,2.8573160805222138,[6400|700|0],intermediate
10099,1.355434775352478,0.453982800245285,0.0590539500117301,0.1060515120625495,0.175994724035263,-0.472394585609436,3.689453125,1,B2,0,None,None,2.86113158163354,[6400|800|0],intermediate
10199,1.352731227874756,0.4566971361637115,0.0577489100396633,-0.3715052604675293,0.3842546045780182,-0.1170509979128837,3.689453125,1,B2,0,None,None,2.8651787927438046,[6400|900|0],intermediate
10299,1.3497684001922607,0.4600365757942199,0.0569469071924686,0.0392377525568008,-0.0218217503279447,0.1565153300762176,3.689453125,1,B2,0,None,None,2.8697145852312183,[6400|1000|0],intermediate
10399,1.3472038507461548,0.4648216366767883,0.0566709078848362,-0.4272717833518982,-0.3986213207244873,0.5803897380828857,3.689453125,1,B2,0,None,None,2.875150566939173,[6400|1100|0],intermediate
10499,1.3445473909378052,0.4697174429893493,0.0569524466991424,0.0131193585693836,0.0793815851211547,0.9307193160057068,3.689453125,1,B2,0,None,None,2.880727749226624,[6400|1200|0],intermediate
10599,1.342128038406372,0.4750044047832489,0.0576113238930702,0.3391604125499725,0.0779627114534378,1.3521794080734253,3.689453125,1,B2,0,None,None,2.886579189291957,[6400|1300|0],intermediate
10699,1.339949131011963,0.479515790939331,0.058643776923418,0.071817509829998,-0.4219605922698974,1.5782898664474487,3.689453125,1,B2,0,None,None,2.8916944802653592,[6400|1400|0],intermediate
10799,1.337661623954773,0.4841879308223724,0.0599932447075843,0.1594211757183075,0.2833872735500335,1.6379446983337402,3.689453125,1,B2,0,None,None,2.8970687376953586,[6400|1500|0],intermediate
10899,1.335031032562256,0.4889998435974121,0.0615331903100013,0.2984155118465423,0.1274354159832,1.7995011806488037,3.689453125,1,B2,0,None,None,2.9027648721817783,[6400|1600|0],intermediate
10999,1.3324123620986938,0.4924624562263489,0.0632488429546356,0.2033342570066452,-0.1716839522123336,1.912803173065185,3.689453125,1,B2,0,None,None,2.9074329108718326,[6400|1700|0],intermediate
11099,1.3294451236724854,0.4962839186191559,0.0643939822912216,0.2076503932476043,0.0758627504110336,1.9758641719818115,3.68359375,1,B2,0,None,None,2.9124047739831624,[6400|1800|0],intermediate
11199,1.32680082321167,0.4991238713264465,0.0649496018886566,0.1982497721910476,-0.0903566852211952,2.0849194526672363,3.6796875,1,B2,0,None,None,2.9163247700856822,[6400|1900|0],intermediate
11299,1.3243253231048584,0.5018936991691589,0.0654244497418403,0.2716947197914123,0.2236381769180297,2.039778470993042,3.68359375,1,B2,0,None,None,2.9200698371799763,[6400|2000|0],intermediate
11399,1.3219515085220337,0.5045560598373413,0.0528881847858428,1.4224380254745483,-1.7955163717269895,2.297952890396118,4.015625,1,B2,0,None,None,2.933103681549466,[6400|2100|0],intermediate
11499,1.3210926055908203,0.5041224360466003,0.0,10.080799102783203,-5.845098495483398,3.850058317184448,4.0234375,1,B2,0,None,None,2.986000617507786,[6400|2200|0],intermediate
11599,1.314975023269653,0.5060445666313171,0.0,2.9985427856445312,13.680723190307615,-1.78173565864563,4.02734375,1,B2,0,None,None,2.992413058497063,[6400|2300|0],intermediate
11699,1.315735101699829,0.5048473477363586,0.0,4.382556438446045,12.130578994750977,-1.6446456909179688,4.02734375,1,B2,0,None,None,2.993831174254844,[6400|2400|0],intermediate
11799,1.3173080682754517,0.5031484365463257,0.0,7.508296966552734,8.80274772644043,-1.303710699081421,4.02734375,1,B2,0,None,None,2.996146454600643,[6400|2500|0],intermediate
11899,1.3184325695037842,0.5018547773361206,0.0,9.411351203918455,6.731139659881592,-1.0723930597305298,4.02734375,1,B2,0,None,None,2.997860530784676,[6400|2600|0],intermediate
11999,1.3170605897903442,0.5037029385566711,0.0,5.664149284362793,10.269004821777344,-1.5251916646957395,4.03125,1,B2,0,None,None,3.0001622753906734,[6400|2700|0],intermediate
12099,1.317967176437378,0.5024172067642212,0.0,7.896080017089844,7.907284736633301,-1.2460774183273315,4.03125,1,B2,0,None,None,3.0017354904397675,[6400|2800|0],intermediate
12199,1.3182859420776367,0.5021998882293701,0.0,7.826329231262207,7.83922815322876,-1.2821019887924194,4.03125,1,B2,0,None,None,3.002121286861472,[6400|2900|0],intermediate
12299,1.317252516746521,0.5030018091201782,0.0,6.533833026885986,9.04055118560791,-1.4332846403121948,4.0390625,1,B2,0,None,None,3.003429356060752,[6400|3000|0],intermediate
12399,1.31872296333313,0.5016961097717285,0.0,8.802404403686523,6.7059855461120605,-1.1231708526611328,4.0390625,1,B2,0,None,None,3.00539584123807,[6400|3100|0],intermediate
12499,1.317805528640747,0.5027452111244202,0.0,6.730160713195801,8.665199279785156,-1.395073652267456,4.0390625,1,B2,0,None,None,3.0067895054957043,[6400|3200|0],intermediate
12599,1.3185009956359863,0.5019201636314392,0.0,8.155964851379395,7.214394569396973,-1.1765245199203491,4.0390625,1,B2,0,None,None,3.0078685688428446,[6400|3300|0],intermediate
12699,1.3181580305099487,0.5023761987686157,0.0,7.726118087768555,7.579579830169678,-1.2729638814926147,4.04296875,1,B2,0,None,None,3.008439176522444,[6400|3400|0],intermediate
12799,1.3180080652236938,0.5023927688598633,0.0,7.113160133361816,8.13973617553711,-1.3345651626586914,4.04296875,1,B2,0,None,None,3.008590054469823,[6400|3500|0],intermediate
12899,1.318363904953003,0.5020146369934082,0.0,7.963720321655273,7.275485515594482,-1.2012258768081665,4.04296875,1,B2,0,None,None,3.009109290082415,[6400|3600|0],intermediate
12999,1.3184913396835327,0.5022146105766296,0.0,8.251843452453613,6.8749284744262695,-1.1927571296691897,4.04296875,1,B2,0,None,None,3.009346416724806,[6400|3700|0],intermediate
13099,1.3184179067611694,0.5024701356887817,0.0,8.140719413757324,6.986096382141113,-1.214042067527771,4.04296875,1,B2,0,None,None,3.0096122841297794,[6400|3800|0],intermediate
13199,1.3183904886245728,0.5018182396888733,0.0,7.974395751953125,7.1624016761779785,-1.1982430219650269,4.04296875,1,B2,0,None,None,3.0102647564655234,[6400|3900|0],intermediate
13299,1.318421721458435,0.5019069910049438,0.0,7.87591552734375,7.246279716491699,-1.206134557723999,4.046875,1,B2,0,None,None,3.0103588430533845,[6400|4000|0],intermediate
13399,1.318865418434143,0.502695620059967,0.0,7.6080732345581055,7.290276050567627,-1.228400945663452,4.046875,1,B2,0,None,None,3.011263720278581,[6400|4100|0],intermediate
13499,1.318797588348389,0.5027708411216736,0.0,7.494240283966064,7.313929080963135,-1.2376168966293335,4.046875,1,B2,0,None,None,3.011365007635431,[6400|4200|0],intermediate
13599,1.3185300827026367,0.5027036666870117,0.0,7.715750217437744,7.141648292541504,-1.1929972171783447,4.046875,1,B2,0,None,None,3.011640818576442,[6400|4300|0],intermediate
13699,1.3187416791915894,0.5030238032341003,0.0,7.642152309417725,7.110191822052002,-1.1996876001358032,4.046875,1,B2,0,None,None,3.0120245639124645,[6400|4400|0],intermediate
13799,1.3192030191421509,0.5035993456840515,0.0,7.483165264129639,7.227943897247314,-1.2479950189590454,4.046875,1,B2,0,None,None,3.012762184181763,[6400|4500|0],intermediate
13899,1.3200383186340332,0.5043087005615234,0.0,7.79157018661499,7.048581600189209,-1.2082560062408447,4.046875,1,B2,0,None,None,3.0138580443842216,[6400|4600|0],intermediate
13999,1.3213955163955688,0.5063251852989197,0.0,12.075292587280272,2.5697238445281982,5.803496360778809,4.0546875,1,B2,0,None,None,3.0162887225735484,[6400|4700|0],intermediate
14099,1.3235774040222168,0.5068464875221252,0.0,9.041346549987791,5.760890960693359,9.915518760681152,4.0546875,1,B2,0,None,None,3.018532021399661,[6400|4800|0],intermediate
14199,1.3304551839828491,0.5041130781173706,0.0,1.6681318283081057,12.915657997131348,4.80977201461792,4.0546875,1,B2,0,None,None,3.0259330607969943,[6400|4900|0],intermediate
14299,1.340580701828003,0.5022298693656921,0.0024296981282532,0.4069171845912933,8.2333345413208,6.635714054107666,4.0546875,1,B2,0,None,None,3.0365149330240326,[6400|5000|0],intermediate
14399,1.3674196004867554,0.5227224826812744,0.0043101236224174,-0.5891608595848083,8.540499687194824,4.780619621276856,4.0546875,1,B2,0,None,None,3.0703351885191625,[6400|5100|0],intermediate
14499,1.377512812614441,0.53337562084198,0.0,-1.9566328525543213,9.332809448242188,9.493250846862791,4.0546875,1,B2,0,None,None,3.085630267772506,[6400|5200|0],intermediate
14599,1.370840072631836,0.5359394550323486,0.0,-0.3713811933994293,3.536877393722534,14.23293399810791,4.05859375,1,B2,0,None,None,3.092778603567022,[6400|5300|0],intermediate
14699,1.373689889907837,0.5406535863876343,0.0,-1.1115679740905762,-2.5855255126953125,16.735483169555664,4.0546875,1,B2,0,None,None,3.09828718713646,[6400|5400|0],intermediate
14799,1.3731588125228882,0.5397104024887085,0.0,-1.184292912483215,-2.35235595703125,15.376303672790527,4.05859375,1,B2,0,None,None,3.099369609907838,[6400|5500|0],intermediate
14900,1.3730103969573977,0.5410161018371582,0.0,-1.29303240776062,-2.114329099655152,13.448039054870604,4.05859375,1,B2,0,None,None,3.100683717197454,[6400|5600|0],intermediate
15000,1.37267005443573,0.5412700772285461,0.0,-1.264711856842041,-1.888763666152954,12.00577163696289,4.05859375,1,B2,0,None,None,3.101108377687123,[6400|5700|0],intermediate
15100,1.3724857568740845,0.5408626794815063,0.0,-1.120530605316162,-1.6508501768112185,10.904340744018556,4.05859375,1,B2,0,None,None,3.101555522535602,[6400|5800|0],intermediate
15200,1.3719334602355957,0.5409482717514038,0.0,-0.9939097762107848,-1.4766051769256592,10.058658599853516,4.05859375,1,B2,0,None,None,3.102114412161157,[6400|5900|0],intermediate
15300,1.3720415830612185,0.5407004952430725,0.0,-0.8695146441459656,-1.343709111213684,9.393630027770996,4.05859375,1,B2,0,None,None,3.102384752212761,[6400|6000|0],intermediate
15400,1.3717738389968872,0.5408063530921936,0.0,-0.7639386653900146,-1.189801573753357,8.899735450744629,4.05859375,1,B2,0,None,None,3.102672663254934,[6400|6100|0],intermediate
15500,1.3716402053833008,0.5410194993019104,0.0,-0.6551014184951782,-1.026442050933838,8.523089408874512,4.12890625,1,B2,0,None,None,3.102924236801629,[6400|6200|0],intermediate
15600,1.3711917400360107,0.5406388640403748,0.0,-0.5504214763641357,-0.947682797908783,8.261927604675293,4.12109375,1,B2,0,None,None,3.1035124581630606,[6400|6300|0],intermediate
15700,1.371317744255066,0.5408046841621399,0.0,-0.4846788942813873,-0.8823481202125549,8.076398849487305,4.12890625,1,B2,0,None,None,3.1037207209201774,[6400|6400|0],intermediate
15800,1.3710564374923706,0.540078341960907,0.0,-0.4097211062908172,-0.8228955864906311,7.9479594230651855,4.12890625,1,B2,0,None,None,3.104492636859592,[6400|6500|0],intermediate
15900,1.3709385395050049,0.5402247309684753,0.0,-0.3655726611614227,-0.7702965140342712,7.82232666015625,4.12890625,1,B2,0,None,None,3.104680598762545,[6400|6600|0],intermediate
16001,1.3710466623306274,0.5395722985267639,0.0,-0.3195746541023254,-0.7016233801841736,7.719243049621582,4.12890625,1,B2,0,None,None,3.105341929720854,[6400|6700|0],intermediate
16099,1.3713563680648804,0.5394527316093445,0.0,-0.2861005961894989,-0.6776111125946045,7.629176616668701,4.1328125,1,B2,0,None,None,3.1056739144939542,[6400|6800|0],intermediate
16199,1.3709702491760254,0.5393044352531433,0.0,-0.2625105381011963,-0.6461676955223083,7.552144050598144,4.1328125,1,B2,0,None,None,3.106087532198596,[6400|6900|0],intermediate
16299,1.37092125415802,0.5390650629997253,0.0,-0.2477020025253296,-0.639777660369873,7.483763694763184,4.1328125,1,B2,0,None,None,3.106331867188918,[6400|7000|0],intermediate
16399,1.3708399534225464,0.5390628576278687,0.0,-0.2344948351383209,-0.6352651715278625,7.451521873474121,4.1328125,1,B2,0,None,None,3.1064131978304594,[6400|7100|0],intermediate
16499,1.3709832429885864,0.5391802787780762,0.0,-0.2303766161203384,-0.6375377178192139,7.41986608505249,4.1328125,1,B2,0,None,None,3.1065984534005566,[6400|7200|0],intermediate
16599,1.3707581758499146,0.5394490957260132,0.0,-0.2339573353528976,-0.6286830306053162,7.380817890167236,4.1328125,1,B2,0,None,None,3.106949049704599,[6400|7300|0],intermediate
16699,1.3706363439559937,0.539473831653595,0.0,-0.2301903516054153,-0.6277346014976501,7.368357181549072,4.13671875,1,B2,0,None,None,3.107073367348116,[6400|7400|0],intermediate
16799,1.3706732988357544,0.5389759540557861,0.0,-0.2178754806518554,-0.6270571947097778,7.379136085510254,4.13671875,1,B2,0,None,None,3.1075726145469447,[6400|7500|0],intermediate
16899,1.3706365823745728,0.5391770601272583,0.0,-0.2268804609775543,-0.63075852394104,7.375884056091309,4.13671875,1,B2,0,None,None,3.1077770448541515,[6400|7600|0],intermediate
16999,1.3708300590515137,0.5395127534866333,0.0,-0.2361525744199752,-0.6459729671478271,7.354826927185059,4.13671875,1,B2,0,None,None,3.108164502278972,[6400|7700|0],intermediate
17099,1.371035933494568,0.539389431476593,0.0,-0.2403881996870041,-0.6462613940238953,7.364227771759033,4.13671875,1,B2,0,None,None,3.1084044868711094,[6400|7800|0],intermediate
17199,1.370598316192627,0.5392935872077942,0.0,-0.2451228350400924,-0.6371942162513733,7.348555088043213,4.13671875,1,B2,0,None,None,3.1088524768562875,[6400|7900|0],intermediate
17299,1.3707679510116575,0.5392249822616577,0.0,-0.2446323335170745,-0.6395339369773865,7.35598087310791,4.13671875,1,B2,0,None,None,3.1090354593977003,[6400|8000|0],intermediate
17399,1.3706916570663452,0.5390611886978149,0.0,-0.2454324215650558,-0.645466148853302,7.343920707702637,4.14453125,1,B2,0,None,None,3.10921615001076,[6400|8100|0],intermediate
17499,1.370987892150879,0.5392070412635803,0.0,-0.2479888200759887,-0.6564250588417053,7.332878112792969,4.13671875,1,B2,0,None,None,3.1095463441903703,[6400|8200|0],intermediate
17599,1.3707420825958252,0.5394686460494995,0.0,-0.253589004278183,-0.65212482213974,7.339676380157471,4.13671875,1,B2,0,None,None,3.109905314107454,[6400|8300|0],intermediate
17699,1.3711795806884766,0.5394197106361389,0.0,-0.2375669926404953,-0.6503128409385681,7.349908828735352,4.14453125,1,B2,0,None,None,3.1103455404762177,[6400|8400|0],intermediate
17799,1.3708678483963013,0.5391793847084045,0.0,-0.2272392660379409,-0.6285325884819031,7.339600563049316,4.14453125,1,B2,0,None,None,3.110739156499172,[6400|8500|0],intermediate
17899,1.3708162307739258,0.538902997970581,0.0,-0.2129695564508438,-0.6226491928100586,7.33081579208374,4.14453125,1,B2,0,None,None,3.111020321944745,[6400|8600|0],intermediate
17999,1.371000051498413,0.5390506386756897,0.0,-0.2085754573345184,-0.6227493286132812,7.357206344604492,4.14453125,1,B2,0,None,None,3.1112560926735395,[6400|8700|0],intermediate
18099,1.3709418773651123,0.5394062995910645,0.0,-0.2172781080007553,-0.6177985072135925,7.34644079208374,4.14453125,1,B2,0,None,None,3.1116164798493804,[6400|8800|0],intermediate
18199,1.3710792064666748,0.5388510227203369,0.0,-0.2059797644615173,-0.6201615333557129,7.343337535858154,4.14453125,1,B2,0,None,None,3.1121884865672613,[6400|8900|0],intermediate
18299,1.3705976009368896,0.5393932461738586,0.0,-0.2230482399463653,-0.6113520264625549,7.360738277435303,4.14453125,1,B2,0,None,None,3.1129137107807763,[6400|9000|0],intermediate
18399,1.3709561824798584,0.5394030213356018,0.0,-0.2289432287216186,-0.627934992313385,7.350995063781738,4.14453125,1,B2,0,None,None,3.1132724255375748,[6400|9100|0],intermediate
18499,1.3712430000305176,0.5392216444015503,0.0,-0.2266667038202285,-0.6356924176216125,7.337333679199219,4.14453125,1,B2,0,None,None,3.113611780660672,[6400|9200|0],intermediate
18599,1.3706330060958862,0.5393316149711609,0.0,-0.2376822680234909,-0.6239829659461975,7.341611862182617,4.14453125,1,B2,0,None,None,3.114231608158019,[6400|9300|0],intermediate
18699,1.3706204891204834,0.5391641855239868,0.0,-0.2335585206747055,-0.6346648335456848,7.338365077972412,4.1484375,1,B2,0,None,None,3.114399504835932,[6400|9400|0],intermediate
18799,1.3705987930297852,0.5389979481697083,0.0,-0.2284142971038818,-0.6370603442192078,7.322635173797607,4.1484375,1,B2,0,None,None,3.1145671520199496,[6400|9500|0],intermediate
18899,1.3710269927978516,0.5391480326652527,0.0,-0.2363042533397674,-0.6523284912109375,7.311691284179687,4.1484375,1,B2,0,None,None,3.1150208924712817,[6400|9600|0],intermediate
18999,1.3710421323776243,0.5391169190406799,0.0,-0.2355106770992279,-0.6516921520233154,7.318915367126465,4.1484375,1,B2,0,None,None,3.1150554939815054,[6400|9700|0],intermediate
19099,1.371183156967163,0.5393628478050232,0.0,-0.2466370165348053,-0.6523253321647644,7.302946090698242,4.1484375,1,B2,0,None,None,3.1153389880590203,[6400|9800|0],intermediate
19199,1.370783805847168,0.5390214323997498,0.0,-0.2376223504543304,-0.6417686343193054,7.329373359680176,4.1484375,1,B2,0,None,None,3.1158643886642725,[6400|9900|0],intermediate
19299,1.3709386587142944,0.5393297076225281,0.0,-0.2405210137367248,-0.6392285227775574,7.321412563323975,4.1484375,1,B2,0,None,None,3.116209371306497,[6400|10000|0],intermediate
19399,1.3708587884902954,0.5394448041915894,0.0,-0.2466586083173751,-0.6405465006828308,7.314235687255859,4.1484375,1,B2,0,None,None,3.116349465820634,[6400|10100|0],intermediate
19499,1.3708168268203735,0.5393848419189453,0.0,-0.2475944459438324,-0.6370141506195068,7.297034740447998,4.1484375,1,B2,0,None,None,3.116422652266669,[6400|10200|0],intermediate
19599,1.370693564414978,0.5390866994857788,0.0,-0.2439386695623397,-0.6294270157814026,7.302971839904785,4.1484375,1,B2,0,None,None,3.116745270510168,[6400|10300|0],intermediate
19699,1.3707150220870972,0.5393438935279846,0.0,-0.248541310429573,-0.6336331963539124,7.307190418243408,4.15234375,1,B2,0,None,None,3.1170033581058383,[6400|10400|0],intermediate
19799,1.371095895767212,0.5388950109481812,0.0,-0.2378051429986953,-0.6479637622833252,7.315364360809326,4.15234375,1,B2,0,None,None,3.1175920518553,[6400|10500|0],intermediate
19899,1.37107253074646,0.53927081823349,0.0,-0.2522208392620086,-0.6752917766571045,7.37261438369751,3.330078125,1,fly,0,None,None,3.117968584775356,[6400|10500|0],fly
19999,1.3707778453826904,0.5388017296791077,0.0,3.0073156356811523,-0.0080907205119729,6.668799877166748,3.626953125,1,fly,0,None,None,3.118522555474466,[6400|10500|0],fly
20099,1.3707603216171265,0.5297899842262268,0.0187191069126129,6.232670307159424,-2.823208332061768,6.081419944763184,3.642578125,1,fly,0,None,None,3.1392979454057213,[6400|10500|0],fly
20199,1.3756322860717771,0.5125810503959656,0.0705986768007278,1.191687822341919,-0.0382367372512817,3.975468158721924,3.6796875,1,fly,0,None,None,3.194173925697626,[6400|10500|0],fly
20299,1.37938129901886,0.4937860071659088,0.1407233625650406,-1.277348279953003,2.561210870742798,2.148336410522461,3.7109375,1,fly,0,None,None,3.2668704201223275,[6400|10500|0],fly
20399,1.379735231399536,0.4782436788082123,0.2229790985584259,-2.404055118560791,2.9775779247283936,1.1513924598693848,3.720703125,1,fly,0,None,None,3.3505823986123984,[6400|10500|0],fly
20499,1.375158667564392,0.4675654470920563,0.3097127079963684,-2.395282745361328,2.112622261047364,0.7646503448486328,3.720703125,1,fly,0,None,None,3.4380906186563154,[6400|10500|0],fly
20599,1.3679615259170532,0.4603205323219299,0.3995673954486847,-2.249239444732666,1.0594083070755005,0.0388758741319179,3.7265625,1,fly,0,None,None,3.5285237569136583,[6400|10500|0],fly
20699,1.3597774505615234,0.4570094347000122,0.4903304576873779,-2.1240742206573486,0.1643102318048477,-0.8745222687721252,3.720703125,1,fly,0,None,None,3.619715181531501,[6400|10500|0],fly
20799,1.353746771812439,0.4568282663822174,0.5812897086143494,-1.435870885848999,-0.6356302499771118,-1.8287649154663088,3.7265625,1,fly,0,None,None,3.7108743129300055,[6400|10500|0],fly
20899,1.3484337329864502,0.4586283266544342,0.6715560555458069,-0.5622311234474182,-0.6710383296012878,-2.464002847671509,3.76953125,1,fly,0,None,None,3.801314801578068,[6400|10500|0],fly
20999,1.3455891609191897,0.4613630771636963,0.7555126547813416,0.1918262690305709,-0.7539239525794983,-2.8942530155181885,3.78515625,1,fly,0,None,None,3.8853640788253454,[6400|10500|0],fly
21099,1.3444358110427856,0.4636520743370056,0.8279439210891724,0.5299723744392395,-0.3592284023761749,-3.099686622619629,3.78515625,1,fly,0,None,None,3.957840682380927,[6400|10500|0],fly
21199,1.3436813354492188,0.4648573100566864,0.8853802680969238,0.5549537539482117,-0.3381052613258362,-2.57169508934021,3.779296875,1,fly,0,None,None,4.015294627277306,[6400|10500|0],fly
21299,1.3429826498031616,0.4657833576202392,0.9281244874000548,0.4884562492370605,0.0411217547953128,-1.876338243484497,3.763671875,1,fly,0,None,None,4.05805458529361,[6400|10500|0],fly
21399,1.3414361476898191,0.4664275646209717,0.9582961201667786,0.4013411700725555,0.3867024481296539,-0.9118283987045288,3.748046875,1,fly,0,None,None,4.088272694024244,[6400|10500|0],fly
21499,1.339164137840271,0.4673271775245666,0.9775867462158204,0.0324336551129817,0.3283481299877167,0.0491728894412517,3.7421875,1,fly,0,None,None,4.107717477013435,[6400|10500|0],fly
21599,1.336317777633667,0.4685356616973877,0.9915160536766052,0.0421296432614326,0.1999316364526748,0.7292352914810181,3.732421875,1,fly,0,None,None,4.12198589692451,[6400|10500|0],fly
21699,1.332707762718201,0.4701260030269623,1.0010182857513428,0.0361201241612434,-0.059273786842823,1.067299485206604,3.732421875,1,fly,0,None,None,4.132274424887082,[6400|10500|0],fly
21799,1.3295389413833618,0.4720853269100189,1.007490634918213,0.2475833296775818,-0.1841089278459549,1.0028774738311768,3.7265625,1,fly,0,None,None,4.139742468972967,[6400|10500|0],fly
21899,1.3263438940048218,0.4749852418899536,1.011157512664795,0.1802557855844497,-0.6165125370025635,0.7630780935287476,3.720703125,1,fly,0,None,None,4.145404961979616,[6400|10500|0],fly
21999,1.323655366897583,0.4776243567466736,1.0144357681274414,0.356445699930191,-0.5353208780288696,0.5093739032745361,3.720703125,1,fly,0,None,None,4.150398964794162,[6400|10500|0],fly
22099,1.3212335109710691,0.480232298374176,1.0173910856246948,0.4293360710144043,-0.4411236643791199,0.32696732878685,3.720703125,1,fly,0,None,None,4.155025048145208,[6400|10500|0],fly
22199,1.3205076456069946,0.4828468561172485,1.019176959991455,0.44649338722229,-0.505713164806366,0.1159354001283645,3.720703125,1,fly,0,None,None,4.158273453903803,[6400|10500|0],fly
22299,1.3196057081222534,0.4858901798725128,1.0204718112945557,0.4515193402767181,-0.4019506275653839,0.0450760573148727,3.716796875,1,fly,0,None,None,4.161701565716868,[6400|10500|0],fly
22399,1.31947922706604,0.487779438495636,1.0207980871200562,0.7273733019828796,-0.3411721289157867,0.0336588844656944,3.716796875,1,fly,0,None,None,4.163622958835657,[6400|10500|0],fly
22499,1.3192124366760254,0.4895194768905639,1.0204845666885376,0.7673580646514893,-0.3210640549659729,-0.2564716041088104,3.716796875,1,fly,0,None,None,4.165411032041376,[6400|10500|0],fly
22599,1.319610595703125,0.4913487732410431,1.019392013549805,0.8150448203086853,-0.355177491903305,-0.6574138402938843,3.716796875,1,fly,0,None,None,4.167578640887476,[6400|10500|0],fly
22699,1.320512294769287,0.4924724102020263,1.018160104751587,0.6851787567138672,-0.3493624031543731,-0.9277462363243104,3.716796875,1,fly,0,None,None,4.169474220090024,[6400|10500|0],fly
22799,1.3212755918502808,0.4927766025066376,1.0159003734588623,0.5733456015586853,-0.359830766916275,-1.3500094413757324,3.7109375,1,fly,0,None,None,4.171878703591185,[6400|10500|0],fly
22899,1.3227301836013794,0.4930545687675476,1.014278769493103,-0.5443845391273499,1.0364696979522705,-1.474211573600769,3.7109375,1,fly,0,None,None,4.174074768669076,[6400|10500|0],fly
22999,1.3169745206832886,0.4985691010951996,1.0117031335830688,-9.884322166442873,13.627815246582031,-0.0677786022424697,3.701171875,1,fly,0,None,None,4.182451619077223,[6400|10500|0],fly
23099,1.292203664779663,0.5167481899261475,1.006453275680542,-8.98732852935791,16.097192764282227,0.0134254191070795,3.689453125,1,fly,0,None,None,4.213622688691825,[6400|10500|0],fly
23199,1.2412525415420532,0.5496081113815308,0.9980944395065308,-6.171043395996094,16.776758193969727,-0.151098221540451,3.6796875,1,fly,0,None,None,4.274824498627578,[6400|10500|0],fly
23299,1.16482675075531,0.5902773141860962,0.9904254078865052,-2.427767038345337,12.006752967834473,-0.6836782097816467,3.6796875,1,fly,0,None,None,4.361736520811663,[6400|10500|0],fly
23399,1.0713951587677002,0.6333444118499756,0.9870580434799194,0.9732447862625122,4.127790451049805,-1.0447230339050293,3.68359375,1,fly,0,None,None,4.4646713372032805,[6400|10500|0],fly
23499,0.9739332795143129,0.6724128723144531,0.9890785217285156,3.4330356121063232,-2.877946376800537,-1.311317801475525,3.701171875,1,fly,0,None,None,4.5696915487961896,[6400|10500|0],fly
23599,0.8840521574020386,0.7043284177780151,0.9949668645858764,3.820326089859009,-8.304641723632812,-1.9869414567947388,3.705078125,1,fly,0,None,None,4.665252475623027,[6400|10500|0],fly
23699,0.8097674250602722,0.7311294674873352,1.0020772218704224,4.124177932739258,-10.946359634399414,-2.6149215698242188,3.7109375,1,fly,0,None,None,4.744543552708177,[6400|10500|0],fly
23799,0.7539339065551758,0.7461510896682739,1.0058149099349976,3.56166672706604,-11.037437438964844,-3.7275662422180176,3.705078125,1,fly,0,None,None,4.802483187101863,[6400|10500|0],fly
23899,0.717042088508606,0.7549248933792114,1.005510330200195,2.341120958328247,-9.821205139160156,-3.964282989501953,3.6953125,1,fly,0,None,None,4.840405194421546,[6400|10500|0],fly
23999,0.696467399597168,0.7595628499984741,1.003571391105652,1.3115242719650269,-7.178860664367676,-3.710838079452514,3.689453125,1,fly,0,None,None,4.861585089374471,[6400|10500|0],fly
24099,0.6869101524353027,0.7618569731712341,1.0006401538848877,0.259763091802597,-4.491911888122559,-3.2352166175842285,3.68359375,1,fly,0,None,None,4.871841605648975,[6400|10500|0],fly
24199,0.6839934587478638,0.7640096545219421,0.9986287355422974,-0.1312822699546814,-2.021772861480713,-2.7093656063079834,3.6953125,1,fly,0,None,None,4.875987319437087,[6400|10500|0],fly
24299,0.6836169958114624,0.7664331197738647,0.9983838200569152,-0.1678236424922943,-0.26079261302948,-2.494196653366089,3.6953125,1,fly,0,None,None,4.878452048989135,[6400|10500|0],fly
24399,0.6819180250167847,0.7696903347969055,0.9982840418815612,-0.1969422101974487,0.5253912210464478,-2.3479745388031006,3.6953125,1,fly,0,None,None,4.88212708737693,[6400|10500|0],fly
24499,0.6789224743843079,0.7735168933868408,0.9984115958213806,0.3066004812717438,0.6871359944343567,-1.9915026426315308,3.701171875,1,fly,0,None,None,4.886988377765449,[6400|10500|0],fly
24599,0.6734051704406738,0.7766590714454651,0.99761563539505,0.5119693875312805,0.2263751924037933,-1.83222246170044,3.6953125,1,fly,0,None,None,4.893387399468711,[6400|10500|0],fly
24699,0.6665175557136536,0.7797312140464783,0.9969075322151184,0.4087440371513366,-0.4528156816959381,-1.8341985940933228,3.689453125,1,fly,0,None,None,4.900962272860541,[6400|10500|0],fly
24799,0.6600571870803833,0.7823270559310913,0.9960010051727296,0.522016167640686,-1.065447211265564,-1.996525406837464,3.6953125,1,fly,0,None,None,4.907983422997537,[6400|10500|0],fly
24899,0.6543106436729431,0.7838951349258423,0.9947779178619384,0.4185436964035034,-1.5018391609191897,-2.420957326889038,3.689453125,1,fly,0,None,None,4.914064341960753,[6400|10500|0],fly
24999,0.650596022605896,0.7848265767097473,0.9932888150215148,0.3612072467803955,-1.556031584739685,-2.6383328437805176,3.689453125,1,fly,0,None,None,4.91817328595379,[6400|10500|0],fly
25099,0.6489100456237793,0.7855663299560547,0.9915888905525208,0.3106833696365356,-1.5945425033569336,-2.6579861640930176,3.6953125,1,fly,0,None,None,4.920679178299828,[6400|10500|0],fly
25199,0.6487475037574768,0.7862884402275085,0.9898893237113952,0.1971794068813324,-1.262537121772766,-2.7088334560394287,3.689453125,1,fly,0,None,None,4.922532928701013,[6400|10500|0],fly
25299,0.6505441069602966,0.7868435382843018,0.9886178374290466,0.2189230024814605,-0.931808590888977,-2.7474899291992188,3.689453125,1,fly,0,None,None,4.9248028613624015,[6400|10500|0],fly
25399,0.652855634689331,0.7872152328491211,0.986821174621582,0.2481432110071182,-0.7325505614280701,-2.7606592178344727,3.689453125,1,fly,0,None,None,4.927754016142371,[6400|10500|0],fly
25499,0.656319797039032,0.7876941561698914,0.9846721291542052,0.2151319980621338,-0.3557197153568268,-2.5629165172576904,3.68359375,1,fly,0,None,None,4.931858670178111,[6400|10500|0],fly
25599,0.6599521040916443,0.7883079051971436,0.982723355293274,0.3020397126674652,-0.2786174714565277,-2.266301155090332,3.68359375,1,fly,0,None,None,4.9360261708624495,[6400|10500|0],fly
25699,0.6631439328193665,0.7892622947692871,0.9807468056678772,0.2369804680347442,-0.0103204408660531,-2.0600619316101074,3.689453125,1,fly,0,None,None,4.939899848508329,[6400|10500|0],fly
25799,0.6664976477622986,0.7898087501525879,0.9782750606536864,0.166709616780281,-0.2088224440813064,-1.846290111541748,3.68359375,1,fly,0,None,None,4.944101698198592,[6400|10500|0],fly
25899,0.6695985794067383,0.7903962731361389,0.97470623254776,0.2913455069065094,0.203754112124443,-1.845348834991455,3.900390625,1,fly,0,None,None,4.9488658869405855,[6400|10500|0],fly
25999,0.6721889972686768,0.7908921837806702,0.9538995623588562,0.9506348371505736,0.0385485105216503,-1.6840221881866455,3.875,1,fly,0,None,None,4.969839053521162,[6400|10500|0],fly
26099,0.6739972233772278,0.7910128831863403,0.8929781913757324,0.6022256016731262,0.7386862635612488,-1.3893084526062012,3.794921875,1,fly,0,None,None,5.030787373370601,[6400|10500|0],fly
26199,0.673681378364563,0.7903004288673401,0.7968084812164307,0.5047295093536377,0.272493451833725,-1.0922471284866333,3.705078125,1,fly,0,None,None,5.126960241173078,[6400|10500|0],fly
26299,0.6720790863037109,0.7896208763122559,0.6792728304862976,0.3588051199913025,-0.4276902675628662,-0.5814635157585144,3.673828125,1,fly,0,None,None,5.244508777208536,[6400|10500|0],fly
26399,0.6713262796401978,0.7869696021080017,0.5546419024467468,1.1900665760040283,-0.1760447472333908,-0.5004965662956238,3.658203125,1,fly,0,None,None,5.369170175390885,[6400|10500|0],fly
26499,0.6710817217826843,0.7821429967880249,0.4317285716533661,0.4751603305339813,-0.3400277197360992,-1.317496418952942,3.611328125,1,fly,0,None,None,5.492178479233282,[6400|10500|0],fly
26599,0.6714588403701782,0.7762038111686707,0.3207995593547821,-0.0833564698696136,-1.1209709644317627,-3.325165033340454,3.599609375,1,fly,0,None,None,5.603267011106692,[6400|10500|0],fly
26699,0.6729062795639038,0.7698633074760437,0.2258391082286834,0.7031338214874268,0.3457854986190796,-5.887225151062012,3.611328125,1,fly,0,None,None,5.698449910544396,[6400|10500|0],fly
26799,0.6733691692352295,0.7616914510726929,0.1495839953422546,1.022697925567627,1.5306109189987185,-9.182862281799316,3.62109375,1,fly,0,None,None,5.775143037650068,[6400|10500|0],fly
26899,0.6717660427093506,0.7532508373260498,0.0897582992911338,-2.866283178329468,-1.697683334350586,-11.969717979431152,3.630859375,1,fly,0,None,None,5.835582493993413,[6400|10500|0],fly
26999,0.6751940846443176,0.7491528391838074,0.0436406806111335,-6.942078590393066,-5.241711616516113,-14.358229637145996,3.6484375,1,fly,0,None,None,5.882008562241711,[6400|10500|0],fly
27099,0.6893395185470581,0.7548865079879761,0.0069864378310739,-3.2410900592803955,-2.709230422973633,-13.570222854614258,3.599609375,1,fly,0,None,None,5.921713747948773,[6400|10500|0],fly
27199,0.7072864174842834,0.7610978484153748,0.0,2.2338595390319824,2.947136163711548,-10.581376075744627,3.611328125,1,fly,0,None,None,5.941949415591218,[6400|10500|0],fly
27299,0.7248337864875793,0.7670565843582153,0.0,2.6623778343200684,3.551236629486084,-5.57102108001709,3.65234375,1,fly,0,None,None,5.960480921006977,[6400|10500|0],fly
27399,0.7330802083015442,0.7660708427429199,0.013480907306075,2.498396158218384,4.424728870391846,-1.660688877105713,3.6953125,1,fly,0,None,None,5.976314746225823,[6400|10500|0],fly
27499,0.7346428632736206,0.7595617175102234,0.0389127880334854,1.960789442062378,2.6637206077575684,1.1564955711364746,3.716796875,1,fly,0,None,None,6.002612867055835,[6400|10500|0],fly
27599,0.731331467628479,0.7513137459754944,0.0597317777574062,-0.2403638660907745,2.9331295490264893,3.4825186729431152,3.701171875,1,fly,0,None,None,6.025249666933051,[6400|10500|0],fly
27699,0.7243218421936035,0.7421690225601196,0.0730565786361694,-0.1314492970705032,0.5530620217323303,4.695984363555908,3.701171875,1,fly,0,None,None,6.042865317177639,[6400|10500|0],fly
27799,0.7160347104072571,0.7339254021644592,0.0773580744862556,-1.746740698814392,0.5166766047477722,6.161032199859619,3.6796875,1,fly,0,None,None,6.055320705450203,[6400|10500|0],fly
27899,0.7071501016616821,0.7292649745941162,0.0767900422215461,-3.0266435146331787,-0.8019569516181946,6.877024173736572,3.66796875,1,fly,0,None,None,6.065369512262661,[6400|10500|0],fly
27999,0.6996101140975952,0.7283686995506287,0.0744761377573013,-0.7609688639640808,-2.091947555541992,6.627503871917725,3.66796875,1,fly,0,None,None,6.073307325266872,[6400|10500|0],fly
28099,0.6956197023391724,0.7288267016410828,0.0720269158482551,-1.0389775037765503,-2.058390617370605,5.382813453674316,3.6640625,1,fly,0,None,None,6.078011774211899,[6400|10500|0],fly
28199,0.6938184499740601,0.7285051345825195,0.0690088272094726,-1.26578688621521,-1.861739158630371,3.158104658126831,3.6640625,1,fly,0,None,None,6.081541189813316,[6400|10500|0],fly
28299,0.6959670782089233,0.7310723662376404,0.0672049596905708,-0.3309961855411529,-0.6642833948135376,0.6141495108604431,3.6640625,1,fly,0,None,None,6.085343980852599,[6400|10500|0],fly
28399,0.6997436285018921,0.7342124581336975,0.065080352127552,-0.7736322283744812,-0.8474103808403015,-0.7967796325683594,3.6640625,1,fly,0,None,None,6.090695285976383,[6400|10500|0],fly
28499,0.7046098113059998,0.7380039095878601,0.0638534277677536,-0.2091935724020004,0.1261338740587234,-1.3817209005355835,3.6640625,1,fly,0,None,None,6.096984974569384,[6400|10500|0],fly
28599,0.7101047039031982,0.742117702960968,0.0640185996890068,-0.3713056743144989,0.4057450890541076,-1.6959214210510254,3.6640625,1,fly,0,None,None,6.103851154171968,[6400|10500|0],fly
28699,0.7143012881278992,0.7461861371994019,0.0649743005633354,0.5958201289176941,0.5472798943519592,-1.5084633827209473,3.6640625,1,fly,0,None,None,6.109773724599465,[6400|10500|0],fly
28799,0.7177724838256836,0.749573826789856,0.0654105767607688,0.4051421880722046,1.0004671812057495,-0.9338691830635072,3.6640625,1,fly,0,None,None,6.114643629860765,[6400|10500|0],fly
28899,0.7203251719474792,0.7517932653427124,0.0665763542056083,0.5464151501655579,1.4772497415542605,-0.2153251320123672,3.6640625,1,F1,0,None,None,6.118221500902036,[6400|10500|100],destination
28999,0.7200050950050354,0.7534583210945129,0.0674423724412918,0.6833952069282532,0.9845712780952454,0.2475215345621109,3.6640625,1,F1,0,None,None,6.120125404127051,[6400|10500|200],destination
29099,0.7183519005775452,0.7539559006690979,0.0690842717885971,-0.0477004759013652,0.5477828979492188,0.763115406036377,3.6640625,1,F1,0,None,None,6.122507938641976,[6400|10500|300],destination
29200,0.7158072590827942,0.754977285861969,0.0700778439640998,0.1410904079675674,0.9194517135620116,1.424577236175537,3.6640625,1,F1,0,None,None,6.125424377175009,[6400|10500|400],destination
29300,0.711976170539856,0.7563808560371399,0.0724540203809738,0.0748368799686431,0.0800173506140708,1.7924654483795166,3.6640625,1,F1,0,None,None,6.130145972564765,[6400|10500|500],destination
29400,0.7078643441200256,0.7584779262542725,0.0743191391229629,-0.0534403026103973,0.3040470480918884,2.077500343322754,3.6640625,1,F1,0,None,None,6.135124274275602,[6400|10500|600],destination
29500,0.7035894393920898,0.7609695792198181,0.0764622464776039,-0.1146867796778678,0.3002232313156128,2.31906795501709,3.66796875,1,F1,0,None,None,6.140516495901903,[6400|10500|700],destination
29600,0.698694109916687,0.7643994688987732,0.0778896957635879,-0.2836573719978332,0.0715997070074081,2.222929716110229,3.6640625,1,F1,0,None,None,6.14666190112423,[6400|10500|800],destination
29701,0.6930403709411621,0.7685612440109253,0.0787603929638862,-0.1061571314930915,0.2071342468261718,2.0833523273468018,3.6640625,1,F1,0,None,None,6.153736026519083,[6400|10500|900],destination
29800,0.6874153017997742,0.7739015817642212,0.0786330625414848,-0.1948136687278747,0.1109140440821647,1.9889148473739624,3.6640625,1,F1,0,None,None,6.161493398703086,[6400|10500|1000],destination
29900,0.6820275783538818,0.7796381115913391,0.0779518857598304,0.0306343343108892,-0.0175394508987665,2.053570032119751,3.658203125,1,F1,0,None,None,6.169392724003052,[6400|10500|1100],destination
30001,0.6765152215957642,0.7856740951538086,0.0782149136066436,-0.0808508694171905,-0.3740969002246856,2.10906982421875,3.6640625,1,F1,0,None,None,6.177571254326,[6400|10500|1200],destination
30100,0.6716609001159668,0.7920946478843689,0.0790632739663124,-0.0916246548295021,-0.0590110383927822,2.0431559085845947,3.658203125,1,F1,0,None,None,6.185664933940056,[6400|10500|1300],destination
30201,0.6670919060707092,0.7990462779998779,0.0805819109082222,-0.278522789478302,-0.035607885569334,1.7429602146148682,3.6640625,1,F1,0,None,None,6.194121122561993,[6400|10500|1400],destination
30301,0.6628241539001465,0.8067038655281067,0.0809353590011596,0.135584756731987,0.0651700496673584,1.4825166463851929,3.6640625,1,F1,0,None,None,6.202894792312801,[6400|10500|1500],destination
30401,0.6572707295417786,0.8147741556167603,0.0815658643841743,-0.1828324496746063,0.2061644792556762,1.3766027688980105,3.658203125,1,F1,0,None,None,6.212711494470712,[6400|10500|1600],destination
30501,0.6527811884880066,0.8228077292442322,0.0817719995975494,0.031354296952486,0.1873204261064529,1.5626250505447388,3.658203125,1,F1,0,None,None,6.221916752524005,[6400|10500|1700],destination
30601,0.6474751830101013,0.8315107226371765,0.0816216319799423,-0.0952983051538467,0.1722636967897415,1.8085377216339111,3.658203125,1,F1,0,None,None,6.232110789925821,[6400|10500|1800],destination
30699,0.6426063179969788,0.8398700952529907,0.0814599022269249,0.0226726680994033,0.0858251750469207,1.7073209285736084,3.65234375,1,F1,0,None,None,6.241786073568126,[6400|10500|1900],destination
30799,0.6372590065002441,0.848646879196167,0.0801731273531913,0.045236237347126,0.2002199441194534,1.7436954975128174,3.916015625,1,F1,0,None,None,6.25214375024796,[6400|10500|2000],destination
30899,0.632392168045044,0.8575586676597595,0.0616206042468547,1.255276083946228,-0.9242032766342164,1.9331330060958865,3.990234375,1,F1,0,None,None,6.273293270426441,[6400|10500|2100],destination
30999,0.6272512078285217,0.8647297620773315,0.0,6.039471626281738,-3.617234230041504,2.630356788635254,3.990234375,1,F1,0,None,None,6.335542390378783,[6400|10500|2200],destination
31099,0.620525062084198,0.8721904158592224,0.0,-3.054161071777344,0.1346156150102615,3.9120161533355713,3.990234375,1,F1,0,None,None,6.345587408618046,[6400|10500|2300],destination
31199,0.6205008625984192,0.871962308883667,0.0,-3.160605192184448,0.1788488775491714,3.8247220516204834,3.99609375,1,F1,0,None,None,6.345816795643418,[6400|10500|2400],destination
31299,0.6203668713569641,0.8718093037605286,0.0,-3.139832258224488,0.2199444472789764,3.715744733810425,4.0,1,F1,0,None,None,6.346020177600566,[6400|10500|2500],destination
31399,0.6205704808235168,0.8714234232902527,0.0,-3.1043953895568848,0.2296064794063568,3.641232967376709,4.0,1,F1,0,None,None,6.346456480880647,[6400|10500|2600],destination
31499,0.6204859614372253,0.8717509508132935,0.0,-3.0980935096740723,0.2250761985778808,3.5893120765686035,4.0,1,F1,0,None,None,6.346794737890934,[6400|10500|2700],destination
31599,0.6205899715423584,0.8716890215873718,0.0,-3.054274559020996,0.2236165404319763,3.53237247467041,4.0,1,F1,0,None,None,6.346915788834727,[6400|10500|2800],destination
31699,0.6206614971160889,0.8713859915733337,0.0,-2.99298357963562,0.2325890809297561,3.5096113681793213,4.0078125,1,F1,0,None,None,6.347227145699281,[6400|10500|2900],destination
31799,0.6205320954322815,0.8716480135917664,0.0,-2.957409143447876,0.2463035732507705,3.4847068786621094,4.0078125,1,F1,0,None,None,6.347519379054523,[6400|10500|3000],destination
31899,0.6206544041633606,0.8713898062705994,0.0,-2.9079763889312744,0.2401727586984634,3.4577503204345703,4.0078125,1,F1,0,None,None,6.347805089478558,[6400|10500|3100],destination
31999,0.6208198666572571,0.8713313937187195,0.0,-2.8672499656677246,0.2481071203947067,3.463590383529663,4.01171875,1,F1,0,None,None,6.347980559883765,[6400|10500|3200],destination
32099,0.6207115650177002,0.8717078566551208,0.0,-2.828015089035034,0.2589597105979919,3.4521024227142334,4.01171875,1,F1,0,None,None,6.348372291408683,[6400|10500|3300],destination
32199,0.6204900741577148,0.8713052272796631,0.0,-2.785181999206543,0.2729071974754333,3.450023889541626,4.01171875,1,F1,0,None,None,6.34883182227276,[6400|10500|3400],destination
32299,0.6204650402069092,0.8715704083442688,0.0,-2.76621413230896,0.2884159088134765,3.4242515563964844,4.01171875,1,F1,0,None,None,6.349098182359331,[6400|10500|3500],destination
32399,0.620292603969574,0.8716373443603516,0.0,-2.74542236328125,0.2922372221946716,3.4186601638793945,4.015625,1,F1,0,None,None,6.349283154482083,[6400|10500|3600],destination
32499,0.6207914352416992,0.8711419701576233,0.0,-2.715409517288208,0.2887927889823913,3.430387496948242,4.015625,1,F1,0,None,None,6.349986168165292,[6400|10500|3700],destination
