time.ms,stateEstimate.x,stateEstimate.y,stateEstimate.z,stabilizer.roll,stabilizer.pitch,stabilizer.yaw,pm.vbat,drone_id,node_name,wind_speed,global_wind_direction,relative_wind_direction,travel_dist,waiting_time,curr_node_role
0,1.3300940990447998,-0.3122378587722778,0.0,0.1412336230278015,0.7448934316635132,-12.602269172668455,4.14453125,2,C1,0,None,None,0.0,[6200|0|0],start
100,1.3300734758377075,-0.3122446537017822,0.0,0.2397587299346923,0.753662645816803,-12.584125518798828,4.14453125,2,C1,0,None,None,2.1713768391086023e-05,[6300|0|0],start
200,1.3300833702087402,-0.3125657439231872,0.0,0.3170249164104461,0.7483213543891907,-12.582412719726562,4.13671875,2,C1,0,None,None,0.0003429564007735,[6400|0|0],start
300,1.329716444015503,-0.3125218451023102,0.0,0.3694359064102173,0.7584026455879211,-12.543373107910156,4.13671875,2,C1,0,None,None,0.0007124992775253,[6500|0|0],start
400,1.3300189971923828,-0.3116748929023742,0.0,0.343710333108902,0.7374416589736938,-12.546504020690918,4.14453125,2,C1,0,None,None,0.0016118693091678,[6600|0|0],start
500,1.3300389051437378,-0.3119096457958221,0.0,0.4143142104148865,0.7430193424224854,-12.549985885620115,4.13671875,2,C1,0,None,None,0.0018474648259106,[6700|0|0],start
600,1.330081343650818,-0.3117731213569641,0.0,0.4534759819507599,0.7449840903282166,-12.54013729095459,4.14453125,2,C1,0,None,None,0.0019904331765644,[6800|0|0],start
700,1.3299148082733154,-0.3125644624233246,0.0,0.4970734417438507,0.743217408657074,-12.521662712097168,4.14453125,2,C1,0,None,None,0.0027991078424644,[6900|0|0],start
800,1.329950928688049,-0.3124887943267822,0.0,0.4972252547740936,0.731972873210907,-12.524369239807127,4.13671875,2,C1,0,None,None,0.0028829549962317,[7000|0|0],start
900,1.3306983709335327,-0.3125686645507812,0.0,0.4993481040000915,0.730932891368866,-12.533561706542969,4.14453125,2,C1,0,None,None,0.0036346525171903,[7100|0|0],start
1000,1.330547332763672,-0.3128872811794281,0.0,0.5101027488708496,0.7338145971298218,-12.503777503967283,4.14453125,2,C1,0,None,None,0.0039872558138356,[7200|0|0],start
1100,1.3304095268249512,-0.3127512633800506,0.0,0.5081706047058105,0.7411738038063049,-12.52640438079834,4.13671875,2,C1,0,None,None,0.0041808825642971,[7300|0|0],start
1200,1.3223143815994265,-0.3217640221118927,0.0,0.698453962802887,0.8192312717437744,-12.526090621948242,4.14453125,2,C1,0,None,None,0.0162953861109031,[7400|0|0],start
1300,1.3305712938308716,-0.3125131130218506,0.0,0.4911052584648132,0.7432770729064941,-12.545835494995115,4.14453125,2,C1,0,None,None,0.0286952215368276,[7500|0|0],start
1400,1.3305091857910156,-0.3126916587352752,0.0,0.4900875091552734,0.73909592628479,-12.533942222595217,4.13671875,2,C1,0,None,None,0.0288842611633535,[7600|0|0],start
1500,1.3222311735153198,-0.321798026561737,0.0,0.6877133846282959,0.8199692964553833,-12.547481536865234,4.14453125,2,C1,0,None,None,0.0411908212931131,[7700|0|0],start
1600,1.3225176334381104,-0.3222478628158569,0.0,0.6929790377616882,0.8058686256408691,-12.53879451751709,4.14453125,2,C1,0,None,None,0.0417241241553647,[7800|0|0],start
1700,1.3224425315856934,-0.3219688832759857,0.0,0.6851985454559326,0.8111874461174011,-12.52676773071289,4.13671875,2,C1,0,None,None,0.0420130356849083,[7900|0|0],start
1800,1.330857515335083,-0.3127787411212921,0.0,0.4764111638069153,0.7239695191383362,-12.529559135437012,4.14453125,2,C1,0,None,None,0.0544738006825305,[8000|0|0],start
1900,1.3225823640823364,-0.3220577239990234,0.0,0.6768829226493835,0.8043200373649597,-12.52079963684082,4.14453125,2,C1,0,None,None,0.0669067267862707,[8100|0|0],start
2000,1.3223543167114258,-0.3215905129909515,0.0,0.6575238704681396,0.8008987903594971,-12.528409957885742,4.13671875,2,C1,0,None,None,0.0674266226695423,[8200|0|0],start
2100,1.3300985097885132,-0.3119791448116302,0.0,0.171183630824089,0.6044616103172302,-12.544219970703123,4.14453125,2,C1,0,None,None,0.079769674346242,[8300|0|0],start
2200,1.330107569694519,-0.3121050596237182,0.0,0.2263728678226471,0.6251276731491089,-12.546991348266602,4.14453125,2,C1,0,None,None,0.0798959146797333,[8400|0|0],start
2300,1.3218450546264648,-0.3218567967414856,0.0,0.5929785966873169,0.7763829231262207,-12.536199569702148,4.13671875,2,C1,0,None,None,0.0926773673383267,[8500|0|0],start
2400,1.3218379020690918,-0.321902722120285,0.0,0.6210695505142212,0.7961329221725464,-12.54436206817627,4.14453125,2,C1,0,None,None,0.092723846360421,[8600|0|0],start
2501,1.321791172027588,-0.3220619559288025,0.0,0.6476129293441772,0.801146924495697,-12.556689262390137,4.13671875,2,C1,0,None,None,0.0928897954566944,[8700|0|0],start
2601,1.3218183517456057,-0.3221198916435241,0.0,0.6575148701667786,0.8025903701782227,-12.56672191619873,4.13671875,2,C1,0,None,None,0.0929537898635737,[8800|0|0],start
2700,1.3216382265090942,-0.3218426406383514,0.0,0.6585651636123657,0.8112380504608154,-12.539209365844728,4.14453125,2,C1,0,None,None,0.0932844153627379,[8900|0|0],start
2800,1.321729302406311,-0.3220099508762359,0.0,0.6596059799194336,0.8085812926292419,-12.500984191894531,4.13671875,2,C1,0,None,None,0.0934749082359768,[9000|0|0],start
2901,1.3216989040374756,-0.3218177258968353,0.0,0.6561307311058044,0.8126407265663147,-12.513625144958496,4.13671875,2,C1,0,None,None,0.0936695219650234,[9100|0|0],start
3001,1.321707844734192,-0.3218626976013183,0.0,0.6607649326324463,0.8106103539466858,-12.520462036132812,4.13671875,2,C1,0,None,None,0.0937153737944512,[9200|0|0],start
3101,1.3216018676757812,-0.3222168385982513,0.0,0.6734035015106201,0.8132278919219971,-12.521758079528809,4.14453125,2,C1,0,None,None,0.0940850317209428,[9300|0|0],start
3201,1.3217047452926636,-0.3221599161624908,0.0,0.6645815372467041,0.8114430904388428,-12.526681900024414,4.13671875,2,C1,0,None,None,0.0942026070914432,[9400|0|0],start
3301,1.3216938972473145,-0.3218819499015808,0.0,0.6518388986587524,0.8078115582466125,-12.53895378112793,4.14453125,2,C1,0,None,None,0.0944807849523383,[9500|0|0],start
3401,1.321760177612305,-0.3220575451850891,0.0,0.6468071341514587,0.802007257938385,-12.53399658203125,4.14453125,2,C1,0,None,None,0.0946684729657372,[9600|0|0],start
3501,1.3298609256744385,-0.3127011358737945,0.0,0.3532065153121948,0.6754526495933533,-12.540715217590332,4.13671875,2,C1,0,None,None,0.1070444381550322,[9700|0|0],start
3602,1.3300111293792725,-0.3120662868022918,0.0,0.3764089941978454,0.6925030946731567,-12.539437294006348,4.14453125,2,C1,0,None,None,0.1076968141942409,[9800|0|0],start
3701,1.3223227262496948,-0.3221373558044433,0.0,0.7614767551422119,0.8572661280632019,-12.55054759979248,4.14453125,2,C1,0,None,None,0.1203671722605702,[9900|0|0],start
3802,1.3223576545715332,-0.3220907747745514,0.0,0.7656994462013245,0.8642444014549255,-12.548022270202637,4.13671875,2,C1,0,None,None,0.1204253940778918,[10000|0|0],start
3902,1.322320580482483,-0.3221146762371063,0.0,0.7674335241317749,0.8720530867576599,-12.541993141174316,4.14453125,2,C1,0,None,None,0.1204695049381325,[10100|0|0],start
4002,1.321570634841919,-0.3223843872547149,0.0,0.7771634459495544,0.8631746768951416,-12.51335906982422,4.13671875,2,C1,0,None,None,0.1212664757637092,[10200|0|0],start
4102,1.3223038911819458,-0.3221014440059662,0.0,0.7754694819450378,0.869844913482666,-12.518346786499023,4.13671875,2,C1,0,None,None,0.1220524285245047,[10300|0|0],start
4202,1.3222832679748535,-0.3221469819545746,0.0,0.7800273299217224,0.8732284903526306,-12.49647617340088,4.13671875,2,C1,0,None,None,0.1221024187378893,[10400|0|0],start
4302,1.3214545249938965,-0.3222653269767761,0.0,0.7772246599197388,0.8655285239219666,-12.51368236541748,4.13671875,2,C1,0,None,None,0.1229395689470903,[10500|0|0],start
4400,1.322298884391785,-0.3223372399806976,0.0,0.775820791721344,0.864349901676178,-12.505819320678713,4.13671875,2,C1,0,None,None,0.1237869851806707,[10600|0|0],start
4502,1.3223625421524048,-0.3223100304603576,0.0,0.7767844200134277,0.8688865303993225,-12.51681423187256,4.13671875,2,C1,0,None,None,0.1238562142820968,[10700|0|0],start
4602,1.322316288948059,-0.3223741352558136,0.0,0.7820907235145569,0.8661898374557495,-12.506891250610352,4.13671875,2,C1,0,None,None,0.1239352635307504,[10800|0|0],start
4702,1.322373867034912,-0.3224590122699737,0.0,0.7777560949325562,0.8494129776954651,-12.510000228881836,4.13671875,2,C1,0,None,None,0.1240378273821718,[10900|0|0],start
4800,1.3224663734436035,-0.3222297430038452,0.0,0.766142725944519,0.8513549566268921,-12.530517578125,4.13671875,2,C1,0,None,None,0.1242850556816039,[11000|0|0],start
4900,1.322230577468872,-0.3220959305763244,0.0,0.7629867196083069,0.8522961139678955,-12.537679672241213,4.13671875,2,C1,0,None,None,0.1245561746729316,[11100|0|0],start
5000,1.3224045038223269,-0.3218504190444946,0.0,0.5854191184043884,0.7653341293334961,-12.536418914794922,4.13671875,2,C1,0,None,None,0.124857050542166,[11200|0|0],start
5100,1.3224501609802246,-0.3216076493263244,0.0,0.6112863421440125,0.7820051908493042,-12.525176048278809,4.13671875,2,C1,0,None,None,0.1251040762738777,[11300|0|0],start
5200,1.322449803352356,-0.3219783008098602,0.0,0.6580562591552734,0.7932305932044983,-12.524815559387209,4.13671875,2,C1,0,None,None,0.1254747279299444,[11400|0|0],start
5300,1.3226890563964844,-0.3216688632965088,0.0,0.6535096168518066,0.7992161512374878,-12.530593872070312,4.13671875,2,C1,0,None,None,0.1258658718852777,[11500|0|0],start
5400,1.322569489479065,-0.3220746517181396,0.0,0.6703367829322815,0.8019374012947083,-12.528863906860352,4.13671875,2,C1,0,None,None,0.1262889091068916,[11600|0|0],start
5500,1.3224072456359863,-0.3220591247081756,0.0,0.6731979846954346,0.801433801651001,-12.520063400268556,4.13671875,2,C1,0,None,None,0.126451894237058,[11700|0|0],start
5600,1.3224722146987915,-0.3218574225902557,0.0,0.6701836585998535,0.803530216217041,-12.515703201293944,4.13671875,2,C1,0,None,None,0.126663801583545,[11800|0|0],start
5700,1.3224365711212158,-0.3218882381916046,0.0,0.6763553619384766,0.80024653673172,-12.525930404663086,4.13671875,2,C1,0,None,None,0.1267109191589165,[11900|0|0],start
5800,1.3224743604660034,-0.3218095302581787,0.0,0.6789749264717102,0.8070312738418579,-12.530415534973145,4.13671875,2,C1,0,None,None,0.1267982287996422,[12000|0|0],start
5900,1.3224053382873535,-0.3218294978141784,0.0,0.6809888482093811,0.8107542395591736,-12.529763221740724,4.13671875,2,C1,0,None,None,0.1268700811791309,[12100|0|0],start
6000,1.3224080801010132,-0.3222299516201019,0.0,0.6846625804901123,0.8050129413604736,-12.519007682800291,4.13671875,2,C1,0,None,None,0.1272705443712231,[12200|0|0],start
6100,1.3224737644195557,-0.3221125602722168,0.0,0.6787187457084656,0.8014189004898071,-12.50527286529541,4.13671875,2,C1,0,None,None,0.1274050626163078,[12300|0|0],start
6200,1.3223421573638916,-0.3217459321022033,0.0,0.6633377075195312,0.7978765964508057,-12.511651992797852,4.13671875,2,C1,0,None,None,0.1277945964815211,[12400|0|0],start
6300,1.322396159172058,-0.3218972384929657,0.0,0.6642049551010132,0.7959976196289062,-12.52462387084961,4.13671875,2,C1,0,None,None,0.1279552508283991,[12500|0|0],start
6400,1.322197198867798,-0.3218243718147278,0.0,0.6648991107940674,0.7959926128387451,-12.532926559448242,4.13671875,2,C1,0,None,None,0.1281671346538051,[12600|0|0],start
6500,1.3223435878753662,-0.3219909369945526,0.0,0.6713091135025024,0.7820776700973511,-12.534610748291016,4.13671875,2,C1,0,None,None,0.1283888860927336,[12700|0|0],start
6600,1.3214068412780762,-0.3221622109413147,0.0,0.7214447259902954,0.830169677734375,-12.53927993774414,4.13671875,2,C1,0,None,None,0.1293411617631011,[12800|0|0],start
6700,1.3219099044799805,-0.3220807313919067,0.0,0.6852927207946777,0.8034695386886597,-12.518247604370115,4.13671875,2,C1,0,None,None,0.1298507807404577,[12900|0|0],start
6800,1.3214093446731567,-0.3221380412578583,0.0,0.6602379679679871,0.8061969876289368,-12.512653350830078,4.13671875,2,C1,0,None,None,0.1303546106134732,[13000|0|0],start
6900,1.3223364353179932,-0.3219021558761596,0.0,0.6409119367599487,0.7952293157577515,-12.528858184814451,4.13671875,2,C1,0,None,None,0.1313112395786641,[13100|0|0],start
7000,1.322417378425598,-0.3221415281295776,0.0,0.6305913925170898,0.7892175912857056,-12.530316352844238,4.13671875,2,C1,0,None,None,0.1315639268604476,[13200|0|0],start
7100,1.3224579095840454,-0.3219636976718902,0.0,0.6139062643051147,0.7854329347610474,-12.528983116149902,4.13671875,2,C1,0,None,None,0.1317463177771249,[13300|0|0],start
7200,1.3225113153457642,-0.3220095038414001,0.0,0.617511510848999,0.777495265007019,-12.524044036865234,4.13671875,2,C1,0,None,None,0.1318166767179209,[13400|0|0],start
7300,1.322474241256714,-0.3221674263477325,0.0,0.6141613721847534,0.7697070240974426,-12.518227577209473,4.13671875,2,C1,0,None,None,0.131978892642186,[13500|0|0],start
7400,1.3224724531173706,-0.3222267627716064,0.0,0.6188730001449585,0.7701348662376404,-12.521224975585938,4.13671875,2,C1,0,None,None,0.1320382560032807,[13600|0|0],start
7500,1.3218282461166382,-0.3221737444400787,0.0,0.6222120523452759,0.7739464044570923,-12.510537147521973,4.13671875,2,C1,0,None,None,0.1326846410303896,[13700|0|0],start
7600,1.3226134777069092,-0.3222912549972534,0.0,0.6273359060287476,0.776149570941925,-12.530150413513184,4.13671875,2,C1,0,None,None,0.133478616711004,[13800|0|0],start
7700,1.3225955963134766,-0.3220180869102478,0.0,0.6204692125320435,0.7822182774543762,-12.542525291442873,4.13671875,2,C1,0,None,None,0.1337523694242132,[13900|0|0],start
7800,1.3225653171539309,-0.3220697343349457,0.0,0.6137672662734985,0.7725394368171692,-12.53355312347412,4.13671875,2,C1,0,None,None,0.1338122383141371,[14000|0|0],start
7900,1.3225860595703125,-0.3220095634460449,0.0,0.6165233850479126,0.7679232954978943,-12.526446342468262,4.13671875,2,C1,0,None,None,0.1338758840815412,[14100|0|0],start
8000,1.3225125074386597,-0.3222280740737915,0.0,0.6246404051780701,0.773339569568634,-12.52134132385254,4.13671875,2,C1,0,None,None,0.1341064416893291,[14200|0|0],start
8100,1.3222979307174685,-0.3219063282012939,0.0,0.6273305416107178,0.7878499627113342,-12.51651382446289,4.13671875,2,C1,0,None,None,0.134493176192246,[14300|0|0],start
8200,1.3223724365234375,-0.3221355974674225,0.0,0.678778886795044,0.7927398681640625,-12.50949764251709,4.13671875,2,C1,0,None,None,0.1347342477822649,[14400|0|0],start
8300,1.322201132774353,-0.3219661712646484,0.0,0.7006837725639343,0.8179105520248413,-12.501300811767578,4.13671875,2,C1,0,None,None,0.1349751838996007,[14500|0|0],start
8400,1.322240710258484,-0.3217285275459289,0.0,0.7157688736915588,0.8203108906745911,-12.504197120666504,4.13671875,2,C1,0,None,None,0.1352161007198872,[14600|0|0],start
8500,1.3222917318344116,-0.3218477070331573,0.0,0.7316358685493469,0.8210791945457458,-12.519068717956545,4.13671875,2,C1,0,None,None,0.1353457423466363,[14700|0|0],start
8600,1.3223328590393066,-0.3219968974590301,0.0,0.7429031133651733,0.8216149806976318,-12.521994590759276,4.13671875,2,C1,0,None,None,0.1355004977347641,[14800|0|0],start
8700,1.322315335273743,-0.322397768497467,0.0,0.7636352181434631,0.8334804177284241,-12.522856712341309,4.13671875,2,C1,0,None,None,0.1359017516092837,[14900|0|0],start
8800,1.3224692344665527,-0.3223555386066437,0.0,0.765814483165741,0.8396854996681213,-12.537795066833496,4.13671875,2,C1,0,None,None,0.1360613395951299,[15000|0|0],start
8900,1.322339653968811,-0.3220216631889343,0.0,0.7600116729736328,0.8453522324562073,-12.53853702545166,4.13671875,2,C1,0,None,None,0.1364194790930153,[15100|0|0],start
9000,1.3222758769989014,-0.3220970034599304,0.0,0.766524076461792,0.8503269553184509,-12.516839027404783,4.13671875,2,C1,0,None,None,0.136518189063761,[15200|0|0],start
9100,1.3225609064102173,-0.3223046362400055,0.0,0.7715764045715332,0.8476858735084534,-12.534581184387209,4.13671875,2,C1,0,None,None,0.1368708264648926,[15300|0|0],start
9200,1.322519302368164,-0.3222799599170685,0.0,0.771210253238678,0.858522891998291,-12.519794464111328,4.13671875,2,C1,0,None,None,0.1369191981221813,[15400|0|0],start
9300,1.3222283124923706,-0.322054922580719,0.0,0.7690600752830505,0.8717027306556702,-12.525547981262209,4.13671875,2,C1,0,None,None,0.1372870525914562,[15500|0|0],start
9400,1.3224481344223022,-0.3223516941070556,0.0,0.7817400693893433,0.8702482581138611,-12.526158332824709,4.13671875,2,C1,0,None,None,0.1376563695552191,[15600|0|0],start
9500,1.322383999824524,-0.3223206400871277,0.0,0.7780600786209106,0.8688275814056396,-12.53907871246338,4.13671875,2,C1,0,None,None,0.1377276268270296,[15700|0|0],start
9600,1.3225998878479004,-0.3220531344413757,0.0,0.5884025692939758,0.769442617893219,-12.525919914245604,4.13671875,2,C1,0,None,None,0.1380713809675815,[15800|0|0],start
9700,1.3226008415222168,-0.3220630288124084,0.0,0.6158014535903931,0.7861737012863159,-12.535072326660156,4.13671875,2,C1,0,None,None,0.1380813211925707,[15900|0|0],start
9800,1.3227839469909668,-0.3216938376426697,0.0,0.6224904656410217,0.7948482632637024,-12.534664154052734,4.13671875,2,C1,0,None,None,0.1384934252237317,[16000|0|0],start
9900,1.3224966526031494,-0.3220906257629394,0.0,0.6521074771881104,0.8106127977371216,-12.53439235687256,4.13671875,2,C1,0,None,None,0.1389833016139145,[16100|0|0],start
10000,1.3223897218704224,-0.3218773603439331,0.0,0.6679531335830688,0.817063570022583,-12.542881965637209,4.13671875,2,C1,0,None,None,0.1392218730299423,[16200|0|0],start
10100,1.3222606182098389,-0.3218800723552704,0.0,0.67421555519104,0.8211767077445984,-12.546753883361816,4.13671875,2,C1,0,None,None,0.1393510051722677,[16300|0|0],start
10200,1.3223038911819458,-0.3219863772392273,0.0,0.6801961064338684,0.8153706789016724,-12.545453071594238,4.13671875,2,C1,0,None,None,0.1394657800757442,[16400|0|0],start
10300,1.3231697082519531,-0.3217532038688659,0.0,0.6719583868980408,0.8026260137557983,-12.564557075500488,4.13671875,2,C1,0,None,None,0.1403624455760072,[16500|0|0],start
10400,1.3231335878372192,-0.3217585384845733,0.0,0.6797667741775513,0.8025679588317871,-12.555045127868652,4.13671875,2,C1,0,None,None,0.1403989577997862,[16600|0|0],start
10500,1.323017954826355,-0.3217368721961975,0.0,0.6778903007507324,0.8037291765213013,-12.543349266052246,4.13671875,2,C1,0,None,None,0.1405166031195126,[16700|0|0],start
10600,1.3230712413787842,-0.3219407498836517,0.0,0.6813615560531616,0.799453616142273,-12.541255950927734,4.13671875,2,C1,0,None,None,0.1407273294066992,[16800|0|0],start
10700,1.3232190608978271,-0.3219634294509887,0.0,0.6806336641311646,0.7928141355514526,-12.557595252990724,4.13671875,2,C1,0,None,None,0.1408768786393441,[16900|0|0],start
10800,1.3230628967285156,-0.3216701447963714,0.0,0.6691638231277466,0.7990120053291321,-12.544838905334473,4.13671875,2,C1,0,None,None,0.1412091483135709,[17000|0|0],start
10900,1.3232049942016602,-0.3221683800220489,0.0,0.681361734867096,0.7921890616416931,-12.524065971374512,4.13671875,2,C1,0,None,None,0.1417272506509329,[17100|0|0],start
11000,1.3230470418930054,-0.3217891156673431,0.0,0.6649186611175537,0.799011766910553,-12.530779838562012,4.13671875,2,C1,0,None,None,0.142138091718208,[17200|0|0],start
11100,1.3225384950637815,-0.3220259547233581,0.0,0.5549519062042236,0.76073157787323,-12.51759433746338,4.13671875,2,C1,0,None,None,0.1426990842457587,[17300|0|0],start
11200,1.3227366209030151,-0.3220517933368683,0.0,0.5932791233062744,0.7683034539222717,-12.519146919250488,4.13671875,2,C1,0,None,None,0.1428988878546354,[17400|0|0],start
11300,1.3224865198135376,-0.3217349350452423,0.0,0.6160458922386169,0.7852048873901367,-12.527176856994627,4.13671875,2,C1,0,None,None,0.1433025581804336,[17500|0|0],start
11400,1.322638750076294,-0.3222745954990387,0.0,0.6428412795066833,0.7870405316352844,-12.534791946411133,4.13671875,2,C1,0,None,None,0.1438632786618596,[17600|0|0],start
11500,1.3226367235183716,-0.3223194181919098,0.0,0.6563708186149597,0.7952997088432312,-12.556593894958496,4.13671875,2,C1,0,None,None,0.1439081471444864,[17700|0|0],start
11600,1.3224093914031982,-0.3221015930175781,0.0,0.6670210361480713,0.8122556805610657,-12.544368743896484,4.13671875,2,C1,0,None,None,0.144222992657654,[17800|0|0],start
11700,1.3224093914031982,-0.3220071196556091,0.0,0.6619394421577454,0.8188711404800415,-12.542468070983888,4.13671875,2,C1,0,None,None,0.1443174660196231,[17900|0|0],start
11800,1.3222957849502563,-0.3220566213130951,0.0,0.661166787147522,0.8200119733810425,-12.542634963989258,4.13671875,2,C1,0,None,None,0.1444413887384599,[18000|0|0],start
11900,1.3225938081741333,-0.3219025433063507,0.0,0.6562617421150208,0.8147797584533691,-12.539278030395508,4.13671875,2,C1,0,None,None,0.1447768851976548,[18100|0|0],start
12000,1.3224865198135376,-0.3220638334751129,0.0,0.6616365909576416,0.8187118768692017,-12.555819511413574,4.13671875,2,C1,0,None,None,0.1449705997062974,[18200|0|0],start
12100,1.3224366903305054,-0.3220790922641754,0.0,0.6577754020690918,0.8091030716896057,-12.542899131774902,4.13671875,2,C1,0,None,None,0.145022713121297,[18300|0|0],start
12200,1.322289228439331,-0.3218287825584411,0.0,0.6406305432319641,0.8093844056129456,-12.545194625854492,4.13671875,2,C1,0,None,None,0.1453132298301684,[18400|0|0],start
12300,1.322323203086853,-0.3219593465328216,0.0,0.6887600421905518,0.8251678347587585,-12.55071258544922,4.13671875,2,C1,0,None,None,0.1454481417572923,[18500|0|0],start
12400,1.3224852085113523,-0.3221727013587951,0.0,0.7228254675865173,0.8317949771881104,-12.56887435913086,4.13671875,2,C1,0,None,None,0.1457160335998956,[18600|0|0],start
12500,1.322413206100464,-0.3221966922283172,0.0,0.743787944316864,0.8432955741882324,-12.564085006713867,4.13671875,2,C1,0,None,None,0.1457919276641835,[18700|0|0],start
12600,1.322250247001648,-0.3220191895961761,0.0,0.7409046292304993,0.8445042967796326,-12.565553665161133,4.13671875,2,C1,0,None,None,0.1460328900104204,[18800|0|0],start
12700,1.3224447965621948,-0.3223127126693725,0.0,0.761104166507721,0.8468435406684875,-12.55639934539795,4.13671875,2,C1,0,None,None,0.1463850339099951,[18900|0|0],start
12800,1.3222812414169312,-0.3222410380840301,0.0,0.7726283669471741,0.8521662950515747,-12.53995418548584,4.13671875,2,C1,0,None,None,0.1465636047131132,[19000|0|0],start
12900,1.3224345445632937,-0.3221509754657745,0.0,0.7713340520858765,0.8507044315338135,-12.529129028320312,4.13671875,2,C1,0,None,None,0.1467414055283298,[19100|0|0],start
13000,1.322335958480835,-0.322163850069046,0.0,0.7705077528953552,0.850280225276947,-12.531134605407717,4.13671875,2,C1,0,None,None,0.146840828720111,[19200|0|0],start
13100,1.3223286867141724,-0.322461187839508,0.0,0.7722111344337463,0.8409929275512695,-12.52145767211914,4.13671875,2,C1,0,None,None,0.1471382553973504,[19300|0|0],start
13200,1.3222612142562866,-0.3222399353981018,0.0,0.7720337510108948,0.8473156690597534,-12.533513069152832,4.13671875,2,C1,0,None,None,0.1473695672548099,[19400|0|0],start
13300,1.3223013877868652,-0.3221734464168548,0.0,0.7590943574905396,0.8448405861854553,-12.533267974853516,4.13671875,2,C1,0,None,None,0.147447250568246,[19500|0|0],start
13400,1.322654366493225,-0.3221037983894348,0.0,0.7477971911430359,0.8323501348495483,-12.51885986328125,4.13671875,2,C1,0,None,None,0.1478070349687791,[19600|0|0],start
13500,1.3222107887268066,-0.3222987651824951,0.0,0.7657523155212402,0.8455420136451721,-12.52125644683838,4.13671875,2,C1,0,None,None,0.1482915690596923,[19700|0|0],start
13600,1.323213815689087,-0.3220375478267669,0.0,0.7636194229125977,0.8444927930831909,-12.534968376159668,4.13671875,2,C1,0,None,None,0.1493280523417547,[19800|0|0],start
13700,1.3231648206710815,-0.3220601677894592,0.0,0.7595504522323608,0.8465996384620667,-12.543015480041504,4.13671875,2,C1,0,None,None,0.1493820169088478,[19900|0|0],start
13800,1.3224503993988037,-0.3225322663784027,0.0,0.755102276802063,0.8374087810516357,-12.534632682800291,4.13671875,2,C1,0,None,None,0.1502383315893044,[20000|0|0],start
13900,1.3231788873672483,-0.3221005201339721,0.0,0.7470303773880005,0.8481365442276001,-12.551691055297852,4.13671875,2,C1,0,None,None,0.1510851488894043,[20100|0|0],start
14000,1.3230798244476318,-0.3221043646335602,0.0,0.7514516711235046,0.8534449338912964,-12.520819664001465,4.13671875,2,C1,0,None,None,0.1511842863808998,[20200|0|0],start
14100,1.323418378829956,-0.3222934305667877,0.0,0.7528418302536011,0.8482449054718018,-12.525935173034668,4.13671875,2,C1,0,None,None,0.1515720556381884,[20300|0|0],start
14200,1.3232808113098145,-0.3219398558139801,0.0,0.7400837540626526,0.8583251237869263,-12.53839111328125,4.13671875,2,C1,0,None,None,0.1519514497978968,[20400|0|0],start
14300,1.323208570480347,-0.3219896554946899,0.0,0.7224361896514893,0.8425787687301636,-12.533893585205078,4.13671875,2,C1,0,None,None,0.1520391922941057,[20500|0|0],start
14400,1.323178768157959,-0.3220910727977752,0.0,0.7120535373687744,0.8280469179153442,-12.533031463623049,4.13671875,2,C1,0,None,None,0.1521448977707132,[20600|0|0],start
14500,1.3232375383377075,-0.3221564292907715,0.0,0.6899148225784302,0.8118146061897278,-12.536449432373049,4.13671875,2,C1,0,None,None,0.1522327920549667,[20700|0|0],start
14600,1.3233894109725952,-0.3223873376846313,0.0,0.677707314491272,0.799064040184021,-12.55716609954834,4.13671875,2,C1,0,None,None,0.1525091685799877,[20800|0|0],start
14700,1.32318377494812,-0.322010189294815,0.0,0.6592862010002136,0.7964000105857849,-12.538409233093262,4.13671875,2,C1,0,None,None,0.1529387347361301,[20900|0|0],start
14800,1.3232598304748535,-0.3218965530395508,0.0,0.6480228304862976,0.7936099767684937,-12.538818359375,4.13671875,2,C1,0,None,None,0.1530754740562148,[21000|0|0],start
14900,1.3230024576187134,-0.3218933343887329,0.0,0.6469898819923401,0.801872968673706,-12.535188674926758,4.13671875,2,C1,0,None,None,0.1533328670374532,[21100|0|0],start
15000,1.323262095451355,-0.3221478760242462,0.0,0.6552969813346863,0.7960584163665771,-12.515334129333496,4.13671875,2,C1,0,None,None,0.1536964646836896,[21200|0|0],start
15100,1.323264241218567,-0.3219464719295501,0.0,0.6504022479057312,0.7880534529685974,-12.521409034729004,4.13671875,2,C1,0,None,None,0.1538978802086058,[21300|0|0],start
15200,1.3233741521835327,-0.3220294415950775,0.0,0.6482518315315247,0.7846463918685913,-12.522850036621094,4.13671875,2,C1,0,None,None,0.154035591448588,[21400|0|0],start
15300,1.3230994939804075,-0.3219297528266907,0.0,0.6555906534194946,0.793822169303894,-12.531423568725586,4.1328125,2,C1,0,None,None,0.1543277814194742,[21500|0|0],start
15400,1.3231347799301147,-0.3219228386878967,0.0,0.6444051265716553,0.7976251840591431,-12.540313720703123,4.13671875,2,C1,0,None,None,0.1543637383876724,[21600|0|0],start
15500,1.3230842351913452,-0.3218802809715271,0.0,0.643464982509613,0.8007224798202515,-12.53838062286377,4.13671875,2,C1,0,None,None,0.1544298135709099,[21700|0|0],start
15600,1.323259353637695,-0.3218364417552948,0.0,0.6388264298439026,0.8013945817947388,-12.544388771057127,4.13671875,2,C1,0,None,None,0.1546103359992446,[21800|0|0],start
15700,1.3226872682571411,-0.3221098780632019,0.0,0.5402827262878418,0.7682120203971863,-12.560400009155272,4.13671875,2,C1,0,None,None,0.1552444094154398,[21900|0|0],start
15800,1.3226958513259888,-0.3220387995243072,0.0,0.5556808710098267,0.7764977216720581,-12.58635711669922,4.13671875,2,C1,0,None,None,0.1553160043018651,[22000|0|0],start
15900,1.3225802183151243,-0.32218798995018,0.0,0.5870826840400696,0.7901265025138855,-12.580461502075195,4.13671875,2,C1,0,None,None,0.1555047601663401,[22100|0|0],start
16000,1.3225127458572388,-0.3221394717693329,0.0,0.6036017537117004,0.8004609942436218,-12.562918663024902,4.13671875,2,C1,0,None,None,0.1555878658006005,[22200|0|0],start
16100,1.3224914073944092,-0.321804791688919,0.0,0.6102321743965149,0.8038237690925598,-12.567737579345703,4.13671875,2,C1,0,None,None,0.1559232254377392,[22300|0|0],start
16200,1.322547197341919,-0.3222077190876007,0.0,0.6336334943771362,0.8043298125267029,-12.546182632446287,4.13671875,2,C1,0,None,None,0.156329996880753,[22400|0|0],start
16300,1.3226321935653689,-0.3221774697303772,0.0,0.6394879817962646,0.8052136898040771,-12.533563613891602,4.13671875,2,C1,0,None,None,0.1564202154022061,[22500|0|0],start
16400,1.322473406791687,-0.3222357630729675,0.0,0.6445409059524536,0.8126040101051331,-12.540886878967283,4.13671875,2,C1,0,None,None,0.1565893643108241,[22600|0|0],start
16500,1.3225209712982178,-0.3221064507961273,0.0,0.6366987228393555,0.8103047013282776,-12.534778594970703,4.13671875,2,C1,0,None,None,0.1567271469193895,[22700|0|0],start
16600,1.3224341869354248,-0.3219256401062011,0.0,0.6287059187889099,0.80959552526474,-12.53039836883545,4.13671875,2,C1,0,None,None,0.1569277062154019,[22800|0|0],start
16700,1.322473645210266,-0.3223729729652405,0.0,0.6433801651000977,0.8076918721199036,-12.511392593383787,4.13671875,2,C1,0,None,None,0.157376775967478,[22900|0|0],start
16800,1.3225548267364502,-0.3222297132015228,0.0,0.6361740231513977,0.8022592663764954,-12.524343490600586,4.13671875,2,C1,0,None,None,0.1575414386532755,[23000|0|0],start
16900,1.323310613632202,-0.3219673931598663,0.0,0.6187695264816284,0.7969507575035095,-12.545507431030272,4.13671875,2,C1,0,None,None,0.1583414546756431,[23100|0|0],start
17000,1.3229745626449585,-0.3217124938964844,0.0,0.6663351058959961,0.8152144551277161,-12.551850318908691,4.13671875,2,C1,0,None,None,0.1587632412336317,[23200|0|0],start
17100,1.323208928108215,-0.3218934535980224,0.0,0.7022801637649536,0.8201861381530762,-12.53407096862793,4.13671875,2,C1,0,None,None,0.1590593384878375,[23300|0|0],start
17200,1.3231611251831057,-0.321981817483902,0.0,0.7292758822441101,0.8351216316223145,-12.555842399597168,4.13671875,2,C1,0,None,None,0.1591598038847499,[23400|0|0],start
17300,1.3233131170272827,-0.3223516047000885,0.0,0.7419542074203491,0.8293266892433167,-12.561722755432127,4.13671875,2,C1,0,None,None,0.1595596089696992,[23500|0|0],start
17400,1.323194980621338,-0.3218898475170135,0.0,0.7469727396965027,0.8462097644805908,-12.553279876708984,4.13671875,2,C1,0,None,None,0.160036238707054,[23600|0|0],start
17500,1.323252558708191,-0.3217628300189972,0.0,0.563117265701294,0.7482820153236389,-12.546546936035156,4.13671875,2,C1,0,None,None,0.1601756972345379,[23700|0|0],start
17600,1.3233425617218018,-0.3219662308692932,0.0,0.6076453924179077,0.7610878348350525,-12.55076503753662,4.13671875,2,C1,0,None,None,0.1603981212628266,[23800|0|0],start
17700,1.323230504989624,-0.3220828473567962,0.0,0.6472119092941284,0.7734309434890747,-12.545281410217283,4.13671875,2,C1,0,None,None,0.1605598497896358,[23900|0|0],start
17800,1.3232609033584597,-0.3219229280948639,0.0,0.6588017344474792,0.7816441059112549,-12.56104850769043,4.13671875,2,C1,0,None,None,0.1607226325625722,[24000|0|0],start
17900,1.323310613632202,-0.3220082521438598,0.0,0.6720417141914368,0.7876703143119812,-12.562518119812012,4.13671875,2,C1,0,None,None,0.160821381257007,[24100|0|0],start
18000,1.3296242952346802,-0.311627060174942,0.0,0.306894987821579,0.6499695181846619,-12.563671112060549,4.13671875,2,C1,0,None,None,0.1729717607602569,[24200|0|0],start
18100,1.322507381439209,-0.322018951177597,0.0,0.5645756721496582,0.759518563747406,-12.572373390197754,4.13671875,2,C1,0,None,None,0.1855670718156945,[24300|0|0],start
18200,1.3224371671676636,-0.3217946588993072,0.0,0.5972592830657959,0.7832674980163574,-12.579227447509766,4.13671875,2,C1,0,None,None,0.1858020974952044,[24400|0|0],start
18300,1.3296886682510376,-0.3119905591011047,0.0,0.3920765817165375,0.6763455867767334,-12.55599880218506,4.1328125,2,C1,0,None,None,0.1979965487257965,[24500|0|0],start
18400,1.3298479318618774,-0.3121360242366791,0.0,0.4078636169433594,0.6760789752006531,-12.539759635925291,4.13671875,2,C1,0,None,None,0.1982122452797917,[24600|0|0],start
18500,1.323158621788025,-0.3220887780189514,0.0,0.6583747267723083,0.8012738823890686,-12.581337928771973,4.13671875,2,C1,0,None,None,0.2102040832171007,[24700|0|0],start
18600,1.3292484283447266,-0.3123512268066406,0.0,0.4274439811706543,0.7030960321426392,-12.535481452941896,4.13671875,2,C1,0,None,None,0.2216891016110965,[24800|0|0],start
18700,1.329403042793274,-0.3120480179786682,0.0,0.392958253622055,0.6891595125198364,-12.528087615966797,4.13671875,2,C1,0,None,None,0.222029456163086,[24900|0|0],start
18800,1.3296880722045898,-0.3118537664413452,0.0,0.4235760271549225,0.7135413885116577,-12.523513793945312,4.13671875,2,C1,0,None,None,0.2223743843078748,[25000|0|0],start
18900,1.3295683860778809,-0.3110673129558563,0.0,0.187846690416336,0.6126947999000549,-12.54500961303711,4.13671875,2,C1,0,None,None,0.2231698928582778,[25100|0|0],start
19000,1.3297648429870603,-0.3110776245594024,0.0,0.2344022095203399,0.6386836171150208,-12.535114288330078,4.13671875,2,C1,0,None,None,0.2233666201983504,[25200|0|0],start
19100,1.3292787075042725,-0.3114240765571594,0.0,0.2781803011894226,0.6576335430145264,-12.524259567260742,4.13671875,2,C1,0,None,None,0.2239635763896871,[25300|0|0],start
19200,1.3294250965118408,-0.3114556968212127,0.0,0.3075837194919586,0.675891101360321,-12.537242889404297,4.13671875,2,C1,0,None,None,0.2241133414811993,[25400|0|0],start
19300,1.3292587995529177,-0.3113602101802826,0.0,0.314488023519516,0.6849375367164612,-12.533363342285156,4.13671875,2,C1,0,None,None,0.2243051027315686,[25500|0|0],start
19400,1.329558491706848,-0.3116396367549896,0.0,0.3203269839286804,0.6911858320236206,-12.536863327026367,4.13671875,2,C1,0,None,None,0.2247148521644905,[25600|0|0],start
19500,1.329458475112915,-0.3120769560337066,0.0,0.3253737986087799,0.6828771233558655,-12.515748023986816,4.13671875,2,C1,0,None,None,0.2251634627646768,[25700|0|0],start
19600,1.3294204473495483,-0.3118036985397339,0.0,0.3268918693065643,0.6824252009391785,-12.521509170532228,4.13671875,2,C1,0,None,None,0.2254393536286048,[25800|0|0],start
19701,1.3297908306121826,-0.3122995495796203,0.0,0.3356890380382538,0.6656081676483154,-12.519623756408691,4.13671875,2,C1,0,None,None,0.2260582655892228,[25900|0|0],start
19801,1.329572677612305,-0.3118590712547302,0.0,0.3249752223491668,0.6708372235298157,-12.516471862792969,4.1328125,2,C1,0,None,None,0.2265498059090884,[26000|0|0],start
19901,1.329456090927124,-0.3119391500949859,0.0,0.329985499382019,0.6748038530349731,-12.517784118652344,4.13671875,2,C1,0,None,None,0.2266912452099145,[26100|0|0],start
20001,1.3293678760528564,-0.3120486140251159,0.0,0.3322193920612335,0.6709267497062683,-12.519010543823242,4.13671875,2,C1,0,None,None,0.2268318304724478,[26200|0|0],start
20101,1.3296918869018557,-0.3119142949581146,0.0,0.3273555934429168,0.6635445356369019,-12.505996704101562,4.13671875,2,C1,0,None,None,0.2271825791602989,[26300|0|0],start
20201,1.3287737369537354,-0.3116196691989898,0.0,0.323277860879898,0.6720747947692871,-12.503942489624023,4.13671875,2,C1,0,None,None,0.2281468424361594,[26400|0|0],start
20301,1.3292902708053589,-0.3114415109157562,0.0,0.3087037205696106,0.6646260023117065,-12.51335620880127,4.13671875,2,C1,0,None,None,0.2286932375255936,[26500|0|0],start
20401,1.3295979499816897,-0.3116785585880279,0.0,0.3049405515193939,0.6691291332244873,-12.525657653808594,4.13671875,2,C1,0,None,None,0.2290816420498682,[26600|0|0],start
20501,1.3294386863708496,-0.3123982846736908,0.0,0.4984855949878692,0.7463124990463257,-12.506599426269531,4.13671875,2,C1,0,None,None,0.229818778764543,[26700|0|0],start
20601,1.329176902770996,-0.312392920255661,0.0,0.4672785699367523,0.7328461408615112,-12.521240234375,4.13671875,2,C1,0,None,None,0.2300806173219272,[26800|0|0],start
20702,1.3295902013778689,-0.3121868968009949,0.0,0.4299266934394836,0.709374189376831,-12.523510932922363,4.13671875,2,C1,0,None,None,0.2305424196631031,[26900|0|0],start
20801,1.3292473554611206,-0.3122355341911316,0.0,0.423464685678482,0.7113606929779053,-12.522001266479492,4.1328125,2,C1,0,None,None,0.230888698334624,[27000|0|0],start
20901,1.3291388750076294,-0.3119986653327942,0.0,0.4054896831512451,0.7116495966911316,-12.504746437072754,4.13671875,2,C1,0,None,None,0.2311492263846296,[27100|0|0],start
21001,1.3294469118118286,-0.3122365176677704,0.0,0.3961258828639984,0.6900361776351929,-12.497915267944336,4.13671875,2,C1,0,None,None,0.231538405528463,[27200|0|0],start
21102,1.3294012546539309,-0.3125077188014984,0.0,0.4037475883960724,0.689393937587738,-12.494497299194336,4.13671875,2,C1,0,None,None,0.2318134230388195,[27300|0|0],start
21200,1.329525351524353,-0.3125087320804596,0.0,0.3976240158081054,0.6787949800491333,-12.496583938598633,4.13671875,2,C1,0,None,None,0.2319375240459984,[27400|0|0],start
21302,1.3294153213500977,-0.3121998608112335,0.0,0.3824323117733001,0.684873640537262,-12.49239444732666,4.13671875,2,C1,0,None,None,0.23226540832467,[27500|0|0],start
21402,1.3291003704071045,-0.3120827376842499,0.0,0.3769945204257965,0.6954441666603088,-12.496932983398438,4.13671875,2,C1,0,None,None,0.2326014320193207,[27600|0|0],start
21500,1.3293955326080322,-0.3121567964553833,0.0,0.3826824724674225,0.6857265830039978,-12.523990631103516,4.13671875,2,C1,0,None,None,0.2329057434164755,[27700|0|0],start
21600,1.3295074701309204,-0.3120945394039154,0.0,0.3825456500053406,0.6792355179786682,-12.535228729248049,4.13671875,2,C1,0,None,None,0.2330338291279652,[27800|0|0],start
21702,1.329596996307373,-0.3121794760227203,0.0,0.3747197985649109,0.6746497750282288,-12.535499572753906,4.13671875,2,C1,0,None,None,0.2331572356329972,[27900|0|0],start
21800,1.3295671939849854,-0.3120429515838623,0.0,0.3781841099262237,0.6830530166625977,-12.522085189819336,4.13671875,2,C1,0,None,None,0.2332969750362634,[28000|0|0],start
21900,1.3293174505233765,-0.3123482465744018,0.0,0.5355564951896667,0.757942795753479,-12.534610748291016,4.13671875,2,C1,0,None,None,0.233691407321789,[28100|0|0],start
22000,1.3290716409683228,-0.3123833537101745,0.0,0.5019044876098633,0.7400566935539246,-12.523500442504885,4.13671875,2,C1,0,None,None,0.2339397112652491,[28200|0|0],start
22100,1.3292934894561768,-0.3122607469558716,0.0,0.4749965071678161,0.7229989171028137,-12.53266429901123,4.13671875,2,C1,0,None,None,0.2341931854607085,[28300|0|0],start
22200,1.3294774293899536,-0.3122024834156036,0.0,0.4597153961658478,0.7088370323181152,-12.526751518249512,4.13671875,2,C1,0,None,None,0.2343861324465943,[28400|0|0],start
22300,1.3293848037719729,-0.312383085489273,0.0,0.454886257648468,0.702988862991333,-12.523319244384766,4.13671875,2,C1,0,None,None,0.2345891019372081,[28500|0|0],start
22400,1.3293652534484863,-0.3126198053359985,0.0,0.4514708220958709,0.7015056610107422,-12.48822021484375,4.13671875,2,C1,0,None,None,0.2348266277273492,[28600|0|0],start
22500,1.3293933868408203,-0.3120041489601135,0.0,0.4279143214225769,0.7014001607894897,-12.482646942138672,4.13671875,2,C1,0,None,None,0.2354429265679549,[28700|0|0],start
22600,1.3296575546264648,-0.312193363904953,0.0,0.4320353865623474,0.6933757662773132,-12.498395919799805,4.13671875,2,C1,0,None,None,0.2357678679693229,[28800|0|0],start
22700,1.329332709312439,-0.3122653067111969,0.0,0.4257370829582214,0.7012760043144226,-12.48522663116455,4.13671875,2,C1,0,None,None,0.2361005844333201,[28900|0|0],start
22800,1.3294254541397097,-0.3118628263473511,0.0,0.4197379946708679,0.7039424180984497,-12.501128196716309,4.1328125,2,C1,0,None,None,0.2365136123334273,[29000|0|0],start
22900,1.3294566869735718,-0.3120977580547333,0.0,0.4280309379100799,0.7072736620903015,-12.48992919921875,4.13671875,2,C1,0,None,None,0.236750611061366,[29100|0|0],start
23000,1.32930326461792,-0.3126024901866913,0.0,0.4525994062423706,0.7109615802764893,-12.480013847351074,4.13671875,2,C1,0,None,None,0.2372781458414939,[29200|0|0],start
23100,1.3293710947036743,-0.3119247257709503,0.0,0.4340294301509857,0.7210332751274109,-12.4998140335083,4.13671875,2,C1,0,None,None,0.2379592959892427,[29300|0|0],start
23200,1.3293747901916504,-0.3123639822006225,0.0,0.440651386976242,0.7213227152824402,-12.520386695861816,4.13671875,2,C1,0,None,None,0.2383985679638094,[29400|0|0],start
23300,1.3292617797851562,-0.3119484186172485,0.0,0.4337420761585235,0.7293863892555237,-12.513901710510254,4.13671875,2,C1,0,None,None,0.2388292237936813,[29500|0|0],start
23400,1.3300291299819946,-0.3121392428874969,0.0,0.444040298461914,0.7276792526245117,-12.549505233764648,4.13671875,2,C1,0,None,None,0.2396199451268346,[29600|0|0],start
23500,1.3295037746429443,-0.3122285902500152,0.0,0.3815911114215851,0.6976869702339172,-12.536544799804688,4.13671875,2,C1,0,None,None,0.2401528439760148,[29700|0|0],start
23600,1.329263687133789,-0.3122847080230713,0.0,0.3580033481121063,0.6854954957962036,-12.516955375671388,4.13671875,2,C1,0,None,None,0.2403994027246026,[29800|0|0],start
23700,1.328884243965149,-0.3127866387367248,0.0,0.5185909867286682,0.7541453838348389,-12.51759433746338,4.13671875,2,C1,0,None,None,0.2410286177590196,[29900|0|0],start
23800,1.3290417194366455,-0.3127179443836212,0.0,0.465093582868576,0.7304595708847046,-12.499933242797852,4.1328125,2,C1,0,None,None,0.2412004241566635,[30000|0|0],start
23900,1.329412579536438,-0.3125130832195282,0.0,0.4192059934139251,0.7059171199798584,-12.482184410095217,4.13671875,2,C1,0,None,None,0.2416241048267107,[30100|0|0],start
24000,1.329339861869812,-0.3124385774135589,0.0,0.3755444884300232,0.6893637776374817,-12.47524642944336,4.13671875,2,C1,0,None,None,0.2417282152208252,[30200|0|0],start
24100,1.3291246891021729,-0.3120770454406738,0.0,0.3583449721336365,0.6838867664337158,-12.476285934448242,4.13671875,2,C1,0,None,None,0.2421489344708622,[30300|0|0],start
24200,1.329448103904724,-0.3122896254062652,0.0,0.3663281500339508,0.6735491752624512,-12.504409790039062,4.13671875,2,C1,0,None,None,0.2425359582120978,[30400|0|0],start
24300,1.3292818069458008,-0.3120166957378387,0.0,0.3299436271190643,0.666612982749939,-12.496521949768066,4.1328125,2,C1,0,None,None,0.2428555599681231,[30500|0|0],start
24400,1.3296265602111816,-0.311749130487442,0.0,0.3531643450260162,0.6800485253334045,-12.52937126159668,4.13671875,2,C1,0,None,None,0.2432919611335783,[30600|0|0],start
24500,1.329220175743103,-0.311955451965332,0.0,0.3872232735157013,0.6932579278945923,-12.520392417907717,4.13671875,2,C1,0,None,None,0.2437477208160143,[30700|0|0],start
24600,1.3297733068466189,-0.3122724890708923,0.0,0.4115477204322815,0.6943202018737793,-12.52418327331543,4.13671875,2,C1,0,None,None,0.2443852681036556,[30800|0|0],start
24700,1.3302127122879028,-0.3121941089630127,0.0,0.4253818094730377,0.697681188583374,-12.539618492126465,4.13671875,2,C1,0,None,None,0.2448316094339636,[30900|0|0],start
24800,1.3302106857299805,-0.3122346401214599,0.0,0.4402882158756256,0.7060614228248596,-12.531166076660156,4.1328125,2,C1,0,None,None,0.2448721912247335,[31000|0|0],start
24900,1.3300702571868896,-0.3122701644897461,0.0,0.4510195255279541,0.7144981622695923,-12.538880348205566,4.13671875,2,C1,0,None,None,0.2450170434130384,[31100|0|0],start
25000,1.3300906419754028,-0.3124049007892608,0.0,0.4623453617095947,0.7157762050628662,-12.540489196777344,4.13671875,2,C1,0,None,None,0.2451533130355141,[31200|0|0],start
25100,1.3297388553619385,-0.3121533989906311,0.0,0.4665401577949524,0.7277419567108154,-12.536314010620115,4.13671875,2,C1,0,None,None,0.2455857560677469,[31300|0|0],start
25200,1.3298654556274414,-0.312067449092865,0.0,0.4730919003486633,0.7297340631484985,-12.519445419311523,4.13671875,2,C1,0,None,None,0.2457387757140392,[31400|0|0],start
25300,1.3296825885772705,-0.3123819231986999,0.0,0.4815669357776642,0.731584906578064,-12.52520751953125,4.1328125,2,C1,0,None,None,0.246102553560092,[31500|0|0],start
25400,1.329771637916565,-0.3125998377799988,0.0,0.4830808043479919,0.7245919704437256,-12.540533065795898,4.13671875,2,C1,0,None,None,0.2463379607595814,[31600|0|0],start
25500,1.3300656080245972,-0.3125966489315033,0.0,0.4813349843025207,0.7208654284477234,-12.529972076416016,4.13671875,2,C1,0,None,None,0.246631948162664,[31700|0|0],start
25600,1.3299607038497925,-0.3120942413806915,0.0,0.4663451611995697,0.7284490466117859,-12.53956699371338,4.13671875,2,C1,0,None,None,0.2471451910223359,[31800|0|0],start
25700,1.329998254776001,-0.3120110630989074,0.0,0.4617922008037567,0.7312859296798706,-12.535858154296877,4.13671875,2,C1,0,None,None,0.2472364527263506,[31900|0|0],start
25800,1.3297010660171509,-0.3113167285919189,0.0,0.1969123035669326,0.618739664554596,-12.529740333557127,4.1328125,2,C1,0,None,None,0.2479917153071672,[32000|0|0],start
25900,1.329853892326355,-0.3119637668132782,0.0,0.2673076093196869,0.6290943026542664,-12.519123077392578,4.13671875,2,C1,0,None,None,0.2486565568978374,[32100|0|0],start
26000,1.329638957977295,-0.311928242444992,0.0,0.2904022336006164,0.6475732922554016,-12.514012336730955,4.13671875,2,C1,0,None,None,0.2488744072022852,[32200|0|0],start
26100,1.3295332193374634,-0.311960905790329,0.0,0.3043172657489776,0.6577157974243164,-12.493892669677734,4.13671875,2,C1,0,None,None,0.2489850758703084,[32300|0|0],start
26200,1.329824924468994,-0.3118992745876312,0.0,0.3087567985057831,0.6554099321365356,-12.524459838867188,4.13671875,2,C1,0,None,None,0.2492832206152012,[32400|0|0],start
26300,1.3296623229980469,-0.311823695898056,0.0,0.3179420232772827,0.6606200933456421,-12.504348754882812,4.1328125,2,C1,0,None,None,0.2494625286648589,[32500|0|0],start
26400,1.3294628858566284,-0.311934620141983,0.0,0.3200769424438476,0.6604598760604858,-12.503775596618652,4.13671875,2,C1,0,None,None,0.2496907376946276,[32600|0|0],start
26500,1.3293811082839966,-0.3119252622127533,0.0,0.3429178297519684,0.6694976687431335,-12.499874114990234,4.13671875,2,C1,0,None,None,0.2497730489467443,[32700|0|0],start
26600,1.3296173810958862,-0.3117128908634186,0.0,0.3620664775371551,0.6685030460357666,-12.528602600097656,4.13671875,2,C1,0,None,None,0.2500907381528192,[32800|0|0],start
26700,1.3296493291854858,-0.3121512532234192,0.0,0.3979141116142273,0.6708701252937317,-12.529012680053713,4.13671875,2,C1,0,None,None,0.2505302631681418,[32900|0|0],start
26800,1.3297672271728516,-0.3120711147785187,0.0,0.4147152602672577,0.6812705397605896,-12.537318229675291,4.1328125,2,C1,0,None,None,0.2506728187915873,[33000|0|0],start
26900,1.3294012546539309,-0.3121806383132934,0.0,0.4297201931476593,0.691825807094574,-12.548372268676758,4.13671875,2,C1,0,None,None,0.2510548283324036,[33100|0|0],start
27000,1.3295109272003174,-0.3122565448284149,0.0,0.4350095391273498,0.6887717247009277,-12.544889450073242,4.13671875,2,C1,0,None,None,0.2511882069906245,[33200|0|0],start
27100,1.329830288887024,-0.3127284944057464,0.0,0.4357484877109527,0.6844236850738525,-12.558382987976074,4.13671875,2,C1,0,None,None,0.2517580563483318,[33300|0|0],start
27200,1.3300689458847046,-0.3119469583034515,0.0,0.3990842700004577,0.6763131022453308,-12.540804862976074,4.13671875,2,C1,0,None,None,0.2525752196378476,[33400|0|0],start
27300,1.3299386501312256,-0.3121996223926544,0.0,0.4335938394069671,0.6893287301063538,-12.548541069030762,4.13671875,2,C1,0,None,None,0.2528595014088907,[33500|0|0],start
27400,1.3299922943115234,-0.3124477565288543,0.0,0.4599405825138092,0.6915857195854187,-12.543916702270508,4.13671875,2,C1,0,None,None,0.253113368003045,[33600|0|0],start
27500,1.3302079439163208,-0.3122581243515014,0.0,0.468189001083374,0.6936137080192566,-12.527488708496094,4.13671875,2,C1,0,None,None,0.2534005354015025,[33700|0|0],start
27600,1.329617977142334,-0.3119285106658935,0.0,0.2164790332317352,0.5953616499900818,-12.546182632446287,4.13671875,2,C1,0,None,None,0.2540763356502066,[33800|0|0],start
27700,1.3296840190887451,-0.312096357345581,0.0,0.2700481414794922,0.6240133047103882,-12.5433349609375,4.13671875,2,C1,0,None,None,0.2542567076174518,[33900|0|0],start
27800,1.3297362327575684,-0.3117202520370483,0.0,0.2920108735561371,0.6395489573478699,-12.525190353393556,4.13671875,2,C1,0,None,None,0.2546364199695269,[34000|0|0],start
27900,1.3294602632522583,-0.3116874098777771,0.0,0.3063902258872986,0.6581550240516663,-12.527904510498049,4.13671875,2,C1,0,None,None,0.2549143368191181,[34100|0|0],start
28000,1.3295211791992188,-0.3120253682136535,0.0,0.3237391114234924,0.660350501537323,-12.519786834716797,4.13671875,2,C1,0,None,None,0.2552577412299553,[34200|0|0],start
28100,1.3293031454086304,-0.3115344643592834,0.0,0.3101362287998199,0.6620621681213379,-12.511303901672363,4.13671875,2,C1,0,None,None,0.2557948867670994,[34300|0|0],start
28200,1.329716682434082,-0.3118693232536316,0.0,0.3214905560016632,0.6582416296005249,-12.511507987976074,4.13671875,2,C1,0,None,None,0.2563269989268397,[34400|0|0],start
28300,1.3297003507614136,-0.3120323717594147,0.0,0.3470255732536316,0.6624361276626587,-12.506500244140623,4.1328125,2,C1,0,None,None,0.2564908633182438,[34500|0|0],start
28400,1.3301619291305542,-0.3124189972877502,0.0,0.3891117870807647,0.6916255354881287,-12.526580810546877,4.13671875,2,C1,0,None,None,0.2570929711906548,[34600|0|0],start
28500,1.3301968574523926,-0.312472939491272,0.0,0.4125454723834991,0.7023256421089172,-12.522375106811523,4.13671875,2,C1,0,None,None,0.2571572343137288,[34700|0|0],start
28600,1.3297737836837769,-0.3125157356262207,0.0,0.4255876243114471,0.721002459526062,-12.509387016296388,4.13671875,2,C1,0,None,None,0.2575824671003966,[34800|0|0],start
28700,1.3300524950027466,-0.3124561905860901,0.0,0.4321816563606262,0.7104042768478394,-12.51097583770752,4.13671875,2,C1,0,None,None,0.2578674681725454,[34900|0|0],start
28800,1.3301109075546265,-0.3124453425407409,0.0,0.4275272190570831,0.7047976851463318,-12.506114959716797,4.1328125,2,C1,0,None,None,0.2579268795039984,[35000|0|0],start
28900,1.3304227590560913,-0.3121277093887329,0.0,0.3856957852840423,0.6840765476226807,-12.52506160736084,4.13671875,2,C1,0,None,None,0.2583720111454489,[35100|0|0],start
29000,1.3299665451049805,-0.3119896948337555,0.0,0.4181791245937347,0.704334557056427,-12.523545265197754,4.13671875,2,C1,0,None,None,0.2588486443236623,[35200|0|0],start
29100,1.3301818370819092,-0.3118972480297088,0.0,0.4406485557556152,0.711763858795166,-12.53882122039795,4.13671875,2,C1,0,None,None,0.2590829455121107,[35300|0|0],start
29200,1.3301358222961426,-0.3123350143432617,0.0,0.4649847447872162,0.7185205221176147,-12.543334007263184,4.13671875,2,C1,0,None,None,0.2595231235508528,[35400|0|0],start
29300,1.3300422430038452,-0.3120154440402984,0.0,0.4651061296463012,0.7275144457817078,-12.542407989501951,4.1328125,2,C1,0,None,None,0.2598561134343072,[35500|0|0],start
29400,1.3297709226608276,-0.312621533870697,0.0,0.4831182360649109,0.7318786382675171,-12.52513599395752,4.13671875,2,C1,0,None,None,0.260520161332465,[35600|0|0],start
29500,1.3299957513809204,-0.3124628961086273,0.0,0.4774283766746521,0.7249348163604736,-12.52931022644043,4.13671875,2,C1,0,None,None,0.2607953229085127,[35700|0|0],start
29600,1.3301204442977903,-0.3123072385787964,0.0,0.4725256264209747,0.7229802012443542,-12.518583297729492,4.13671875,2,C1,0,None,None,0.2609947661087242,[35800|0|0],start
29700,1.3300104141235352,-0.3124736845493316,0.0,0.4757318198680877,0.7245399951934814,-12.517072677612305,4.13671875,2,C1,0,None,None,0.2611942927995553,[35900|0|0],start
29800,1.3299726247787476,-0.3124530613422394,0.0,0.4650413691997528,0.7182510495185852,-12.509966850280762,4.1328125,2,C1,0,None,None,0.2612373433657565,[36000|0|0],start
29900,1.3300107717514038,-0.3123166561126709,0.0,0.454321414232254,0.7148119807243347,-12.507088661193848,4.13671875,2,C1,0,None,None,0.2613789822664034,[36100|0|0],start
30000,1.3299604654312134,-0.3127731680870056,0.0,0.4626736938953399,0.7214035987854004,-12.51601219177246,4.13671875,2,C1,0,None,None,0.2618382576832962,[36200|0|0],start
30100,1.3300601243972778,-0.3123224973678589,0.0,0.4496739208698272,0.7256489396095276,-12.533513069152832,4.13671875,2,C1,0,None,None,0.2622998159208062,[36300|0|0],start
30200,1.33006751537323,-0.3123687505722046,0.0,0.4520816504955292,0.7305722832679749,-12.547327041625977,4.13671875,2,C1,0,None,None,0.2623466559190744,[36400|0|0],start
30300,1.3300176858901978,-0.3123922348022461,0.0,0.4652299880981445,0.7339872717857361,-12.550413131713867,4.1328125,2,C1,0,None,None,0.2624017420919303,[36500|0|0],start
30400,1.3294477462768557,-0.3115963637828827,0.0,0.2056808471679687,0.6314854621887207,-12.539257049560549,4.13671875,2,C1,0,None,None,0.2633806403717934,[36600|0|0],start
30500,1.3296749591827393,-0.311696708202362,0.0,0.2432571947574615,0.6393048763275146,-12.52959156036377,4.13671875,2,C1,0,None,None,0.2636290245643675,[36700|0|0],start
30600,1.3296953439712524,-0.3117316365242004,0.0,0.2668661177158355,0.6426733732223511,-12.525826454162598,4.13671875,2,C1,0,None,None,0.2636694662170189,[36800|0|0],start
30700,1.330102562904358,-0.3122397065162658,0.0,0.2864429652690887,0.6505153179168701,-12.519814491271973,4.13671875,2,C1,0,None,None,0.264320590150166,[36900|0|0],start
30800,1.3302958011627195,-0.312288373708725,0.0,0.2970451116561889,0.6542750000953674,-12.509931564331056,4.1328125,2,C1,0,None,None,0.2645198626272331,[37000|0|0],start
30900,1.3297371864318848,-0.3122719526290893,0.0,0.3084443509578705,0.6752118468284607,-12.504597663879396,4.13671875,2,C1,0,None,None,0.2650787186635805,[37100|0|0],start
31000,1.3302212953567505,-0.3123785555362701,0.0,0.3222217857837677,0.6612534523010254,-12.504189491271973,4.13671875,2,C1,0,None,None,0.2655744258664272,[37200|0|0],start
31100,1.3300050497055054,-0.3123225271701813,0.0,0.352050244808197,0.6789149045944214,-12.510977745056152,4.13671875,2,C1,0,None,None,0.2657978119883977,[37300|0|0],start
31200,1.3298466205596924,-0.3122717142105102,0.0,0.376912385225296,0.6851702928543091,-12.483413696289062,4.13671875,2,C1,0,None,None,0.2659641903256702,[37400|0|0],start
31300,1.3303046226501465,-0.3121190667152405,0.0,0.3610590398311615,0.6752405762672424,-12.477710723876951,4.1328125,2,C1,0,None,None,0.2664469606361414,[37500|0|0],start
31400,1.3297817707061768,-0.3122465312480926,0.0,0.4120577871799469,0.7108709216117859,-12.475220680236816,4.13671875,2,C1,0,None,None,0.2669851254458866,[37600|0|0],start
31500,1.3300663232803345,-0.3121291399002075,0.0,0.4357099235057831,0.710136890411377,-12.47419548034668,4.13671875,2,C1,0,None,None,0.2672929417807651,[37700|0|0],start
31600,1.3303037881851196,-0.3123695254325866,0.0,0.4678671956062317,0.7116082906723022,-12.503161430358888,4.13671875,2,C1,0,None,None,0.267630839376468,[37800|0|0],start
31700,1.329975128173828,-0.3121115565299988,0.0,0.4695823192596435,0.7210938930511475,-12.510016441345217,4.13671875,2,C1,0,None,None,0.2680486495698868,[37900|0|0],start
31800,1.3298968076705933,-0.3124109804630279,0.0,0.4820199310779571,0.7195411920547485,-12.503515243530272,4.1328125,2,C1,0,None,None,0.2683581472159159,[38000|0|0],start
31900,1.3298344612121582,-0.3121310174465179,0.0,0.4686279594898224,0.7156220078468323,-12.503820419311523,4.13671875,2,C1,0,None,None,0.2686449683648795,[38100|0|0],start
32000,1.329943299293518,-0.3120810687541961,0.0,0.4729007184505462,0.7132483720779419,-12.491954803466797,4.13671875,2,C1,0,None,None,0.2687647206083606,[38200|0|0],start
32100,1.329846978187561,-0.3124648928642273,0.0,0.4868628084659576,0.7112909555435181,-12.493796348571776,4.13671875,2,C1,0,None,None,0.2691604461482162,[38300|0|0],start
32200,1.3301361799240112,-0.3121913969516754,0.0,0.4805948734283447,0.7085287570953369,-12.493927001953123,4.13671875,2,C1,0,None,None,0.2695584884305788,[38400|0|0],start
32300,1.3296658992767334,-0.3124096691608429,0.0,0.4797288775444031,0.7177661061286926,-12.490217208862305,4.1328125,2,C1,0,None,None,0.2700769540943395,[38500|0|0],start
32400,1.3299057483673096,-0.3125528991222381,0.0,0.4791462421417236,0.7129645943641663,-12.505353927612305,4.13671875,2,C1,0,None,None,0.2703563148075608,[38600|0|0],start
32500,1.3300492763519287,-0.3123656213283539,0.0,0.4468159079551697,0.6960507035255432,-12.492026329040527,4.13671875,2,C1,0,None,None,0.2705922666129173,[38700|0|0],start
32600,1.330224633216858,-0.3120229840278625,0.0,0.4416438043117523,0.7009854316711426,-12.50783920288086,4.13671875,2,C1,0,None,None,0.2709771696523517,[38800|0|0],start
32700,1.3297356367111206,-0.3122780621051788,0.0,0.1874610334634781,0.6028329133987427,-12.520211219787598,4.13671875,2,C1,0,None,None,0.2715286969936056,[38900|0|0],start
32800,1.3301397562026978,-0.3119590282440185,0.0,0.2245749235153198,0.6209099888801575,-12.520991325378418,4.1328125,2,C1,0,None,None,0.2720435709277287,[39000|0|0],start
32900,1.3298457860946655,-0.312372624874115,0.0,0.2695197165012359,0.6456734538078308,-12.543028831481934,4.13671875,2,C1,0,None,None,0.2725509963871251,[39100|0|0],start
33000,1.330012321472168,-0.3124870955944061,0.0,0.2866453826427459,0.6506069898605347,-12.537209510803224,4.13671875,2,C1,0,None,None,0.2727530794833104,[39200|0|0],start
33100,1.3300756216049194,-0.3124034702777862,0.0,0.2931153774261474,0.6556323170661926,-12.54171085357666,4.13671875,2,C1,0,None,None,0.2728579608466984,[39300|0|0],start
33200,1.3300963640213013,-0.3122775852680206,0.0,0.2956359684467315,0.6625548601150513,-12.547721862792969,4.13671875,2,C1,0,None,None,0.2729855433044308,[39400|0|0],start
33300,1.3301485776901243,-0.3125499784946441,0.0,0.3049299120903015,0.6709707975387573,-12.540411949157717,4.1328125,2,C1,0,None,None,0.2732628956743907,[39500|0|0],start
33400,1.330228567123413,-0.3124175369739532,0.0,0.2985890507698059,0.6723299026489258,-12.545339584350586,4.13671875,2,C1,0,None,None,0.2734176182190982,[39600|0|0],start
33500,1.3300859928131104,-0.3122205734252929,0.0,0.3009987771511078,0.6849885582923889,-12.547350883483888,4.13671875,2,C1,0,None,None,0.273660768529522,[39700|0|0],start
33600,1.33005952835083,-0.312342882156372,0.0,0.3048876523971557,0.6893145442008972,-12.555615425109863,4.13671875,2,C1,0,None,None,0.2737859076259785,[39800|0|0],start
33700,1.3299204111099243,-0.3122274577617645,0.0,0.2997207045555115,0.6877291202545166,-12.550305366516112,4.13671875,2,C1,0,None,None,0.2739666737665794,[39900|0|0],start
33800,1.3299076557159424,-0.3122772872447967,0.0,0.30304616689682,0.6942444443702698,-12.531937599182127,4.1328125,2,C1,0,None,None,0.2740181099158801,[40000|0|0],start
33900,1.3300327062606812,-0.3123401999473572,0.0,0.2977096438407898,0.6860284209251404,-12.531939506530762,4.13671875,2,C1,0,None,None,0.2741580943681701,[40100|0|0],start
34000,1.330006718635559,-0.3120794296264648,0.0,0.2851436734199524,0.6824830174446106,-12.529354095458984,4.1328125,2,C1,0,None,None,0.2744201564160096,[40200|0|0],start
34100,1.330005407333374,-0.3121368885040283,0.0,0.2709921598434448,0.6784332990646362,-12.534698486328123,4.13671875,2,C1,0,None,None,0.2744776302546171,[40300|0|0],start
34200,1.330028772354126,-0.3123964071273803,0.0,0.2835780084133148,0.6778041124343872,-12.52255153656006,4.13671875,2,C1,0,None,None,0.2747381985567209,[40400|0|0],start
34300,1.3299952745437622,-0.3124979138374328,0.0,0.3205663859844208,0.6874797940254211,-12.522345542907717,4.1328125,2,C1,0,None,None,0.2748450896951976,[40500|0|0],start
34400,1.3299416303634644,-0.3124437034130096,0.0,0.3545792996883392,0.7033256888389587,-12.522016525268556,4.13671875,2,C1,0,None,None,0.2749213554686217,[40600|0|0],start
34500,1.3298060894012451,-0.3121499121189117,0.0,0.3719253242015838,0.7174703478813171,-12.534849166870115,4.13671875,2,C1,0,None,None,0.2752449055836379,[40700|0|0],start
34600,1.3298475742340088,-0.3128292560577392,0.0,0.4046946465969085,0.7136864066123962,-12.536273956298828,4.1328125,2,C1,0,None,None,0.2759255150006835,[40800|0|0],start
34700,1.322352409362793,-0.3223301768302917,0.0,0.7571441531181335,0.8585529923439026,-12.530632019042969,4.13671875,2,C1,0,None,None,0.288026960863597,[40900|0|0],start
34800,1.3216294050216677,-0.3223853409290313,0.0,0.7560524940490723,0.8484081625938416,-12.50612735748291,4.1328125,2,C1,0,None,None,0.2887520666180051,[41000|0|0],start
34900,1.330036759376526,-0.3124033808708191,0.0,0.4084608852863312,0.7027078866958618,-12.532266616821287,4.13671875,2,C1,0,None,None,0.3018028571630985,[41100|0|0],start
