,time.ms,stateEstimate.x,stateEstimate.y,stateEstimate.z,stabilizer.roll,stabilizer.pitch,stabilizer.yaw,pm.vbat,drone_id,node_name,wind_speed,global_wind_direction,relative_wind_direction,travel_dist,waiting_time
0,0,1.808815717697144,-0.1318591237068176,0.0,0.3634437918663025,0.5691932439804077,-4.632386207580566,4.13671875,6.1,B1,6.1,180,450.0,0.0,[6200|0|0|0]
1,100,1.808753490447998,-0.13177390396595,0.0,0.3641687929630279,0.5657765865325928,-4.628671646118164,4.1328125,6.1,B1,6.1,180,450.0,0.0001055207788533,[6300|0|0|0]
2,200,1.8086841106414795,-0.1322258859872818,0.0,0.3752257227897644,0.5690445303916931,-4.627591609954834,4.13671875,6.1,B1,6.1,180,450.0,0.0005627967405654,[6400|0|0|0]
3,300,1.808524250984192,-0.1317881792783737,0.0,0.3597877323627472,0.5743638873100281,-4.629029273986816,4.13671875,6.1,B1,6.1,180,450.0,0.0010287820118468,[6500|0|0|0]
4,400,1.8089683055877688,-0.132458746433258,0.0,0.373234212398529,0.570024847984314,-4.6212239265441895,4.1328125,6.1,B1,6.1,180,450.0,0.001833048634409,[6600|0|0|0]
5,500,1.8085092306137085,-0.1320061981678009,0.0,0.3700335025787353,0.5771417021751404,-4.631954669952393,4.1328125,6.1,B1,6.1,180,450.0,0.0024776801294328,[6700|0|0|0]
6,600,1.808630108833313,-0.1321993321180343,0.0,0.3678592145442962,0.5706477761268616,-4.627660274505615,4.1328125,6.1,B1,6.1,180,450.0,0.002705522765275,[6800|0|0|0]
7,700,1.8084666728973389,-0.1318944692611694,0.0,0.3659683167934418,0.5756961703300476,-4.627433776855469,4.1328125,6.1,J1,6.1,180,450.0,0.0030514312310048,[6800|0|0|0]
8,800,1.8084291219711304,-0.1320274919271469,0.0,0.2579042911529541,0.504063606262207,-5.05956506729126,3.39453125,6.1,J1,6.1,180,450.0,0.0031896524367689,[6800|0|0|0]
9,900,1.8086403608322144,-0.1332435458898544,0.0,2.870788335800171,-1.9296993017196653,-3.843486785888672,3.615234375,6.1,J1,6.1,180,450.0,0.0044239170342717,[6800|0|0|0]
10,1000,1.814099907875061,-0.1392648369073867,0.040231168270111,0.5409529805183411,-5.152597904205322,-1.5777519941329956,3.689453125,6.1,J1,6.1,180,450.0,0.0454679117205696,[6800|0|0|0]
11,1100,1.8292065858840945,-0.1457723975181579,0.1042418777942657,0.6620134711265564,-2.8076508045196533,0.2249587476253509,3.736328125,6.1,J1,6.1,180,450.0,0.1115582362723313,[6800|0|0|0]
12,1200,1.8495131731033323,-0.1500724852085113,0.1798169463872909,-0.5517140030860901,-0.7291970252990723,1.213936686515808,3.748046875,6.1,J1,6.1,180,450.0,0.1899319514546403,[6800|0|0|0]
13,1300,1.8699347972869875,-0.1530853807926178,0.2605699896812439,-0.8015368580818176,0.928097665309906,1.6960279941558838,3.75390625,6.1,J1,6.1,180,450.0,0.2732816621640017,[6800|0|0|0]
14,1400,1.887815833091736,-0.1546472311019897,0.3440898954868316,-0.4195888638496399,2.094937801361084,1.817010521888733,3.75390625,6.1,J1,6.1,180,450.0,0.3587085050391415,[6800|0|0|0]
15,1500,1.9013514518737795,-0.1547764986753463,0.4297602772712707,-0.4451709687709808,2.4798645973205566,1.553086757659912,3.75390625,6.1,J1,6.1,180,450.0,0.4454416820881225,[6800|0|0|0]
16,1600,1.910786271095276,-0.1543852984905243,0.5176621079444885,-0.3463693857192993,2.5232903957366943,1.5205602645874023,3.779296875,6.1,J1,6.1,180,450.0,0.5338492648343439,[6800|0|0|0]
17,1700,1.916104793548584,-0.1529908925294876,0.602724015712738,0.0895052254199981,1.9666838645935056,1.3845586776733398,3.81640625,6.1,J1,6.1,180,450.0,0.619088687651751,[6800|0|0|0]
18,1800,1.9178882837295528,-0.1519776433706283,0.6793555617332458,1.202387809753418,1.3023042678833008,1.275889277458191,3.81640625,6.1,J1,6.1,180,450.0,0.6957476816223005,[6800|0|0|0]
19,1900,1.9178489446640008,-0.1523903608322143,0.7427865862846375,1.0485516786575315,0.4707448780536651,0.7417063117027283,3.806640625,6.1,J1,6.1,180,450.0,0.7591800610424706,[6800|0|0|0]
20,2000,1.916148066520691,-0.1537894457578659,0.7909253835678101,0.6836498975753784,0.739777684211731,1.935784816741944,3.794921875,6.1,J1,6.1,180,450.0,0.8073692115740785,[6800|0|0|0]
21,2100,1.9138214588165283,-0.1570893973112106,0.8283084034919739,0.6405597925186157,0.3229669332504272,3.926918029785156,3.78515625,6.1,J1,6.1,180,450.0,0.8449696499001661,[6800|0|0|0]
22,2200,1.9111952781677248,-0.1616027802228927,0.8559719920158386,-0.5708954334259033,0.0137703008949756,1.7104281187057495,3.7734375,6.1,J1,6.1,180,450.0,0.873121764920628,[6800|0|0|0]
23,2300,1.9078718423843384,-0.1653147041797638,0.8756752610206604,-0.356642335653305,0.599018931388855,0.5684852004051208,3.76953125,6.1,J1,6.1,180,450.0,0.8934452098634583,[6800|0|0|0]
24,2400,1.904246211051941,-0.1676351130008697,0.8897703886032104,-0.7365888357162476,-0.0466153100132942,0.1568008214235305,3.76953125,6.1,J1,6.1,180,450.0,0.908182988570709,[6800|0|0|0]
25,2500,1.900434851646424,-0.1691572964191436,0.901769757270813,-0.8235486745834351,0.1921271681785583,-0.0484022609889507,3.76953125,6.1,J1,6.1,180,450.0,0.9208648004009616,[6800|0|0|0]
26,2600,1.89584755897522,-0.1695834398269653,0.911497950553894,-0.4385520815849304,0.1806524097919464,-0.0804909169673919,3.7578125,6.1,J1,6.1,180,450.0,0.93162874934214,[6800|0|0|0]
27,2700,1.8913376331329343,-0.1685863584280014,0.9188393354415894,-0.218402624130249,0.2788650393486023,-0.034170527011156,3.7578125,6.1,J1,6.1,180,450.0,0.9403022454358934,[6800|0|0|0]
28,2800,1.886240005493164,-0.1681471616029739,0.9255824089050292,-0.3036862909793854,-0.0743005573749542,0.0423200726509094,3.7578125,6.1,J1,6.1,180,450.0,0.9487667443069554,[6800|0|0|0]
29,2900,1.8808670043945312,-0.1667133122682571,0.9312279224395752,0.0211332533508539,-0.3686674833297729,0.0333940163254737,3.7578125,6.1,J1,6.1,180,450.0,0.9566911930442064,[6800|0|0|0]
30,3000,1.876529574394226,-0.1658164113759994,0.935980260372162,-0.1188749969005584,-0.4414253532886505,-0.0036474387161433,3.75390625,6.1,J1,6.1,180,450.0,0.9631875340176764,[6800|0|0|0]
31,3100,1.872335433959961,-0.1637895852327346,0.9402127861976624,0.1542326509952545,-0.6030280590057373,-0.0106782298535108,3.7578125,6.1,J1,6.1,180,450.0,0.9694814289215404,[6800|0|0|0]
32,3200,1.869120597839356,-0.1629307121038437,0.944399893283844,0.1617014408111572,-1.083234429359436,-0.0274932198226451,3.7578125,6.1,J1,6.1,180,450.0,0.9748297651193716,[6800|0|0|0]
33,3300,1.867424488067627,-0.1618202477693557,0.945824921131134,0.2995145320892334,-0.6153160333633423,0.1602561026811599,3.75390625,6.1,J1,6.1,180,450.0,0.9773077933196704,[6800|0|0|0]
34,3400,1.866767406463623,-0.1610588431358337,0.9459747672080994,0.3609209656715393,-0.3243652582168579,0.2170985788106918,3.748046875,6.1,J1,6.1,180,450.0,0.978324625211898,[6800|0|0|0]
35,3500,1.8666905164718628,-0.1604823172092437,0.9453136920928956,-0.0074851708486676,-0.424376368522644,0.1856503337621688,3.7421875,6.1,J1,6.1,180,450.0,0.9792051446738096,[6800|0|0|0]
36,3600,1.867315411567688,-0.1599390208721161,0.944893717765808,-0.0155113320797681,-0.3763461112976074,0.0240922179073095,3.7421875,6.1,J1,6.1,180,450.0,0.98013360750351,[6800|0|0|0]
37,3700,1.8680369853973389,-0.1594353914260864,0.94480299949646,0.2190478593111038,0.2516960799694061,-0.2702265679836273,3.748046875,6.1,J1,6.1,180,49.0,0.9810182210999115,[6800|0|0|0]
38,3800,1.866144180297852,-0.156974583864212,0.9447885155677797,-8.612058639526367,8.341837882995605,0.2319893389940261,3.716796875,6.1,J1,6.1,180,49.0,0.9841228136312128,[6800|0|0|0]
39,3900,1.849426031112671,-0.1380924731492996,0.9437249302864076,-15.113247871398926,14.75623893737793,1.8001233339309692,3.7109375,6.1,J1,6.1,180,49.0,1.0093648783423044,[6800|0|0|0]
40,4000,1.807480931282044,-0.0952044278383255,0.9409823417663574,-17.726837158203125,15.590718269348145,1.452439546585083,3.701171875,6.1,J1,6.1,180,49.0,1.06941733559584,[6800|0|0|0]
41,4100,1.7406882047653198,-0.0268664602190256,0.9384339451789856,-13.289258003234863,10.568718910217283,-0.3696646392345428,3.6953125,6.1,J1,6.1,180,49.0,1.1650093878755192,[6800|0|0|0]
42,4200,1.6568430662155151,0.0601650141179561,0.941402792930603,-6.256476402282715,4.049329280853272,-1.3250442743301392,3.705078125,6.1,J1,6.1,180,49.0,1.285894866079797,[6800|0|0|0]
43,4300,1.568982481956482,0.152882695198059,0.9515831470489502,0.8268126845359802,-3.1469130516052246,-1.170710802078247,3.7265625,6.1,J1,6.1,180,49.0,1.4140342053210515,[6800|0|0|0]
44,4400,1.4887226819992063,0.2444929480552673,0.962909996509552,6.718212604522705,-7.7412848472595215,-0.2470166087150573,3.732421875,6.1,J1,6.1,180,49.0,1.5363549780313588,[6800|0|0|0]
45,4500,1.420217990875244,0.3154586851596832,0.9805940985679626,9.5516357421875,-10.570272445678713,-3.15322208404541,3.748046875,6.1,J1,6.1,180,49.0,1.6365635406114838,[6800|0|0|0]
46,4600,1.3724910020828247,0.3669207692146301,0.9960049986839294,9.11736297607422,-11.503803253173828,-7.140016078948975,3.748046875,6.1,J1,6.1,180,49.0,1.7084224815781752,[6800|0|0|0]
47,4700,1.3391492366790771,0.4035417437553406,1.0060431957244873,7.897558689117432,-9.1774320602417,-5.151159763336182,3.736328125,6.1,J1,6.1,180,49.0,1.7589549908803557,[6800|0|0|0]
48,4800,1.3183127641677856,0.427633672952652,1.0115607976913452,5.843134880065918,-6.575922012329102,-2.321829080581665,3.736328125,6.1,J1,6.1,180,49.0,1.7912818152005197,[6800|0|0|0]
49,4900,1.3043516874313354,0.4450600147247314,1.0147309303283691,3.8566861152648926,-4.3924946784973145,3.8219423294067374,3.748046875,6.1,J1,6.1,180,49.0,1.8138348369966049,[6800|0|0|0]
50,5000,1.296838641166687,0.4556740522384643,1.0166189670562744,2.5650649070739746,-3.305058240890503,5.848403930664063,3.732421875,6.1,J1,6.1,180,49.0,1.8269751695343908,[6800|0|0|0]
51,5100,1.290974259376526,0.4635904431343078,1.0174055099487305,1.2286176681518557,-2.1052136421203613,3.5170788764953613,3.732421875,6.1,J1,6.1,180,49.0,1.8368584315626,[6800|0|0|0]
52,5200,1.2858922481536863,0.4699499607086181,1.0180786848068235,0.7125943899154663,-1.5167367458343506,2.111255168914795,3.732421875,6.1,J1,6.1,180,49.0,1.8450268748804295,[6800|0|0|0]
53,5300,1.2808111906051636,0.4753648042678833,1.0175210237503052,0.6343313455581665,-1.6621606349945068,1.1681745052337646,3.732421875,6.1,J1,6.1,180,49.0,1.8524732607445031,[6800|0|0|0]
54,5400,1.275548815727234,0.4805187880992889,1.016133427619934,0.7000623345375061,-1.6641530990600586,0.7746312618255615,3.7265625,6.1,J1,6.1,180,49.0,1.859968696803284,[6800|0|0|0]
55,5500,1.271182417869568,0.4844197332859039,1.0133442878723145,0.9198626279830932,-1.640139102935791,0.4055643081665039,3.7265625,6.1,J1,6.1,180,49.0,1.8664542271695808,[6800|0|0|0]
56,5600,1.2674765586853027,0.4875504970550537,1.0106847286224363,0.8617305159568787,-1.7247883081436155,0.198878139257431,3.7265625,6.1,J1,6.1,180,49.0,1.8719867066747788,[6800|0|0|0]
57,5700,1.265062689781189,0.489467442035675,1.0077924728393557,0.8744885325431824,-1.9411317110061648,0.0229460094124078,3.7265625,6.1,J1,6.1,180,49.0,1.8762135949699363,[6800|0|0|0]
58,5800,1.2647216320037842,0.4906043410301208,1.005001664161682,0.4824441969394684,-2.4546315670013428,-0.2135517746210098,3.7265625,6.1,J1,6.1,180,49.0,1.8792463285234289,[6800|0|0|0]
59,5900,1.2665401697158811,0.490695059299469,1.0005769729614258,0.8595905900001526,-1.4914474487304688,-0.5100863575935364,3.720703125,6.1,J1,6.1,180,49.0,1.8840310125707127,[6800|0|0|0]
60,6000,1.2692155838012695,0.4906733334064483,0.9973490834236144,0.4737757742404938,-1.731889724731445,-0.663162112236023,3.720703125,6.1,J1,6.1,180,49.0,1.8882235754397747,[6800|0|0|0]
61,6100,1.274748921394348,0.4890108704566955,0.9950715899467468,0.4090063273906708,-1.152348875999451,-0.7418396472930908,3.720703125,6.1,J1,6.1,180,49.0,1.894433936501376,[6800|0|0|0]
62,6200,1.2811713218688965,0.4875952899456024,0.9923845529556274,0.615590512752533,-0.4154199957847595,-1.1864635944366455,3.720703125,6.1,J1,6.1,180,49.0,1.9015382495456123,[6800|0|0|0]
63,6300,1.288021683692932,0.4856672585010528,0.9894603490829468,0.4631944298744201,-0.3082656264305115,-1.4769209623336792,3.720703125,6.1,J1,6.1,180,49.0,1.9092321257247808,[6800|0|0|0]
64,6400,1.295325756072998,0.4819681942462921,0.9869449138641356,0.1600909531116485,-0.145726203918457,-1.7947533130645752,3.720703125,6.1,J1,6.1,180,49.0,1.9177971688673527,[6800|0|0|0]
65,6500,1.3021355867385864,0.4793828427791595,0.9837753176689148,-0.073156863451004,-0.0114607689902186,-1.9582269191741943,3.720703125,6.1,J1,6.1,180,49.0,1.925740982557474,[6800|0|0|0]
66,6600,1.3092466592788696,0.4770421087741852,0.9809197187423706,-0.3233603537082672,-0.0376235991716384,-2.010361909866333,3.720703125,6.1,J1,6.1,180,49.0,1.9337535248247255,[6800|0|0|0]
67,6700,1.3159669637680054,0.4746257960796356,0.9787957668304444,-0.2323036342859268,0.4681228995323181,-2.3183438777923584,3.716796875,6.1,J1,6.1,180,450.0,1.9412041778960152,[6800|0|0|0]
68,6800,1.3222755193710327,0.4732328951358795,0.973591148853302,-0.1718412637710571,-0.0573875606060028,-2.645594596862793,3.94921875,6.1,J1,6.1,180,450.0,1.9495003273114728,[6800|0|0|0]
69,6900,1.3282501697540283,0.4720294177532196,0.9403438568115234,0.6188151836395264,0.192243680357933,-2.557525157928467,3.900390625,6.1,J1,6.1,180,450.0,1.9833016177176237,[6800|0|0|0]
70,7000,1.3330503702163696,0.4707214832305908,0.8655809164047241,0.1255049705505371,0.6640301942825317,-1.9330655336380005,3.794921875,6.1,J1,6.1,180,450.0,2.0582299159464283,[6800|0|0|0]
71,7100,1.3366116285324097,0.468124657869339,0.7576748728752136,-0.2511643469333648,0.9332348704338074,-1.2770198583602903,3.720703125,6.1,J1,6.1,180,450.0,2.166225935747822,[6800|0|0|0]
72,7200,1.338657021522522,0.4647835791110992,0.6335379481315613,0.1065313145518302,0.330603539943695,-0.7959311604499817,3.701171875,6.1,J1,6.1,180,450.0,2.2904246576597806,[6800|0|0|0]
73,7300,1.339840054512024,0.4621016383171081,0.5067449808120728,-0.9888906478881836,0.8216708302497864,-0.5221663117408752,3.6640625,6.1,J1,6.1,180,450.0,2.417251503931213,[6800|0|0|0]
74,7400,1.3404642343521118,0.4608681499958038,0.3877846598625183,-1.833446979522705,0.4861505329608917,-0.2206494063138961,3.630859375,6.1,J1,6.1,180,450.0,2.5362198570942818,[6800|0|0|0]
75,7500,1.340847373008728,0.4628920257091522,0.2834897637367248,-1.6590064764022827,0.7044273614883423,0.6619436740875244,3.62109375,6.1,J1,6.1,180,450.0,2.6405350919644737,[6800|0|0|0]
76,7600,1.340667963027954,0.4687860906124115,0.198411613702774,-0.2704901397228241,0.376579999923706,2.308401107788086,3.626953125,6.1,J1,6.1,180,450.0,2.725817351562965,[6800|0|0|0]
77,7700,1.3404957056045532,0.4748426675796509,0.1354564428329467,0.6120446920394897,1.0013693571090698,4.27650260925293,3.63671875,6.1,J1,6.1,180,450.0,2.789063421294049,[6800|0|0|0]
78,7800,1.3391071557998655,0.4802211225032806,0.0919070690870285,1.0857114791870115,0.8992047905921936,5.932940483093262,3.65234375,6.1,J1,6.1,180,450.0,2.8329656285459324,[6800|0|0|0]
79,7900,1.337499976158142,0.4839611649513244,0.0644940063357353,2.1199893951416016,-0.8981792330741882,6.780365467071533,3.673828125,6.1,J1,6.1,180,450.0,2.8606792885950902,[6800|0|0|0]
80,8000,1.3378634452819824,0.4849235117435455,0.0508080050349235,2.705895185470581,-0.821877658367157,5.982681751251221,3.6796875,6.1,J1,6.1,180,450.0,2.874403896158088,[6800|0|0|0]
81,8100,1.3402585983276367,0.4817687571048736,0.0456026345491409,2.2796778678894043,-0.942512571811676,4.069131374359131,3.6953125,6.1,J1,6.1,180,450.0,2.880944929473749,[6800|0|0|0]
82,8200,1.343550205230713,0.4750008285045624,0.0454423911869525,1.973846197128296,-0.6506119966506958,2.115302324295044,3.7109375,6.1,J1,6.1,180,450.0,2.888472559344991,[6800|0|0|0]
83,8300,1.34747576713562,0.4651958346366882,0.0493131428956985,1.0387245416641235,0.0744762048125267,0.3871452212333679,3.7109375,6.1,J1,6.1,180,450.0,2.89972114413638,[6800|0|0|0]
84,8400,1.3513413667678833,0.4533779323101043,0.0537720955908298,-0.1763541400432586,0.218092679977417,-0.5697900652885437,3.716796875,6.1,J1,6.1,180,450.0,2.912930532277208,[6800|0|0|0]
85,8500,1.3546472787857056,0.4417614340782165,0.0582475028932094,-1.234613299369812,0.6106573939323425,-1.2851629257202148,3.716796875,6.1,J1,6.1,180,450.0,2.9258108023040057,[6800|0|0|0]
86,8600,1.356431484222412,0.4319169223308563,0.0610136725008487,-1.401632308959961,1.0554121732711792,-1.578720211982727,3.7109375,6.1,J1,6.1,180,450.0,2.9361910477193374,[6800|0|0|0]
87,8700,1.357284665107727,0.4246779978275299,0.0618603453040123,-1.856266617774964,0.4850687086582184,-1.7666069269180298,3.7109375,6.1,J1,6.1,180,450.0,2.9435290856330814,[6800|0|0|0]
88,8800,1.3571479320526123,0.4196360111236572,0.0612294115126132,-2.05635929107666,0.4406636655330658,-1.6023958921432495,3.701171875,6.1,J1,6.1,180,450.0,2.94861223458816,[6800|0|0|0]
89,8900,1.3563576936721802,0.4177306592464447,0.0606063604354858,-2.386646270751953,0.0853034630417823,-0.9858527779579164,3.701171875,6.1,J1,6.1,180,450.0,2.950767004905065,[6800|0|0|0]
90,9000,1.3565765619277954,0.4195798635482788,0.0603288896381855,-1.5648924112319946,-0.1828907579183578,-0.763960063457489,3.705078125,6.1,J1,6.1,180,450.0,2.952649675855229,[6800|0|0|0]
91,9100,1.357201099395752,0.4236732125282287,0.0600908808410167,-0.5920531749725342,0.3994054198265075,-0.6464232206344604,3.701171875,6.1,J1,6.1,180,450.0,2.9567972294845477,[6800|0|0|0]
92,9200,1.359169363975525,0.4280563592910766,0.0599050037562847,-0.4495672881603241,-0.6187018752098083,-0.7828625440597534,3.701171875,6.1,J1,6.1,180,450.0,2.96160561708241,[6800|0|0|0]
93,9300,1.3614706993103027,0.4330916404724121,0.0599346421658992,0.5198076963424683,0.091868557035923,-0.6819164156913757,3.6953125,6.1,J1,6.1,180,450.0,2.967141958774677,[6800|0|0|0]
94,9400,1.3656874895095823,0.4397174119949341,0.0642520189285278,0.2519010901451111,0.4916034340858459,-0.4720866978168487,3.705078125,6.1,J1,6.1,180,450.0,2.976104207932332,[6800|0|0|0]
95,9500,1.3680915832519531,0.4425298571586609,0.065875306725502,0.3920407891273498,0.7098203897476196,-0.3784038722515106,3.701171875,6.1,J1,6.1,180,450.0,2.980144576454247,[6800|0|0|0]
96,9600,1.3689507246017456,0.4439689218997955,0.0657939016819,0.8848535418510437,0.8525712490081787,-0.3639886975288391,3.701171875,6.1,J1,6.1,180,450.0,2.9818225686977406,[6800|0|0|0]
97,9700,1.3691850900650024,0.4440283477306366,0.0656007081270217,0.1848446279764175,0.3839429020881653,-0.4235370457172394,3.701171875,6.1,J1,6.1,180,450.0,2.982132055933964,[6800|0|0|0]
98,9800,1.367763876914978,0.4432038366794586,0.0653600990772247,0.2678771913051605,0.6526497602462769,-0.4196452796459198,3.6953125,6.1,B2,6.1,180,450.0,2.9837926455901287,[6800|100|0|0]
99,9900,1.3667525053024292,0.4416535198688507,0.0656401365995407,-0.3680123686790466,0.2026280760765075,-0.5049533247947693,3.701171875,6.1,B2,6.1,180,450.0,2.985664750225513,[6800|200|0|0]
100,10000,1.364840030670166,0.4405800104141235,0.0654343590140342,-0.2927899658679962,0.1071745753288269,-0.623870849609375,3.6953125,6.1,B2,6.1,180,450.0,2.987867549849432,[6800|300|0|0]
101,10100,1.3639227151870728,0.4395133852958679,0.064777985215187,-0.3157172799110412,-0.0371330454945564,-0.4376004636287689,3.689453125,6.1,B2,6.1,180,450.0,2.989419961973266,[6800|400|0|0]
102,10200,1.3624587059020996,0.4390886425971985,0.0640837103128433,-1.7584692239761353,0.6861560940742493,0.0328975655138492,3.689453125,6.1,B2,6.1,180,450.0,2.991094998446477,[6800|500|0|0]
103,10300,1.3613170385360718,0.4411097764968872,0.0623124577105045,-0.1386867016553878,-0.3809964060783386,-0.1531503945589065,3.689453125,6.1,B2,6.1,180,450.0,2.9940148824161605,[6800|600|0|0]
104,10400,1.3602830171585083,0.4440650641918182,0.0626480504870414,0.2956300675868988,0.1377403736114502,-0.0501763261854648,3.6953125,6.1,B2,6.1,180,450.0,2.9971637787435634,[6800|700|0|0]
105,10500,1.359052658081055,0.4464031159877777,0.0637855529785156,-0.3918282389640808,0.0112487226724624,0.7078888416290283,3.701171875,6.1,B2,6.1,180,450.0,3.0000402664591936,[6800|800|0|0]
106,10600,1.35783588886261,0.4497118294239044,0.0653282701969146,0.0095705380663275,-0.1979807168245315,1.0480133295059204,3.6953125,6.1,B2,6.1,180,450.0,3.003888394361084,[6800|900|0|0]
107,10700,1.3572994470596311,0.4527402520179748,0.0657732933759689,-0.6215672492980957,-0.3368872106075287,0.8917655944824219,3.6953125,6.1,B2,6.1,180,450.0,3.0069959913179227,[6800|1000|0|0]
108,10801,1.357143759727478,0.4572897553443908,0.0654915645718574,-0.3000577092170715,-0.0582134239375591,0.5402100086212158,3.689453125,6.1,B2,6.1,180,450.0,3.01155686735017,[6800|1100|0|0]
109,10901,1.3573386669158936,0.4625027179718017,0.0650371015071868,0.1881505697965622,-0.4606829881668091,0.2203675955533981,3.689453125,6.1,B2,6.1,180,450.0,3.0167932310545003,[6800|1200|0|0]
110,11001,1.358197808265686,0.4673177003860473,0.0651724711060524,0.6903918981552124,0.0498610585927963,0.289576768875122,3.68359375,6.1,B2,6.1,180,450.0,3.021686134531651,[6800|1300|0|0]
111,11101,1.3595170974731443,0.4715431332588196,0.0660172998905181,0.4188295006752014,-0.2196006178855896,1.20982563495636,3.689453125,6.1,B2,6.1,180,450.0,3.026192634576063,[6800|1400|0|0]
112,11201,1.3610249757766724,0.4744511246681213,0.0670557245612144,0.8493039608001709,-0.0071163848042488,2.788001537322998,3.68359375,6.1,B2,6.1,180,450.0,3.0296289751894965,[6800|1500|0|0]
113,11301,1.3609563112258911,0.4763566851615906,0.0682867243885994,0.2043651640415191,-0.006331181153655,3.747654914855957,3.6796875,6.1,B2,6.1,180,450.0,3.0318986086818973,[6800|1600|0|0]
114,11401,1.3598535060882568,0.4777770042419433,0.0679670944809913,-0.6403751969337463,-0.1495599895715713,5.182046413421631,3.68359375,6.1,B2,6.1,180,450.0,3.0337249845302496,[6800|1700|0|0]
115,11501,1.358584761619568,0.4805094301700592,0.0682591348886489,-0.8248298764228821,0.2638855576515198,7.954876899719238,3.689453125,6.1,B2,6.1,180,450.0,3.036751723960589,[6800|1800|0|0]
116,11601,1.3554855585098269,0.4842416942119598,0.0692077353596687,-0.7109015583992004,0.300243079662323,11.234883308410645,3.6953125,6.1,B2,6.1,180,450.0,3.0416948704936706,[6800|1900|0|0]
117,11701,1.3526219129562378,0.4881500005722046,0.0671082064509391,-0.145182579755783,-0.8519939184188843,14.672411918640137,4.0390625,6.1,B2,6.1,180,450.0,3.046975338853647,[6800|2000|0|0]
118,11801,1.3506420850753784,0.4924965798854828,0.0285103451460599,0.1395201086997985,-1.6638989448547363,23.315290451049805,4.04296875,6.1,B2,6.1,180,450.0,3.085867592162952,[6800|2100|0|0]
119,11901,1.3559921979904177,0.4944218099117279,0.0,12.676454544067385,-11.312104225158691,29.627904891967773,4.04296875,6.1,B2,6.1,180,450.0,3.114939399798617,[6800|2200|0|0]
120,12002,1.3620944023132324,0.4960545897483825,0.0,8.962671279907227,-0.3131763339042663,28.390119552612305,4.046875,6.1,B2,6.1,180,450.0,3.121256271460473,[6800|2300|0|0]
121,12100,1.3619340658187866,0.4975761771202087,0.0,3.195279121398926,-5.897626876831055,28.036426544189453,4.046875,6.1,B2,6.1,180,450.0,3.122786283199497,[6800|2400|0|0]
122,12202,1.3612720966339111,0.4972213506698608,0.0,6.868388652801514,-2.101706027984619,28.25320625305176,4.046875,6.1,B2,6.1,180,450.0,3.123537352445034,[6800|2500|0|0]
123,12300,1.3609520196914673,0.4979270696640014,0.0,4.099960803985596,-4.764967441558838,27.984600067138672,4.0546875,6.1,B2,6.1,180,450.0,3.12431226440634,[6800|2600|0|0]
124,12400,1.3608955144882202,0.497486412525177,0.0,6.10886812210083,-2.698893547058105,28.1312313079834,4.0546875,6.1,B2,6.1,180,450.0,3.1247565295884,[6800|2700|0|0]
125,12500,1.3604620695114136,0.4975452125072479,0.0,4.707672119140625,-4.000462055206299,28.064929962158203,4.0546875,6.1,B2,6.1,180,450.0,3.1251939447068064,[6800|2800|0|0]
126,12602,1.3605408668518066,0.497533768415451,0.0,5.678913116455078,-3.0166726112365723,28.11593246459961,4.05859375,6.1,B2,6.1,180,450.0,3.1252735687489674,[6800|2900|0|0]
127,12702,1.3584845066070557,0.4936185777187347,0.0,4.760095119476318,-3.8325366973876953,28.03523826599121,4.05859375,6.1,B2,6.1,180,450.0,3.129695936400785,[6800|3000|0|0]
128,12800,1.3607803583145142,0.4977903962135315,0.0,5.640905857086182,-2.9922544956207275,28.13814163208008,4.05859375,6.1,B2,6.1,180,450.0,3.1344577642658145,[6800|3100|0|0]
129,12900,1.3607083559036257,0.4981163442134857,0.0,4.195788860321045,-4.392971038818359,28.01658058166504,4.06640625,6.1,B2,6.1,180,450.0,3.134791570266132,[6800|3200|0|0]
130,13000,1.3605616092681885,0.4975349605083465,0.0,5.5901947021484375,-2.982668161392212,28.082651138305664,4.06640625,6.1,B2,6.1,180,450.0,3.1353911881341228,[6800|3300|0|0]
131,13100,1.360767483711243,0.4979564547538757,0.0,4.590794563293457,-3.942458868026733,27.997764587402344,4.06640625,6.1,B2,6.1,180,450.0,3.1358602741446977,[6800|3400|0|0]
132,13200,1.360508918762207,0.4979076087474823,0.0,4.610079288482666,-3.898746013641357,28.025447845458984,4.06640625,6.1,B2,6.1,180,450.0,3.1361234124452366,[6800|3500|0|0]
133,13300,1.360467553138733,0.4978832900524139,0.0,5.097834587097168,-3.399401903152466,28.062116622924805,4.06640625,6.1,B2,6.1,180,450.0,3.1361713969608145,[6800|3600|0|0]
134,13400,1.3605082035064695,0.4979127645492553,0.0,4.954728126525879,-3.521692991256714,28.052793502807617,4.06640625,6.1,B2,6.1,180,450.0,3.136221608496951,[6800|3700|0|0]
135,13500,1.3603094816207886,0.4982798993587494,0.0,4.760206699371338,-3.682908773422241,28.066524505615234,4.0703125,6.1,B2,6.1,180,450.0,3.136639075089855,[6800|3800|0|0]
136,13600,1.360672950744629,0.4979245662689209,0.0,4.727296829223633,-3.7281765937805176,28.0848388671875,4.0703125,6.1,B2,6.1,180,450.0,3.137147377567433,[6800|3900|0|0]
137,13700,1.3606666326522827,0.4977897703647613,0.0,4.7396650314331055,-3.696601867675781,28.08965492248535,4.0703125,6.1,B2,6.1,180,450.0,3.1372823214597334,[6800|4000|0|0]
138,13800,1.3572213649749756,0.4943708777427673,0.0,4.812234878540039,-3.5425362586975098,28.041114807128903,4.0703125,6.1,B2,6.1,180,450.0,3.1421360515850103,[6800|4100|0|0]
139,13900,1.351218819618225,0.4958784580230713,0.0,4.769559383392334,-3.51548171043396,27.76345634460449,4.0703125,6.1,B2,6.1,180,450.0,3.148325021536578,[6800|4200|0|0]
140,14000,1.3406413793563845,0.5012901425361633,0.0,2.170346736907959,-5.815063953399658,26.281368255615234,4.0703125,6.1,B2,6.1,180,450.0,3.1602064596550066,[6800|4300|0|0]
141,14100,1.337777018547058,0.5089789032936096,0.0079519534483551,-1.8794180154800413,-2.645834922790528,1.7424687147140503,4.0703125,6.1,B2,6.1,180,450.0,3.171632533717258,[6800|4400|0|0]
142,14200,1.3465383052825928,0.5070104002952576,0.0,-0.733768105506897,-3.169279098510742,-1.7555001974105835,4.07421875,6.1,B2,6.1,180,450.0,3.1836270621765843,[6800|4500|0|0]
143,14300,1.3419064283370972,0.5078173279762268,0.0,-0.921232521533966,1.110772967338562,1.2069274187088013,4.07421875,6.1,B2,6.1,180,450.0,3.188328701924643,[6800|4600|0|0]
144,14400,1.3387410640716553,0.5100645422935486,0.0,-0.659950315952301,0.8102045655250549,1.0550280809402466,4.07421875,6.1,B2,6.1,180,450.0,3.1922106477152115,[6800|4700|0|0]
145,14500,1.3365299701690674,0.5145816802978516,0.0,-2.2362308502197266,-0.254146546125412,-1.248748540878296,4.07421875,6.1,B2,6.1,180,450.0,3.197239909290829,[6800|4800|0|0]
146,14600,1.3343284130096436,0.5201280117034912,0.0009918201249092,-2.2928717136383057,-0.6061616539955139,-0.1472597867250442,4.07421875,6.1,B2,6.1,180,450.0,3.203289070649858,[6800|4900|0|0]
147,14700,1.326119065284729,0.5206729769706726,0.003653259249404,-1.6267077922821045,-0.0763683170080185,1.71193528175354,4.07421875,6.1,B2,6.1,180,450.0,3.211936245646606,[6800|5000|0|0]
148,14800,1.3185821771621704,0.5212363004684448,0.0062068891711533,-1.2267961502075195,0.7245863676071167,2.671236038208008,4.1484375,6.1,B2,6.1,180,450.0,3.219913904558364,[6800|5100|0|0]
149,14900,1.3115968704223633,0.5247470140457153,0.0097508914768695,-1.1375916004180908,0.2145064622163772,2.7976443767547607,4.1484375,6.1,B2,6.1,180,450.0,3.228497585145021,[6800|5200|0|0]
150,15000,1.3482153415679932,0.5026274919509888,0.0,-1.0085211992263794,-0.2346329092979431,2.8278512954711914,4.1484375,6.1,B2,6.1,180,450.0,3.272375433443862,[6800|5300|0|0]
151,15100,1.3486868143081665,0.5034271478652954,0.0,-1.0811647176742554,-0.1588168144226074,2.9620063304901123,4.15234375,6.1,B2,6.1,180,450.0,3.2733037308778843,[6800|5400|0|0]
152,15200,1.3485205173492432,0.5034403800964355,0.0,-1.119297742843628,-0.0908426344394683,3.0005404949188232,4.15234375,6.1,B2,6.1,180,450.0,3.2734705534497626,[6800|5500|0|0]
153,15300,1.3484007120132446,0.503319501876831,0.0,-1.141226291656494,-0.0444848276674747,3.0017406940460205,4.15234375,6.1,B2,6.1,180,450.0,3.273640744114925,[6800|5600|0|0]
154,15400,1.3481698036193848,0.5034685730934143,0.0,-1.1547802686691284,-0.0122864032164216,3.02919864654541,4.15234375,6.1,B2,6.1,180,450.0,3.273915591188711,[6800|5700|0|0]
155,15500,1.348168969154358,0.5035277009010315,0.0,-1.163063406944275,-0.0063356235623359,3.0543408393859863,4.15234375,6.1,B2,6.1,180,450.0,3.273974724884397,[6800|5800|0|0]
156,15600,1.348065972328186,0.5039014220237732,0.0,-1.1709405183792114,-0.0041566975414752,3.0482277870178223,4.15234375,6.1,B2,6.1,180,450.0,3.274362379142448,[6800|5900|0|0]
157,15700,1.348362922668457,0.5035877227783203,0.0,-1.1571943759918213,-0.0050622862763702,3.022344827651977,4.16015625,6.1,B2,6.1,180,450.0,3.274794335993516,[6800|6000|0|0]
158,15800,1.3479527235031128,0.5041764974594116,0.0,-1.1625570058822632,0.0056688990443944,3.006598234176636,4.16015625,6.1,B2,6.1,180,450.0,3.275511914546946,[6800|6100|0|0]
159,15900,1.3478728532791138,0.5036368370056152,0.0,-1.135875225067139,0.0106152733787894,2.9736154079437256,4.16015625,6.1,B2,6.1,180,450.0,3.276057453416389,[6800|6200|0|0]
160,16000,1.3481473922729492,0.5040592551231384,0.0,-1.1369132995605469,-0.0119682094082236,2.960799217224121,4.16015625,6.1,B2,6.1,180,450.0,3.2765612477446107,[6800|6300|0|0]
161,16100,1.3479371070861816,0.5040076375007629,0.0,-1.130695104598999,-0.0183501951396465,2.949137687683105,4.16015625,6.1,B2,6.1,180,450.0,3.276777775430401,[6800|6400|0|0]
162,16200,1.3481364250183103,0.5039440393447876,0.0,-1.1168537139892578,-0.0313947796821594,2.9447412490844727,4.1640625,6.1,B2,6.1,180,450.0,3.276986993889222,[6800|6500|0|0]
163,16300,1.3480050563812256,0.5040327906608582,0.0,-1.107669711112976,-0.044742077589035,2.964432954788208,4.1640625,6.1,B2,6.1,180,450.0,3.2771455325750805,[6800|6600|0|0]
164,16400,1.348133563995361,0.5039011836051941,0.0,-1.097658634185791,-0.048493530601263,2.963496923446656,4.1640625,6.1,B2,6.1,180,450.0,3.277329474478929,[6800|6700|0|0]
165,16500,1.347882628440857,0.5036889910697937,0.0,-1.0877865552902222,-0.0482307747006416,2.974459409713745,4.1640625,6.1,B2,6.1,180,450.0,3.2776580993784634,[6800|6800|0|0]
166,16600,1.347948670387268,0.5037580728530884,0.0,-1.083961009979248,-0.059149008244276,2.9683306217193604,4.1640625,6.1,B2,6.1,180,450.0,3.277753670459178,[6800|6900|0|0]
167,16700,1.3477193117141724,0.503746747970581,0.0,-1.0770328044891355,-0.0635984987020492,2.9763479232788086,4.1640625,6.1,B2,6.1,180,450.0,3.277983308552464,[6800|7000|0|0]
168,16800,1.347980499267578,0.503765881061554,0.0,-1.0657941102981567,-0.0744462087750434,2.991316080093384,4.1640625,6.1,B2,6.1,180,450.0,3.278245195958087,[6800|7100|0|0]
169,16900,1.3480958938598633,0.5040388703346252,0.0,-1.0759577751159668,-0.0749594643712043,2.9808740615844727,4.1640625,6.1,B2,6.1,180,450.0,3.2785415725009184,[6800|7200|0|0]
170,17000,1.3480212688446045,0.5033499002456665,0.0,-1.0627014636993408,-0.0731457322835922,3.006542205810547,4.1640625,6.1,B2,6.1,180,450.0,3.279234572267428,[6800|7300|0|0]
171,17100,1.3484086990356443,0.5038703083992004,0.0,-1.080367922782898,-0.0886316001415252,2.985058784484864,4.1640625,6.1,B2,6.1,180,450.0,3.279883360984341,[6800|7400|0|0]
172,17200,1.3483961820602417,0.5038893818855286,0.0,-1.0788487195968628,-0.0733816102147102,2.980715751647949,4.1640625,6.1,B2,6.1,180,450.0,3.2799061748519205,[6800|7500|0|0]
173,17300,1.348713994026184,0.5037778615951538,0.0,-1.074534296989441,-0.0806127563118934,2.979722261428833,4.171875,6.1,B2,6.1,180,450.0,3.280242985215273,[6800|7600|0|0]
174,17400,1.3482496738433838,0.5039307475090027,0.0,-1.0753629207611084,-0.0667313411831855,3.000892639160156,4.171875,6.1,B2,6.1,180,450.0,3.28073182806815,[6800|7700|0|0]
175,17500,1.3483130931854248,0.503532350063324,0.0,-1.0605536699295044,-0.0699923038482666,2.9942994117736816,4.171875,6.1,B2,6.1,180,450.0,3.281135241674351,[6800|7800|0|0]
176,17600,1.3483470678329468,0.5038841366767883,0.0,-1.0641493797302246,-0.077980175614357,2.985164165496826,4.171875,6.1,B2,6.1,180,450.0,3.281488665072115,[6800|7900|0|0]
177,17700,1.3486522436141968,0.5038120150566101,0.0,-1.0602978467941284,-0.0803129523992538,2.9833950996398926,4.171875,6.1,B2,6.1,180,450.0,3.2818022472552166,[6800|8000|0|0]
178,17800,1.3485209941864014,0.5037431120872498,0.0,-1.0581203699111938,-0.0757565423846244,2.9786741733551025,4.171875,6.1,B2,6.1,180,450.0,3.2819504836592586,[6800|8100|0|0]
179,17900,1.3482218980789185,0.5035936236381531,0.0,-1.0550732612609863,-0.0617257580161094,2.9836037158966064,4.171875,6.1,B2,6.1,180,450.0,3.28228485662157,[6800|8200|0|0]
180,18000,1.3480654954910278,0.5040017366409302,0.0,-1.0625380277633667,-0.0632799416780471,3.003613948822021,4.171875,6.1,B2,6.1,180,450.0,3.2827219126735065,[6800|8300|0|0]
181,18100,1.3484169244766235,0.5036952495574951,0.0,-1.0525141954421997,-0.0702605843544006,2.9934680461883545,4.17578125,6.1,B2,6.1,180,450.0,3.283188213718143,[6800|8400|0|0]
182,18200,1.3483859300613403,0.5038018226623535,0.0,-1.0570415258407593,-0.0617764443159103,2.996390581130981,4.171875,6.1,B2,6.1,180,450.0,3.283299202368274,[6800|8500|0|0]
183,18300,1.3485244512557983,0.5037086009979248,0.0,-1.0475810766220093,-0.0695221051573753,2.965128183364868,4.17578125,6.1,B2,6.1,180,450.0,3.283466170628829,[6800|8600|0|0]
184,18400,1.3482441902160645,0.503871500492096,0.0,-1.0521966218948364,-0.0688933655619621,2.981802225112915,4.17578125,6.1,B2,6.1,180,450.0,3.283790334932222,[6800|8700|0|0]
185,18500,1.348494052886963,0.5039568543434143,0.0,-1.0474523305892944,-0.0774455592036247,2.978724479675293,4.17578125,6.1,B2,6.1,180,450.0,3.2840543740093366,[6800|8800|0|0]
186,18600,1.3484705686569214,0.5036720037460327,0.0,-1.0424456596374512,-0.0760836899280548,3.006964683532715,4.17578125,6.1,B2,6.1,180,450.0,3.284340191034528,[6800|8900|0|0]
187,18700,1.348375678062439,0.5038119554519653,0.0,-1.0444049835205078,-0.069666676223278,2.9941372871398926,4.17578125,6.1,B2,6.1,180,450.0,3.284509278896052,[6800|9000|0|0]
188,18800,1.3482272624969482,0.5034077167510986,0.0,-1.039834976196289,-0.066783495247364,2.974931240081787,4.17578125,6.1,B2,6.1,180,450.0,3.284939901825491,[6800|9100|0|0]
189,18900,1.3479766845703125,0.5039635896682739,0.0,-1.0571461915969849,-0.0601967833936214,2.970639228820801,4.17578125,6.1,B2,6.1,180,450.0,3.285549642751923,[6800|9200|0|0]
190,19000,1.3486353158950806,0.5039424300193787,0.0,-1.0548893213272097,-0.0737040936946868,2.9779067039489746,4.17578125,6.1,B2,6.1,180,450.0,3.2862086138838453,[6800|9300|0|0]
191,19100,1.3484759330749512,0.5038840174674988,0.0,-1.0554007291793823,-0.0696001276373863,2.971768379211426,4.17578125,6.1,B2,6.1,180,450.0,3.286378363433387,[6800|9400|0|0]
192,19200,1.348441243171692,0.5038793087005615,0.0,-1.0531566143035889,-0.0722265094518661,2.964426755905152,4.17578125,6.1,B2,6.1,180,450.0,3.286413371459241,[6800|9500|0|0]
193,19300,1.3484092950820925,0.5038597583770752,0.0,-1.0536013841629028,-0.0635872259736061,2.952455520629883,4.17578125,6.1,B2,6.1,180,450.0,3.286450826706904,[6800|9600|0|0]
194,19400,1.3479034900665283,0.5040623545646667,0.0,-1.1337194442749023,-0.1153234839439392,2.9481863975524902,4.17578125,6.1,B2,6.1,180,450.0,3.2869956972685936,[6800|9700|0|0]
195,19500,1.348020076751709,0.504172682762146,0.0,-1.1209465265274048,-0.1046950817108154,2.9429073333740234,4.17578125,6.1,B2,6.1,180,450.0,3.287156211337511,[6800|9800|0|0]
196,19600,1.3482145071029663,0.5037401914596558,0.0,-1.109089970588684,-0.099234901368618,2.935126304626465,4.1796875,6.1,B2,6.1,180,450.0,3.28763039683731,[6800|9900|0|0]
197,19700,1.3480182886123655,0.5038032531738281,0.0,-1.099959373474121,-0.092717744410038,2.936952829360962,4.1796875,6.1,B2,6.1,180,450.0,3.2878364999082432,[6800|10000|0|0]
198,19800,1.348255634307861,0.5036588907241821,0.0,-1.0995784997940063,-0.1043535768985748,2.975963592529297,3.419921875,6.1,J1,6.1,180,450.0,3.288114301089015,[6800|10000|0|0]
199,19900,1.3486390113830566,0.5043456554412842,0.0,-1.8766876459121704,-0.2601090967655182,2.9526076316833496,3.537109375,6.1,J1,6.1,180,450.0,3.288900827476647,[6800|10000|0|0]
200,20000,1.3463249206542969,0.5082112550735474,0.0061585525982081,-2.749577760696411,5.640822887420654,4.946699142456055,3.642578125,6.1,J1,6.1,180,450.0,3.296531400621751,[6800|10000|0|0]
201,20100,1.3354181051254272,0.5160905122756958,0.0466478914022445,0.6538499593734741,3.5447022914886475,6.631768226623535,3.6640625,6.1,J1,6.1,180,450.0,3.339197873124484,[6800|10000|0|0]
202,20200,1.3192063570022583,0.5215087532997131,0.1077614948153495,5.1734137535095215,-2.671473264694214,6.041503429412842,3.68359375,6.1,J1,6.1,180,450.0,3.402656920037731,[6800|10000|0|0]
203,20300,1.3076847791671753,0.5195284485816956,0.1798954606056213,5.519528865814209,-4.92983865737915,4.302024364471436,3.701171875,6.1,J1,6.1,180,450.0,3.475732068913516,[6800|10000|0|0]
204,20400,1.3064844608306885,0.5091128945350647,0.2592462301254272,3.7585930824279785,-5.465124130249023,2.7004170417785645,3.701171875,6.1,J1,6.1,180,450.0,3.555772490911357,[6800|10000|0|0]
205,20500,1.3148399591445925,0.4930244982242584,0.3419429063796997,2.1649739742279053,-3.858997344970703,1.661235809326172,3.705078125,6.1,J1,6.1,180,450.0,3.640432936878947,[6800|10000|0|0]
206,20600,1.3286978006362915,0.4748086929321289,0.427578717470169,0.0564192943274974,-1.9036935567855835,0.8704092502593994,3.705078125,6.1,J1,6.1,180,450.0,3.7290746171110616,[6800|10000|0|0]
207,20700,1.345303297042847,0.4576607644557953,0.5170607566833496,-2.0631320476531982,0.5344765782356262,0.5635204315185547,3.7109375,6.1,J1,6.1,180,450.0,3.821685789783082,[6800|10000|0|0]
208,20800,1.3606793880462646,0.4444379806518554,0.6083033680915833,-2.4100053310394287,2.506614923477173,0.3235043883323669,3.7421875,6.1,J1,6.1,180,450.0,3.915154930801201,[6800|10000|0|0]
209,20900,1.3717904090881348,0.4362477958202362,0.697752058506012,-2.7753169536590576,3.414192676544189,-0.218495175242424,3.7734375,6.1,J1,6.1,180,450.0,4.005662400841112,[6800|10000|0|0]
210,21000,1.3774794340133667,0.4336357116699219,0.7774262428283691,-2.054814338684082,2.716005325317383,-0.4873834252357483,3.779296875,6.1,J1,6.1,180,450.0,4.085582133295876,[6800|10000|0|0]
211,21100,1.3792693614959717,0.4340363144874573,0.8439249396324158,-1.4281561374664309,2.4221513271331787,-0.4718195796012878,3.7734375,6.1,J1,6.1,180,450.0,4.152106121447872,[6800|10000|0|0]
212,21200,1.3773317337036133,0.4378013014793396,0.8944135308265686,-0.7932546138763428,1.7691658735275269,-0.4893620014190674,3.7578125,6.1,J1,6.1,180,450.0,4.2027719617081605,[6800|10000|0|0]
213,21300,1.3722013235092163,0.4423788785934448,0.9313791394233704,-0.5414511561393738,1.0449347496032717,-0.5855972766876221,3.7421875,6.1,J1,6.1,180,450.0,4.240371583247882,[6800|10000|0|0]
214,21400,1.3659980297088623,0.4478954672813415,0.9577391743659972,0.5292799472808838,0.594629168510437,-0.5503156781196594,3.736328125,6.1,J1,6.1,180,450.0,4.268007882690851,[6800|10000|0|0]
215,21500,1.3577874898910522,0.452854722738266,0.9767388701438904,0.4818153977394104,0.0055542355403304,-0.4332590997219085,3.7265625,6.1,J1,6.1,180,450.0,4.289291576412556,[6800|10000|0|0]
216,21600,1.3504064083099363,0.4578345715999603,0.990578830242157,0.6077724099159241,-0.5730486512184143,-0.6039089560508728,3.720703125,6.1,J1,6.1,180,450.0,4.305748300130053,[6800|10000|0|0]
217,21700,1.3431124687194824,0.4616770148277282,0.9999402761459352,0.6834897398948669,-0.7354971170425415,-0.5245499014854431,3.720703125,6.1,J1,6.1,180,450.0,4.318222377014423,[6800|10000|0|0]
218,21800,1.337596416473389,0.4639321863651275,1.007691502571106,0.7011659145355225,-1.1924073696136477,-0.587778627872467,3.720703125,6.1,J1,6.1,180,450.0,4.327999602701651,[6800|10000|0|0]
219,21900,1.333670139312744,0.4658252894878387,1.0134342908859253,0.5805407166481018,-0.8914729952812195,-0.6495499610900879,3.716796875,6.1,J1,6.1,180,450.0,4.335209256604873,[6800|10000|0|0]
220,22000,1.3310370445251465,0.4669908285140991,1.0175386667251587,0.3753562271595001,-0.9807628989219666,-0.6192142963409424,3.716796875,6.1,J1,6.1,180,450.0,4.340222994772338,[6800|10000|0|0]
221,22100,1.330716252326965,0.4673811197280884,1.020286202430725,0.2569431364536285,-0.6773716807365417,-0.5058045983314514,3.7109375,6.1,J1,6.1,180,450.0,4.343016592330952,[6800|10000|0|0]
222,22200,1.330623745918274,0.4682414531707763,1.021566390991211,-0.0338537022471427,-0.0729624256491661,-0.3587867617607116,3.7109375,6.1,J1,6.1,180,450.0,4.344561782875401,[6800|10000|0|0]
223,22300,1.331061840057373,0.4693049788475036,1.0217688083648682,-0.2061893790960312,0.1986467093229293,-0.3504861891269684,3.7109375,6.1,J1,6.1,180,450.0,4.345729681044305,[6800|10000|0|0]
224,22400,1.3304179906845093,0.4709571301937103,1.0211753845214844,-0.0563082583248615,0.149260327219963,-0.2572657167911529,3.701171875,6.1,J1,6.1,180,450.0,4.34759952005973,[6800|10000|0|0]
225,22500,1.329769492149353,0.472329705953598,1.0201849937438965,0.3936691284179687,0.6885972619056702,-0.1523507833480835,3.6953125,6.1,J1,6.1,180,450.0,4.3494120841162704,[6800|10000|0|0]
226,22600,1.32751727104187,0.4731844365596771,1.018715739250183,0.5658700466156006,0.1142767146229744,-0.1409455239772796,3.701171875,6.1,J1,6.1,180,450.0,4.352233745522828,[6800|10000|0|0]
227,22700,1.324586272239685,0.4737395346164703,1.017573356628418,0.1285835355520248,-0.5676098465919495,-0.3093082308769226,3.701171875,6.1,J1,6.1,180,450.0,4.355428103969461,[6800|10000|0|0]
228,22800,1.322719931602478,0.4737717509269714,1.0168583393096924,-0.0138104753568768,-0.6849058866500854,-0.3264274895191192,3.65234375,6.1,J1,6.1,180,4.0,4.357426982412696,[6800|10000|0|0]
229,22900,1.3195600509643557,0.4752155244350433,1.0202209949493408,-3.907647371292114,7.752213954925537,-0.0076640821062028,3.568359375,6.1,J1,6.1,180,4.0,4.362261936449774,[6800|10000|0|0]
230,23000,1.298598289489746,0.4843716323375702,1.0402542352676392,-7.74412202835083,18.63103103637696,3.444434881210327,3.578125,6.1,J1,6.1,180,4.0,4.39266852247471,[6800|10000|0|0]
231,23100,1.2430367469787598,0.5051371455192566,1.076518416404724,-5.14526891708374,19.9057559967041,5.296558380126953,3.59375,6.1,J1,6.1,180,4.0,4.462191053911952,[6800|10000|0|0]
232,23200,1.152279019355774,0.5292363166809082,1.1277354955673218,1.891141414642334,12.236845970153809,4.35587739944458,3.626953125,6.1,J1,6.1,180,4.0,4.569153310675328,[6800|10000|0|0]
233,23300,1.041933536529541,0.5466450452804565,1.1948636770248413,5.794118881225586,3.9689536094665527,3.1481502056121826,3.673828125,6.1,J1,6.1,180,4.0,4.699481289856319,[6800|10000|0|0]
234,23400,0.9254467487335204,0.5489473938941956,1.2739216089248655,6.7123703956604,-0.8836432695388794,2.015507936477661,3.720703125,6.1,J1,6.1,180,4.0,4.840281251278484,[6800|10000|0|0]
235,23500,0.8158861398696899,0.5424548387527466,1.3469679355621338,4.343527317047119,-2.9204466342926025,2.564982414245605,3.748046875,6.1,J1,6.1,180,4.0,4.972119963810413,[6800|10000|0|0]
236,23600,0.7158523797988892,0.5409007668495178,1.4171767234802246,1.4709774255752563,-6.547006130218506,4.833689212799072,3.7421875,6.1,J1,6.1,180,4.0,5.094342883896256,[6800|10000|0|0]
237,23700,0.6286879181861877,0.5272610187530518,1.471383571624756,-0.8842682838439941,-8.906889915466309,1.6046953201293943,3.76953125,6.1,J1,6.1,180,4.0,5.1978903053133605,[6800|10000|0|0]
238,23800,0.5524071455001831,0.5154715180397034,1.5056216716766355,-2.063722848892212,-9.544000625610352,-0.445895791053772,3.75390625,6.1,J1,6.1,180,4.0,5.282329609572731,[6800|10000|0|0]
239,23900,0.4891762733459472,0.5074947476387024,1.5226950645446775,-2.9502413272857666,-9.789440155029297,-1.6536494493484497,3.720703125,6.1,J1,6.1,180,4.0,5.34830894575795,[6800|10000|0|0]
240,24000,0.4460692703723907,0.5018314123153687,1.5269683599472046,-2.597941398620605,-9.583065032958984,-1.2847676277160645,3.701171875,6.1,J1,6.1,180,4.0,5.391995878883817,[6800|10000|0|0]
241,24100,0.3921541571617126,0.5086511969566345,1.5052317380905151,-2.0061144828796387,-7.668269157409668,1.7292240858078003,3.6640625,6.1,J1,6.1,180,4.0,5.450526465971374,[6800|10000|0|0]
242,24200,0.3662592470645904,0.5109241008758545,1.4999765157699585,-1.1491929292678833,-8.061579704284668,4.519874572753906,3.6640625,6.1,J1,6.1,180,4.0,5.477046832160447,[6800|10000|0|0]
243,24300,0.358758807182312,0.5183443427085876,1.506668210029602,-0.7171311974525452,-5.955575942993164,-0.3111632466316223,3.6640625,6.1,J1,6.1,180,4.0,5.4895406450031485,[6800|10000|0|0]
244,24400,0.3561228811740875,0.5237617492675781,1.507414937019348,-0.3132750689983368,-3.867626905441284,-3.4318594932556152,3.673828125,6.1,J1,6.1,180,4.0,5.495611394622713,[6800|10000|0|0]
245,24500,0.3571231961250305,0.5291716456413269,1.511036038398743,0.3093901872634887,-1.467734932899475,-4.42638635635376,3.68359375,6.1,J1,6.1,180,4.0,5.502197742926261,[6800|10000|0|0]
246,24600,0.3569781184196472,0.5348658561706543,1.5139257907867432,0.6463397741317749,-0.0371624268591403,-4.287628173828125,3.68359375,6.1,J1,6.1,180,4.0,5.508584898001633,[6800|10000|0|0]
247,24700,0.3560302555561065,0.5420570373535156,1.5191868543624878,0.3775199651718139,0.23088239133358,-3.5020105838775635,3.68359375,6.1,J1,6.1,180,4.0,5.5175453846380185,[6800|10000|0|0]
248,24800,0.3520249128341675,0.5479758381843567,1.519309401512146,0.2383821755647659,-0.0786739885807037,-2.844100952148437,3.705078125,6.1,J1,6.1,180,4.0,5.524693110947779,[6800|10000|0|0]
249,24900,0.3476384580135345,0.5570449829101562,1.5198079347610474,0.3822595775127411,-0.5827780365943909,-2.370381116867065,3.6796875,6.1,J1,6.1,180,4.0,5.534779681591521,[6800|10000|0|0]
250,25000,0.3426002264022827,0.5645402073860168,1.5166645050048828,0.4537050127983093,-1.2626992464065552,-2.1782469749450684,3.6796875,6.1,J1,6.1,180,4.0,5.544342281569775,[6800|10000|0|0]
251,25100,0.3375337719917297,0.5718585252761841,1.5109457969665527,0.7960309982299805,-1.832387089729309,-1.96948790550232,3.6953125,6.1,J1,6.1,180,4.0,5.554921996058522,[6800|10000|0|0]
252,25201,0.3364977836608886,0.5802920460700989,1.5079691410064695,0.8467381596565247,-2.170459508895874,-1.8179640769958496,3.6796875,6.1,J1,6.1,180,4.0,5.563925219120722,[6800|10000|0|0]
253,25301,0.3373269736766815,0.5864158868789673,1.5021629333496094,1.149588704109192,-1.6895155906677246,-1.7050293684005735,3.68359375,6.1,J1,6.1,180,4.0,5.572404666607984,[6800|10000|0|0]
254,25401,0.3408230245113373,0.5908903479576111,1.49661386013031,1.43502676486969,-1.4724926948547363,-1.298864245414734,3.689453125,6.1,J1,6.1,180,4.0,5.580344149398187,[6800|10000|0|0]
255,25501,0.3454993963241577,0.594436526298523,1.4905058145523071,1.1508699655532837,-1.0803172588348389,-0.9155359864234924,3.673828125,6.1,J1,6.1,180,4.0,5.588814807869656,[6800|10000|0|0]
256,25602,0.3507497906684875,0.5967760682106018,1.484850287437439,1.1428166627883911,-0.2799257934093475,-0.5905280113220215,3.6796875,6.1,J1,6.1,180,4.0,5.596878621116275,[6800|10000|0|0]
257,25702,0.3561579883098602,0.5975857377052307,1.4796905517578125,0.9830493330955504,0.0711424127221107,-0.6078389883041382,3.68359375,6.1,J1,6.1,180,4.0,5.604397067678052,[6800|10000|0|0]
258,25802,0.3617153167724609,0.5972086191177368,1.4739680290222168,0.7523524761199951,0.1378330886363983,-0.7337135076522827,3.6640625,6.1,J1,6.1,180,450.0,5.6123828916511735,[6800|10000|0|0]
259,25902,0.3653391897678375,0.596230685710907,1.461768388748169,0.8587769269943237,0.3053866922855377,-0.4943048655986786,3.890625,6.1,J1,6.1,180,450.0,5.625146904815182,[6800|10000|0|0]
260,26002,0.3671254515647888,0.594466507434845,1.418341875076294,0.2407591193914413,-0.0654206648468971,-0.24870665371418,3.826171875,6.1,J1,6.1,180,450.0,5.668645929469656,[6800|10000|0|0]
261,26102,0.3675588071346283,0.5945889353752136,1.3368101119995115,-0.3166725039482116,0.368158608675003,-0.0105274198576807,3.7265625,6.1,J1,6.1,180,450.0,5.75017893613603,[6800|10000|0|0]
262,26202,0.368381142616272,0.5908428430557251,1.220189094543457,0.27281454205513,-0.4613002836704254,0.4658674895763397,3.689453125,6.1,J1,6.1,180,450.0,5.866863001696824,[6800|10000|0|0]
263,26302,0.361849695444107,0.5956839919090271,1.1082124710083008,-0.8520139455795288,0.3184370398521423,1.3822699785232544,3.6796875,6.1,J1,6.1,180,450.0,5.979134372681224,[6800|10000|0|0]
264,26402,0.3593041598796844,0.5947363972663879,0.9845145344734192,0.1166120916604995,-0.6049156785011292,2.773185968399048,3.66796875,6.1,J1,6.1,180,450.0,6.1028621270045935,[6800|10000|0|0]
265,26502,0.3583561480045318,0.5931693911552429,0.8627139329910278,0.1530254930257797,-0.8275684118270874,3.806748867034912,3.68359375,6.1,J1,6.1,180,450.0,6.224676497077012,[6800|10000|0|0]
266,26602,0.3591076731681824,0.5895515084266663,0.7431769371032715,1.188921332359314,0.7116596102714539,5.133113861083984,3.6953125,6.1,J1,6.1,180,450.0,6.344270590791455,[6800|10000|0|0]
267,26702,0.357898086309433,0.5838775038719177,0.6220712661743164,-0.5472496747970581,0.3306374251842499,6.463038444519043,3.6796875,6.1,J1,6.1,180,450.0,6.465515141016232,[6800|10000|0|0]
268,26802,0.3561325371265411,0.577836811542511,0.50070720911026,-1.5287350416183472,0.1574165225028991,7.123138904571533,3.68359375,6.1,J1,6.1,180,450.0,6.587042263399605,[6800|10000|0|0]
269,26902,0.353384256362915,0.572311282157898,0.3797142207622528,0.4297362864017486,-0.9187033772468568,7.827964305877685,3.642578125,6.1,J1,6.1,180,450.0,6.7081925326998295,[6800|10000|0|0]
270,27002,0.3490082919597626,0.569185733795166,0.2645252645015716,-5.113358497619629,1.973405718803405,9.790712356567385,3.6640625,6.1,J1,6.1,180,450.0,6.823506945335244,[6800|10000|0|0]
271,27102,0.3378191888332367,0.5745041370391846,0.1538451462984085,-4.5458269119262695,2.7352566719055176,10.522326469421388,3.578125,6.1,J1,6.1,180,450.0,6.93487826124427,[6800|10000|0|0]
272,27200,0.3202063143253326,0.5853819251060486,0.054821528494358,-0.4550448358058929,-1.8604620695114136,6.673449993133545,3.537109375,6.1,J1,6.1,180,450.0,7.036042565742751,[6800|10000|0|0]
273,27300,0.3058956563472748,0.5979088544845581,0.0,2.233313798904419,-8.18447208404541,1.0727338790893557,3.5625,6.1,J1,6.1,180,450.0,7.094069446391954,[6800|10000|0|0]
274,27400,0.2999984920024872,0.608484148979187,0.0,1.5605589151382446,-1.895469188690185,-0.1743388772010803,3.748046875,6.1,J1,6.1,180,450.0,7.1061778484730524,[6800|10000|0|0]
275,27500,0.3028317391872406,0.6106040477752686,0.0105302017182111,9.799489974975586,-9.089818000793455,-0.3060499131679535,3.76953125,6.1,J1,6.1,180,450.0,7.117286692190639,[6800|10000|0|0]
276,27600,0.3157173693180084,0.6010919213294983,0.0251988768577575,7.338718414306641,-7.801878929138184,-2.526894807815552,3.720703125,6.1,J1,6.1,180,450.0,7.139005118554831,[6800|10000|0|0]
277,27700,0.3370971381664276,0.5818033814430237,0.0206095911562442,5.85656213760376,-5.6870293617248535,-3.279038429260254,3.673828125,6.1,J1,6.1,180,450.0,7.1681633734788495,[6800|10000|0|0]
278,27800,0.3642570674419403,0.5544434189796448,0.0056514106690883,1.862274408340454,-1.438532471656799,-3.069148302078247,3.65234375,6.1,J1,6.1,180,450.0,7.209515235199148,[6800|10000|0|0]
279,27900,0.3940680921077728,0.5250213742256165,0.0,-1.850041151046753,0.6025689244270325,-2.9006764888763428,3.6640625,6.1,J1,6.1,180,450.0,7.251779787150938,[6800|10000|0|0]
280,28000,0.4222091436386108,0.4982374310493469,0.0,-3.487525701522827,4.505875587463379,-3.28588342666626,3.68359375,6.1,J1,6.1,180,450.0,7.290629476896558,[6800|10000|0|0]
281,28100,0.4452338218688965,0.478507786989212,0.0,-4.584603786468506,5.18999719619751,-3.5237748622894287,3.701171875,6.1,J1,6.1,180,450.0,7.320950998335097,[6800|10000|0|0]
282,28200,0.4588837325572967,0.4666066467761993,0.0,-3.188771247863769,6.237926483154297,-3.992996692657471,3.701171875,6.1,J1,6.1,180,450.0,7.339060586960217,[6800|10000|0|0]
283,28300,0.4635283052921295,0.4602786004543304,0.0,-4.553952217102051,5.153088569641113,-4.316883087158203,3.689453125,6.1,J1,6.1,180,450.0,7.346910187341184,[6800|10000|0|0]
284,28400,0.4614166021347046,0.4604513347148895,0.0,-3.368604898452759,3.371269464492798,-4.254271984100342,3.68359375,6.1,J1,6.1,180,450.0,7.349028943426685,[6800|10000|0|0]
285,28500,0.4549921751022339,0.4666610956192016,0.0,-1.9261435270309448,1.4559868574142456,-3.622672319412232,3.689453125,6.1,J1,6.1,180,450.0,7.357963952838222,[6800|10000|0|0]
286,28600,0.4483635425567627,0.4753230214118957,0.0,-1.6659444570541382,-0.1010981574654579,-2.689682960510254,3.689453125,6.1,J1,6.1,180,450.0,7.368871185661493,[6800|10000|0|0]
287,28700,0.4425817131996155,0.4863698780536651,0.0,0.1255964785814285,-0.2834982872009277,-1.91950786113739,3.689453125,6.1,J1,6.1,180,450.0,7.381339649575663,[6800|10000|0|0]
288,28800,0.4388479888439178,0.4977435171604156,0.0,1.7398279905319214,0.155435025691986,-1.3185365200042725,3.689453125,6.1,J1,6.1,180,450.0,7.3933104625846,[6800|10000|0|100]
289,28900,0.4347098469734192,0.5060998797416687,0.0,0.3433653712272644,0.4455876648426056,-0.6698737144470215,3.6953125,6.1,J1,6.1,180,450.0,7.402635322569058,[6800|10000|0|200]
290,29000,0.4292016327381134,0.513472855091095,0.0,1.1380127668380735,0.5679017305374146,-0.2974988520145416,3.689453125,6.1,J1,6.1,180,450.0,7.411838647488089,[6800|10000|0|300]
291,29100,0.4224247634410858,0.5186296105384827,0.0,0.3043337166309356,0.5843465924263,0.908636212348938,3.6796875,6.1,J1,6.1,180,450.0,7.420354402546401,[6800|10000|0|400]
292,29200,0.4147906303405761,0.5233067274093628,0.0,0.0453182384371757,-0.493410587310791,1.5972071886062622,3.6796875,6.1,J1,6.1,180,450.0,7.429307357947841,[6800|10000|0|500]
293,29300,0.4068012833595276,0.5271969437599182,0.0,1.3806805610656738,-0.0015441988361999,0.8507074117660522,3.6796875,6.1,J1,6.1,180,450.0,7.438193495941239,[6800|10000|0|600]
294,29400,0.3999505341053009,0.5285128951072693,0.0,-1.382752776145935,-1.09392511844635,-0.0466647520661354,3.6796875,6.1,J1,6.1,180,450.0,7.445169490013261,[6800|10000|0|700]
295,29500,0.393133670091629,0.5317689180374146,0.0,0.545710027217865,0.5458516478538513,-0.8919216394424438,3.68359375,6.1,J1,6.1,180,450.0,7.452724046274388,[6800|10000|0|800]
296,29600,0.3872029483318329,0.5368946194648743,0.0,-1.886361122131348,-0.8944064974784851,-1.2572784423828125,3.689453125,6.1,J1,6.1,180,450.0,7.460562813761409,[6800|10000|0|900]
297,29700,0.3813646137714386,0.5444108843803406,0.0002039292012341,-0.6483377814292908,-0.2600302100181579,-1.5874934196472168,3.689453125,6.1,J1,6.1,180,450.0,7.470082371305627,[6800|10000|0|1000]
298,29800,0.374693214893341,0.5548558235168457,0.0021071776282042,-0.6757997274398804,0.8762489557266235,-2.009127616882324,3.6796875,6.1,J1,6.1,180,450.0,7.482621377292177,[6800|10000|0|1100]
299,29900,0.3682487308979034,0.5662651658058167,0.0025896874722093,1.1830182075500488,-0.5909541249275208,-2.7541980743408203,3.6796875,6.1,J1,6.1,180,450.0,7.495733862990317,[6800|10000|0|1200]
300,30000,0.3607800900936126,0.5762143731117249,0.0023861983790993,0.2450765371322631,0.0952167585492134,-2.579028367996216,3.66796875,6.1,J1,6.1,180,450.0,7.508176078600507,[6800|10000|0|1300]
301,30100,0.3530617952346802,0.5860601663589478,0.0005495682125911,-0.7203249335289001,0.5453630685806274,-1.8354772329330444,3.673828125,6.1,J1,6.1,180,450.0,7.520820639904286,[6800|10000|0|1400]
302,30200,0.345656543970108,0.5954983830451965,0.0,0.9882239699363708,0.5106849074363708,-1.3645540475845337,3.66796875,6.1,J1,6.1,180,450.0,7.532829790820497,[6800|10000|0|1500]
303,30300,0.3372743427753448,0.6039282083511353,0.0,0.1845948547124862,0.6299099326133728,-1.0455451011657717,3.673828125,6.1,J1,6.1,180,450.0,7.544717736461276,[6800|10000|0|1600]
304,30400,0.3271189033985138,0.6124676465988159,0.0010120433289557,-0.0899411514401435,0.5538768172264099,-1.4467211961746216,3.6796875,6.1,J1,6.1,180,450.0,7.558024846824617,[6800|10000|0|1700]
305,30500,0.3151126503944397,0.6196082830429077,0.0042493748478591,-0.8694295883178711,-0.2367843091487884,-1.4989018440246582,3.6796875,6.1,J1,6.1,180,450.0,7.572364272035824,[6800|10000|0|1800]
306,30600,0.3019324541091919,0.626740038394928,0.0088227251544594,1.0082439184188845,0.349143773317337,-1.7687329053878784,3.6796875,6.1,J1,6.1,180,450.0,7.58803255342038,[6800|10000|0|1900]
307,30700,0.2879767417907715,0.6322987079620361,0.010799509473145,0.3773419559001922,0.8737260699272156,-1.846766471862793,3.673828125,6.1,J1,6.1,180,450.0,7.60318406786328,[6800|10000|0|2000]
308,30800,0.2730468511581421,0.6373555660247803,0.0023004205431789,2.7821528911590576,-0.8060129284858704,-0.5050559043884277,4.01171875,6.1,J1,6.1,180,450.0,7.621092388845675,[6800|10000|0|2100]
309,30900,0.2563713192939758,0.6412173509597778,0.0,1.920862317085266,1.1156212091445925,1.7719067335128784,4.015625,6.1,J1,6.1,180,450.0,7.638363135225391,[6800|10000|0|2200]
310,31000,0.2478965371847152,0.643735945224762,0.0,0.3329334259033203,2.600619077682495,3.6852266788482666,4.0234375,6.1,J1,6.1,180,450.0,7.647204246517025,[6800|10000|0|2300]
311,31100,0.2475698590278625,0.6439993381500244,0.0,-0.0005319960764609,2.7250277996063232,4.443411827087402,4.0234375,6.1,J1,6.1,180,450.0,7.647623882610852,[6800|10000|0|2400]
312,31200,0.247346431016922,0.6439960598945618,0.0,0.0311877429485321,2.5906693935394287,4.380892276763916,4.0234375,6.1,J1,6.1,180,450.0,7.647847334670659,[6800|10000|0|2500]
313,31300,0.2478125542402267,0.64373379945755,0.0,0.9223255515098572,1.6789946556091309,4.398177623748779,4.02734375,6.1,J1,6.1,180,450.0,7.648382172399438,[6800|10000|0|2600]
314,31400,0.2478770911693573,0.6434628963470459,0.0,0.715140163898468,1.8072794675827024,4.402518272399902,4.02734375,6.1,J1,6.1,180,450.0,7.648660656708695,[6800|10000|0|2700]
315,31500,0.2478942573070526,0.6439518332481384,0.0,0.1627114862203598,2.2421278953552246,4.410383701324463,4.02734375,6.1,J1,6.1,180,450.0,7.64914989486086,[6800|10000|0|2800]
316,31600,0.2481816858053207,0.6440214514732361,0.0,0.4939256310462951,1.853485465049744,4.431734085083008,4.02734375,6.1,J1,6.1,180,450.0,7.649445634338918,[6800|10000|0|2900]
317,31700,0.2480484247207641,0.6435742974281311,0.0,0.5953328609466553,1.7353934049606323,4.422549247741699,4.03125,6.1,J1,6.1,180,450.0,7.649912223297973,[6800|10000|0|3000]
318,31800,0.2479125708341598,0.6437511444091797,0.0,0.4797924160957336,1.7903029918670654,4.412689685821533,4.03125,6.1,J1,6.1,180,450.0,7.650135228080907,[6800|10000|0|3100]
319,31900,0.2477266639471054,0.6438186764717102,0.0,0.3759348690509796,1.846445679664612,4.415524005889893,4.03125,6.1,J1,6.1,180,450.0,7.650333020775726,[6800|10000|0|3200]
320,32000,0.2478817254304886,0.6440663933753967,0.0,0.2350524365901947,1.9406874179840088,4.416875839233398,4.03125,6.1,J1,6.1,180,450.0,7.650625266781688,[6800|10000|0|3300]
321,32100,0.2479311376810073,0.6438885927200317,0.0,0.2776906490325928,1.8687509298324585,4.414210796356201,4.0390625,6.1,J1,6.1,180,450.0,7.650809805784474,[6800|10000|0|3400]
322,32200,0.248200237751007,0.6441266536712646,0.0,0.2826554477214813,1.8202370405197144,4.433575630187988,4.0390625,6.1,J1,6.1,180,450.0,7.651169093780622,[6800|10000|0|3500]
323,32300,0.2481569498777389,0.6441088914871216,0.0,0.2664544284343719,1.8113468885421755,4.434911251068115,4.0390625,6.1,J1,6.1,180,450.0,7.651215884112504,[6800|10000|0|3600]
324,32400,0.2479250729084015,0.6439322233200073,0.0,0.2492155730724334,1.8128670454025269,4.424778938293457,4.0390625,6.1,J1,6.1,180,450.0,7.651507394953092,[6800|10000|0|3700]
325,32500,0.2478699386119842,0.6440792679786682,0.0,0.2300752848386764,1.8087379932403564,4.423484802246094,4.04296875,6.1,J1,6.1,180,450.0,7.651664436101464,[6800|10000|0|3800]
