,time.ms,stateEstimate.x,stateEstimate.y,stateEstimate.z,stabilizer.roll,stabilizer.pitch,stabilizer.yaw,pm.vbat,drone_id,node_name,wind_speed,global_wind_direction,relative_wind_direction,travel_dist,waiting_time
0,0,1.8259263038635247,-0.144940510392189,0.0,0.449453741312027,0.5483834743499756,-13.266901969909668,4.0546875,1,B1,0,None,450,0.0,[6200|0|0|0]
1,100,1.8257452249526973,-0.1447099447250366,0.0,0.4360983073711395,0.5492246150970459,-13.283881187438965,4.0546875,1,B1,0,None,450,0.000293172472814,[6300|0|0|0]
2,200,1.8258147239685056,-0.1452206075191497,0.0,0.4438380002975464,0.5405763387680054,-13.287557601928713,4.0546875,1,B1,0,None,450,0.0008085428275005,[6400|0|0|0]
3,300,1.825738310813904,-0.1450213342905044,0.0,0.4354937076568603,0.5385351777076721,-13.297677040100098,4.0546875,1,B1,0,None,450,0.0010219644521098,[6500|0|0|0]
4,400,1.8255839347839355,-0.1452287882566452,0.0,0.4417167007923126,0.5416964292526245,-13.290970802307127,4.0546875,1,B1,0,None,450,0.0012805550681352,[6600|0|0|0]
5,500,1.825627088546753,-0.1447390764951706,0.0,0.4341104328632355,0.544397234916687,-13.261685371398926,4.0546875,1,B1,0,None,450,0.0017721645234672,[6700|0|0|0]
6,600,1.825716257095337,-0.1449232697486877,0.0,0.4356441497802734,0.5427290201187134,-13.258819580078123,4.0546875,1,B1,0,None,450,0.0019768061240713,[6800|0|0|0]
7,700,1.825791597366333,-0.1451395452022552,0.0,0.439700722694397,0.5355760455131531,-13.305289268493652,3.208984375,1,J1,0,None,450,0.0022058284554051,[6800|0|0|0]
8,800,1.825649738311768,-0.1447829902172088,0.0,0.6477622389793396,1.009329915046692,-11.498504638671877,3.326171875,1,J1,0,None,450,0.0025895672320795,[6800|0|0|0]
9,900,1.825259566307068,-0.1448154002428054,0.0103255845606327,0.4438247978687286,-1.4880139827728271,-6.641417026519775,3.537109375,1,J1,0,None,450,0.0129225716897281,[6800|0|0|0]
10,1000,1.8286926746368408,-0.1456942856311798,0.0641720294952392,0.7333564162254333,-4.166152477264404,-2.677775382995605,3.60546875,1,J1,0,None,450,0.0668855062321107,[6800|0|0|0]
11,1100,1.83925461769104,-0.1467670649290084,0.1364999413490295,0.5913163423538208,-2.678120374679565,-0.7945512533187866,3.630859375,1,J1,0,None,450,0.1399883948866068,[6800|0|0|0]
12,1200,1.854743480682373,-0.1491168737411499,0.2163088619709015,0.8308883309364319,-1.522497534751892,0.0046699494123458,3.642578125,1,J1,0,None,450,0.2213203706959167,[6800|0|0|0]
13,1300,1.8720433712005613,-0.1525680720806121,0.2992920577526092,0.4846992194652557,-0.0805784240365028,-0.0304117463529109,3.63671875,1,J1,0,None,450,0.3061579081664541,[6800|0|0|0]
14,1400,1.888532280921936,-0.1557492762804031,0.3825713396072387,-0.0240657925605773,1.5784968137741089,0.0503946989774704,3.630859375,1,J1,0,None,450,0.391113443537513,[6800|0|0|0]
15,1500,1.901579737663269,-0.1589246243238449,0.468833714723587,-0.2193846106529235,2.2204577922821045,0.1264438331127166,3.63671875,1,J1,0,None,450,0.478414739766879,[6800|0|0|0]
16,1600,1.9102795124053955,-0.1618420928716659,0.5548693537712097,-0.2029523849487304,2.3320775032043457,0.1921638548374176,3.6796875,1,J1,0,None,450,0.5649383139511677,[6800|0|0|0]
17,1700,1.915387749671936,-0.1635377258062362,0.6365466713905334,0.0760512202978134,1.8202862739562988,0.342672199010849,3.701171875,1,J1,0,None,450,0.6467927791470748,[6800|0|0|0]
18,1800,1.9173649549484253,-0.165388599038124,0.7077808976173401,-0.0203139092773199,1.4879271984100342,0.4473845958709717,3.705078125,1,J1,0,None,450,0.7180784723719973,[6800|0|0|0]
19,1900,1.917117595672608,-0.167244091629982,0.7647280097007751,-0.2019542306661605,0.7227556705474854,0.6069887280464172,3.6953125,1,J1,0,None,450,0.7750563418830021,[6800|0|0|0]
20,2000,1.916776657104492,-0.1680501252412796,0.8033374547958374,0.0487698204815387,0.3806670308113098,0.5585286617279053,3.673828125,1,J1,0,None,450,0.8136757046410591,[6800|0|0|0]
21,2100,1.91413688659668,-0.1699815988540649,0.833968460559845,-0.5781431794166565,0.0558734945952892,1.55599844455719,3.658203125,1,J1,0,None,450,0.8444808583132203,[6800|0|0|0]
22,2200,1.910771369934082,-0.1714557260274887,0.8562517166137695,-0.4828770458698272,0.5499104857444763,2.040738821029663,3.65234375,1,J1,0,None,450,0.8670649955270794,[6800|0|0|0]
23,2300,1.905853271484375,-0.1713389754295349,0.8740971684455872,-1.0083835124969482,0.2016655206680297,0.9129205942153932,3.6484375,1,J1,0,None,450,0.8855761131093556,[6800|0|0|0]
24,2400,1.9013482332229608,-0.1710483133792877,0.8873695135116577,-0.4180991649627685,-0.0233430415391922,0.6536587476730347,3.642578125,1,J1,0,None,450,0.8995952071498814,[6800|0|0|0]
25,2500,1.896023750305176,-0.1689849942922592,0.8978029489517212,-0.2275573164224624,0.2397360801696777,0.8910751342773438,3.642578125,1,J1,0,None,450,0.911489070234626,[6800|0|0|0]
26,2600,1.8902480602264404,-0.1663629710674286,0.9062873721122742,-0.0556882508099079,-0.1463378369808197,3.152971267700196,3.642578125,1,J1,0,None,450,0.9220824189990386,[6800|0|0|0]
27,2700,1.8846412897109983,-0.1642069965600967,0.9143735766410828,0.184999018907547,-0.3856374621391296,2.1037425994873047,3.63671875,1,J1,0,None,450,0.9321556908295224,[6800|0|0|0]
28,2800,1.879461050033569,-0.1623141914606094,0.9207255840301514,0.3807862102985382,-0.2775780856609344,0.487829327583313,3.63671875,1,J1,0,None,450,0.9405679195550768,[6800|0|0|0]
29,2900,1.8744218349456787,-0.1606671065092086,0.9259430766105652,0.3487567901611328,-0.7645207047462463,-0.033093336969614,3.63671875,1,J1,0,None,450,0.9480062531295964,[6800|0|0|0]
30,3000,1.8705991506576536,-0.1600141376256942,0.9306075572967528,0.5220620632171631,-0.4885752499103546,-0.1471758484840393,3.63671875,1,J1,0,None,450,0.954072278484025,[6800|0|0|0]
31,3100,1.8668581247329712,-0.1596598476171493,0.9342659711837769,0.2192414700984954,-0.9661972522735596,-0.0597348846495151,3.630859375,1,J1,0,None,450,0.959316779275146,[6800|0|0|0]
32,3200,1.8643423318862915,-0.1596864461898803,0.9366441965103148,0.3182005584239959,-0.4681154787540436,0.0981241762638092,3.630859375,1,J1,0,None,450,0.962778841786896,[6800|0|0|0]
33,3300,1.8629603385925293,-0.16067835688591,0.9390304088592528,0.2797664999961853,-0.519794762134552,0.424861341714859,3.630859375,1,J1,0,None,450,0.9657093369101004,[6800|0|0|0]
34,3400,1.861575722694397,-0.1614066064357757,0.9408167600631714,-0.1057408303022384,-0.5825809240341187,1.125446081161499,3.630859375,1,J1,0,None,450,0.9680839019683758,[6800|0|0|0]
35,3500,1.8612135648727417,-0.1624250560998916,0.9427452683448792,-0.0348803885281086,-0.5208179950714111,1.6794227361679075,3.626953125,1,J1,0,None,450,0.9702946806092032,[6800|0|0|0]
36,3600,1.8615111112594604,-0.1628085374832153,0.9432201981544496,0.0577518753707408,-0.3444828689098358,2.1842432022094727,3.626953125,1,J1,0,None,None,0.9709737609782496,[6800|0|0|0]
37,3700,1.861879825592041,-0.1629383563995361,0.9424023628234864,-0.0790418162941932,-0.2288904041051864,2.3153672218322754,3.62109375,1,J1,0,None,None,0.971880214418122,[6800|0|0|0]
38,3800,1.859053611755371,-0.1590795069932937,0.9427863955497742,-11.3562650680542,10.486791610717772,3.08965802192688,3.599609375,1,J1,0,None,None,0.9766787229911582,[6800|0|0|0]
39,3900,1.8390538692474363,-0.1375558078289032,0.9419610500335692,-14.88943099975586,15.282352447509766,3.212364673614502,3.578125,1,J1,0,None,None,1.0060715881343183,[6800|0|0|0]
40,4000,1.793859362602234,-0.0900505408644676,0.939338743686676,-16.470590591430664,14.68824291229248,1.9555754661560056,3.568359375,1,J1,0,None,None,1.0716930046905195,[6800|0|0|0]
41,4100,1.7265923023223877,-0.0184501744806766,0.9383549690246582,-11.819692611694336,9.68368434906006,-0.0422270968556404,3.5625,1,J1,0,None,None,1.169939824881156,[6800|0|0|0]
42,4200,1.6453768014907837,0.0699460208415985,0.9430299401283264,-5.1442952156066895,2.800164222717285,-1.5647902488708496,3.583984375,1,J1,0,None,None,1.2900718367581,[6800|0|0|0]
43,4300,1.5635067224502563,0.1639255136251449,0.9547750353813172,1.5433958768844604,-3.51484489440918,-1.886436939239502,3.611328125,1,J1,0,None,None,1.4152628994121754,[6800|0|0|0]
44,4400,1.488748550415039,0.257100373506546,0.9672588109970092,6.737342834472656,-7.486195087432861,-1.1855794191360474,3.62109375,1,J1,0,None,None,1.5353719475875265,[6800|0|0|0]
45,4500,1.432266354560852,0.3238241672515869,0.9875994920730592,9.475282669067385,-9.558094024658203,-3.256537675857544,3.630859375,1,J1,0,None,None,1.6251274287955233,[6800|0|0|0]
46,4600,1.390274167060852,0.3782766461372375,0.9991076588630676,8.806034088134766,-9.729543685913086,-7.794497013092041,3.62109375,1,J1,0,None,None,1.6948472550337894,[6800|0|0|0]
47,4700,1.3599437475204468,0.419516772031784,1.0029927492141724,7.933242797851562,-7.685839653015137,-5.46319055557251,3.60546875,1,J1,0,None,None,1.7461870666845083,[6800|0|0|0]
48,4800,1.340571641921997,0.4458160996437073,1.0051510334014893,6.753359794616699,-5.480954647064209,-2.8079209327697754,3.599609375,1,J1,0,None,None,1.7789222358270371,[6800|0|0|0]
49,4900,1.328993320465088,0.4587045609951019,1.0079292058944702,4.94383430480957,-3.8104095458984375,2.499464988708496,3.60546875,1,J1,0,None,None,1.7964689792903317,[6800|0|0|0]
50,5000,1.3221765756607056,0.4676479995250702,1.0090692043304443,2.751547336578369,-2.4557113647460938,1.6175377368927002,3.60546875,1,J1,0,None,None,1.807771753237528,[6800|0|0|0]
51,5100,1.3171172142028809,0.4735071063041687,1.0105175971984863,1.3920772075653076,-1.3917927742004397,1.0345654487609863,3.611328125,1,J1,0,None,None,1.8156472921086144,[6800|0|0|0]
52,5200,1.3127740621566772,0.4772562086582184,1.0125772953033447,0.6368139386177063,-0.8253781795501709,0.5793068408966064,3.611328125,1,J1,0,None,None,1.8217432821381945,[6800|0|0|0]
53,5300,1.307832956314087,0.4811811149120331,1.01422917842865,0.5996320843696594,-0.7534745931625366,0.2264546751976013,3.611328125,1,J1,0,None,None,1.828266175200984,[6800|0|0|0]
54,5400,1.3019565343856812,0.4852766990661621,1.013969659805298,0.6004399657249451,-0.626388430595398,-0.2251313775777816,3.60546875,1,J1,0,None,None,1.835433705749232,[6800|0|0|0]
55,5500,1.296525001525879,0.4881082773208618,1.0130351781845093,0.3866819739341736,-1.5690829753875732,-0.3610992431640625,3.60546875,1,J1,0,None,None,1.8416298852591548,[6800|0|0|0]
56,5600,1.2926417589187622,0.4910153448581695,1.011391282081604,0.8242728114128113,-1.6446986198425293,-0.3000990152359009,3.599609375,1,J1,0,None,None,1.8467517022423496,[6800|0|0|0]
57,5700,1.289375066757202,0.4931698441505432,1.0092982053756714,0.8298986554145813,-1.4725772142410278,-0.3919548690319061,3.60546875,1,J1,0,None,None,1.8511895074404352,[6800|0|0|0]
58,5800,1.288283109664917,0.494166761636734,1.0071479082107544,1.0211611986160278,-1.7016494274139404,-0.3476610779762268,3.60546875,1,J1,0,None,None,1.8537991037048245,[6800|0|0|0]
59,5900,1.2884271144866943,0.4943293333053589,1.0039411783218384,0.8042301535606384,-1.2243181467056274,-0.5563634037971497,3.59375,1,J1,0,None,None,1.8570131795465872,[6800|0|0|0]
60,6000,1.290151596069336,0.4939516186714172,1.000370979309082,0.3559912741184234,-1.2183297872543335,-0.5856836438179016,3.59375,1,J1,0,None,None,1.8609959958948827,[6800|0|0|0]
61,6100,1.2928279638290403,0.4928330183029175,0.9977340698242188,0.2233695536851883,-1.1856087446212769,-0.597586452960968,3.59375,1,J1,0,None,None,1.864916136555746,[6800|0|0|0]
62,6200,1.2967556715011597,0.4917083382606506,0.9944356679916382,0.3137206435203552,-0.778999924659729,-0.6411756873130798,3.59375,1,J1,0,None,None,1.8701669695757792,[6800|0|0|0]
63,6300,1.3012311458587646,0.4904660284519195,0.9909129738807678,0.349424660205841,-0.5903996825218201,-0.6693543791770935,3.59375,1,J1,0,None,None,1.87599642737091,[6800|0|0|0]
64,6400,1.3062173128128052,0.4889743328094482,0.986515998840332,0.2658085227012634,-0.3850997686386108,-0.7347671389579773,3.58984375,1,J1,0,None,None,1.882809679625857,[6800|0|0|0]
65,6500,1.3104159832000732,0.4882356524467468,0.9822168350219728,0.1492564976215362,0.0619599781930446,-0.8372623920440674,3.58984375,1,J1,0,None,None,1.888864206133872,[6800|0|0|0]
66,6600,1.314352035522461,0.4867672622203827,0.9790384769439696,0.1868586391210556,0.646867573261261,-1.2405489683151243,3.58984375,1,J1,0,None,None,1.8941320935485253,[6800|0|0|0]
67,6700,1.3173913955688477,0.4853279292583465,0.9756106734275818,0.3183929324150085,0.7890759110450745,-1.5880258083343506,3.81640625,1,J1,0,None,450,1.8989340958198844,[6800|0|0|0]
68,6800,1.3195672035217283,0.4820154011249542,0.9602638483047484,0.8519833087921143,-0.4800187349319458,-1.5973105430603027,3.81640625,1,J1,0,None,450,1.9147843962660325,[6800|0|0|0]
69,6900,1.3213392496109009,0.4788165092468261,0.9066909551620485,0.0064344750717282,-0.4728249907493591,-1.4830750226974487,3.716796875,1,J1,0,None,450,1.968481956138612,[6800|0|0|0]
70,7000,1.3225866556167605,0.4744806289672851,0.8150856494903564,-0.0098897516727447,-0.6081305742263794,-1.3196622133255005,3.626953125,1,J1,0,None,450,2.060198300956458,[6800|0|0|0]
71,7100,1.3244472742080688,0.47052201628685,0.6874966621398926,-0.1886719316244125,-0.3020339608192444,-1.583296775817871,3.578125,1,J1,0,None,450,2.1878622434344064,[6800|0|0|0]
72,7200,1.3269126415252686,0.4663601219654083,0.5614109039306641,-0.1505195796489715,-0.7783164978027344,-2.2392094135284424,3.546875,1,J1,0,None,450,2.314040759131603,[6800|0|0|0]
73,7300,1.329991340637207,0.4616732597351074,0.4499085545539856,0.5294907093048096,0.8726894855499268,-2.590693473815918,3.505859375,1,J1,0,None,450,2.425684025754837,[6800|0|0|0]
74,7400,1.3310695886611938,0.4596534669399261,0.3320519626140594,-0.1848373264074325,0.1990708112716674,-2.0009610652923584,3.478515625,1,J1,0,None,450,2.543562855259676,[6800|0|0|0]
75,7500,1.3350518941879272,0.4554150402545929,0.2424218654632568,-0.958526074886322,0.2530658543109894,-0.654076337814331,3.48828125,1,J1,0,None,450,2.633381435371686,[6800|0|0|0]
76,7600,1.3404426574707031,0.4511083662509918,0.170254960656166,-2.659861326217652,0.2608798742294311,1.4662948846817017,3.494140625,1,J1,0,None,450,2.7058774347039245,[6800|0|0|0]
77,7700,1.345766305923462,0.4517105221748352,0.1163996383547782,-1.193760871887207,0.959520697593689,3.161489486694336,3.505859375,1,J1,0,None,450,2.759998591055129,[6800|0|0|0]
78,7800,1.349531173706055,0.4551962912082672,0.0802216306328773,-0.7979261875152588,0.2839001417160034,4.11997652053833,3.521484375,1,J1,0,None,450,2.7965386110045047,[6800|0|0|0]
79,7900,1.3533285856246948,0.4595749676227569,0.0607142001390457,0.2261098474264145,0.5090068578720093,4.674437522888184,3.546875,1,J1,0,None,450,2.816888868715264,[6800|0|0|0]
80,8000,1.3561193943023682,0.4640795886516571,0.054098792374134,1.204994797706604,0.8753583431243896,4.422179698944092,3.568359375,1,J1,0,None,450,2.825364943489913,[6800|0|0|0]
81,8100,1.3564916849136353,0.4657370746135711,0.0540198534727096,1.4598329067230225,0.6953929662704468,3.5204946994781494,3.578125,1,J1,0,None,450,2.827065558485536,[6800|0|0|0]
82,8200,1.3575108051300049,0.464918315410614,0.0564880669116973,0.9269861578941344,0.1088477596640586,1.8062083721160889,3.583984375,1,J1,0,None,450,2.829858594508977,[6800|0|0|0]
83,8300,1.3582441806793213,0.4606178700923919,0.0600759238004684,1.8779332637786863,-0.1332199573516845,-1.453220009803772,3.583984375,1,J1,0,None,450,2.835506991333356,[6800|0|0|0]
84,8400,1.3598086833953855,0.4549860954284668,0.0627023726701736,-0.1957263797521591,-1.2307826280593872,-5.296820163726807,3.583984375,1,J1,0,None,450,2.841915016635973,[6800|0|0|0]
85,8500,1.3640183210372925,0.4492536783218384,0.0616294518113136,-0.3219844102859497,-0.1167839542031288,-7.615518093109131,3.568359375,1,J1,0,None,450,2.8491075693212093,[6800|0|0|0]
86,8600,1.369404673576355,0.4439197480678558,0.0582077093422412,-1.5604653358459473,-0.5491460561752319,-8.919951438903809,3.5625,1,J1,0,None,450,2.8574245355441823,[6800|0|0|0]
87,8701,1.3755295276641846,0.4406037628650665,0.0523261651396751,-1.6007248163223269,0.7321141958236694,-8.73369026184082,3.552734375,1,J1,0,None,450,2.866540574029679,[6800|0|0|0]
88,8801,1.3816611766815186,0.4408092498779297,0.047392588108778,-1.5914371013641355,1.595942139625549,-7.1707682609558105,3.546875,1,J1,0,None,450,2.874413281753456,[6800|0|0|0]
89,8901,1.3843554258346558,0.4429145455360412,0.0468946695327758,-0.4064204096794128,2.372918605804444,-5.531247138977051,3.5625,1,J1,0,None,450,2.8778685923350933,[6800|0|0|0]
90,9001,1.3812073469161987,0.441845029592514,0.0476627163589,-1.069162130355835,1.7932299375534058,-4.112560272216797,3.578125,1,J1,0,None,450,2.8812809465308664,[6800|0|0|0]
91,9101,1.3784960508346558,0.450400173664093,0.058140642940998,0.6757144331932068,2.131434440612793,-3.648799180984497,3.583984375,1,J1,0,None,450,2.895076908330868,[6800|0|0|0]
92,9201,1.3709416389465332,0.4495964348316192,0.0593818724155426,1.093652844429016,0.6972223520278931,-3.280301809310913,3.578125,1,J1,0,None,450,2.9027746863021213,[6800|0|0|0]
93,9301,1.3639100790023804,0.4505305886268616,0.063414067029953,1.175818920135498,-0.4139115512371063,-3.416672468185425,3.57421875,1,J1,0,None,450,2.910933979897149,[6800|0|0|0]
94,9401,1.3593006134033203,0.4535215497016907,0.0703667476773262,0.9495093822479248,-0.6945074796676636,-3.378819465637207,3.57421875,1,J1,0,None,450,2.919795852692694,[6800|0|0|0]
95,9502,1.35459566116333,0.4505869448184967,0.0708052366971969,-0.4448364377021789,-0.9252291917800904,-2.742938280105591,3.5625,1,J1,0,None,450,2.9253582940651133,[6800|0|0|0]
96,9602,1.3504008054733276,0.4482581615447998,0.0704789459705352,-0.847210705280304,-0.9239600896835328,-2.1223175525665283,3.5625,1,J1,0,None,450,2.930167297229398,[6800|0|0|0]
97,9702,1.3478761911392212,0.4470340609550476,0.0698870792984962,-1.0150777101516724,-0.9848828315734864,-1.586504578590393,3.5625,1,B2,0,None,450,2.9330347710213056,[6800|100|0|0]
98,9800,1.3461861610412598,0.4470164775848388,0.0696418359875679,-0.6549909114837646,-0.7235520482063293,-1.1455738544464111,3.568359375,1,B2,0,None,450,2.934742592788493,[6800|200|0|0]
99,9900,1.34601628780365,0.4473586082458496,0.0698159262537956,-0.3410693705081939,-0.4134401977062225,-0.6355880498886108,3.568359375,1,B2,0,None,450,2.9351623757405707,[6800|300|0|0]
100,10000,1.3456672430038452,0.4476660192012787,0.0698342025279998,0.0952712297439575,-0.3531454801559448,0.0198033414781093,3.5625,1,B2,0,None,450,2.935627851615335,[6800|400|0|0]
101,10100,1.3458272218704224,0.4478318393230438,0.0698017328977584,-0.1471368074417114,-0.4688175022602081,0.3948186337947845,3.55859375,1,B2,0,None,450,2.935860539877655,[6800|500|0|0]
102,10200,1.3466651439666748,0.4476185142993927,0.0707491561770439,-0.371757835149765,-0.0391290560364723,0.852558970451355,3.5625,1,B2,0,None,450,2.937143205802686,[6800|600|0|0]
103,10300,1.347010850906372,0.4484021663665771,0.0722519010305404,-0.4326794743537903,0.1116217970848083,1.0739476680755615,3.5625,1,B2,0,None,450,2.9388729069171178,[6800|700|0|0]
104,10400,1.3472943305969238,0.4496393203735351,0.0733628645539283,-0.4927109777927398,0.0525317974388599,1.1857951879501345,3.5625,1,B2,0,None,450,2.940559664375138,[6800|800|0|0]
105,10500,1.34830641746521,0.4515464603900909,0.0740833953022956,-0.4861637055873871,-0.2666419744491577,1.236605882644653,3.55859375,1,B2,0,None,450,2.942835772331947,[6800|900|0|0]
106,10600,1.349656581878662,0.4547863006591797,0.0754682868719101,-0.452219545841217,-0.4139405190944671,1.5145009756088257,3.5625,1,B2,0,None,450,2.9466090247184367,[6800|1000|0|0]
107,10700,1.3506523370742798,0.459262490272522,0.0750176310539245,-0.8077350854873657,-0.5974937081336975,1.91827392578125,3.5625,1,B2,0,None,450,2.951216723984934,[6800|1100|0|0]
108,10800,1.3528870344161987,0.4649808406829834,0.0739575996994972,-0.1151740849018096,-0.2276533395051956,2.8419201374053955,3.552734375,1,B2,0,None,450,2.957447058654851,[6800|1200|0|0]
109,10900,1.3562179803848269,0.4705681800842285,0.072246715426445,0.2149259597063064,-0.5754604339599609,3.967476129531861,3.552734375,1,B2,0,None,450,2.9641731784594936,[6800|1300|0|0]
110,11000,1.360697865486145,0.4750637412071228,0.0709804221987724,-0.1639516055583953,0.5080154538154602,4.385733127593994,3.552734375,1,B2,0,None,450,2.9706448813937403,[6800|1400|0|0]
111,11100,1.3657782077789309,0.4800261557102203,0.0702676400542259,-0.0039772195741534,-0.2937052547931671,3.8488125801086426,3.552734375,1,B2,0,None,450,2.977782352507377,[6800|1500|0|0]
112,11200,1.370286464691162,0.4858624935150146,0.0711055472493171,-0.0250601228326559,-0.4487238228321075,2.764544725418091,3.55859375,1,B2,0,None,450,2.985204569684605,[6800|1600|0|0]
113,11300,1.3753132820129397,0.4909198880195617,0.0707427710294723,0.3365755975246429,0.2858677208423614,1.4170719385147097,3.552734375,1,B2,0,None,450,2.99234443930154,[6800|1700|0|0]
114,11400,1.379546880722046,0.4950940012931824,0.0690854117274284,0.4631895720958709,0.0942882895469665,0.1474345922470092,3.541015625,1,B2,0,None,450,2.998516425975767,[6800|1800|0|0]
115,11500,1.3827564716339111,0.4991738498210907,0.0673919320106506,0.4618974924087524,0.1204918026924133,-0.8351605534553528,3.541015625,1,B2,0,None,450,3.0039766925794544,[6800|1900|0|0]
116,11600,1.3859715461730957,0.5021176338195801,0.0672165974974632,-0.0937387123703956,0.0203576683998107,-1.369265079498291,3.541015625,1,B2,0,None,450,3.0083394108506463,[6800|2000|0|0]
117,11700,1.3878707885742188,0.5053713321685791,0.0536047145724296,3.3463680744171143,0.817308783531189,-1.8107755184173584,3.931640625,1,B2,0,None,450,3.022463044639772,[6800|2100|0|0]
118,11800,1.3897122144699097,0.5058640241622925,0.0,-6.0435285568237305,-14.173295021057127,-2.9367594718933105,3.9375,1,B2,0,None,450,3.076101640996515,[6800|2200|0|0]
119,11900,1.4048405885696411,0.507992148399353,0.0,-3.753576040267944,-13.865386009216309,-2.320274829864502,3.9375,1,B2,0,None,450,3.0913789645733,[6800|2300|0|0]
120,12000,1.404719352722168,0.5087121725082397,0.0,-4.57749605178833,-12.639931678771973,-3.564875841140747,3.9375,1,B2,0,None,450,3.092109124040876,[6800|2400|0|0]
121,12100,1.40225088596344,0.5117838978767395,0.0,-8.721259117126465,-8.32591724395752,-2.885983943939209,3.943359375,1,B2,0,None,450,3.0960497870407315,[6800|2500|0|0]
122,12200,1.402299880981445,0.5113747119903564,0.0,-8.274802207946777,-8.556241035461426,-2.915083169937134,3.943359375,1,B2,0,None,450,3.096461895765954,[6800|2600|0|0]
123,12300,1.402254581451416,0.5113223195075989,0.0,-8.180872917175293,-8.47221851348877,-2.8545310497283936,3.94921875,1,B2,0,None,450,3.0965311562862405,[6800|2700|0|0]
124,12400,1.4019774198532104,0.5112085342407227,0.0,-8.06209945678711,-8.404184341430664,-2.855159044265747,3.94921875,1,B2,0,None,450,3.0968307654290883,[6800|2800|0|0]
125,12500,1.4019107818603516,0.5116650462150574,0.0,-7.964784622192383,-8.348795890808105,-2.8221240043640137,3.94921875,1,B2,0,None,450,3.097292115409909,[6800|2900|0|0]
126,12600,1.401801347732544,0.5109227895736694,0.0,-7.852286338806152,-8.31829833984375,-2.772346258163452,3.94921875,1,B2,0,None,450,3.098042395857484,[6800|3000|0|0]
127,12700,1.402167558670044,0.511076807975769,0.0,-7.74669075012207,-8.297924041748047,-2.769434690475464,3.953125,1,B2,0,None,450,3.098439676764312,[6800|3100|0|0]
128,12800,1.401935577392578,0.5109419822692871,0.0,-7.631462097167969,-8.274388313293457,-2.7693355083465576,3.953125,1,B2,0,None,450,3.098707992407209,[6800|3200|0|0]
129,12900,1.4022743701934814,0.5111636519432068,0.0,-7.549982070922852,-8.259871482849121,-2.7576303482055664,3.953125,1,B2,0,None,450,3.0991128602946483,[6800|3300|0|0]
130,13000,1.4023356437683103,0.5108321309089661,0.0,-7.449297428131103,-8.266166687011719,-2.758333206176758,3.953125,1,B2,0,None,450,3.099449996242177,[6800|3400|0|0]
131,13100,1.402151346206665,0.5108988285064697,0.0,-7.382289886474609,-8.254528999328613,-2.74924373626709,3.953125,1,B2,0,None,450,3.099645991550134,[6800|3500|0|0]
132,13200,1.4022518396377563,0.5108077526092529,0.0,-7.311863899230957,-8.257046699523926,-2.686741590499878,3.958984375,1,B2,0,None,450,3.099781615105413,[6800|3600|0|0]
133,13300,1.4020745754241943,0.5104383230209351,0.0,-7.250633239746094,-8.259147644042969,-2.691372394561768,3.958984375,1,B2,0,None,450,3.1001913721335828,[6800|3700|0|0]
134,13400,1.4019957780838013,0.5107972025871277,0.0,-7.231510162353516,-8.257766723632812,-2.7123711109161377,3.958984375,1,B2,0,None,450,3.1005588004448,[6800|3800|0|0]
135,13500,1.4023517370224,0.5106867551803589,0.0,-7.187212944030762,-8.26720142364502,-2.7167303562164307,3.96484375,1,B2,0,None,450,3.100931500586509,[6800|3900|0|0]
136,13600,1.4021954536437988,0.5107012391090393,0.0,-7.158936500549316,-8.259591102600098,-2.702152967453003,3.958984375,1,B2,0,None,450,3.1010884536961214,[6800|4000|0|0]
137,13700,1.400157809257507,0.5113257765769958,0.0,-7.1672797203063965,-8.25971508026123,-2.694720983505249,3.96484375,1,B2,0,None,450,3.10321966032474,[6800|4100|0|0]
138,13800,1.3999460935592651,0.5121326446533203,0.0,-7.037862300872803,-8.44137954711914,-2.6648075580596924,3.96484375,1,B2,0,None,450,3.104053842336937,[6800|4200|0|0]
139,13900,1.3956401348114014,0.5104882121086121,0.0,-8.327014923095703,-7.770613670349121,-2.6211233139038086,3.96484375,1,B2,0,None,450,3.108663119843489,[6800|4300|0|0]
140,14000,1.3763151168823242,0.5047679543495178,0.0120664350688457,-10.843145370483398,-2.9775032997131348,-13.19042682647705,3.96484375,1,B2,0,None,450,3.132153043684581,[6800|4400|0|0]
141,14100,1.3372851610183716,0.5003876686096191,0.032776515930891,-10.107422828674316,-8.72730827331543,-9.699724197387695,3.96484375,1,B2,0,None,450,3.1765538523170567,[6800|4500|0|0]
142,14200,1.3093292713165283,0.4963403046131134,0.0325371101498603,-6.830142498016357,-4.73645544052124,-12.52618408203125,3.96875,1,B2,0,None,450,3.2048022193401224,[6800|4600|0|0]
143,14300,1.2978832721710205,0.4915817081928253,0.0188953764736652,-2.5322465896606445,1.5873743295669556,-4.749146938323975,3.96875,1,B2,0,None,450,3.223234583106671,[6800|4700|0|0]
144,14400,1.2951058149337769,0.5136656165122986,0.0169495102018117,0.7515955567359924,1.5115234851837158,-3.2095208168029785,3.96875,1,B2,0,None,450,3.2455773598122546,[6800|4800|0|0]
145,14500,1.2845550775527954,0.5116598010063171,0.0210362430661916,0.841363251209259,1.0284842252731323,-3.2899484634399414,3.96875,1,B2,0,None,450,3.2570683450020144,[6800|4900|0|0]
146,14600,1.329791784286499,0.4840794503688812,0.0,1.3356788158416748,-0.6553349494934082,-15.70753002166748,3.96875,1,B2,0,None,450,3.314073247420446,[6800|5000|0|0]
147,14700,1.3320175409317017,0.4978842735290527,0.0,0.4400994479656219,-0.376420259475708,-12.293609619140623,3.96875,1,B2,0,None,450,3.328056349191057,[6800|5100|0|0]
148,14800,1.3322319984436035,0.4992751479148865,0.0,0.384872555732727,-0.1756319850683212,-9.065403938293455,3.96875,1,B2,0,None,450,3.32946365995332,[6800|5200|0|0]
149,14900,1.331798434257507,0.4987034201622009,0.0,0.3137552440166473,-0.0833549872040748,-7.432199954986572,3.974609375,1,B2,0,None,450,3.330181190807469,[6800|5300|0|0]
150,15000,1.331753849983215,0.4991281032562256,0.0,0.2053360342979431,-0.0446323715150356,-6.451022148132324,3.974609375,1,B2,0,None,450,3.3306082077718444,[6800|5400|0|0]
151,15100,1.3315396308898926,0.4987887144088745,0.0,0.1195680946111679,-0.0195350907742977,-5.785946369171143,3.974609375,1,B2,0,None,450,3.3310095487860085,[6800|5500|0|0]
152,15200,1.3316112756729126,0.4990072250366211,0.0,0.032063040882349,-0.016229473054409,-5.335081577301025,4.01171875,1,B2,0,None,450,3.33123950501961,[6800|5600|0|0]
153,15300,1.331378698348999,0.4991608560085296,0.0,-0.0369186922907829,-0.0168127957731485,-4.961069583892822,4.046875,1,B2,0,None,450,3.3315182426868324,[6800|5700|0|0]
154,15400,1.3315439224243164,0.4996041357517242,0.0,-0.0999798476696014,-0.0249991752207279,-4.689326763153076,4.046875,1,B2,0,None,450,3.331991313427622,[6800|5800|0|0]
155,15500,1.3314803838729858,0.4999334514141083,0.0,-0.1403283029794693,-0.0270415302366018,-4.463443756103516,4.046875,1,B2,0,None,450,3.332326702683557,[6800|5900|0|0]
156,15600,1.3314117193222046,0.499783992767334,0.0,-0.1585065126419067,-0.0356151163578033,-4.332394123077393,4.046875,1,B2,0,None,450,3.332491179756821,[6800|6000|0|0]
157,15700,1.3317627906799316,0.499673455953598,0.0,-0.1633543372154235,-0.0481165573000907,-4.230339527130127,4.046875,1,B2,0,None,450,3.332859241552458,[6800|6100|0|0]
158,15800,1.3316192626953125,0.4995556771755218,0.0,-0.1634815782308578,-0.0440840944647789,-4.157901287078857,4.0546875,1,B2,0,None,450,3.3330449082509634,[6800|6200|0|0]
159,15900,1.3317214250564575,0.4994361698627472,0.0,-0.1537432074546814,-0.0581635124981403,-4.05989933013916,4.0546875,1,B2,0,None,450,3.333202131486655,[6800|6300|0|0]
160,16000,1.3310649394989014,0.4993615746498108,0.0,-0.1439598500728607,-0.054841324687004,-4.004919528961182,4.0546875,1,B2,0,None,450,3.3338628415085805,[6800|6400|0|0]
161,16100,1.3315002918243408,0.4997555613517761,0.0,-0.1444532573223114,-0.075168453156948,-3.927070379257202,4.0546875,1,B2,0,None,450,3.3344500017665943,[6800|6500|0|0]
162,16200,1.3316609859466553,0.4994704723358154,0.0,-0.13239486515522,-0.0833634659647941,-3.870067358016968,4.05859375,1,B2,0,None,450,3.334777260605998,[6800|6600|0|0]
163,16300,1.3312172889709473,0.4992729425430298,0.0,-0.1155261322855949,-0.0663499534130096,-3.848090410232544,4.05859375,1,B2,0,None,450,3.335262940567794,[6800|6700|0|0]
164,16400,1.3312734365463257,0.4993589520454407,0.0,-0.1112179681658744,-0.0723349303007125,-3.840311288833618,4.05859375,1,B2,0,None,450,3.335365654659942,[6800|6800|0|0]
165,16500,1.3319467306137085,0.4991921186447143,0.0,-0.0937669575214386,-0.0839457958936691,-3.796819448471069,4.05859375,1,B2,0,None,450,3.3360593103993192,[6800|6900|0|0]
166,16600,1.3317204713821411,0.4993002712726593,0.0,-0.083523117005825,-0.0713066682219505,-3.8186445236206055,4.05859375,1,B2,0,None,450,3.3363100896464686,[6800|7000|0|0]
167,16700,1.331974744796753,0.4990580379962921,0.0,-0.0614610463380813,-0.0770924016833305,-3.808809995651245,4.05859375,1,B2,0,None,450,3.3366612761062844,[6800|7100|0|0]
168,16800,1.3315508365631104,0.4992788136005401,0.0,-0.0542625077068805,-0.0645953714847564,-3.7871885299682617,4.06640625,1,B2,0,None,450,3.337139230139619,[6800|7200|0|0]
169,16900,1.3316658735275269,0.4992077052593231,0.0,-0.0498607382178306,-0.0592238083481788,-3.8083763122558594,4.06640625,1,B2,0,None,450,3.337274470294058,[6800|7300|0|0]
170,17000,1.3320320844650269,0.4992546141147613,0.0,-0.0512891225516796,-0.0619585625827312,-3.814377784729004,4.06640625,1,B2,0,None,450,3.3376436733431563,[6800|7400|0|0]
171,17100,1.331762433052063,0.4993804693222046,0.0,-0.0648751929402351,-0.0570929870009422,-3.818777322769165,4.06640625,1,B2,0,None,450,3.3379412492456653,[6800|7500|0|0]
172,17200,1.331821322441101,0.499299943447113,0.0,-0.0406642667949199,-0.0426462218165397,-3.827209949493408,4.06640625,1,B2,0,None,450,3.3380410108449934,[6800|7600|0|0]
173,17300,1.332079529762268,0.4991269707679748,0.0,-0.0170830599963665,-0.0416290648281574,-3.811772108078003,4.06640625,1,B2,0,None,450,3.338351801077196,[6800|7700|0|0]
174,17400,1.331586837768555,0.4995754361152649,0.0,-0.0199375785887241,-0.021823925897479,-3.8168020248413086,4.06640625,1,B2,0,None,450,3.339018034195848,[6800|7800|0|0]
175,17500,1.3317711353302002,0.4990852773189544,0.0,-0.0055925194174051,-0.0216813590377569,-3.8411765098571777,4.06640625,1,B2,0,None,450,3.339541695571958,[6800|7900|0|0]
176,17600,1.3317246437072754,0.4995624423027038,0.0,-0.0142485192045569,-0.0096533028408885,-3.821502923965454,4.06640625,1,B2,0,None,450,3.3400211201152583,[6800|8000|0|0]
177,17700,1.3319439888000488,0.4995591640472412,0.0,-0.0107378996908664,-0.0058191618882119,-3.8319571018218994,4.06640625,1,B2,0,None,450,3.3402404897044966,[6800|8100|0|0]
178,17800,1.331790566444397,0.4993455708026886,0.0,0.0003455920959822,0.0010074521414935,-3.852923631668091,4.0703125,1,B2,0,None,450,3.3405034735316272,[6800|8200|0|0]
179,17900,1.3319437503814695,0.4992031455039978,0.0,0.0065009398385882,0.0023729179520159,-3.847382068634033,4.0703125,1,B2,0,None,450,3.340712639217829,[6800|8300|0|0]
180,18000,1.3315848112106323,0.4991912841796875,0.0,0.002384333172813,0.0173486433923244,-3.8287911415100098,4.0703125,1,B2,0,None,450,3.3410717743168874,[6800|8400|0|0]
181,18100,1.331700563430786,0.4991862773895263,0.0,-0.0016460857586935,0.0116989584639668,-3.813551425933838,4.0703125,1,B2,0,None,450,3.341187634769235,[6800|8500|0|0]
182,18200,1.3315953016281128,0.499276340007782,0.0,-0.0091154342517256,0.0148505745455622,-3.804421901702881,4.0703125,1,B2,0,None,450,3.3413261675173818,[6800|8600|0|0]
183,18300,1.331709623336792,0.4992708265781402,0.0,-0.0090230526402592,0.0060580312274396,-3.8167004585266113,4.0703125,1,B2,0,None,450,3.341440622097813,[6800|8700|0|0]
184,18400,1.331588864326477,0.4994833469390869,0.0,-0.012125039473176,0.0089781740680336,-3.7978415489196777,4.0703125,1,B2,0,None,450,3.341685055406487,[6800|8800|0|0]
185,18500,1.3315553665161133,0.4995336234569549,0.0,-0.0163892526179552,0.0045500556007027,-3.793779373168945,4.07421875,1,B2,0,None,450,3.341745469242221,[6800|8900|0|0]
186,18600,1.3315600156784058,0.4994525909423828,0.0,-0.0102782668545842,-0.0003541947517078,-3.796919107437134,4.0703125,1,B2,0,None,450,3.341826635017816,[6800|9000|0|0]
187,18700,1.3317219018936155,0.4993940889835357,0.0,-0.0046515641734004,-0.0045681162737309,-3.7955708503723145,4.07421875,1,B2,0,None,450,3.341998767600042,[6800|9100|0|0]
188,18800,1.3316370248794556,0.4996474981307983,0.0,-0.0143927754834294,-0.0053554633632302,-3.795434713363648,4.07421875,1,B2,0,None,450,3.3422660133735334,[6800|9200|0|0]
189,18900,1.33194899559021,0.4994180500507355,0.0,-0.0125193316489458,-0.0154287964105606,-3.7858903408050537,4.07421875,1,B2,0,None,450,3.342653275746884,[6800|9300|0|0]
190,19000,1.3318177461624146,0.4995812773704529,0.0,-0.0211360864341259,-0.0118486629799008,-3.7970283031463614,4.07421875,1,B2,0,None,450,3.3428627263859347,[6800|9400|0|0]
191,19100,1.3318768739700315,0.4995072484016418,0.0,-0.0204200875014066,-0.0160208139568567,-3.827081680297852,4.07421875,1,B2,0,None,450,3.342957470176533,[6800|9500|0|0]
192,19200,1.3315012454986572,0.4994888007640838,0.0,-0.0239137578755617,-0.009778406471014,-3.8357021808624254,4.07421875,1,B2,0,None,450,3.343333551369679,[6800|9600|0|0]
193,19300,1.3315340280532837,0.4990676641464233,0.0,-0.0135858701542019,-0.0059361015446484,-3.805479049682617,4.07421875,1,B2,0,None,450,3.343755962007119,[6800|9700|0|0]
194,19400,1.3319135904312134,0.4993674457073211,0.0,-0.0258079394698143,-0.0089575126767158,-3.825198173522949,4.07421875,1,B2,0,None,450,3.3442396319183127,[6800|9800|0|0]
195,19500,1.3315502405166626,0.499193012714386,0.0,-0.0191415939480066,-0.0029137111268937,-3.8372671604156494,4.07421875,1,B2,0,None,450,3.344642682820096,[6800|9900|0|0]
196,19600,1.3318208456039429,0.4997186660766601,0.0,-0.034885961562395,-0.008458144031465,-3.8658058643341056,4.07421875,1,B2,0,None,450,3.345233900690709,[6800|10000|0|0]
197,19700,1.3315832614898682,0.4993018507957458,0.0,-0.0224813483655452,0.0010674661025404,-3.8524129390716553,4.08203125,1,B2,0,None,450,3.345713672709135,[6800|10100|0|0]
198,19800,1.3318405151367188,0.4993874430656433,0.0,-0.0269746407866477,-0.0128143839538097,-3.857988595962525,4.07421875,1,B2,0,None,450,3.345984791641495,[6800|10200|0|0]
199,19900,1.3317768573760986,0.4990838468074798,0.0,-0.0250643715262413,-0.0140866078436374,-3.833511352539064,4.08203125,1,B2,0,None,450,3.3462949899626677,[6800|10300|0|0]
200,20000,1.3318172693252563,0.4995231926441192,0.0,-0.0344998426735401,-0.009684388525784,-3.8365111351013184,4.08203125,1,B2,0,None,450,3.3467361904724213,[6800|10400|0|0]
201,20100,1.331568479537964,0.4992955923080444,0.0,-0.0291680544614791,-0.0082381460815668,-3.8416588306427,4.08203125,1,B2,0,None,450,3.347073382214969,[6800|10500|0|0]
202,20200,1.331739068031311,0.4990667998790741,0.0,-0.1288706362247467,-0.0737548097968101,-3.8379201889038086,4.08203125,1,B2,0,None,450,3.347358770388544,[6800|10600|0|0]
203,20300,1.331796407699585,0.4995573163032532,0.0,-0.1236436143517494,-0.0629782900214195,-3.8283920288085938,4.08203125,1,B2,0,None,450,3.347852626845369,[6800|10700|0|0]
204,20400,1.331402063369751,0.4993908703327179,0.0,-0.1008160635828971,-0.0472056381404399,-3.809571027755737,4.08203125,1,B2,0,None,450,3.348280659217485,[6800|10800|0|0]
205,20500,1.3318499326705933,0.49897101521492,0.0,-0.084874004125595,-0.0587127432227134,-3.8204712867736816,4.08203125,1,B2,0,None,450,3.3488945527184915,[6800|10900|0|0]
206,20600,1.3317601680755615,0.4993401765823364,0.0,-0.0904805064201355,-0.0548598170280456,-3.832634449005127,4.08203125,1,B2,0,None,450,3.3492744708645623,[6800|11000|0|0]
207,20700,1.3316543102264404,0.4991910457611084,0.0,-0.0790056884288787,-0.0440990887582302,-3.82820463180542,4.08203125,1,B2,0,None,450,3.349457353028976,[6800|11100|0|0]
208,20800,1.3318737745285034,0.4992030262947082,0.0,-0.0774737820029258,-0.0496433041989803,-3.836934089660645,4.08203125,1,B2,0,None,450,3.349677144095822,[6800|11200|0|0]
209,20900,1.3319319486618042,0.4996349811553955,0.0,-0.0751228630542755,-0.0451694540679454,-3.817209482192993,4.0859375,1,B2,0,None,450,3.3501129986948075,[6800|11300|0|0]
210,21000,1.3316386938095093,0.498987078666687,0.0,-0.0585602298378944,-0.0316487401723861,-3.84065318107605,4.0859375,1,B2,0,None,450,3.3508241780275143,[6800|11400|0|0]
211,21100,1.3283952474594116,0.4956123530864715,0.0,0.060899369418621,0.042128212749958,-3.80491042137146,4.0859375,1,B2,0,None,450,3.3555048528685734,[6800|11500|0|0]
212,21200,1.3285757303237915,0.4953547120094299,0.0,0.0693468376994133,0.0310590658336877,-3.802237510681152,4.0859375,1,B2,0,None,450,3.355819420808634,[6800|11600|0|0]
213,21300,1.3283905982971191,0.4958367347717285,0.0,0.0610308982431888,0.0346412919461727,-3.807342767715454,4.0859375,1,B2,0,None,450,3.3563357732180155,[6800|11700|0|0]
214,21400,1.3283638954162598,0.4956905245780945,0.0,0.0590955950319767,0.0407189093530178,-3.798715829849243,4.0859375,1,B2,0,None,450,3.3564844018309024,[6800|11800|0|0]
215,21500,1.3283052444458008,0.4960931837558746,0.0,0.0538080632686615,0.0513257421553134,-3.756768226623535,4.0859375,1,B2,0,None,450,3.3568913101126885,[6800|11900|0|0]
216,21600,1.3282415866851809,0.4956617057323456,0.0,0.0625832825899124,0.0442369244992733,-3.7267024517059326,4.0859375,1,B2,0,None,450,3.357327458705803,[6800|12000|0|0]
217,21700,1.3285716772079468,0.4956416189670563,0.0,0.0632157325744628,0.0354729369282722,-3.759032011032105,4.0859375,1,B2,0,None,450,3.357658159826696,[6800|12100|0|0]
218,21800,1.3286278247833252,0.4954221248626709,0.0,0.0652109757065773,0.036670833826065,-3.765048027038574,4.0859375,1,B2,0,None,450,3.357884721544735,[6800|12200|0|0]
219,21900,1.328485369682312,0.4954429566860199,0.0,0.0616296008229255,0.0395135544240474,-3.7525360584259033,4.0859375,1,B2,0,None,450,3.3580286917523083,[6800|12300|0|0]
220,22000,1.3286563158035278,0.4953915774822235,0.0,0.0625190436840057,0.0323900058865547,-3.771162748336792,4.08984375,1,B2,0,None,450,3.3582071921695107,[6800|12400|0|0]
221,22100,1.3284999132156372,0.4955852031707763,0.0,0.0611760951578617,0.0380940623581409,-3.7987968921661377,4.0859375,1,B2,0,None,450,3.3584560951159905,[6800|12500|0|0]
222,22200,1.3285986185073853,0.4954674541950226,0.0,0.0579040311276912,0.040889173746109,-3.78440260887146,4.08984375,1,B2,0,None,450,3.3586097426213724,[6800|12600|0|0]
223,22300,1.328587293624878,0.4957558810710907,0.0,0.0486429445445537,0.0413739569485187,-3.7932422161102295,4.08984375,1,B2,0,None,450,3.358898391743668,[6800|12700|0|0]
224,22400,1.3282477855682373,0.4957641065120697,0.0,0.047250423580408,0.051222238689661,-3.7803237438201904,4.08984375,1,B2,0,None,450,3.3592379994267425,[6800|12800|0|0]
225,22501,1.3283647298812866,0.4957526922225952,0.0,0.0545158088207244,0.0489941239356994,-3.7801475524902335,4.08984375,1,B2,0,None,450,3.359355499462312,[6800|12900|0|0]
226,22601,1.3282586336135864,0.4958286583423614,0.0,0.0559616051614284,0.0481554940342903,-3.798482656478882,4.08984375,1,B2,0,None,450,3.3594859880417824,[6800|13000|0|0]
227,22701,1.3285514116287231,0.4957257211208343,0.0,0.0540111847221851,0.0392973646521568,-3.7757527828216553,4.08984375,1,B2,0,None,450,3.359796334683013,[6800|13100|0|0]
228,22801,1.3282593488693235,0.4958697259426117,0.0,0.0495730228722095,0.0479929111897945,-3.779142618179321,4.08984375,1,B2,0,None,450,3.360121969515492,[6800|13200|0|0]
229,22901,1.328309416770935,0.4956538379192352,0.0,0.0579807795584201,0.0437270104885101,-3.781421661376953,4.08984375,1,B2,0,None,450,3.360343587279692,[6800|13300|0|0]
230,23001,1.3287367820739746,0.4955226182937622,0.0,0.0831369757652282,0.0585103705525398,-3.795590877532959,4.08984375,1,B2,0,None,450,3.36079064397895,[6800|13400|0|0]
231,23101,1.328469157218933,0.4958185851573944,0.0,0.0836331471800804,0.0727048739790916,-3.787111282348633,4.08984375,1,B2,0,None,450,3.3611896670953283,[6800|13500|0|0]
232,23201,1.3288620710372925,0.4957004189491272,0.0,0.033684242516756,0.0204785857349634,-3.8083460330963135,4.08984375,1,B2,0,None,450,3.3615999651838373,[6800|13600|0|0]
233,23301,1.3285285234451294,0.4956075251102447,0.0,0.0476020947098732,0.0399559177458286,-3.8342068195343018,4.08984375,1,B2,0,None,450,3.361946206806899,[6800|13700|0|0]
234,23402,1.3286899328231812,0.4958857297897339,0.0,0.0593989379703998,0.045141827315092,-3.849610090255737,4.08984375,1,B2,0,None,450,3.3622678445394687,[6800|13800|0|0]
235,23502,1.3288384675979614,0.4956428408622741,0.0,0.0645382776856422,0.0416775792837142,-3.854094982147217,4.09765625,1,B2,0,None,450,3.362552550722053,[6800|13900|0|0]
236,23602,1.3288742303848269,0.495406299829483,0.0,0.0768547281622886,0.0317462310194969,-3.860689401626587,4.09765625,1,B2,0,None,450,3.362791779978454,[6800|14000|0|0]
237,23702,1.3286975622177124,0.4954800605773926,0.0,0.0758552327752113,0.0421916283667087,-3.859143018722534,4.08984375,1,B2,0,None,450,3.3629832278543987,[6800|14100|0|0]
238,23800,1.32867431640625,0.495496392250061,0.0,0.0781412199139595,0.0493778958916664,-3.852956533432007,4.09765625,1,B2,0,None,450,3.363011637206428,[6800|14200|0|0]
239,23900,1.3286707401275637,0.4954460263252258,0.0,0.0705082491040229,0.0595504567027092,-3.831686019897461,4.09765625,1,B2,0,None,450,3.3630621299401,[6800|14300|0|0]
240,24002,1.3285155296325684,0.495486855506897,0.0,0.068234771490097,0.0608108304440975,-3.805185317993164,4.09765625,1,B2,0,None,450,3.3632226208115936,[6800|14400|0|0]
241,24102,1.3287235498428345,0.4958951771259308,0.0,0.0571535117924213,0.0542629808187484,-3.806993246078491,4.09765625,1,B2,0,None,450,3.3636808772381164,[6800|14500|0|0]
242,24202,1.328634262084961,0.4957783222198486,0.0,0.057077694684267,0.0586754642426967,-3.804711818695069,4.09765625,1,B2,0,None,450,3.363827939717293,[6800|14600|0|0]
243,24300,1.3286937475204468,0.4956105351448059,0.0,0.0589497983455657,0.0561230741441249,-3.806734800338745,4.09765625,1,B2,0,None,450,3.3640059594341403,[6800|14700|0|0]
244,24400,1.328547120094299,0.4957584738731384,0.0,0.0556735135614872,0.0568078532814979,-3.79880166053772,4.09765625,1,B2,0,None,450,3.364214251223319,[6800|14800|0|0]
245,24500,1.3287584781646729,0.495719850063324,0.0,0.0602965801954269,0.0434796214103698,-3.792345762252808,4.09765625,1,B2,0,None,450,3.3644291093918786,[6800|14900|0|0]
246,24600,1.3287538290023804,0.4956896305084228,0.0,0.0585981048643589,0.0418464504182338,-3.777643918991089,4.09765625,1,B2,0,None,450,3.3644596844831858,[6800|15000|0|0]
247,24700,1.3287644386291504,0.4955703020095825,0.0,0.0651982650160789,0.030442751944065,-3.787658929824829,4.09765625,1,B2,0,None,450,3.3645794837102936,[6800|15100|0|0]
248,24800,1.3287274837493896,0.4955705106258392,0.0,0.0664076209068298,0.0335257165133953,-3.787129640579224,4.09765625,1,B2,0,None,450,3.364616439178886,[6800|15200|0|0]
249,24900,1.328603744506836,0.4955975711345672,0.0,0.0574446506798267,0.0347962193191051,-3.764672040939331,4.09765625,1,B2,0,None,450,3.3647431027935526,[6800|15300|0|0]
250,25000,1.3288474082946775,0.4957633316516876,0.0,0.0550101213157177,0.027889434248209,-3.775262117385864,4.09765625,1,B2,0,None,450,3.36503780364279,[6800|15400|0|0]
251,25100,1.328750491142273,0.4956621527671814,0.0,0.0567270666360855,0.0329599231481552,-3.786222934722901,4.09765625,1,B2,0,None,450,3.365177911105476,[6800|15500|0|0]
252,25200,1.3287959098815918,0.4957994818687439,0.0,0.0567938461899757,0.0341638252139091,-3.774369955062866,4.09765625,1,B2,0,None,450,3.365322555994833,[6800|15600|0|0]
253,25300,1.328817367553711,0.4956991076469421,0.0,0.0631441920995712,0.0286706816405057,-3.777992248535156,4.09765625,1,B2,0,None,450,3.365425198169864,[6800|15700|0|0]
254,25400,1.3286200761795044,0.4956856667995453,0.0,0.0634085908532142,0.0332461036741733,-3.765897512435913,4.09765625,1,B2,0,None,450,3.3656229468556123,[6800|15800|0|0]
255,25500,1.328798532485962,0.4959530532360077,0.0,0.0586572997272014,0.0323562324047088,-3.750599145889282,4.09765625,1,B2,0,None,450,3.365944415609488,[6800|15900|0|0]
256,25600,1.328746676445007,0.4960029721260071,0.0,0.0592558160424232,0.0356790721416473,-3.7556040287017822,4.09765625,1,B2,0,None,450,3.3660163943880432,[6800|16000|0|0]
257,25700,1.3285436630249023,0.4957580864429474,0.0,0.062917910516262,0.0422888435423374,-3.745351552963257,4.09765625,1,B2,0,None,450,3.3663344878436665,[6800|16100|0|0]
258,25800,1.3289289474487305,0.4958176612854004,0.0,0.0680273100733757,0.0360553935170173,-3.769153356552124,4.1015625,1,B2,0,None,450,3.366724350959513,[6800|16200|0|0]
259,25900,1.328716278076172,0.4956212341785431,0.0,0.0695595145225524,0.0447330176830291,-3.793068885803223,4.1015625,1,B2,0,None,450,3.367013853758002,[6800|16300|0|0]
260,26000,1.3290135860443115,0.4955035448074341,0.0,0.0755127221345901,0.0412246733903884,-3.79121446609497,4.1015625,1,B2,0,None,450,3.367333608063667,[6800|16400|0|0]
261,26100,1.3286380767822266,0.4954527020454407,0.0,0.0774009898304939,0.0552088394761085,-3.800600528717041,4.1015625,1,B2,0,None,450,3.3677125436681683,[6800|16500|0|0]
262,26200,1.3287241458892822,0.49608114361763,0.0,0.0627394542098045,0.0545758828520774,-3.780527353286743,4.1015625,1,B2,0,None,450,3.3683468517170256,[6800|16600|0|0]
263,26300,1.328703999519348,0.4956062734127044,0.0,0.0277832504361867,0.0204913131892681,-3.78636646270752,4.1015625,1,B2,0,None,450,3.368822149084731,[6800|16700|0|0]
264,26400,1.328447937965393,0.4958242774009704,0.0,0.0388925001025199,0.0330349318683147,-3.7892990112304688,4.1015625,1,B2,0,None,450,3.369158442495778,[6800|16800|0|0]
265,26500,1.328601956367493,0.4955064356327057,0.0,0.0534855127334594,0.0349729806184768,-3.799904346466065,4.1015625,1,B2,0,None,450,3.3695116351596868,[6800|16900|0|0]
266,26600,1.3286948204040527,0.4954107999801636,0.0,0.0658467039465904,0.0402116701006889,-3.799142599105835,4.1015625,1,B2,0,None,450,3.3696449389755485,[6800|17000|0|0]
267,26700,1.3286597728729248,0.495593398809433,0.0,0.0669852718710899,0.0539540313184261,-3.8226120471954346,4.1015625,1,B2,0,None,450,3.36983087084987,[6800|17100|0|0]
268,26800,1.3283156156539917,0.495825707912445,0.0,0.0615364201366901,0.0618420913815498,-3.812288999557495,4.1015625,1,B2,0,None,450,3.3702460957415683,[6800|17200|0|0]
269,26900,1.3282214403152466,0.4957612156867981,0.0,0.0689581036567688,0.0658935457468032,-3.801992177963257,4.1015625,1,B2,0,None,450,3.3703602370644825,[6800|17300|0|0]
270,27000,1.32857346534729,0.4956577718257904,0.0,0.0647337511181831,0.0571956001222133,-3.783813238143921,4.1015625,1,B2,0,None,450,3.370727146120742,[6800|17400|0|0]
271,27100,1.3286168575286863,0.4954828917980194,0.0,0.0620438419282436,0.043791577219963,-3.797255516052246,4.1015625,1,B2,0,None,450,3.370907329098628,[6800|17500|0|0]
272,27200,1.3286807537078855,0.4957432150840759,0.0,0.0539907962083816,0.0500379353761673,-3.811321020126343,4.1015625,1,B2,0,None,450,3.3711753793457446,[6800|17600|0|0]
273,27300,1.32862389087677,0.4955076277256012,0.0,0.0607296116650104,0.0552818924188613,-3.7792694568634033,4.1015625,1,B2,0,None,450,3.371417731950508,[6800|17700|0|0]
274,27400,1.328865885734558,0.4956241548061371,0.0,0.0539285391569137,0.0461296066641807,-3.773754835128784,4.1015625,1,B2,0,None,450,3.3716863209891788,[6800|17800|0|0]
275,27500,1.3288472890853882,0.4952628016471863,0.0,0.067813940346241,0.0471892841160297,-3.7881383895874015,4.1015625,1,B2,0,None,450,3.372048152359908,[6800|17900|0|0]
276,27600,1.328713297843933,0.4954996109008789,0.0,0.0566492341458797,0.051710195839405,-3.7878785133361816,4.1015625,1,B2,0,None,450,3.3723202410870194,[6800|18000|0|0]
277,27700,1.328477382659912,0.4955241084098816,0.0,0.0564291439950466,0.0556831136345863,-3.769070625305176,4.1015625,1,B2,0,None,450,3.3725574247753265,[6800|18100|0|0]
278,27800,1.329060673713684,0.4954855144023895,0.0,0.057844590395689,0.0378659479320049,-3.7883126735687256,4.10546875,1,B2,0,None,450,3.373141991239319,[6800|18200|0|0]
279,27900,1.3285582065582275,0.4955580532550812,0.0,0.0587995275855064,0.0569110214710235,-3.804579973220825,4.1015625,1,B2,0,None,450,3.3736496674426832,[6800|18300|0|0]
280,28000,1.3287428617477417,0.4954562783241272,0.0,0.0531894490122795,0.0507801547646522,-3.793330669403076,4.1015625,1,B2,0,None,450,3.373860512588668,[6800|18400|0|0]
281,28100,1.3289437294006348,0.4955017864704132,0.0,0.050174742937088,0.0444957911968231,-3.77817440032959,4.10546875,1,B2,0,None,450,3.3740664708498693,[6800|18500|0|0]
282,28200,1.3286681175231934,0.4955834746360779,0.0,0.048649251461029,0.0543779693543911,-3.782023668289185,4.10546875,1,B2,0,None,450,3.37435393365337,[6800|18600|0|0]
283,28300,1.328546166419983,0.495505690574646,0.0,0.04953308776021,0.056964922696352,-3.7849278450012207,4.1015625,1,B2,0,None,450,3.37449857953747,[6800|18700|0|0]
284,28400,1.328632116317749,0.4955715835094452,0.0,0.0484898164868354,0.0559139586985111,-3.7849624156951904,4.10546875,1,B2,0,None,450,3.374606881263137,[6800|18800|0|0]
285,28500,1.3288105726242063,0.4956755936145782,0.0,0.0461291410028934,0.0585742928087711,-3.790009498596192,4.10546875,1,B2,0,None,450,3.3748134357481625,[6800|18900|0|0]
286,28600,1.3288013935089111,0.4954891800880432,0.0,0.054120298475027,0.0577371194958686,-3.8031294345855713,4.1015625,1,B2,0,None,450,3.3750000751304827,[6800|19000|0|0]
287,28700,1.3287615776062012,0.4954738020896911,0.0,0.0559320226311683,0.0548972524702549,-3.7866928577423096,4.1015625,1,B2,0,None,450,3.375042757550071,[6800|19100|0|0]
288,28800,1.328564167022705,0.4953007698059082,0.0,0.0638013705611229,0.0525694228708744,-3.789177417755127,4.10546875,1,B2,0,None,450,3.3753052668064933,[6800|19200|0|0]
289,28900,1.328819990158081,0.4957558512687683,0.0,0.0538214519619941,0.0476140677928924,-3.790219783782959,4.10546875,1,B2,0,None,450,3.375827324863066,[6800|19300|0|0]
290,29000,1.328705668449402,0.4956818222999573,0.0,0.0523257479071617,0.0523436032235622,-3.790128946304321,4.10546875,1,B2,0,None,450,3.375963522298058,[6800|19400|0|0]
291,29100,1.3286510705947876,0.4954685270786285,0.0,0.0615649074316024,0.0497185997664928,-3.7886557579040527,4.10546875,1,B2,0,None,450,3.376183694451543,[6800|19500|0|0]
292,29200,1.3287919759750366,0.4953466653823852,0.0,0.0668749287724495,0.0459869876503944,-3.800493717193604,4.10546875,1,B2,0,None,450,3.3763699861561207,[6800|19600|0|0]
293,29300,1.328837513923645,0.4953683614730835,0.0,0.0606126822531223,0.0390831306576728,-3.7917160987854,4.10546875,1,B2,0,None,450,3.3764204284510235,[6800|19700|0|0]
294,29400,1.3288211822509766,0.4957861006259918,0.0,0.0511013269424438,0.0368598103523254,-3.785951852798462,4.10546875,1,B2,0,None,450,3.3768384867285457,[6800|19800|0|0]
295,29500,1.328768610954285,0.4955576658248901,0.0,0.0768880993127822,0.0417839288711547,-3.784772396087648,4.10546875,1,B2,0,None,450,3.377072892785614,[6800|19900|0|0]
296,29600,1.3287070989608765,0.4955461025238037,0.0,0.0817313641309738,0.0458377934992313,-3.7788236141204834,4.10546875,1,B2,0,None,450,3.37713548220377,[6800|20000|0|0]
297,29700,1.328574538230896,0.4959728121757507,0.0,0.0669299438595771,0.0480963736772537,-3.7815732955932617,4.10546875,1,B2,0,None,450,3.377582308203682,[6800|20100|0|0]
298,29800,1.3287713527679443,0.4955803155899048,0.0,0.0654609128832817,0.0378908775746822,-3.773581027984619,4.10546875,1,B2,0,None,450,3.3780213862512936,[6800|20200|0|0]
299,29900,1.3287875652313232,0.4953442215919494,0.0,0.0661437362432479,0.0303782243281602,-3.7875044345855713,4.10546875,1,B2,0,None,450,3.378258036245672,[6800|20300|0|0]
300,30000,1.3289270401000977,0.4953207671642303,0.0,0.0611925758421421,0.0325258672237396,-3.778991937637329,4.10546875,1,B2,0,None,450,3.378399469442621,[6800|20400|0|0]
301,30100,1.329023838043213,0.4954143166542053,0.0,0.058954793959856,0.0299774892628192,-3.780313491821289,4.10546875,1,B2,0,None,450,3.378534085002145,[6800|20500|0|0]
302,30200,1.3288549184799194,0.4957172274589538,0.0,0.052626583725214,0.0384940356016159,-3.75752854347229,4.10546875,1,B2,0,None,450,3.378880911723285,[6800|20600|0|0]
303,30300,1.3289111852645874,0.4955649971961975,0.0,0.0513167344033718,0.0421357303857803,-3.7256481647491455,4.10546875,1,B2,0,None,450,3.379043207761301,[6800|20700|0|0]
304,30400,1.3288581371307373,0.4955370724201202,0.0,0.0527132451534271,0.0456974953413009,-3.728068590164185,4.10546875,1,B2,0,None,450,3.3791031568865986,[6800|20800|0|0]
305,30500,1.3291479349136353,0.4955771267414093,0.0,0.0500947088003158,0.038940891623497,-3.732785701751709,4.10546875,1,B2,0,None,450,3.379395709623086,[6800|20900|0|0]
306,30600,1.3289594650268557,0.4954026341438293,0.0,0.0498332902789115,0.0452786833047866,-3.745829582214356,4.10546875,1,B2,0,None,450,3.379652553086762,[6800|21000|0|0]
307,30700,1.3288702964782717,0.4956182241439819,0.0,0.0466678440570831,0.0467754118144512,-3.759284257888794,4.10546875,1,B2,0,None,450,3.3798858556333027,[6800|21100|0|0]
308,30800,1.329118251800537,0.4956856966018677,0.0,0.0469191372394561,0.0319082587957382,-3.7661967277526855,4.10546875,1,B2,0,None,450,3.380142827177277,[6800|21200|0|0]
309,30900,1.328894853591919,0.4958229064941406,0.0,0.0513290427625179,0.0399926342070102,-3.7585525512695312,4.10546875,1,B2,0,None,450,3.3804049975687245,[6800|21300|0|0]
310,31000,1.32897686958313,0.4956440925598144,0.0,0.0483039356768131,0.0336933694779872,-3.74768328666687,4.10546875,1,B2,0,None,450,3.3806017233828,[6800|21400|0|0]
311,31100,1.329158902168274,0.4955416917800903,0.0,0.0441809706389904,0.0336391627788543,-3.770481824874878,4.10546875,1,B2,0,None,450,3.3808105816642784,[6800|21500|0|0]
312,31200,1.3288891315460205,0.4955067932605743,0.0,0.0516027323901653,0.0421539358794689,-3.7668068408966064,4.10546875,1,B2,0,None,450,3.381082600221174,[6800|21600|0|0]
313,31300,1.328882932662964,0.4955619275569916,0.0,0.0528595186769962,0.0426219701766967,-3.77731204032898,4.10546875,1,B2,0,None,450,3.381138081900966,[6800|21700|0|0]
314,31400,1.3289049863815308,0.4955673515796661,0.0,0.0546569675207138,0.0457316115498542,-3.767670869827272,4.10546875,1,B2,0,None,450,3.3811607928349976,[6800|21800|0|0]
315,31500,1.3290541172027588,0.4955564141273498,0.0,0.0521012619137764,0.0360963195562362,-3.77851676940918,4.10546875,1,B2,0,None,450,3.3813103242019524,[6800|21900|0|0]
316,31600,1.3289556503295898,0.4955349266529083,0.0,0.0560082606971263,0.0439346954226493,-3.766893148422241,4.10546875,1,B2,0,None,450,3.381411108311164,[6800|22000|0|0]
317,31700,1.3288911581039429,0.4954006969928741,0.0,0.055319644510746,0.0465253479778766,-3.774593353271485,4.10546875,1,B2,0,None,450,3.381560027244822,[6800|22100|0|0]
318,31800,1.3290419578552246,0.4953689277172088,0.0,0.0654312297701835,0.054259780794382,-3.7781167030334473,4.11328125,1,B2,0,None,450,3.381714137114275,[6800|22200|0|0]
319,31900,1.3291752338409424,0.4954946041107178,0.0,0.0628921687602996,0.0524464100599288,-3.7758712768554688,4.11328125,1,B2,0,None,450,3.381897322933198,[6800|22300|0|0]
320,32000,1.3292261362075806,0.4953091442584991,0.0,0.0680174976587295,0.0453226566314697,-3.7875993251800537,4.11328125,1,B2,0,None,450,3.382089641439105,[6800|22400|0|0]
321,32100,1.3290573358535769,0.495673805475235,0.0,0.0591785684227943,0.0564008057117462,-3.77340579032898,4.11328125,1,B2,0,None,450,3.3824914764332297,[6800|22500|0|0]
322,32200,1.3290477991104126,0.4952888488769531,0.0,0.0720780566334724,0.0541177801787853,-3.78156304359436,4.11328125,1,B2,0,None,450,3.382876551142904,[6800|22600|0|0]
323,32300,1.3287997245788574,0.4956401586532593,0.0,0.0126845696941018,0.027071513235569,-3.790618658065796,4.11328125,1,B2,0,None,450,3.3833066203607456,[6800|22700|0|0]
324,32400,1.328927993774414,0.4952454566955566,0.0,0.0336434356868267,0.0311594437807798,-3.800079584121704,4.11328125,1,B2,0,None,450,3.383721641591459,[6800|22800|0|0]
325,32500,1.328867793083191,0.4956989288330078,0.0,0.0367336310446262,0.0435522310435771,-3.8088338375091553,4.11328125,1,B2,0,None,450,3.384179092247452,[6800|22900|0|0]
326,32600,1.3288841247558594,0.495165079832077,0.0,0.053094245493412,0.0471984818577766,-3.822973251342773,4.11328125,1,B2,0,None,450,3.3847131910017354,[6800|23000|0|0]
327,32700,1.3285971879959106,0.4954458773136139,0.0,0.0546709299087524,0.0632411912083625,-3.823239088058472,4.11328125,1,B2,0,None,450,3.385114663204817,[6800|23100|0|0]
328,32800,1.329016923904419,0.4957090318202972,0.0,0.0447931215167045,0.0578080713748931,-3.829761505126953,4.11328125,1,B2,0,None,450,3.3856100706404484,[6800|23200|0|0]
329,32900,1.328650951385498,0.4957968592643738,0.0,0.0521696023643016,0.0671050101518631,-3.815320014953613,4.11328125,1,B2,0,None,450,3.385986434220698,[6800|23300|0|0]
330,33000,1.32878315448761,0.495531678199768,0.0,0.0572257377207279,0.0563411079347133,-3.817810535430908,4.11328125,1,B2,0,None,450,3.386282742602681,[6800|23400|0|0]
331,33100,1.328972339630127,0.4954460263252258,0.0,0.0638923421502113,0.0592976436018943,-3.812345743179321,4.11328125,1,B2,0,None,450,3.386490413644865,[6800|23500|0|0]
332,33200,1.3287348747253418,0.4956531822681427,0.0,0.0562134869396686,0.0628908425569534,-3.811710119247437,4.11328125,1,B2,0,None,450,3.386805537692964,[6800|23600|0|0]
333,33300,1.3287941217422483,0.4959217011928558,0.0,0.0463545061647892,0.0590676590800285,-3.784491062164306,4.11328125,1,B2,0,None,450,3.387080515186482,[6800|23700|0|0]
334,33400,1.3286893367767334,0.4951507747173309,0.0,0.063494861125946,0.0555228292942047,-3.794088363647461,4.11328125,1,B2,0,None,450,3.3878585303018,[6800|23800|0|0]
335,33500,1.3289239406585691,0.4957396686077118,0.0,0.0451709479093551,0.0508118458092212,-3.782027959823608,4.11328125,1,B2,0,None,450,3.388492434865201,[6800|23900|0|0]
336,33600,1.3288124799728394,0.495792806148529,0.0,0.0461576394736766,0.054760493338108,-3.775680065155029,4.11328125,1,B2,0,None,450,3.3886159139432155,[6800|24000|0|0]
337,33700,1.3288769721984863,0.4955683648586273,0.0,0.045958325266838,0.0498660281300544,-3.770453691482544,4.11328125,1,B2,0,None,450,3.388849437260641,[6800|24100|0|0]
338,33800,1.328752040863037,0.4953868687152862,0.0,0.0497644282877445,0.0497620776295661,-3.764902830123901,4.11328125,1,B2,0,None,450,3.389069774930196,[6800|24200|0|0]
339,33900,1.3285945653915403,0.4956341385841369,0.0,0.0482657402753829,0.0491174310445785,-3.7473084926605225,4.11328125,1,B2,0,None,450,3.3893629317349347,[6800|24300|0|0]
340,34000,1.3287632465362549,0.4953833818435669,0.0,0.0460757352411747,0.0403105020523071,-3.76778793334961,4.11328125,1,B2,0,None,450,3.3896651440303884,[6800|24400|0|0]
341,34100,1.3287761211395264,0.4955486357212066,0.0,0.0430243350565433,0.0451848395168781,-3.774310350418091,4.11328125,1,B2,0,None,450,3.3898308986667773,[6800|24500|0|0]
342,34200,1.3287297487258911,0.4954114556312561,0.0,0.0482666008174419,0.0450453199446201,-3.765434741973877,4.11328125,1,B2,0,None,450,3.3899757046674304,[6800|24600|0|0]
