,time.ms,stateEstimate.x,stateEstimate.y,stateEstimate.z,stabilizer.roll,stabilizer.pitch,stabilizer.yaw,pm.vbat,drone_id,node_name,wind_speed,global_wind_direction,relative_wind_direction,travel_dist,waiting_time
0,0,0.6467776894569397,0.3672825396060943,0.0,0.573082685470581,-0.5859358310699463,-1.575031042098999,4.0234375,0,F2,0,None,450,0.0,[6200|0|0|0]
1,100,0.6466248035430908,0.3675210475921631,0.0,0.5677374601364136,-0.5773106813430786,-1.5815694332122805,4.02734375,0,F2,0,None,450,0.0002833022450881,[6300|0|0|0]
2,200,0.646725058555603,0.3669667840003967,0.0,0.5891614556312561,-0.5742114186286926,-1.5702691078186035,4.02734375,0,F2,0,None,450,0.0008465599096535,[6400|0|0|0]
3,300,0.646677553653717,0.3671882152557373,0.0,0.5886825323104858,-0.576442301273346,-1.5735235214233398,4.0234375,0,F2,0,None,450,0.0010730295909464,[6500|0|0|0]
4,400,0.6465601325035095,0.3670434653759002,0.0,0.6047711968421936,-0.5622014403343201,-1.5732858180999756,4.02734375,0,F2,0,None,450,0.0012594169677425,[6600|0|0|0]
5,500,0.6464987397193909,0.3673366606235504,0.0,0.5913311243057251,-0.5640593767166138,-1.5945833921432495,4.02734375,0,F2,0,None,450,0.0015589708480153,[6700|0|0|0]
6,600,0.6465275287628174,0.3671614825725555,0.0,0.5898030996322632,-0.5748684406280518,-1.6013469696044922,4.0234375,0,F2,0,None,450,0.001736498757291,[6800|0|0|0]
7,700,0.6482925415039062,0.3695866763591766,0.0,0.5129375457763672,-0.647723913192749,-1.5979506969451904,2.85546875,0,A1,0,None,450,0.0047359711907151,[6800|0|0|0]
8,800,0.6468862295150757,0.3664315640926361,0.0,1.4606727361679075,-1.2364609241485596,-1.6290208101272583,3.109375,0,A1,0,None,450,0.0081903085836753,[6800|0|0|0]
9,900,0.6492924690246582,0.3618524074554443,0.0,6.486595153808594,-3.0285940170288086,0.4166441559791565,3.447265625,0,A1,0,None,450,0.0133631863210101,[6800|0|0|0]
10,1000,0.6577966213226318,0.3481624722480774,0.0452666021883487,0.9958120584487916,-1.89504075050354,1.4238994121551514,3.494140625,0,A1,0,None,450,0.0614131624496956,[6800|0|0|0]
11,1100,0.668581485748291,0.3333847224712372,0.1175660640001297,-2.642666816711426,2.187337636947632,0.8138911724090576,3.552734375,0,A1,0,None,450,0.135991358776906,[6800|0|0|0]
12,1200,0.6759033799171448,0.3242811560630798,0.200289636850357,-4.366230487823486,2.899538993835449,-0.1595417708158493,3.5625,0,A1,0,None,450,0.2195358053947063,[6800|0|0|0]
13,1300,0.6779171228408813,0.323441743850708,0.2869480550289154,-3.9687464237213135,2.5675718784332275,-0.9598014950752258,3.55859375,0,A1,0,None,450,0.3062216820681015,[6800|0|0|0]
14,1400,0.6731557846069336,0.3343735635280609,0.3805155158042907,-2.65612530708313,1.54535710811615,-1.6350446939468384,3.55859375,0,A1,0,None,450,0.4005458292372523,[6800|0|0|0]
15,1500,0.6703071594238281,0.3449899852275848,0.4690037071704864,-0.8976919054985046,0.3423595726490021,-2.1419219970703125,3.546875,0,A1,0,None,450,0.4897141144422309,[6800|0|0|0]
16,1600,0.6665378212928772,0.3583445250988006,0.5597133040428162,0.5515274405479431,-0.482709676027298,-2.209001541137696,3.552734375,0,A1,0,None,450,0.5814789367319183,[6800|0|0|0]
17,1700,0.6646356582641602,0.3710556924343109,0.6518272161483765,1.6243820190429688,-1.0447386503219604,-2.180027961730957,3.546875,0,A1,0,None,450,0.6744851989007102,[6800|0|0|0]
18,1800,0.6650072932243347,0.381134569644928,0.746031641960144,2.130155086517334,-0.9255669713020324,-2.072328329086304,3.546875,0,A1,0,None,450,0.7692279860715294,[6800|0|0|0]
19,1900,0.6668089628219604,0.3875019252300262,0.840998649597168,2.08858060836792,-0.5307834148406982,-1.949231743812561,3.541015625,0,A1,0,None,450,0.8644252642364888,[6800|0|0|0]
20,2000,0.670147716999054,0.3905592560768127,0.9370400309562684,1.6346911191940308,-0.0600268952548503,-1.7902703285217283,3.546875,0,A1,0,None,450,0.960573282857394,[6800|0|0|0]
21,2100,0.67326819896698,0.3910277187824249,1.0355550050735474,1.1173911094665527,0.3783809840679168,-1.7544397115707395,3.546875,0,A1,0,None,450,1.0591387787996702,[6800|0|0|0]
22,2200,0.6744625568389893,0.391085535287857,1.1362138986587524,0.5704314112663269,0.5095581412315369,-1.7015624046325684,3.546875,0,A1,0,None,450,1.159804774504637,[6800|0|0|0]
23,2300,0.675288736820221,0.3905006647109985,1.2384345531463623,0.234357088804245,0.4247574806213379,-1.7034399509429932,3.541015625,0,A1,0,None,450,1.262030440806346,[6800|0|0|0]
24,2400,0.6748366355895996,0.3906686305999756,1.3415390253067017,0.0490941926836967,0.6896533966064453,-1.7221449613571167,3.546875,0,A1,0,None,450,1.3651360409817237,[6800|0|0|0]
25,2500,0.6727145314216614,0.3912045061588287,1.4346929788589478,0.0737180188298225,0.2745049297809601,-2.011882305145264,3.541015625,0,A1,0,None,450,1.458315703736684,[6800|0|0|0]
26,2600,0.6724154949188232,0.3881518542766571,1.5398544073104858,0.1536785364151001,-0.3112567961215973,4.503260135650635,3.59375,0,A1,0,None,450,1.5635218544138747,[6800|0|0|0]
27,2700,0.6703485250473022,0.3882612287998199,1.6363613605499268,0.3111554980278015,-0.2638240158557892,7.622551441192627,3.630859375,0,A1,0,None,450,1.6600510020885315,[6800|0|0|0]
28,2800,0.6669334769248962,0.3892947733402252,1.7188431024551392,0.7454822659492493,-0.5116593837738037,8.174141883850098,3.63671875,0,A1,0,None,450,1.7426098811731792,[6800|0|0|0]
29,2900,0.6649324297904968,0.3901919722557068,1.7826329469680786,1.0760418176651,-0.4146956205368042,8.247879028320312,3.626953125,0,A1,0,None,450,1.806437409861928,[6800|0|0|0]
30,3000,0.6584030985832214,0.3904990553855896,1.8286583423614504,0.9297480583190918,0.0702172294259071,2.9798710346221924,3.615234375,0,A1,0,None,450,1.8529246499088392,[6800|0|0|0]
31,3100,0.6543663740158081,0.3849320709705353,1.8485949039459229,1.4989495277404783,-0.7846692204475403,-2.4385998249053955,3.59375,0,A1,0,None,450,1.8740138165240012,[6800|0|0|0]
32,3200,0.6494318842887878,0.3815569579601288,1.8616362810134888,0.6665260791778564,-0.4821475148200989,-5.767050743103027,3.57421875,0,A1,0,None,450,1.888360178171385,[6800|0|0|0]
33,3300,0.6437169313430786,0.3809743821620941,1.870483040809632,0.7144976854324341,-1.5305620431900024,-4.869682788848877,3.568359375,0,A1,0,None,450,1.898908412176316,[6800|0|0|0]
34,3400,0.6395068168640137,0.3790814876556396,1.8755649328231807,0.2342198938131332,-0.9246934652328492,-1.6480417251586914,3.5625,0,A1,0,None,450,1.9057738138380376,[6800|0|0|0]
35,3500,0.6345741748809814,0.3748229146003723,1.8732401132583616,0.241228848695755,-1.9010220766067505,-2.7654032707214355,3.5625,0,A1,0,None,450,1.9126927145750607,[6800|0|0|0]
36,3600,0.6357980966567993,0.3685696721076965,1.86252236366272,0.0642238706350326,-1.4212753772735596,-9.243447303771973,3.552734375,0,A1,0,None,450,1.9251615229616077,[6800|0|0|0]
37,3700,0.634246289730072,0.3625580966472626,1.8527209758758545,-0.2315708547830581,-1.4280105829238892,-9.999996185302734,3.546875,0,A1,0,None,None,1.936763865259732,[6800|0|0|0]
38,3800,0.6362488269805908,0.3629252910614013,1.8452320098876955,-10.142333030700684,-1.3666152954101562,-6.467189311981201,3.6796875,0,A1,0,None,None,1.944524638336513,[6800|0|0|0]
39,3900,0.6504380106925964,0.3598420023918152,1.800488829612732,-13.897214889526367,-3.52973747253418,5.389936447143555,3.58984375,0,A1,0,None,None,1.9915649591746083,[6800|0|0|0]
40,4000,0.6729108095169067,0.3812500834465027,1.7434322834014893,-15.08748722076416,-3.1699695587158203,11.518328666687012,3.48828125,0,A1,0,None,None,2.0565171114637946,[6800|0|0|0]
41,4100,0.6851804852485657,0.4253134727478027,1.6824442148208618,-10.912273406982422,-0.2279152870178222,10.007619857788086,3.435546875,0,A1,0,None,None,2.132751432661489,[6800|0|0|0]
42,4200,0.622391402721405,0.518247663974762,1.6483895778656006,-5.789482593536377,3.187333345413208,5.458583354949951,3.47265625,0,A1,0,None,None,2.2499647044431703,[6800|0|0|0]
43,4300,0.59932541847229,0.5924734473228455,1.601217269897461,3.909184694290161,-3.700977087020874,-0.3658331632614136,3.494140625,0,A1,0,None,None,2.340886281541558,[6800|0|0|0]
44,4400,0.5773376226425171,0.6570209264755249,1.569671630859375,7.917668342590332,-6.189013481140137,-3.444591522216797,3.5,0,A1,0,None,None,2.4160192807678538,[6800|0|0|0]
45,4500,0.5542174577713013,0.704951822757721,1.5463436841964722,9.298871994018556,-8.12875747680664,-5.549588680267334,3.505859375,0,A1,0,None,None,2.474123548576631,[6800|0|0|0]
46,4600,0.5327548980712891,0.7319018840789795,1.5303561687469482,8.123162269592285,-8.122030258178711,-6.303284168243408,3.5,0,A1,0,None,None,2.5121044375123174,[6800|0|0|0]
47,4700,0.5136171579360962,0.7447912693023682,1.5189543962478638,5.166851043701172,-7.545725345611572,-5.59494686126709,3.509765625,0,A1,0,None,None,2.537841371382535,[6800|0|0|0]
48,4800,0.5008370280265808,0.7488468289375305,1.5143471956253052,2.089057445526123,-7.759573459625244,-4.623317241668701,3.515625,0,A1,0,None,None,2.55201901512312,[6800|0|0|0]
49,4900,0.4948762655258178,0.7499449253082275,1.5137919187545776,-0.1005734279751777,-7.066182613372803,-4.366557121276856,3.541015625,0,A1,0,None,None,2.5581054621682364,[6800|0|0|0]
50,5000,0.4960501194000244,0.7513541579246521,1.5117539167404177,-1.36829674243927,-6.685556888580322,-4.087491512298584,3.541015625,0,A1,0,None,None,2.56084723562622,[6800|0|0|0]
51,5100,0.5048651099205017,0.7570716142654419,1.508493423461914,-1.6257832050323486,-5.3598480224609375,-3.7854294776916495,3.537109375,0,A1,0,None,None,2.5718483347214973,[6800|0|0|0]
52,5200,0.518862783908844,0.7657032608985901,1.5026447772979736,-1.252798080444336,-4.528756618499756,-3.594157695770264,3.525390625,0,A1,0,None,None,2.5893024706965155,[6800|0|0|0]
53,5301,0.5371820330619812,0.7773032188415527,1.4954789876937866,-0.4752258062362671,-2.8695030212402344,2.821568965911865,3.525390625,0,A1,0,None,None,2.612138898930035,[6800|0|0|0]
54,5401,0.5577594637870789,0.7900698781013489,1.4871854782104492,0.9510647058486938,-1.4789386987686155,3.8302857875823975,3.521484375,0,A1,0,None,None,2.63773578435487,[6800|0|0|0]
55,5501,0.5795653462409973,0.8013122081756592,1.478668212890625,1.9947381019592283,-0.5371838808059692,1.177242636680603,3.515625,0,A1,0,None,None,2.6637055803421728,[6800|0|0|0]
56,5601,0.60028076171875,0.8100306391716003,1.4708895683288574,2.527130126953125,0.4875410497188568,-0.4870924651622772,3.521484375,0,A1,0,None,None,2.6874889104005395,[6800|0|0|0]
57,5701,0.6182992458343506,0.8151482343673706,1.4640048742294312,2.5704545974731445,0.964304745197296,-1.4790223836898804,3.525390625,0,A1,0,None,None,2.7074452267754268,[6800|0|0|0]
58,5801,0.6339716911315918,0.8154245018959045,1.4573100805282593,2.1837964057922363,1.11971116065979,-2.1233510971069336,3.521484375,0,A1,0,None,None,2.724489936454491,[6800|0|0|0]
59,5901,0.6461722254753113,0.8136048316955566,1.4513401985168457,1.468550443649292,1.1203672885894775,-2.2815206050872803,3.521484375,0,A1,0,None,None,2.7381940865244703,[6800|0|0|0]
60,6001,0.6556944847106934,0.80946284532547,1.444864273071289,0.531150758266449,1.0127538442611694,-2.103489398956299,3.525390625,0,A1,0,None,None,2.750432022723528,[6800|0|0|0]
61,6101,0.662719190120697,0.8044520020484924,1.4389019012451172,0.0532161742448806,0.5190182328224182,-1.9083701372146609,3.515625,0,A1,0,None,None,2.760920345479684,[6800|0|0|0]
62,6201,0.6685483455657959,0.7997792363166809,1.4324390888214111,-0.2810849249362945,0.2324188351631164,-1.7402064800262451,3.515625,0,A1,0,None,None,2.7707986923662595,[6800|0|0|0]
63,6302,0.6738300323486328,0.7995066046714783,1.4315358400344849,-0.6378021240234375,0.5985774993896484,-1.6114251613616943,3.515625,0,A1,0,None,None,2.77616398841187,[6800|0|0|0]
64,6402,0.6779839396476746,0.7957897186279297,1.4242689609527588,-0.5992550849914551,0.0734409987926483,-1.2613714933395386,3.509765625,0,A1,0,None,None,2.7853224664130547,[6800|0|0|0]
65,6500,0.6790368556976318,0.7908375859260559,1.4120396375656128,-0.5165464878082275,-0.0657486021518707,-0.9004013538360596,3.509765625,0,A1,0,None,None,2.7985583494970285,[6800|0|0|0]
66,6600,0.6812710762023926,0.7899874448776245,1.4059710502624512,-0.4653334021568298,0.3801242709159851,-0.7453404068946838,3.505859375,0,A1,0,None,None,2.805080790215212,[6800|0|0|0]
67,6700,0.6835711002349854,0.7898467183113098,1.399782419204712,-0.1873137056827545,-0.1767503023147583,-0.8221091628074646,3.630859375,0,A1,0,None,450,2.8116845065087683,[6800|0|0|0]
68,6800,0.6855258941650391,0.7896600365638733,1.3847203254699707,0.1650329381227493,-0.0310288146138191,-1.2870733737945557,3.779296875,0,A1,0,None,450,2.826874066642555,[6800|0|0|0]
69,6900,0.686825156211853,0.7900850772857666,1.3341938257217407,0.5015296936035156,-1.1600730419158936,-1.1757625341415403,3.6953125,0,A1,0,None,450,2.877419055694779,[6800|0|0|0]
70,7000,0.6873918771743774,0.7899584770202637,1.2435777187347412,0.3851447701454162,-0.3408744931221008,-0.7249346971511841,3.5625,0,A1,0,None,450,2.968037023260577,[6800|0|0|0]
71,7100,0.6877162456512451,0.7902528643608093,1.1253310441970823,-0.3539972305297851,0.1747600883245468,-0.7940895557403564,3.484375,0,A1,0,None,450,3.086284509145183,[6800|0|0|0]
72,7200,0.6889635324478149,0.7895605564117432,0.9963133335113524,0.6941152811050415,-0.3157424330711365,-1.4500797986984253,3.46875,0,A1,0,None,450,3.215310106160798,[6800|0|0|0]
73,7300,0.6911290884017944,0.7886331081390381,0.8664935231208801,0.017331039533019,0.1210613995790481,-2.397163391113281,3.484375,0,A1,0,None,450,3.3451512897764237,[6800|0|0|0]
74,7400,0.6929867267608643,0.7875807881355286,0.7401686906814575,-0.103029690682888,0.7930741906166077,-2.6889803409576416,3.505859375,0,A1,0,None,450,3.4714941625018407,[6800|0|0|0]
75,7500,0.6942887306213379,0.7874689698219299,0.6179109215736389,-0.3957921862602234,0.3161138594150543,-2.317685604095459,3.509765625,0,A1,0,None,450,3.5937589154955334,[6800|0|0|0]
76,7600,0.6969552636146545,0.7861771583557129,0.4958013296127319,0.2285313606262207,0.1991551518440246,-1.440513014793396,3.46875,0,A1,0,None,450,3.715904450100479,[6800|0|0|0]
77,7700,0.7007467150688171,0.7844534516334534,0.3755514323711395,0.3329836130142212,0.0861203670501709,0.1973161101341247,3.39453125,0,A1,0,None,450,3.8362264516446976,[6800|0|0|0]
78,7800,0.704626202583313,0.782251238822937,0.2676514387130737,-0.5918407440185547,1.1028854846954346,1.8448357582092283,3.36328125,0,A1,0,None,450,3.944218621712943,[6800|0|0|0]
79,7900,0.7073696851730347,0.7803549766540527,0.1796233057975769,-0.201410174369812,0.8033782243728638,3.223501443862915,3.373046875,0,A1,0,None,450,4.032309907840014,[6800|0|0|0]
80,8002,0.7085931897163391,0.7780712246894836,0.1124310120940208,-0.6751778721809387,0.2658843994140625,4.385790824890137,3.3828125,0,A1,0,None,450,4.099552132814714,[6800|0|0|0]
81,8100,0.7092135548591614,0.7762050628662109,0.0637548714876174,0.0612862445414066,0.0686487406492233,4.645830154418945,3.41015625,0,A1,0,None,450,4.148267983183926,[6800|0|0|0]
82,8200,0.7111798524856567,0.7736635208129883,0.0331921391189098,0.4810668528079986,-0.4133010804653168,5.662500858306885,3.435546875,0,A1,0,None,450,4.178999178608209,[6800|0|0|0]
83,8300,0.713966429233551,0.768677294254303,0.0183269307017326,-0.1367698460817337,0.8911813497543335,7.574208259582519,3.46875,0,A1,0,None,450,4.194924061231091,[6800|0|0|0]
84,8400,0.7150015234947205,0.763832688331604,0.0145031968131661,-0.2239186614751815,0.6605508923530579,8.894309043884277,3.484375,0,A1,0,None,450,4.201182061512836,[6800|0|0|0]
85,8500,0.7151086926460266,0.7586121559143066,0.0164899788796901,-0.7864315509796143,-0.2136697322130203,8.919424057006836,3.5,0,A1,0,None,450,4.206768898446818,[6800|0|0|0]
86,8600,0.7134072780609131,0.7527459263801575,0.0210769586265087,-0.8881304860115051,0.8530063033103943,7.923333168029785,3.505859375,0,A1,0,None,450,4.214407474474815,[6800|0|0|0]
87,8700,0.7098507285118103,0.7469334006309509,0.0230214353650808,-1.411335825920105,0.3723151087760925,6.518590450286865,3.494140625,0,A1,0,None,450,4.221493763353153,[6800|0|0|0]
88,8800,0.7058810591697693,0.7422113418579102,0.0235317014157772,-0.8924649953842163,-0.5259029269218445,5.387157917022705,3.478515625,0,A1,0,None,450,4.227683794466458,[6800|0|0|0]
89,8900,0.7012484073638916,0.7380766272544861,0.024161634966731,-1.0752357244491575,-0.6553897857666016,4.0086774826049805,3.478515625,0,A1,0,None,450,4.2339251199574806,[6800|0|0|0]
90,9000,0.6975211501121521,0.734588086605072,0.024423100054264,-1.6286205053329468,-1.4829537868499756,2.824247598648072,3.478515625,0,A1,0,None,450,4.239036942183972,[6800|0|0|0]
91,9100,0.6948376297950745,0.7324740886688232,0.0260922331362962,-1.7115769386291504,-0.9359184503555298,2.056447982788086,3.48828125,0,A1,0,None,450,4.24283908287208,[6800|0|0|0]
92,9200,0.6934943199157715,0.7333664894104004,0.0287207178771495,-1.4837439060211182,-0.8722375631332397,1.865816116333008,3.484375,0,A1,0,None,450,4.245922878025507,[6800|0|0|0]
93,9300,0.6923704743385315,0.7358659505844116,0.0308107621967792,-1.0996477603912354,-0.7289440035820007,1.86108660697937,3.484375,0,A1,0,None,450,4.249369415461817,[6800|0|0|0]
94,9400,0.6920563578605652,0.739581823348999,0.0316263772547245,-0.4414000213146209,-0.336254358291626,1.859700322151184,3.478515625,0,A1,0,None,450,4.253186692958551,[6800|0|0|0]
95,9500,0.6919935345649719,0.7432877421379089,0.0299580078572034,-0.032764159142971,-0.7847891449928284,1.675174117088318,3.46875,0,A1,0,None,450,4.257251325449079,[6800|0|0|0]
96,9600,0.6918924450874329,0.7469816207885742,0.0284113008528947,0.3165924847126007,-0.3088297545909881,1.264630675315857,3.46875,0,A1,0,None,450,4.261257228733668,[6800|0|0|0]
97,9700,0.6921716332435608,0.7504820227622986,0.0284390859305858,0.1204771548509597,-0.1697049736976623,0.4269593954086303,3.47265625,0,F1,0,None,450,4.2647688568481925,[6800|0|100|0]
98,9800,0.6926285624504089,0.7527050375938416,0.0304422155022621,0.0473047979176044,-0.3734710216522217,-0.3381069004535675,3.478515625,0,F1,0,None,450,4.267795919338835,[6800|0|200|0]
99,9900,0.6928979754447937,0.7550740838050842,0.0327883698046207,0.2264947444200515,-0.4726840257644653,-0.8549057841300964,3.478515625,0,F1,0,None,450,4.271140975888883,[6800|0|300|0]
100,10000,0.6932897567749023,0.7567809820175171,0.0349116772413253,-0.1508073210716247,0.2516691982746124,-0.8759422898292542,3.484375,0,F1,0,None,450,4.273893325537637,[6800|0|400|0]
101,10100,0.6931701898574829,0.7592730522155762,0.0359531827270984,0.0009308169828727,-0.0041507147252559,-0.9054678678512572,3.47265625,0,F1,0,None,450,4.276596923842987,[6800|0|500|0]
102,10200,0.6929320693016052,0.761662483215332,0.0368262790143489,-0.2549599707126617,0.1787947565317154,-0.9236695766448976,3.47265625,0,F1,0,None,450,4.279151993123561,[6800|0|600|0]
103,10300,0.6921411156654358,0.7644166350364685,0.0378061421215534,-0.0763350054621696,-0.2642887830734253,-1.2806533575057983,3.46875,0,F1,0,None,450,4.282180374146038,[6800|0|700|0]
104,10400,0.691631019115448,0.7671868205070496,0.0376775860786438,0.2028904408216476,-0.5399376153945923,-1.5723458528518677,3.462890625,0,F1,0,None,450,4.285000064321908,[6800|0|800|0]
105,10500,0.6917233467102051,0.7700514793395996,0.0378137603402137,-0.226323515176773,0.6839677691459656,-1.7359167337417605,3.46875,0,F1,0,None,450,4.287869443704488,[6800|0|900|0]
106,10600,0.6910796761512756,0.773652970790863,0.0389075614511966,-0.0904998704791069,0.0195249337702989,-1.5595804452896118,3.462890625,0,F1,0,None,450,4.291688010625775,[6800|0|1000|0]
107,10700,0.6893568634986877,0.7774477601051331,0.0408495664596557,-0.0053534763865172,-0.1142122969031333,-1.3903549909591677,3.46875,0,F1,0,None,450,4.296285824544203,[6800|0|1100|0]
108,10800,0.6871116757392883,0.7814003229141235,0.0438044071197509,-0.0536358468234539,0.9552618861198424,-1.1899011135101318,3.47265625,0,F1,0,None,450,4.301707512856945,[6800|0|1200|0]
109,10900,0.684262752532959,0.7856153845787048,0.0462810546159744,0.2599574327468872,-0.0770072937011718,-1.0926233530044556,3.47265625,0,F1,0,None,450,4.307365859885215,[6800|0|1300|0]
110,11000,0.680733859539032,0.78975909948349,0.0470349080860614,-0.1389224976301193,-0.0374983586370945,-1.1393665075302124,3.46875,0,F1,0,None,450,4.3128605622455884,[6800|0|1400|0]
111,11100,0.6772578358650208,0.7933914661407471,0.0460782535374164,0.1429378390312194,-0.0058177881874144,-1.2080854177474976,3.45703125,0,F1,0,None,450,4.317978375845211,[6800|0|1500|0]
112,11200,0.6719026565551758,0.7979425191879272,0.0452603809535503,-0.0019163994584232,-0.2671684920787811,-1.6832609176635742,3.45703125,0,F1,0,None,450,4.32505361045915,[6800|0|1600|0]
113,11300,0.6666631698608398,0.8029575943946838,0.0447972081601619,-0.3263609111309051,0.5713643431663513,-2.3642773628234863,3.462890625,0,F1,0,None,450,4.332321191156059,[6800|0|1700|0]
114,11400,0.6606466174125671,0.808094322681427,0.0461520999670028,0.1207701712846756,0.1798215359449386,-2.881654500961304,3.46875,0,F1,0,None,450,4.340347436396699,[6800|0|1800|0]
115,11500,0.6530057787895203,0.8137701749801636,0.0490944758057594,0.0287485606968402,0.3677071928977966,-3.3447024822235107,3.47265625,0,F1,0,None,450,4.3503101313010415,[6800|0|1900|0]
116,11600,0.6455865502357483,0.8194388151168823,0.0516541041433811,-0.4215823709964752,0.1187749952077865,-3.81015682220459,3.46875,0,F1,0,None,450,4.359991563558692,[6800|0|2000|0]
117,11700,0.6373336315155029,0.8257070183753967,0.0412071719765663,0.6238998770713806,-1.3808133602142334,-6.360623359680176,3.896484375,0,F1,0,None,450,4.374706842393667,[6800|0|2100|0]
118,11800,0.6308177709579468,0.8311445713043213,0.0,3.5954980850219727,-5.691860675811768,-11.34768772125244,3.896484375,0,F1,0,None,450,4.416778857355713,[6800|0|2200|0]
119,11900,0.6215268969535828,0.8365054130554199,0.0,-4.670015811920166,4.168972015380859,-16.11111068725586,3.900390625,0,F1,0,None,450,4.427505411510953,[6800|0|2300|0]
120,12000,0.6206756830215454,0.8367227911949158,0.0,-1.5922130346298218,1.282148003578186,-16.65306282043457,3.900390625,0,F1,0,None,450,4.4283839434760095,[6800|0|2400|0]
121,12100,0.6207072734832764,0.8368611335754395,0.0,-1.5618799924850464,1.1915682554244995,-16.58563995361328,3.90625,0,F1,0,None,450,4.428525846863994,[6800|0|2500|0]
122,12200,0.6206705570220947,0.8368081450462341,0.0,-1.4992854595184326,1.1074563264846802,-16.499935150146484,3.90625,0,F1,0,None,450,4.428590313000446,[6800|0|2600|0]
123,12300,0.6210995316505432,0.83941650390625,0.0,-1.5117518901824951,1.014109492301941,-16.538759231567383,3.90625,0,F1,0,None,450,4.431233711414321,[6800|0|2700|0]
124,12400,0.6201521754264832,0.8417133092880249,0.0,-1.8354606628417969,1.3514392375946045,-15.404922485351562,3.912109375,0,F1,0,None,450,4.433718223192723,[6800|0|2800|0]
125,12500,0.6250442266464233,0.8478733897209167,0.0,-3.1331825256347656,0.0136799439787864,-11.577863693237305,3.912109375,0,F1,0,None,450,4.441584528302379,[6800|0|2900|0]
126,12600,0.6412902474403381,0.8277286291122437,0.0,-10.335423469543455,4.619579792022705,-11.675372123718262,3.912109375,0,F1,0,None,450,4.467463952013449,[6800|0|3000|0]
127,12700,0.6898037791252136,0.7831631302833557,0.002427686471492,-13.07432746887207,6.341383934020996,-6.15807580947876,3.916015625,0,F1,0,None,450,4.533384662749992,[6800|0|3100|0]
128,12800,0.7414956092834473,0.7611982226371765,0.0,-11.831465721130373,4.80439043045044,-2.136636018753052,3.916015625,0,F1,0,None,450,4.589602063389089,[6800|0|3200|0]
129,12900,0.7334771752357483,0.7345678210258484,0.0,-0.0645510405302047,-0.4230155646800995,7.072762966156006,3.916015625,0,F1,0,None,450,4.617413456280455,[6800|0|3300|0]
130,13000,0.7271872162818909,0.742283821105957,0.0,2.7475028038024902,-5.360466480255127,14.501293182373049,3.916015625,0,F1,0,None,450,4.627368366670682,[6800|0|3400|0]
131,13100,0.7240393757820129,0.744920551776886,0.0,-0.5267663598060608,-5.636885643005371,12.871509552001951,3.921875,0,F1,0,None,450,4.631474611724705,[6800|0|3500|0]
132,13200,0.7232039570808411,0.7446860671043396,0.0,-1.267244577407837,-5.520482540130615,13.453556060791016,3.921875,0,F1,0,None,450,4.632342314132174,[6800|0|3600|0]
133,13300,0.7248005867004395,0.7437812089920044,0.0,0.4183849394321441,-6.096053600311279,15.819798469543455,3.921875,0,F1,0,None,450,4.634177523751165,[6800|0|3700|0]
134,13400,0.7471170425415039,0.7135457396507263,0.0,1.3980108499526978,-5.90382194519043,25.455774307250977,3.921875,0,F1,0,None,450,4.671756877226093,[6800|0|3800|0]
135,13500,0.7487425208091736,0.708157479763031,0.0,0.1992774009704589,-6.000100135803223,14.749985694885254,3.921875,0,F1,0,None,450,4.67738497852369,[6800|0|3900|0]
136,13600,0.7483475804328918,0.7099968194961548,0.0,-0.5932086706161499,-5.925302505493164,7.883236408233643,3.921875,0,F1,0,None,450,4.67926624101326,[6800|0|4000|0]
137,13700,0.7483331561088562,0.7109321355819702,0.0,-0.9368607997894288,-5.797647476196289,3.734382152557373,3.974609375,0,F1,0,None,450,4.680201668317496,[6800|0|4100|0]
138,13800,0.7479762434959412,0.7118072509765625,0.0,-1.0483100414276123,-5.647341251373291,0.988668978214264,4.0078125,0,F1,0,None,450,4.681146768083187,[6800|0|4200|0]
139,13900,0.748023271560669,0.7119109034538269,0.0,-1.0184366703033447,-5.533719539642334,-0.9465850591659546,4.0078125,0,F1,0,None,450,4.681260590202808,[6800|0|4300|0]
140,14000,0.7478440999984741,0.7112863659858704,0.0,-0.9329766035079956,-5.446818828582764,-2.3580222129821777,4.0078125,0,F1,0,None,450,4.681910320529622,[6800|0|4400|0]
141,14100,0.7476590871810913,0.711300253868103,0.0,-0.8159938454627991,-5.381758689880371,-3.3940517902374268,4.01171875,0,F1,0,None,450,4.682095853857811,[6800|0|4500|0]
142,14200,0.7471398115158081,0.7114728093147278,0.0,-0.6873403191566467,-5.322973251342773,-4.1608710289001465,4.01171875,0,F1,0,None,450,4.682643049068604,[6800|0|4600|0]
143,14300,0.7472918033599854,0.7112849950790405,0.0,-0.5528342723846436,-5.3084025382995605,-4.750477313995361,4.01171875,0,F1,0,None,450,4.682884659721977,[6800|0|4700|0]
144,14400,0.7472214102745056,0.7114853858947754,0.0,-0.4373211562633514,-5.287062168121338,-5.1802592277526855,4.01171875,0,F1,0,None,450,4.683097054791398,[6800|0|4800|0]
145,14500,0.7469422221183777,0.7114070057868958,0.0,-0.3269374072551727,-5.266950130462647,-5.500360488891602,4.015625,0,F1,0,None,450,4.683387036631921,[6800|0|4900|0]
146,14600,0.7471637725830078,0.7112260460853577,0.0,-0.2279997915029525,-5.274354457855225,-5.738352298736572,4.015625,0,F1,0,None,450,4.683673097852569,[6800|0|5000|0]
147,14700,0.7473540306091309,0.7114905714988708,0.0,-0.1458415538072586,-5.28973913192749,-5.898693561553955,4.015625,0,F1,0,None,450,4.68399893801415,[6800|0|5100|0]
148,14800,0.7471156716346741,0.7114942073822021,0.0,-0.0797803476452827,-5.289184093475342,-6.02449893951416,4.015625,0,F1,0,None,450,4.684237324717537,[6800|0|5200|0]
149,14900,0.7470166683197021,0.7110631465911865,0.0,-0.0151525670662522,-5.293433666229248,-6.138518810272217,4.015625,0,F1,0,None,450,4.684679608633055,[6800|0|5300|0]
150,15000,0.7470768690109253,0.7112897634506226,0.0,0.0215990059077739,-5.308629035949707,-6.215316295623779,4.0234375,0,F1,0,None,450,4.684914085335959,[6800|0|5400|0]
151,15100,0.7470322251319885,0.711052417755127,0.0,0.0666643604636192,-5.318772315979004,-6.268778800964356,4.0234375,0,F1,0,None,450,4.685155593213877,[6800|0|5500|0]
152,15200,0.7472672462463379,0.7109448313713074,0.0,0.0955823138356208,-5.338891983032227,-6.298151016235352,4.0234375,0,F1,0,None,450,4.68541406904287,[6800|0|5600|0]
153,15300,0.7471474409103394,0.7110689878463745,0.0,0.1223111525177955,-5.346695899963379,-6.324010848999023,4.0234375,0,F1,0,None,450,4.685586603528799,[6800|0|5700|0]
154,15400,0.7472705245018005,0.7112287878990173,0.0,0.1339397877454757,-5.358968734741211,-6.365989208221436,4.0234375,0,F1,0,None,450,4.685788310314287,[6800|0|5800|0]
155,15500,0.7471774220466614,0.7114856243133545,0.0,0.1294294595718383,-5.359842777252197,-6.396933078765869,4.0234375,0,F1,0,None,450,4.686061500743992,[6800|0|5900|0]
156,15600,0.7471752762794495,0.7112868428230286,0.0,0.1435679495334625,-5.356924533843994,-6.40721321105957,4.0234375,0,F1,0,None,450,4.686260293815333,[6800|0|6000|0]
157,15700,0.7474738955497742,0.7112108469009399,0.0,0.1426385343074798,-5.371112823486328,-6.423501491546631,4.02734375,0,F1,0,None,450,4.686568431526078,[6800|0|6100|0]
158,15800,0.7474206686019897,0.7110642790794373,0.0,0.1504002660512924,-5.369318008422852,-6.428369522094727,4.02734375,0,F1,0,None,450,4.686724364955049,[6800|0|6200|0]
159,15900,0.7475236654281616,0.7110086679458618,0.0,0.1535034626722335,-5.374908924102783,-6.423789978027344,4.02734375,0,F1,0,None,450,4.686841415988274,[6800|0|6300|0]
160,16000,0.7469882965087891,0.7110862135887146,0.0,0.1619663536548614,-5.3576531410217285,-6.403740882873535,4.02734375,0,F1,0,None,450,4.68738237181508,[6800|0|6400|0]
161,16100,0.7473428249359131,0.7113127112388611,0.0,0.1531229615211486,-5.37554407119751,-6.420466899871826,4.02734375,0,F1,0,None,450,4.68780307550078,[6800|0|6500|0]
162,16200,0.7473565936088562,0.7112103700637817,0.0,0.147645428776741,-5.377538204193115,-6.451380729675293,4.02734375,0,F1,0,None,450,4.687906338720133,[6800|0|6600|0]
163,16300,0.7470857501029968,0.7110164165496826,0.0,0.1543754190206527,-5.371016502380371,-6.454938888549805,4.02734375,0,F1,0,None,450,4.688239466578916,[6800|0|6700|0]
164,16400,0.7471141219139099,0.7110152840614319,0.0,0.1573329120874405,-5.37937068939209,-6.426048755645752,4.03125,0,F1,0,None,450,4.688267860983015,[6800|0|6800|0]
165,16500,0.7475333213806152,0.7111679315567017,0.0,0.1500516533851623,-5.389756202697754,-6.446949481964111,4.03125,0,F1,0,None,450,4.688713988151767,[6800|0|6900|0]
166,16600,0.747304379940033,0.7113521695137024,0.0,0.1414968371391296,-5.385946750640869,-6.435458660125732,4.03125,0,F1,0,None,450,4.689007855142114,[6800|0|7000|0]
167,16700,0.7474314570426941,0.7111085653305054,0.0,0.1432436555624008,-5.390858173370361,-6.448538780212402,4.03125,0,F1,0,None,450,4.689282612467934,[6800|0|7100|0]
168,16800,0.7471195459365845,0.7112993001937866,0.0,0.1392674595117569,-5.382589817047119,-6.440375804901123,4.03125,0,F1,0,None,450,4.689648219259699,[6800|0|7200|0]
169,16900,0.747196614742279,0.7111688256263733,0.0,0.1408469825983047,-5.385502338409424,-6.448846340179443,4.03125,0,F1,0,None,450,4.689799755438722,[6800|0|7300|0]
170,17000,0.7475749850273132,0.7112225294113159,0.0,0.1377467811107635,-5.393930435180664,-6.4494805335998535,4.03125,0,F1,0,None,450,4.6901819179291815,[6800|0|7400|0]
171,17100,0.7472256422042847,0.7110500335693359,0.0,0.1391355693340301,-5.38015604019165,-6.441912651062012,4.0390625,0,F1,0,None,450,4.6905715269941455,[6800|0|7500|0]
172,17200,0.7472285628318787,0.7110982537269592,0.0,0.1349436193704605,-5.376112937927246,-6.45368766784668,4.0390625,0,F1,0,None,450,4.690619835519964,[6800|0|7600|0]
173,17300,0.7475138306617737,0.7109059691429138,0.0,0.1370144784450531,-5.384726047515869,-6.458802700042725,4.0390625,0,F1,0,None,450,4.690963857461175,[6800|0|7700|0]
174,17400,0.7471333742141724,0.7112835049629211,0.0,0.1298235356807708,-5.382228374481201,-6.456034183502197,4.0390625,0,F1,0,None,450,4.691499842912386,[6800|0|7800|0]
175,17500,0.7473357915878296,0.7110574841499329,0.0,0.134076327085495,-5.3909220695495605,-6.4636311531066895,4.0390625,0,F1,0,None,450,4.691803253856589,[6800|0|7900|0]
176,17600,0.7471678256988525,0.7113386988639832,0.0,0.1197959631681442,-5.384619235992432,-6.482551097869873,4.0390625,0,F1,0,None,450,4.692130811874745,[6800|0|8000|0]
177,17700,0.7474643588066101,0.7113479375839233,0.0,0.1233500316739082,-5.39109992980957,-6.463660717010498,4.0390625,0,F1,0,None,450,4.692427488867352,[6800|0|8100|0]
178,17800,0.7473962306976318,0.71113121509552,0.0,0.1315334439277649,-5.390218257904053,-6.440805912017822,4.0390625,0,F1,0,None,450,4.692654667379128,[6800|0|8200|0]
179,17900,0.7474706172943115,0.7111222147941589,0.0,0.1326598823070526,-5.380283355712891,-6.433880805969238,4.04296875,0,F1,0,None,450,4.692729596486891,[6800|0|8300|0]
180,18000,0.7471356987953186,0.7110147476196289,0.0,0.1414366215467453,-5.370487213134766,-6.44029426574707,4.04296875,0,F1,0,None,450,4.6930813344498254,[6800|0|8400|0]
181,18100,0.747329831123352,0.7111000418663025,0.0,0.1389086693525314,-5.378147125244141,-6.462339878082275,4.04296875,0,F1,0,None,450,4.693293378005029,[6800|0|8500|0]
182,18200,0.7471943497657776,0.7111968994140625,0.0,0.1373844444751739,-5.372695446014404,-6.451918125152588,4.04296875,0,F1,0,None,450,4.693459921040933,[6800|0|8600|0]
183,18300,0.7472416162490845,0.7110879421234131,0.0,0.1453693658113479,-5.373409748077393,-6.4334330558776855,4.04296875,0,F1,0,None,450,4.693578688930659,[6800|0|8700|0]
184,18400,0.7471932768821716,0.7113311886787415,0.0,0.1346113830804824,-5.369307041168213,-6.440102577209473,4.04296875,0,F1,0,None,450,4.693826692118285,[6800|0|8800|0]
185,18500,0.7472050786018372,0.7113282680511475,0.0,0.1364153772592544,-5.368762969970703,-6.43030309677124,4.04296875,0,F1,0,None,450,4.693838849858725,[6800|0|8900|0]
186,18600,0.7472514510154724,0.711195170879364,0.0,0.1394005715847015,-5.371517658233643,-6.446753978729248,4.04296875,0,F1,0,None,450,4.69397979402456,[6800|0|9000|0]
187,18700,0.7472349405288696,0.7112001180648804,0.0,0.1450664848089218,-5.376558780670166,-6.43410587310791,4.046875,0,F1,0,None,450,4.693997029766853,[6800|0|9100|0]
188,18800,0.747204601764679,0.7113579511642456,0.0,0.1361932158470153,-5.377360820770264,-6.431775093078613,4.04296875,0,F1,0,None,450,4.694157752285088,[6800|0|9200|0]
189,18900,0.7474996447563171,0.7112779021263123,0.0,0.1269901990890503,-5.377200603485107,-6.457437515258789,4.046875,0,F1,0,None,450,4.694463461649336,[6800|0|9300|0]
190,19000,0.7473263144493103,0.7113373875617981,0.0,0.1251035332679748,-5.366547107696533,-6.46082067489624,4.046875,0,F1,0,None,450,4.694646715332415,[6800|0|9400|0]
191,19100,0.7473613619804382,0.7113484740257263,0.0,0.1251255422830581,-5.366925239562988,-6.453324794769287,4.046875,0,F1,0,None,450,4.694683474536985,[6800|0|9500|0]
192,19200,0.7470789551734924,0.7112732529640198,0.0,0.127505213022232,-5.366736888885498,-6.423356056213379,4.046875,0,F1,0,None,450,4.694975727531381,[6800|0|9600|0]
193,19300,0.7471645474433899,0.7110273838043213,0.0,0.1304593980312347,-5.364891529083252,-6.430291652679443,4.046875,0,F1,0,None,450,4.695236069000143,[6800|0|9700|0]
194,19400,0.747504472732544,0.7111445665359497,0.0,0.1284290105104446,-5.376468181610107,-6.4428558349609375,4.046875,0,F1,0,None,450,4.695595625664382,[6800|0|9800|0]
195,19500,0.7471728324890137,0.7110748887062073,0.0,0.128457635641098,-5.36657190322876,-6.450906276702881,4.046875,0,F1,0,None,450,4.69593450654476,[6800|0|9900|0]
196,19600,0.7473687529563904,0.7114628553390503,0.0,0.1213420554995536,-5.370283603668213,-6.441309928894043,4.046875,0,F1,0,None,450,4.696369136200602,[6800|0|10000|0]
197,19700,0.7471413612365723,0.7112454771995544,0.0,0.1286305785179138,-5.3684492111206055,-6.44564151763916,4.046875,0,F1,0,None,450,4.696683715681453,[6800|0|10100|0]
198,19800,0.7473626732826233,0.7112619876861572,0.0,0.1284993290901184,-5.376471519470215,-6.451725006103516,4.046875,0,F1,0,None,450,4.6969056427368,[6800|0|10200|0]
199,19900,0.7473227977752686,0.7109541893005371,0.0,0.1396074146032333,-5.3781280517578125,-6.452058792114258,4.046875,0,F1,0,None,450,4.697216013325415,[6800|0|10300|0]
200,20000,0.7473229169845581,0.7113086581230164,0.0,0.1321226209402084,-5.372012138366699,-6.449158191680908,4.0546875,0,F1,0,None,450,4.697570482167939,[6800|0|10400|0]
201,20100,0.7471274733543396,0.7111089825630188,0.0,0.1415213197469711,-5.373198986053467,-6.4517011642456055,4.0546875,0,F1,0,None,450,4.69784988965147,[6800|0|10500|0]
202,20200,0.7472659349441528,0.7110603451728821,0.0,0.1430542320013046,-5.375923156738281,-6.474602699279785,4.0546875,0,F1,0,None,450,4.6979966452563815,[6800|0|10600|0]
203,20300,0.7472889423370361,0.7113149166107178,0.0,0.138689637184143,-5.37285041809082,-6.462770938873291,4.0546875,0,F1,0,None,450,4.698252254248964,[6800|0|10700|0]
204,20400,0.7469730973243713,0.711460292339325,0.0,0.1323580890893936,-5.360604763031006,-6.471100807189941,4.0546875,0,F1,0,None,450,4.69859994976877,[6800|0|10800|0]
205,20500,0.7474344372749329,0.7109259963035583,0.0,0.1441266536712646,-5.369785308837891,-6.468745231628418,4.0546875,0,F1,0,None,450,4.699305858264129,[6800|0|10900|0]
206,20600,0.7472919821739197,0.711287260055542,0.0,0.1360846757888794,-5.363224983215332,-6.455849647521973,4.0546875,0,F1,0,None,450,4.699694194399844,[6800|0|11000|0]
207,20700,0.7471942901611328,0.711172342300415,0.0,0.136383444070816,-5.35743522644043,-6.454357147216797,4.0546875,0,F1,0,None,450,4.699845024833794,[6800|0|11100|0]
208,20800,0.7473598718643188,0.7112157940864563,0.0,0.1342096775770187,-5.360476970672607,-6.440911769866943,4.0546875,0,F1,0,None,450,4.700016212912059,[6800|0|11200|0]
209,20900,0.747328519821167,0.7113939523696899,0.0,0.1231273561716079,-5.367391586303711,-6.46042013168335,4.05859375,0,F1,0,None,450,4.700197108806138,[6800|0|11300|0]
210,21000,0.7471962571144104,0.7109948992729187,0.0,0.1290048658847808,-5.365827560424805,-6.447709083557129,4.05859375,0,F1,0,None,450,4.700617509564512,[6800|0|11400|0]
211,21100,0.7471200823783875,0.7114424109458923,0.0,0.1193585246801376,-5.36890983581543,-6.461548328399658,4.05859375,0,F1,0,None,450,4.701071458116504,[6800|0|11500|0]
212,21200,0.7473495602607727,0.7113744616508484,0.0,0.1230411455035209,-5.376291275024414,-6.459170818328857,4.05859375,0,F1,0,None,450,4.701310784682519,[6800|0|11600|0]
213,21300,0.7468518018722534,0.7109891772270203,0.0,0.1267403811216354,-5.360097885131836,-6.522688388824463,4.05859375,0,F1,0,None,450,4.701940234839868,[6800|0|11700|0]
214,21400,0.7468166947364807,0.7108109593391418,0.0,0.1333173960447311,-5.363470554351807,-6.502104759216309,4.05859375,0,F1,0,None,450,4.702121877694234,[6800|0|11800|0]
215,21500,0.7468302845954895,0.7111508846282959,0.0,0.1273725479841232,-5.371865272521973,-6.509660243988037,4.05859375,0,F1,0,None,450,4.702462074529131,[6800|0|11900|0]
216,21600,0.7469615936279297,0.7107052803039551,0.0,0.1391071081161499,-5.387529850006104,-6.53822660446167,4.05859375,0,F1,0,None,450,4.702926622993633,[6800|0|12000|0]
217,21700,0.7471634149551392,0.7108193635940552,0.0,0.1383687853813171,-5.381386756896973,-6.522284984588623,4.05859375,0,F1,0,None,450,4.703158456652097,[6800|0|12100|0]
218,21800,0.7473008036613464,0.7105886936187744,0.0,0.1435339599847793,-5.382064342498779,-6.516897678375244,4.05859375,0,F1,0,None,450,4.703426941836212,[6800|0|12200|0]
219,21900,0.7471498250961304,0.7105512619018555,0.0,0.1451150476932525,-5.382040977478027,-6.534394264221191,4.05859375,0,F1,0,None,450,4.703582491380043,[6800|0|12300|0]
220,22000,0.7473475933074951,0.7106612324714661,0.0,0.1408291906118393,-5.383288383483887,-6.505735397338867,4.05859375,0,F1,0,None,450,4.703808778347425,[6800|0|12400|0]
221,22100,0.7472489476203918,0.71067875623703,0.0,0.1385711878538131,-5.384108543395996,-6.499932289123535,4.05859375,0,F1,0,None,450,4.703908968436474,[6800|0|12500|0]
222,22200,0.7472587823867798,0.7106158137321472,0.0,0.1359044313430786,-5.383131980895996,-6.525299549102783,4.05859375,0,F1,0,None,450,4.703972674649286,[6800|0|12600|0]
223,22300,0.7472832202911377,0.7108694911003113,0.0,0.1355744451284408,-5.378760814666748,-6.524930477142334,4.05859375,0,F1,0,None,450,4.704227526406761,[6800|0|12700|0]
224,22401,0.7470289468765259,0.7107210755348206,0.0,0.1407481878995895,-5.3683061599731445,-6.543691158294678,4.06640625,0,F1,0,None,450,4.704521944730678,[6800|0|12800|0]
225,22501,0.7471261620521545,0.7107577323913574,0.0,0.1365489065647125,-5.369775772094727,-6.529968738555908,4.06640625,0,F1,0,None,450,4.704625841388486,[6800|0|12900|0]
226,22601,0.7470821142196655,0.7109492421150208,0.0,0.1449701339006424,-5.372562408447266,-6.444210052490234,4.06640625,0,F1,0,None,450,4.704822351403001,[6800|0|13000|0]
227,22701,0.7471771836280823,0.7108249068260193,0.0,0.1306943297386169,-5.374560832977295,-6.5351643562316895,4.06640625,0,F1,0,None,450,4.704978868036327,[6800|0|13100|0]
228,22801,0.7471598386764526,0.7116317749023438,0.0,0.1306645572185516,-5.371912002563477,-6.448964595794678,4.06640625,0,F1,0,None,450,4.7057859225202,[6800|0|13200|0]
229,22901,0.7466782927513123,0.7107191681861877,0.0,0.1449634283781051,-5.372157573699951,-6.515974998474121,4.06640625,0,F1,0,None,450,4.706817783700975,[6800|0|13300|0]
230,23001,0.7470336556434631,0.7105929255485535,0.0,0.1479731053113937,-5.393482685089111,-6.51976203918457,4.06640625,0,F1,0,None,450,4.707194904356303,[6800|0|13400|0]
231,23101,0.7468141913414001,0.7108401656150818,0.0,0.1399511843919754,-5.381409168243408,-6.517260074615479,4.06640625,0,F1,0,None,450,4.707525498110595,[6800|0|13500|0]
232,23201,0.7470155358314514,0.7107251286506653,0.0,0.1441031247377395,-5.381474018096924,-6.524497032165527,4.06640625,0,F1,0,None,450,4.707757388401156,[6800|0|13600|0]
233,23301,0.7467479109764099,0.7106772065162659,0.0,0.1425784975290298,-5.379120826721191,-6.514729499816895,4.06640625,0,F1,0,None,450,4.708029269981998,[6800|0|13700|0]
234,23402,0.7470167875289917,0.7109980583190918,0.0,0.1330489516258239,-5.385916709899902,-6.503149032592773,4.06640625,0,F1,0,None,450,4.708447887325051,[6800|0|13800|0]
235,23502,0.747044026851654,0.7108509540557861,0.0,0.1347056031227111,-5.380054473876953,-6.503262042999268,4.06640625,0,F1,0,None,450,4.708597492288144,[6800|0|13900|0]
236,23602,0.7471218705177307,0.7105631828308105,0.0,0.1445454657077789,-5.381383895874023,-6.5150146484375,4.06640625,0,F1,0,None,450,4.708895606216487,[6800|0|14000|0]
237,23702,0.7470582723617554,0.7105746865272522,0.0,0.1461862474679947,-5.376053810119629,-6.512629508972168,4.06640625,0,F1,0,None,450,4.708960236398873,[6800|0|14100|0]
238,23802,0.747046172618866,0.7105745673179626,0.0,0.1446388959884643,-5.379488468170166,-6.512178897857666,4.06640625,0,F1,0,None,450,4.708972336728986,[6800|0|14200|0]
239,23902,0.7470186352729797,0.710607647895813,0.0,0.1418811082839965,-5.381300926208496,-6.524033069610596,4.06640625,0,F1,0,None,450,4.709015378918166,[6800|0|14300|0]
240,24002,0.7468794584274292,0.7106881141662598,0.0,0.1343964040279388,-5.381909370422363,-6.536468029022217,4.0703125,0,F1,0,None,450,4.709176142766768,[6800|0|14400|0]
241,24102,0.7470735311508179,0.7109599113464355,0.0,0.1302094459533691,-5.3868489265441895,-6.532333850860596,4.0703125,0,F1,0,None,450,4.7095101157134485,[6800|0|14500|0]
242,24202,0.7470381259918213,0.7109076380729675,0.0,0.1379922181367874,-5.38165283203125,-6.506872653961182,4.0703125,0,F1,0,None,450,4.709573250651499,[6800|0|14600|0]
243,24302,0.7470762729644775,0.7107066512107849,0.0,0.135551705956459,-5.3904876708984375,-6.518078327178955,4.06640625,0,F1,0,None,450,4.7097778256018055,[6800|0|14700|0]
244,24402,0.7469710111618042,0.7108954191207886,0.0,0.1326682418584823,-5.387186527252197,-6.501700878143311,4.0703125,0,F1,0,None,450,4.709993958364128,[6800|0|14800|0]
245,24500,0.7470822930335999,0.7108606696128845,0.0,0.1317694038152694,-5.3855156898498535,-6.5281195640563965,4.0703125,0,F1,0,None,450,4.710110539594564,[6800|0|14900|0]
246,24600,0.7472215294837952,0.7107775807380676,0.0,0.1291879266500473,-5.389246940612793,-6.556466579437256,4.0703125,0,F1,0,None,450,4.71027268320431,[6800|0|15000|0]
247,24700,0.747048556804657,0.7106809020042419,0.0,0.1297419220209121,-5.385362148284912,-6.553173065185547,4.0703125,0,F1,0,None,450,4.710470840528934,[6800|0|15100|0]
248,24800,0.7469431757926941,0.7107192873954773,0.0,0.1285540014505386,-5.373779296875,-6.566555976867676,4.0703125,0,F1,0,None,450,4.710582994868764,[6800|0|15200|0]
249,24900,0.7468708157539368,0.7107390761375427,0.0,0.1305140554904937,-5.366664409637451,-6.562665939331055,4.0703125,0,F1,0,None,450,4.710658011996952,[6800|0|15300|0]
250,25000,0.7471240162849426,0.7108663320541382,0.0,0.1282587945461273,-5.371440887451172,-6.562777042388916,4.0703125,0,F1,0,None,450,4.710941392619454,[6800|0|15400|0]
251,25100,0.7469876408576965,0.7107087969779968,0.0,0.1352974027395248,-5.365869045257568,-6.5501885414123535,4.0703125,0,F1,0,None,450,4.711149756621555,[6800|0|15500|0]
252,25200,0.7470221519470215,0.7108756303787231,0.0,0.1263289004564285,-5.366556644439697,-6.556746959686279,4.0703125,0,F1,0,None,450,4.711320122107744,[6800|0|15600|0]
253,25300,0.7471224665641785,0.7108970880508423,0.0,0.1295538991689682,-5.390754699707031,-6.545243263244629,4.0703125,0,F1,0,None,450,4.711422705995894,[6800|0|15700|0]
254,25400,0.7469532489776611,0.7107154130935669,0.0,0.1323903501033783,-5.378031253814697,-6.548180103302002,4.0703125,0,F1,0,None,450,4.711670980806715,[6800|0|15800|0]
255,25500,0.7469593286514282,0.7111069560050964,0.0,0.1198002323508262,-5.380296230316162,-6.56777811050415,4.0703125,0,F1,0,None,450,4.712062570916398,[6800|0|15900|0]
256,25600,0.7469026446342468,0.7110900282859802,0.0,0.1174715608358383,-5.382004261016846,-6.576669692993164,4.07421875,0,F1,0,None,450,4.712121728548858,[6800|0|16000|0]
257,25700,0.7467265129089355,0.7108516097068787,0.0,0.1282607465982437,-5.383120059967041,-6.578992366790772,4.07421875,0,F1,0,None,450,4.712418150213927,[6800|0|16100|0]
258,25800,0.7470677495002747,0.7109397649765015,0.0,0.1287333667278289,-5.39290714263916,-6.5564961433410645,4.0703125,0,F1,0,None,450,4.712770589943287,[6800|0|16200|0]
259,25900,0.7470412850379944,0.710704505443573,0.0,0.1343436986207962,-5.3929123878479,-6.5465168952941895,4.07421875,0,F1,0,None,450,4.713007333297148,[6800|0|16300|0]
260,26000,0.7472660541534424,0.7106662392616272,0.0,0.1321922540664672,-5.405864238739014,-6.5603556632995605,4.07421875,0,F1,0,None,450,4.713235336489976,[6800|0|16400|0]
261,26100,0.7468569278717041,0.7106075286865234,0.0,0.1249430403113365,-5.395381927490234,-6.550851345062256,4.07421875,0,F1,0,None,450,4.713648653857187,[6800|0|16500|0]
262,26200,0.7469518780708313,0.7112206816673279,0.0,0.1146315932273864,-5.399272918701172,-6.567292213439941,4.07421875,0,F1,0,None,450,4.714269115071272,[6800|0|16600|0]
263,26300,0.7470983266830444,0.710598886013031,0.0,0.1377970576286316,-5.412497520446777,-6.5506696701049805,4.07421875,0,F1,0,None,450,4.714907924144252,[6800|0|16700|0]
264,26400,0.7469514012336731,0.7107417583465576,0.0,0.1406411975622177,-5.407503604888916,-6.510507106781006,4.07421875,0,F1,0,None,450,4.71511286216259,[6800|0|16800|0]
265,26500,0.7470730543136597,0.7105581760406494,0.0,0.146731898188591,-5.410196781158447,-6.509014129638672,4.07421875,0,F1,0,None,450,4.715333093710995,[6800|0|16900|0]
266,26600,0.7471276521682739,0.710573136806488,0.0,0.1475347429513931,-5.409416198730469,-6.5229902267456055,4.07421875,0,F1,0,None,450,4.715389704224532,[6800|0|17000|0]
267,26700,0.7471522688865662,0.7107880115509033,0.0,0.1379546374082565,-5.401443004608154,-6.51640510559082,4.07421875,0,F1,0,None,450,4.715605984456192,[6800|0|17100|0]
268,26800,0.7468301653862,0.7108705043792725,0.0,0.1405763924121856,-5.389114856719971,-6.508392333984375,4.07421875,0,F1,0,None,450,4.715938483676763,[6800|0|17200|0]
269,26900,0.746784508228302,0.7108488082885742,0.0,0.1408406198024749,-5.383669853210449,-6.501969814300537,4.07421875,0,F1,0,None,450,4.715989033616614,[6800|0|17300|0]
270,27000,0.7467200756072998,0.7108367085456848,0.0,0.1392981112003326,-5.380982398986816,-6.511336803436279,4.07421875,0,F1,0,None,450,4.716054592494176,[6800|0|17400|0]
271,27100,0.7466855645179749,0.710696280002594,0.0,0.1324865520000457,-5.386940956115723,-6.516380786895752,4.07421875,0,F1,0,None,450,4.716199199516831,[6800|0|17500|0]
272,27200,0.7468036413192749,0.7110415697097778,0.0,0.1266988068819046,-5.382572650909424,-6.510744571685791,4.07421875,0,F1,0,None,450,4.716564120210808,[6800|0|17600|0]
273,27300,0.7467821836471558,0.7107316851615906,0.0,0.1333928406238556,-5.383679389953613,-6.518828868865967,4.07421875,0,F1,0,None,450,4.71687474677905,[6800|0|17700|0]
274,27400,0.7469786405563354,0.7109121680259705,0.0,0.1238550394773483,-5.3915557861328125,-6.539106845855713,4.07421875,0,F1,0,None,450,4.717141522680321,[6800|0|17800|0]
275,27500,0.7470383048057556,0.7104890942573547,0.0,0.1385065913200378,-5.389520168304443,-6.519079208374023,4.07421875,0,F1,0,None,450,4.71756878283099,[6800|0|17900|0]
276,27600,0.7468664050102234,0.710708737373352,0.0,0.1295954138040542,-5.373580455780029,-6.504345893859863,4.07421875,0,F1,0,None,450,4.7178476961474685,[6800|0|18000|0]
277,27700,0.7466948628425598,0.7107710838317871,0.0,0.1297742873430252,-5.362175941467285,-6.495106220245361,4.07421875,0,F1,0,None,450,4.7180302168207255,[6800|0|18100|0]
278,27800,0.7471441626548767,0.7107691764831543,0.0,0.1307492703199386,-5.377077102661133,-6.507607936859131,4.07421875,0,F1,0,None,450,4.718479520681522,[6800|0|18200|0]
279,27900,0.7466521263122559,0.7108744382858276,0.0,0.133428156375885,-5.363528251647949,-6.513672351837158,4.08203125,0,F1,0,None,450,4.718982690443692,[6800|0|18300|0]
280,28000,0.7468504905700684,0.7108203172683716,0.0,0.132912278175354,-5.369921684265137,-6.507706642150879,4.07421875,0,F1,0,None,450,4.719188305285831,[6800|0|18400|0]
281,28100,0.7470664978027344,0.7108115553855896,0.0,0.1302003562450409,-5.373930931091309,-6.527171611785889,4.08203125,0,F1,0,None,450,4.719404490149209,[6800|0|18500|0]
282,28200,0.74673992395401,0.7107951641082764,0.0,0.1306613683700561,-5.361502647399902,-6.528717517852783,4.08203125,0,F1,0,None,450,4.719731475091741,[6800|0|18600|0]
283,28300,0.7467243671417236,0.7108527421951294,0.0,0.1269446164369583,-5.360740184783936,-6.524639129638672,4.08203125,0,F1,0,None,450,4.7197911177819405,[6800|0|18700|0]
284,28400,0.746760904788971,0.7107885479927063,0.0,0.1298916786909103,-5.362075805664063,-6.50890588760376,4.08203125,0,F1,0,None,450,4.7198649818144,[6800|0|18800|0]
285,28500,0.7470268607139587,0.7109498381614685,0.0,0.1251467019319534,-5.36834716796875,-6.51318883895874,4.08203125,0,F1,0,None,450,4.720176023728899,[6800|0|18900|0]
286,28600,0.747109591960907,0.7108217477798462,0.0,0.1341082602739334,-5.360006332397461,-6.510991096496582,4.08203125,0,F1,0,None,450,4.720328508498912,[6800|0|19000|0]
287,28700,0.7470365762710571,0.7107349634170532,0.0,0.1350474655628204,-5.356995582580566,-6.522772312164307,4.08203125,0,F1,0,None,450,4.720441922856864,[6800|0|19100|0]
288,28800,0.7468346357345581,0.7106098532676697,0.0,0.1424125134944915,-5.3611040115356445,-6.544703960418701,4.08203125,0,F1,0,None,450,4.7206794781762325,[6800|0|19200|0]
289,28900,0.7471573352813721,0.7110302448272705,0.0,0.1341239511966705,-5.370380878448486,-6.544291019439697,4.08203125,0,F1,0,None,450,4.721209444270334,[6800|0|19300|0]
290,29000,0.7470160722732544,0.7109487652778625,0.0,0.133914902806282,-5.374137878417969,-6.5250349044799805,4.08203125,0,F1,0,None,450,4.7213725214129205,[6800|0|19400|0]
291,29100,0.7470032572746277,0.7106523513793945,0.0,0.1429419070482254,-5.373558521270752,-6.527258396148682,4.08203125,0,F1,0,None,450,4.721669212200433,[6800|0|19500|0]
292,29200,0.7471106648445129,0.7105812430381775,0.0,0.1477895379066467,-5.376002788543701,-6.527842998504639,4.08203125,0,F1,0,None,450,4.7217980251743885,[6800|0|19600|0]
293,29300,0.7470986843109131,0.7106164693832397,0.0,0.1501188576221466,-5.371388912200928,-6.526332855224609,4.08203125,0,F1,0,None,450,4.721835233084459,[6800|0|19700|0]
294,29400,0.7471449971199036,0.7110134363174438,0.0,0.139726459980011,-5.3680100440979,-6.506134510040283,4.08203125,0,F1,0,None,450,4.722234892468345,[6800|0|19800|0]
295,29500,0.7471644282341003,0.7107623815536499,0.0,0.1459706723690033,-5.367300033569336,-6.493672847747803,4.08203125,0,F1,0,None,450,4.722486698073173,[6800|0|19900|0]
296,29600,0.7470973134040833,0.7106809020042419,0.0,0.1370821893215179,-5.371595859527588,-6.495494365692139,4.08203125,0,F1,0,None,450,4.722592259985716,[6800|0|20000|0]
297,29700,0.7470302581787109,0.7110698819160461,0.0,0.1277497112751007,-5.3711934089660645,-6.488432884216309,4.08203125,0,F1,0,None,450,4.722986977321334,[6800|0|20100|0]
298,29800,0.7471457123756409,0.7107528448104858,0.0,0.1349583268165588,-5.370404243469238,-6.501095771789551,4.08203125,0,F1,0,None,450,4.723324382415976,[6800|0|20200|0]
299,29900,0.7471624612808228,0.7105516195297241,0.0,0.1374804824590683,-5.370951175689697,-6.501270294189453,4.08203125,0,F1,0,None,450,4.72352630353781,[6800|0|20300|0]
300,30000,0.7469095587730408,0.710620641708374,0.0,0.1356237530708313,-5.360448360443115,-6.511799812316895,4.08203125,0,F1,0,None,450,4.723788455668428,[6800|0|20400|0]
301,30100,0.7470433712005615,0.710675060749054,0.0,0.1345428675413131,-5.367375373840332,-6.502603530883789,4.0859375,0,F1,0,None,450,4.723932910497864,[6800|0|20500|0]
302,30200,0.7468717098236084,0.7109167575836182,0.0,0.1184894517064094,-5.367863655090332,-6.528128623962402,4.08203125,0,F1,0,None,450,4.724229364521578,[6800|0|20600|0]
303,30300,0.7470195293426514,0.7108334898948669,0.0,0.1209896430373191,-5.371786117553711,-6.535879611968994,4.08203125,0,F1,0,None,450,4.724399023350408,[6800|0|20700|0]
304,30400,0.7468299865722656,0.7108712792396545,0.0,0.1233429089188575,-5.363258361816406,-6.544402122497559,4.0859375,0,F1,0,None,450,4.724592296463864,[6800|0|20800|0]
305,30500,0.7472021579742432,0.7108445763587952,0.0,0.1195058822631836,-5.371667861938477,-6.552130699157715,4.0859375,0,F1,0,None,450,4.724965424587028,[6800|0|20900|0]
306,30600,0.747088611125946,0.7106327414512634,0.0,0.1186555325984954,-5.366483211517334,-6.564384937286377,4.0859375,0,F1,0,None,450,4.725205772074652,[6800|0|21000|0]
307,30700,0.7469238042831421,0.7108809351921082,0.0,0.1124384999275207,-5.362727165222168,-6.574197769165039,4.0859375,0,F1,0,None,450,4.72550370063728,[6800|0|21100|0]
308,30800,0.7471731305122375,0.7110210061073303,0.0,0.1165368929505348,-5.366762638092041,-6.57063627243042,4.0859375,0,F1,0,None,450,4.725789678660572,[6800|0|21200|0]
309,30900,0.7469569444656372,0.7112128138542175,0.0,0.1168311685323715,-5.36311674118042,-6.557866096496582,4.0859375,0,F1,0,None,450,4.726078688381016,[6800|0|21300|0]
310,31000,0.7470353841781616,0.7108191251754761,0.0,0.1326190829277038,-5.362863540649414,-6.5235114097595215,4.0859375,0,F1,0,None,450,4.726480115291262,[6800|0|21400|0]
311,31100,0.7471556067466736,0.7108384370803833,0.0,0.1332166492938995,-5.362726211547852,-6.515178203582764,4.0859375,0,F1,0,None,450,4.726601879061123,[6800|0|21500|0]
312,31200,0.7469190359115601,0.7107004523277283,0.0,0.1365526169538498,-5.362022876739502,-6.512279987335205,4.0859375,0,F1,0,None,450,4.726875750476191,[6800|0|21600|0]
313,31300,0.7468764185905457,0.7107776403427124,0.0,0.1353106647729873,-5.369509220123291,-6.515626907348633,4.0859375,0,F1,0,None,450,4.726963922045916,[6800|0|21700|0]
314,31400,0.7469530701637268,0.7109065651893616,0.0,0.1361627578735351,-5.366316795349121,-6.518390655517578,4.0859375,0,F1,0,None,450,4.727113912311449,[6800|0|21800|0]
315,31500,0.7470348477363586,0.7108425498008728,0.0,0.137694850564003,-5.376006126403809,-6.499502658843994,4.0859375,0,F1,0,None,450,4.727217765772387,[6800|0|21900|0]
316,31600,0.7469435930252075,0.7108071446418762,0.0,0.1365831047296524,-5.3767266273498535,-6.505190372467041,4.0859375,0,F1,0,None,450,4.727315648087393,[6800|0|22000|0]
317,31700,0.7468586564064026,0.7107483148574829,0.0,0.1417422443628311,-5.363913536071777,-6.512660503387451,4.0859375,0,F1,0,None,450,4.727418968814964,[6800|0|22100|0]
318,31800,0.7470856308937073,0.7106048464775085,0.0,0.1436896026134491,-5.375024318695068,-6.507420063018799,4.0859375,0,F1,0,None,450,4.727687484352576,[6800|0|22200|0]
319,31900,0.7472398281097412,0.7107726335525513,0.0,0.1399573385715484,-5.382176876068115,-6.504137992858887,4.0859375,0,F1,0,None,450,4.727915364329722,[6800|0|22300|0]
320,32000,0.7472023963928223,0.7106415033340454,0.0,0.1499181985855102,-5.384960651397705,-6.482747554779053,4.0859375,0,F1,0,None,450,4.728051732462498,[6800|0|22400|0]
321,32100,0.7470553517341614,0.7108955979347229,0.0,0.1431507468223571,-5.379263877868652,-6.500020980834961,4.0859375,0,F1,0,None,450,4.728345307321323,[6800|0|22500|0]
322,32200,0.7470293641090393,0.7106075286865234,0.0,0.1550509631633758,-5.373940467834473,-6.482044696807861,4.0859375,0,F1,0,None,450,4.728634546406541,[6800|0|22600|0]
323,32300,0.7472219467163086,0.7108043432235718,0.0,0.1522522866725921,-5.374341011047363,-6.468529224395752,4.0859375,0,F1,0,None,450,4.728909908028079,[6800|0|22700|0]
324,32400,0.7472237348556519,0.7104494571685791,0.0,0.1589045822620391,-5.368142604827881,-6.479461193084717,4.0859375,0,F1,0,None,450,4.729264798587929,[6800|0|22800|0]
325,32500,0.7471760511398315,0.7109541296958923,0.0,0.1426404565572738,-5.363523960113525,-6.501060485839844,4.0859375,0,F1,0,None,450,4.729771718795239,[6800|0|22900|0]
326,32600,0.7473036646842957,0.7104662656784058,0.0,0.1533088982105255,-5.365184783935547,-6.476792812347412,4.08984375,0,F1,0,None,450,4.73027599700842,[6800|0|23000|0]
327,32700,0.7468470335006714,0.7106441259384155,0.0,0.1534797549247741,-5.356086254119873,-6.4607768058776855,4.08984375,0,F1,0,None,450,4.730766044261191,[6800|0|23100|0]
328,32800,0.7472562789916992,0.7110247611999512,0.0,0.1402544379234314,-5.368577003479004,-6.45571756362915,4.0859375,0,F1,0,None,450,4.731324940561279,[6800|0|23200|0]
329,32900,0.7469719052314758,0.710986852645874,0.0,0.1470052152872085,-5.3687849044799805,-6.461981296539307,4.0859375,0,F1,0,None,450,4.731611829902272,[6800|0|23300|0]
330,33000,0.7470887899398804,0.7107155323028564,0.0,0.147055521607399,-5.366664409637451,-6.468647480010986,4.08984375,0,F1,0,None,450,4.7319072563120494,[6800|0|23400|0]
331,33100,0.7472565770149231,0.7107712030410767,0.0,0.1497602462768554,-5.373773097991943,-6.481023788452148,4.0859375,0,F1,0,None,450,4.732084037910767,[6800|0|23500|0]
332,33200,0.7470695376396179,0.7108675837516785,0.0,0.1473188698291778,-5.373842239379883,-6.484706878662109,4.08984375,0,F1,0,None,450,4.73229444933938,[6800|0|23600|0]
333,33300,0.74703449010849,0.7111185789108276,0.0,0.1418336331844329,-5.374218940734863,-6.496238231658936,4.0859375,0,F1,0,None,450,4.732547879604649,[6800|0|23700|0]
334,33400,0.7470064759254456,0.7104260325431824,0.0,0.1545165926218032,-5.372452259063721,-6.5016937255859375,4.08984375,0,F1,0,None,450,4.73324099234136,[6800|0|23800|0]
335,33500,0.7472938895225525,0.7109562754631042,0.0,0.1311920434236526,-5.37938117980957,-6.527495861053467,4.08984375,0,F1,0,None,450,4.733844120959425,[6800|0|23900|0]
336,33600,0.7471617460250854,0.7110282182693481,0.0,0.1331120878458023,-5.376129627227783,-6.534717559814453,4.08984375,0,F1,0,None,450,4.733994579163897,[6800|0|24000|0]
337,33700,0.7471861243247986,0.7108005285263062,0.0,0.1334770619869232,-5.384470939636231,-6.529710292816162,4.08984375,0,F1,0,None,450,4.734223570256701,[6800|0|24100|0]
338,33800,0.747062623500824,0.7106528282165527,0.0,0.1430634707212448,-5.376248836517334,-6.530569553375244,4.08984375,0,F1,0,None,450,4.73441610034532,[6800|0|24200|0]
339,33900,0.7468496561050415,0.7109289169311523,0.0,0.1412178128957748,-5.3633904457092285,-6.522849559783936,4.08984375,0,F1,0,None,450,4.734764783711708,[6800|0|24300|0]
340,34000,0.7470557689666748,0.7106844186782837,0.0,0.1422436088323593,-5.365715503692627,-6.520807266235352,4.08984375,0,F1,0,None,450,4.7350845678692055,[6800|0|24400|0]
341,34100,0.747103214263916,0.7108410596847534,0.0,0.1355290114879608,-5.372444152832031,-6.51574182510376,4.08984375,0,F1,0,None,450,4.735248236623518,[6800|0|24500|0]
342,34200,0.7469478249549866,0.710634708404541,0.0,0.142173632979393,-5.370011329650879,-6.517972469329834,4.08984375,0,F1,0,None,450,4.735506551718266,[6800|0|24600|0]
343,34300,0.7469906806945801,0.7106374502182007,0.0,0.1368210762739181,-5.380475044250488,-6.514939785003662,4.08984375,0,F1,0,None,450,4.735549495075823,[6800|0|24700|0]
344,34400,0.7469028830528259,0.7109972238540649,0.0,0.1294060200452804,-5.370955467224121,-6.527589797973633,4.08984375,0,F1,0,None,450,4.735919826677176,[6800|0|24800|0]
