time.ms,stateEstimate.x,stateEstimate.y,stateEstimate.z,stabilizer.roll,stabilizer.pitch,stabilizer.yaw,pm.vbat,drone_id,node_name,wind_speed,global_wind_direction,relative_wind_direction,travel_dist,waiting_time,curr_node_role
0,-0.3198773562908172,-0.398180216550827,0.0185705590993165,-0.1685217320919037,0.1437051892280578,-8.317122459411621,4.13671875,0,K1,6.1,90,270.0,0.0,[6200|0|0|0],start
100,-0.3198733925819397,-0.3982006013393402,0.018390430137515,-0.1684369593858719,0.1509721726179123,-8.298523902893066,4.13671875,0,K1,6.1,90,270.0,0.0001813220711068,[6300|0|0|0],start
200,-0.3197767734527588,-0.3980708420276642,0.0183005966246128,-0.1781239062547683,0.1467488408088684,-8.311561584472656,4.13671875,0,K1,6.1,90,270.0,0.0003663701598045,[6400|0|0|0],start
300,-0.3200739622116089,-0.3979052305221557,0.0181755926460027,-0.1805296689271927,0.1529807299375534,-8.305340766906738,4.13671875,0,K1,6.1,90,270.0,0.000728826121008,[6500|0|0|0],start
400,-0.3198978304862976,-0.3978606164455414,0.0182252824306488,-0.184576079249382,0.1520131975412368,-8.299881935119629,4.13671875,0,K1,6.1,90,270.0,0.0009171924534336,[6600|0|0|0],start
500,-0.3197919130325317,-0.3979837894439697,0.0185345858335495,-0.1807844489812851,0.1551742255687713,-8.299747467041016,4.13671875,0,K1,6.1,90,270.0,0.0012665614411816,[6700|0|0|0],start
600,-0.3199812173843384,-0.3981227576732635,0.018503138795495,-0.1735093742609024,0.161201000213623,-8.288341522216797,4.13671875,0,K1,6.1,90,270.0,0.0015034943907019,[6800|0|0|0],start
700,-0.3197376430034637,-0.3978111147880554,0.0180224515497684,-0.1823841780424118,0.1649437695741653,-8.299276351928711,4.13671875,0,K1,6.1,90,270.0,0.002125997398826,[6900|0|0|0],start
800,-0.3200439512729645,-0.3977519869804382,0.0182019770145416,-0.1835189908742904,0.1718844026327133,-8.304400444030762,4.13671875,0,K1,6.1,90,270.0,0.0024859282895539,[7000|0|0|0],start
900,-0.3198549449443817,-0.3981072008609772,0.018058281391859,-0.1815836131572723,0.1634858846664428,-8.301950454711914,4.13671875,0,K1,6.1,90,270.0,0.0029131855014884,[7100|0|0|0],start
1000,-0.3198384344577789,-0.3978519737720489,0.0185743048787117,-0.0026339122559875,0.2505113184452057,-8.337983131408691,4.13671875,0,K1,6.1,90,270.0,0.0034891140578861,[7200|0|0|0],start
1100,-0.319995641708374,-0.3976735770702362,0.0184563230723142,-0.0366743430495262,0.234187826514244,-8.331156730651855,4.13671875,0,K1,6.1,90,270.0,0.0037545555947603,[7300|0|0|0],start
1200,-0.3197487592697143,-0.3977434635162353,0.0186297763139009,-0.0468644015491008,0.2176849395036697,-8.328765869140625,4.13671875,0,K1,6.1,90,270.0,0.0040642668810737,[7400|0|0|0],start
1300,-0.3198090493679046,-0.3977458477020263,0.018665624782443,-0.0540475584566593,0.2181062996387481,-8.30351448059082,4.13671875,0,K1,6.1,90,270.0,0.0041344501624055,[7500|0|0|0],start
1400,-0.3197888433933258,-0.3978830575942993,0.0184553619474172,-0.0631660372018814,0.2129379510879516,-8.318358421325684,4.13671875,0,K1,6.1,90,270.0,0.0043863336587671,[7600|0|0|0],start
1500,-0.3197852373123169,-0.3976105153560638,0.0185720585286617,-0.0624024048447608,0.2200465649366378,-8.320954322814941,4.13671875,0,K1,6.1,90,270.0,0.0046828304842422,[7700|0|0|0],start
1600,-0.3200816214084625,-0.3978273570537567,0.018332652747631,-0.0584630146622657,0.2275401055812835,-8.315407752990723,4.13671875,0,K1,6.1,90,270.0,0.0051212127173417,[7800|0|0|0],start
1700,-0.3198258876800537,-0.3979852199554443,0.018367825075984,-0.059157371520996,0.2144454568624496,-8.305768013000488,4.13671875,0,K1,6.1,90,270.0,0.0054237974629203,[7900|0|0|0],start
1800,-0.319717675447464,-0.3980562090873718,0.0184002928435802,-0.062097743153572,0.2079224735498428,-8.302011489868164,4.13671875,0,K1,6.1,90,270.0,0.0055572272199708,[8000|0|0|0],start
1900,-0.3197225332260132,-0.3976900577545166,0.0182792842388153,-0.0754790306091308,0.2045683711767196,-8.301225662231445,4.13671875,0,K1,6.1,90,270.0,0.0059428870169308,[8100|0|0|0],start
2000,-0.3200120329856872,-0.3975992202758789,0.0181530285626649,-0.0720562636852264,0.2114074081182479,-8.311315536499023,4.13671875,0,K1,6.1,90,270.0,0.0062715236766886,[8200|0|0|0],start
2100,-0.3197096586227417,-0.3977926075458526,0.0186322834342718,-0.0648669004440307,0.2059917449951172,-8.335408210754395,4.13671875,0,K1,6.1,90,270.0,0.0068702841659609,[8300|0|0|0],start
2200,-0.3197296559810638,-0.3980551362037658,0.0184924956411123,-0.0569890961050987,0.2143485099077224,-8.352677345275879,4.13671875,0,K1,6.1,90,270.0,0.0071683811597095,[8400|0|0|0],start
2300,-0.3200277984142303,-0.3979038894176483,0.0181137323379516,-0.05581995844841,0.2238059788942337,-8.3460111618042,4.13671875,0,K1,6.1,90,270.0,0.0076735802695529,[8500|0|0|0],start
2400,-0.3198781311511993,-0.3977988660335541,0.018414432182908,-0.0568808056414127,0.2133502811193466,-8.34006404876709,4.1328125,0,K1,6.1,90,270.0,0.0080255044056768,[8600|0|0|0],start
2500,-0.3198993504047394,-0.3978424370288849,0.0185917913913726,-0.0587254501879215,0.2124154865741729,-8.336824417114258,4.13671875,0,K1,6.1,90,270.0,0.0082093657044379,[8700|0|0|0],start
2600,-0.3197106122970581,-0.3981343805789947,0.0185585264116525,-0.0506123453378677,0.2109255343675613,-8.33543872833252,4.13671875,0,K1,6.1,90,270.0,0.0085585929493911,[8800|0|0|0],start
2700,-0.3199192881584167,-0.3979838788509369,0.0182381607592105,-0.0546051263809204,0.216051772236824,-8.330402374267578,4.13671875,0,K1,6.1,90,270.0,0.0089694828817656,[8900|0|0|0],start
2800,-0.3141590058803558,-0.3905054628849029,0.0165592301636934,-0.3068662285804748,0.0680235549807548,-8.237446784973145,4.13671875,0,K1,6.1,90,270.0,0.0185573066822189,[9000|0|0|0],start
2900,-0.3197625875473022,-0.3979997038841247,0.0184773653745651,-0.0603683218359947,0.2114321887493133,-8.332192420959473,4.13671875,0,K1,6.1,90,270.0,0.0281094278257001,[9100|0|0|0],start
3000,-0.3200166523456573,-0.3976958394050598,0.0184147153049707,-0.0659213960170745,0.216878741979599,-8.330315589904785,4.13671875,0,K1,6.1,90,270.0,0.0285104360233978,[9200|0|0|0],start
3100,-0.3200502395629883,-0.3976912796497345,0.0185256358236074,-0.066518060863018,0.2104709148406982,-8.330029487609863,4.13671875,0,K1,6.1,90,270.0,0.0286264198756847,[9300|0|0|0],start
3200,-0.3199997246265411,-0.3977986574172973,0.0186604354530572,-0.0633220896124839,0.2063259929418563,-8.318203926086426,4.13671875,0,K1,6.1,90,270.0,0.0288060101980042,[9400|0|0|0],start
3300,-0.3199353218078613,-0.397916167974472,0.0182009935379028,-0.0633494108915329,0.1935050934553146,-8.312479972839355,4.13671875,0,K1,6.1,90,270.0,0.0292845949109884,[9500|0|0|0],start
3400,-0.3139691948890686,-0.3906332850456238,0.0168465767055749,-0.3073351681232452,0.0312884114682674,-8.213491439819336,4.13671875,0,K1,6.1,90,270.0,0.0387961404805656,[9600|0|0|0],start
3500,-0.3142893016338348,-0.3908275663852691,0.0168952904641628,-0.3048039674758911,0.0335479266941547,-8.216346740722656,4.13671875,0,K1,6.1,90,270.0,0.0391737468857747,[9700|0|0|0],start
3600,-0.3142028152942657,-0.3901678025722503,0.0166938286274671,-0.3235461711883545,0.0306933410465717,-8.223734855651855,4.13671875,0,K1,6.1,90,270.0,0.0398689842895053,[9800|0|0|0],start
3700,-0.3139364421367645,-0.3906140029430389,0.0166812893003225,-0.3473996222019195,0.0025432165712118,-8.233054161071777,4.13671875,0,K1,6.1,90,270.0,0.0403887983568931,[9900|0|0|0],start
3800,-0.3141816258430481,-0.3907332718372345,0.0169070474803447,-0.3761733472347259,-0.0098553858697414,-8.236787796020508,4.13671875,0,K1,6.1,90,270.0,0.040742785467953,[10000|0|0|0],start
3900,-0.3139963150024414,-0.3909369707107544,0.0167308580130338,-0.3884474039077759,-0.0196386110037565,-8.236129760742188,4.13671875,0,K1,6.1,90,270.0,0.0410697045207947,[10100|0|0|0],start
4000,-0.3199804127216339,-0.397565096616745,0.0182769317179918,-0.1488164216279983,0.1408717185258865,-8.332134246826172,4.13671875,0,K1,6.1,90,270.0,0.0501323654125897,[10200|0|0|0],start
4100,-0.3200235664844513,-0.3978055417537689,0.0186208877712488,-0.1462969332933426,0.1363576203584671,-8.312335968017578,4.13671875,0,K1,6.1,90,270.0,0.0505542443972949,[10300|0|0|0],start
4200,-0.3197554051876068,-0.397693783044815,0.0185344386845827,-0.1511429846286773,0.1331006288528442,-8.321890830993652,4.13671875,0,K1,6.1,90,270.0,0.0508573515313874,[10400|0|0|0],start
4300,-0.3143735527992248,-0.3903529047966003,0.016844492405653,-0.4217334687709808,-0.0269041620194911,-8.24123477935791,4.13671875,0,K1,6.1,90,270.0,0.0601152534001217,[10500|0|0|0],start
4400,-0.3139153718948364,-0.3906618952751159,0.0169395264238119,-0.4211439192295074,-0.0236522033810615,-8.22368335723877,4.13671875,0,K1,6.1,90,270.0,0.060675999618626,[10600|0|0|0],start
4500,-0.3140860199928283,-0.3904946446418762,0.0169017817825078,-0.422180026769638,-0.0149977067485451,-8.224700927734375,4.13671875,0,K1,6.1,90,270.0,0.0609179049836233,[10700|0|0|0],start
4601,-0.3139897584915161,-0.3902241885662079,0.0168958120048046,-0.4343439936637878,-0.0157095603644847,-8.217615127563477,4.13671875,0,K1,6.1,90,270.0,0.0612050432843542,[10800|0|0|0],start
4701,-0.3138402104377746,-0.39040407538414,0.0162815153598785,-0.4264900684356689,-0.0195443592965602,-8.19701862335205,4.13671875,0,K1,6.1,90,270.0,0.0618623744456505,[10900|0|0|0],start
4801,-0.3138718008995056,-0.3902510404586792,0.0169455297291278,-0.4305388927459717,-0.0157111342996358,-8.223597526550293,4.13671875,0,K1,6.1,90,270.0,0.0625445274550646,[11000|0|0|0],start
4901,-0.3140240311622619,-0.3907493948936462,0.0166151486337184,-0.4134679734706878,-0.0039820787496864,-8.207182884216309,4.13671875,0,K1,6.1,90,270.0,0.06316152248256,[11100|0|0|0],start
5001,-0.3139368891716003,-0.3906688094139099,0.0167191252112388,-0.4137917757034302,-0.0053940215148031,-8.205694198608398,4.13671875,0,K1,6.1,90,270.0,0.0633193162554208,[11200|0|0|0],start
5101,-0.3140599727630615,-0.3902522325515747,0.0169320236891508,-0.4224210083484649,-0.0060825152322649,-8.221724510192871,4.13671875,0,K1,6.1,90,270.0,0.0638030637253029,[11300|0|0|0],start
5201,-0.3136764466762543,-0.3906177282333374,0.0168527718633413,-0.4107053577899933,-0.0180589221417903,-8.22248649597168,4.13671875,0,K1,6.1,90,270.0,0.0643387503916882,[11400|0|0|0],start
5301,-0.3142314851284027,-0.3906297087669372,0.0166394207626581,-0.4131980538368225,-0.00532230688259,-8.226645469665527,4.13671875,0,K1,6.1,90,270.0,0.0649335023641199,[11500|0|0|0],start
5401,-0.3141807317733764,-0.3903024792671203,0.0166776105761528,-0.4256692826747894,-0.0142375081777572,-8.22920036315918,4.13671875,0,K1,6.1,90,270.0,0.0652668392964445,[11600|0|0|0],start
5501,-0.3145547211170196,-0.3904673755168915,0.0166874732822179,-0.2870311141014099,0.0619369521737098,-8.232315063476562,4.13671875,0,K1,6.1,90,270.0,0.0656756865482613,[11700|0|0|0],start
5601,-0.3200611770153045,-0.3975988626480102,0.0182568859308958,-0.1365181803703308,0.1559245586395263,-8.314456939697266,4.13671875,0,K1,6.1,90,270.0,0.0748212986832088,[11800|0|0|0],start
5702,-0.3198054730892181,-0.3976771533489227,0.0184790194034576,-0.1447317898273468,0.1436080485582351,-8.32099437713623,4.13671875,0,K1,6.1,90,270.0,0.0751689439209121,[11900|0|0|0],start
5802,-0.3200585544109344,-0.3977271914482116,0.0183785948902368,-0.1523770838975906,0.148960679769516,-8.303882598876953,4.13671875,0,K1,6.1,90,270.0,0.0754457815080237,[12000|0|0|0],start
5902,-0.3143175542354584,-0.3908265829086303,0.0168740227818489,-0.3285914957523346,0.0329486168920993,-8.193337440490723,4.13671875,0,K1,6.1,90,270.0,0.0845474966464301,[12100|0|0|0],start
6002,-0.3198488652706146,-0.3975215554237366,0.0182723551988601,-0.175186425447464,0.1424529105424881,-8.309260368347168,4.13671875,0,K1,6.1,90,270.0,0.0933437113035502,[12200|0|0|0],start
6100,-0.3145639896392822,-0.3906140327453613,0.0166005976498127,-0.3359299004077911,0.0463886447250843,-8.195709228515625,4.13671875,0,K1,6.1,90,270.0,0.1022002655597898,[12300|0|0|0],start
6200,-0.3145344257354736,-0.3906771242618561,0.0168975051492452,-0.3417202830314636,0.0413990318775177,-8.191571235656738,4.13671875,0,K1,6.1,90,270.0,0.1025052387177583,[12400|0|0|0],start
6302,-0.3145720362663269,-0.390594869852066,0.0166495293378829,-0.3426288068294525,0.0459105297923088,-8.17794418334961,4.13671875,0,K1,6.1,90,270.0,0.1027691939089969,[12500|0|0|0],start
6402,-0.3144122064113617,-0.3908112645149231,0.0166728645563125,-0.3384924232959747,0.0433888360857963,-8.208027839660645,4.13671875,0,K1,6.1,90,270.0,0.1030392249536388,[12600|0|0|0],start
6502,-0.3143736124038696,-0.3905085623264313,0.0170979555696249,-0.3470194935798645,0.0435122363269329,-8.211328506469727,4.13671875,0,K1,6.1,90,270.0,0.1035625035428539,[12700|0|0|0],start
6602,-0.3146311342716217,-0.3906708359718323,0.0168304219841957,-0.2492111176252365,0.107330210506916,-8.2405424118042,4.13671875,0,K1,6.1,90,270.0,0.1039677497244459,[12800|0|0|0],start
6702,-0.3142121434211731,-0.3905261754989624,0.0171458274126052,-0.2822301983833313,0.0876116752624511,-8.229610443115234,4.13671875,0,K1,6.1,90,270.0,0.1045117723061838,[12900|0|0|0],start
6800,-0.3142442107200622,-0.3905479609966278,0.0170460510998964,-0.3046536743640899,0.0827349424362182,-8.242867469787598,4.13671875,0,K1,6.1,90,270.0,0.1046188154383518,[13000|0|0|0],start
6900,-0.3143103718757629,-0.3903844058513641,0.0169638600200414,-0.3279795348644256,0.0811359882354736,-8.237258911132812,4.13671875,0,K1,6.1,90,270.0,0.1048134508864943,[13100|0|0|0],start
7000,-0.3143083751201629,-0.3904583156108856,0.0168470107018947,-0.3282210826873779,0.0707818195223808,-8.223532676696777,4.13671875,0,K1,6.1,90,270.0,0.1049517274309145,[13200|0|0|0],start
7100,-0.3141927123069763,-0.390262246131897,0.0166594348847866,-0.3382183313369751,0.0646730661392211,-8.221963882446289,4.13671875,0,K1,6.1,90,270.0,0.1052466949106625,[13300|0|0|0],start
7200,-0.3143025040626526,-0.3905811011791229,0.0166658889502286,-0.3749187290668487,0.0375215038657188,-8.235288619995117,4.13671875,0,K1,6.1,90,270.0,0.1055839847351706,[13400|0|0|0],start
7300,-0.3144224286079407,-0.3903685808181762,0.0168428234755992,-0.39637091755867,0.0307352468371391,-8.262537002563477,4.13671875,0,K1,6.1,90,270.0,0.1058854024298197,[13500|0|0|0],start
7400,-0.3145118057727813,-0.3903287649154663,0.0167918261140584,-0.4117404520511627,0.0216026175767183,-8.24315357208252,4.13671875,0,K1,6.1,90,270.0,0.1059957397063299,[13600|0|0|0],start
7500,-0.3146407008171081,-0.3905291259288788,0.0166335180401802,-0.4150340855121612,0.0155170448124408,-8.245046615600586,4.13671875,0,K1,6.1,90,270.0,0.1062817815116708,[13700|0|0|0],start
7600,-0.3142990171909332,-0.3903219103813171,0.0166817903518676,-0.4324229061603546,-0.0070755737833678,-8.241965293884277,4.13671875,0,K1,6.1,90,270.0,0.1066842938712611,[13800|0|0|0],start
7700,-0.3141667246818542,-0.3903575539588928,0.0169769804924726,-0.4336678087711334,-0.0111344475299119,-8.24241828918457,4.13671875,0,K1,6.1,90,270.0,0.1070097304882716,[13900|0|0|0],start
7800,-0.3141624927520752,-0.3904431760311126,0.0169114917516708,-0.4295386672019958,-0.0119280042126774,-8.240579605102539,4.13671875,0,K1,6.1,90,270.0,0.1071176092334101,[14000|0|0|0],start
7900,-0.3144319355487823,-0.390565812587738,0.0164316371083259,-0.428855150938034,0.0029617932159453,-8.24740219116211,4.13671875,0,K1,6.1,90,270.0,0.1076814351147405,[14100|0|0|0],start
8000,-0.3144003748893738,-0.3903757929801941,0.0168190747499465,-0.4349893927574157,0.0062343226745724,-8.243066787719727,4.13671875,0,K1,6.1,90,270.0,0.1081141145025301,[14200|0|0|0],start
8100,-0.3143824338912964,-0.3901045322418213,0.0167045388370752,-0.4453281164169311,0.0044976007193326,-8.240880012512207,4.13671875,0,K1,6.1,90,270.0,0.108409110676966,[14300|0|0|0],start
8200,-0.3141630589962005,-0.3903961777687073,0.016642278060317,-0.4363302588462829,-0.0063041877001523,-8.231388092041016,4.13671875,0,K1,6.1,90,270.0,0.1087793252934703,[14400|0|0|0],start
8300,-0.3140785992145538,-0.3905434906482696,0.0168134868144989,-0.4309887588024139,-0.005278630182147,-8.222450256347656,4.13671875,0,K1,6.1,90,270.0,0.1090204621357597,[14500|0|0|0],start
8400,-0.3145831823348999,-0.3904242217540741,0.0166050009429454,-0.4292551875114441,0.0030487433541566,-8.228693008422852,4.13671875,0,K1,6.1,90,270.0,0.1095792962373482,[14600|0|0|0],start
8500,-0.314159482717514,-0.3905170559883117,0.0168900117278099,-0.4262391626834869,-0.009229501709342,-8.234580039978027,4.13671875,0,K1,6.1,90,270.0,0.1100983055901623,[14700|0|0|0],start
8600,-0.3144944608211517,-0.3903400301933288,0.0166951864957809,-0.4245279729366302,0.0074269175529479,-8.228431701660156,4.13671875,0,K1,6.1,90,270.0,0.1105243400172233,[14800|0|0|0],start
8700,-0.3141908943653106,-0.3906854391098022,0.0166786424815654,-0.4205034375190735,-0.0026860975194722,-8.225646018981934,4.13671875,0,K1,6.1,90,270.0,0.1109844852302785,[14900|0|0|0],start
8800,-0.314702033996582,-0.3904750049114227,0.0170431826263666,-0.4164890050888061,0.0197342094033956,-8.205167770385742,4.13671875,0,K1,6.1,90,270.0,0.1116466300721942,[15000|0|0|0],start
8900,-0.3142772912979126,-0.3904109895229339,0.0167823247611522,-0.4171265065670013,0.0069439406506717,-8.2263765335083,4.13671875,0,K1,6.1,90,270.0,0.112149174752676,[15100|0|0|0],start
9000,-0.3141998946666717,-0.3903636336326599,0.0169554930180311,-0.4200232028961181,-0.0002919277758337,-8.229853630065918,4.13671875,0,K1,6.1,90,270.0,0.1123446742771295,[15200|0|0|0],start
9100,-0.3144217133522033,-0.3904303312301636,0.0166621934622526,-0.4133409261703491,0.0083519276231527,-8.240153312683105,4.13671875,0,K1,6.1,90,270.0,0.1127184077760075,[15300|0|0|0],start
9200,-0.3143568038940429,-0.3901436328887939,0.016834432259202,-0.4151756167411804,0.0018341437680646,-8.230216026306152,4.13671875,0,K1,6.1,90,270.0,0.1130591061468245,[15400|0|0|0],start
9300,-0.3142552673816681,-0.390326589345932,0.0169815495610237,-0.4096835553646087,-0.006627700291574,-8.214912414550781,4.13671875,0,K1,6.1,90,270.0,0.1133148916605838,[15500|0|0|0],start
9400,-0.3145597577095032,-0.390485405921936,0.0164740849286317,-0.4008312225341797,0.0011965739540755,-8.214393615722656,4.13671875,0,K1,6.1,90,270.0,0.1139276374624359,[15600|0|0|0],start
9500,-0.3141172528266907,-0.3904898464679718,0.0166440829634666,-0.40921351313591,-0.0129039548337459,-8.233832359313965,4.13671875,0,K1,6.1,90,270.0,0.114401694021941,[15700|0|0|0],start
9600,-0.314459890127182,-0.3904562294483185,0.0170170497149229,-0.4088531136512756,0.0019783221650868,-8.225985527038574,4.13671875,0,K1,6.1,90,270.0,0.1149092712292604,[15800|0|0|0],start
9700,-0.3146893084049225,-0.390344887971878,0.0168880801647901,-0.271026462316513,0.0794674828648567,-8.218215942382812,4.13671875,0,K1,6.1,90,270.0,0.1151950382941906,[15900|0|0|0],start
9800,-0.3146852850914001,-0.3906718492507934,0.0170889031141996,-0.292471706867218,0.061082873493433,-8.232460021972656,4.13671875,0,K1,6.1,90,270.0,0.1155787696090077,[16000|0|0|0],start
9900,-0.3143610656261444,-0.3906901180744171,0.0171505119651556,-0.3212138712406158,0.0342939756810665,-8.23154354095459,4.1328125,0,K1,6.1,90,270.0,0.1159092959499903,[16100|0|0|0],start
10000,-0.3144118189811706,-0.3906164169311523,0.0165607910603284,-0.3340528607368469,0.0254665035754442,-8.212968826293945,4.13671875,0,K1,6.1,90,270.0,0.1165057676652922,[16200|0|0|0],start
10100,-0.314580351114273,-0.390483945608139,0.0168951153755188,-0.3437631130218506,0.0290217418223619,-8.21584415435791,4.13671875,0,K1,6.1,90,270.0,0.1169029130782539,[16300|0|0|0],start
10200,-0.3146174550056457,-0.3906949162483215,0.0170212723314762,-0.3442094922065735,0.0413650870323181,-8.221742630004883,4.13671875,0,K1,6.1,90,270.0,0.1171515109207836,[16400|0|0|0],start
10300,-0.3141714334487915,-0.3907025158405304,0.0169082209467887,-0.3504933714866638,0.0333231724798679,-8.252982139587402,4.13671875,0,K1,6.1,90,270.0,0.117611699576185,[16500|0|0|0],start
10400,-0.3145289421081543,-0.3903736472129822,0.0169131495058536,-0.3558682203292846,0.0535039529204368,-8.257287979125977,4.13671875,0,K1,6.1,90,270.0,0.1180974889404153,[16600|0|0|0],start
10500,-0.3144124448299408,-0.3904637396335602,0.0168628804385662,-0.3459629714488983,0.0592287108302116,-8.239295959472656,4.13671875,0,K1,6.1,90,270.0,0.1182531014052204,[16700|0|0|0],start
10600,-0.3147354423999786,-0.3905518352985382,0.0169182103127241,-0.3454789519309997,0.0642299279570579,-8.224968910217285,4.13671875,0,K1,6.1,90,270.0,0.1185924385110791,[16800|0|0|0],start
10700,-0.3143385946750641,-0.3907511234283447,0.0165204964578151,-0.3424596190452575,0.062085635960102,-8.201972007751465,4.13671875,0,K1,6.1,90,270.0,0.1191885762349635,[16900|0|0|0],start
10800,-0.3144231736660003,-0.3904172480106354,0.0168261192739009,-0.3489303588867187,0.0658250823616981,-8.199368476867676,4.13671875,0,K1,6.1,90,270.0,0.1196490452414891,[17000|0|0|0],start
10900,-0.3141205906867981,-0.390543133020401,0.0168337095528841,-0.3510987460613251,0.0586464218795299,-8.19663143157959,4.13671875,0,K1,6.1,90,270.0,0.1199768578515601,[17100|0|0|0],start
11000,-0.3144879639148712,-0.3903128206729889,0.0163662526756525,-0.3651879429817199,0.065419353544712,-8.207310676574707,4.13671875,0,K1,6.1,90,270.0,0.1206144492553184,[17200|0|0|0],start
11100,-0.3143967390060425,-0.3906876146793365,0.0170376952737569,-0.2404855787754058,0.1209576800465583,-8.207547187805176,4.13671875,0,K1,6.1,90,270.0,0.1213888055646064,[17300|0|0|0],start
11200,-0.3145267963409424,-0.3903404176235199,0.0169228967279195,-0.2748135924339294,0.1102601736783981,-8.208816528320312,4.13671875,0,K1,6.1,90,270.0,0.1217769284988107,[17400|0|0|0],start
11300,-0.3145298063755035,-0.3904632329940796,0.0170567743480205,-0.2870906293392181,0.0974614471197128,-8.223176002502441,4.13671875,0,K1,6.1,90,270.0,0.1219586312580569,[17500|0|0|0],start
11400,-0.3145110607147217,-0.3903247416019439,0.0170457400381565,-0.3149415254592895,0.0822513401508331,-8.236289978027344,4.1328125,0,K1,6.1,90,270.0,0.1220988204926222,[17600|0|0|0],start
11500,-0.3146993517875671,-0.3901553452014923,0.0168647672981023,-0.3185935020446777,0.0892526507377624,-8.24030876159668,4.13671875,0,K1,6.1,90,270.0,0.1224101078216961,[17700|0|0|0],start
11600,-0.3145839869976043,-0.3906760513782501,0.0167817063629627,-0.3170057535171509,0.0673126056790351,-8.238383293151855,4.13671875,0,K1,6.1,90,270.0,0.1229498698768863,[17800|0|0|0],start
11700,-0.3148345947265625,-0.3903465867042541,0.0168220847845077,-0.3283122479915619,0.0703587755560875,-8.239494323730469,4.13671875,0,K1,6.1,90,270.0,0.1233657804708261,[17900|0|0|0],start
11800,-0.3147186040878296,-0.3905867338180542,0.0172188654541969,-0.3196648955345154,0.0736252665519714,-8.218618392944336,4.13671875,0,K1,6.1,90,270.0,0.1238438592973591,[18000|0|0|0],start
11900,-0.3145801723003387,-0.390453964471817,0.0170573554933071,-0.3225043714046478,0.0755168721079826,-8.21329116821289,4.13671875,0,K1,6.1,90,270.0,0.1240946112196943,[18100|0|0|0],start
12000,-0.3144745230674743,-0.390363335609436,0.0171650648117065,-0.3184119164943695,0.072223424911499,-8.214515686035156,4.13671875,0,K1,6.1,90,270.0,0.1242706130616488,[18200|0|0|0],start
12100,-0.3143395483493805,-0.3903886675834656,0.0171245317906141,-0.3186483085155487,0.069935955107212,-8.208647727966309,4.13671875,0,K1,6.1,90,270.0,0.1244138010822079,[18300|0|0|0],start
12200,-0.3143782913684845,-0.3904391229152679,0.0172205660492181,-0.3509160578250885,0.0493558160960674,-8.229168891906738,4.13671875,0,K1,6.1,90,270.0,0.1245289937072417,[18400|0|0|0],start
12300,-0.3144296705722809,-0.3904506862163543,0.0171039029955863,-0.3722408413887024,0.0303508974611759,-8.231317520141602,4.13671875,0,K1,6.1,90,270.0,0.1246569929283232,[18500|0|0|0],start
12400,-0.3143587112426758,-0.3902907371520996,0.0168259236961603,-0.3905248343944549,0.0145807676017284,-8.235779762268066,4.13671875,0,K1,6.1,90,270.0,0.1249854612228713,[18600|0|0|0],start
12500,-0.314267486333847,-0.3905262351036072,0.016760790720582,-0.3975217938423157,0.013450413942337,-8.260995864868164,4.13671875,0,K1,6.1,90,270.0,0.1252462745155977,[18700|0|0|0],start
12600,-0.3139303028583526,-0.3905502557754516,0.0169020183384418,-0.4209053218364715,-0.000445426616352,-8.263042449951172,4.13671875,0,K1,6.1,90,270.0,0.1256126280727916,[18800|0|0|0],start
12700,-0.3140283226966858,-0.3904679715633392,0.0168677885085344,-0.4272794425487518,0.0104140676558017,-8.272882461547852,4.13671875,0,K1,6.1,90,270.0,0.1257451054728466,[18900|0|0|0],start
12800,-0.3144632577896118,-0.3903939723968506,0.0167327988892793,-0.4299659430980682,0.0167798977345228,-8.261136054992676,4.13671875,0,K1,6.1,90,270.0,0.1262064801676513,[19000|0|0|0],start
12900,-0.3144607841968536,-0.3904347121715545,0.0169605165719985,-0.42782062292099,0.0103958947584033,-8.26465129852295,4.13671875,0,K1,6.1,90,270.0,0.126437826641424,[19100|0|0|0],start
13000,-0.3142096102237701,-0.3908131122589111,0.0166306272149086,-0.4177154898643493,-0.001801970298402,-8.254790306091309,4.13671875,0,K1,6.1,90,270.0,0.1269991660920127,[19200|0|0|0],start
13100,-0.3143343925476074,-0.3901996910572052,0.0166079066693782,-0.434063047170639,0.0069961952976882,-8.250361442565918,4.13671875,0,K1,6.1,90,270.0,0.1276255624699027,[19300|0|0|0],start
13200,-0.3144556581974029,-0.3901243209838867,0.0168278645724058,-0.426272451877594,0.0098428875207901,-8.2319974899292,4.13671875,0,K1,6.1,90,270.0,0.1278877980221771,[19400|0|0|0],start
13300,-0.3143592774868011,-0.3905331790447235,0.0168164875358343,-0.4214990139007568,-0.0017542545683681,-8.222245216369629,4.13671875,0,K1,6.1,90,270.0,0.1283080165275389,[19500|0|0|0],start
13400,-0.3144218027591705,-0.3902992010116577,0.017152776941657,-0.4238784909248352,-0.0068931272253394,-8.22403621673584,4.1328125,0,K1,6.1,90,270.0,0.1287224386482212,[19600|0|0|0],start
13500,-0.3143130242824554,-0.3902851939201355,0.0168483220040798,-0.4229885041713714,-0.0109840063378214,-8.233492851257324,4.13671875,0,K1,6.1,90,270.0,0.1290460460718451,[19700|0|0|0],start
13600,-0.3143516480922699,-0.3909225761890411,0.0166325513273477,-0.4046186506748199,-0.0125273829326033,-8.224702835083008,4.13671875,0,K1,6.1,90,270.0,0.1297200675405961,[19800|0|0|0],start
13700,-0.314501404762268,-0.3902989327907562,0.0167331639677286,-0.4194574654102325,-0.0052989209070801,-8.23462200164795,4.13671875,0,K1,6.1,90,270.0,0.1303692832611679,[19900|0|0|0],start
13800,-0.3144052922725677,-0.3905030488967895,0.0169709920883178,-0.4112996757030487,-0.0022154569160193,-8.240584373474121,4.1328125,0,K1,6.1,90,270.0,0.1306970990789095,[20000|0|0|0],start
13900,-0.3144413530826568,-0.3901187777519226,0.016727453097701,-0.4187172949314117,-0.0023155650123953,-8.240392684936523,4.1328125,0,K1,6.1,90,270.0,0.1311534716621704,[20100|0|0|0],start
14000,-0.3144910931587219,-0.3900999128818512,0.0167668033391237,-0.4165869951248169,-0.0016243489226326,-8.233284950256348,4.13671875,0,K1,6.1,90,270.0,0.1312196411414626,[20200|0|0|0],start
14100,-0.3144323825836181,-0.3906365633010864,0.0165104977786541,-0.4038941562175751,-0.0003439176653046,-8.244593620300293,4.13671875,0,K1,6.1,90,270.0,0.1318172473198293,[20300|0|0|0],start
14200,-0.3142220377922058,-0.3902983963489532,0.0167457237839698,-0.4135348498821258,0.0009912153473123,-8.237951278686523,4.13671875,0,K1,6.1,90,270.0,0.1322797763376932,[20400|0|0|0],start
14300,-0.3143150210380554,-0.3904933631420135,0.0169334970414638,-0.4036257266998291,0.005313070025295,-8.227131843566895,4.13671875,0,K1,6.1,90,270.0,0.1325659873274103,[20500|0|0|0],start
14400,-0.3143717050552368,-0.390048086643219,0.0168441291898489,-0.4147008061408996,0.0099010430276393,-8.241355895996094,4.1328125,0,K1,6.1,90,270.0,0.1330236671839528,[20600|0|0|0],start
14500,-0.3142740428447723,-0.3901203572750091,0.0169279165565967,-0.4098479747772217,0.0004215499211568,-8.229985237121582,4.13671875,0,K1,6.1,90,270.0,0.1331712519880442,[20700|0|0|0],start
14600,-0.3138598203659057,-0.3906092345714569,0.0167763046920299,-0.3987352252006531,-0.0036618208978325,-8.249850273132324,4.13671875,0,K1,6.1,90,270.0,0.1338297103621711,[20800|0|0|0],start
14700,-0.3140921890735626,-0.3906351327896118,0.0166623014956712,-0.3941131830215454,0.0022577056661248,-8.248167991638184,4.13671875,0,K1,6.1,90,270.0,0.1340898308396075,[20900|0|0|0],start
14800,-0.3143505156040191,-0.3903311491012573,0.0167922005057334,-0.4102320969104767,0.0064098220318555,-8.248518943786621,4.13671875,0,K1,6.1,90,270.0,0.1345093691953492,[21000|0|0|0],start
14900,-0.3147648274898529,-0.3902954757213592,0.0168815273791551,-0.3860741853713989,0.0341323353350162,-8.270139694213867,4.1328125,0,K1,6.1,90,270.0,0.1349346999126643,[21100|0|0|0],start
15000,-0.3146946728229522,-0.3904331624507904,0.0166826527565717,-0.3582651615142822,0.0394831337034702,-8.276176452636719,4.13671875,0,K1,6.1,90,270.0,0.1351865538946799,[21200|0|0|0],start
15100,-0.3148530125617981,-0.3904762268066406,0.0168413259088993,-0.3409637212753296,0.0538369379937648,-8.259007453918457,4.13671875,0,K1,6.1,90,270.0,0.1354148151066984,[21300|0|0|0],start
15200,-0.3146206736564636,-0.390794962644577,0.0167334713041782,-0.3234708309173584,0.051462385803461,-8.245186805725098,4.13671875,0,K1,6.1,90,270.0,0.1358237240416419,[21400|0|0|0],start
15300,-0.3145895600318908,-0.3902894258499145,0.0170556493103504,-0.3263368010520935,0.0558754205703735,-8.233088493347168,4.13671875,0,K1,6.1,90,270.0,0.1364240024570899,[21500|0|0|0],start
15400,-0.3148686289787292,-0.3904297649860382,0.0169179588556289,-0.3128348886966705,0.0705785900354385,-8.206174850463867,4.1328125,0,K1,6.1,90,270.0,0.1367653720684188,[21600|0|0|0],start
15500,-0.3149407505989074,-0.3903705179691314,0.0167918093502521,-0.307464599609375,0.0777430981397628,-8.224166870117188,4.13671875,0,K1,6.1,90,270.0,0.1369222970021174,[21700|0|0|0],start
15600,-0.314953476190567,-0.3904428482055664,0.0169160589575767,-0.3108630180358886,0.0795729756355285,-8.228520393371582,4.13671875,0,K1,6.1,90,270.0,0.1370666284564375,[21800|0|0|0],start
15700,-0.3146193921566009,-0.3908724188804626,0.0171879567205905,-0.2068376541137695,0.1131128072738647,-8.23009204864502,4.13671875,0,K1,6.1,90,270.0,0.1376749634792775,[21900|0|0|0],start
15800,-0.3145525157451629,-0.3904753029346466,0.0173043776303529,-0.2502903342247009,0.0971939787268638,-8.218103408813477,4.13671875,0,K1,6.1,90,270.0,0.1380941619490481,[22000|0|0|0],start
15900,-0.3146612346172333,-0.3905098438262939,0.0169959831982851,-0.27021324634552,0.0874774381518364,-8.200459480285645,4.1328125,0,K1,6.1,90,270.0,0.1384229779949924,[22100|0|0|0],start
16000,-0.3143768310546875,-0.390459269285202,0.0169346611946821,-0.2930284142494201,0.0790100842714309,-8.206074714660645,4.13671875,0,K1,6.1,90,270.0,0.1387182804818111,[22200|0|0|0],start
16100,-0.314272403717041,-0.3905038237571716,0.017098331823945,-0.3063341677188873,0.06854859739542,-8.218729972839355,4.13671875,0,K1,6.1,90,270.0,0.1389174744694305,[22300|0|0|0],start
16200,-0.3146480321884155,-0.390701949596405,0.0169681627303361,-0.3045558333396911,0.0775414630770683,-8.202224731445312,4.13671875,0,K1,6.1,90,270.0,0.1393616530254303,[22400|0|0|0],start
16300,-0.3143033683300018,-0.3904397189617157,0.0169788654893636,-0.3228170275688171,0.0647485926747322,-8.201292037963867,4.13671875,0,K1,6.1,90,270.0,0.1397948650175508,[22500|0|0|0],start
16400,-0.3144294619560241,-0.3907311856746673,0.0166607350111007,-0.3170361220836639,0.0664546862244606,-8.192830085754395,4.1328125,0,K1,6.1,90,270.0,0.1402443752493388,[22600|0|0|0],start
16500,-0.314369648694992,-0.3904696106910705,0.0168599020689725,-0.3227728605270386,0.0654353946447372,-8.207535743713379,4.13671875,0,K1,6.1,90,270.0,0.1405785407998976,[22700|0|0|0],start
16600,-0.3145778775215149,-0.3904915750026703,0.0168209914118051,-0.3124374747276306,0.0798094645142555,-8.237041473388672,4.13671875,0,K1,6.1,90,270.0,0.1407915096108074,[22800|0|0|0],start
16700,-0.3142667710781097,-0.3903059065341949,0.0166338682174682,-0.3209033012390136,0.0671194791793823,-8.247430801391602,4.13671875,0,K1,6.1,90,270.0,0.1411992780367223,[22900|0|0|0],start
16800,-0.3146471083164215,-0.390544593334198,0.0169058851897716,-0.3144340515136719,0.0697418972849845,-8.23587417602539,4.13671875,0,K1,6.1,90,270.0,0.1417242742620073,[23000|0|0|0],start
16900,-0.3145223259925842,-0.3904955685138702,0.0171339828521013,-0.3128588795661926,0.0639806985855102,-8.228171348571777,4.1328125,0,K1,6.1,90,270.0,0.1419888543158864,[23100|0|0|0],start
17000,-0.314392477273941,-0.3902918696403503,0.0170087069272995,-0.3189525604248047,0.0634043365716934,-8.239972114562988,4.1328125,0,K1,6.1,90,270.0,0.1422609718973498,[23200|0|0|0],start
17100,-0.3144323527812958,-0.3906512260437011,0.0170094892382621,-0.3114642202854156,0.0648163110017776,-8.239062309265137,4.1328125,0,K1,6.1,90,270.0,0.1426225347448971,[23300|0|0|0],start
17200,-0.31435227394104,-0.3900950849056244,0.0165637545287609,-0.4910118281841278,-0.0303032770752906,-8.24332332611084,4.13671875,0,K1,6.1,90,270.0,0.143339741142925,[23400|0|0|0],start
17300,-0.3142381906509399,-0.3899965584278106,0.0166392754763364,-0.4561578929424286,-0.0145785696804523,-8.251883506774902,4.13671875,0,K1,6.1,90,270.0,0.1435083408980646,[23500|0|0|0],start
17400,-0.3142794668674469,-0.390276551246643,0.0168278440833091,-0.4278861880302429,-0.0020378206390887,-8.25241470336914,4.1328125,0,K1,6.1,90,270.0,0.1438484259229958,[23600|0|0|0],start
17500,-0.314280092716217,-0.3906634747982025,0.0165513344109058,-0.4017098248004913,0.0097026331350207,-8.253847122192383,4.1328125,0,K1,6.1,90,270.0,0.1443239969748595,[23700|0|0|0],start
17600,-0.3148797452449798,-0.3903320431709289,0.0165767408907413,-0.4031022787094116,0.0222800653427839,-8.252466201782227,4.13671875,0,K1,6.1,90,270.0,0.1450096175463321,[23800|0|0|0],start
17700,-0.3147626519203186,-0.3901859223842621,0.0171556379646062,-0.399701327085495,0.020291369408369,-8.236830711364746,4.1328125,0,K1,6.1,90,270.0,0.145618044989094,[23900|0|0|0],start
17800,-0.3147237300872803,-0.3904555141925812,0.0169066917151212,-0.3884955942630768,0.0155655136331915,-8.253693580627441,4.1328125,0,K1,6.1,90,270.0,0.1459870556763816,[24000|0|0|0],start
17900,-0.3147736191749573,-0.3901365399360657,0.0169284604489803,-0.3859767615795135,0.0196243338286876,-8.241547584533691,4.1328125,0,K1,6.1,90,270.0,0.1463106408663435,[24100|0|0|0],start
18000,-0.3147228062152862,-0.3904596865177154,0.0165805667638778,-0.3776254057884216,0.01161665096879,-8.230788230895996,4.1328125,0,K1,6.1,90,270.0,0.1467881716886331,[24200|0|0|0],start
18100,-0.3146201968193054,-0.3901249170303345,0.0169939268380403,-0.3916910588741302,0.0145829152315855,-8.223538398742676,4.1328125,0,K1,6.1,90,270.0,0.1473298965715178,[24300|0|0|0],start
18200,-0.3146966993808746,-0.3905157148838043,0.0169257968664169,-0.3913751244544983,0.0082683693617582,-8.227982521057129,4.13671875,0,K1,6.1,90,270.0,0.1477338981770056,[24400|0|0|0],start
18300,-0.3149502575397491,-0.3902595043182373,0.0167531874030828,-0.3964205086231231,0.0231369119137525,-8.23121452331543,4.13671875,0,K1,6.1,90,270.0,0.1481335600599423,[24500|0|0|0],start
18400,-0.3150447309017181,-0.3903582990169525,0.0167101249098777,-0.3929387927055359,0.0201479438692331,-8.22715950012207,4.1328125,0,K1,6.1,90,270.0,0.1482768778429875,[24600|0|0|0],start
18500,-0.3149948418140411,-0.3901137113571167,0.0166836343705654,-0.4068305492401123,0.0198064260184764,-8.255008697509766,4.13671875,0,K1,6.1,90,270.0,0.1485279033259295,[24700|0|0|0],start
18600,-0.3149748146533966,-0.3905183374881744,0.0166064761579036,-0.3986758291721344,0.0136649189516901,-8.221724510192871,4.1328125,0,K1,6.1,90,270.0,0.1489403069908978,[24800|0|0|0],start
18700,-0.3145473003387451,-0.3902037739753723,0.0168561208993196,-0.4112730026245117,0.0037371767684817,-8.227422714233398,4.1328125,0,K1,6.1,90,270.0,0.149526857235749,[24900|0|0|0],start
18800,-0.3146299719810486,-0.3905566930770874,0.0168467853218317,-0.259379506111145,0.0783676132559776,-8.22901439666748,4.13671875,0,K1,6.1,90,270.0,0.1498894501835618,[25000|0|0|0],start
18900,-0.3146717846393585,-0.3904461562633514,0.0168489851057529,-0.2927119731903076,0.0681981593370437,-8.219281196594238,4.1328125,0,K1,6.1,90,270.0,0.1500076513875961,[25100|0|0|0],start
19000,-0.3148113489151001,-0.3903433084487915,0.0169810112565755,-0.3128451108932495,0.0578687414526939,-8.217024803161621,4.1328125,0,K1,6.1,90,270.0,0.1502255659683934,[25200|0|0|0],start
19100,-0.3147667348384857,-0.3906414210796356,0.0165845267474651,-0.3219198584556579,0.0447190813720226,-8.21280574798584,4.1328125,0,K1,6.1,90,270.0,0.1507236237185243,[25300|0|0|0],start
19200,-0.3149037659168243,-0.3903704285621643,0.016847513616085,-0.3458733856678009,0.0456558838486671,-8.208611488342285,4.1328125,0,K1,6.1,90,270.0,0.1511253407259095,[25400|0|0|0],start
19300,-0.3146093785762787,-0.3906279504299164,0.0170735158026218,-0.239160418510437,0.0940050706267356,-8.208019256591797,4.1328125,0,K1,6.1,90,270.0,0.151577068970503,[25500|0|0|0],start
19400,-0.3146159648895263,-0.3902829885482788,0.0167732536792755,-0.2858360707759857,0.0771652087569236,-8.212743759155273,4.1328125,0,fly,6.1,90,270.0,0.1520344522037129,[25500|0|0|0],fly
19500,-0.3145076930522918,-0.3905031383037567,0.0169543866068124,-0.2370051741600036,0.1128167361021041,-7.8682026863098145,3.240234375,0,fly,6.1,90,270.0,0.1523394076808127,[25500|0|0|0],fly
19600,-0.3148621618747711,-0.3905763626098633,0.0265224762260913,-2.3921635150909424,4.75443696975708,-5.170498847961426,3.58984375,0,fly,6.1,90,270.0,0.1619143410439055,[25500|0|0|0],fly
19700,-0.3247226476669311,-0.3875435292720794,0.0662230253219604,-2.6286864280700684,8.769576072692871,-1.0774885416030884,3.66796875,0,fly,6.1,90,270.0,0.2029333714642565,[25500|0|0|0],fly
19800,-0.3455641269683838,-0.3815517723560333,0.1259083300828933,1.695905327796936,-1.0152411460876465,1.073385238647461,3.689453125,0,fly,6.1,90,270.0,0.2664361589213383,[25500|0|0|0],fly
19900,-0.3641214668750763,-0.3800956308841705,0.1970578283071518,2.033543348312378,-3.998576402664185,2.341540575027466,3.701171875,0,fly,6.1,90,270.0,0.3399803382284892,[25500|0|0|0],fly
20000,-0.3741140961647033,-0.3831197321414947,0.2778466045856476,1.857121109962464,-5.238557815551758,2.6252214908599854,3.720703125,0,fly,6.1,90,270.0,0.4214409066104451,[25500|0|0|0],fly
20100,-0.3739423453807831,-0.3889989256858825,0.3648023903369903,0.4375905692577362,-4.513345241546631,2.683471202850342,3.732421875,0,fly,6.1,90,270.0,0.5085953849273828,[25500|0|0|0],fly
20200,-0.3657277226448059,-0.3955090343952179,0.4539709687232971,-0.8204314708709717,-2.557626962661743,2.37756085395813,3.7265625,0,fly,6.1,90,270.0,0.5983778827403571,[25500|0|0|0],fly
20300,-0.3544232547283172,-0.4011196196079254,0.5454363226890564,-1.4188424348831177,-0.4476402699947357,2.1194398403167725,3.732421875,0,fly,6.1,90,270.0,0.6907097875045588,[25500|0|0|0],fly
20400,-0.3425493538379669,-0.4038033187389374,0.6381323933601379,-2.0331387519836426,1.1654138565063477,1.8219503164291384,3.720703125,0,fly,6.1,90,270.0,0.7842017833183064,[25500|0|0|0],fly
20500,-0.3384799063205719,-0.4043163359165191,0.718594491481781,-1.8657902479171755,2.2855684757232666,1.4881185293197632,3.720703125,0,fly,6.1,90,270.0,0.8647683571802887,[25500|0|0|0],fly
20600,-0.3332985043525696,-0.4011624753475189,0.8120308518409729,-1.512123703956604,2.4110183715820312,1.10809063911438,3.720703125,0,fly,6.1,90,270.0,0.9584014026290802,[25500|0|0|0],fly
20700,-0.3306033611297607,-0.3969775140285492,0.9103661775588988,-0.727875292301178,2.083168268203736,0.9161801934242249,3.720703125,0,fly,6.1,90,270.0,1.0568626334881517,[25500|0|0|0],fly
20800,-0.3350569009780884,-0.3907928168773651,1.0160630941390991,-0.0459356978535652,1.2304937839508057,0.8004621863365173,3.720703125,0,fly,6.1,90,270.0,1.1628339629626576,[25500|0|0|0],fly
20900,-0.3416420519351959,-0.3860536217689514,1.1133910417556765,0.6153815984725952,0.4319146275520324,0.8060922026634216,3.720703125,0,fly,6.1,90,270.0,1.2604994818045638,[25500|0|0|0],fly
21000,-0.3494870364665985,-0.3825956284999847,1.211651086807251,0.9940905570983888,-0.4256867468357086,1.154224872589111,3.716796875,0,fly,6.1,90,270.0,1.3591328329251844,[25500|0|0|0],fly
21100,-0.3570220470428467,-0.3759379982948303,1.2940542697906494,0.8301225304603577,-1.1009061336517334,1.1859339475631714,3.7109375,0,fly,6.1,90,270.0,1.4421471990923016,[25500|0|0|0],fly
21200,-0.3626792430877685,-0.3751944303512573,1.392583966255188,0.7830017805099487,-1.1824287176132202,0.6157039403915405,3.7109375,0,fly,6.1,90,270.0,1.5408419702089695,[25500|0|0|0],fly
21300,-0.365552008152008,-0.3811521530151367,1.4994205236434937,0.5065940022468567,-1.4942899942398071,0.0917611047625541,3.7734375,0,fly,6.1,90,270.0,1.6478830708808083,[25500|0|0|0],fly
21400,-0.3697663247585296,-0.3775606751441955,1.586042046546936,0.0445243120193481,-1.1472115516662598,-0.232738971710205,3.794921875,0,fly,6.1,90,270.0,1.7346813854259024,[25500|0|0|0],fly
21500,-0.3705787658691406,-0.3795904219150543,1.66775643825531,-0.4377212226390838,-1.294416427612305,-0.5406324863433838,3.80078125,0,fly,6.1,90,270.0,1.816425019702717,[25500|0|0|0],fly
21600,-0.370539128780365,-0.3816722929477691,1.7320088148117063,-0.4418464601039886,-1.1443041563034058,-1.161394119262695,3.7890625,0,fly,6.1,90,270.0,1.8807111274651305,[25500|0|0|0],fly
21700,-0.3706864714622497,-0.3857620060443878,1.7859532833099363,-0.2095406949520111,-0.6566758751869202,4.192483901977539,3.779296875,0,fly,6.1,90,270.0,1.9348106019970983,[25500|0|0|0],fly
21800,-0.3682615756988525,-0.3856202065944671,1.8127362728118896,-0.6135597825050354,-0.5849573612213135,7.739167213439941,3.763671875,0,fly,6.1,90,270.0,1.9617035146918789,[25500|0|0|0],fly
21900,-0.366287499666214,-0.3892503380775451,1.8339940309524536,-0.4339949488639831,0.0430594347417354,9.034640312194824,3.7578125,0,fly,6.1,90,270.0,1.983359163191284,[25500|0|0|0],fly
22000,-0.3643818199634552,-0.3899284303188324,1.8419833183288568,-0.7796360850334167,0.5274550318717957,12.48972511291504,3.736328125,0,fly,6.1,90,270.0,1.991600530614228,[25500|0|0|0],fly
22100,-0.3670591711997986,-0.3874334990978241,1.843150496482849,-0.3916319012641907,0.7013329267501831,13.628669738769531,3.7265625,0,fly,6.1,90,270.0,1.9954417799270767,[25500|0|0|0],fly
22200,-0.3708317279815674,-0.3779875040054321,1.8372794389724727,-0.0854840204119682,-0.0247028972953557,4.427398681640625,3.732421875,0,fly,6.1,90,270.0,2.007186068932688,[25500|0|0|0],fly
22300,-0.3755293488502502,-0.3793405890464782,1.832517147064209,0.799971342086792,-0.7982819676399231,-0.7659013867378235,3.716796875,0,fly,6.1,90,270.0,2.014010869675105,[25500|0|0|0],fly
22400,-0.38059863448143,-0.3787217438220978,1.827154278755188,0.6392490863800049,-1.3688828945159912,-5.746103286743164,3.716796875,0,fly,6.1,90,42.0,2.021416339459132,[25500|0|0|0],fly
22500,-0.3858170211315155,-0.3825229704380035,1.8226442337036133,-6.744682312011719,-8.97856616973877,-6.869981288909912,3.822265625,0,fly,6.1,90,42.0,2.0292917054431663,[25500|0|0|0],fly
22600,-0.3734668791294098,-0.3744868338108063,1.791126728057861,-14.181241989135742,-16.053905487060547,-6.708795070648193,3.763671875,0,fly,6.1,90,42.0,2.064083351875797,[25500|0|0|0],fly
22700,-0.3484626710414886,-0.3586000800132751,1.740086793899536,-16.754121780395508,-17.770633697509766,-7.268270492553711,3.689453125,0,fly,6.1,90,42.0,2.1230975387058604,[25500|0|0|0],fly
22800,-0.288848876953125,-0.3351602256298065,1.6788396835327148,-17.284069061279297,-14.436420440673828,-12.887712478637695,3.65234375,0,fly,6.1,90,42.0,2.211722815841752,[25500|0|0|0],fly
22900,-0.1816768795251846,-0.3106699883937835,1.623908758163452,-14.307405471801758,-11.709614753723145,-15.783587455749512,3.630859375,0,fly,6.1,90,42.0,2.3346171416444297,[25500|0|0|0],fly
23000,-0.0440868586301803,-0.2785016000270843,1.5821300745010376,-9.329204559326172,-6.61912727355957,-12.511796951293944,3.65234375,0,fly,6.1,90,42.0,2.481964613521495,[25500|0|0|0],fly
23101,0.1024236381053924,-0.2335866242647171,1.548289775848389,-8.596904754638672,0.9979666471481324,-9.63326644897461,3.66796875,0,fly,6.1,90,42.0,2.638897231272996,[25500|0|0|0],fly
23202,0.2456592619419098,-0.1774480938911438,1.5278337001800537,-8.400094985961914,7.529073238372803,-3.398165225982666,3.68359375,0,fly,6.1,90,42.0,2.794095264637113,[25500|0|0|0],fly
23300,0.3741325438022613,-0.1172812134027481,1.516409993171692,-7.7791032791137695,10.18934440612793,-1.721306562423706,3.701171875,0,fly,6.1,90,42.0,2.936418624425614,[25500|0|0|0],fly
23400,0.4847477376461029,-0.0554268844425678,1.5100306272506714,-7.488687992095947,12.100071907043455,-0.4263650476932525,3.705078125,0,fly,6.1,90,42.0,3.0633137599895086,[25500|0|0|0],fly
23502,0.5760417580604553,0.0104920351877808,1.5030229091644287,-7.69725227355957,11.601605415344238,3.429884433746338,3.7109375,0,fly,6.1,90,42.0,3.176136675398679,[25500|0|0|0],fly
23602,0.6512161493301392,0.082764632999897,1.4998961687088013,-6.501095771789551,12.105144500732422,0.3807205259799957,3.7109375,0,fly,6.1,90,42.0,3.280464495289426,[25500|0|0|0],fly
23702,0.701378583908081,0.1412506401538849,1.4913599491119385,-6.024573802947998,10.941767692565918,0.8762211203575134,3.7109375,0,fly,6.1,90,42.0,3.357987072133908,[25500|0|0|0],fly
23802,0.7440145611763,0.2150412499904632,1.4843229055404663,-5.715750694274902,9.470731735229492,1.301528811454773,3.7109375,0,fly,6.1,90,42.0,3.4434996480505355,[25500|0|0|0],fly
23902,0.7732155323028564,0.2938056886196136,1.4763942956924438,-4.494936466217041,7.76944637298584,0.6767246127128601,3.701171875,0,fly,6.1,90,42.0,3.5278761635120155,[25500|0|0|0],fly
24000,0.7941522598266602,0.3747167885303497,1.4693540334701538,-1.639757513999939,6.244746685028076,1.5874589681625366,3.689453125,0,fly,6.1,90,42.0,3.611748196635874,[25500|0|0|0],fly
24100,0.807086169719696,0.4553042352199554,1.4599697589874268,1.7355289459228516,4.864177227020264,1.5961158275604248,3.701171875,0,fly,6.1,90,42.0,3.693904676578959,[25500|0|0|0],fly
24201,0.8217568397521973,0.5429326891899109,1.4644851684570312,5.3914666175842285,3.91541051864624,-1.2774672508239746,3.6953125,0,fly,6.1,90,42.0,3.7828673846483816,[25500|0|0|0],fly
24300,0.8239109516143799,0.5949167013168335,1.44552481174469,7.574885368347168,3.078566789627075,-1.179853081703186,3.705078125,0,fly,6.1,90,42.0,3.838243127003551,[25500|0|0|0],fly
24400,0.8278616666793823,0.6468172073364258,1.4375463724136353,7.689538478851318,3.1941978931427,0.2536825239658355,3.689453125,0,fly,6.1,90,42.0,3.8909017081539568,[25500|0|0|0],fly
24500,0.8311929702758789,0.6878320574760437,1.4317595958709717,7.172396659851074,2.558424234390259,0.0192736275494098,3.673828125,0,fly,6.1,90,42.0,3.932456518926984,[25500|0|0|0],fly
24600,0.8326166868209839,0.7157440781593323,1.4282525777816772,5.538179874420166,2.292335271835327,0.7341637015342712,3.6953125,0,fly,6.1,90,42.0,3.960624000946216,[25500|0|0|0],fly
24700,0.8333180546760559,0.7352124452590942,1.426622986793518,4.458178520202637,2.4796013832092285,1.3226988315582275,3.701171875,0,fly,6.1,90,42.0,3.980173036758448,[25500|0|0|0],fly
24800,0.8307439684867859,0.7494739294052124,1.4260510206222534,3.076227188110352,2.7425239086151123,1.5757919549942017,3.701171875,0,fly,6.1,90,42.0,3.994676243130173,[25500|0|0|0],fly
24900,0.8260815739631653,0.760783851146698,1.426606297492981,2.461034774780273,2.5631353855133057,1.078771948814392,3.701171875,0,fly,6.1,90,42.0,4.006922082623469,[25500|0|0|0],fly
25000,0.817406177520752,0.769274890422821,1.4262619018554688,2.5186209678649902,2.374245405197144,0.0027815131470561,3.705078125,0,fly,6.1,90,42.0,4.019066170064559,[25500|0|0|0],fly
25100,0.8060425519943237,0.7753773927688599,1.424743413925171,2.260894298553467,1.7064765691757202,-0.9302944540977478,3.701171875,0,fly,6.1,90,42.0,4.032053792078722,[25500|0|0|0],fly
25200,0.792615532875061,0.77945876121521,1.4212249517440796,2.5008862018585205,0.9596397280693054,-1.762126326560974,3.6953125,0,fly,6.1,90,42.0,4.04652175623902,[25500|0|0|0],fly
25300,0.7778306603431702,0.7808706760406494,1.4164724349975586,1.998321771621704,0.2051363438367843,-1.9948842525482176,3.701171875,0,fly,6.1,90,42.0,4.062115741447571,[25500|0|0|0],fly
25400,0.76238614320755,0.7807754874229431,1.410934567451477,1.8971694707870483,-0.6030400395393372,-1.9863444566726685,3.689453125,0,fly,6.1,90,42.0,4.078523366119758,[25500|0|0|0],fly
25500,0.7484961152076721,0.7788256406784058,1.402206540107727,1.885155200958252,-1.2397502660751345,-1.740912675857544,3.931640625,0,fly,6.1,90,270.0,4.095043452120679,[25500|0|0|0],fly
25600,0.7361820340156555,0.7770625352859497,1.369576930999756,1.6638243198394775,-2.102119207382202,-1.1323162317276,3.87890625,0,fly,6.1,90,270.0,4.129963883486392,[25500|0|0|0],fly
25700,0.7232702374458313,0.7739713191986084,1.2967917919158936,0.6830819845199585,-1.3570691347122192,-1.0350085496902466,3.779296875,0,fly,6.1,90,270.0,4.203950007719361,[25500|0|0|0],fly
25800,0.7121894359588623,0.769494891166687,1.1920957565307615,1.152975082397461,-2.3302669525146484,2.1442558765411377,3.6953125,0,fly,6.1,90,270.0,4.309325917655567,[25500|0|0|0],fly
25900,0.7011042237281799,0.7648617029190063,1.0681259632110596,0.0267165005207061,-2.505147933959961,1.0312563180923462,3.66796875,0,fly,6.1,90,270.0,4.43387654197864,[25500|0|0|0],fly
26000,0.6953496932983398,0.7602729201316833,0.941650390625,-0.4168085753917694,-2.416771411895752,-0.3519571125507355,3.673828125,0,fly,6.1,90,270.0,4.560566091701215,[25500|0|0|0],fly
26100,0.6923798322677612,0.7583433389663696,0.8166881799697876,-0.3613147139549255,-1.894433736801148,-0.967814564704895,3.68359375,0,fly,6.1,90,270.0,4.685578480886656,[25500|0|0|0],fly
26200,0.6910083293914795,0.7569448351860046,0.6957663893699646,-0.0922897309064865,-0.931808054447174,-0.3952805995941162,3.6953125,0,fly,6.1,90,270.0,4.806516135381982,[25500|0|0|0],fly
26300,0.6925944089889526,0.7565658688545227,0.5744950771331787,0.4892928898334503,0.2655274271965027,0.5036876201629639,3.673828125,0,fly,6.1,90,270.0,4.927798411232998,[25500|0|0|0],fly
26400,0.6932001709938049,0.75702965259552,0.4557486176490783,0.4644817113876343,-0.0384186431765556,1.95691442489624,3.611328125,0,fly,6.1,90,270.0,5.046547321472099,[25500|0|0|0],fly
26500,0.6921882629394531,0.7586848735809326,0.3455155193805694,-0.6155866980552673,2.56729507446289,4.78524923324585,3.62109375,0,fly,6.1,90,270.0,5.15679749003567,[25500|0|0|0],fly
26600,0.6855151057243347,0.7647780776023865,0.2481752038002014,-2.460925579071045,4.082522869110107,8.968698501586914,3.626953125,0,fly,6.1,90,270.0,5.254556352548234,[25500|0|0|0],fly
26700,0.6702474355697632,0.7769027948379517,0.1627708971500396,-2.2326622009277344,2.9242641925811768,12.489873886108398,3.62109375,0,fly,6.1,90,270.0,5.342157757299448,[25500|0|0|0],fly
26800,0.6473799347877502,0.7928023338317871,0.0907066315412521,-0.8391690254211426,3.871081113815308,15.47495937347412,3.626953125,0,fly,6.1,90,270.0,5.4194169076310805,[25500|0|0|0],fly
26900,0.6189142465591431,0.8103209137916565,0.0326602160930633,1.6847107410430908,-0.6773896813392639,18.364307403564453,3.60546875,0,fly,6.1,90,270.0,5.486398863384271,[25500|0|0|0],fly
27000,0.5942586660385132,0.825456976890564,0.0,8.021321296691895,-6.188248157501221,20.467729568481445,3.599609375,0,fly,6.1,90,270.0,5.5300301339615645,[25500|0|0|0],fly
27100,0.5889515280723572,0.829589307308197,0.0,11.99880313873291,-12.962276458740234,21.15467834472656,3.599609375,0,fly,6.1,90,270.0,5.536756341516518,[25500|0|0|0],fly
27200,0.602697491645813,0.8250216245651245,0.0,1.6075570583343506,7.613040447235107,17.956830978393555,3.66796875,0,fly,6.1,90,270.0,5.551241342041341,[25500|0|0|0],fly
27300,0.6078431606292725,0.8147892951965332,0.0,0.8889473080635071,9.243754386901855,15.439937591552734,3.630859375,0,fly,6.1,90,270.0,5.562694659185063,[25500|0|0|0],fly
27400,0.6034010052680969,0.7991306781768799,0.0,4.733168125152588,-5.458996772766113,10.438187599182127,3.63671875,0,fly,6.1,90,270.0,5.5789711769705415,[25500|0|0|0],fly
27500,0.6058909893035889,0.7769321799278259,0.0202365107834339,1.989620804786682,-9.292417526245115,5.972485065460205,3.6796875,0,fly,6.1,90,270.0,5.60911234008178,[25500|0|0|0],fly
27600,0.6226999759674072,0.7539941668510437,0.0523820780217647,0.2361796349287033,-8.287992477416992,3.5264573097229004,3.6953125,0,fly,6.1,90,270.0,5.652031239993697,[25500|0|0|0],fly
27700,0.6513348817825317,0.7347561717033386,0.080905869603157,-3.029460191726685,-3.915411710739136,1.804424285888672,3.701171875,0,fly,6.1,90,270.0,5.696793556449873,[25500|0|0|0],fly
27800,0.6860601305961609,0.7224857211112976,0.1044905260205268,-2.923837661743164,-0.6634520292282104,0.9329345226287842,3.689453125,0,fly,6.1,90,270.0,5.7405273292259045,[25500|0|0|0],fly
27900,0.7200741171836853,0.7186989188194275,0.1224220171570777,-3.40665054321289,2.846719264984131,0.0976008549332618,3.689453125,0,fly,6.1,90,270.0,5.779164481418506,[25500|0|0|0],fly
28000,0.7496297359466553,0.721712052822113,0.1334120333194732,-1.316920518875122,4.832179069519043,-0.5798097848892212,3.68359375,0,fly,6.1,90,270.0,5.810840876924148,[25500|0|0|0],fly
28100,0.7721303105354309,0.729672372341156,0.139295145869255,-0.8294005393981934,5.280052185058594,-0.9218901991844176,3.673828125,0,fly,6.1,90,270.0,5.835422446380627,[25500|0|0|0],fly
28200,0.7811598777770996,0.7385773062705994,0.1409921050071716,1.3071712255477903,6.307709693908691,-1.5157495737075806,3.673828125,0,fly,6.1,90,270.0,5.8482173908187765,[25500|0|0|0],fly
28300,0.7827355861663818,0.7490119338035583,0.1391929388046264,0.8483261466026306,4.48068380355835,-1.3075573444366455,3.6640625,0,fly,6.1,90,270.0,5.85892259084979,[25500|0|0|0],fly
28400,0.7757086753845215,0.7598276734352112,0.1374831646680832,1.4834694862365725,3.8933844566345215,0.0010256387759,3.6640625,0,F1,6.1,90,270.0,5.871933395072202,[25500|0|100|0],second_intermediate
28500,0.763109564781189,0.7699996829032898,0.1358629763126373,1.68371319770813,1.6103410720825195,1.43439519405365,3.6640625,0,F1,6.1,90,270.0,5.888207066290486,[25500|0|200|0],second_intermediate
28600,0.74953693151474,0.7771035432815552,0.1335050165653228,3.0879952907562256,-0.6521519422531128,2.2072975635528564,3.6640625,0,F1,6.1,90,270.0,5.903706781779145,[25500|0|300|0],second_intermediate
28700,0.7390023469924927,0.7805447578430176,0.1308089643716812,2.264071226119995,-1.6788791418075562,2.515153408050537,3.65234375,0,F1,6.1,90,270.0,5.915112399962533,[25500|0|400|0],second_intermediate
28800,0.7323939204216003,0.781078577041626,0.1276019364595413,2.377145290374756,-1.8100301027297967,2.4938058853149414,3.658203125,0,F1,6.1,90,270.0,5.922477268780708,[25500|0|500|0],second_intermediate
28900,0.7298370003700256,0.7794627547264099,0.1228930950164794,1.8456647396087649,-1.4112790822982788,2.991123914718628,3.65234375,0,F1,6.1,90,270.0,5.928073866822411,[25500|0|600|0],second_intermediate
29000,0.7286736965179443,0.7763820886611938,0.1202046796679496,-0.0228446144610643,-0.3941461145877838,3.696408987045288,3.658203125,0,F1,6.1,90,270.0,5.93232490861753,[25500|0|700|0],second_intermediate
29100,0.7283825874328613,0.7737887501716614,0.1195678859949112,1.8168206214904783,-0.4878271222114563,3.612513780593872,3.658203125,0,F1,6.1,90,270.0,5.935011105781316,[25500|0|800|0],second_intermediate
29200,0.7299013137817383,0.7692647576332092,0.1198026537895202,1.1993881464004517,-0.963571310043335,2.726659059524536,3.658203125,0,F1,6.1,90,270.0,5.939788987542947,[25500|0|900|0],second_intermediate
29300,0.7323077917098999,0.7626282572746277,0.1203489527106285,1.695300579071045,-0.908585786819458,1.1535768508911133,3.65234375,0,F1,6.1,90,270.0,5.946869433541568,[25500|0|1000|0],second_intermediate
29400,0.7358496189117432,0.7530515193939209,0.1198318898677825,2.333845376968384,-0.911506712436676,-0.5900304317474365,3.65234375,0,F1,6.1,90,270.0,5.957093219647846,[25500|0|1100|0],second_intermediate
29500,0.7394472360610962,0.739194929599762,0.1189102008938789,1.6315553188323977,0.6438703536987305,-0.5785780549049377,3.65234375,0,F1,6.1,90,270.0,5.971438861510151,[25500|0|1200|0],second_intermediate
29600,0.7403663396835327,0.723929226398468,0.1177487894892692,-0.206710010766983,0.9783663749694824,0.5460975766181946,3.65234375,0,F1,6.1,90,270.0,5.986776244668615,[25500|0|1300|0],second_intermediate
29700,0.7397381067276001,0.7095130085945129,0.1149436309933662,-0.2142162770032882,0.9370887875556946,1.4019263982772827,3.6484375,0,F1,6.1,90,270.0,6.0014762761857625,[25500|0|1400|0],second_intermediate
29800,0.7367552518844604,0.694465160369873,0.1135060042142868,0.7617016434669495,1.808661103248596,2.197211980819702,3.65234375,0,F1,6.1,90,270.0,6.016884129052498,[25500|0|1500|0],second_intermediate
29900,0.7319410443305969,0.6770542860031128,0.1124180480837822,0.6082213521003723,-0.0223402567207813,4.052929401397705,3.6484375,0,F1,6.1,90,270.0,6.03498105666822,[25500|0|1600|0],second_intermediate
30000,0.7257736921310425,0.6579017639160156,0.1123235300183296,0.1452357172966003,0.8605910539627075,5.702314376831055,3.658203125,0,F1,6.1,90,270.0,6.055102295922172,[25500|0|1700|0],second_intermediate
30100,0.718346118927002,0.6370110511779785,0.1113280579447746,-0.2795105278491974,0.4475725293159485,6.038958549499512,3.63671875,0,F1,6.1,90,270.0,6.077296477300493,[25500|0|1800|0],second_intermediate
30200,0.7110179662704468,0.6154263019561768,0.1085864827036857,-0.8716169595718384,-0.0233961772173643,4.965545654296875,3.63671875,0,F1,6.1,90,270.0,6.100255559493133,[25500|0|1900|0],second_intermediate
30300,0.7037807703018188,0.5959023833274841,0.1055329665541648,-0.5307899117469788,-0.0224721673876047,3.4936976432800293,3.63671875,0,F1,6.1,90,270.0,6.121300377500983,[25500|0|2000|0],second_intermediate
30400,0.6982682347297668,0.5762686133384705,0.1048708483576774,0.6335561275482178,-1.1466219425201416,2.1799120903015137,4.01171875,0,F1,6.1,90,270.0,6.141704087284274,[25500|0|2100|0],second_intermediate
30500,0.6945517659187317,0.557308554649353,0.0718546211719513,1.3655760288238523,-6.620443344116211,2.798189163208008,4.0234375,0,F1,6.1,90,270.0,6.179958070390581,[25500|0|2200|0],second_intermediate
30600,0.6958215832710266,0.5376364588737488,0.0,0.5125483870506287,-16.319528579711914,4.921331405639648,4.02734375,0,F1,6.1,90,270.0,6.254467736690179,[25500|0|2300|0],second_intermediate
30700,0.7016522884368896,0.5261731147766113,0.0,2.3444392681121826,1.073971152305603,7.49028730392456,4.02734375,0,F1,6.1,90,270.0,6.267328739008063,[25500|0|2400|0],second_intermediate
30800,0.7177348732948303,0.5236959457397461,0.0,0.1684440374374389,-3.61730694770813,4.794138431549072,4.03125,0,F1,6.1,90,270.0,6.283600982312231,[25500|0|2500|0],second_intermediate
30900,0.6977917551994324,0.5229632258415222,0.0,0.7340478897094727,-2.072881937026977,3.433239221572876,4.03125,0,F1,6.1,90,270.0,6.303557556111765,[25500|0|2600|0],second_intermediate
31000,0.69053053855896,0.516990602016449,0.0,0.8340532183647156,-1.6662043333053589,2.9657914638519287,4.0390625,0,F1,6.1,90,270.0,6.3129595507116205,[25500|0|2700|0],second_intermediate
31100,0.6906501650810242,0.5173277258872986,0.0,0.3997628688812256,-1.908523797988892,2.638249397277832,4.0390625,0,F1,6.1,90,270.0,6.313317269887899,[25500|0|2800|0],second_intermediate
31200,0.6907568573951721,0.5172789692878723,0.0,0.6903056502342224,-1.3454620838165283,2.399749279022217,4.0390625,0,F1,6.1,90,270.0,6.313434574857469,[25500|0|2900|0],second_intermediate
31300,0.6904888153076172,0.5176928043365479,0.0,0.3749752938747406,-1.4466744661331177,2.2377817630767822,4.04296875,0,F1,6.1,90,270.0,6.31392763267174,[25500|0|3000|0],second_intermediate
31400,0.6903782486915588,0.5175063610076904,0.0,0.6281284689903259,-0.9706084728240968,2.0749950408935547,4.0390625,0,F1,6.1,90,270.0,6.314144395425602,[25500|0|3100|0],second_intermediate
