,time.ms,stateEstimate.x,stateEstimate.y,stateEstimate.z,stabilizer.roll,stabilizer.pitch,stabilizer.yaw,pm.vbat,drone_id,node_name,wind_speed,global_wind_direction,relative_wind_direction,travel_dist,waiting_time
0,0,1.2941290140151978,-0.3177323341369629,0.0017941036494448,-0.208533838391304,0.6285877227783203,-10.16440200805664,4.13671875,0,"['C1', 'F2', 'F1']",7.6,180,0.0,0.0547079332214996,[100|0|0]
1,100,1.2957903146743774,-0.3197801113128662,-0.005938998889178,-0.0459664836525917,1.03241765499115,-8.382670402526855,4.1328125,0,"['C1', 'F2', 'F1']",7.6,180,0.0,0.062878256722757,[200|0|0]
2,200,1.293675661087036,-0.3177182376384735,0.0047148191370069,-0.5757151246070862,0.8905735611915588,-9.348516464233398,4.13671875,0,"['C1', 'F2', 'F1']",7.6,180,0.0,0.0739338852159126,[300|0|0]
3,300,1.29351806640625,-0.3175527155399322,0.0035328045487403,-0.7665975093841553,0.884848952293396,-9.604516983032228,4.1328125,0,"['C1', 'F2', 'F1']",7.6,180,0.0,0.0751377922452934,[400|0|0]
4,400,1.293458342552185,-0.3174714744091034,0.0024141410831362,-0.7224159240722656,0.8371773958206177,-9.776893615722656,4.13671875,0,"['C1', 'F2', 'F1']",7.6,180,0.0,0.0762609908071516,[500|0|0]
5,500,1.2937320470809937,-0.3172141909599304,0.0016660179244354,-0.6199095845222473,0.7918579578399658,-9.882015228271484,4.13671875,0,"['C1', 'F2', 'F1']",7.6,180,0.0,0.0770981271179715,[600|0|0]
6,600,1.2937252521514893,-0.3172624111175537,0.0017509829485788,-0.5046912431716919,0.76414954662323,-9.941808700561523,4.13671875,0,"['C1', 'F2', 'F1']",7.6,180,0.0,0.0771960577566699,[700|0|0]
7,700,1.2937469482421875,-0.3177869319915771,0.0016437922604382,-0.3995607495307922,0.7474007606506348,-9.97879695892334,4.13671875,0,"['C1', 'F2', 'F1']",7.6,180,0.0,0.0777318587563535,[800|0|0]
8,800,1.2938296794891355,-0.3174470961093902,0.0016479408368468,-0.3562211990356445,0.7246758937835693,-10.03813362121582,4.13671875,0,"['C1', 'F2', 'F1']",7.6,180,0.0,0.0780816445432712,[900|0|0]
9,900,1.293712854385376,-0.3175840973854065,0.0016656088409945,-0.3046906888484955,0.7100963592529297,-10.052655220031738,4.13671875,0,"['C1', 'F2', 'F1']",7.6,180,0.0,0.0782625578177126,[1000|0|0]
10,1000,1.2938346862792969,-0.3174289166927337,0.001374861691147,-0.2670531272888183,0.698861300945282,-10.09194564819336,4.13671875,0,"['C1', 'F2', 'F1']",7.6,180,0.0,0.0786139236710609,[1100|0|0]
11,1100,1.293797731399536,-0.3175657987594604,0.0015053616371005,-0.2354226559400558,0.6891100406646729,-10.10934066772461,4.13671875,0,"['C1', 'F2', 'F1']",7.6,180,0.0,0.0788066218786897,[1200|0|0]
12,1200,1.29377019405365,-0.3177389204502105,0.0017087273299694,-0.2151142507791519,0.6769104599952698,-10.088336944580078,4.13671875,0,"['C1', 'F2', 'F1']",7.6,180,0.0,0.0790751121583325,[1300|0|0]
13,1300,1.2938461303710938,-0.3179903328418731,0.0015935875708237,-0.2030719667673111,0.6714780330657959,-10.09694004058838,4.13671875,0,"['C1', 'F2', 'F1']",7.6,180,0.0,0.0793618728235649,[1400|0|0]
14,1400,1.293956637382507,-0.3176214694976806,0.0016690012998878,-0.209742784500122,0.6647735834121704,-10.112171173095703,4.1328125,0,"['C1', 'F2', 'F1']",7.6,180,0.0,0.0797542491694267,[1500|0|0]
15,1500,1.293720006942749,-0.3178656697273254,0.0014979902189224,-0.1957056224346161,0.660181999206543,-10.128942489624023,4.13671875,0,"['C1', 'F2', 'F1']",7.6,180,0.0,0.0801348703813838,[1600|0|0]
16,1600,1.293752670288086,-0.3175812661647796,0.0014466376742348,-0.201670154929161,0.6548753380775452,-10.140253067016602,4.13671875,0,"['C1', 'F2', 'F1']",7.6,180,0.0,0.0804257128892179,[1700|0|0]
17,1700,1.293776512145996,-0.3175071179866791,0.0012161377817392,-0.200515016913414,0.646755039691925,-10.154332160949709,4.13671875,0,"['C1', 'F2', 'F1']",7.6,180,0.0,0.0806690163765433,[1800|0|0]
18,1800,1.284838080406189,-0.3295457661151886,-0.0022567501291632,0.0433220900595188,0.7339600920677185,-10.20368194580078,4.13671875,0,"['C1', 'F2', 'F1']",7.6,180,0.0,0.0960601034457191,[1900|0|0]
19,1900,1.2849535942077637,-0.3294702768325805,-0.0024130274541676,0.0407200865447521,0.736411452293396,-10.21738052368164,4.13671875,0,"['C1', 'F2', 'F1']",7.6,180,0.0,0.0962685852733527,[2000|0|0]
20,2000,1.2847700119018557,-0.3292926549911499,-0.0026350251864641,0.0329753756523132,0.7385099530220032,-10.224204063415527,4.13671875,0,"['C1', 'F2', 'F1']",7.6,180,0.0,0.0966070154356323,[2100|0|0]
21,2100,1.284740686416626,-0.3296201825141907,-0.002565377857536,0.0408347435295581,0.7300196290016174,-10.240604400634766,4.1328125,0,"['C1', 'F2', 'F1']",7.6,180,0.0,0.0969431478691462,[2200|0|0]
22,2200,1.2849026918411257,-0.3296205401420593,-0.0024592939298599,0.0451456271111965,0.7231225371360779,-10.224053382873535,4.1328125,0,"['C1', 'F2', 'F1']",7.6,180,0.0,0.0971367962235832,[2300|0|0]
23,2300,1.2846763134002686,-0.3291687369346618,-0.0029011906590312,0.0331375785171985,0.731243908405304,-10.237062454223633,4.1328125,0,"['C1', 'F2', 'F1']",7.6,180,0.0,0.0978080979857972,[2400|0|0]
24,2400,1.2846484184265137,-0.3293441236019134,-0.0025719073601067,0.0321301035583019,0.7308297753334045,-10.23916721343994,4.1328125,0,"['C1', 'F2', 'F1']",7.6,180,0.0,0.0981822184257107,[2500|0|0]
25,2500,1.284955978393555,-0.3295454382896423,-0.0023647216148674,0.0356399267911911,0.7218327522277832,-10.205470085144045,4.1328125,0,"['C1', 'F2', 'F1']",7.6,180,0.0,0.0986041741933594,[2600|0|0]
26,2600,1.2847687005996704,-0.3291884958744049,-0.0028126174584031,0.0293869078159332,0.720335066318512,-10.218304634094238,4.1328125,0,"['C1', 'F2', 'F1']",7.6,180,0.0,0.0992067449747073,[2700|0|0]
27,2700,1.2848674058914185,-0.3294765651226043,-0.0024471320211887,0.0353594198822975,0.7129579186439514,-10.195008277893066,4.13671875,0,"['C1', 'F2', 'F1']",7.6,180,0.0,0.0996824615197139,[2800|0|0]
28,2800,1.2848979234695437,-0.3296363949775696,-0.0023618396371603,0.0468469522893428,0.7185705304145813,-10.177968978881836,4.1328125,0,"['C1', 'F2', 'F1']",7.6,180,0.0,0.099866177865982,[2900|0|0]
29,2900,1.2848070859909058,-0.3295505344867706,-0.0027419899124652,0.0411953181028366,0.7270064949989319,-10.19552993774414,4.13671875,0,"['C1', 'F2', 'F1']",7.6,180,0.0,0.1002663499579872,[3000|0|0]
30,3000,1.2846485376358032,-0.3292478621006012,-0.002681728452444,0.0311404708772897,0.733872652053833,-10.200618743896484,4.1328125,0,"['C1', 'F2', 'F1']",7.6,180,0.0,0.1006133075891457,[3100|0|0]
31,3100,1.284875988960266,-0.3294262886047363,-0.0025104631204158,0.0318991094827652,0.7215302586555481,-10.206911087036133,4.1328125,0,"['C1', 'F2', 'F1']",7.6,180,0.0,0.1009493164228578,[3200|0|0]
32,3200,1.2849825620651243,-0.3293358087539673,-0.002524325158447,0.0267539750784635,0.7208135724067688,-10.222206115722656,4.13671875,0,"['C1', 'F2', 'F1']",7.6,180,0.0,0.1010898033837215,[3300|0|0]
33,3300,1.2847720384597778,-0.3294813334941864,-0.002541811671108,0.0294903367757797,0.7233343720436096,-10.21530532836914,4.1328125,0,"['C1', 'F2', 'F1']",7.6,180,0.0,0.1013463251499502,[3400|0|0]
34,3401,1.2848008871078491,-0.3293299973011017,-0.0025470571126788,0.0271112732589244,0.723285973072052,-10.221794128417969,4.1328125,0,"['C1', 'F2', 'F1']",7.6,180,0.0,0.1015004757337641,[3500|0|0]
35,3500,1.284834623336792,-0.3295319378376007,-0.0022636756766587,0.0310848020017147,0.7237765192985535,-10.177611351013184,4.13671875,0,"['C1', 'F2', 'F1']",7.6,180,0.0,0.1018500800124932,[3600|0|0]
36,3601,1.2940659523010254,-0.3178420960903168,0.0017779907211661,-0.2015489190816879,0.6256345510482788,-10.113383293151855,4.13671875,0,"['C1', 'F2', 'F1']",7.6,180,0.0,0.1172839681095912,[3700|0|0]
37,3701,1.2848470211029053,-0.329326719045639,-0.0025122084189206,0.0278878957033157,0.7270381450653076,-10.170635223388672,4.13671875,0,"['C1', 'F2', 'F1']",7.6,180,0.0,0.1326231683991496,[3800|0|0]
38,3801,1.284770965576172,-0.3292730152606964,-0.0025743981823325,0.0373857170343399,0.7242799997329712,-10.180540084838867,4.1328125,0,"['C1', 'F2', 'F1']",7.6,180,0.0,0.1327351331540374,[3900|0|0]
39,3901,1.2848660945892334,-0.3293699324131012,-0.0028661342803388,0.0328150168061256,0.7093456983566284,-10.189377784729004,4.13671875,0,"['C1', 'F2', 'F1']",7.6,180,0.0,0.1330569287637593,[4000|0|0]
40,4001,1.2847739458084106,-0.3295823931694031,-0.002571070799604,0.0404458381235599,0.7042380571365356,-10.178430557250977,4.13671875,0,"['C1', 'F2', 'F1']",7.6,180,0.0,0.1334320199905813,[4100|0|0]
41,4101,1.2848334312438965,-0.3292941451072693,-0.0026780941989272,0.0331513620913028,0.7024959921836853,-10.191730499267578,4.1328125,0,"['C1', 'F2', 'F1']",7.6,180,0.0,0.1337451964110882,[4200|0|0]
42,4201,1.2849644422531128,-0.3295861184597015,-0.0024714488536119,0.0356430672109127,0.6976462006568909,-10.184442520141602,4.13671875,0,"['C1', 'F2', 'F1']",7.6,180,0.0,0.1341261355424555,[4300|0|0]
43,4301,1.2850667238235474,-0.329603761434555,-0.0027108173817396,0.0402957163751125,0.6964102387428284,-10.197742462158203,4.13671875,0,"['C1', 'F2', 'F1']",7.6,180,0.0,0.1343870379887266,[4400|0|0]
44,4401,1.284831404685974,-0.3296786248683929,-0.0023233930114656,0.0444031991064548,0.6990880370140076,-10.204833984375,4.13671875,0,"['C1', 'F2', 'F1']",7.6,180,0.0,0.1348464694557773,[4500|0|0]
45,4501,1.2850666046142578,-0.3295872807502746,-0.0023400192148983,0.0383075103163719,0.6994668245315552,-10.220698356628418,4.1328125,0,"['C1', 'F2', 'F1']",7.6,180,0.0,0.1350993314434703,[4600|0|0]
46,4600,1.2847843170166016,-0.3295738101005554,-0.0025159490760415,0.040823109447956,0.715577244758606,-10.209811210632324,4.1328125,0,"['C1', 'F2', 'F1']",7.6,180,0.0,0.1354322264152501,[4700|0|0]
47,4700,1.2848711013793943,-0.3293877840042114,-0.0026960971299558,0.0395752564072608,0.7177422046661377,-10.212010383605955,4.1328125,0,"['C1', 'F2', 'F1']",7.6,180,0.0,0.1357053391309473,[4800|0|0]
48,4802,1.2848410606384275,-0.3296531736850738,-0.0026949592866003,0.0421404503285884,0.7180726528167725,-10.221135139465332,4.1328125,0,"['C1', 'F2', 'F1']",7.6,180,0.0,0.1359724260522175,[4900|0|0]
49,4902,1.2849788665771484,-0.3296675682067871,-0.0023877893108874,0.0438975058495998,0.7104907631874084,-10.195971488952637,4.1328125,0,"['C1', 'F2', 'F1']",7.6,180,0.0,0.1363093994532175,[5000|0|0]
50,5002,1.284987449645996,-0.3292267918586731,-0.0027952142991125,0.0280250776559114,0.7140684127807617,-10.20178508758545,4.13671875,0,"['C1', 'F2', 'F1']",7.6,180,0.0,0.1369096931972776,[5100|0|0]
51,5102,1.2848528623580933,-0.3294790089130401,-0.0024274960160255,0.0301681403070688,0.7171565890312195,-10.187857627868652,4.1328125,0,"['C1', 'F2', 'F1']",7.6,180,0.0,0.1373754655840666,[5200|0|0]
52,5202,1.284738063812256,-0.32955402135849,-0.0024125075433403,0.0316096507012844,0.7214733362197876,-10.186578750610352,4.1328125,0,"['C1', 'F2', 'F1']",7.6,180,0.0,0.1375134156743608,[5300|0|0]
53,5302,1.284852385520935,-0.3294065296649933,-0.0023788972757756,0.0307973586022853,0.7203741669654846,-10.18826389312744,4.13671875,0,"['C1', 'F2', 'F1']",7.6,180,0.0,0.1377030281813629,[5400|0|0]
54,5402,1.2848140001296997,-0.3295804262161255,-0.0026055721100419,0.0311164315789937,0.7197244763374329,-10.178202629089355,4.1328125,0,"['C1', 'F2', 'F1']",7.6,180,0.0,0.1379912900922107,[5500|0|0]
55,5502,1.28490149974823,-0.3296580910682678,-0.0022988244891166,0.0314484238624572,0.7200836539268494,-10.179527282714844,4.1328125,0,"['C1', 'F2', 'F1']",7.6,180,0.0,0.1383195919585541,[5600|0|0]
56,5600,1.2848085165023804,-0.329440712928772,-0.0027479603886604,0.0218928381800651,0.7205182313919067,-10.180073738098145,4.1328125,0,"['C1', 'F2', 'F1']",7.6,180,0.0,0.1388271569256257,[5700|0|0]
57,5700,1.284676432609558,-0.3293620944023132,-0.0027957803104072,0.0347374230623245,0.7358237504959106,-10.175511360168455,4.1328125,0,"['C1', 'F2', 'F1']",7.6,180,0.0,0.1389881344779786,[5800|0|0]
58,5800,1.2847654819488523,-0.329390287399292,-0.0027278896886855,0.0302158650010824,0.7246745824813843,-10.187749862670898,4.1328125,0,"['C1', 'F2', 'F1']",7.6,180,0.0,0.139103606407144,[5900|0|0]
59,5900,1.2847371101379397,-0.3294413387775421,-0.0028455876745283,0.0322398878633976,0.7213329076766968,-10.187237739562988,4.1328125,0,"['C1', 'F2', 'F1']",7.6,180,0.0,0.1392349990201296,[6000|0|0]
60,6000,1.284834384918213,-0.3294330537319183,-0.0027015868108719,0.0356944948434829,0.7164855003356934,-10.20577335357666,4.1328125,0,"['C1', 'F2', 'F1']",7.6,180,0.0,0.1394089739424374,[6100|0|0]
61,6100,1.2847744226455688,-0.3293644785881042,-0.0024041959550231,0.0336503013968467,0.7152114510536194,-10.217041015625,4.1328125,0,"['C1', 'F2', 'F1']",7.6,180,0.0,0.1397200034356245,[6200|0|0]
62,6200,1.284674048423767,-0.3290892541408539,-0.0028304099105298,0.025736516341567,0.7234066128730774,-10.199960708618164,4.1328125,0,"['C1', 'F2', 'F1']",7.6,180,0.0,0.140237189878443,[6300|0|0]
63,6300,1.28484845161438,-0.3295063972473144,-0.0024466747418045,0.03866982832551,0.7159010171890259,-10.190916061401367,4.1328125,0,"['C1', 'F2', 'F1']",7.6,180,0.0,0.1408302139284444,[6400|0|0]
64,6400,1.2848995923995972,-0.3294431865215301,-0.0026953257620334,0.0360483117401599,0.7098597288131714,-10.20260524749756,4.1328125,0,"['C1', 'F2', 'F1']",7.6,180,0.0,0.1410918210874208,[6500|0|0]
65,6500,1.2847785949707031,-0.3295722305774688,-0.0023257324937731,0.0398170016705989,0.713112473487854,-10.206949234008787,4.1328125,0,"['C1', 'F2', 'F1']",7.6,180,0.0,0.1415015672650911,[6600|0|0]
66,6600,1.284963846206665,-0.3294141888618469,-0.0022079281043261,0.0342167057096958,0.7012912631034851,-10.2136812210083,4.1328125,0,"['C1', 'F2', 'F1']",7.6,180,0.0,0.1417720724932755,[6700|0|0]
67,6700,1.2848093509674072,-0.3293847441673279,-0.0023507243022322,0.0461124777793884,0.7061571478843689,-10.206131935119627,4.13671875,0,"['C1', 'F2', 'F1']",7.6,180,0.0,0.1419845025361722,[6800|0|0]
68,6800,1.2847981452941897,-0.3292382359504699,-0.0028134281747043,0.0443673729896545,0.7089225053787231,-10.21576976776123,4.1328125,0,"['C1', 'F2', 'F1']",7.6,180,0.0,0.1424699766326179,[6900|0|0]
69,6900,1.2847899198532104,-0.3293102085590362,-0.0027217015158385,0.0444605350494384,0.7110751271247864,-10.219426155090332,4.1328125,0,"['C1', 'F2', 'F1']",7.6,180,0.0,0.1425868590273993,[7000|0|0]
70,7000,1.284828782081604,-0.3295285999774933,-0.0022469835821539,0.0517917536199092,0.7171028852462769,-10.208977699279783,4.1328125,0,"['C1', 'F2', 'F1']",7.6,180,0.0,0.1431108458602617,[7100|0|0]
71,7100,1.284740328788757,-0.3294552862644195,-0.0024883048608899,0.0583994165062904,0.7259413003921509,-10.215253829956056,4.1328125,0,"['C1', 'F2', 'F1']",7.6,180,0.0,0.1433781188389012,[7200|0|0]
72,7200,1.2848519086837769,-0.3294874131679535,-0.0026637879200279,0.0627588331699371,0.7275619506835938,-10.239906311035156,4.1328125,0,"['C1', 'F2', 'F1']",7.6,180,0.0,0.1435885386928782,[7300|0|0]
73,7300,1.284833312034607,-0.329355925321579,-0.0025227251462638,0.0554699525237083,0.722576379776001,-10.22410011291504,4.1328125,0,"['C1', 'F2', 'F1']",7.6,180,0.0,0.1437822745833234,[7400|0|0]
74,7400,1.2849851846694946,-0.3296301960945129,-0.0024815956130623,0.0585151351988315,0.7329592704772949,-10.214288711547852,4.1328125,0,"['C1', 'F2', 'F1']",7.6,180,0.0,0.1440984729271124,[7500|0|0]
75,7500,1.2847371101379397,-0.329304575920105,-0.0026609923224896,0.0496582239866256,0.743593156337738,-10.21067237854004,4.1328125,0,"['C1', 'F2', 'F1']",7.6,180,0.0,0.1445454098919532,[7600|0|0]
76,7600,1.284761667251587,-0.3292835056781769,-0.0028901023324579,0.0458992384374141,0.7414692044258118,-10.204282760620115,4.1328125,0,"['C1', 'F2', 'F1']",7.6,180,0.0,0.1447767935637912,[7700|0|0]
77,7700,1.284713625907898,-0.3292631804943084,-0.0026858751662075,0.0474754497408866,0.7452079057693481,-10.235198974609377,4.1328125,0,"['C1', 'F2', 'F1']",7.6,180,0.0,0.1449875773848909,[7800|0|0]
78,7800,1.284910798072815,-0.329728752374649,-0.0022551410365849,0.0584511421620845,0.7399481534957886,-10.235918045043944,4.1328125,0,"['C1', 'F2', 'F1']",7.6,180,0.0,0.1456517806134314,[7900|0|0]
79,7900,1.2848683595657349,-0.3296206295490265,-0.0024792063049972,0.048109583556652,0.734756350517273,-10.211692810058594,4.1328125,0,"['C1', 'F2', 'F1']",7.6,180,0.0,0.1459041628965109,[8000|0|0]
80,8000,1.2848390340805054,-0.329364001750946,-0.0030232542194426,0.0495858937501907,0.7316579222679138,-10.233665466308594,4.1328125,0,"['C1', 'F2', 'F1']",7.6,180,0.0,0.1465064136283859,[8100|0|0]
81,8100,1.284791111946106,-0.3291839957237243,-0.0028015915304422,0.0498297363519668,0.7314254641532898,-10.250184059143066,4.1328125,0,"['C1', 'F2', 'F1']",7.6,180,0.0,0.1467959530013499,[8200|0|0]
82,8200,1.2847574949264526,-0.3291607499122619,-0.0028166819829493,0.0525082908570766,0.7293135523796082,-10.247154235839844,4.1328125,0,"['C1', 'F2', 'F1']",7.6,180,0.0,0.1468395212640854,[8300|0|0]
83,8300,1.2848881483078003,-0.3295021653175354,-0.0024290955625474,0.0616027601063251,0.7249689698219299,-10.236568450927734,4.1328125,0,"['C1', 'F2', 'F1']",7.6,180,0.0,0.1473723045392504,[8400|0|0]
84,8400,1.284701228141785,-0.3294792473316192,-0.0024327933788299,0.066171295940876,0.7244540452957153,-10.251174926757812,4.1328125,0,"['C1', 'F2', 'F1']",7.6,180,0.0,0.1475606607347605,[8500|0|0]
85,8500,1.284911870956421,-0.3296073675155639,-0.0025038630701601,0.0675310268998146,0.7164469957351685,-10.240327835083008,4.1328125,0,"['C1', 'F2', 'F1']",7.6,180,0.0,0.1478172461550744,[8600|0|0]
86,8600,1.284920334815979,-0.3295906484127044,-0.0025459704920649,0.0666935965418815,0.7231207489967346,-10.215900421142578,4.1328125,0,"['C1', 'F2', 'F1']",7.6,180,0.0,0.1478633352025642,[8700|0|0]
87,8700,1.2850048542022705,-0.3297018706798553,-0.0023725349456071,0.0671350434422493,0.7240830063819885,-10.21091365814209,4.1328125,0,"['C1', 'F2', 'F1']",7.6,180,0.0,0.1480860318755173,[8800|0|0]
88,8800,1.284632682800293,-0.3294577896595001,-0.0026525044813752,0.0486246794462204,0.7235992550849915,-10.201715469360352,4.1328125,0,"['C1', 'F2', 'F1']",7.6,180,0.0,0.1486118360576095,[8900|0|0]
89,8900,1.2849998474121094,-0.329621821641922,-0.0028924429789185,0.0482734516263008,0.7148395776748657,-10.238945960998535,4.1328125,0,"['C1', 'F2', 'F1']",7.6,180,0.0,0.1490801167704634,[9000|0|0]
90,9000,1.2847528457641602,-0.3294622600078583,-0.0027867530006915,0.0501907803118228,0.7287675142288208,-10.240283966064451,4.1328125,0,"['C1', 'F2', 'F1']",7.6,180,0.0,0.1493925909304388,[9100|0|0]
91,9100,1.284853458404541,-0.329259306192398,-0.0026724410708993,0.0450230464339256,0.7268651723861694,-10.240177154541016,4.1328125,0,"['C1', 'F2', 'F1']",7.6,180,0.0,0.1496463238055399,[9200|0|0]
92,9200,1.2846978902816772,-0.3294529914855957,-0.0024096448905766,0.0521178133785724,0.7313687801361084,-10.220832824707031,4.1328125,0,"['C1', 'F2', 'F1']",7.6,180,0.0,0.1500079552008096,[9300|0|0]
93,9300,1.284807562828064,-0.3293031752109527,-0.0025136652402579,0.0458408370614051,0.7327292561531067,-10.22618579864502,4.1328125,0,"['C1', 'F2', 'F1']",7.6,180,0.0,0.1502207772314518,[9400|0|0]
94,9400,1.2848705053329468,-0.3294647336006164,-0.0025623743422329,0.047731440514326,0.7304602265357971,-10.22421169281006,4.1328125,0,"['C1', 'F2', 'F1']",7.6,180,0.0,0.1504008756734408,[9500|0|0]
95,9500,1.2848490476608276,-0.3294370472431183,-0.0023912759497761,0.0535482838749885,0.7282415628433228,-10.211369514465332,4.1328125,0,"['C1', 'F2', 'F1']",7.6,180,0.0,0.1505755228205276,[9600|0|0]
96,9600,1.2849736213684082,-0.329390674829483,-0.0026168010663241,0.0504502691328525,0.7238686680793762,-10.220041275024414,4.1328125,0,"['C1', 'F2', 'F1']",7.6,180,0.0,0.1508373062951029,[9700|0|0]
97,9700,1.2847394943237305,-0.3295143544673919,-0.0023392357397824,0.059078399091959,0.7279850244522095,-10.208905220031738,4.1328125,0,"['C1', 'F2', 'F1']",7.6,180,0.0,0.1512209136938597,[9800|0|0]
98,9800,1.2849223613739014,-0.3294223248958587,-0.0025053969584405,0.056790143251419,0.7192932367324829,-10.216167449951172,4.1328125,0,"['C1', 'F2', 'F1']",7.6,180,0.0,0.1514845789184547,[9900|0|0]
99,9900,1.284790277481079,-0.3295211791992187,-0.0023529236204922,-0.0928593724966049,0.6691616773605347,-10.223626136779783,4.1328125,0,"['C1', 'F2', 'F1']",7.6,180,0.0,0.151709226301749,[10000|0|0]
100,10000,1.2852391004562378,-0.3294665217399597,-0.0023009430151432,-0.0738891139626503,0.6708099842071533,-10.202140808105469,4.1328125,0,"['C1', 'F2', 'F1']",7.6,180,0.0,0.1521643433023274,[10100|0|0]
101,10100,1.2850515842437744,-0.3293200433254242,-0.0025943573564291,-0.0385486781597137,0.6977145671844482,-10.209487915039062,4.1328125,0,"['C1', 'F2', 'F1']",7.6,180,0.0,0.1525421133799323,[10200|0|0]
102,10200,1.2850360870361328,-0.3294844925403595,-0.0024537392891943,-0.0034384422469884,0.714115560054779,-10.243075370788574,4.1328125,0,"['C1', 'F2', 'F1']",7.6,180,0.0,0.1527590399771267,[10300|0|0]
103,10300,1.2849146127700806,-0.329538494348526,-0.002450780943036,0.0192298460751771,0.7278302907943726,-10.228360176086426,4.1328125,0,"['C1', 'F2', 'F1']",7.6,180,0.0,0.1528920096895058,[10400|0|0]
104,10400,1.2851506471633911,-0.3296181559562683,-0.0023004529066383,0.0357625745236873,0.7300012111663818,-10.237224578857422,4.1328125,0,"['C1', 'F2', 'F1']",7.6,180,0.0,0.1531829679770674,[10500|0|0]
105,10500,1.2847059965133667,-0.3293018639087677,-0.0027472348883748,0.0367624945938587,0.7428792715072632,-10.23324203491211,4.1328125,0,"['C1', 'F2', 'F1']",7.6,180,0.0,0.1538882119058492,[10600|0|0]
106,10600,1.2850714921951294,-0.3297119438648224,-0.0022157849743962,0.0554831959307193,0.7236782312393188,-10.229815483093262,4.1328125,0,"['C1', 'F2', 'F1']",7.6,180,0.0,0.1546525362315204,[10700|0|0]
107,10700,1.2847038507461548,-0.3295460045337677,-0.0026155142113566,0.0564779713749885,0.7306503653526306,-10.240082740783691,4.1328125,0,"['C1', 'F2', 'F1']",7.6,180,0.0,0.1552204090689374,[10800|0|0]
108,10800,1.2848610877990725,-0.3297167122364044,-0.0026489463634788,0.0568014718592166,0.7260835766792297,-10.222865104675291,4.1328125,0,"['C1', 'F2', 'F1']",7.6,180,0.0,0.155454892158616,[10900|0|0]
109,10900,1.2848896980285645,-0.3296018838882446,-0.0026720482856035,0.0476731099188327,0.730233907699585,-10.225950241088867,4.1328125,0,"['C1', 'F2', 'F1']",7.6,180,0.0,0.155575464931573,[11000|0|0]
110,11000,1.2847906351089478,-0.3292670249938965,-0.0029165069572627,0.036215491592884,0.7393385767936707,-10.24532413482666,4.1328125,0,"['C1', 'F2', 'F1']",7.6,180,0.0,0.1560017324336376,[11100|0|0]
111,11100,1.2849607467651367,-0.3295437097549438,-0.0024300764780491,0.0449939668178558,0.737049400806427,-10.250431060791016,4.1328125,0,"['C1', 'F2', 'F1']",7.6,180,0.0,0.1565866316075772,[11200|0|0]
112,11200,1.2848409414291382,-0.3297087550163269,-0.0024633284192532,0.0407925248146057,0.7347937226295471,-10.264451026916504,4.1328125,0,"['C1', 'F2', 'F1']",7.6,180,0.0,0.1567932688463135,[11300|0|0]
113,11300,1.2847959995269775,-0.3297280669212341,-0.0023748388048261,0.0367980562150478,0.7325481176376343,-10.222386360168455,4.1328125,0,"['C1', 'F2', 'F1']",7.6,180,0.0,0.1568943783715938,[11400|0|0]
114,11400,1.2850583791732788,-0.3296314179897308,-0.0023224190808832,0.034353744238615,0.726272463798523,-10.212581634521484,4.1328125,0,"['C1', 'F2', 'F1']",7.6,180,0.0,0.1571788637353863,[11500|0|0]
115,11500,1.2849842309951782,-0.3296610713005066,-0.0023577297106385,0.0345311388373374,0.7286663055419922,-10.198060035705566,4.1328125,0,"['C1', 'F2', 'F1']",7.6,180,0.0,0.1572661798949979,[11600|0|0]
116,11600,1.2849130630493164,-0.3297694027423858,-0.0025535454042255,0.0250814240425825,0.7274337410926819,-10.186992645263672,4.1328125,0,"['C1', 'F2', 'F1']",7.6,180,0.0,0.1575010082656706,[11700|0|0]
117,11700,1.2848483324050903,-0.3295165300369262,-0.0024403652641922,0.0229645669460296,0.7402486801147461,-10.18874740600586,4.1328125,0,"['C1', 'F2', 'F1']",7.6,180,0.0,0.157785515568857,[11800|0|0]
118,11800,1.2848495244979858,-0.3293869197368622,-0.0024839511606842,0.0193324405699968,0.7314110994338989,-10.185434341430664,4.1328125,0,"['C1', 'F2', 'F1']",7.6,180,0.0,0.1579222634439454,[11900|0|0]
119,11900,1.2848844528198242,-0.3293170034885406,-0.002943011932075,0.0096145877614617,0.7243456244468689,-10.194329261779783,4.1328125,0,"['C1', 'F2', 'F1']",7.6,180,0.0,0.1583879296991923,[12000|0|0]
120,12000,1.2850061655044556,-0.3296894133090973,-0.0024394593201577,0.0127561399713158,0.724620521068573,-10.208322525024414,4.1328125,0,"['C1', 'F2', 'F1']",7.6,180,0.0,0.1590259487310525,[12100|0|0]
121,12100,1.284813642501831,-0.3294202983379364,-0.0025599086657166,0.0052019469439983,0.7318399548530579,-10.22570514678955,4.1328125,0,"['C1', 'F2', 'F1']",7.6,180,0.0,0.1593780794157252,[12200|0|0]
122,12200,1.2848708629608154,-0.3295898139476776,-0.0023244814947247,0.0110081993043422,0.7308229804039001,-10.229585647583008,4.1328125,0,"['C1', 'F2', 'F1']",7.6,180,0.0,0.1596737746570017,[12300|0|0]
123,12300,1.284921646118164,-0.3297259509563446,-0.0023610438220202,0.0083419904112815,0.7283793091773987,-10.245902061462402,4.1328125,0,"['C1', 'F2', 'F1']",7.6,180,0.0,0.1598236046205483,[12400|0|0]
124,12400,1.2850323915481567,-0.32963427901268,-0.0020912620238959,-0.0007596561335958,0.7211297154426575,-10.212895393371582,4.1328125,0,"['C1', 'F2', 'F1']",7.6,180,0.0,0.1601293013887986,[12500|0|0]
125,12500,1.2849860191345217,-0.3295907974243164,-0.00225187279284,-0.0019113777671009,0.7262130379676819,-10.200629234313965,4.1328125,0,"['C1', 'F2', 'F1']",7.6,180,0.0,0.1603020349071839,[12600|0|0]
126,12600,1.284732460975647,-0.3297672271728515,-0.0024403883144259,0.0032862389925867,0.7281128764152527,-10.188688278198242,4.1328125,0,"['C1', 'F2', 'F1']",7.6,180,0.0,0.1606639151331964,[12700|0|0]
127,12700,1.2852264642715454,-0.3298964202404022,-0.0025722221471369,-0.0052014803513884,0.710574209690094,-10.185163497924805,4.1328125,0,"['C1', 'F2', 'F1']",7.6,180,0.0,0.1611912767401692,[12800|0|0]
128,12800,1.2848775386810305,-0.3296312689781189,-0.0023636361584067,-0.0093478774651885,0.7247952818870544,-10.194144248962402,4.1328125,0,"['C1', 'F2', 'F1']",7.6,180,0.0,0.1616766244241045,[12900|0|0]
129,12900,1.2849068641662598,-0.3295109868049621,-0.0026667132042348,-0.004779209382832,0.7260434627532959,-10.198013305664062,4.1328125,0,"['C1', 'F2', 'F1']",7.6,180,0.0,0.1620040133075002,[13000|0|0]
130,13000,1.284977912902832,-0.3296251595020294,-0.0023368378169834,0.004040140658617,0.7244019508361816,-10.193790435791016,4.1328125,0,"['C1', 'F2', 'F1']",7.6,180,0.0,0.1623602451124228,[13100|0|0]
131,13100,1.2848840951919556,-0.3295879065990448,-0.0027211853303015,0.003835140261799,0.7341376543045044,-10.211884498596191,4.1328125,0,"['C1', 'F2', 'F1']",7.6,180,0.0,0.1627576272366416,[13200|0|0]
132,13200,1.2850905656814575,-0.329690545797348,-0.002205406781286,0.0064200079068541,0.7340232133865356,-10.22680950164795,4.1328125,0,"['C1', 'F2', 'F1']",7.6,180,0.0,0.1633225983683714,[13300|0|0]
133,13300,1.2848700284957886,-0.3293042778968811,-0.0025892213452607,-0.0025123958475887,0.7399868965148926,-10.21812915802002,4.1328125,0,"['C1', 'F2', 'F1']",7.6,180,0.0,0.1639100957391851,[13400|0|0]
134,13400,1.2847115993499756,-0.329497218132019,-0.0025755148380994,0.0021641729399561,0.7371004819869995,-10.230701446533203,4.1328125,0,"['C1', 'F2', 'F1']",7.6,180,0.0,0.1641601229315396,[13500|0|0]
135,13500,1.2849079370498655,-0.3295702636241913,-0.0024511590600013,0.0076563949696719,0.7300589084625244,-10.222256660461426,4.1328125,0,"['C1', 'F2', 'F1']",7.6,180,0.0,0.1644037383987646,[13600|0|0]
136,13600,1.284897804260254,-0.3294610679149627,-0.0025843698531389,0.004909589421004,0.7333847880363464,-10.22576141357422,4.1328125,0,"['C1', 'F2', 'F1']",7.6,180,0.0,0.1645762825720871,[13700|0|0]
137,13700,1.284833312034607,-0.3295153677463531,-0.0024169711396098,0.010500275529921,0.7227256894111633,-10.223211288452148,4.1328125,0,"['C1', 'F2', 'F1']",7.6,180,0.0,0.1647637126874612,[13800|0|0]
138,13800,1.2848292589187622,-0.3293519616127014,-0.0027868272736668,-0.0031481662299484,0.7168400287628174,-10.228131294250488,4.1328125,0,"['C1', 'F2', 'F1']",7.6,180,0.0,0.1651680783044004,[13900|0|0]
139,13900,1.2848646640777588,-0.3295934498310089,-0.0027332482859492,0.0026028978172689,0.7154000401496887,-10.231735229492188,4.1328125,0,"['C1', 'F2', 'F1']",7.6,180,0.0,0.1654179598619227,[14000|0|0]
140,14000,1.2847628593444824,-0.3294006586074829,-0.0027304883114993,0.0030926782637834,0.7244752645492554,-10.22293472290039,4.1328125,0,"['C1', 'F2', 'F1']",7.6,180,0.0,0.1656359971913988,[14100|0|0]
141,14100,1.2849665880203247,-0.3295789957046509,-0.0022717341780662,0.0031649160664528,0.7111743688583374,-10.195815086364746,4.1328125,0,"['C1', 'F2', 'F1']",7.6,180,0.0,0.1661686930225527,[14200|0|0]
142,14200,1.284962773323059,-0.3296560645103454,-0.002721038646996,0.0033247983083128,0.7125846743583679,-10.208937644958496,4.1328125,0,"['C1', 'F2', 'F1']",7.6,180,0.0,0.1666245753083751,[14300|0|0]
143,14300,1.2850316762924194,-0.3295894861221313,-0.0025739325210452,0.0023092303890734,0.7083940505981445,-10.201010704040527,4.1328125,0,"['C1', 'F2', 'F1']",7.6,180,0.0,0.1668001330289576,[14400|0|0]
144,14400,1.2850465774536133,-0.3295367658138275,-0.0024932513479143,0.0031039544846862,0.7069820761680603,-10.223747253417969,4.1328125,0,"['C1', 'F2', 'F1']",7.6,180,0.0,0.1668976570117021,[14500|0|0]
145,14500,1.2849732637405396,-0.3296153247356415,-0.0023774867877364,0.0140626970678567,0.7115092277526855,-10.21382999420166,4.1328125,0,"['C1', 'F2', 'F1']",7.6,180,0.0,0.1670556058582139,[14600|0|0]
146,14600,1.2848925590515137,-0.3298050463199615,-0.0023464043624699,0.0140031212940812,0.7097276449203491,-10.19046115875244,4.1328125,0,"['C1', 'F2', 'F1']",7.6,180,0.0,0.1672641092000292,[14700|0|0]
147,14700,1.2849174737930298,-0.3298107385635376,-0.0023022659588605,0.0067005627788603,0.7074741721153259,-10.20226001739502,4.1328125,0,"['C1', 'F2', 'F1']",7.6,180,0.0,0.1673151125788871,[14800|0|0]
148,14800,1.2849291563034058,-0.32975634932518,-0.0025139250792562,9.924697951646522e-05,0.7074757814407349,-10.200613021850586,4.1328125,0,"['C1', 'F2', 'F1']",7.6,180,0.0,0.1675339601366631,[14900|0|0]
149,14900,1.2849056720733645,-0.3294950127601623,-0.0024834231007844,-2.885791764128953e-05,0.7022550702095032,-10.195511817932127,4.1328125,0,"['C1', 'F2', 'F1']",7.6,180,0.0,0.1677981166810958,[15000|0|0]
150,15000,1.2850340604782104,-0.3295406997203827,-0.0026506297290325,0.0004834958817809,0.7027900218963623,-10.207786560058594,4.1328125,0,"['C1', 'F2', 'F1']",7.6,180,0.0,0.1680138223540931,[15100|0|0]
151,15100,1.2847466468811035,-0.3294467031955719,-0.0026034072507172,-0.0031459545716643,0.7173022031784058,-10.224635124206545,4.1328125,0,"['C1', 'F2', 'F1']",7.6,180,0.0,0.1683198809839937,[15200|0|0]
152,15200,1.2849241495132446,-0.3294250965118408,-0.0026322903577238,-0.002647919813171,0.7118180394172668,-10.229514122009276,4.1328125,0,"['C1', 'F2', 'F1']",7.6,180,0.0,0.1685010115089453,[15300|0|0]
153,15300,1.285026788711548,-0.3295272290706634,-0.0024408099707216,0.0013879520120099,0.7071218490600586,-10.229802131652832,4.1328125,0,"['C1', 'F2', 'F1']",7.6,180,0.0,0.1687410752571592,[15400|0|0]
154,15400,1.2849440574645996,-0.3296402096748352,-0.0027477275580167,0.0113872243091464,0.7190607786178589,-10.23473072052002,4.1328125,0,"['C1', 'F2', 'F1']",7.6,180,0.0,0.1690784289017693,[15500|0|0]
155,15500,1.2848856449127195,-0.3295552134513855,-0.0026404415257275,0.0056332950480282,0.7248515486717224,-10.2537841796875,4.1328125,0,"['C1', 'F2', 'F1']",7.6,180,0.0,0.169227246497981,[15600|0|0]
156,15600,1.2848538160324097,-0.329530119895935,-0.0024151832330971,0.0063905445858836,0.7237675786018372,-10.23268699645996,4.1328125,0,"['C1', 'F2', 'F1']",7.6,180,0.0,0.1694561221466325,[15700|0|0]
157,15700,1.2849409580230713,-0.3296366930007934,-0.0023808707483112,0.020698232576251,0.7208132743835449,-10.21143913269043,4.1328125,0,"['C1', 'F2', 'F1']",7.6,180,0.0,0.1695979985006447,[15800|0|0]
158,15800,1.2848351001739502,-0.3296585381031036,-0.0028182473033666,0.0156141817569732,0.7181066870689392,-10.229866027832031,4.1328125,0,"['C1', 'F2', 'F1']",7.6,180,0.0,0.1700485330094535,[15900|0|0]
159,15900,1.284865140914917,-0.3296108841896057,-0.0023044031113386,0.0087386583909392,0.7181049585342407,-10.209128379821776,4.1328125,0,"['C1', 'F2', 'F1']",7.6,180,0.0,0.1705654558231022,[16000|0|0]
160,16000,1.2847386598587036,-0.3295102119445801,-0.0026688061188906,0.007614747621119,0.7307658195495605,-10.204748153686523,4.1328125,0,"['C1', 'F2', 'F1']",7.6,180,0.0,0.1709641059333647,[16100|0|0]
161,16100,1.2849475145339966,-0.3296701908111572,-0.0024467841722071,0.0102496463805437,0.7194317579269409,-10.21668529510498,4.1328125,0,"['C1', 'F2', 'F1']",7.6,180,0.0,0.1713083547648111,[16200|0|0]
162,16200,1.2850505113601685,-0.3295531272888183,-0.0025647392030805,0.0074285906739532,0.7271910309791565,-10.24560260772705,4.1328125,0,"['C1', 'F2', 'F1']",7.6,180,0.0,0.1715038684568437,[16300|0|0]
163,16300,1.2846393585205078,-0.3294872343540191,-0.0026317744050174,0.0067059276625514,0.7364327907562256,-10.21852684020996,4.1328125,0,"['C1', 'F2', 'F1']",7.6,180,0.0,0.1719256293544103,[16400|0|0]
164,16400,1.2849751710891724,-0.3297453820705414,-0.0022942346986383,0.0055048349313437,0.7223939895629883,-10.194483757019045,4.1328125,0,"['C1', 'F2', 'F1']",7.6,180,0.0,0.1724672411879232,[16500|0|0]
165,16500,1.2847740650177002,-0.3293332457542419,-0.0027757799252867,-0.0008658393635414,0.736176609992981,-10.19825267791748,4.1328125,0,"['C1', 'F2', 'F1']",7.6,180,0.0,0.1731322117139646,[16600|0|0]
166,16600,1.28486430644989,-0.3294476866722107,-0.0029209684580564,0.0047698249109089,0.7437579035758972,-10.195103645324709,4.1328125,0,"['C1', 'F2', 'F1']",7.6,180,0.0,0.173337929845973,[16700|0|0]
167,16700,1.284742832183838,-0.3294148445129394,-0.0026300786994397,-0.0001511259179096,0.7445634603500366,-10.19952392578125,4.1328125,0,"['C1', 'F2', 'F1']",7.6,180,0.0,0.1736548706234167,[16800|0|0]
168,16800,1.2849304676055908,-0.3297198116779327,-0.0025120158679783,-0.0025994449388235,0.7272592782974243,-10.20600414276123,4.1328125,0,"['C1', 'F2', 'F1']",7.6,180,0.0,0.174031899608235,[16900|0|0]
169,16900,1.2849522829055786,-0.3295973837375641,-0.0025559256318956,-0.0018257275223731,0.7314507365226746,-10.226571083068848,4.1328125,0,"['C1', 'F2', 'F1']",7.6,180,0.0,0.1741637805214247,[17000|0|0]
170,17000,1.284795880317688,-0.329334944486618,-0.002538684522733,-0.0031096797902137,0.731249213218689,-10.22023582458496,4.1328125,0,"['C1', 'F2', 'F1']",7.6,180,0.0,0.1744697762497954,[17100|0|0]
171,17100,1.284907579421997,-0.3296557068824768,-0.0022910626139491,0.0059442711062729,0.7246977686882019,-10.203932762145996,4.1328125,0,"['C1', 'F2', 'F1']",7.6,180,0.0,0.1748901116090151,[17200|0|0]
172,17200,1.2850123643875122,-0.3297200798988342,-0.0024328422732651,0.0051947236061096,0.7254269123077393,-10.20174789428711,4.1328125,0,"['C1', 'F2', 'F1']",7.6,180,0.0,0.1750777955082411,[17300|0|0]
173,17300,1.284936785697937,-0.3295303583145141,-0.0024062432348728,-0.0022426098585128,0.7253102660179138,-10.18409538269043,4.1328125,0,"['C1', 'F2', 'F1']",7.6,180,0.0,0.1752837419253457,[17400|0|0]
174,17400,1.2850011587142944,-0.3294438123703003,-0.0026344466023147,-0.006266473326832,0.7232131958007812,-10.18503761291504,4.1328125,0,"['C1', 'F2', 'F1']",7.6,180,0.0,0.1755361520333181,[17500|0|0]
175,17500,1.2850594520568848,-0.3297182023525238,-0.002278572646901,0.0001993187761399,0.721726655960083,-10.195760726928713,4.1328125,0,"['C1', 'F2', 'F1']",7.6,180,0.0,0.1759892902553617,[17600|0|0]
176,17600,1.2848246097564695,-0.3295844793319702,-0.0026690224185585,0.0062436531297862,0.7317874431610107,-10.20457649230957,4.1328125,0,"['C1', 'F2', 'F1']",7.6,180,0.0,0.1764641415757533,[17700|0|0]
177,17700,1.2848480939865112,-0.3295381367206573,-0.0025045068468898,0.0043031810782849,0.740608274936676,-10.21504020690918,4.1328125,0,"['C1', 'F2', 'F1']",7.6,180,0.0,0.1766366655451182,[17800|0|0]
178,17800,1.2848730087280271,-0.3295366466045379,-0.0026253769174218,0.0025786131154745,0.7406024932861328,-10.25078010559082,4.1328125,0,"['C1', 'F2', 'F1']",7.6,180,0.0,0.1767600857166514,[17900|0|0]
179,17900,1.2848612070083618,-0.3294674158096313,-0.0025593489408493,0.0044190729968249,0.738162636756897,-10.253615379333496,4.1328125,0,"['C1', 'F2', 'F1']",7.6,180,0.0,0.1768564801005164,[18000|0|0]
180,18000,1.2846477031707764,-0.3295229971408844,-0.0026708794757723,0.0113932397216558,0.734779417514801,-10.226178169250488,4.1328125,0,"['C1', 'F2', 'F1']",7.6,180,0.0,0.1771036889864162,[18100|0|0]
181,18100,1.285741090774536,-0.3293730616569519,-0.0025054183788597,0.074094757437706,0.7481528520584106,-10.2250337600708,4.1328125,0,"['C1', 'F2', 'F1']",7.6,180,0.0,0.1782196434998213,[18200|0|0]
182,18200,1.2857861518859863,-0.3294314444065094,-0.0027700995560735,0.1027948334813118,0.7657932639122009,-10.235547065734863,4.1328125,0,"['C1', 'F2', 'F1']",7.6,180,0.0,0.178494407352579,[18300|0|0]
183,18300,1.2857561111450195,-0.3293628096580505,-0.0029108510352671,0.1285103261470794,0.7830326557159424,-10.25669288635254,4.1328125,0,"['C1', 'F2', 'F1']",7.6,180,0.0,0.1786538568860027,[18400|0|0]
184,18400,1.2857846021652222,-0.3295967280864715,-0.0029753954149782,0.1521347910165786,0.785144031047821,-10.261370658874512,4.1328125,0,"['C1', 'F2', 'F1']",7.6,180,0.0,0.1788981836064805,[18500|0|0]
185,18500,1.28574538230896,-0.3296207785606384,-0.0024730048608034,0.1662952303886413,0.7878361940383911,-10.23941135406494,4.1328125,0,"['C1', 'F2', 'F1']",7.6,180,0.0,0.1794026763134218,[18600|0|0]
186,18600,1.2858433723449707,-0.3298952281475067,-0.0027888128533959,0.2033426165580749,0.785902738571167,-10.24039363861084,4.1328125,0,"['C1', 'F2', 'F1']",7.6,180,0.0,0.1798323963514405,[18700|0|0]
187,18700,1.285801649093628,-0.3296014964580536,-0.0023545487783849,0.1588367521762848,0.7637065649032593,-10.231392860412598,4.1328125,0,"['C1', 'F2', 'F1']",7.6,180,0.0,0.1803583283070553,[18800|0|0]
188,18800,1.285851001739502,-0.3294458389282226,-0.0025666030123829,0.1086972877383232,0.73431795835495,-10.252593040466309,4.1328125,0,"['C1', 'F2', 'F1']",7.6,180,0.0,0.1806259697619989,[18900|0|0]
189,18900,1.2857111692428589,-0.3295275568962097,-0.0028069836553186,0.0671383515000343,0.7164186835289001,-10.236366271972656,4.1328125,0,"['C1', 'F2', 'F1']",7.6,180,0.0,0.1809158211151224,[19000|0|0]
190,19000,1.285710334777832,-0.3295754790306091,-0.0023936575744301,0.0495088808238506,0.7173970937728882,-10.214465141296388,4.1328125,0,"['C1', 'F2', 'F1']",7.6,180,0.0,0.181331916869054,[19100|0|0]
191,19100,1.28583025932312,-0.3295831680297851,-0.002360753249377,0.0276152770966291,0.7007461786270142,-10.246573448181152,4.1328125,0,"['C1', 'F2', 'F1']",7.6,180,0.0,0.1814565110578354,[19200|0|0]
192,19200,1.2858669757843018,-0.329223483800888,-0.0027783280238509,0.0108008524402976,0.6906825304031372,-10.27474880218506,4.1328125,0,"['C1', 'F2', 'F1']",7.6,180,0.0,0.1820088601642128,[19300|0|0]
193,19300,1.2856544256210327,-0.3294149935245514,-0.0028394469991326,0.0192174557596445,0.6955345869064331,-10.265707015991213,4.1328125,0,"['C1', 'F2', 'F1']",7.6,180,0.0,0.1823014162704604,[19400|0|0]
194,19400,1.2859314680099487,-0.3295475840568542,-0.0024212684947997,0.0148789128288626,0.6869853734970093,-10.254939079284668,4.1328125,0,"['C1', 'F2', 'F1']",7.6,180,0.0,0.1828202669194903,[19500|0|0]
195,19500,1.285707950592041,-0.3294240236282348,-0.0025751206558197,0.0158292464911937,0.6948522329330444,-10.239142417907717,4.1328125,0,"['C1', 'F2', 'F1']",7.6,180,0.0,0.1831184240979705,[19600|0|0]
196,19600,1.2936073541641235,-0.3176892697811126,0.0018803956918418,-0.4317332208156585,0.4922026097774505,-10.161335945129396,4.1328125,0,"['C1', 'F2', 'F1']",7.6,180,0.0,0.1979493596912316,[19700|0|0]
197,19700,1.293726921081543,-0.3173234164714813,0.0022550150752067,-0.4436052739620209,0.4999953806400299,-10.19089412689209,4.1328125,0,"['C1', 'F2', 'F1']",7.6,180,0.0,0.1984864672915335,[19800|0|0]
198,19800,1.29332435131073,-0.3171471655368805,0.0019492986612021,-0.4427334070205688,0.5200205445289612,-10.17752456665039,4.1328125,0,"['C1', 'F2', 'F1']",7.6,180,0.0,0.1990218076861535,[19900|0|0]
199,19900,1.2935956716537476,-0.3176554441452026,0.0018841673154383,-0.4255332052707672,0.5087076425552368,-10.171109199523926,4.1328125,0,"['C1', 'F2', 'F1']",7.6,180,0.0,0.1996016386653312,[20000|0|0]
200,20000,1.2932785749435425,-0.3173501789569855,0.0022863850463181,-0.4323382973670959,0.5266967415809631,-10.164468765258787,4.1328125,0,"['C1', 'F2', 'F1']",7.6,180,0.0,0.2001978905096002,[20100|0|0]
201,20100,1.2933043241500854,-0.316932737827301,0.0018428124021738,-0.4293019473552704,0.5301191806793213,-10.170278549194336,4.1328125,0,"['C1', 'F2', 'F1']",7.6,180,0.0,0.2008075435330676,[20200|0|0]
202,20200,1.2933428287506104,-0.3170831799507141,0.0022124454844743,-0.4339644610881805,0.5141350626945496,-10.18288803100586,4.1328125,0,"['C1', 'F2', 'F1']",7.6,180,0.0,0.2012084725196594,[20300|0|0]
203,20300,1.293366312980652,-0.3172037005424499,0.0022238658275455,-0.4255872368812561,0.5112565159797668,-10.155242919921877,4.1328125,0,"['C1', 'F2', 'F1']",7.6,180,0.0,0.2013317897785037,[20400|0|0]
204,20400,1.2857609987258911,-0.3294145762920379,-0.002333847573027,0.0295638758689165,0.7138195037841797,-10.218175888061523,4.1328125,0,"['C1', 'F2', 'F1']",7.6,180,0.0,0.2164221523628587,[20500|0|0]
205,20501,1.2933309078216553,-0.3172953724861145,0.0021690393332391,-0.4113613963127136,0.5222556591033936,-10.158382415771484,4.1328125,0,"['C1', 'F2', 'F1']",7.6,180,0.0,0.2314039618362924,[20600|0|0]
206,20601,1.2933745384216309,-0.3170697093009949,0.0019236587686464,-0.4158133864402771,0.5214403867721558,-10.196563720703123,4.1328125,0,"['C1', 'F2', 'F1']",7.6,180,0.0,0.2317401747507565,[20700|0|0]
207,20701,1.2936115264892578,-0.3170790374279022,0.0025070025585591,-0.4130467474460602,0.5145854949951172,-10.202271461486816,4.1328125,0,"['C1', 'F2', 'F1']",7.6,180,0.0,0.2323698892379481,[20800|0|0]
208,20801,1.2933862209320068,-0.3172889649868011,0.0021422728896141,-0.3995761275291443,0.5241774320602417,-10.167813301086426,4.1328125,0,"['C1', 'F2', 'F1']",7.6,180,0.0,0.2328472359730602,[20900|0|0]
209,20901,1.2937031984329224,-0.3172924816608429,0.0019686773885041,-0.4064978659152984,0.5120695233345032,-10.151095390319824,4.1328125,0,"['C1', 'F2', 'F1']",7.6,180,0.0,0.2332086533233474,[21000|0|0]
210,21001,1.2936128377914429,-0.3170835077762604,0.0019931814167648,-0.4072394669055938,0.525993287563324,-10.176520347595217,4.1328125,0,"['C1', 'F2', 'F1']",7.6,180,0.0,0.2334376414832314,[21100|0|0]
211,21101,1.2935829162597656,-0.3170396983623504,0.0021286506671458,-0.4148683845996856,0.512578547000885,-10.169986724853516,4.1328125,0,"['C1', 'F2', 'F1']",7.6,180,0.0,0.2335831285294033,[21200|0|0]
212,21201,1.2935563325881958,-0.3170181214809418,0.0020142872817814,-0.4114459753036499,0.5188654065132141,-10.156579971313477,4.1328125,0,"['C1', 'F2', 'F1']",7.6,180,0.0,0.2337025070757065,[21300|0|0]
213,21301,1.2932597398757937,-0.3173527121543884,0.0020111948251724,-0.3994278907775879,0.522978663444519,-10.13795280456543,4.1328125,0,"['C1', 'F2', 'F1']",7.6,180,0.0,0.2341496398513958,[21400|0|0]
214,21401,1.2936060428619385,-0.3173129260540008,0.00193166884128,-0.4022144377231598,0.5182958841323853,-10.149636268615724,4.1328125,0,"['C1', 'F2', 'F1']",7.6,180,0.0,0.2345071773656667,[21500|0|0]
215,21502,1.2929112911224363,-0.3166504800319671,0.0025095616001635,-0.4039389789104461,0.5252260565757751,-10.15852165222168,4.1328125,0,"['C1', 'F2', 'F1']",7.6,180,0.0,0.2356276570631264,[21600|0|0]
216,21602,1.292765498161316,-0.3169107437133789,0.002404605736956,-0.3852356076240539,0.5258790850639343,-10.159092903137209,4.1328125,0,"['C1', 'F2', 'F1']",7.6,180,0.0,0.2359438982758042,[21700|0|0]
217,21702,1.2928816080093384,-0.3165201842784881,0.0024961701128631,-0.4001339972019195,0.5232405662536621,-10.137351036071776,4.1328125,0,"['C1', 'F2', 'F1']",7.6,180,0.0,0.2363615131748742,[21800|0|0]
218,21802,1.2928032875061035,-0.3171584010124206,0.0024052700027823,-0.3758993446826935,0.5314989686012268,-10.149660110473633,4.1328125,0,"['C1', 'F2', 'F1']",7.6,180,0.0,0.2370109109964837,[21900|0|0]
219,21902,1.293243646621704,-0.3167744576931,0.0025615533813834,-0.3956322968006134,0.5256072282791138,-10.153735160827637,4.1328125,0,"['C1', 'F2', 'F1']",7.6,180,0.0,0.2376156862585195,[22000|0|0]
220,22002,1.2927093505859375,-0.3165778815746307,0.0021014553494751,-0.3982230722904205,0.5454955101013184,-10.176631927490234,4.1328125,0,"['C1', 'F2', 'F1']",7.6,180,0.0,0.2383476730228494,[22100|0|0]
221,22102,1.292870283126831,-0.3164893984794616,0.0023417784832417,-0.4019520878791809,0.5335462689399719,-10.182312965393066,4.1328125,0,"['C1', 'F2', 'F1']",7.6,180,0.0,0.2386501358296085,[22200|0|0]
222,22202,1.2930279970169067,-0.3168110251426697,0.0026202599983662,-0.3934308886528015,0.5237171649932861,-10.173775672912598,4.1328125,0,"['C1', 'F2', 'F1']",7.6,180,0.0,0.2391038640917601,[22300|0|0]
223,22302,1.292743444442749,-0.3167226612567901,0.0023915958590805,-0.3905388414859772,0.5312885046005249,-10.156527519226074,4.1328125,0,"['C1', 'F2', 'F1']",7.6,180,0.0,0.2394794511420997,[22400|0|0]
224,22400,1.29304039478302,-0.3168530464172363,0.0026210674550384,-0.3879688084125519,0.5244351625442505,-10.177699089050291,4.1328125,0,"['C1', 'F2', 'F1']",7.6,180,0.0,0.2398767382020489,[22500|0|0]
225,22500,1.2933107614517212,-0.3171839118003845,0.0023643006570637,-0.3830114006996155,0.5315560102462769,-10.15766429901123,4.1328125,0,"['C1', 'F2', 'F1']",7.6,180,0.0,0.2403752351687925,[22600|0|0]
226,22600,1.2932002544403076,-0.3171519637107849,0.0020386714022606,-0.3821114897727966,0.5332300662994385,-10.143019676208496,4.1328125,0,"['C1', 'F2', 'F1']",7.6,180,0.0,0.2407205855583742,[22700|0|0]
227,22700,1.2934359312057495,-0.3171120882034302,0.0021333554759621,-0.3836672902107239,0.5311220288276672,-10.142034530639648,4.1328125,0,"['C1', 'F2', 'F1']",7.6,180,0.0,0.2409776821699206,[22800|0|0]
228,22800,1.2933845520019531,-0.3172469437122345,0.0018360356334596,-0.3816821575164795,0.5342795848846436,-10.157533645629885,4.1328125,0,"['C1', 'F2', 'F1']",7.6,180,0.0,0.2413081741056517,[22900|0|0]
229,22900,1.2931462526321411,-0.3174133896827698,0.0020633733365684,-0.3785364925861358,0.5381924510002136,-10.168740272521973,4.1328125,0,"['C1', 'F2', 'F1']",7.6,180,0.0,0.2416771907475732,[23000|0|0]
230,23000,1.2935811281204224,-0.3171157538890838,0.0020180349238216,-0.3941759765148163,0.5245248079299927,-10.192575454711914,4.1328125,0,"['C1', 'F2', 'F1']",7.6,180,0.0,0.2422061135469129,[23100|0|0]
231,23100,1.2931890487670898,-0.317404180765152,0.0019857394509017,-0.390527606010437,0.5355018377304077,-10.195921897888184,4.1328125,0,"['C1', 'F2', 'F1']",7.6,180,0.0,0.2426939242476147,[23200|0|0]
232,23200,1.2934354543685913,-0.3170334696769714,0.0021256350446492,-0.4042830765247345,0.534927248954773,-10.17606258392334,4.1328125,0,"['C1', 'F2', 'F1']",7.6,180,0.0,0.243160521727785,[23300|0|0]
233,23300,1.2933887243270874,-0.3172717988491058,0.0023515303619205,-0.3984301686286926,0.5334097743034363,-10.171156883239746,4.1328125,0,"['C1', 'F2', 'F1']",7.6,180,0.0,0.2434922040840151,[23400|0|0]
234,23400,1.2934012413024902,-0.3173717856407165,0.002414172515273,-0.3865080773830414,0.5342065691947937,-10.159052848815918,4.1328125,0,"['E1B', 'F2', 'G1']",7.6,180,0.0,0.243610855137725,[23400|0|0]
235,23500,1.293391227722168,-0.317190557718277,0.0022961213253438,-0.3842796683311462,0.5558820366859436,-10.206990242004396,3.119140625,0,"['E1B', 'F2', 'G1']",7.6,180,0.0,0.2438273728393255,[23400|0|0]
236,23600,1.2932335138320925,-0.3169772922992706,0.004327418282628,1.256629467010498,-0.473119705915451,-8.696134567260742,3.478515625,0,"['E1B', 'F2', 'G1']",7.6,180,0.0,0.2458759145496011,[23400|0|0]
237,23700,1.2952884435653689,-0.3197126984596252,0.030134605243802,3.675024032592773,-3.7760143280029297,-2.283998250961304,3.658203125,0,"['E1B', 'F2', 'G1']",7.6,180,0.0,0.2719088952072169,[23400|0|0]
238,23800,1.3019061088562012,-0.3257550895214081,0.0790942162275314,-0.6414501667022705,-0.0775584504008293,1.1200151443481443,3.6640625,0,"['E1B', 'F2', 'G1']",7.6,180,0.0,0.321681854646285,[23400|0|0]
239,23900,1.3076657056808472,-0.32786625623703,0.1437180638313293,-3.1835925579071045,1.8990492820739744,2.2824106216430664,3.68359375,0,"['E1B', 'F2', 'G1']",7.6,180,0.0,0.3865961955857301,[23400|0|0]
240,24000,1.3089057207107544,-0.3228185474872589,0.2172121405601501,-3.266317844390869,2.8646931648254395,2.0658297538757324,3.689453125,0,"['E1B', 'F2', 'G1']",7.6,180,0.0,0.4602738469809714,[23400|0|0]
241,24100,1.3055870532989502,-0.3105943202972412,0.2961220443248749,-2.0158166885375977,2.5661418437957764,1.5913097858428955,3.689453125,0,"['E1B', 'F2', 'G1']",7.6,180,0.0,0.5401939207793699,[23400|0|0]
242,24200,1.297908067703247,-0.2954200804233551,0.3768312931060791,0.1350571513175964,1.1305335760116575,1.2547409534454346,3.689453125,0,"['E1B', 'F2', 'G1']",7.6,180,0.0,0.6226754775927301,[23400|0|0]
243,24300,1.287959098815918,-0.2797663807868957,0.4585134088993072,1.7274448871612549,0.2754586935043335,1.259252667427063,3.68359375,0,"['E1B', 'F2', 'G1']",7.6,180,0.0,0.7064369743241512,[23400|0|0]
244,24400,1.277550220489502,-0.2682581543922424,0.542445719242096,2.867192506790161,-0.3140777945518493,0.9606327414512634,3.6796875,0,"['E1B', 'F2', 'G1']",7.6,180,0.0,0.7917916270517145,[23400|0|0]
245,24500,1.2672497034072876,-0.2618615925312042,0.6279824376106262,3.271542549133301,-1.1648848056793213,0.3566109836101532,3.673828125,0,"['E1B', 'F2', 'G1']",7.6,180,0.0,0.8781834486846697,[23400|0|0]
246,24600,1.2575515508651731,-0.2608098983764648,0.7161598801612854,2.4084455966949463,-0.7861216068267822,0.0120230466127395,3.6796875,0,"['E1B', 'F2', 'G1']",7.6,180,0.0,0.9668988453083676,[23400|0|0]
247,24700,1.2490655183792114,-0.2646007537841797,0.8065098524093628,2.1338207721710205,-1.6213921308517456,-0.2261010706424713,3.673828125,0,"['E1B', 'F2', 'G1']",7.6,180,0.0,1.0577256079794182,[23400|0|0]
248,24800,1.2415690422058103,-0.2716120779514313,0.8989621996879578,0.407192200422287,-0.7744200229644775,-0.4801183640956878,3.673828125,0,"['E1B', 'F2', 'G1']",7.6,180,0.0,1.150745994663836,[23400|0|0]
249,24900,1.2349023818969729,-0.2785835862159729,0.9931994080543518,-0.0515843592584133,-0.8292957544326782,-0.6362190246582031,3.68359375,0,"['E1B', 'F2', 'G1']",7.6,180,0.0,1.2454755978924317,[23400|0|0]
250,25000,1.2286596298217771,-0.2851343154907226,1.0888283252716064,-0.0851095914840698,-1.3908847570419312,3.398478984832764,3.6796875,0,"['E1B', 'F2', 'G1']",7.6,180,0.0,1.3415316951254963,[23400|0|0]
251,25100,1.2236695289611816,-0.2905322611331939,1.1842082738876345,-0.1177408248186111,-1.8181490898132324,7.597473621368408,3.66796875,0,"['E1B', 'F2', 'G1']",7.6,180,0.0,1.4371945067178498,[23400|0|0]
252,25200,1.2205042839050293,-0.2954574227333069,1.280815362930298,0.155200257897377,-1.2415847778320312,8.992510795593262,3.66796875,0,"['E1B', 'F2', 'G1']",7.6,180,0.0,1.533978832134468,[23400|0|0]
253,25300,1.2186836004257202,-0.3025895655155182,1.3748884201049805,-0.1751748025417328,-0.6166530251502991,8.764098167419434,3.689453125,0,"['E1B', 'F2', 'G1']",7.6,180,0.0,1.6283394300299283,[23400|0|0]
254,25400,1.21870219707489,-0.3083913624286651,1.4685534238815308,-1.3980261087417605,0.3628861904144287,7.6374831199646,3.7265625,0,"['E1B', 'F2', 'G1']",7.6,180,0.0,1.7221839510512325,[23400|0|0]
255,25500,1.217703104019165,-0.3154111206531524,1.5505801439285278,-0.8304131627082825,0.6156056523323059,1.371496319770813,3.748046875,0,"['E1B', 'F2', 'G1']",7.6,180,0.0,1.8045165569503088,[23400|0|0]
256,25600,1.2171274423599243,-0.3184656500816345,1.6223986148834229,-1.719812035560608,1.653083324432373,-1.1842705011367798,3.748046875,0,"['E1B', 'F2', 'G1']",7.6,180,0.0,1.8764022600259167,[23400|0|0]
257,25700,1.2121105194091797,-0.3232094943523407,1.6759556531906128,-1.0029200315475464,1.8543111085891724,-5.11545991897583,3.736328125,0,"['E1B', 'F2', 'G1']",7.6,180,0.0,1.93040253712332,[23400|0|0]
258,25800,1.2059035301208496,-0.3218007385730743,1.7160972356796265,-0.4348968863487243,1.2231097221374512,0.1497406810522079,3.732421875,0,"['E1B', 'F2', 'G1']",7.6,180,0.0,1.9710455925398769,[23400|0|0]
259,25900,1.2000752687454224,-0.3201926648616791,1.7431758642196655,-0.1923733204603195,0.9392356872558594,2.8048465251922607,3.7265625,0,"['E1B', 'F2', 'G1']",7.6,180,0.0,1.998790982343068,[23400|0|0]
260,26000,1.1849535703659058,-0.3163500726222992,1.7589528560638428,0.1938859969377517,-0.6600192189216614,4.335749626159668,3.705078125,0,"['E1B', 'F2', 'G1']",7.6,180,0.0,2.020979825229763,[23400|0|0]
261,26100,1.174225926399231,-0.3112775385379791,1.7683651447296145,0.4206461608409881,-1.3844528198242188,4.690903186798096,3.701171875,0,"['E1B', 'F2', 'G1']",7.6,180,0.0,2.0361259179615576,[23400|0|0]
262,26200,1.1661968231201172,-0.3128958940505981,1.7730275392532349,0.4236051142215729,-2.3978676795959477,4.0658159255981445,3.6953125,0,"['E1B', 'F2', 'G1']",7.6,180,0.0,2.045550539796188,[23400|0|0]
263,26300,1.1603106260299685,-0.3163058161735534,1.766748547554016,0.1283051669597625,-2.3465230464935303,1.3517128229141235,3.68359375,0,"['E1B', 'F2', 'G1']",7.6,180,0.0,2.054808002830278,[23400|0|0]
264,26400,1.1525152921676636,-0.3151649236679077,1.7608698606491089,-0.4342287182807922,-3.4010448455810547,-0.5631300210952759,3.673828125,0,"['E1B', 'F2', 'G1']",7.6,180,49.2538364361192,2.06463794817398,[23400|0|0]
265,26500,1.149564504623413,-0.3161140084266662,1.7505930662155151,-0.7998077273368835,-2.634528160095215,-4.199070930480957,3.66796875,0,"['E1B', 'F2', 'G1']",7.6,180,49.2538364361192,2.075372025350941,[23400|0|0]
266,26600,1.1564490795135498,-0.3305434286594391,1.7428081035614014,-6.634767055511475,4.209693908691406,-7.298660278320312,3.611328125,0,"['E1B', 'F2', 'G1']",7.6,180,49.2538364361192,2.093154353184996,[23400|0|0]
267,26700,1.1543108224868774,-0.3303818702697754,1.7372980117797852,-13.869797706604004,16.17648696899414,-11.56499481201172,3.62109375,0,"['E1B', 'F2', 'G1']",7.6,180,49.2538364361192,2.099066996897179,[23400|0|0]
268,26800,1.1430226564407349,-0.2857027649879455,1.7374882698059082,-16.80902671813965,17.56825065612793,-13.06124496459961,3.62109375,0,"['E1B', 'F2', 'G1']",7.6,180,49.2538364361192,2.1451504140836968,[23400|0|0]
269,26900,1.103806734085083,-0.1861374527215957,1.7418252229690552,-14.11883544921875,17.35870361328125,-14.391721725463867,3.63671875,0,"['E1B', 'F2', 'G1']",7.6,180,49.2538364361192,2.252248262501112,[23400|0|0]
270,27000,1.1554030179977417,-0.0896145328879356,1.7369590997695925,-5.029625415802002,8.090459823608398,-8.880797386169434,3.6484375,0,"['E1B', 'F2', 'G1']",7.6,180,49.2538364361192,2.3618043199411423,[23400|0|0]
271,27100,1.1439640522003174,0.0306231342256069,1.7423269748687744,6.136543273925781,13.719474792480469,-8.714054107666016,3.6484375,0,"['E1B', 'F2', 'G1']",7.6,180,49.2538364361192,2.48270411569987,[23400|0|0]
272,27200,1.1134445667266846,0.1438836604356765,1.750363826751709,12.710251808166504,11.54994297027588,-7.049952507019043,3.658203125,0,"['E1B', 'F2', 'G1']",7.6,180,49.2538364361192,2.600279524604732,[23400|0|0]
273,27300,1.063060641288757,0.2421128749847412,1.7587881088256836,15.524986267089844,8.740814208984375,-5.845466613769531,3.658203125,0,"['E1B', 'F2', 'G1']",7.6,180,49.2538364361192,2.710997576709719,[23400|0|0]
274,27400,0.9974270462989808,0.3159623444080353,1.763819456100464,16.222177505493164,4.1480712890625,-4.905311107635498,3.658203125,0,"['E1B', 'F2', 'G1']",7.6,180,49.2538364361192,2.809925971929613,[23400|0|0]
275,27500,0.9250140190124512,0.3676268458366394,1.773998737335205,14.285422325134276,-0.3538413345813751,-7.368735313415527,3.642578125,0,"['E1B', 'F2', 'G1']",7.6,180,49.2538364361192,2.899460797529052,[23400|0|0]
276,27600,0.8460826277732849,0.4014193117618561,1.773655652999878,10.770197868347168,-5.961563587188721,-15.215888023376465,3.65234375,0,"['E1B', 'F2', 'G1']",7.6,180,49.2538364361192,2.985322389542701,[23400|0|0]
277,27700,0.777548611164093,0.4122925102710724,1.7773693799972534,8.391389846801758,-8.2844877243042,-11.120489120483398,3.65234375,0,"['E1B', 'F2', 'G1']",7.6,180,49.2538364361192,3.0548128899483022,[23400|0|0]
278,27800,0.7232484221458435,0.4114856719970703,1.7858779430389404,5.594970703125,-8.468683242797852,-2.645530462265014,3.642578125,0,"['E1B', 'F2', 'G1']",7.6,180,49.2538364361192,3.109781582496446,[23400|0|0]
279,27900,0.6758915781974792,0.4167669117450714,1.7823503017425537,2.560739278793335,-8.615645408630371,-0.6121772527694702,3.66796875,0,"['E1B', 'F2', 'G1']",7.6,180,49.2538364361192,3.157562398889028,[23400|0|0]
280,28000,0.6327306032180786,0.4285426437854767,1.7778809070587158,2.589092254638672,-8.145227432250977,0.9723955988883972,3.642578125,0,"['E1B', 'F2', 'G1']",7.6,180,49.2538364361192,3.202523639030952,[23400|0|0]
281,28100,0.6055015325546265,0.4351797103881836,1.7779552936553955,2.548720598220825,-7.367008209228516,1.1670715808868408,3.658203125,0,"['E1B', 'F2', 'G1']",7.6,180,49.2538364361192,3.230550027946576,[23400|0|0]
282,28200,0.5820956230163574,0.4466448426246643,1.7802801132202148,3.5117056369781494,-7.039855480194092,0.5170331597328186,3.658203125,0,"['E1B', 'F2', 'G1']",7.6,180,49.2538364361192,3.25671662200317,[23400|0|0]
283,28300,0.5715755224227905,0.4511830508708954,1.7863726615905762,3.3073878288269043,-6.290833950042725,-0.018409626558423,3.642578125,0,"['E1B', 'F2', 'G1']",7.6,180,49.2538364361192,3.269693023516306,[23400|0|0]
284,28400,0.5615054965019226,0.4592577219009399,1.774195432662964,3.035966157913208,-4.614892959594727,0.2108773440122604,3.66796875,0,"['E1B', 'F2', 'G1']",7.6,180,49.2538364361192,3.287438181691027,[23400|0|0]
285,28500,0.5533950924873352,0.4692867398262024,1.7769699096679688,4.255192756652832,-4.32012414932251,3.639484405517578,3.6484375,0,"['E1B', 'F2', 'G1']",7.6,180,49.2538364361192,3.300631269899493,[23400|0|0]
286,28600,0.5554081797599792,0.4675064980983734,1.7673357725143433,4.308043956756592,-3.8533260822296143,4.557039737701416,3.63671875,0,"['E1B', 'F2', 'G1']",7.6,180,49.2538364361192,3.310633188698986,[23400|0|0]
287,28700,0.5618677735328674,0.4615737199783325,1.7606979608535769,3.9941561222076416,-3.236658811569214,4.00417423248291,3.6484375,0,"['E1B', 'F2', 'G1']",7.6,180,49.2538364361192,3.3216324955669747,[23400|0|0]
288,28800,0.5713831186294556,0.4510785043239593,1.7513856887817385,2.9449799060821533,-1.789422631263733,6.302881240844727,3.642578125,0,"['E1B', 'F2', 'G1']",7.6,180,49.2538364361192,3.3385856591383822,[23400|0|0]
289,28900,0.5838937163352966,0.4352505207061767,1.743718504905701,2.2298812866210938,-1.5525201559066772,4.017503261566162,3.63671875,0,"['E1B', 'F2', 'G1']",7.6,180,49.2538364361192,3.360168657747268,[23400|0|0]
290,29000,0.5972146987915039,0.4172894358634949,1.7385368347167969,0.60390704870224,-0.9902881383895874,2.7197885513305664,3.630859375,0,"['E1B', 'F2', 'G1']",7.6,180,49.2538364361192,3.3831229350887826,[23400|0|0]
291,29100,0.611852765083313,0.3992997109889984,1.7341465950012207,-0.954698383808136,0.2897647321224212,1.763930320739746,3.658203125,0,"['E1B', 'F2', 'G1']",7.6,180,49.2538364361192,3.4067275403721524,[23400|0|0]
292,29200,0.6248325705528259,0.3846958875656128,1.7298903465270996,-1.0152480602264404,0.0701631158590316,1.4659916162490845,3.6484375,0,"['E1B', 'F2', 'G1']",7.6,180,49.2538364361192,3.4267241065694094,[23400|0|0]
293,29300,0.6358304619789124,0.3706393539905548,1.7230186462402344,-1.6532155275344849,0.581181526184082,1.1836968660354614,3.642578125,0,"['E1B', 'F2', 'G1']",7.6,180,49.2538364361192,3.445848959949219,[23400|0|0]
294,29400,0.6448893547058105,0.3579533994197845,1.7127201557159424,-1.8966904878616333,0.8114374279975891,0.884355902671814,3.63671875,0,"['E1B', 'F2', 'G1']",7.6,180,49.2538364361192,3.464531997386638,[23400|0|0]
