,time.ms,stateEstimate.x,stateEstimate.y,stateEstimate.z,stabilizer.roll,stabilizer.pitch,stabilizer.yaw,pm.vbat,drone_id,node_name,wind_speed,global_wind_direction,relative_wind_direction,travel_dist,waiting_time
0,0,1.683768391609192,1.1766605377197266,0.0,0.0645555332303047,0.714271068572998,-2.589338541030884,4.16015625,1,"['C1', 'F2', 'F1']",7.6,90,450.0,0.0,[6200|0|0]
1,100,1.6836708784103394,1.176685094833374,0.0,0.0619141608476638,0.7185794115066528,-2.5789954662323,4.15234375,1,"['C1', 'F2', 'F1']",7.6,90,450.0,0.0001005578230728,[6300|0|0]
2,200,1.6837633848190308,1.176296949386597,0.0,0.0675829574465751,0.7163888812065125,-2.597721099853516,4.16015625,1,"['C1', 'F2', 'F1']",7.6,90,450.0,0.0004995745188423,[6400|0|0]
3,300,1.6838791370391846,1.1763349771499634,0.0,0.0605406574904918,0.7183029055595398,-2.5897440910339355,4.16015625,1,"['C1', 'F2', 'F1']",7.6,90,450.0,0.000621413294514,[6500|0|0]
4,400,1.68364679813385,1.1761720180511477,0.0,0.065087653696537,0.7324402332305908,-2.5694823265075684,4.16015625,1,"['C1', 'F2', 'F1']",7.6,90,450.0,0.000905203771484,[6600|0|0]
5,500,1.6840838193893433,1.1763916015625,0.0,0.0637292638421058,0.7279238700866699,-2.58443021774292,4.16015625,1,"['C1', 'F2', 'F1']",7.6,90,450.0,0.001394289138481,[6700|0|0]
6,600,1.6837999820709229,1.1765830516815186,0.0,0.0542814098298549,0.7347124814987183,-2.5925450325012207,4.16015625,1,"['C1', 'F2', 'F1']",7.6,90,450.0,0.001736658487869,[6800|0|0]
7,700,1.6839720010757446,1.1766357421875,0.0,0.0527839921414852,0.7274410128593445,-2.6093032360076904,4.16015625,1,"['C1', 'F2', 'F1']",7.6,90,450.0,0.0019165663182724,[6900|0|0]
8,800,1.6839529275894165,1.1765412092208862,0.0,0.0527071543037891,0.7267606258392334,-2.615199565887451,4.16015625,1,"['C1', 'F2', 'F1']",7.6,90,450.0,0.002013004275828,[7000|0|0]
9,900,1.6837056875228882,1.1762809753417969,0.0,0.0583772882819175,0.7407877445220947,-2.623444080352783,4.16015625,1,"['C1', 'F2', 'F1']",7.6,90,450.0,0.0023719601537891,[7100|0|0]
10,1000,1.6836795806884766,1.1765861511230469,0.0,0.0453252792358398,0.7369939684867859,-2.63759446144104,4.16015625,1,"['C1', 'F2', 'F1']",7.6,90,450.0,0.0026782505784918,[7200|0|0]
11,1100,1.6838006973266602,1.176435112953186,0.0,0.0486510023474693,0.7335764765739441,-2.61700701713562,4.16015625,1,"['C1', 'F2', 'F1']",7.6,90,450.0,0.002871852667323,[7300|0|0]
12,1200,1.683513879776001,1.1760833263397217,0.0,0.0757561549544334,0.6692285537719727,-2.6545209884643555,4.16015625,1,"['C1', 'F2', 'F1']",7.6,90,450.0,0.0033257448668361,[7400|0|0]
13,1300,1.6839845180511477,1.176181077957153,0.0,0.0636016204953193,0.683452308177948,-2.628443479537964,4.16015625,1,"['C1', 'F2', 'F1']",7.6,90,450.0,0.0038064274697494,[7500|0|0]
14,1400,1.684206247329712,1.1763759851455688,0.0,-0.0077022635377943,0.6683132648468018,-2.641287326812744,4.16015625,1,"['C1', 'F2', 'F1']",7.6,90,450.0,0.004101643805796,[7600|0|0]
15,1500,1.6841723918914795,1.176427960395813,0.0,-0.0598746538162231,0.6534878015518188,-2.629892587661743,4.16015625,1,"['C1', 'F2', 'F1']",7.6,90,450.0,0.0041636729709995,[7700|0|0]
16,1600,1.6838749647140503,1.1765576601028442,0.0,-0.0453536547720432,0.6814266443252563,-2.61422085762024,4.16015625,1,"['C1', 'F2', 'F1']",7.6,90,450.0,0.0044881493798146,[7800|0|0]
17,1700,1.683974266052246,1.176008701324463,0.0,-0.0252052750438451,0.6974223852157593,-2.5825228691101074,4.16015625,1,"['C1', 'F2', 'F1']",7.6,90,450.0,0.0050460171922302,[7900|0|0]
18,1800,1.6838433742523191,1.1764070987701416,0.0,0.005207153968513,0.7233169674873352,-2.578121900558472,4.16015625,1,"['C1', 'F2', 'F1']",7.6,90,450.0,0.0054653657203204,[8000|0|0]
19,1900,1.6839269399642944,1.1767717599868774,0.0,-0.0502058826386928,0.6789709329605103,-2.5773072242736816,4.15234375,1,"['C1', 'F2', 'F1']",7.6,90,450.0,0.0058394793811365,[8100|0|0]
20,2000,1.6838270425796509,1.177045226097107,0.0,-0.0320494100451469,0.6866953372955322,-2.579244613647461,4.16015625,1,"['C1', 'F2', 'F1']",7.6,90,450.0,0.006130620585542,[8200|0|0]
21,2100,1.6843005418777466,1.1765283346176147,0.0,-0.0006031785160303,0.6959476470947266,-2.600577116012573,4.16015625,1,"['C1', 'F2', 'F1']",7.6,90,450.0,0.0068316044561615,[8300|0|0]
22,2200,1.684255599975586,1.1763408184051514,0.0,0.0160947740077972,0.7016472816467285,-2.6005802154541016,4.16015625,1,"['C1', 'F2', 'F1']",7.6,90,450.0,0.0070244310738947,[8400|0|0]
23,2300,1.6840827465057373,1.176262140274048,0.0,0.0326826572418212,0.7159954309463501,-2.59574031829834,4.16015625,1,"['C1', 'F2', 'F1']",7.6,90,450.0,0.0072143483462862,[8500|0|0]
24,2400,1.684269905090332,1.175991415977478,0.0,0.0425069257616996,0.7038326263427734,-2.605703592300415,4.16015625,1,"['C1', 'F2', 'F1']",7.6,90,450.0,0.0075434683556154,[8600|0|0]
25,2500,1.6842325925827026,1.1759581565856934,0.0,0.0452127940952777,0.7071750164031982,-2.60270094871521,4.15234375,1,"['C1', 'F2', 'F1']",7.6,90,450.0,0.0075934524567625,[8700|0|0]
26,2600,1.684576153755188,1.1759912967681885,0.0,0.0435048751533031,0.695802628993988,-2.5898399353027344,4.16015625,1,"['C1', 'F2', 'F1']",7.6,90,450.0,0.0079386082924879,[8800|0|0]
27,2700,1.684008002281189,1.1761049032211304,0.0,0.0461660176515579,0.7061376571655273,-2.600409030914306,4.16015625,1,"['C1', 'F2', 'F1']",7.6,90,450.0,0.008518006707706,[8900|0|0]
28,2800,1.6843599081039429,1.1760982275009155,0.0,0.043848268687725,0.6936785578727722,-2.59913969039917,4.16015625,1,"['C1', 'F2', 'F1']",7.6,90,450.0,0.0088699758446037,[9000|0|0]
29,2900,1.6842257976531982,1.176003098487854,0.0,0.0435710661113262,0.6934206485748291,-2.578549385070801,4.16015625,1,"['C1', 'F2', 'F1']",7.6,90,450.0,0.0090343995111636,[9100|0|0]
30,3000,1.68442964553833,1.176271677017212,0.0,0.0305975154042243,0.6847133636474609,-2.5856072902679443,4.16015625,1,"['C1', 'F2', 'F1']",7.6,90,450.0,0.0093715765962461,[9200|0|0]
31,3100,1.6841312646865845,1.1761980056762695,0.0,0.033578272908926,0.6853697896003723,-2.602299451828003,4.15234375,1,"['C1', 'F2', 'F1']",7.6,90,450.0,0.0096789177733843,[9300|0|0]
32,3200,1.684183955192566,1.1762216091156006,0.0,0.0320966243743896,0.6822344064712524,-2.591693162918091,4.16015625,1,"['C1', 'F2', 'F1']",7.6,90,450.0,0.0097366534795707,[9400|0|0]
33,3300,1.684442400932312,1.176382541656494,0.0,0.0291259791702032,0.6846190690994263,-2.5789291858673096,4.16015625,1,"['C1', 'F2', 'F1']",7.6,90,450.0,0.0100411095241999,[9500|0|0]
34,3400,1.6843732595443726,1.176167130470276,0.0,0.0315282493829727,0.680232048034668,-2.57947325706482,4.15234375,1,"['C1', 'F2', 'F1']",7.6,90,450.0,0.010267345044563,[9600|0|0]
35,3500,1.6843721866607666,1.176322102546692,0.0,0.0242529921233654,0.6846825480461121,-2.59049391746521,4.16015625,1,"['C1', 'F2', 'F1']",7.6,90,450.0,0.0104223208347622,[9700|0|0]
36,3600,1.684123992919922,1.176205277442932,0.0,0.0181901305913925,0.6920285224914551,-2.626077890396118,4.16015625,1,"['C1', 'F2', 'F1']",7.6,90,450.0,0.0106966349573715,[9800|0|0]
37,3700,1.6842567920684814,1.1763249635696411,0.0,0.0123552232980728,0.6849926710128784,-2.615389108657837,4.16015625,1,"['C1', 'F2', 'F1']",7.6,90,450.0,0.0108754096277942,[9900|0|0]
38,3800,1.684058666229248,1.1759347915649414,0.0,0.0347557738423347,0.689327597618103,-2.6086843013763428,4.16015625,1,"['C1', 'F2', 'F1']",7.6,90,450.0,0.0113130030937227,[10000|0|0]
39,3900,1.684411644935608,1.1760294437408447,0.0,0.03280546143651,0.6751323938369751,-2.619555950164795,4.16015625,1,"['C1', 'F2', 'F1']",7.6,90,450.0,0.0116784521346938,[10100|0|0]
40,4000,1.684519648551941,1.1763595342636108,0.0,0.0284503176808357,0.6769554018974304,-2.588691711425781,4.15234375,1,"['C1', 'F2', 'F1']",7.6,90,450.0,0.0120257625640809,[10200|0|0]
41,4100,1.684471607208252,1.1763534545898438,0.0,0.0306148938834667,0.6793597936630249,-2.599316596984864,4.16015625,1,"['C1', 'F2', 'F1']",7.6,90,450.0,0.0120741870737486,[10300|0|0]
42,4200,1.684194803237915,1.1760320663452148,0.0,0.0372297428548336,0.6926056146621704,-2.598562002182007,4.16015625,1,"['C1', 'F2', 'F1']",7.6,90,450.0,0.0124983460554758,[10400|0|0]
43,4300,1.6846463680267334,1.1759757995605469,0.0,0.0310460831969976,0.6813268065452576,-2.5784623622894287,4.16015625,1,"['C1', 'F2', 'F1']",7.6,90,450.0,0.0129534028756175,[10500|0|0]
44,4400,1.683965086936951,1.1764261722564695,0.0,0.0295755844563245,0.6970621347427368,-2.5776572227478027,4.16015625,1,"['C1', 'F2', 'F1']",7.6,90,450.0,0.0137700909975636,[10600|0|0]
45,4500,1.6845117807388306,1.175992488861084,0.0,0.037863802164793,0.6833126544952393,-2.593222379684448,4.16015625,1,"['C1', 'F2', 'F1']",7.6,90,450.0,0.0144679128949319,[10700|0|0]
46,4600,1.683989405632019,1.1763253211975098,0.0,0.0408346392214298,0.7048589587211609,-2.582628965377808,4.15234375,1,"['C1', 'F2', 'F1']",7.6,90,450.0,0.0150873102765756,[10800|0|0]
47,4700,1.6841366291046145,1.17608380317688,0.0,0.0361699983477592,0.6986953616142273,-2.5808427333831787,4.16015625,1,"['C1', 'F2', 'F1']",7.6,90,450.0,0.0153701630742848,[10900|0|0]
48,4800,1.684017539024353,1.1762874126434326,0.0,-0.0266299340873956,0.6728249788284302,-2.56689453125,4.16015625,1,"['C1', 'F2', 'F1']",7.6,90,450.0,0.0156060428362112,[11000|0|0]
49,4900,1.6839293241500854,1.1765704154968262,0.0,-0.016780637204647,0.6827080845832825,-2.55871319770813,4.15234375,1,"['C1', 'F2', 'F1']",7.6,90,450.0,0.0159024757612903,[11100|0|0]
50,5000,1.6842727661132812,1.1763876676559448,0.0,-0.0028103999793529,0.683398962020874,-2.57494592666626,4.16015625,1,"['C1', 'F2', 'F1']",7.6,90,450.0,0.0162915119491065,[11200|0|0]
51,5100,1.6837923526763916,1.1762484312057495,0.0,0.0096651781350374,0.7028437256813049,-2.5811660289764404,4.16015625,1,"['C1', 'F2', 'F1']",7.6,90,450.0,0.0167916957747218,[11300|0|0]
52,5200,1.684049129486084,1.1759562492370603,0.0,0.0350847840309143,0.7191648483276367,-2.582190990447998,4.15234375,1,"['C1', 'F2', 'F1']",7.6,90,450.0,0.0171806747366502,[11400|0|0]
53,5300,1.6844395399093628,1.1759846210479736,0.0,-0.0139784878119826,0.6720182299613953,-2.5620834827423096,4.15234375,1,"['C1', 'F2', 'F1']",7.6,90,450.0,0.0175721147170549,[11500|0|0]
54,5400,1.684385895729065,1.175927758216858,0.0,0.0156835950911045,0.6877418756484985,-2.5957999229431152,4.16015625,1,"['C1', 'F2', 'F1']",7.6,90,450.0,0.0176502881117766,[11600|0|0]
55,5500,1.6841622591018677,1.1760960817337036,0.0,0.028394041582942,0.7028298377990723,-2.6047158241271973,4.15234375,1,"['C1', 'F2', 'F1']",7.6,90,450.0,0.0179301919298061,[11700|0|0]
56,5600,1.6838537454605105,1.1762422323226929,0.0,-0.0064109237864613,0.6869398355484009,-2.595294952392578,4.16015625,1,"['C1', 'F2', 'F1']",7.6,90,450.0,0.0182715724529257,[11800|0|0]
57,5700,1.684119701385498,1.1765145063400269,0.0,0.0111561249941587,0.6867953538894653,-2.6044161319732666,4.16015625,1,"['C1', 'F2', 'F1']",7.6,90,450.0,0.0186521847156698,[11900|0|0]
58,5800,1.6842772960662842,1.1766129732131958,0.0,0.0238034538924694,0.6917163133621216,-2.599517345428467,4.15234375,1,"['C1', 'F2', 'F1']",7.6,90,450.0,0.0188380120778201,[12000|0|0]
59,5900,1.6840664148330688,1.1761987209320068,0.0,0.0378035902976989,0.7050384283065796,-2.597358703613281,4.15234375,1,"['C1', 'F2', 'F1']",7.6,90,450.0,0.0193028516705752,[12100|0|0]
60,6000,1.6838732957839966,1.1765224933624268,0.0,0.0406388491392135,0.7123324871063232,-2.598860025405884,4.16015625,1,"['C1', 'F2', 'F1']",7.6,90,450.0,0.0196798444474484,[12200|0|0]
61,6100,1.683899164199829,1.1763557195663452,0.0,0.049145583063364,0.7115941643714905,-2.5800588130950928,4.16015625,1,"['C1', 'F2', 'F1']",7.6,90,450.0,0.0198486125546166,[12300|0|0]
62,6200,1.6839580535888672,1.1761188507080078,0.0,0.0495916679501533,0.7127618193626404,-2.55580997467041,4.15234375,1,"['C1', 'F2', 'F1']",7.6,90,450.0,0.0200926920830317,[12400|0|0]
63,6300,1.6839478015899658,1.176194667816162,0.0,0.0535907335579395,0.7171871066093445,-2.551219940185547,4.16015625,1,"['C1', 'F2', 'F1']",7.6,90,450.0,0.0201691991896974,[12500|0|0]
64,6400,1.684154748916626,1.1763707399368286,0.0,0.0488745272159576,0.70782470703125,-2.567769765853882,4.15234375,1,"['C1', 'F2', 'F1']",7.6,90,450.0,0.0204409133551135,[12600|0|0]
65,6500,1.6838035583496094,1.1759912967681885,0.0,0.0530735775828361,0.7090821266174316,-2.593012809753418,4.15234375,1,"['C1', 'F2', 'F1']",7.6,90,450.0,0.0209579355331573,[12700|0|0]
66,6600,1.684303879737854,1.1758366823196411,0.0,0.0565870739519596,0.691566526889801,-2.5929415225982666,4.16015625,1,"['C1', 'F2', 'F1']",7.6,90,450.0,0.0214816025258488,[12800|0|0]
67,6700,1.6839971542358398,1.1761987209320068,0.0,0.0406574942171573,0.694995641708374,-2.5888376235961914,4.15234375,1,"['C1', 'F2', 'F1']",7.6,90,450.0,0.0219561048866749,[12900|0|0]
68,6800,1.6839756965637207,1.1763272285461426,0.0,0.0337746068835258,0.6874650120735168,-2.5747883319854736,4.15234375,1,"['C1', 'F2', 'F1']",7.6,90,450.0,0.0220863916418868,[13000|0|0]
69,6900,1.6839320659637451,1.175994038581848,0.0,0.0450662970542907,0.6907566785812378,-2.619375944137573,4.16015625,1,"['C1', 'F2', 'F1']",7.6,90,450.0,0.0224224261364865,[13100|0|0]
70,7000,1.6838806867599487,1.1762014627456665,0.0,0.0283320695161819,0.6922227144241333,-2.585887670516968,4.15234375,1,"['C1', 'F2', 'F1']",7.6,90,450.0,0.0226361189213872,[13200|0|0]
71,7100,1.684098720550537,1.1759166717529297,0.0,0.0244890097528696,0.6835695505142212,-2.590024471282959,4.15234375,1,"['C1', 'F2', 'F1']",7.6,90,450.0,0.0229947895828335,[13300|0|0]
72,7200,1.6838726997375488,1.1766005754470823,0.0,0.000916535151191,0.685198187828064,-2.584613561630249,4.16015625,1,"['C1', 'F2', 'F1']",7.6,90,450.0,0.0237150740202466,[13400|0|0]
73,7300,1.683743596076965,1.1763778924942017,0.0,0.007346564438194,0.6873174905776978,-2.571650505065918,4.15234375,1,"['C1', 'F2', 'F1']",7.6,90,450.0,0.0239724753657748,[13500|0|0]
74,7400,1.6843390464782717,1.1759170293807983,0.0,0.017732972279191,0.6766601204872131,-2.5869264602661133,4.15234375,1,"['C1', 'F2', 'F1']",7.6,90,450.0,0.0247254401655577,[13600|0|0]
75,7500,1.6842762231826782,1.1759368181228638,0.0,0.0173728801310062,0.6807928085327148,-2.5845086574554443,4.16015625,1,"['C1', 'F2', 'F1']",7.6,90,450.0,0.0247913063995608,[13700|0|0]
76,7600,1.6844940185546875,1.1758928298950195,0.0,0.0139360595494508,0.6677915453910828,-2.587965250015259,4.15234375,1,"['C1', 'F2', 'F1']",7.6,90,450.0,0.0250134995323474,[13800|0|0]
77,7700,1.6841696500778198,1.1760711669921875,0.0,0.0033452573698014,0.6741644740104675,-2.5644643306732178,4.16015625,1,"['C1', 'F2', 'F1']",7.6,90,450.0,0.0253836603474154,[13900|0|0]
78,7800,1.6842645406723022,1.1759434938430786,0.0,0.00364550948143,0.6753321886062622,-2.545715093612671,4.15234375,1,"['C1', 'F2', 'F1']",7.6,90,450.0,0.0255427347260079,[14000|0|0]
79,7900,1.684091329574585,1.1760106086730957,0.0,0.0045329751446843,0.6870557069778442,-2.5605804920196533,4.15234375,1,"['C1', 'F2', 'F1']",7.6,90,450.0,0.0257284939378405,[14100|0|0]
80,8000,1.6841001510620115,1.1762876510620115,0.0,0.0053629837930202,0.6696431040763855,-2.56842303276062,4.15234375,1,"['C1', 'F2', 'F1']",7.6,90,450.0,0.026005676736543,[14200|0|0]
81,8100,1.6839147806167605,1.1762419939041138,0.0,0.006514570210129,0.6739041209220886,-2.578649044036865,4.16015625,1,"['C1', 'F2', 'F1']",7.6,90,450.0,0.0261965871292404,[14300|0|0]
82,8200,1.6844555139541626,1.1760510206222534,0.0,0.0078729698434472,0.6710466742515564,-2.591191291809082,4.15234375,1,"['C1', 'F2', 'F1']",7.6,90,450.0,0.0267700532019618,[14400|0|0]
83,8300,1.684557557106018,1.1760870218276978,0.0,0.0130080301314592,0.6701505184173584,-2.5822386741638184,4.15234375,1,"['C1', 'F2', 'F1']",7.6,90,450.0,0.0268782608340127,[14500|0|0]
84,8400,1.6870405673980713,1.1805989742279053,0.0,-0.0631238669157028,0.6032351851463318,-2.587461471557617,4.15234375,1,"['C1', 'F2', 'F1']",7.6,90,450.0,0.0320283146756905,[14600|0|0]
85,8500,1.6869996786117554,1.1803356409072876,0.0,-0.0515528060495853,0.6012402176856995,-2.577303886413574,4.15234375,1,"['C1', 'F2', 'F1']",7.6,90,450.0,0.0322948035696315,[14700|0|0]
86,8600,1.687259316444397,1.180793523788452,0.0,-0.0603238455951213,0.5987204909324646,-2.565652847290039,4.15234375,1,"['C1', 'F2', 'F1']",7.6,90,450.0,0.0328211765714109,[14800|0|0]
87,8700,1.6874666213989258,1.1809979677200315,0.0,-0.0768593326210975,0.5815572738647461,-2.55647087097168,4.16015625,1,"['C1', 'F2', 'F1']",7.6,90,450.0,0.0331123340293815,[14900|0|0]
88,8800,1.687143087387085,1.1816030740737915,0.0,-0.1601530164480209,0.5421305894851685,-2.5406055450439453,4.15234375,1,"['C1', 'F2', 'F1']",7.6,90,450.0,0.0337985030728238,[15000|0|0]
89,8900,1.6873997449874878,1.1809704303741455,0.0,-0.1303382664918899,0.552772045135498,-2.5498476028442383,4.15234375,1,"['C1', 'F2', 'F1']",7.6,90,450.0,0.0344812264242234,[15100|0|0]
90,9000,1.6871955394744873,1.18110454082489,0.0,-0.1224225535988807,0.5737842321395874,-2.570564985275269,4.15234375,1,"['C1', 'F2', 'F1']",7.6,90,450.0,0.034725532593893,[15200|0|0]
91,9100,1.68735671043396,1.1811593770980835,0.0,-0.0968182161450386,0.5774223208427429,-2.562525987625122,4.15234375,1,"['C1', 'F2', 'F1']",7.6,90,450.0,0.0348957768156308,[15300|0|0]
92,9200,1.687474250793457,1.1812442541122437,0.0,-0.0895131081342697,0.5898683667182922,-2.5780467987060547,4.15234375,1,"['C1', 'F2', 'F1']",7.6,90,450.0,0.0350407590340007,[15400|0|0]
93,9300,1.6871209144592283,1.181287407875061,0.0,-0.0691663548350334,0.6213463544845581,-2.5720880031585693,4.15234375,1,"['C1', 'F2', 'F1']",7.6,90,450.0,0.0353967208470249,[15500|0|0]
94,9400,1.6873148679733276,1.1817193031311035,0.0,-0.1470887511968612,0.5710150003433228,-2.550187826156616,4.15234375,1,"['C1', 'F2', 'F1']",7.6,90,450.0,0.0358701672302865,[15600|0|0]
95,9501,1.687246322631836,1.1816270351409912,0.0,-0.1235434934496879,0.5923994183540344,-2.5582900047302246,4.15234375,1,"['C1', 'F2', 'F1']",7.6,90,450.0,0.0359851100240562,[15700|0|0]
96,9601,1.687021255493164,1.1810725927352903,0.0,-0.0898056924343109,0.6007218956947327,-2.571422576904297,4.15234375,1,"['C1', 'F2', 'F1']",7.6,90,450.0,0.0365834925088845,[15800|0|0]
97,9701,1.6866832971572876,1.1812503337860107,0.0,-0.0805282294750213,0.6192080974578857,-2.569730997085572,4.15234375,1,"['C1', 'F2', 'F1']",7.6,90,450.0,0.0369653402768492,[15900|0|0]
98,9801,1.6871097087860107,1.181296467781067,0.0,-0.0758273378014564,0.6141640543937683,-2.5767910480499268,4.15234375,1,"['C1', 'F2', 'F1']",7.6,90,450.0,0.0373942402915498,[16000|0|0]
99,9901,1.6867529153823853,1.1812824010849,0.0,-0.0768168270587921,0.6236931681632996,-2.593435287475586,4.15234375,1,"['C1', 'F2', 'F1']",7.6,90,450.0,0.0377513108795456,[16100|0|0]
100,10001,1.6871503591537476,1.1812256574630735,0.0,-0.0704177990555763,0.6180973649024963,-2.5957608222961426,4.15234375,1,"['C1', 'F2', 'F1']",7.6,90,450.0,0.0381527849011369,[16200|0|0]
101,10101,1.6871418952941897,1.1814100742340088,0.0,-0.0724281668663024,0.6178329586982727,-2.562316656112671,4.15234375,1,"['C1', 'F2', 'F1']",7.6,90,450.0,0.0383373957955089,[16300|0|0]
102,10201,1.6868280172348022,1.180752515792847,0.0,-0.064966857433319,0.627098798751831,-2.5698790550231934,4.15234375,1,"['C1', 'F2', 'F1']",7.6,90,450.0,0.0390660263875842,[16400|0|0]
103,10301,1.686971664428711,1.1807702779769895,0.0,-0.0674960911273956,0.6176714301109314,-2.573037385940552,4.15234375,1,"['C1', 'F2', 'F1']",7.6,90,450.0,0.0392107675755832,[16500|0|0]
104,10401,1.686921000480652,1.1806583404541016,0.0,-0.0702571645379066,0.6137086749076843,-2.575361728668213,4.15234375,1,"['C1', 'F2', 'F1']",7.6,90,450.0,0.0393336367933035,[16600|0|0]
105,10501,1.6869608163833618,1.1804393529891968,0.0,-0.0745746567845344,0.6060062646865845,-2.571665048599243,4.15234375,1,"['C1', 'F2', 'F1']",7.6,90,450.0,0.0395562144559159,[16700|0|0]
106,10602,1.68740975856781,1.1809873580932615,0.0,-0.0905967950820922,0.5933326482772827,-2.582141160964966,4.15234375,1,"['C1', 'F2', 'F1']",7.6,90,450.0,0.0402646343025169,[16800|0|0]
107,10702,1.6874662637710571,1.1806477308273315,0.0,-0.0833504721522331,0.5955696702003479,-2.5866122245788574,4.15234375,1,"['C1', 'F2', 'F1']",7.6,90,450.0,0.0406089299861336,[16900|0|0]
108,10800,1.6873552799224854,1.180681228637695,0.0,-0.0828082337975502,0.59890216588974,-2.579113245010376,4.15234375,1,"['C1', 'F2', 'F1']",7.6,90,450.0,0.0407248589210159,[17000|0|0]
109,10900,1.687013030052185,1.1807196140289309,0.0,-0.0843038409948349,0.6101106405258179,-2.593580961227417,4.15234375,1,"['C1', 'F2', 'F1']",7.6,90,450.0,0.0410692546410545,[17100|0|0]
110,11000,1.6873109340667725,1.1804406642913818,0.0,-0.0849901959300041,0.5974318385124207,-2.565855026245117,4.15234375,1,"['C1', 'F2', 'F1']",7.6,90,450.0,0.041477371974656,[17200|0|0]
111,11100,1.687585473060608,1.1805845499038696,0.0,-0.0941547229886055,0.5947449803352356,-2.5574536323547363,4.15234375,1,"['C1', 'F2', 'F1']",7.6,90,450.0,0.041787331211681,[17300|0|0]
112,11200,1.6873106956481934,1.180627465248108,0.0,-0.0975899174809455,0.5991483926773071,-2.550032377243042,4.15234375,1,"['C1', 'F2', 'F1']",7.6,90,450.0,0.0420654397393179,[17400|0|0]
113,11300,1.6821467876434326,1.1776014566421509,0.0,0.0643225237727165,0.7023111581802368,-2.5763933658599854,4.15234375,1,"['C1', 'F2', 'F1']",7.6,90,450.0,0.048050644327714,[17500|0|0]
114,11400,1.6863526105880735,1.1839584112167358,0.0,-0.1159422397613525,0.4658975303173065,-2.53048062324524,4.15234375,1,"['C1', 'F2', 'F1']",7.6,90,450.0,0.0556729679960585,[17600|0|0]
115,11500,1.6903040409088137,1.1837406158447266,0.0,-0.0057600466534495,0.4046123325824737,-2.4315781593322754,4.15234375,1,"['C1', 'F2', 'F1']",7.6,90,450.0,0.0596303959996656,[17700|0|0]
116,11600,1.6881529092788696,1.1801458597183228,0.0,0.2624789178371429,0.6141282320022583,-2.4228355884552,4.15234375,1,"['C1', 'F2', 'F1']",7.6,90,450.0,0.0638196249141155,[17800|0|0]
117,11700,1.6879483461380005,1.180123209953308,0.0,0.1732777208089828,0.6416622400283813,-2.4704768657684326,4.15234375,1,"['C1', 'F2', 'F1']",7.6,90,450.0,0.0640254381558116,[17900|0|0]
118,11800,1.6875133514404297,1.1796492338180542,0.0,0.0898657813668251,0.6646608710289001,-2.4744315147399902,4.15234375,1,"['C1', 'F2', 'F1']",7.6,90,450.0,0.0646687683693917,[18000|0|0]
119,11900,1.6873878240585327,1.1802042722702026,0.0,-0.0073273461312055,0.665386974811554,-2.4840476512908936,4.15234375,1,"['C1', 'F2', 'F1']",7.6,90,450.0,0.0652378244360224,[18100|0|0]
120,12000,1.687206506729126,1.18036150932312,0.0,-0.076335109770298,0.6732795834541321,-2.5248591899871826,4.15234375,1,"['C1', 'F2', 'F1']",7.6,90,450.0,0.0654778233209225,[18200|0|0]
121,12100,1.6874737739562988,1.1805565357208252,0.0,-0.1029720976948738,0.6749973297119141,-2.5377402305603027,4.15234375,1,"['C1', 'F2', 'F1']",7.6,90,450.0,0.0658086813970255,[18300|0|0]
122,12200,1.6872994899749756,1.1811646223068235,0.0,-0.1503595858812332,0.6776542067527771,-2.5312228202819824,4.15234375,1,"['C1', 'F2', 'F1']",7.6,90,450.0,0.0664412509206488,[18400|0|0]
123,12300,1.6872681379318235,1.1812506914138794,0.0,-0.241555169224739,0.6316453218460083,-2.5489065647125244,4.15234375,1,"['C1', 'F2', 'F1']",7.6,90,450.0,0.0665328524588411,[18500|0|0]
124,12400,1.6872278451919556,1.180761218070984,0.0,-0.2081829458475113,0.6392022967338562,-2.567519187927246,4.15234375,1,"['C1', 'F2', 'F1']",7.6,90,450.0,0.0670239814218347,[18600|0|0]
125,12500,1.6873704195022583,1.180793046951294,0.0,-0.1872015297412872,0.6385522484779358,-2.575882911682129,4.15234375,1,"['C1', 'F2', 'F1']",7.6,90,450.0,0.0671700653414839,[18700|0|0]
126,12600,1.6871397495269775,1.1805343627929688,0.0,-0.1622481197118759,0.637955367565155,-2.594670534133911,4.15234375,1,"['C1', 'F2', 'F1']",7.6,90,450.0,0.0675166575099824,[18800|0|0]
127,12700,1.6875219345092771,1.1807299852371216,0.0,-0.1668016612529754,0.6290868520736694,-2.57710075378418,4.15234375,1,"['C1', 'F2', 'F1']",7.6,90,450.0,0.0679459982853015,[18900|0|0]
128,12800,1.6874784231185913,1.1806994676589966,0.0,-0.1348160803318023,0.6422921419143677,-2.575714111328125,4.15234375,1,"['C1', 'F2', 'F1']",7.6,90,450.0,0.0679991449097854,[19000|0|0]
129,12900,1.6874289512634275,1.180427074432373,0.0,-0.1056893244385719,0.6452203392982483,-2.58534836769104,4.15234375,1,"['C1', 'F2', 'F1']",7.6,90,450.0,0.0682759942087979,[19100|0|0]
130,13000,1.6873630285263062,1.1810625791549685,0.0,-0.0921967104077339,0.6396740078926086,-2.5896503925323486,4.15234375,1,"['C1', 'F2', 'F1']",7.6,90,450.0,0.0689149089603186,[19200|0|0]
131,13100,1.6869879961013794,1.181188702583313,0.0,-0.0781312733888626,0.653365969657898,-2.571158170700073,4.15234375,1,"['C1', 'F2', 'F1']",7.6,90,450.0,0.069310581095961,[19300|0|0]
132,13200,1.6870650053024292,1.1812251806259155,0.0,-0.0663052275776863,0.645663857460022,-2.5639514923095703,4.15234375,1,"['C1', 'F2', 'F1']",7.6,90,450.0,0.0693957929768136,[19400|0|0]
133,13300,1.687169909477234,1.1809488534927368,0.0,-0.0517099946737289,0.6412519812583923,-2.566203594207764,4.15234375,1,"['C1', 'F2', 'F1']",7.6,90,450.0,0.0696913628846565,[19500|0|0]
134,13400,1.6870583295822144,1.1809366941452026,0.0,-0.0457041338086128,0.6331228613853455,-2.5969481468200684,4.15234375,1,"['C1', 'F2', 'F1']",7.6,90,450.0,0.0698036033528713,[19600|0|0]
135,13500,1.6872735023498535,1.180421233177185,0.0,-0.0347459875047206,0.6204504370689392,-2.602747678756714,4.15234375,1,"['C1', 'F2', 'F1']",7.6,90,450.0,0.0703621723544128,[19700|0|0]
136,13600,1.687752604484558,1.1804447174072266,0.0,-0.0557123981416225,0.6206879019737244,-2.580317258834839,4.15234375,1,"['C1', 'F2', 'F1']",7.6,90,450.0,0.0708418497090369,[19800|0|0]
137,13700,1.6871165037155151,1.1804940700531006,0.0,-0.056490771472454,0.6443626284599304,-2.584845304489136,4.15234375,1,"['C1', 'F2', 'F1']",7.6,90,450.0,0.0714798621478121,[19900|0|0]
138,13800,1.6875935792922974,1.180259346961975,0.0,-0.0455205254256725,0.6277602910995483,-2.581779956817627,4.15234375,1,"['C1', 'F2', 'F1']",7.6,90,450.0,0.0720115538211243,[20000|0|0]
139,13900,1.68724262714386,1.1803287267684937,0.0,-0.0483259856700897,0.6376137137413025,-2.598206043243408,4.15234375,1,"['C1', 'F2', 'F1']",7.6,90,450.0,0.0723692980985702,[20100|0|0]
140,14000,1.6871206760406494,1.1809266805648804,0.0,-0.0665911957621574,0.6330676674842834,-2.584355354309082,4.15234375,1,"['C1', 'F2', 'F1']",7.6,90,450.0,0.0729795610043638,[20200|0|0]
141,14100,1.6872378587722778,1.1806893348693848,0.0,-0.0509827025234699,0.6274276375770569,-2.588906764984131,4.15234375,1,"['C1', 'F2', 'F1']",7.6,90,450.0,0.073244258514292,[20300|0|0]
142,14200,1.6873445510864258,1.1804687976837158,0.0,-0.0510910786688327,0.6246173977851868,-2.585637331008911,4.15234375,1,"['C1', 'F2', 'F1']",7.6,90,450.0,0.0734892481062363,[20400|0|0]
143,14300,1.6875637769699097,1.180366039276123,0.0,-0.0519444905221462,0.6227756142616272,-2.56736159324646,4.15234375,1,"['C1', 'F2', 'F1']",7.6,90,450.0,0.0737313622907036,[20500|0|0]
144,14400,1.6873005628585815,1.180437684059143,0.0,-0.0569851510226726,0.6262880563735962,-2.5841472148895264,4.15234375,1,"['C1', 'F2', 'F1']",7.6,90,450.0,0.0740041527658604,[20600|0|0]
145,14500,1.6872732639312744,1.1807950735092163,0.0,-0.0656141713261604,0.6332127451896667,-2.5784168243408203,4.15234375,1,"['C1', 'F2', 'F1']",7.6,90,450.0,0.0743625833036997,[20700|0|0]
146,14600,1.687690496444702,1.1806970834732056,0.0,-0.0647603869438171,0.614739716053009,-2.5800886154174805,4.15234375,1,"['C1', 'F2', 'F1']",7.6,90,450.0,0.0747911682047618,[20800|0|0]
147,14700,1.6874128580093384,1.1804072856903076,0.0,-0.0627327412366867,0.6239558458328247,-2.591191530227661,4.15234375,1,"['C1', 'F2', 'F1']",7.6,90,450.0,0.0751924983129816,[20900|0|0]
148,14800,1.6843831539154053,1.1770983934402466,0.0,0.0231495331972837,0.6797663569450378,-2.6314313411712646,4.15234375,1,"['C1', 'F2', 'F1']",7.6,90,450.0,0.0796789083276045,[21000|0|0]
149,14900,1.687263250350952,1.184026122093201,0.0,-0.1723189800977707,0.4510819911956787,-2.5787806510925293,4.15234375,1,"['C1', 'F2', 'F1']",7.6,90,450.0,0.0871814665424411,[21100|0|0]
150,15000,1.6877498626708984,1.1901147365570068,0.0,-0.1693423092365265,0.4452764689922333,-2.5534591674804688,4.15234375,1,"['C1', 'F2', 'F1']",7.6,90,450.0,0.093289495491193,[21200|0|0]
151,15100,1.6886619329452517,1.1964714527130127,0.0,-0.1684283018112182,0.4413118660449981,-2.527617692947388,4.15234375,1,"['C1', 'F2', 'F1']",7.6,90,450.0,0.0997113108477245,[21300|0|0]
152,15200,1.682789921760559,1.17841899394989,0.0,0.3633383214473724,0.6337043642997742,-2.579829692840576,4.15234375,1,"['C1', 'F2', 'F1']",7.6,90,450.0,0.1186947716161778,[21400|0|0]
153,15300,1.6812587976455688,1.176016092300415,0.0,0.3610029220581054,0.6220520734786987,-2.533128499984741,4.15234375,1,"['C1', 'F2', 'F1']",7.6,90,450.0,0.1215440307115487,[21500|0|0]
154,15400,1.6881009340286257,1.1800802946090698,0.0,0.1045741215348243,0.5106152296066284,-2.560709953308105,4.15234375,1,"['C1', 'F2', 'F1']",7.6,90,450.0,0.1295022070535271,[21600|0|0]
155,15500,1.688054084777832,1.1796488761901855,0.0,0.043032307177782,0.5476052165031433,-2.6181955337524414,4.15234375,1,"['C1', 'F2', 'F1']",7.6,90,450.0,0.1299361617797977,[21700|0|0]
156,15600,1.6882880926132202,1.1803356409072876,0.0,0.0259743090718984,0.5354904532432556,-2.638453483581543,4.15234375,1,"['C1', 'F2', 'F1']",7.6,90,450.0,0.1306616998171736,[21800|0|0]
157,15700,1.6879611015319824,1.17991840839386,0.0,-0.0268578417599201,0.5795508027076721,-2.6873888969421387,4.15234375,1,"['C1', 'F2', 'F1']",7.6,90,450.0,0.1311917999374057,[21900|0|0]
158,15800,1.6882961988449097,1.1805652379989624,0.0,-0.0944622084498405,0.5996060967445374,-2.722346305847168,4.15234375,1,"['C1', 'F2', 'F1']",7.6,90,450.0,0.1319202769426488,[22000|0|0]
159,15900,1.6875914335250854,1.180575966835022,0.0,-0.1129864752292633,0.6253853440284729,-2.7829701900482178,4.15234375,1,"['C1', 'F2', 'F1']",7.6,90,450.0,0.1326251239217514,[22100|0|0]
160,16000,1.6873042583465576,1.1801295280456543,0.0,-0.1178009733557701,0.6322177052497864,-2.768065452575684,4.15234375,1,"['C1', 'F2', 'F1']",7.6,90,450.0,0.133155950801077,[22200|0|0]
161,16100,1.6869866847991943,1.179909586906433,0.0,-0.1294208616018295,0.6194407343864441,-2.7655253410339355,4.15234375,1,"['C1', 'F2', 'F1']",7.6,90,450.0,0.1335422499891513,[22300|0|0]
162,16200,1.6864556074142456,1.1802210807800293,0.0,-0.2390630096197128,0.5874639749526978,-2.787495851516724,4.15234375,1,"['C1', 'F2', 'F1']",7.6,90,450.0,0.1341579379150455,[22400|0|0]
163,16300,1.687474250793457,1.1808912754058838,0.0,-0.2587625384330749,0.6360971927642822,-2.771037578582764,4.15234375,1,"['C1', 'F2', 'F1']",7.6,90,450.0,0.1353772800206645,[22500|0|0]
164,16400,1.6871402263641355,1.1803414821624756,0.0,-0.2328370064496994,0.6600209474563599,-2.748001337051392,4.15234375,1,"['C1', 'F2', 'F1']",7.6,90,450.0,0.1360205878240377,[22600|0|0]
165,16500,1.687000393867493,1.1804600954055786,0.0,-0.2076132595539093,0.6768882274627686,-2.710614919662476,4.15234375,1,"['C1', 'F2', 'F1']",7.6,90,450.0,0.1362039514751705,[22700|0|0]
166,16600,1.68719744682312,1.1805856227874756,0.0,-0.1739536523818969,0.6753731966018677,-2.7385504245758057,4.15234375,1,"['C1', 'F2', 'F1']",7.6,90,450.0,0.1364375900655772,[22800|0|0]
167,16700,1.6871840953826904,1.180387258529663,0.0,-0.1526053249835968,0.6699417233467102,-2.694488525390625,4.15234375,1,"['C1', 'F2', 'F1']",7.6,90,450.0,0.1366364031429616,[22900|0|0]
168,16800,1.6870744228363037,1.1805742979049685,0.0,-0.1568344682455063,0.6538714170455933,-2.678225517272949,4.15234375,1,"['C1', 'F2', 'F1']",7.6,90,450.0,0.1368532251790778,[23000|0|0]
169,16900,1.6875133514404297,1.180941462516785,0.0,-0.1406229883432388,0.6420571804046631,-2.684814453125,4.15234375,1,"['C1', 'F2', 'F1']",7.6,90,450.0,0.1374254735269918,[23100|0|0]
170,17000,1.6869186162948608,1.180463433265686,0.0,-0.1079122126102447,0.6634086966514587,-2.675823926925659,4.15234375,1,"['C1', 'F2', 'F1']",7.6,90,450.0,0.1381885081646596,[23200|0|0]
171,17100,1.6871623992919922,1.1809608936309814,0.0,-0.111816793680191,0.657131016254425,-2.6533472537994385,4.15234375,1,"['C1', 'F2', 'F1']",7.6,90,450.0,0.1387424909845468,[23300|0|0]
172,17200,1.687313437461853,1.1806395053863523,0.0,-0.0923358872532844,0.6534388065338135,-2.668712615966797,4.15234375,1,"['C1', 'F2', 'F1']",7.6,90,450.0,0.1390976007317247,[23400|0|0]
173,17300,1.687334418296814,1.1806148290634155,0.0,-0.0837216079235076,0.6553705334663391,-2.663778066635132,4.15234375,1,"['C1', 'F2', 'F1']",7.6,90,450.0,0.1391299907973211,[23500|0|0]
174,17400,1.687377691268921,1.180695652961731,0.0,-0.0749406814575195,0.6513178944587708,-2.686946153640747,4.15234375,1,"['C1', 'F2', 'F1']",7.6,90,450.0,0.1392216698715631,[23600|0|0]
175,17500,1.687394380569458,1.1808428764343262,0.0,-0.0742419138550758,0.6454468369483948,-2.679905891418457,4.15234375,1,"['C1', 'F2', 'F1']",7.6,90,450.0,0.1393698362767817,[23700|0|0]
176,17600,1.6872915029525757,1.1805293560028076,0.0,-0.0612757429480552,0.64064621925354,-2.675685167312622,4.15234375,1,"['C1', 'F2', 'F1']",7.6,90,450.0,0.1396998042525536,[23800|0|0]
177,17700,1.687422275543213,1.1806447505950928,0.0,-0.06233786419034,0.6256584525108337,-2.680651426315308,4.15234375,1,"['C1', 'F2', 'F1']",7.6,90,450.0,0.1398742100505954,[23900|0|0]
178,17800,1.687089443206787,1.18065345287323,0.0,-0.059699285775423,0.6298660039901733,-2.6776769161224365,4.15234375,1,"['C1', 'F2', 'F1']",7.6,90,450.0,0.1402071561330403,[24000|0|0]
179,17900,1.6871073246002195,1.1803878545761108,0.0,-0.0558082051575183,0.62034010887146,-2.666184186935425,4.15234375,1,"['C1', 'F2', 'F1']",7.6,90,450.0,0.1404733556816194,[24100|0|0]
180,18000,1.6872223615646362,1.1808775663375854,0.0,-0.067912757396698,0.6161865592002869,-2.658520460128784,4.15234375,1,"['C1', 'F2', 'F1']",7.6,90,450.0,0.1409763975412183,[24200|0|0]
181,18100,1.6872081756591797,1.1803659200668335,0.0,-0.0583930909633636,0.6099903583526611,-2.6275289058685303,4.15234375,1,"['C1', 'F2', 'F1']",7.6,90,450.0,0.1414882404334108,[24300|0|0]
182,18200,1.6870520114898682,1.1808289289474487,0.0,-0.0728336945176124,0.6177527904510498,-2.604198932647705,4.15234375,1,"['C1', 'F2', 'F1']",7.6,90,450.0,0.1419768757486566,[24400|0|0]
183,18300,1.68730628490448,1.1804757118225098,0.0,-0.0677926018834114,0.6106436848640442,-2.609675884246826,4.15234375,1,"['C1', 'F2', 'F1']",7.6,90,450.0,0.1424120967347412,[24500|0|0]
184,18400,1.6876200437545776,1.180606484413147,0.0,-0.0703820213675499,0.5953496694564819,-2.6087868213653564,4.15234375,1,"['C1', 'F2', 'F1']",7.6,90,450.0,0.1427520174409016,[24600|0|0]
185,18500,1.6872512102127075,1.180787205696106,0.0,-0.0743912830948829,0.5997653007507324,-2.6217615604400635,4.15234375,1,"['C1', 'F2', 'F1']",7.6,90,450.0,0.1431627465045467,[24700|0|0]
186,18600,1.687280535697937,1.1807844638824463,0.0,-0.0727269649505615,0.59840327501297,-2.6134138107299805,4.15234375,1,"['C1', 'F2', 'F1']",7.6,90,450.0,0.1431921998851013,[24800|0|0]
187,18700,1.6871780157089231,1.1803550720214844,0.0,-0.0641794130206108,0.6060478687286377,-2.6012887954711914,4.15234375,1,"['C1', 'F2', 'F1']",7.6,90,450.0,0.1436336607762431,[24900|0|0]
188,18800,1.6872605085372925,1.1806981563568115,0.0,-0.0709789916872978,0.6092411279678345,-2.629077196121216,4.15234375,1,"['C1', 'F2', 'F1']",7.6,90,450.0,0.1439865232535331,[25000|0|0]
189,18900,1.687421202659607,1.1805423498153689,0.0,-0.0671873241662979,0.6058228015899658,-2.65450382232666,4.15234375,1,"['C1', 'F2', 'F1']",7.6,90,450.0,0.1442103497026019,[25100|0|0]
190,19000,1.687623381614685,1.1808490753173828,0.0,-0.0713671967387199,0.5977135300636292,-2.6633739471435547,4.16015625,1,"['C1', 'F2', 'F1']",7.6,90,450.0,0.1445777144579366,[25200|0|0]
191,19100,1.6873561143875122,1.180760383605957,0.0,-0.0696808621287345,0.6045091152191162,-2.659608602523804,4.15234375,1,"['C1', 'F2', 'F1']",7.6,90,450.0,0.1448593134465646,[25300|0|0]
192,19200,1.6873247623443604,1.1805050373077393,0.0,-0.0658233761787414,0.605157732963562,-2.653306722640991,4.15234375,1,"['C1', 'F2', 'F1']",7.6,90,450.0,0.1451165772851104,[25400|0|0]
193,19300,1.687299132347107,1.1808149814605713,0.0,-0.077627032995224,0.6122512221336365,-2.658746719360352,4.15234375,1,"['C1', 'F2', 'F1']",7.6,90,450.0,0.1454275793343544,[25500|0|0]
194,19400,1.6874130964279177,1.1804097890853882,0.0,-0.0650396645069122,0.607166588306427,-2.669260740280152,4.15234375,1,"['C1', 'F2', 'F1']",7.6,90,450.0,0.14584849342609,[25600|0|0]
195,19500,1.6873594522476196,1.180903434753418,0.0,-0.0814033225178718,0.6119753122329712,-2.6718456745147705,4.15234375,1,"['C1', 'F2', 'F1']",7.6,90,450.0,0.1463450452800231,[25700|0|0]
196,19600,1.6873071193695068,1.180728554725647,0.0,-0.0759733244776725,0.6165534257888794,-2.668975591659546,4.15234375,1,"['C1', 'F2', 'F1']",7.6,90,450.0,0.1465275877524638,[25800|0|0]
197,19700,1.6872901916503906,1.180151343345642,0.0,-0.1567765325307846,0.5682141184806824,-2.6507389545440674,4.15234375,1,"['C1', 'F2', 'F1']",7.6,90,450.0,0.1471050472963988,[25900|0|0]
198,19800,1.6874665021896362,1.1802726984024048,0.0,-0.1460456550121307,0.5752549767494202,-2.659071922302246,4.15234375,1,"['C1', 'F2', 'F1']",7.6,90,450.0,0.1473190857416626,[26000|0|0]
199,19900,1.6876198053359983,1.1805152893066406,0.0,-0.1308086067438125,0.5786676406860352,-2.668508291244507,4.15234375,1,"['C1', 'F2', 'F1']",7.6,90,450.0,0.1476060564744952,[26100|0|0]
200,20000,1.6871304512023926,1.1798864603042605,0.0,-0.0850415751338005,0.6029852628707886,-2.680050849914551,4.15234375,1,"['C1', 'F2', 'F1']",7.6,90,450.0,0.1484028584463248,[26200|0|0]
201,20100,1.6871591806411743,1.1806161403656006,0.0,-0.1079207360744476,0.6062796711921692,-2.648592472076416,4.15234375,1,"['C1', 'F2', 'F1']",7.6,90,450.0,0.1491331038657353,[26300|0|0]
202,20200,1.687097668647766,1.1803686618804932,0.0,-0.1810873299837112,0.5662825703620911,-2.6521999835968018,4.15234375,1,"['C1', 'F2', 'F1']",7.6,90,450.0,0.1493881123477984,[26400|0|0]
203,20300,1.6873103380203247,1.1804429292678833,0.0,-0.1453672647476196,0.5827574133872986,-2.657151937484741,4.15234375,1,"['C1', 'F2', 'F1']",7.6,90,450.0,0.1496133764302757,[26500|0|0]
204,20400,1.687508463859558,1.1803470849990845,0.0,-0.1241304874420166,0.592507541179657,-2.6994292736053467,4.15234375,1,"['C1', 'F2', 'F1']",7.6,90,450.0,0.1498334672570575,[26600|0|0]
205,20500,1.6870319843292236,1.180240511894226,0.0,-0.1109662055969238,0.6100636124610901,-2.6765501499176025,4.15234375,1,"['C1', 'F2', 'F1']",7.6,90,450.0,0.1503217198243902,[26700|0|0]
206,20600,1.6871771812438965,1.1803961992263794,0.0,-0.0963335558772087,0.6141674518585205,-2.670560121536255,4.15234375,1,"['C1', 'F2', 'F1']",7.6,90,450.0,0.1505346063890755,[26800|0|0]
207,20700,1.6874349117279053,1.1800886392593384,0.0,-0.076083667576313,0.619787335395813,-2.676567554473877,4.15234375,1,"['C1', 'F2', 'F1']",7.6,90,450.0,0.1509358770405237,[26900|0|0]
208,20800,1.6871811151504517,1.1797808408737185,0.0,-0.0589018799364566,0.6347417235374451,-2.667589902877808,4.15234375,1,"['C1', 'F2', 'F1']",7.6,90,450.0,0.1513348163202611,[27000|0|0]
209,20900,1.6876206398010254,1.1804834604263306,0.0,-0.077109046280384,0.6247767806053162,-2.647590398788452,4.15234375,1,"['C1', 'F2', 'F1']",7.6,90,450.0,0.1521635841732662,[27100|0|0]
210,21000,1.6871750354766846,1.180019736289978,0.0,-0.0580386482179164,0.6417886018753052,-2.6708335876464844,4.15234375,1,"['C1', 'F2', 'F1']",7.6,90,450.0,0.1528067041375864,[27200|0|0]
211,21100,1.687099575996399,1.180086612701416,0.0,-0.0511635802686214,0.6515584588050842,-2.655693292617798,4.15234375,1,"['C1', 'F2', 'F1']",7.6,90,450.0,0.1529075336351147,[27300|0|0]
212,21200,1.6872992515563965,1.1805047988891602,0.0,-0.0611448362469673,0.6533061861991882,-2.6529619693756104,4.15234375,1,"['C1', 'F2', 'F1']",7.6,90,450.0,0.1533709449177571,[27400|0|0]
213,21300,1.6874724626541138,1.1803394556045532,0.0,-0.0537323206663131,0.6459643840789795,-2.6604156494140625,4.15234375,1,"['C1', 'F2', 'F1']",7.6,90,450.0,0.1536104036535281,[27500|0|0]
214,21400,1.68744695186615,1.1802760362625122,0.0,-0.0600337572395801,0.6429392695426941,-2.653212070465088,4.15234375,1,"['C1', 'F2', 'F1']",7.6,90,450.0,0.1536787616321952,[27600|0|0]
215,21500,1.6873929500579834,1.1803946495056152,0.0,-0.0674603581428527,0.6469813585281372,-2.643933057785034,4.15234375,1,"['C1', 'F2', 'F1']",7.6,90,450.0,0.1538090892836152,[27700|0|0]
216,21600,1.6871979236602783,1.1803627014160156,0.0,-0.0695864856243133,0.6486483216285706,-2.6441893577575684,4.15234375,1,"['C1', 'F2', 'F1']",7.6,90,450.0,0.1540067151327112,[27800|0|0]
217,21700,1.6871553659439087,1.1805760860443115,0.0,-0.0792684406042099,0.6496807932853699,-2.6350467205047607,4.15234375,1,"['C1', 'F2', 'F1']",7.6,90,450.0,0.1542243022619619,[27900|0|0]
218,21800,1.687199592590332,1.1806211471557615,0.0,-0.0826445072889328,0.6455619931221008,-2.659496068954468,4.15234375,1,"['C1', 'F2', 'F1']",7.6,90,450.0,0.1542874409982413,[28000|0|0]
219,21900,1.6869546175003052,1.1801475286483765,0.0,-0.0704261288046836,0.6481109857559204,-2.6610021591186523,4.15234375,1,"['C1', 'F2', 'F1']",7.6,90,450.0,0.1548206644835374,[28100|0|0]
220,22000,1.687326431274414,1.179849624633789,0.0,-0.0643215179443359,0.6330732703208923,-2.633114814758301,4.15234375,1,"['C1', 'F2', 'F1']",7.6,90,450.0,0.1552971015565327,[28200|0|0]
221,22100,1.683194279670715,1.1767199039459229,0.0,0.0579615086317062,0.7313684225082397,-2.662229299545288,4.15234375,1,"['C1', 'F2', 'F1']",7.6,90,450.0,0.160480713083259,[28300|0|0]
222,22200,1.6834338903427124,1.1768779754638672,0.0,0.0557752549648284,0.7160547375679016,-2.6792798042297363,4.15234375,1,"['C1', 'F2', 'F1']",7.6,90,450.0,0.1607677668742464,[28400|0|0]
223,22300,1.6835201978683472,1.1768373250961304,0.0,0.0630404651165008,0.7192187905311584,-2.672412633895874,4.15234375,1,"['C1', 'F2', 'F1']",7.6,90,450.0,0.1608631683489642,[28500|0|0]
224,22400,1.683302640914917,1.176573395729065,0.0,0.0666487589478492,0.7264597415924072,-2.6869447231292725,4.15234375,1,"['C1', 'F2', 'F1']",7.6,90,450.0,0.1612052059766975,[28600|0|0]
225,22500,1.6834471225738523,1.1765875816345217,0.0,0.0674886107444763,0.722324013710022,-2.68228816986084,4.15234375,1,"['C1', 'F2', 'F1']",7.6,90,450.0,0.1613503823855328,[28700|0|0]
226,22600,1.6834789514541626,1.1768569946289062,0.0,0.0611932687461376,0.7132590413093567,-2.663907289505005,4.15234375,1,"['C1', 'F2', 'F1']",7.6,90,450.0,0.1616216690220726,[28800|0|0]
227,22700,1.6830415725708008,1.176758050918579,0.0,0.0655346810817718,0.7164947986602783,-2.6525564193725586,4.15234375,1,"['C1', 'F2', 'F1']",7.6,90,450.0,0.1620700997808571,[28900|0|0]
228,22800,1.6832410097122192,1.176563382148743,0.0,0.068044789135456,0.7060596942901611,-2.6499972343444824,4.15234375,1,"['C1', 'F2', 'F1']",7.6,90,450.0,0.1623487951402134,[29000|0|0]
229,22900,1.683419704437256,1.176586627960205,0.0,0.0642946735024452,0.7000548243522644,-2.6645326614379883,4.15234375,1,"['C1', 'F2', 'F1']",7.6,90,450.0,0.1625289955078782,[29100|0|0]
230,23000,1.683590531349182,1.1769118309020996,0.0,0.0573719665408134,0.69272780418396,-2.643706083297729,4.15234375,1,"['C1', 'F2', 'F1']",7.6,90,450.0,0.1628963356598559,[29200|0|0]
231,23100,1.683396816253662,1.1771388053894043,0.0,0.062800146639347,0.7042651772499084,-2.628194093704224,4.15234375,1,"['C1', 'F2', 'F1']",7.6,90,450.0,0.1631947363235942,[29300|0|0]
232,23200,1.6831464767456057,1.1766955852508545,0.0,0.0720707476139068,0.711605966091156,-2.627058744430542,4.15234375,1,"['C1', 'F2', 'F1']",7.6,90,450.0,0.1637037687002757,[29400|0|0]
233,23301,1.6833420991897583,1.176567316055298,0.0,0.0701828971505165,0.7097122073173523,-2.643395185470581,4.15234375,1,"['C1', 'F2', 'F1']",7.6,90,450.0,0.1639376941738456,[29500|0|0]
234,23401,1.6831610202789309,1.1769187450408936,0.0,0.0577565506100654,0.715555727481842,-2.645784616470337,4.15234375,1,"['C1', 'F2', 'F1']",7.6,90,450.0,0.1643330318824735,[29600|0|0]
235,23501,1.6837369203567505,1.176704168319702,0.0,0.0614337474107742,0.7097440958023071,-2.651510000228882,4.15234375,1,"['C1', 'F2', 'F1']",7.6,90,450.0,0.1649476082153321,[29700|0|0]
236,23601,1.6840530633926392,1.1765623092651367,0.0,0.0058537852019071,0.6567016839981079,-2.6632230281829834,4.15234375,1,"['C1', 'F2', 'F1']",7.6,90,450.0,0.1652941199907497,[29800|0|0]
237,23701,1.6838546991348269,1.176896572113037,0.0,-0.0439601205289363,0.6423512101173401,-2.659834384918213,4.15234375,1,"['C1', 'F2', 'F1']",7.6,90,450.0,0.1656828101376069,[29900|0|0]
238,23801,1.683703064918518,1.1764867305755615,0.0,-0.0104691823944449,0.6605589985847473,-2.6909894943237305,4.15234375,1,"['C1', 'F2', 'F1']",7.6,90,450.0,0.1661198032970453,[30000|0|0]
239,23901,1.6838657855987549,1.1768207550048828,0.0,0.0091450838372111,0.6860637664794922,-2.697592735290528,4.15234375,1,"['C1', 'F2', 'F1']",7.6,90,450.0,0.1664913545575198,[30100|0|0]
240,24001,1.6838377714157104,1.1767932176589966,0.0,-0.0216781627386808,0.6583508849143982,-2.6734087467193604,4.15234375,1,"['C1', 'F2', 'F1']",7.6,90,450.0,0.1665306368674073,[30200|0|0]
241,24102,1.684068202972412,1.1769113540649414,0.0,0.0066190143115818,0.6669472455978394,-2.640195608139038,4.15234375,1,"['C1', 'F2', 'F1']",7.6,90,450.0,0.1667895865009918,[30300|0|0]
242,24202,1.683964490890503,1.1767269372940063,0.0,0.0268527250736951,0.6904389262199402,-2.6379435062408447,4.15234375,1,"['C1', 'F2', 'F1']",7.6,90,450.0,0.1670011656619128,[30400|0|0]
243,24302,1.6836482286453247,1.176514983177185,0.0,0.0375380218029022,0.7026767730712891,-2.648878574371338,4.15234375,1,"['C1', 'F2', 'F1']",7.6,90,450.0,0.1673818838718302,[30500|0|0]
244,24402,1.683459997177124,1.176910638809204,0.0,-0.0194101016968488,0.6753614544868469,-2.65564513206482,4.15234375,1,"['C1', 'F2', 'F1']",7.6,90,450.0,0.1678200327789033,[30600|0|0]
245,24502,1.683563470840454,1.1766436100006104,0.0,0.0070638419128954,0.6841407418251038,-2.642014265060425,4.15234375,1,"['C1', 'F2', 'F1']",7.6,90,450.0,0.168106408726954,[30700|0|0]
246,24602,1.683472990989685,1.1766645908355713,0.0,0.0249810684472322,0.6964236497879028,-2.639787435531616,4.15234375,1,"['C1', 'F2', 'F1']",7.6,90,450.0,0.1681992892891338,[30800|0|0]
247,24702,1.6838150024414062,1.1767221689224243,0.0,0.0299631413072347,0.6915044188499451,-2.649578332901001,4.15234375,1,"['C1', 'F2', 'F1']",7.6,90,450.0,0.1685461135518291,[30900|0|0]
248,24802,1.6834582090377808,1.176604986190796,0.0,0.0423212014138698,0.7129940986633301,-2.642221212387085,4.15234375,1,"['C1', 'F2', 'F1']",7.6,90,450.0,0.1689216575911408,[31000|0|0]
249,24902,1.6836626529693604,1.1766701936721802,0.0,0.0451260320842266,0.7019127011299133,-2.648061037063598,4.15234375,1,"['C1', 'F2', 'F1']",7.6,90,450.0,0.1691362486831931,[31100|0|0]
250,25002,1.6833908557891846,1.1763626337051392,0.0,0.0617380775511264,0.7029695510864258,-2.635434865951538,4.15234375,1,"['C1', 'F2', 'F1']",7.6,90,450.0,0.1695466958058262,[31200|0|0]
251,25100,1.6834269762039185,1.176782727241516,0.0,0.0463074073195457,0.7023568749427795,-2.642693042755127,4.15234375,1,"['C1', 'F2', 'F1']",7.6,90,450.0,0.169968339332595,[31300|0|0]
252,25200,1.6836072206497192,1.1765426397323608,0.0,0.0498937629163265,0.7045688033103943,-2.6452741622924805,4.15234375,1,"['C1', 'F2', 'F1']",7.6,90,450.0,0.1702685560414809,[31400|0|0]
253,25300,1.6836204528808594,1.1763452291488647,0.0,0.0488621331751346,0.7013291120529175,-2.665059328079224,4.15234375,1,"['C1', 'F2', 'F1']",7.6,90,450.0,0.1704664095994909,[31500|0|0]
254,25400,1.6835979223251345,1.1762713193893433,0.0,0.0543331131339073,0.7027664184570312,-2.6610991954803467,4.15234375,1,"['C1', 'F2', 'F1']",7.6,90,450.0,0.1705436771767391,[31600|0|0]
255,25500,1.683539628982544,1.1764276027679443,0.0,0.0491083152592182,0.702512800693512,-2.648684501647949,4.15234375,1,"['C1', 'F2', 'F1']",7.6,90,450.0,0.1707104782805044,[31700|0|0]
256,25600,1.6833765506744385,1.1767189502716064,0.0,0.0404625423252582,0.7052984237670898,-2.646159410476685,4.15234375,1,"['C1', 'F2', 'F1']",7.6,90,450.0,0.1710443613475574,[31800|0|0]
257,25700,1.6836603879928589,1.1761194467544556,0.0,0.0460102558135986,0.6948601603507996,-2.6460483074188232,4.15234375,1,"['C1', 'F2', 'F1']",7.6,90,450.0,0.1717076622524297,[31900|0|0]
258,25800,1.6833902597427368,1.1765196323394775,0.0,0.0319978930056095,0.700918436050415,-2.627449512481689,4.15234375,1,"['C1', 'F2', 'F1']",7.6,90,450.0,0.1721904849672779,[32000|0|0]
259,25900,1.6832867860794067,1.1766960620880127,0.0,0.0279206670820713,0.7027168869972229,-2.6309235095977783,4.15234375,1,"['C1', 'F2', 'F1']",7.6,90,450.0,0.1723950192068837,[32100|0|0]
260,26000,1.683507204055786,1.1767394542694092,0.0,0.0183473993092775,0.689765214920044,-2.6205880641937256,4.15234375,1,"['C1', 'F2', 'F1']",7.6,90,450.0,0.1726196677450882,[32200|0|0]
261,26100,1.6833739280700684,1.176538586616516,0.0,0.0320461690425872,0.6901054382324219,-2.656367301940918,4.15234375,1,"['C1', 'F2', 'F1']",7.6,90,450.0,0.1728607285306753,[32300|0|0]
262,26200,1.683496356010437,1.1765753030776978,0.0,0.0292598418891429,0.687877893447876,-2.65248703956604,4.15234375,1,"['C1', 'F2', 'F1']",7.6,90,450.0,0.1729885436280019,[32400|0|0]
263,26300,1.6834983825683594,1.176562786102295,0.0,0.024508761242032,0.6871321797370911,-2.6451351642608643,4.15234375,1,"['C1', 'F2', 'F1']",7.6,90,450.0,0.1730012235968603,[32500|0|0]
264,26400,1.6834059953689575,1.1768062114715576,0.0,0.0143620064482092,0.6922105550765991,-2.663811445236206,4.15234375,1,"['C1', 'F2', 'F1']",7.6,90,450.0,0.1732615912312045,[32600|0|0]
265,26500,1.6835412979125977,1.1767098903656006,0.0,0.0190649554133415,0.6844797134399414,-2.695194721221924,4.15234375,1,"['C1', 'F2', 'F1']",7.6,90,450.0,0.1734276771540525,[32700|0|0]
266,26600,1.68338942527771,1.1765198707580566,0.0,0.0270696338266134,0.6867093443870544,-2.669356346130371,4.15234375,1,"['C1', 'F2', 'F1']",7.6,90,450.0,0.1736709316472872,[32800|0|0]
267,26700,1.6835814714431765,1.1767714023590088,0.0,0.0191209428012371,0.6840169429779053,-2.679819107055664,4.15234375,1,"['C1', 'F2', 'F1']",7.6,90,450.0,0.1739873962992595,[32900|0|0]
268,26800,1.683357000350952,1.1763814687728882,0.0,0.0290051829069852,0.6843866109848022,-2.6667158603668213,4.15234375,1,"['C1', 'F2', 'F1']",7.6,90,450.0,0.1744373245966907,[33000|0|0]
269,26900,1.6836882829666138,1.176413655281067,0.0,0.0245886053889989,0.6791900992393494,-2.681467771530152,4.15234375,1,"['C1', 'F2', 'F1']",7.6,90,450.0,0.1747701671161327,[33100|0|0]
270,27000,1.683525800704956,1.1760072708129885,0.0,0.0330228246748447,0.6878967881202698,-2.677102565765381,4.15234375,1,"['C1', 'F2', 'F1']",7.6,90,450.0,0.1752078300243723,[33200|0|0]
271,27100,1.6835272312164309,1.1767656803131104,0.0,0.0158266816288232,0.6884087324142456,-2.699576139450073,4.15234375,1,"['C1', 'F2', 'F1']",7.6,90,450.0,0.1759662408736079,[33300|0|0]
272,27200,1.683441162109375,1.176762938499451,0.0,0.0175955910235643,0.6833168268203735,-2.6910288333892822,4.15234375,1,"['C1', 'F2', 'F1']",7.6,90,450.0,0.1760523536411371,[33400|0|0]
273,27300,1.6840296983718872,1.176267147064209,0.0,0.0328091606497764,0.6789860725402832,-2.685106039047241,4.15234375,1,"['C1', 'F2', 'F1']",7.6,90,450.0,0.1768218886173085,[33500|0|0]
274,27400,1.683553695678711,1.1766902208328247,0.0,0.0421068742871284,0.6979287266731262,-2.644718885421753,4.15234375,1,"['C1', 'F2', 'F1']",7.6,90,450.0,0.1774587323796252,[33600|0|0]
275,27500,1.6837685108184814,1.1763890981674194,0.0,0.0049531287513673,0.661421537399292,-2.6684391498565674,4.15234375,1,"['C1', 'F2', 'F1']",7.6,90,450.0,0.1778286248016825,[33700|0|0]
276,27600,1.683709740638733,1.176852822303772,0.0,-0.0240382868796587,0.6469720005989075,-2.6606862545013428,4.15234375,1,"['C1', 'F2', 'F1']",7.6,90,450.0,0.1782960582286682,[33800|0|0]
277,27700,1.6840485334396362,1.1766364574432373,0.0,-0.0025137849152088,0.6522327065467834,-2.659060478210449,4.15234375,1,"['C1', 'F2', 'F1']",7.6,90,450.0,0.1786980461822416,[33900|0|0]
278,27800,1.6838607788085938,1.1766828298568726,0.0,0.0452583953738212,0.6810986995697021,-2.6720988750457764,4.15234375,1,"['C1', 'F2', 'F1']",7.6,90,450.0,0.1788914426719312,[34000|0|0]
279,27900,1.684018611907959,1.1767926216125488,0.0,0.0644932314753532,0.6993187069892883,-2.687441110610962,4.15234375,1,"['C1', 'F2', 'F1']",7.6,90,450.0,0.1790837068570248,[34100|0|0]
280,28000,1.683656096458435,1.1766952276229858,0.0,0.0817446559667587,0.7158905863761902,-2.671917676925659,4.15234375,1,"['C1', 'F2', 'F1']",7.6,90,450.0,0.1794590773944229,[34200|0|0]
281,28100,1.6827672719955444,1.1776050329208374,0.0,0.055456556379795,0.6930753588676453,-2.6541507244110107,4.15234375,1,"['C1', 'F2', 'F1']",7.6,90,450.0,0.1807309872205629,[34300|0|0]
282,28200,1.68545401096344,1.1839853525161743,0.0,-0.1234526187181472,0.4726685285568237,-2.6189684867858887,4.15234375,1,"['C1', 'F2', 'F1']",7.6,90,450.0,0.1876539233332429,[34400|0|0]
283,28300,1.6847169399261477,1.1860711574554443,0.0,-0.0397291034460067,0.5163266062736511,-2.5559322834014893,4.15234375,1,"['C1', 'F2', 'F1']",7.6,90,450.0,0.1898661294625849,[34500|0|0]
284,28400,1.688832402229309,1.1789655685424805,0.0,0.2266010344028473,0.5130969285964966,-2.630878210067749,4.15234375,1,"['C1', 'F2', 'F1']",7.6,90,450.0,0.198077488897464,[34600|0|0]
285,28500,1.684860110282898,1.1755399703979492,0.0,0.3005414009094238,0.7067162990570068,-2.615478515625,4.15234375,1,"['C1', 'F2', 'F1']",7.6,90,450.0,0.2033228512257821,[34700|0|0]
286,28600,1.684269905090332,1.1759341955184937,0.0,0.2249825745820999,0.750111997127533,-2.644594430923462,4.15234375,1,"['C1', 'F2', 'F1']",7.6,90,450.0,0.2040326086596988,[34800|0|0]
287,28700,1.683962106704712,1.1759668588638306,0.0,0.1589893847703933,0.8017006516456604,-2.647401094436645,4.15234375,1,"['C1', 'F2', 'F1']",7.6,90,450.0,0.2043421352988091,[34900|0|0]
288,28800,1.6842042207717896,1.1760642528533936,0.0,0.1007744818925857,0.8171990513801575,-2.648916244506836,4.15234375,1,"['C1', 'F2', 'F1']",7.6,90,450.0,0.204603104282943,[35000|0|0]
289,28900,1.6837652921676636,1.1760588884353638,0.0,0.0471064858138561,0.8385631442070007,-2.643507957458496,4.15234375,1,"['C1', 'F2', 'F1']",7.6,90,450.0,0.2050420656667808,[35100|0|0]
290,29000,1.6838678121566772,1.1762038469314575,0.0,0.0163332559168338,0.8275758624076843,-2.644193172454834,4.15234375,1,"['C1', 'F2', 'F1']",7.6,90,450.0,0.2052196137271395,[35200|0|0]
291,29100,1.6837135553359983,1.176135778427124,0.0,-0.0038580528926104,0.8205955028533936,-2.638112068176269,4.15234375,1,"['C1', 'F2', 'F1']",7.6,90,450.0,0.2053882212240314,[35300|0|0]
292,29200,1.6840345859527588,1.1766048669815063,0.0,-0.0281868521124124,0.7923676371574402,-2.636409044265747,4.15234375,1,"['C1', 'F2', 'F1']",7.6,90,450.0,0.2059566442432259,[35400|0|0]
293,29300,1.683587670326233,1.1764113903045654,0.0,-0.0266162399202585,0.7915530204772949,-2.6382150650024414,4.15234375,1,"['C1', 'F2', 'F1']",7.6,90,450.0,0.2064436419862937,[35500|0|0]
294,29400,1.6836788654327393,1.1763079166412354,0.0,-0.0223485622555017,0.7702345848083496,-2.66294264793396,4.15234375,1,"['C1', 'F2', 'F1']",7.6,90,450.0,0.2065815671343039,[35600|0|0]
295,29500,1.68365478515625,1.1766265630722046,0.0,-0.0275882184505462,0.7537375688552856,-2.662919521331787,4.15234375,1,"['C1', 'F2', 'F1']",7.6,90,450.0,0.206901122149419,[35700|0|0]
296,29600,1.6837307214736938,1.176539659500122,0.0,-0.0226596090942621,0.7320122122764587,-2.667353868484497,4.15234375,1,"['C1', 'F2', 'F1']",7.6,90,450.0,0.2070165281940945,[35800|0|0]
297,29700,1.6836752891540527,1.1767679452896118,0.0,-0.0255584083497524,0.727518618106842,-2.689610481262207,4.15234375,1,"['C1', 'F2', 'F1']",7.6,90,450.0,0.2072514476350604,[35900|0|0]
298,29800,1.683915138244629,1.1767503023147583,0.0,-0.0191782806068658,0.7173154950141907,-2.6613173484802246,4.15234375,1,"['C1', 'F2', 'F1']",7.6,90,450.0,0.2074919447469181,[36000|0|0]
299,29900,1.6834964752197266,1.176496982574463,0.0,0.0017556272214278,0.7218163013458252,-2.648732900619507,4.15234375,1,"['C1', 'F2', 'F1']",7.6,90,450.0,0.2079812806430506,[36100|0|0]
300,30000,1.6836862564086914,1.176610231399536,0.0,0.0027202507480978,0.71443110704422,-2.6548216342926025,4.15234375,1,"['C1', 'F2', 'F1']",7.6,90,450.0,0.2082022833490641,[36200|0|0]
301,30100,1.6835343837738037,1.1765371561050415,0.0,0.0076256124302744,0.7146933078765869,-2.653810977935791,4.15234375,1,"['C1', 'F2', 'F1']",7.6,90,450.0,0.2083708220564674,[36300|0|0]
302,30200,1.6837289333343506,1.1766059398651123,0.0,0.0081209819763898,0.698625922203064,-2.6362600326538086,4.15234375,1,"['C1', 'F2', 'F1']",7.6,90,450.0,0.2085771730612105,[36400|0|0]
303,30300,1.683679223060608,1.1765962839126587,0.0,0.0055167791433632,0.7007166743278503,-2.6161022186279297,4.15234375,1,"['C1', 'F2', 'F1']",7.6,90,450.0,0.208627812460233,[36500|0|0]
304,30400,1.683788537979126,1.1764236688613892,0.0,0.0195866618305444,0.7000721096992493,-2.632983446121216,4.15234375,1,"['C1', 'F2', 'F1']",7.6,90,450.0,0.2088321301230411,[36600|0|0]
305,30500,1.6835862398147583,1.1762938499450684,0.0,0.0250850226730108,0.7040771245956421,-2.630624771118164,4.15234375,1,"['C1', 'F2', 'F1']",7.6,90,450.0,0.2090724996268082,[36700|0|0]
306,30600,1.6840033531188965,1.1763170957565308,0.0,0.0256890263408422,0.694919228553772,-2.636920213699341,4.15234375,1,"['C1', 'F2', 'F1']",7.6,90,450.0,0.209490260175735,[36800|0|0]
307,30700,1.684073567390442,1.1761401891708374,0.0,0.0309745427221059,0.709948718547821,-2.6433310508728027,4.15234375,1,"['C1', 'F2', 'F1']",7.6,90,450.0,0.209680591423801,[36900|0|0]
308,30800,1.6843291521072388,1.1762372255325315,0.0,0.0309679396450519,0.6960791349411011,-2.661099433898926,4.15234375,1,"['C1', 'F2', 'F1']",7.6,90,450.0,0.2099539768713854,[37000|0|0]
309,30900,1.6840500831604004,1.1758750677108765,0.0,0.0405417308211326,0.7001067996025085,-2.658026933670044,4.15234375,1,"['C1', 'F2', 'F1']",7.6,90,450.0,0.2104111833508621,[37100|0|0]
310,31000,1.6842222213745115,1.176233172416687,0.0,0.0271801985800266,0.7043488621711731,-2.6607089042663574,4.15234375,1,"['C1', 'F2', 'F1']",7.6,90,450.0,0.2108085126161837,[37200|0|0]
311,31100,1.6840755939483645,1.176300287246704,0.0,-0.0165265910327434,0.6784693598747253,-2.6885030269622803,4.15234375,1,"['C1', 'F2', 'F1']",7.6,90,450.0,0.2109697701819185,[37300|0|0]
312,31200,1.6841775178909302,1.175905704498291,0.0,0.0026585718151181,0.6818780899047852,-2.681601047515869,4.15234375,1,"['C1', 'F2', 'F1']",7.6,90,450.0,0.2113773042730242,[37400|0|0]
313,31300,1.6836163997650146,1.1764556169509888,0.0,-0.0030683055520057,0.7017922401428223,-2.6609134674072266,4.15234375,1,"['C1', 'F2', 'F1']",7.6,90,450.0,0.2121629614863578,[37500|0|0]
314,31400,1.6839028596878052,1.176578164100647,0.0,0.0080130007117986,0.7022534012794495,-2.6481611728668213,4.15234375,1,"['C1', 'F2', 'F1']",7.6,90,450.0,0.2124745334543756,[37600|0|0]
315,31500,1.6839162111282349,1.1763265132904053,0.0,0.0249704625457525,0.7006109356880188,-2.675076961517334,4.15234375,1,"['C1', 'F2', 'F1']",7.6,90,450.0,0.2127265381988882,[37700|0|0]
316,31600,1.6840437650680542,1.176394820213318,0.0,0.0279610082507133,0.6944637298583984,-2.6700711250305176,4.15234375,1,"['C1', 'F2', 'F1']",7.6,90,450.0,0.2128712304353118,[37800|0|0]
317,31700,1.6839293241500854,1.1762864589691162,0.0,0.0292870160192251,0.7005622386932373,-2.6602566242218018,4.15234375,1,"['C1', 'F2', 'F1']",7.6,90,450.0,0.2130288339979318,[37900|0|0]
318,31800,1.68397319316864,1.176129698753357,0.0,0.0340243838727474,0.6962361931800842,-2.670177459716797,4.15234375,1,"['C1', 'F2', 'F1']",7.6,90,450.0,0.2131916168472551,[38000|0|0]
319,31900,1.685257911682129,1.1775689125061035,0.0,0.0223645903170108,0.6758953928947449,-2.698868751525879,4.15234375,1,"['C1', 'F2', 'F1']",7.6,90,450.0,0.2151208233901106,[38100|0|0]
320,32000,1.6868436336517334,1.1837313175201416,0.0,-0.123029924929142,0.4795048236846924,-2.6574008464813232,4.15234375,1,"['C1', 'F2', 'F1']",7.6,90,450.0,0.2214839790319229,[38200|0|0]
