,time.ms,stateEstimate.x,stateEstimate.y,stateEstimate.z,stabilizer.roll,stabilizer.pitch,stabilizer.yaw,pm.vbat,drone_id,node_name,wind_speed,global_wind_direction,relative_wind_direction,travel_dist,waiting_time
0,0,0.7886651158332825,1.205120086669922,-0.0497444942593574,0.8346224427223206,0.4806238412857055,8.07628345489502,4.17578125,2,"['C1', 'F2', 'F1']",7.6,180,0.0,0.0925889810551077,[100|0|0]
1,100,0.7880921959877014,1.2051196098327637,-0.0496896058320999,0.8038600087165833,0.4706450998783111,8.083515167236328,4.17578125,2,"['C1', 'F2', 'F1']",7.6,180,0.0,0.0931645243777873,[200|0|0]
2,200,0.7887395620346069,1.204974889755249,-0.0498669296503067,0.8123937845230103,0.4634904265403747,8.058319091796875,4.17578125,2,"['C1', 'F2', 'F1']",7.6,180,0.0,0.0938511614260343,[300|0|0]
3,300,0.7883837819099426,1.2049740552902222,-0.049595434218645,0.8209755420684814,0.4797239005565643,8.047311782836914,4.17578125,2,"['C1', 'F2', 'F1']",7.6,180,0.0,0.0942986990924392,[400|0|0]
4,400,0.7882237434387207,1.2049405574798584,-0.0498233400285244,0.8271885514259338,0.4827981889247894,8.028656005859375,4.17578125,2,"['C1', 'F2', 'F1']",7.6,180,0.0,0.09457919057849,[500|0|0]
5,500,0.7884527444839478,1.2052059173583984,-0.0500465631484985,0.8287665247917175,0.4774893820285797,8.03049087524414,4.17578125,2,"['C1', 'F2', 'F1']",7.6,180,0.0,0.094994745514864,[600|0|0]
6,600,0.7882197499275208,1.205278992652893,-0.0496609956026077,0.8322872519493103,0.4898325502872467,8.05662727355957,4.17578125,2,"['C1', 'F2', 'F1']",7.6,180,0.0,0.0954511321869244,[700|0|0]
7,700,0.7884366512298584,1.2048252820968628,-0.0497954934835433,0.8472292423248291,0.4903929233551025,8.05236530303955,4.17578125,2,"['C1', 'F2', 'F1']",7.6,180,0.0,0.0959716983437049,[800|0|0]
8,800,0.7884553670883179,1.2051315307617188,-0.0496183484792709,0.8487572073936462,0.4861917197704315,8.0493803024292,4.17578125,2,"['C1', 'F2', 'F1']",7.6,180,0.0,0.0963259847823709,[900|0|0]
9,900,0.7882272005081177,1.2049745321273804,-0.0497370064258575,0.8469456434249878,0.4984704852104187,8.05065631866455,4.17578125,2,"['C1', 'F2', 'F1']",7.6,180,0.0,0.0966272956978594,[1000|0|0]
10,1000,0.7883334159851074,1.205264925956726,-0.0498185791075229,0.8379361629486084,0.4916209876537323,8.057183265686035,4.17578125,2,"['C1', 'F2', 'F1']",7.6,180,0.0,0.0969470837621587,[1100|0|0]
11,1100,0.788221001625061,1.2052620649337769,-0.0497127994894981,0.8325778841972351,0.4947844743728637,8.087181091308594,4.17578125,2,"['C1', 'F2', 'F1']",7.6,180,0.0,0.0971014680275048,[1200|0|0]
12,1200,0.7882736921310425,1.2050926685333252,-0.0495614781975746,0.8393354415893555,0.4968668818473816,8.058484077453613,4.17578125,2,"['C1', 'F2', 'F1']",7.6,180,0.0,0.0973346408460235,[1300|0|0]
13,1300,0.7883955240249634,1.2049423456192017,-0.0498451180756092,0.845925509929657,0.49614417552948,8.043917655944824,4.17578125,2,"['C1', 'F2', 'F1']",7.6,180,0.0,0.0976779942635082,[1400|0|0]
14,1400,0.788422703742981,1.2052732706069946,-0.0497204959392547,0.8408839702606201,0.4981646239757538,8.047383308410645,4.17578125,2,"['C1', 'F2', 'F1']",7.6,180,0.0,0.0980326500987722,[1500|0|0]
15,1500,0.7882258296012878,1.205039620399475,-0.0499153956770896,0.8458487391471863,0.5020569562911987,8.056846618652344,4.17578125,2,"['C1', 'F2', 'F1']",7.6,180,0.0,0.0983950556105259,[1600|0|0]
16,1600,0.7881250381469727,1.2054263353347778,-0.0497096702456474,0.8361056447029114,0.5018419623374939,8.05262279510498,4.17578125,2,"['C1', 'F2', 'F1']",7.6,180,0.0,0.0988445334315486,[1700|0|0]
17,1700,0.7882057428359985,1.2053035497665403,-0.0499029606580734,0.8179795145988464,0.4758727550506592,8.058237075805664,4.17578125,2,"['C1', 'F2', 'F1']",7.6,180,0.0,0.0990873311377443,[1800|0|0]
18,1800,0.7884842157363892,1.2051427364349363,-0.0493916571140289,0.8285452723503113,0.4671404659748077,8.053359031677246,4.17578125,2,"['C1', 'F2', 'F1']",7.6,180,0.0,0.0996913505066606,[1900|0|0]
19,1900,0.7886214852333069,1.2051769495010376,-0.0496009215712547,0.838357150554657,0.4650203287601471,8.02295207977295,4.17578125,2,"['C1', 'F2', 'F1']",7.6,180,0.0,0.0999439471450668,[2000|0|0]
20,2000,0.7882153391838074,1.2051681280136108,-0.0498679727315902,0.8379313349723816,0.4801928400993347,8.032258987426758,4.17578125,2,"['C1', 'F2', 'F1']",7.6,180,0.0,0.1004301042743995,[2100|0|0]
21,2100,0.7884807586669922,1.2051844596862793,-0.0500836744904518,0.8318727612495422,0.4725784063339233,8.01638126373291,4.17578125,2,"['C1', 'F2', 'F1']",7.6,180,0.0,0.1007725096983668,[2200|0|0]
22,2200,0.7884597778320312,1.205094575881958,-0.0498410388827323,0.8269957900047302,0.4664167761802673,8.020663261413574,4.17578125,2,"['C1', 'F2', 'F1']",7.6,180,0.0,0.1010321081033085,[2300|0|0]
23,2300,0.7882699370384216,1.204752802848816,-0.0498009324073791,0.8431587219238281,0.4827979207038879,8.047688484191895,4.17578125,2,"['C1', 'F2', 'F1']",7.6,180,0.0,0.1014251181063195,[2400|0|0]
24,2400,0.7883084416389465,1.2050271034240725,-0.0495105274021625,0.8422265648841858,0.4877045750617981,8.043050765991211,4.17578125,2,"['C1', 'F2', 'F1']",7.6,180,0.0,0.1018264390214266,[2500|0|0]
25,2500,0.788524866104126,1.2051721811294556,-0.049705646932125,0.8354270458221436,0.48077192902565,8.072022438049316,4.17578125,2,"['C1', 'F2', 'F1']",7.6,180,0.0,0.102151952032995,[2600|0|0]
26,2600,0.7883215546607971,1.2050249576568604,-0.049841608852148,0.8415561318397522,0.4814064800739288,8.085336685180664,4.17578125,2,"['C1', 'F2', 'F1']",7.6,180,0.0,0.102437426966339,[2700|0|0]
27,2700,0.7872417569160461,1.2038750648498535,-0.0509736314415931,0.8743917346000671,0.5276073217391968,8.026947975158691,4.17578125,2,"['C1', 'F2', 'F1']",7.6,180,0.0,0.1043789963779722,[2800|0|0]
28,2800,0.7884608507156372,1.205095291137695,-0.0495062246918678,0.8356695175170898,0.4815742969512939,8.070508003234863,4.17578125,2,"['C1', 'F2', 'F1']",7.6,180,0.0,0.1066435988717624,[2900|0|0]
29,2900,0.788405179977417,1.2050354480743408,-0.0496692322194576,0.830491304397583,0.4865075647830963,8.070466995239258,4.17578125,2,"['C1', 'F2', 'F1']",7.6,180,0.0,0.1068259498448242,[3000|0|0]
30,3000,0.7873513102531433,1.2039687633514404,-0.0508922226727008,0.838444709777832,0.5129545331001282,8.043931007385254,4.17578125,2,"['C1', 'F2', 'F1']",7.6,180,0.0,0.1087609339125968,[3100|0|0]
31,3100,0.7874873876571655,1.203957200050354,-0.0509106963872909,0.841144859790802,0.5122923254966736,8.03972339630127,4.17578125,2,"['C1', 'F2', 'F1']",7.6,180,0.0,0.1088987455519753,[3200|0|0]
32,3200,0.7885822653770447,1.2051105499267578,-0.0498012080788612,0.8278061747550964,0.4861044883728027,8.056072235107422,4.17578125,2,"['C1', 'F2', 'F1']",7.6,180,0.0,0.110837801370004,[3300|0|0]
33,3300,0.7871080040931702,1.2038750648498535,-0.0508334003388881,0.8331297636032104,0.5088309645652771,8.035391807556152,4.17578125,2,"['C1', 'F2', 'F1']",7.6,180,0.0,0.1130207559206174,[3400|0|0]
34,3400,0.7871594429016113,1.204053521156311,-0.050863854587078,0.8352494835853577,0.5158751606941223,8.043632507324219,4.17578125,2,"['C1', 'F2', 'F1']",7.6,180,0.0,0.1132089581139126,[3500|0|0]
35,3500,0.7873132824897766,1.2038121223449707,-0.0506632700562477,0.8422538042068481,0.5117778778076172,8.026883125305176,4.17578125,2,"['C1', 'F2', 'F1']",7.6,180,0.0,0.1135584923168339,[3600|0|0]
36,3600,0.7872090339660645,1.203799605369568,-0.0511036664247512,0.8445968627929688,0.5144015550613403,8.033437728881836,4.17578125,2,"['C1', 'F2', 'F1']",7.6,180,0.0,0.1140112321877979,[3700|0|0]
37,3700,0.7873276472091675,1.2039763927459717,-0.0508355423808097,0.8425950407981873,0.5029585957527161,8.0203275680542,4.17578125,2,"['C1', 'F2', 'F1']",7.6,180,0.0,0.1143535965855304,[3800|0|0]
38,3800,0.78731369972229,1.2040308713912964,-0.0508502796292305,0.8434413075447083,0.5084273815155029,8.024346351623535,4.17578125,2,"['C1', 'F2', 'F1']",7.6,180,0.0,0.1144117312711976,[3900|0|0]
39,3900,0.7874377369880676,1.2038700580596924,-0.051306314766407,0.8519930839538574,0.5030184984207153,8.042248725891113,4.17578125,2,"['C1', 'F2', 'F1']",7.6,180,0.0,0.1149109448700336,[4000|0|0]
40,4001,0.7872313857078552,1.2034403085708618,-0.0511535555124282,0.860514223575592,0.5074480772018433,8.028014183044434,4.17578125,2,"['C1', 'F2', 'F1']",7.6,180,0.0,0.1154115453731012,[4100|0|0]
41,4101,0.7873453497886658,1.204084396362305,-0.0508879832923412,0.8414376378059387,0.5041515231132507,8.031959533691406,4.17578125,2,"['C1', 'F2', 'F1']",7.6,180,0.0,0.1161174954413657,[4200|0|0]
42,4200,0.7874040007591248,1.2035870552062988,-0.0511506274342536,0.8530158400535583,0.5052695870399475,8.024810791015625,4.17578125,2,"['C1', 'F2', 'F1']",7.6,180,0.0,0.1166829776312479,[4300|0|0]
43,4300,0.7809175252914429,1.203649640083313,-0.0498359911143779,-1.0205461978912354,-0.9218075275421144,6.325765132904053,4.17578125,2,"['C1', 'F2', 'F1']",7.6,180,0.0,0.1233016292698527,[4400|0|0]
44,4401,0.7898478507995605,1.2072683572769165,-0.0514652729034423,-0.0473898984491825,-0.4360830783843994,7.737936019897461,4.17578125,2,"['C1', 'F2', 'F1']",7.6,180,0.0,0.1330740592110903,[4500|0|0]
45,4501,0.7887880206108093,1.20585298538208,-0.0513949915766716,1.1983599662780762,0.9971389174461364,7.8944807052612305,4.17578125,2,"['C1', 'F2', 'F1']",7.6,180,0.0,0.134843651563745,[4600|0|0]
46,4601,0.7874448895454407,1.2043673992156982,-0.051321841776371,1.782971978187561,1.5735032558441162,7.87699556350708,4.17578125,2,"['C1', 'F2', 'F1']",7.6,180,0.0,0.1368477269639701,[4700|0|0]
47,4701,0.7871236205101013,1.204014539718628,-0.0514781847596168,1.8915140628814695,1.602033019065857,7.843600749969482,4.17578125,2,"['C1', 'F2', 'F1']",7.6,180,0.0,0.1373498890355673,[4800|0|0]
48,4801,0.7865810394287109,1.2031642198562622,-0.0511336326599121,1.8764108419418333,1.50834321975708,7.841947078704834,4.17578125,2,"['C1', 'F2', 'F1']",7.6,180,0.0,0.1384157944007979,[4900|0|0]
49,4901,0.7869910001754761,1.2027308940887451,-0.0510362237691879,1.7815790176391602,1.3315677642822266,7.84508466720581,4.17578125,2,"['C1', 'F2', 'F1']",7.6,180,0.0,0.139020217701701,[5000|0|0]
50,5001,0.7871705889701843,1.2035260200500488,-0.0510877259075641,1.6477562189102173,1.2047022581100464,7.873647689819336,4.17578125,2,"['C1', 'F2', 'F1']",7.6,180,0.0,0.1398369979045593,[5100|0|0]
51,5101,0.7867726683616638,1.2027897834777832,-0.0508259683847427,1.5623469352722168,1.1036298274993896,7.867008209228516,4.17578125,2,"['C1', 'F2', 'F1']",7.6,180,0.0,0.1407138685345729,[5200|0|0]
52,5201,0.786501407623291,1.202721118927002,-0.0507749430835247,1.4647629261016846,1.0243686437606812,7.874120712280273,4.17578125,2,"['C1', 'F2', 'F1']",7.6,180,0.0,0.1409982991765244,[5300|0|0]
53,5302,0.786910891532898,1.2030385732650757,-0.0507212430238723,1.3615622520446775,0.9229854941368104,7.881895065307617,4.17578125,2,"['C1', 'F2', 'F1']",7.6,180,0.0,0.1415192003431534,[5400|0|0]
54,5400,0.7867791056632996,1.2028762102127075,-0.0510400310158729,1.2874716520309448,0.8619754910469055,7.9168171882629395,4.17578125,2,"['C1', 'F2', 'F1']",7.6,180,0.0,0.1419004549300686,[5500|0|0]
55,5502,0.7869279980659485,1.202834129333496,-0.0508620478212833,1.224509358406067,0.8039591312408447,7.92488431930542,4.17578125,2,"['C1', 'F2', 'F1']",7.6,180,0.0,0.1421362891208003,[5600|0|0]
56,5602,0.7868849039077759,1.2031148672103882,-0.0513711385428905,1.1560263633728027,0.7589762806892395,7.919680118560791,4.17578125,2,"['C1', 'F2', 'F1']",7.6,180,0.0,0.142719250718864,[5700|0|0]
57,5700,0.7870622873306274,1.203473687171936,-0.0511176921427249,1.1024231910705566,0.7181488275527954,7.951034069061279,4.17578125,2,"['C1', 'F2', 'F1']",7.6,180,0.0,0.1431930140788494,[5800|0|0]
58,5800,0.787180483341217,1.2034858465194702,-0.0510269217193126,1.0624066591262815,0.6737973093986511,7.965518951416016,4.17578125,2,"['C1', 'F2', 'F1']",7.6,180,0.0,0.1433425380448823,[5900|0|0]
59,5902,0.7870005965232849,1.2034517526626587,-0.0512936785817146,1.0278104543685913,0.6504608392715454,7.969325065612793,4.17578125,2,"['C1', 'F2', 'F1']",7.6,180,0.0,0.1436660822952973,[6000|0|0]
60,6002,0.7871320843696594,1.2035695314407349,-0.0511389151215553,0.9881170988082886,0.6132953763008118,7.99458646774292,4.17578125,2,"['C1', 'F2', 'F1']",7.6,180,0.0,0.1439008430733455,[6100|0|0]
61,6100,0.7872265577316284,1.2037798166275024,-0.050726979970932,0.9456651210784912,0.580130934715271,8.004011154174805,4.17578125,2,"['C1', 'F2', 'F1']",7.6,180,0.0,0.1443728977780299,[6200|0|0]
62,6200,0.7870357036590576,1.204013705253601,-0.0510580502450466,0.915736973285675,0.5725185871124268,8.003703117370605,4.17578125,2,"['C1', 'F2', 'F1']",7.6,180,0.0,0.144820934264086,[6300|0|0]
63,6300,0.7873008847236633,1.203635573387146,-0.0508144833147525,0.914854884147644,0.5597442984580994,7.998475551605225,4.17578125,2,"['C1', 'F2', 'F1']",7.6,180,0.0,0.1453430736659578,[6400|0|0]
64,6400,0.787382960319519,1.2034863233566284,-0.0513148978352546,0.915078580379486,0.5568855404853821,8.020974159240723,3.00390625,2,"['E1B', 'F2', 'G1']",7.6,180,0.0,0.1458716819021535,[6400|0|0]
65,6500,0.7873998880386353,1.2034919261932373,-0.049551784992218,0.8451545834541321,-0.1641332507133484,7.952144622802734,3.3203125,2,"['E1B', 'F2', 'G1']",7.6,180,0.0,0.1476348849071229,[6400|0|0]
66,6602,0.7907480597496033,1.2089098691940308,-0.0241258293390274,-0.9288478493690492,-0.8077781796455383,6.328029155731201,3.509765625,2,"['E1B', 'F2', 'G1']",7.6,180,0.0,0.1738464010983697,[6400|0|0]
67,6700,0.79782634973526,1.2220752239227295,0.0291419774293899,3.050328254699707,0.6614031195640564,4.517831325531006,3.541015625,2,"['E1B', 'F2', 'G1']",7.6,180,0.0,0.2291716936160868,[6400|0|0]
68,6800,0.8086331486701965,1.2353365421295166,0.0975904315710067,3.0413177013397217,-0.6021654605865479,2.0371596813201904,3.552734375,2,"['E1B', 'F2', 'G1']",7.6,180,0.0,0.2997255052649186,[6400|0|0]
69,6900,0.8205240964889526,1.247904658317566,0.172111377120018,5.349616050720215,1.035478115081787,0.6401273012161255,3.546875,2,"['E1B', 'F2', 'G1']",7.6,180,0.0,0.3762286000393353,[6400|0|0]
70,7000,0.834027886390686,1.2514383792877195,0.2487634718418121,5.584651470184326,2.5677218437194824,-0.9576643109321594,3.552734375,2,"['E1B', 'F2', 'G1']",7.6,180,0.0,0.4541412636495852,[6400|0|0]
71,7100,0.8427843451499939,1.251957654953003,0.332537293434143,6.5496697425842285,2.467890977859497,-2.469569206237793,3.5625,2,"['E1B', 'F2', 'G1']",7.6,180,0.0,0.5383730771252768,[6400|0|0]
72,7200,0.8478140234947205,1.243471384048462,0.4193410277366638,4.680119037628174,2.362307548522949,-3.0482418537139893,3.546875,2,"['E1B', 'F2', 'G1']",7.6,180,0.0,0.6257355561822455,[6400|0|0]
73,7300,0.8488840460777283,1.2286702394485474,0.5099404454231262,3.06448745727539,1.6608275175094604,-3.337130308151245,3.5625,2,"['E1B', 'F2', 'G1']",7.6,180,0.0,0.7175422733380278,[6400|0|0]
74,7400,0.845974326133728,1.2095370292663574,0.6026468276977539,1.1796571016311646,2.019584894180298,-3.2580108642578125,3.57421875,2,"['E1B', 'F2', 'G1']",7.6,180,0.0,0.8122471809008239,[6400|0|0]
75,7500,0.8381081819534302,1.1910370588302612,0.6951406002044678,-0.1566625088453292,0.8455334305763245,-2.337338924407959,3.568359375,2,"['E1B', 'F2', 'G1']",7.6,180,0.0,0.9069003534991336,[6400|0|0]
76,7600,0.8292957544326782,1.1731998920440674,0.7882843017578125,-1.3075908422470093,-0.1129647195339202,-1.596052169799805,3.552734375,2,"['E1B', 'F2', 'G1']",7.6,180,0.0,1.0021451567002824,[6400|0|0]
77,7700,0.8201202154159546,1.1565158367156982,0.8833511471748352,-1.303386092185974,-0.8312250375747681,-1.076895236968994,3.546875,2,"['E1B', 'F2', 'G1']",7.6,180,0.0,1.0991000602172865,[6400|0|0]
78,7800,0.8130530118942261,1.1427264213562012,0.978769838809967,-2.0642104148864746,-1.5528154373168943,-0.7374551892280579,3.537109375,2,"['E1B', 'F2', 'G1']",7.6,180,0.0,1.1957686696773104,[6400|0|0]
79,7900,0.8083617091178894,1.1322410106658936,1.0758882761001587,-1.8652344942092896,-1.615204095840454,-0.8377736210823059,3.537109375,2,"['E1B', 'F2', 'G1']",7.6,180,0.0,1.2935640837864215,[6400|0|0]
80,8000,0.807631254196167,1.1233693361282349,1.1750682592391968,-1.4338746070861816,-1.264868140220642,-0.9006837606430054,3.583984375,2,"['E1B', 'F2', 'G1']",7.6,180,0.0,1.3931427422879032,[6400|0|0]
81,8100,0.8082225322723389,1.118504524230957,1.2754796743392944,-1.1350233554840088,-0.9287521839141846,-1.497968077659607,3.568359375,2,"['E1B', 'F2', 'G1']",7.6,180,0.0,1.4936736742788252,[6400|0|0]
82,8200,0.8121864199638367,1.1131234169006348,1.376664161682129,-1.548525094985962,0.2332379072904586,-1.4933984279632568,3.55859375,2,"['E1B', 'F2', 'G1']",7.6,180,0.0,1.5950786504908607,[6400|0|0]
83,8300,0.8152706623077393,1.1088213920593262,1.4788155555725098,-1.1251325607299805,0.5016134977340698,-1.5024325847625732,3.568359375,2,"['E1B', 'F2', 'G1']",7.6,180,0.0,1.6973671016587168,[6400|0|0]
84,8400,0.8167082071304321,1.1061651706695557,1.581605076789856,-0.9821738004684448,0.5980680584907532,-1.1233161687850952,3.541015625,2,"['E1B', 'F2', 'G1']",7.6,180,0.0,1.8002009857596295,[6400|0|0]
85,8500,0.8167624473571777,1.1068848371505735,1.6914643049240112,-0.6744664907455444,0.5575252175331116,-0.9721784591674804,3.599609375,2,"['E1B', 'F2', 'G1']",7.6,180,0.0,1.9100625844558008,[6400|0|0]
86,8600,0.8166432976722717,1.1048940420150757,1.7857823371887207,-0.3107345700263977,0.2974860966205597,2.199460983276367,3.6484375,2,"['E1B', 'F2', 'G1']",7.6,180,0.0,2.004401699737881,[6400|0|0]
87,8700,0.8159070611000061,1.1039825677871704,1.858906626701355,-0.5959933996200562,0.1943621039390564,6.014228820800781,3.642578125,2,"['E1B', 'F2', 'G1']",7.6,180,0.0,2.077535375608071,[6400|0|0]
88,8800,0.814661979675293,1.1014349460601809,1.9219396114349363,-0.3295745253562927,-0.3660886287689209,4.66791296005249,3.611328125,2,"['E1B', 'F2', 'G1']",7.6,180,0.0,2.140632109030982,[6400|0|0]
89,8900,0.8137081861495972,1.1004793643951416,1.9672175645828247,-0.529029369354248,-0.4365133047103882,2.823157787322998,3.62109375,2,"['E1B', 'F2', 'G1']",7.6,180,0.0,2.185930187353032,[6400|0|0]
90,9000,0.8119581937789917,1.09992253780365,1.9958659410476685,-0.3355525135993957,-0.3647427260875702,3.1312711238861084,3.58984375,2,"['E1B', 'F2', 'G1']",7.6,180,0.0,2.214637364212166,[6400|0|0]
91,9100,0.8136299252510071,1.0951409339904783,2.0131897926330566,-0.5078227519989014,-0.5978472232818604,6.99884033203125,3.552734375,2,"['E1B', 'F2', 'G1']",7.6,180,0.0,2.232686581782277,[6400|0|0]
92,9200,0.8140680193901062,1.092376947402954,2.0208699703216557,-1.141951322555542,-0.1130157485604286,8.602194786071777,3.568359375,2,"['E1B', 'F2', 'G1']",7.6,180,0.0,2.240860728689397,[6400|0|0]
93,9300,0.8103075623512268,1.0974522829055786,2.0178325176239014,-1.1822502613067627,-0.0270747859030962,9.16172695159912,3.5625,2,"['E1B', 'F2', 'G1']",7.6,180,0.0,2.247869736215185,[6400|0|0]
94,9400,0.807075023651123,1.1055580377578735,2.011686086654663,0.4803503751754761,0.0058814026415348,10.028803825378418,3.57421875,2,"['E1B', 'F2', 'G1']",7.6,180,279.34467190209966,2.2585435912747585,[6400|0|0]
95,9500,0.8024446964263916,1.0964640378952026,2.000993013381958,14.525550842285156,5.48867654800415,5.001656532287598,3.583984375,2,"['E1B', 'F2', 'G1']",7.6,180,279.34467190209966,2.2733247475125427,[6400|0|0]
96,9600,0.7919782996177673,1.0687507390975952,1.9797029495239256,16.74036407470703,4.095509052276611,1.895801663398743,3.509765625,2,"['E1B', 'F2', 'G1']",7.6,180,279.34467190209966,2.309805416523405,[6400|0|0]
97,9700,0.7609161734580994,1.0224814414978027,1.9506990909576416,19.01812744140625,3.591305494308472,-0.5292941927909851,3.484375,2,"['E1B', 'F2', 'G1']",7.6,180,279.34467190209966,2.3726299928743075,[6400|0|0]
98,9800,0.7143362760543823,0.9511839151382446,1.9216201305389404,14.773913383483888,-0.9499480128288268,-3.4489660263061523,3.47265625,2,"['E1B', 'F2', 'G1']",7.6,180,279.34467190209966,2.462622270577259,[6400|0|0]
99,9900,0.6576430797576904,0.85881108045578,1.8977326154708865,9.68830394744873,-4.54246997833252,-5.206637859344482,3.5,2,"['E1B', 'F2', 'G1']",7.6,180,279.34467190209966,2.573606379663811,[6400|0|0]
100,10000,0.6049797534942627,0.7507126331329346,1.88166081905365,2.7962825298309326,-8.165821075439453,-4.776377201080322,3.5625,2,"['E1B', 'F2', 'G1']",7.6,180,279.34467190209966,2.694920034652915,[6400|0|0]
101,10100,0.5531479120254517,0.6435667276382446,1.870370626449585,-5.28331995010376,-10.161063194274902,-7.119230270385742,3.57421875,2,"['E1B', 'F2', 'G1']",7.6,180,279.34467190209966,2.814478611523677,[6400|0|0]
102,10200,0.5149828195571899,0.548699676990509,1.8577800989151,-8.897214889526367,-12.052284240722656,-3.6133763790130615,3.552734375,2,"['E1B', 'F2', 'G1']",7.6,180,279.34467190209966,2.917507020058933,[6400|0|0]
103,10300,0.5086959004402161,0.4592703580856323,1.846319556236267,-11.506232261657717,-11.443479537963867,-0.9004272222518921,3.537109375,2,"['E1B', 'F2', 'G1']",7.6,180,279.34467190209966,3.007886622128575,[6400|0|0]
104,10400,0.5274271368980408,0.3789423704147339,1.8343884944915767,-12.863368034362791,-7.967514991760254,-1.3810070753097534,3.48828125,2,"['E1B', 'F2', 'G1']",7.6,180,279.34467190209966,3.091228058742366,[6400|0|0]
105,10500,0.5559345483779907,0.3265504539012909,1.8192591667175293,-12.519896507263184,-3.119532823562622,-0.7176362872123718,3.484375,2,"['E1B', 'F2', 'G1']",7.6,180,279.34467190209966,3.1527624554984355,[6400|0|0]
106,10600,0.5943204760551453,0.295790284872055,1.803042769432068,-10.930777549743652,-0.3415884375572204,4.495363712310791,3.478515625,2,"['E1B', 'F2', 'G1']",7.6,180,279.34467190209966,3.204556653853684,[6400|0|0]
107,10700,0.6290526986122131,0.2848514914512634,1.7974265813827517,-7.520822525024414,3.0853259563446045,1.4287011623382568,3.478515625,2,"['E1B', 'F2', 'G1']",7.6,180,279.34467190209966,3.2414012742678198,[6400|0|0]
108,10800,0.6618496775627136,0.2832861244678497,1.7997701168060305,-3.2529196739196777,5.6026129722595215,-12.98179817199707,3.515625,2,"['E1B', 'F2', 'G1']",7.6,180,279.34467190209966,3.2743191168513257,[6400|0|0]
109,10900,0.6793788075447083,0.2957606911659241,1.802297830581665,-0.6614823937416077,5.954742431640625,-19.49409866333008,3.53125,2,"['E1B', 'F2', 'G1']",7.6,180,279.34467190209966,3.295981862502833,[6400|0|0]
110,11000,0.6848925948143005,0.3152543902397156,1.8002129793167114,0.5951330661773682,4.638569355010986,-18.72966957092285,3.53125,2,"['E1B', 'F2', 'G1']",7.6,180,279.34467190209966,3.3163473420805607,[6400|0|0]
111,11100,0.6870375275611877,0.3343700170516968,1.80346155166626,1.1600651741027832,2.921579360961914,-11.417482376098633,3.494140625,2,"['E1B', 'F2', 'G1']",7.6,180,279.34467190209966,3.335855318582849,[6400|0|0]
112,11200,0.6795410513877869,0.3515829741954803,1.801452875137329,2.092508554458618,1.059795379638672,-5.96422815322876,3.525390625,2,"['E1B', 'F2', 'G1']",7.6,180,279.34467190209966,3.354736998329365,[6400|0|0]
113,11300,0.6753296256065369,0.3652753531932831,1.801799178123474,2.5160999298095703,-0.8563488721847534,-6.330761909484863,3.537109375,2,"['E1B', 'F2', 'G1']",7.6,180,279.34467190209966,3.3690665927230894,[6400|0|0]
114,11400,0.6705013513565063,0.3787952661514282,1.7998236417770386,2.9515843391418457,-1.5874896049499512,-4.041069984436035,3.55859375,2,"['E1B', 'F2', 'G1']",7.6,180,279.34467190209966,3.383558073754558,[6400|0|0]
115,11500,0.6647082567214966,0.3937241435050964,1.7943552732467651,3.979526996612549,-1.3765393495559692,5.791242599487305,3.583984375,2,"['E1B', 'F2', 'G1']",7.6,180,279.34467190209966,3.400479491510583,[6400|0|0]
116,11600,0.6616496443748474,0.4090901613235473,1.7891855239868164,3.772206068038941,-1.0977747440338137,10.085356712341309,3.60546875,2,"['E1B', 'F2', 'G1']",7.6,180,279.34467190209966,3.416977852656308,[6400|0|0]
117,11700,0.6640912294387817,0.4187357127666473,1.7847694158554075,4.606306552886963,-0.5816898941993713,12.778172492980955,3.60546875,2,"['E1B', 'F2', 'G1']",7.6,180,279.34467190209966,3.427863623703607,[6400|0|0]
118,11800,0.6675617694854736,0.4264175593852997,1.777399659156799,4.042356491088867,-0.6386428475379944,2.729182720184326,3.59375,2,"['E1B', 'F2', 'G1']",7.6,180,279.34467190209966,3.4390604415321184,[6400|0|0]
119,11900,0.6754434108734131,0.4241078495979309,1.771113634109497,4.2307844161987305,-0.195909783244133,-9.667073249816896,3.583984375,2,"['E1B', 'F2', 'G1']",7.6,180,279.34467190209966,3.449403030239268,[6400|0|0]
120,12000,0.6807350516319275,0.4206760227680206,1.7632381916046145,3.145542621612549,0.4634591042995453,-7.797624588012695,3.578125,2,"['E1B', 'F2', 'G1']",7.6,180,279.34467190209966,3.45949270277882,[6400|0|0]
121,12100,0.683018684387207,0.4134334921836853,1.7551263570785522,1.7824472188949585,1.1788538694381714,-1.2276209592819214,3.57421875,2,"['E1B', 'F2', 'G1']",7.6,180,279.34467190209966,3.47060445723994,[6400|0|0]
122,12200,0.6844776272773743,0.4022783935070038,1.750251054763794,0.5980803370475769,1.067463517189026,5.21746826171875,3.578125,2,"['E1B', 'F2', 'G1']",7.6,180,279.34467190209966,3.4828655058697904,[6400|0|0]
123,12300,0.6828608512878418,0.3893046081066131,1.7452832460403442,-0.9361488819122314,0.2786363661289215,8.379399299621582,3.578125,2,"['E1B', 'F2', 'G1']",7.6,180,279.34467190209966,3.4968516488594963,[6400|0|0]
124,12400,0.6795414090156555,0.3769637048244476,1.7414010763168335,-1.569632887840271,-0.1378265619277954,8.723444938659668,3.630859375,2,"['E1B', 'F2', 'G1']",7.6,180,0.0,3.5102078396555387,[6400|0|0]
125,12500,0.6734273433685303,0.3675038814544678,1.727378249168396,-1.8461172580718996,-1.0112037658691406,6.382235050201416,3.912109375,2,"['E1B', 'F2', 'G1']",7.6,180,0.0,3.528194216115613,[6400|0|0]
126,12600,0.6644758582115173,0.3595969080924988,1.6709444522857666,-2.120115041732788,-1.3320642709732056,6.996272087097168,3.810546875,2,"['E1B', 'F2', 'G1']",7.6,180,0.0,3.5858780331256987,[6400|0|0]
127,12700,0.656044065952301,0.3583489060401916,1.581820368766785,-2.218159437179565,-1.8030067682266235,1.9469026327133176,3.6796875,2,"['E1B', 'F2', 'G1']",7.6,180,0.0,3.67540878143556,[6400|0|0]
128,12800,0.6469488143920898,0.3601354658603668,1.4716933965682983,-1.8673347234725952,-1.5287214517593384,-1.2747650146484375,3.568359375,2,"['E1B', 'F2', 'G1']",7.6,180,0.0,3.785925139512275,[6400|0|0]
129,12900,0.6392012238502502,0.3647727966308594,1.3504806756973269,-0.135025605559349,-1.928166389465332,-1.184956669807434,3.546875,2,"['E1B', 'F2', 'G1']",7.6,180,0.0,3.907473704690245,[6400|0|0]
130,13000,0.6346328258514404,0.3705605268478393,1.2287615537643433,-0.6326120495796204,-2.319939136505127,-2.0407724380493164,3.55859375,2,"['E1B', 'F2', 'G1']",7.6,180,0.0,4.02941595629106,[6400|0|0]
131,13100,0.6323952078819275,0.3775803744792938,1.10827374458313,0.4872522354125976,-2.38224196434021,-1.936902642250061,3.57421875,2,"['E1B', 'F2', 'G1']",7.6,180,0.0,4.150128827834383,[6400|0|0]
132,13200,0.6348150968551636,0.3846600353717804,0.98952454328537,1.3680044412612915,-1.687962770462036,-1.2660348415374756,3.578125,2,"['E1B', 'F2', 'G1']",7.6,180,0.0,4.269113491845554,[6400|0|0]
133,13300,0.6396588087081909,0.3911648690700531,0.8722193837165833,1.4916969537734983,-1.7669482231140137,0.1970525681972503,3.583984375,2,"['E1B', 'F2', 'G1']",7.6,180,0.0,4.386698673171331,[6400|0|0]
134,13400,0.646784782409668,0.3963781297206878,0.7554472088813782,2.0150160789489746,-0.7306681275367737,1.4578986167907717,3.58984375,2,"['E1B', 'F2', 'G1']",7.6,180,0.0,4.503804174338224,[6400|0|0]
135,13500,0.6565364003181458,0.3993054032325744,0.6363298892974854,1.924938678741455,-0.4358009994029999,1.8203802108764648,3.578125,2,"['E1B', 'F2', 'G1']",7.6,180,0.0,4.623355831821078,[6400|0|0]
136,13600,0.6642665266990662,0.4065738022327423,0.510840117931366,1.0745372772216797,-1.3251103162765503,1.2815371751785278,3.552734375,2,"['E1B', 'F2', 'G1']",7.6,180,0.0,4.749293384582006,[6400|0|0]
137,13700,0.6805563569068909,0.4103071987628937,0.3942075967788696,0.1220844611525535,0.7951463460922241,2.007410049438477,3.435546875,2,"['E1B', 'F2', 'G1']",7.6,180,0.0,4.867117158958142,[6400|0|0]
138,13800,0.6981402635574341,0.4182036519050598,0.2838960289955139,-0.7148345708847046,0.0129791721701622,4.159648895263672,3.416015625,2,"['E1B', 'F2', 'G1']",7.6,180,0.0,4.97910014754187,[6400|0|0]
139,13900,0.7167326807975769,0.4274594485759735,0.1888747662305832,4.167126655578613,3.13350510597229,7.506552696228027,3.447265625,2,"['E1B', 'F2', 'G1']",7.6,180,0.0,5.076364674108789,[6400|0|0]
140,14000,0.7366739511489868,0.4290505051612854,0.1136679723858833,8.00003433227539,0.7065982222557068,8.774033546447754,3.447265625,2,"['E1B', 'F2', 'G1']",7.6,180,0.0,5.154186570543436,[6400|0|0]
141,14100,0.7575214505195618,0.4174088537693023,0.0540795996785163,4.125339984893799,4.14403247833252,5.103129863739014,3.416015625,2,"['E1B', 'F2', 'G1']",7.6,180,0.0,5.218380966241586,[6400|0|0]
142,14200,0.7716485261917114,0.3984567821025848,0.0142566561698913,0.6437681317329407,7.264023780822754,2.275242805480957,3.447265625,2,"['E1B', 'F2', 'G1']",7.6,180,0.0,5.26469103120805,[6400|0|0]
143,14300,0.7715935707092285,0.3785192668437958,-0.0005676014116033,-2.2489521503448486,8.364151954650879,1.556046724319458,3.53125,2,"['E1B', 'F2', 'G1']",7.6,180,0.0,5.289535872677498,[6400|0|0]
144,14400,0.7551316618919373,0.3598257601261139,0.0046844407916069,-1.773531794548035,7.287121772766113,1.7374647855758667,3.615234375,2,"['E1B', 'F2', 'G1']",7.6,180,0.0,5.314992219285312,[6400|0|0]
145,14500,0.7278032302856445,0.3435147702693939,0.0191493798047304,-1.7085340023040771,-0.4646082818508148,1.3590704202651978,3.6796875,2,"['E1B', 'F2', 'G1']",7.6,180,0.0,5.34995113838787,[6400|0|0]
146,14600,0.7010475993156433,0.3288416266441345,0.0354195684194564,-2.7915141582489014,-2.660282611846924,3.136827230453491,3.689453125,2,"['E1B', 'F2', 'G1']",7.6,180,0.0,5.384532693731855,[6400|0|0]
147,14700,0.6808452606201172,0.3195001780986786,0.0445339828729629,-2.12861442565918,-6.278419494628906,1.9411927461624143,3.63671875,2,"['E1B', 'F2', 'G1']",7.6,180,0.0,5.40858409079162,[6400|0|0]
148,14800,0.6710113286972046,0.3167494237422943,0.0457938537001609,-3.1650819778442383,-5.403499603271484,-0.4670690596103668,3.568359375,2,"['E1B', 'F2', 'G1']",7.6,180,0.0,5.418872926541833,[6400|0|0]
149,14900,0.6709260940551758,0.3207022547721863,0.04367146641016,-0.3698077499866485,-2.479544162750244,-1.593058705329895,3.55859375,2,"['E1B', 'F2', 'G1']",7.6,180,0.0,5.4233603161955,[6400|0|0]
150,15000,0.6771388649940491,0.3264262676239013,0.0423102118074893,-0.3580850958824157,-2.765398502349853,-2.156450033187866,3.55859375,2,"['E1B', 'F2', 'G1']",7.6,180,0.0,5.431916942864859,[6400|0|0]
151,15100,0.6872779130935669,0.3329924941062927,0.044002566486597,0.2122595161199569,0.0587475672364234,-1.917810559272766,3.57421875,2,"['E1B', 'F2', 'G1']",7.6,180,0.0,5.444114470931738,[6400|0|0]
152,15200,0.6984338760375977,0.3378948271274566,0.0479552447795867,2.447781562805176,2.3534014225006104,-1.167168378829956,3.58984375,2,"['E1B', 'F2', 'G1']",7.6,180,0.0,5.456925093240855,[6400|0|0]
153,15300,0.7065595388412476,0.3397019803524017,0.0499014295637607,1.2482463121414185,3.016746282577514,-1.1779533624649048,3.5625,2,"['E1B', 'F2', 'G1']",7.6,180,0.0,5.465473767640503,[6400|0|0]
154,15400,0.7087383270263672,0.3387442529201507,0.0487221181392669,2.529629230499268,3.377390623092652,0.8524326086044312,3.537109375,2,"['A1', 'F2', 'J1']",7.6,180,0.0,5.468129918092952,[6400|100|0]
155,15500,0.705815315246582,0.3341622352600097,0.0448306426405906,0.7444717884063721,2.221280097961426,2.8960626125335693,3.515625,2,"['A1', 'F2', 'J1']",7.6,180,0.0,5.47481441248366,[6400|200|0]
156,15600,0.6990454196929932,0.3275681138038635,0.042224571108818,0.2936635017395019,0.3602533638477325,3.5379016399383545,3.505859375,2,"['A1', 'F2', 'J1']",7.6,180,0.0,5.484617755403992,[6400|300|0]
157,15700,0.692751944065094,0.3205372095108032,0.0430166237056255,-1.0555981397628784,-1.085399150848389,1.9141243696212769,3.5,2,"['A1', 'F2', 'J1']",7.6,180,0.0,5.494087116415868,[6400|400|0]
158,15800,0.6877149939537048,0.3157229721546173,0.0443182066082954,-1.1529823541641235,-0.6512425541877747,1.4948110580444336,3.509765625,2,"['A1', 'F2', 'J1']",7.6,180,0.0,5.501175266089715,[6400|500|0]
159,15900,0.6848428845405579,0.3132804930210113,0.0473929196596145,0.069075122475624,-0.6237521171569824,1.7267154455184937,3.515625,2,"['A1', 'F2', 'J1']",7.6,180,0.0,5.506040302281475,[6400|600|0]
160,16000,0.6841750144958496,0.31133833527565,0.0491107329726219,0.2032065689563751,-0.6898874640464783,0.7617896199226379,3.48828125,2,"['A1', 'F2', 'J1']",7.6,180,0.0,5.508717784248329,[6400|700|0]
161,16100,0.6849419474601746,0.3084666728973388,0.0482871904969215,0.6994891166687012,-1.676990270614624,-1.602782130241394,3.484375,2,"['A1', 'F2', 'J1']",7.6,180,0.0,5.511802075608765,[6400|800|0]
162,16200,0.6862127184867859,0.3031533658504486,0.047614898532629,1.3505823612213137,0.6016489267349243,-3.7416858673095694,3.478515625,2,"['A1', 'F2', 'J1']",7.6,180,0.0,5.517306443625337,[6400|900|0]
163,16300,0.6879324316978455,0.2948853373527527,0.0496455878019332,0.2939805388450622,-0.725174069404602,-4.317315101623535,3.494140625,2,"['A1', 'F2', 'J1']",7.6,180,0.0,5.525992144960029,[6400|1000|0]
164,16400,0.6912139058113098,0.2839684188365936,0.0522471070289611,0.8170005679130554,0.5257376432418823,-5.319297790527344,3.5,2,"['A1', 'F2', 'J1']",7.6,180,0.0,5.537684667550745,[6400|1100|0]
165,16500,0.6940164566040039,0.270833671092987,0.054306011646986,0.4144434630870819,-0.3200130462646484,-5.3740234375,3.48828125,2,"['A1', 'F2', 'J1']",7.6,180,0.0,5.5512719769775565,[6400|1200|0]
166,16600,0.6969665288925171,0.2567394375801086,0.0575574077665805,0.213407814502716,0.7949047088623047,-5.141895771026611,3.509765625,2,"['A1', 'F2', 'J1']",7.6,180,0.0,5.56603415573103,[6400|1300|0]
167,16700,0.6981485486030579,0.2423334121704101,0.060369536280632,-0.1748852133750915,0.9441637992858888,-4.5885820388793945,3.478515625,2,"['A1', 'F2', 'J1']",7.6,180,0.0,5.580759603278746,[6400|1400|0]
168,16800,0.697988748550415,0.2279076725244522,0.0625639781355857,0.0686169117689132,-0.3794258534908294,-3.965596199035645,3.494140625,2,"['A1', 'F2', 'J1']",7.6,180,0.0,5.595352172464621,[6400|1500|0]
169,16900,0.6961801648139954,0.2130504697561264,0.0639832392334938,-0.0038207084871828,0.5574067234992981,-3.406838893890381,3.48828125,2,"['A1', 'F2', 'J1']",7.6,180,0.0,5.610386192262893,[6400|1600|0]
170,17000,0.6934500932693481,0.1982523798942566,0.0663346350193023,-0.4582298994064331,0.4784353971481323,-2.988377571105957,3.48828125,2,"['A1', 'F2', 'J1']",7.6,180,0.0,5.6256166162996815,[6400|1700|0]
171,17100,0.68951016664505,0.1830204427242279,0.0689920336008071,0.0992566347122192,0.0613472200930118,-2.571268081665039,3.5,2,"['A1', 'F2', 'J1']",7.6,180,0.0,5.641572702880593,[6400|1800|0]
172,17200,0.6853743195533752,0.1685652136802673,0.0712085515260696,-0.4743521213531494,0.6604461669921875,-2.575763702392578,3.494140625,2,"['A1', 'F2', 'J1']",7.6,180,0.0,5.656770460267526,[6400|1900|0]
173,17300,0.6815151572227478,0.1556378453969955,0.0729341953992843,-0.3281019628047943,-1.9647421836853027,-3.152209520339966,3.494140625,2,"['A1', 'F2', 'J1']",7.6,180,0.0,5.67037148344237,[6400|2000|0]
174,17400,0.6789296269416809,0.1444047689437866,0.0646511763334274,-2.604172945022583,5.342373371124268,-4.417628765106201,4.06640625,2,"['A1', 'F2', 'J1']",7.6,180,0.0,5.684565685719472,[6400|2100|0]
175,17500,0.6713825464248657,0.1367534101009369,0.004645035136491,-10.651917457580566,18.607223510742188,-4.692359447479248,4.06640625,2,"['A1', 'F2', 'J1']",7.6,180,0.0,5.745526646159872,[6400|2200|0]
176,17600,0.6710201501846313,0.1309958547353744,-0.0148441344499588,2.5771851539611816,-5.064242839813232,1.047595739364624,4.06640625,2,"['A1', 'F2', 'J1']",7.6,180,0.0,5.765851717032857,[6400|2300|0]
177,17700,0.6697705984115601,0.130995512008667,-0.0180421564728021,-1.9211369752883911,-3.396521806716919,3.518378973007202,4.0703125,2,"['A1', 'F2', 'J1']",7.6,180,0.0,5.769285188251557,[6400|2400|0]
178,17800,0.6700801849365234,0.1312496811151504,-0.0179798100143671,-1.6561810970306396,-3.193488121032715,3.599771499633789,4.07421875,2,"['A1', 'F2', 'J1']",7.6,180,0.0,5.7696905681129325,[6400|2500|0]
179,17900,0.6699215173721313,0.131379947066307,-0.0177684091031551,-1.4400105476379397,-3.0145692825317383,3.662420749664306,4.07421875,2,"['A1', 'F2', 'J1']",7.6,180,0.0,5.769985245833981,[6400|2600|0]
180,18000,0.6695770621299744,0.131338819861412,-0.0178175773471593,-1.2381246089935305,-2.8514771461486816,3.709658622741699,4.07421875,2,"['A1', 'F2', 'J1']",7.6,180,0.0,5.770335614749626,[6400|2700|0]
181,18100,0.6697834134101868,0.1313091814517974,-0.017522482201457,-1.0397377014160156,-2.690172910690308,3.742108583450317,4.07421875,2,"['A1', 'F2', 'J1']",7.6,180,0.0,5.770696918543111,[6400|2800|0]
182,18200,0.6698638796806335,0.1311274468898773,-0.0176291782408952,-0.9156953692436218,-2.631091356277466,3.718791484832764,4.08203125,2,"['A1', 'F2', 'J1']",7.6,180,0.0,5.77092249849902,[6400|2900|0]
183,18300,0.6702589988708496,0.1313590854406356,-0.0178816504776477,-0.8132659792900085,-2.467458724975586,3.431191921234131,4.08203125,2,"['A1', 'F2', 'J1']",7.6,180,0.0,5.771445487813447,[6400|3000|0]
184,18400,0.6702852249145508,0.1305423974990844,-0.0182742346078157,-0.7349937558174133,-2.3766767978668213,3.4289214611053467,4.08203125,2,"['A1', 'F2', 'J1']",7.6,180,0.0,5.772352013763712,[6400|3100|0]
185,18500,0.6730886697769165,0.1339673548936844,-0.0167490765452384,-0.6339951157569885,-2.3473660945892334,3.485179901123047,4.0859375,2,"['A1', 'F2', 'J1']",7.6,180,0.0,5.777033439120053,[6400|3200|0]
186,18600,0.6736832857131958,0.1338343918323516,-0.0169807504862546,-0.3992778956890106,-2.2191452980041504,3.5988576412200928,4.0859375,2,"['A1', 'F2', 'J1']",7.6,180,0.0,5.777685298078956,[6400|3300|0]
187,18700,0.6767097115516663,0.1397747248411178,-0.0141784790903329,-0.4680560827255249,-2.310689210891724,3.654865980148315,4.0859375,2,"['A1', 'F2', 'J1']",7.6,180,0.0,5.7849171397937065,[6400|3400|0]
188,18800,0.6750633120536804,0.1425797194242477,-0.0149466237053275,-0.1984786689281463,-2.3172638416290283,6.901722431182861,4.0859375,2,"['A1', 'F2', 'J1']",7.6,180,0.0,5.788259096117165,[6400|3500|0]
189,18900,0.6625981330871582,0.1373715251684188,-0.0141327772289514,0.0453528985381126,7.303800106048584,10.084094047546388,4.08984375,2,"['A1', 'F2', 'J1']",7.6,180,0.0,5.8017930652379,[6400|3600|0]
190,19000,0.6447717547416687,0.174340009689331,0.0278651937842369,2.9742767810821533,12.427218437194824,6.100941181182861,4.08984375,2,"['A1', 'F2', 'J1']",7.6,180,0.0,5.860515106942136,[6400|3700|0]
191,19100,0.6356605887413025,0.2621034383773803,0.059637114405632,13.77735424041748,5.454296588897705,-5.191340446472168,4.08984375,2,"['A1', 'F2', 'J1']",7.6,180,0.0,5.954296169534435,[6400|3800|0]
192,19200,0.6308363676071167,0.3491794168949127,0.0481158345937728,13.64889907836914,5.288152694702148,-14.115885734558104,4.08984375,2,"['A1', 'F2', 'J1']",7.6,180,0.0,6.042263430676523,[6400|3900|0]
193,19300,0.6173704266548157,0.3846333026885986,0.0201235953718423,10.65810775756836,8.049110412597656,-9.91195583343506,4.08984375,2,"['A1', 'F2', 'J1']",7.6,180,0.0,6.089400200190994,[6400|4000|0]
194,19400,0.6118737459182739,0.3950729966163635,0.0023178884293884,6.615390777587891,8.076272964477539,-7.235112190246582,4.08984375,2,"['A1', 'F2', 'J1']",7.6,180,0.0,6.110760066954282,[6400|4100|0]
195,19500,0.6088159084320068,0.3863887786865234,-0.011975877918303,-1.6984467506408691,4.974646091461182,-7.736653804779053,4.08984375,2,"['A1', 'F2', 'J1']",7.6,180,0.0,6.127762354081248,[6400|4200|0]
196,19600,0.6151432394981384,0.393161416053772,-0.0100780660286545,-3.420217990875244,4.210785388946533,-4.738619327545166,4.08984375,2,"['A1', 'F2', 'J1']",7.6,180,0.0,6.13722308477698,[6400|4300|0]
197,19700,0.6209949851036072,0.3860574662685394,-0.0098256096243858,-1.3264484405517578,3.730916738510132,-5.098517417907715,4.09765625,2,"['A1', 'F2', 'J1']",7.6,180,0.0,6.1464302973529055,[6400|4400|0]
198,19800,0.6199936866760254,0.3785794079303741,-0.0087969247251749,1.1332762241363523,1.7004255056381226,-3.478524923324585,4.09765625,2,"['A1', 'F2', 'J1']",7.6,180,0.0,6.154044898305808,[6400|4500|0]
199,19900,0.6232424974441528,0.3859404027462005,-0.0102534536272287,1.6655535697937012,0.636942446231842,-2.308825731277466,4.09765625,2,"['A1', 'F2', 'J1']",7.6,180,0.0,6.16222172486189,[6400|4600|0]
200,20000,0.6205964088439941,0.3807854056358337,-0.0095540164038538,2.723313570022583,0.0474270321428775,-2.071529626846313,4.09765625,2,"['A1', 'F2', 'J1']",7.6,180,0.0,6.1680582471583625,[6400|4700|0]
201,20100,0.6212794780731201,0.3864272832870483,-0.0096022300422191,1.9822570085525515,0.7106485962867737,-0.683349609375,4.09765625,2,"['A1', 'F2', 'J1']",7.6,180,0.0,6.173741528917873,[6400|4800|0]
202,20200,0.6228225231170654,0.3909924328327179,-0.0077458354644477,1.179094672203064,1.5949184894561768,0.3046777546405792,4.1015625,2,"['A1', 'F2', 'J1']",7.6,180,0.0,6.178905614433272,[6400|4900|0]
203,20300,0.6220849752426147,0.3911007344722748,-0.0068128169514238,0.5099804401397705,2.5397732257843018,1.078603744506836,4.1015625,2,"['A1', 'F2', 'J1']",7.6,180,0.0,6.18009986300785,[6400|5000|0]
204,20400,0.6222172975540161,0.3907343447208404,-0.0065197385847568,0.7290665507316589,2.4493348598480225,1.5543758869171145,4.1015625,2,"['A1', 'F2', 'J1']",7.6,180,0.0,6.180587352057018,[6400|5100|0]
205,20500,0.6214351058006287,0.3910810053348541,-0.0063364161178469,0.5824047327041626,2.635050773620605,1.9389936923980715,4.19140625,2,"['A1', 'F2', 'J1']",7.6,180,0.0,6.181462340426798,[6400|5200|0]
206,20600,0.6212567090988159,0.3915022909641266,-0.0065279435366392,0.4092721045017242,2.8237435817718506,2.2098426818847656,4.19140625,2,"['A1', 'F2', 'J1']",7.6,180,0.0,6.181958313930927,[6400|5300|0]
207,20700,0.6213542222976685,0.3915550410747528,-0.0059258174151182,0.3972904682159424,2.843984603881836,2.417003631591797,4.1953125,2,"['A1', 'F2', 'J1']",7.6,180,0.0,6.182570561645778,[6400|5400|0]
208,20800,0.6209890842437744,0.3914336860179901,-0.006381893530488,0.406719446182251,2.8502039909362797,2.5618560314178467,4.1953125,2,"['A1', 'F2', 'J1']",7.6,180,0.0,6.183167267830775,[6400|5500|0]
209,20900,0.6212852001190186,0.3916167020797729,-0.0063454932533204,0.3553841412067413,2.8657777309417725,2.6786930561065674,4.1953125,2,"['A1', 'F2', 'J1']",7.6,180,0.0,6.183517274217317,[6400|5600|0]
210,21000,0.6212133765220642,0.3915212750434875,-0.0062279477715492,0.3599274158477783,2.8464534282684326,2.778724670410156,4.1953125,2,"['A1', 'F2', 'J1']",7.6,180,0.0,6.18368485073303,[6400|5700|0]
211,21100,0.620982825756073,0.3915876746177673,-0.0061622131615877,0.3837392330169678,2.837874174118042,2.821428060531616,4.1953125,2,"['A1', 'F2', 'J1']",7.6,180,0.0,6.183933614874559,[6400|5800|0]
212,21200,0.6210552453994751,0.3915583491325378,-0.006402198690921,0.3937829136848449,2.839388132095337,2.895879030227661,4.1953125,2,"['A1', 'F2', 'J1']",7.6,180,0.0,6.184185998794656,[6400|5900|0]
213,21301,0.6207984089851379,0.391175627708435,-0.0063391760922968,0.432209700345993,2.8345298767089844,2.934382200241089,4.203125,2,"['A1', 'F2', 'J1']",7.6,180,0.0,6.184651200342519,[6400|6000|0]
214,21401,0.6210482120513916,0.39126917719841,-0.00654205866158,0.4573836028575897,2.8298890590667725,2.964934825897217,4.203125,2,"['A1', 'F2', 'J1']",7.6,180,0.0,6.184986333772518,[6400|6100|0]
215,21500,0.6207973957061768,0.3913993835449219,-0.0061668679118156,0.4732286036014557,2.832669258117676,3.0239017009735107,4.203125,2,"['A1', 'F2', 'J1']",7.6,180,0.0,6.185456047121709,[6400|6200|0]
216,21600,0.6208041906356812,0.3910405039787292,-0.0064803790301084,0.5123273730278015,2.824448585510254,3.0168206691741943,4.203125,2,"['A1', 'F2', 'J1']",7.6,180,0.0,6.185932628631412,[6400|6300|0]
217,21701,0.6208102703094482,0.3914948999881744,-0.0061766747385263,0.521295964717865,2.8215556144714355,3.0107438564300537,4.203125,2,"['A1', 'F2', 'J1']",7.6,180,0.0,6.186479207987552,[6400|6400|0]
218,21801,0.6208006739616394,0.3909872770309448,-0.0062517654150724,0.5430283546447754,2.8220436573028564,3.0270466804504395,4.203125,2,"['A1', 'F2', 'J1']",7.6,180,0.0,6.1869924445473385,[6400|6500|0]
219,21901,0.6212482452392578,0.3912713527679443,-0.006346620619297,0.5507889986038208,2.8062634468078613,3.0342462062835693,4.20703125,2,"['A1', 'F2', 'J1']",7.6,180,0.0,6.187530976424454,[6400|6600|0]
220,22001,0.6206526160240173,0.3913651406764984,-0.0064497785642743,0.558793306350708,2.811640977859497,3.057823181152344,4.203125,2,"['A1', 'F2', 'J1']",7.6,180,0.0,6.188142705037035,[6400|6700|0]
221,22101,0.6208842992782593,0.3914449214935303,-0.006280637346208,0.5674042701721191,2.796883344650269,3.0582516193389893,4.20703125,2,"['A1', 'F2', 'J1']",7.6,180,0.0,6.188440447981051,[6400|6800|0]
222,22201,0.6210435032844543,0.3912080526351928,-0.0061568021774291,0.5762580037117004,2.792976140975952,3.063100099563598,4.20703125,2,"['A1', 'F2', 'J1']",7.6,180,0.0,6.188751555551941,[6400|6900|0]
223,22301,0.6208374500274658,0.3911564648151397,-0.0064244344830513,0.5903791785240173,2.7831034660339355,3.062065601348877,4.20703125,2,"['A1', 'F2', 'J1']",7.6,180,0.0,6.189093237127251,[6400|7000|0]
224,22401,0.6210989356040955,0.3910826444625854,-0.0061849486082792,0.6036088466644287,2.781899929046631,3.0756959915161133,4.20703125,2,"['A1', 'F2', 'J1']",7.6,180,0.0,6.189455421659571,[6400|7100|0]
225,22502,0.620808482170105,0.3912140130996704,-0.0060198409482836,0.6136917471885681,2.77849555015564,3.066548109054565,4.20703125,2,"['A1', 'F2', 'J1']",7.6,180,0.0,6.189814422293994,[6400|7200|0]
226,22600,0.6208342909812927,0.3913373947143554,-0.0064160213805735,0.6110411882400513,2.787859439849853,3.0652756690979004,4.20703125,2,"['A1', 'F2', 'J1']",7.6,180,0.0,6.190230172281975,[6400|7300|0]
227,22700,0.6211877465248108,0.3918233811855316,-0.0061975019052624,0.5953962802886963,2.7640082836151123,3.0556118488311768,4.20703125,2,"['A1', 'F2', 'J1']",7.6,180,0.0,6.190869597361637,[6400|7400|0]
228,22802,0.6211152672767639,0.3915984332561493,-0.0064873145893216,0.6259937286376953,2.778290033340454,3.069442749023437,4.2109375,2,"['A1', 'F2', 'J1']",7.6,180,0.0,6.191243557525521,[6400|7500|0]
229,22902,0.6209002733230591,0.3914273977279663,-0.0063206604681909,0.6503139734268188,2.7846364974975586,3.0686349868774414,4.2109375,2,"['A1', 'F2', 'J1']",7.6,180,0.0,6.191564881580208,[6400|7600|0]
230,23000,0.6213043928146362,0.3915682435035705,-0.0064241932705044,0.6561822295188904,2.781157255172729,3.0921671390533447,4.2109375,2,"['A1', 'F2', 'J1']",7.6,180,0.0,6.192005187311641,[6400|7700|0]
231,23100,0.6208580732345581,0.3913286924362182,-0.0063228784129023,0.6655117273330688,2.7957773208618164,3.1048028469085693,4.2109375,2,"['A1', 'F2', 'J1']",7.6,180,0.0,6.192521763135506,[6400|7800|0]
232,23200,0.6210228800773621,0.3916739523410797,-0.0062511409632861,0.6620770692825317,2.804340362548828,3.103487491607666,4.2109375,2,"['A1', 'F2', 'J1']",7.6,180,0.0,6.192911008506727,[6400|7900|0]
233,23300,0.6210196614265442,0.3913767337799072,-0.0061348001472651,0.6698910593986511,2.8044419288635254,3.082587242126465,4.2109375,2,"['A1', 'F2', 'J1']",7.6,180,0.0,6.193230201893706,[6400|8000|0]
234,23400,0.6210836172103882,0.3913009166717529,-0.0061060255393385,0.6726921200752258,2.795433759689331,3.0665416717529297,4.2109375,2,"['E1B', 'F2', 'G1']",7.6,180,0.0,6.193333480905308,[6400|8000|0]
235,23500,0.6203415989875793,0.3912730515003204,-0.0060398136265575,0.8058872222900391,2.6474077701568604,3.066659927368164,3.05078125,2,"['E1B', 'F2', 'G1']",7.6,180,0.0,6.194078968348632,[6400|8000|0]
236,23600,0.6210707426071167,0.3902020156383514,-0.0021707632113248,1.5069125890731812,-1.9651120901107788,2.6964471340179443,3.478515625,2,"['E1B', 'F2', 'G1']",7.6,180,0.0,6.198159203556454,[6400|8000|0]
237,23700,0.6299029588699341,0.3941663205623626,0.0277243051677942,-2.054107427597046,-7.478645324707031,1.1630414724349976,3.59375,2,"['E1B', 'F2', 'G1']",7.6,180,0.0,6.22958274363449,[6400|8000|0]
238,23800,0.6518484354019165,0.4051938652992248,0.081847570836544,1.5798076391220093,-1.755069136619568,2.1092681884765625,3.62109375,2,"['E1B', 'F2', 'G1']",7.6,180,0.0,6.289017906373304,[6400|8000|0]
239,23900,0.6784413456916809,0.4185373485088348,0.1517314910888672,4.526394844055176,1.8697888851165767,1.777882695198059,3.6484375,2,"['E1B', 'F2', 'G1']",7.6,180,0.0,6.364971798516351,[6400|8000|0]
240,24000,0.7013912796974182,0.4253290593624115,0.2302627563476562,5.438546657562256,4.737831115722656,0.7968719005584717,3.65234375,2,"['E1B', 'F2', 'G1']",7.6,180,0.0,6.447069218879799,[6400|8000|0]
241,24100,0.711340606212616,0.4293402135372162,0.308071881532669,4.187935829162598,5.000094890594482,1.259492039680481,3.65234375,2,"['E1B', 'F2', 'G1']",7.6,180,0.0,6.525614355062614,[6400|8000|0]
242,24200,0.7174656987190247,0.4245290458202362,0.3909687995910644,3.3704047203063965,5.060522079467773,0.4533580541610718,3.6484375,2,"['E1B', 'F2', 'G1']",7.6,180,0.0,6.608876369910883,[6400|8000|0]
243,24300,0.7144439816474915,0.4190765619277954,0.4791446924209595,2.6988210678100586,3.943859100341797,-2.064726591110229,3.658203125,2,"['E1B', 'F2', 'G1']",7.6,180,0.0,6.697272345107759,[6400|8000|0]
244,24400,0.7044967412948608,0.4101211726665497,0.5677997469902039,1.0820032358169556,1.0931177139282229,-3.7488934993743896,3.65234375,2,"['E1B', 'F2', 'G1']",7.6,180,0.0,6.786932064536994,[6400|8000|0]
245,24500,0.6922633051872253,0.4038803875446319,0.6567371487617493,0.3618426024913788,-0.1412938386201858,-2.954792022705078,3.630859375,2,"['E1B', 'F2', 'G1']",7.6,180,0.0,6.876923540754527,[6400|8000|0]
246,24600,0.6819813847541809,0.4001114964485168,0.7466407418251038,0.2066256403923034,-2.087160110473633,-2.851184844970703,3.63671875,2,"['E1B', 'F2', 'G1']",7.6,180,0.0,6.967491628255518,[6400|8000|0]
247,24700,0.6764559149742126,0.3977576196193695,0.8419864773750305,0.0092528732493519,-2.675422430038452,-2.1802358627319336,3.642578125,2,"['E1B', 'F2', 'G1']",7.6,180,0.0,7.063026338387347,[6400|8000|0]
248,24800,0.6759984493255615,0.3962839543819427,0.9411959648132324,1.4339371919631958,-0.6794856190681458,-1.421436429023743,3.6484375,2,"['E1B', 'F2', 'G1']",7.6,180,0.0,7.162247824779169,[6400|8000|0]
249,24900,0.6802337169647217,0.3915522396564483,1.0392626523971558,1.9218584299087524,-0.6034735441207886,-0.6913052201271057,3.6484375,2,"['E1B', 'F2', 'G1']",7.6,180,0.0,7.260519905401804,[6400|8000|0]
250,25000,0.6818735599517822,0.3834720551967621,1.1379257440567017,1.8705165386199951,0.2626128494739532,-0.4801384210586548,3.63671875,2,"['E1B', 'F2', 'G1']",7.6,180,0.0,7.359526895668879,[6400|8000|0]
251,25100,0.6823515892028809,0.3717818558216095,1.2370747327804563,0.9675672054290771,0.5840373039245605,-0.4836497902870178,3.63671875,2,"['E1B', 'F2', 'G1']",7.6,180,0.0,7.459363818890396,[6400|8000|0]
252,25200,0.6818731427192688,0.358201116323471,1.3369156122207642,-0.9126675128936768,0.3348611891269684,-0.6645762920379639,3.642578125,2,"['E1B', 'F2', 'G1']",7.6,180,0.0,7.560125252999722,[6400|8000|0]
253,25300,0.6801856160163879,0.3455666005611419,1.4368034601211548,-1.5538042783737185,0.4250028729438782,-0.9118692874908448,3.642578125,2,"['E1B', 'F2', 'G1']",7.6,180,0.0,7.660823122356988,[6400|8000|0]
254,25400,0.6794523000717163,0.3355274498462677,1.5365325212478638,-1.5998640060424805,0.2297596484422683,1.3521084785461426,3.705078125,2,"['E1B', 'F2', 'G1']",7.6,180,0.0,7.761058884101814,[6400|8000|0]
255,25500,0.6783316135406494,0.3289600312709808,1.631320595741272,-1.962765097618103,0.2010386437177658,6.985140800476074,3.720703125,2,"['E1B', 'F2', 'G1']",7.6,180,0.0,7.856080807841612,[6400|8000|0]
256,25600,0.6761267185211182,0.3215713798999786,1.711814045906067,-2.030881881713867,-0.3366696536540985,9.431955337524414,3.720703125,2,"['E1B', 'F2', 'G1']",7.6,180,0.0,7.936942722551577,[6400|8000|0]
257,25700,0.6757807731628418,0.3138976395130157,1.780293107032776,-2.2868752479553223,-0.1916069388389587,6.723642349243164,3.7265625,2,"['E1B', 'F2', 'G1']",7.6,180,0.0,8.005851269064422,[6400|8000|0]
258,25800,0.6739153265953064,0.3104183375835418,1.827187418937683,-2.520170927047729,-0.3546335399150848,7.844000339508057,3.716796875,2,"['E1B', 'F2', 'G1']",7.6,180,0.0,8.052911463728783,[6400|8000|0]
259,25900,0.6725175380706787,0.3077394366264343,1.854310393333435,-2.1951584815979004,0.1305762529373169,0.6439946889877319,3.6796875,2,"['E1B', 'F2', 'G1']",7.6,180,0.0,8.08020223255581,[6400|8000|0]
260,26000,0.6701892614364624,0.3109396398067474,1.8719829320907595,-1.8051077127456665,0.2164080440998077,0.0883186012506485,3.6796875,2,"['E1B', 'F2', 'G1']",7.6,180,0.0,8.098312472714621,[6400|8000|0]
261,26100,0.6676241159439087,0.3192420303821563,1.8820801973342896,-0.9835373759269714,0.008588614873588,-2.956984519958496,3.66796875,2,"['E1B', 'F2', 'G1']",7.6,180,0.0,8.111634050176123,[6400|8000|0]
262,26200,0.6655781269073486,0.3204584717750549,1.880356788635254,0.348025381565094,-0.0390491113066673,-3.8292720317840576,3.6484375,2,"['E1B', 'F2', 'G1']",7.6,180,0.0,8.114572746884528,[6400|8000|0]
263,26300,0.6643579602241516,0.324900358915329,1.8793699741363523,0.520721435546875,-0.1840307414531707,-5.453986167907715,3.658203125,2,"['E1B', 'F2', 'G1']",7.6,180,0.0,8.11928368850558,[6400|8000|0]
264,26400,0.6627917289733887,0.3262499868869781,1.8742969036102293,0.3364534974098205,-0.6600502133369446,-6.623279094696045,3.6484375,2,"['E1B', 'F2', 'G1']",7.6,180,0.0,8.1247618835145,[6400|8000|0]
265,26500,0.6625109910964966,0.3256796300411224,1.8677598237991333,0.069865196943283,-0.4044122099876404,-6.905949592590332,3.642578125,2,"['E1B', 'F2', 'G1']",7.6,180,268.9390883097358,8.131329800470718,[6400|8000|0]
266,26600,0.6618398427963257,0.3244156539440155,1.8560577630996704,7.195051670074463,-2.1743640899658203,-5.800837516784668,3.875,2,"['E1B', 'F2', 'G1']",7.6,180,268.9390883097358,8.14311904557924,[6400|8000|0]
267,26700,0.6664360761642456,0.314408928155899,1.820531129837036,15.33621597290039,-3.2108726501464844,-5.617920398712158,3.7890625,2,"['E1B', 'F2', 'G1']",7.6,180,268.9390883097358,8.180313152547262,[6400|8000|0]
268,26800,0.6669897437095642,0.2889660596847534,1.7528477907180786,17.581615447998047,-2.7023112773895264,-5.082096576690674,3.65234375,2,"['E1B', 'F2', 'G1']",7.6,180,268.9390883097358,8.252622768077167,[6400|8000|0]
269,26900,0.6677270531654358,0.2431166023015976,1.6592466831207275,16.88747215270996,-2.180957555770874,-3.994521141052246,3.5,2,"['E1B', 'F2', 'G1']",7.6,180,268.9390883097358,8.356852723996827,[6400|8000|0]
270,27000,0.6712341904640198,0.170203149318695,1.5620678663253784,12.49679946899414,-1.9883356094360352,-3.128009080886841,3.453125,2,"['E1B', 'F2', 'G1']",7.6,180,268.9390883097358,8.478394461978745,[6400|8000|0]
271,27100,0.6738384962081909,0.0775759890675544,1.4784352779388428,6.543383121490479,-1.1788254976272583,-2.613278865814209,3.462890625,2,"['E1B', 'F2', 'G1']",7.6,180,268.9390883097358,8.603218270063707,[6400|8000|0]
272,27200,0.6784369945526123,-0.0221673920750617,1.4151403903961182,2.507696390151977,0.1436684280633926,-0.0866491124033927,3.484375,2,"['E1B', 'F2', 'G1']",7.6,180,268.9390883097358,8.721438958007193,[6400|8000|0]
273,27300,0.6788381338119507,-0.1224108189344406,1.3722985982894895,0.6423523426055908,0.0269099790602922,1.3634742498397827,3.521484375,2,"['E1B', 'F2', 'G1']",7.6,180,268.9390883097358,8.830454207821724,[6400|8000|0]
274,27400,0.6751989722251892,-0.2199024111032486,1.3473955392837524,-0.1233873590826988,0.2336724996566772,2.402442693710327,3.59375,2,"['E1B', 'F2', 'G1']",7.6,180,268.9390883097358,8.931141924989742,[6400|8000|0]
275,27500,0.6670352220535278,-0.307797908782959,1.3348548412322998,-0.4403839111328125,-0.1112601906061172,1.709083080291748,3.611328125,2,"['E1B', 'F2', 'G1']",7.6,180,268.9390883097358,9.020302086703632,[6400|8000|0]
276,27600,0.6551863551139832,-0.4010903537273407,1.3250731229782104,-3.045515775680542,-0.9984673857688904,2.7152559757232666,3.62109375,2,"['E1B', 'F2', 'G1']",7.6,180,268.9390883097358,9.11485132225556,[6400|8000|0]
277,27700,0.6428655385971069,-0.4828512072563171,1.3206676244735718,-5.2241926193237305,-2.0585923194885254,2.3995141983032227,3.63671875,2,"['E1B', 'F2', 'G1']",7.6,180,268.9390883097358,9.197652578927809,[6400|8000|0]
278,27800,0.6325526237487793,-0.5544094443321228,1.3159663677215576,-6.521234512329102,-2.798320770263672,1.86531925201416,3.630859375,2,"['E1B', 'F2', 'G1']",7.6,180,268.9390883097358,9.270102833041332,[6400|8000|0]
279,27900,0.624034583568573,-0.6164451837539673,1.3112561702728271,-7.268739223480225,-3.110104322433472,0.6286108493804932,3.62109375,2,"['E1B', 'F2', 'G1']",7.6,180,268.9390883097358,9.332897545670123,[6400|8000|0]
280,28000,0.6203861832618713,-0.6666101217269897,1.3043475151062012,-7.257238864898682,-2.8199353218078613,-0.0111707728356122,3.615234375,2,"['E1B', 'F2', 'G1']",7.6,180,268.9390883097358,9.383667234883736,[6400|8000|0]
281,28100,0.6196879744529724,-0.7069512605667114,1.2965428829193115,-7.103957176208496,-2.8327677249908447,0.5330293774604797,3.611328125,2,"['E1B', 'F2', 'G1']",7.6,180,268.9390883097358,9.424762335102606,[6400|8000|0]
282,28200,0.6223836541175842,-0.737028956413269,1.2894757986068726,-6.200811386108398,-2.3927760124206543,1.7213197946548462,3.615234375,2,"['E1B', 'F2', 'G1']",7.6,180,268.9390883097358,9.455776495690497,[6400|8000|0]
283,28300,0.6289227604866028,-0.7591558694839478,1.284473538398743,-5.322951793670654,-1.9195317029953003,2.861579656600952,3.62109375,2,"['E1B', 'F2', 'G1']",7.6,180,268.9390883097358,9.4793854516465,[6400|8000|0]
284,28400,0.6373475193977356,-0.774434506893158,1.279984712600708,-4.037487506866455,-1.3284136056900024,3.839965343475342,3.626953125,2,"['E1B', 'F2', 'G1']",7.6,180,268.9390883097358,9.497401080440351,[6400|8000|0]
285,28500,0.646641731262207,-0.7856355905532837,1.275738000869751,-3.250309944152832,-0.620987594127655,4.38725471496582,3.62109375,2,"['E1B', 'F2', 'G1']",7.6,180,268.9390883097358,9.51256291442799,[6400|8000|0]
286,28600,0.657152533531189,-0.794138491153717,1.2714037895202637,-2.501272439956665,-0.1306215524673462,4.425436973571777,3.626953125,2,"['E1B', 'F2', 'G1']",7.6,180,268.9390883097358,9.526760156096024,[6400|8000|0]
287,28700,0.6655315160751343,-0.8002896308898926,1.2670202255249023,-2.2409098148345947,0.322142094373703,3.4375741481781006,3.626953125,2,"['E1B', 'F2', 'G1']",7.6,180,268.9390883097358,9.538041091421922,[6400|8000|0]
288,28800,0.6731230020523071,-0.8052907586097717,1.2625776529312134,-1.7129933834075928,0.7531669735908508,1.904258728027344,3.626953125,2,"['E1B', 'F2', 'G1']",7.6,180,268.9390883097358,9.54815931206897,[6400|8000|0]
289,28900,0.6788843870162964,-0.8100393414497375,1.257007360458374,-1.4670249223709106,0.7488272786140442,0.0183596238493919,3.615234375,2,"['E1B', 'F2', 'G1']",7.6,180,268.9390883097358,9.55747439413647,[6400|8000|0]
290,29000,0.6837600469589233,-0.8141698241233826,1.2513222694396973,-1.4548734426498413,0.4848323166370392,-1.8098258972167969,3.62109375,2,"['E1B', 'F2', 'G1']",7.6,180,268.9390883097358,9.566027358937289,[6400|8000|0]
291,29100,0.6869726181030273,-0.8175633549690247,1.2448115348815918,-1.3300050497055054,0.7432974576950073,-3.3903839588165283,3.615234375,2,"['E1B', 'F2', 'G1']",7.6,180,268.9390883097358,9.574041492043394,[6400|8000|0]
292,29200,0.6896317601203918,-0.8204963207244873,1.2389448881149292,-1.3328930139541626,0.5733206868171692,-4.627358436584473,3.615234375,2,"['E1B', 'F2', 'G1']",7.6,180,268.9390883097358,9.58111898232428,[6400|8000|0]
293,29300,0.6913669109344482,-0.8223884105682373,1.2340842485427856,-1.9587997198104856,0.1912475973367691,-4.760231971740723,3.615234375,2,"['E1B', 'F2', 'G1']",7.6,180,268.9390883097358,9.58661594233638,[6400|8000|0]
294,29400,0.6926628947257996,-0.8212279677391052,1.230274319648743,-2.165755271911621,0.1181708052754402,-4.399137496948242,3.615234375,2,"['E1B', 'F2', 'G1']",7.6,180,268.9390883097358,9.590804230736763,[6400|8000|0]
