,time.ms,stateEstimate.x,stateEstimate.y,stateEstimate.z,stabilizer.roll,stabilizer.pitch,stabilizer.yaw,pm.vbat,drone_id,node_name,wind_speed,global_wind_direction,relative_wind_direction,travel_dist,waiting_time
0,0,0.7871320843696594,1.2035695314407349,0.0,0.9881170988082886,0.6132953763008118,7.99458646774292,4.17578125,2,"['C1', 'F2', 'F1']",7.6,90,450.0,0.0,[6100|0|0]
1,98,0.7872265577316284,1.2037798166275024,0.0,0.9456651210784912,0.580130934715271,8.004011154174805,4.17578125,2,"['C1', 'F2', 'F1']",7.6,90,450.0,0.0002305321580508,[6200|0|0]
2,198,0.7870357036590576,1.204013705253601,0.0,0.915736973285675,0.5725185871124268,8.003703117370605,4.17578125,2,"['C1', 'F2', 'F1']",7.6,90,450.0,0.0005324082359954,[6300|0|0]
3,298,0.7873008847236633,1.203635573387146,0.0,0.914854884147644,0.5597442984580994,7.998475551605225,4.17578125,2,"['C1', 'F2', 'F1']",7.6,90,450.0,0.0009942574597191,[6400|0|0]
4,398,0.787382960319519,1.2034863233566284,0.0,0.915078580379486,0.5568855404853821,8.020974159240723,3.00390625,2,"['E1B', 'F2', 'G1']",7.6,90,450.0,0.0011645864796909,[6400|0|0]
5,498,0.7873998880386353,1.2034919261932373,0.0,0.8451545834541321,-0.1641332507133484,7.952144622802734,3.3203125,2,"['E1B', 'F2', 'G1']",7.6,90,450.0,0.0011824173364439,[6400|0|0]
6,600,0.7907480597496033,1.2089098691940308,0.0,-0.9288478493690492,-0.8077781796455383,6.328029155731201,3.509765625,2,"['E1B', 'F2', 'G1']",7.6,90,450.0,0.0075514329720012,[6400|0|0]
7,698,0.79782634973526,1.2220752239227295,0.0291419774293899,3.050328254699707,0.6614031195640564,4.517831325531006,3.541015625,2,"['E1B', 'F2', 'G1']",7.6,90,450.0,0.0403032818167395,[6400|0|0]
8,798,0.8086331486701965,1.2353365421295166,0.0975904315710067,3.0413177013397217,-0.6021654605865479,2.0371596813201904,3.552734375,2,"['E1B', 'F2', 'G1']",7.6,90,450.0,0.1108570934655713,[6400|0|0]
9,898,0.8205240964889526,1.247904658317566,0.172111377120018,5.349616050720215,1.035478115081787,0.6401273012161255,3.546875,2,"['E1B', 'F2', 'G1']",7.6,90,450.0,0.1873601882399881,[6400|0|0]
10,998,0.834027886390686,1.2514383792877195,0.2487634718418121,5.584651470184326,2.5677218437194824,-0.9576643109321594,3.552734375,2,"['E1B', 'F2', 'G1']",7.6,90,450.0,0.2652728518502379,[6400|0|0]
11,1098,0.8427843451499939,1.251957654953003,0.332537293434143,6.5496697425842285,2.467890977859497,-2.469569206237793,3.5625,2,"['E1B', 'F2', 'G1']",7.6,90,450.0,0.3495046653259296,[6400|0|0]
12,1198,0.8478140234947205,1.243471384048462,0.4193410277366638,4.680119037628174,2.362307548522949,-3.0482418537139893,3.546875,2,"['E1B', 'F2', 'G1']",7.6,90,450.0,0.4368671443828983,[6400|0|0]
13,1298,0.8488840460777283,1.2286702394485474,0.5099404454231262,3.06448745727539,1.6608275175094604,-3.337130308151245,3.5625,2,"['E1B', 'F2', 'G1']",7.6,90,450.0,0.5286738615386806,[6400|0|0]
14,1398,0.845974326133728,1.2095370292663574,0.6026468276977539,1.1796571016311646,2.019584894180298,-3.2580108642578125,3.57421875,2,"['E1B', 'F2', 'G1']",7.6,90,450.0,0.6233787691014767,[6400|0|0]
15,1498,0.8381081819534302,1.1910370588302612,0.6951406002044678,-0.1566625088453292,0.8455334305763245,-2.337338924407959,3.568359375,2,"['E1B', 'F2', 'G1']",7.6,90,450.0,0.7180319416997865,[6400|0|0]
16,1598,0.8292957544326782,1.1731998920440674,0.7882843017578125,-1.3075908422470093,-0.1129647195339202,-1.596052169799805,3.552734375,2,"['E1B', 'F2', 'G1']",7.6,90,450.0,0.8132767449009353,[6400|0|0]
17,1698,0.8201202154159546,1.1565158367156982,0.8833511471748352,-1.303386092185974,-0.8312250375747681,-1.076895236968994,3.546875,2,"['E1B', 'F2', 'G1']",7.6,90,450.0,0.9102316484179396,[6400|0|0]
18,1798,0.8130530118942261,1.1427264213562012,0.978769838809967,-2.0642104148864746,-1.5528154373168943,-0.7374551892280579,3.537109375,2,"['E1B', 'F2', 'G1']",7.6,90,450.0,1.0069002578779636,[6400|0|0]
19,1898,0.8083617091178894,1.1322410106658936,1.0758882761001587,-1.8652344942092896,-1.615204095840454,-0.8377736210823059,3.537109375,2,"['E1B', 'F2', 'G1']",7.6,90,450.0,1.1046956719870749,[6400|0|0]
20,1998,0.807631254196167,1.1233693361282349,1.1750682592391968,-1.4338746070861816,-1.264868140220642,-0.9006837606430054,3.583984375,2,"['E1B', 'F2', 'G1']",7.6,90,450.0,1.2042743304885564,[6400|0|0]
21,2098,0.8082225322723389,1.118504524230957,1.2754796743392944,-1.1350233554840088,-0.9287521839141846,-1.497968077659607,3.568359375,2,"['E1B', 'F2', 'G1']",7.6,90,450.0,1.3048052624794784,[6400|0|0]
22,2198,0.8121864199638367,1.1131234169006348,1.376664161682129,-1.548525094985962,0.2332379072904586,-1.4933984279632568,3.55859375,2,"['E1B', 'F2', 'G1']",7.6,90,450.0,1.4062102386915138,[6400|0|0]
23,2298,0.8152706623077393,1.1088213920593262,1.4788155555725098,-1.1251325607299805,0.5016134977340698,-1.5024325847625732,3.568359375,2,"['E1B', 'F2', 'G1']",7.6,90,450.0,1.50849868985937,[6400|0|0]
24,2398,0.8167082071304321,1.1061651706695557,1.581605076789856,-0.9821738004684448,0.5980680584907532,-1.1233161687850952,3.541015625,2,"['E1B', 'F2', 'G1']",7.6,90,450.0,1.6113325739602828,[6400|0|0]
25,2498,0.8167624473571777,1.1068848371505735,1.6914643049240112,-0.6744664907455444,0.5575252175331116,-0.9721784591674804,3.599609375,2,"['E1B', 'F2', 'G1']",7.6,90,450.0,1.7211941726564537,[6400|0|0]
26,2598,0.8166432976722717,1.1048940420150757,1.7857823371887207,-0.3107345700263977,0.2974860966205597,2.199460983276367,3.6484375,2,"['E1B', 'F2', 'G1']",7.6,90,450.0,1.8155332879385344,[6400|0|0]
27,2698,0.8159070611000061,1.1039825677871704,1.858906626701355,-0.5959933996200562,0.1943621039390564,6.014228820800781,3.642578125,2,"['E1B', 'F2', 'G1']",7.6,90,450.0,1.8886669638087248,[6400|0|0]
28,2798,0.814661979675293,1.1014349460601809,1.9219396114349363,-0.3295745253562927,-0.3660886287689209,4.66791296005249,3.611328125,2,"['E1B', 'F2', 'G1']",7.6,90,450.0,1.9517636972316357,[6400|0|0]
29,2898,0.8137081861495972,1.1004793643951416,1.9672175645828247,-0.529029369354248,-0.4365133047103882,2.823157787322998,3.62109375,2,"['E1B', 'F2', 'G1']",7.6,90,450.0,1.9970617755536857,[6400|0|0]
30,2998,0.8119581937789917,1.09992253780365,1.9958659410476685,-0.3355525135993957,-0.3647427260875702,3.1312711238861084,3.58984375,2,"['E1B', 'F2', 'G1']",7.6,90,450.0,2.0257689524128195,[6400|0|0]
31,3098,0.8136299252510071,1.0951409339904783,2.0131897926330566,-0.5078227519989014,-0.5978472232818604,6.99884033203125,3.552734375,2,"['E1B', 'F2', 'G1']",7.6,90,450.0,2.043818169982931,[6400|0|0]
32,3198,0.8140680193901062,1.092376947402954,2.020869970321656,-1.141951322555542,-0.1130157485604286,8.602194786071777,3.568359375,2,"['E1B', 'F2', 'G1']",7.6,90,450.0,2.051992316890052,[6400|0|0]
33,3298,0.8103075623512268,1.0974522829055786,2.0178325176239014,-1.1822502613067627,-0.0270747859030962,9.16172695159912,3.5625,2,"['E1B', 'F2', 'G1']",7.6,90,450.0,2.05900132441584,[6400|0|0]
34,3398,0.807075023651123,1.1055580377578735,2.011686086654663,0.4803503751754761,0.0058814026415348,10.028803825378418,3.57421875,2,"['E1B', 'F2', 'G1']",7.6,90,189.0,2.0696751794754134,[6400|0|0]
35,3498,0.8024446964263916,1.0964640378952026,2.000993013381958,14.525550842285156,5.48867654800415,5.001656532287598,3.583984375,2,"['E1B', 'F2', 'G1']",7.6,90,189.0,2.0844563357131976,[6400|0|0]
36,3598,0.7919782996177673,1.0687507390975952,1.9797029495239256,16.74036407470703,4.095509052276611,1.895801663398743,3.509765625,2,"['E1B', 'F2', 'G1']",7.6,90,189.0,2.1209370047240608,[6400|0|0]
37,3698,0.7609161734580994,1.0224814414978027,1.9506990909576416,19.01812744140625,3.591305494308472,-0.5292941927909851,3.484375,2,"['E1B', 'F2', 'G1']",7.6,90,189.0,2.1837615810749624,[6400|0|0]
38,3798,0.7143362760543823,0.9511839151382446,1.9216201305389404,14.773913383483888,-0.9499480128288268,-3.4489660263061523,3.47265625,2,"['E1B', 'F2', 'G1']",7.6,90,189.0,2.273753858777914,[6400|0|0]
39,3898,0.6576430797576904,0.85881108045578,1.8977326154708865,9.68830394744873,-4.54246997833252,-5.206637859344482,3.5,2,"['E1B', 'F2', 'G1']",7.6,90,189.0,2.384737967864466,[6400|0|0]
40,3998,0.6049797534942627,0.7507126331329346,1.88166081905365,2.7962825298309326,-8.165821075439453,-4.776377201080322,3.5625,2,"['E1B', 'F2', 'G1']",7.6,90,189.0,2.50605162285357,[6400|0|0]
41,4098,0.5531479120254517,0.6435667276382446,1.870370626449585,-5.28331995010376,-10.161063194274902,-7.119230270385742,3.57421875,2,"['E1B', 'F2', 'G1']",7.6,90,189.0,2.625610199724332,[6400|0|0]
42,4198,0.5149828195571899,0.548699676990509,1.8577800989151,-8.897214889526367,-12.052284240722656,-3.6133763790130615,3.552734375,2,"['E1B', 'F2', 'G1']",7.6,90,189.0,2.728638608259588,[6400|0|0]
43,4298,0.5086959004402161,0.4592703580856323,1.846319556236267,-11.506232261657717,-11.443479537963867,-0.9004272222518921,3.537109375,2,"['E1B', 'F2', 'G1']",7.6,90,189.0,2.81901821032923,[6400|0|0]
44,4398,0.5274271368980408,0.3789423704147339,1.8343884944915767,-12.863368034362791,-7.967514991760254,-1.3810070753097534,3.48828125,2,"['E1B', 'F2', 'G1']",7.6,90,189.0,2.902359646943021,[6400|0|0]
45,4498,0.5559345483779907,0.3265504539012909,1.8192591667175293,-12.519896507263184,-3.119532823562622,-0.7176362872123718,3.484375,2,"['E1B', 'F2', 'G1']",7.6,90,189.0,2.96389404369909,[6400|0|0]
46,4598,0.5943204760551453,0.295790284872055,1.803042769432068,-10.930777549743652,-0.3415884375572204,4.495363712310791,3.478515625,2,"['E1B', 'F2', 'G1']",7.6,90,189.0,3.0156882420543383,[6400|0|0]
47,4698,0.6290526986122131,0.2848514914512634,1.7974265813827517,-7.520822525024414,3.0853259563446045,1.4287011623382568,3.478515625,2,"['E1B', 'F2', 'G1']",7.6,90,189.0,3.0525328624684738,[6400|0|0]
48,4798,0.6618496775627136,0.2832861244678497,1.7997701168060305,-3.2529196739196777,5.6026129722595215,-12.98179817199707,3.515625,2,"['E1B', 'F2', 'G1']",7.6,90,189.0,3.08545070505198,[6400|0|0]
49,4898,0.6793788075447083,0.2957606911659241,1.802297830581665,-0.6614823937416077,5.954742431640625,-19.49409866333008,3.53125,2,"['E1B', 'F2', 'G1']",7.6,90,189.0,3.1071134507034874,[6400|0|0]
50,4998,0.6848925948143005,0.3152543902397156,1.8002129793167114,0.5951330661773682,4.638569355010986,-18.72966957092285,3.53125,2,"['E1B', 'F2', 'G1']",7.6,90,189.0,3.127478930281215,[6400|0|0]
51,5098,0.6870375275611877,0.3343700170516968,1.80346155166626,1.1600651741027832,2.921579360961914,-11.417482376098633,3.494140625,2,"['E1B', 'F2', 'G1']",7.6,90,189.0,3.146986906783504,[6400|0|0]
52,5198,0.6795410513877869,0.3515829741954803,1.801452875137329,2.092508554458618,1.059795379638672,-5.96422815322876,3.525390625,2,"['E1B', 'F2', 'G1']",7.6,90,189.0,3.16586858653002,[6400|0|0]
53,5298,0.6753296256065369,0.3652753531932831,1.801799178123474,2.5160999298095703,-0.8563488721847534,-6.330761909484863,3.537109375,2,"['E1B', 'F2', 'G1']",7.6,90,189.0,3.180198180923744,[6400|0|0]
54,5398,0.6705013513565063,0.3787952661514282,1.7998236417770386,2.9515843391418457,-1.5874896049499512,-4.041069984436035,3.55859375,2,"['E1B', 'F2', 'G1']",7.6,90,189.0,3.1946896619552123,[6400|0|0]
55,5498,0.6647082567214966,0.3937241435050964,1.7943552732467651,3.979526996612549,-1.3765393495559692,5.791242599487305,3.583984375,2,"['E1B', 'F2', 'G1']",7.6,90,189.0,3.2116110797112376,[6400|0|0]
56,5598,0.6616496443748474,0.4090901613235473,1.7891855239868164,3.772206068038941,-1.0977747440338137,10.085356712341309,3.60546875,2,"['E1B', 'F2', 'G1']",7.6,90,189.0,3.2281094408569624,[6400|0|0]
57,5698,0.6640912294387817,0.4187357127666473,1.7847694158554075,4.606306552886963,-0.5816898941993713,12.778172492980955,3.60546875,2,"['E1B', 'F2', 'G1']",7.6,90,189.0,3.2389952119042613,[6400|0|0]
58,5798,0.6675617694854736,0.4264175593852997,1.777399659156799,4.042356491088867,-0.6386428475379944,2.729182720184326,3.59375,2,"['E1B', 'F2', 'G1']",7.6,90,189.0,3.250192029732773,[6400|0|0]
59,5898,0.6754434108734131,0.4241078495979309,1.771113634109497,4.2307844161987305,-0.195909783244133,-9.667073249816896,3.583984375,2,"['E1B', 'F2', 'G1']",7.6,90,189.0,3.260534618439922,[6400|0|0]
60,5998,0.6807350516319275,0.4206760227680206,1.7632381916046145,3.145542621612549,0.4634591042995453,-7.797624588012695,3.578125,2,"['E1B', 'F2', 'G1']",7.6,90,189.0,3.2706242909794736,[6400|0|0]
61,6098,0.683018684387207,0.4134334921836853,1.7551263570785522,1.7824472188949585,1.1788538694381714,-1.2276209592819214,3.57421875,2,"['E1B', 'F2', 'G1']",7.6,90,189.0,3.2817360454405944,[6400|0|0]
62,6198,0.6844776272773743,0.4022783935070038,1.750251054763794,0.5980803370475769,1.067463517189026,5.21746826171875,3.578125,2,"['E1B', 'F2', 'G1']",7.6,90,189.0,3.293997094070445,[6400|0|0]
63,6298,0.6828608512878418,0.3893046081066131,1.7452832460403442,-0.9361488819122314,0.2786363661289215,8.379399299621582,3.578125,2,"['E1B', 'F2', 'G1']",7.6,90,189.0,3.3079832370601507,[6400|0|0]
64,6398,0.6795414090156555,0.3769637048244476,1.7414010763168335,-1.569632887840271,-0.1378265619277954,8.723444938659668,3.630859375,2,"['E1B', 'F2', 'G1']",7.6,90,450.0,3.321339427856193,[6400|0|0]
65,6498,0.6734273433685303,0.3675038814544678,1.727378249168396,-1.8461172580719,-1.0112037658691406,6.382235050201416,3.912109375,2,"['E1B', 'F2', 'G1']",7.6,90,450.0,3.339325804316268,[6400|0|0]
66,6598,0.6644758582115173,0.3595969080924988,1.6709444522857666,-2.120115041732788,-1.3320642709732056,6.996272087097168,3.810546875,2,"['E1B', 'F2', 'G1']",7.6,90,450.0,3.397009621326353,[6400|0|0]
67,6698,0.656044065952301,0.3583489060401916,1.581820368766785,-2.218159437179565,-1.8030067682266235,1.9469026327133176,3.6796875,2,"['E1B', 'F2', 'G1']",7.6,90,450.0,3.4865403696362134,[6400|0|0]
68,6798,0.6469488143920898,0.3601354658603668,1.4716933965682983,-1.8673347234725952,-1.5287214517593384,-1.2747650146484375,3.568359375,2,"['E1B', 'F2', 'G1']",7.6,90,450.0,3.597056727712929,[6400|0|0]
69,6898,0.6392012238502502,0.3647727966308594,1.3504806756973269,-0.135025605559349,-1.928166389465332,-1.184956669807434,3.546875,2,"['E1B', 'F2', 'G1']",7.6,90,450.0,3.718605292890898,[6400|0|0]
70,6998,0.6346328258514404,0.3705605268478393,1.2287615537643433,-0.6326120495796204,-2.319939136505127,-2.0407724380493164,3.55859375,2,"['E1B', 'F2', 'G1']",7.6,90,450.0,3.8405475444917134,[6400|0|0]
71,7098,0.6323952078819275,0.3775803744792938,1.10827374458313,0.4872522354125976,-2.38224196434021,-1.936902642250061,3.57421875,2,"['E1B', 'F2', 'G1']",7.6,90,450.0,3.961260416035037,[6400|0|0]
72,7198,0.6348150968551636,0.3846600353717804,0.98952454328537,1.3680044412612915,-1.687962770462036,-1.2660348415374756,3.578125,2,"['E1B', 'F2', 'G1']",7.6,90,450.0,4.080245080046208,[6400|0|0]
73,7298,0.6396588087081909,0.3911648690700531,0.8722193837165833,1.4916969537734983,-1.7669482231140137,0.1970525681972503,3.583984375,2,"['E1B', 'F2', 'G1']",7.6,90,450.0,4.197830261371984,[6400|0|0]
74,7398,0.646784782409668,0.3963781297206878,0.7554472088813782,2.0150160789489746,-0.7306681275367737,1.4578986167907717,3.58984375,2,"['E1B', 'F2', 'G1']",7.6,90,450.0,4.314935762538878,[6400|0|0]
75,7498,0.6565364003181458,0.3993054032325744,0.6363298892974854,1.924938678741455,-0.4358009994029999,1.8203802108764648,3.578125,2,"['E1B', 'F2', 'G1']",7.6,90,450.0,4.434487420021731,[6400|0|0]
76,7598,0.6642665266990662,0.4065738022327423,0.510840117931366,1.0745372772216797,-1.3251103162765503,1.2815371751785278,3.552734375,2,"['E1B', 'F2', 'G1']",7.6,90,450.0,4.560424972782659,[6400|0|0]
77,7698,0.6805563569068909,0.4103071987628937,0.3942075967788696,0.1220844611525535,0.7951463460922241,2.007410049438477,3.435546875,2,"['E1B', 'F2', 'G1']",7.6,90,450.0,4.678248747158795,[6400|0|0]
78,7798,0.6981402635574341,0.4182036519050598,0.2838960289955139,-0.7148345708847046,0.0129791721701622,4.159648895263672,3.416015625,2,"['E1B', 'F2', 'G1']",7.6,90,450.0,4.790231735742523,[6400|0|0]
79,7898,0.7167326807975769,0.4274594485759735,0.1888747662305832,4.167126655578613,3.13350510597229,7.506552696228027,3.447265625,2,"['E1B', 'F2', 'G1']",7.6,90,450.0,4.887496262309442,[6400|0|0]
80,7998,0.7366739511489868,0.4290505051612854,0.1136679723858833,8.00003433227539,0.7065982222557068,8.774033546447754,3.447265625,2,"['E1B', 'F2', 'G1']",7.6,90,450.0,4.965318158744089,[6400|0|0]
81,8098,0.7575214505195618,0.4174088537693023,0.0540795996785163,4.125339984893799,4.14403247833252,5.103129863739014,3.416015625,2,"['E1B', 'F2', 'G1']",7.6,90,450.0,5.029512554442239,[6400|0|0]
82,8198,0.7716485261917114,0.3984567821025848,0.0142566561698913,0.6437681317329407,7.264023780822754,2.275242805480957,3.447265625,2,"['E1B', 'F2', 'G1']",7.6,90,450.0,5.075822619408704,[6400|0|0]
83,8298,0.7715935707092285,0.3785192668437958,0.0,-2.2489521503448486,8.364151954650879,1.556046724319458,3.53125,2,"['E1B', 'F2', 'G1']",7.6,90,450.0,5.100333020873102,[6400|0|0]
84,8398,0.7551316618919373,0.3598257601261139,0.0046844407916069,-1.773531794548035,7.287121772766113,1.7374647855758667,3.615234375,2,"['E1B', 'F2', 'G1']",7.6,90,450.0,5.125678348269743,[6400|0|0]
85,8498,0.7278032302856445,0.3435147702693939,0.0191493798047304,-1.7085340023040771,-0.4646082818508148,1.3590704202651978,3.6796875,2,"['E1B', 'F2', 'G1']",7.6,90,450.0,5.160637267372301,[6400|0|0]
86,8598,0.7010475993156433,0.3288416266441345,0.0354195684194564,-2.7915141582489014,-2.660282611846924,3.136827230453491,3.689453125,2,"['E1B', 'F2', 'G1']",7.6,90,450.0,5.195218822716286,[6400|0|0]
87,8698,0.6808452606201172,0.3195001780986786,0.0445339828729629,-2.12861442565918,-6.278419494628906,1.9411927461624143,3.63671875,2,"['E1B', 'F2', 'G1']",7.6,90,450.0,5.2192702197760505,[6400|0|0]
88,8798,0.6710113286972046,0.3167494237422943,0.0457938537001609,-3.1650819778442383,-5.403499603271484,-0.4670690596103668,3.568359375,2,"['E1B', 'F2', 'G1']",7.6,90,450.0,5.229559055526264,[6400|0|0]
89,8898,0.6709260940551758,0.3207022547721863,0.04367146641016,-0.3698077499866485,-2.479544162750244,-1.593058705329895,3.55859375,2,"['E1B', 'F2', 'G1']",7.6,90,450.0,5.2340464451799305,[6400|0|0]
90,8998,0.6771388649940491,0.3264262676239013,0.0423102118074893,-0.3580850958824157,-2.765398502349853,-2.156450033187866,3.55859375,2,"['E1B', 'F2', 'G1']",7.6,90,450.0,5.24260307184929,[6400|0|0]
91,9098,0.6872779130935669,0.3329924941062927,0.044002566486597,0.2122595161199569,0.0587475672364234,-1.917810559272766,3.57421875,2,"['E1B', 'F2', 'G1']",7.6,90,450.0,5.254800599916169,[6400|0|0]
92,9198,0.6984338760375977,0.3378948271274566,0.0479552447795867,2.447781562805176,2.3534014225006104,-1.167168378829956,3.58984375,2,"['E1B', 'F2', 'G1']",7.6,90,450.0,5.267611222225286,[6400|0|0]
93,9298,0.7065595388412476,0.3397019803524017,0.0499014295637607,1.2482463121414185,3.016746282577514,-1.1779533624649048,3.5625,2,"['E1B', 'F2', 'G1']",7.6,90,450.0,5.276159896624934,[6400|0|0]
94,9398,0.7087383270263672,0.3387442529201507,0.0487221181392669,2.529629230499268,3.377390623092652,0.8524326086044312,3.537109375,2,"['A1', 'F2', 'J1']",7.6,90,450.0,5.278816047077383,[6400|100|0]
95,9498,0.705815315246582,0.3341622352600097,0.0448306426405906,0.7444717884063721,2.221280097961426,2.8960626125335693,3.515625,2,"['A1', 'F2', 'J1']",7.6,90,450.0,5.285500541468091,[6400|200|0]
96,9598,0.6990454196929932,0.3275681138038635,0.042224571108818,0.2936635017395019,0.3602533638477325,3.5379016399383545,3.505859375,2,"['A1', 'F2', 'J1']",7.6,90,450.0,5.295303884388423,[6400|300|0]
97,9698,0.692751944065094,0.3205372095108032,0.0430166237056255,-1.0555981397628784,-1.085399150848389,1.9141243696212769,3.5,2,"['A1', 'F2', 'J1']",7.6,90,450.0,5.304773245400299,[6400|400|0]
98,9798,0.6877149939537048,0.3157229721546173,0.0443182066082954,-1.1529823541641235,-0.6512425541877747,1.4948110580444336,3.509765625,2,"['A1', 'F2', 'J1']",7.6,90,450.0,5.311861395074145,[6400|500|0]
99,9898,0.6848428845405579,0.3132804930210113,0.0473929196596145,0.069075122475624,-0.6237521171569824,1.7267154455184937,3.515625,2,"['A1', 'F2', 'J1']",7.6,90,450.0,5.316726431265906,[6400|600|0]
100,9998,0.6841750144958496,0.31133833527565,0.0491107329726219,0.2032065689563751,-0.6898874640464783,0.7617896199226379,3.48828125,2,"['A1', 'F2', 'J1']",7.6,90,450.0,5.31940391323276,[6400|700|0]
101,10098,0.6849419474601746,0.3084666728973388,0.0482871904969215,0.6994891166687012,-1.676990270614624,-1.602782130241394,3.484375,2,"['A1', 'F2', 'J1']",7.6,90,450.0,5.322488204593196,[6400|800|0]
102,10198,0.6862127184867859,0.3031533658504486,0.047614898532629,1.3505823612213137,0.6016489267349243,-3.7416858673095694,3.478515625,2,"['A1', 'F2', 'J1']",7.6,90,450.0,5.327992572609768,[6400|900|0]
103,10298,0.6879324316978455,0.2948853373527527,0.0496455878019332,0.2939805388450622,-0.725174069404602,-4.317315101623535,3.494140625,2,"['A1', 'F2', 'J1']",7.6,90,450.0,5.33667827394446,[6400|1000|0]
104,10398,0.6912139058113098,0.2839684188365936,0.0522471070289611,0.8170005679130554,0.5257376432418823,-5.319297790527344,3.5,2,"['A1', 'F2', 'J1']",7.6,90,450.0,5.348370796535176,[6400|1100|0]
105,10498,0.6940164566040039,0.270833671092987,0.054306011646986,0.4144434630870819,-0.3200130462646484,-5.3740234375,3.48828125,2,"['A1', 'F2', 'J1']",7.6,90,450.0,5.361958105961987,[6400|1200|0]
106,10598,0.6969665288925171,0.2567394375801086,0.0575574077665805,0.213407814502716,0.7949047088623047,-5.141895771026611,3.509765625,2,"['A1', 'F2', 'J1']",7.6,90,450.0,5.376720284715461,[6400|1300|0]
107,10698,0.6981485486030579,0.2423334121704101,0.060369536280632,-0.1748852133750915,0.9441637992858888,-4.5885820388793945,3.478515625,2,"['A1', 'F2', 'J1']",7.6,90,450.0,5.391445732263176,[6400|1400|0]
108,10798,0.697988748550415,0.2279076725244522,0.0625639781355857,0.0686169117689132,-0.3794258534908294,-3.965596199035645,3.494140625,2,"['A1', 'F2', 'J1']",7.6,90,450.0,5.406038301449052,[6400|1500|0]
109,10898,0.6961801648139954,0.2130504697561264,0.0639832392334938,-0.0038207084871828,0.5574067234992981,-3.406838893890381,3.48828125,2,"['A1', 'F2', 'J1']",7.6,90,450.0,5.421072321247324,[6400|1600|0]
110,10998,0.6934500932693481,0.1982523798942566,0.0663346350193023,-0.4582298994064331,0.4784353971481323,-2.988377571105957,3.48828125,2,"['A1', 'F2', 'J1']",7.6,90,450.0,5.436302745284112,[6400|1700|0]
111,11098,0.68951016664505,0.1830204427242279,0.0689920336008071,0.0992566347122192,0.0613472200930118,-2.571268081665039,3.5,2,"['A1', 'F2', 'J1']",7.6,90,450.0,5.452258831865024,[6400|1800|0]
112,11198,0.6853743195533752,0.1685652136802673,0.0712085515260696,-0.4743521213531494,0.6604461669921875,-2.575763702392578,3.494140625,2,"['A1', 'F2', 'J1']",7.6,90,450.0,5.467456589251957,[6400|1900|0]
113,11298,0.6815151572227478,0.1556378453969955,0.0729341953992843,-0.3281019628047943,-1.9647421836853027,-3.152209520339966,3.494140625,2,"['A1', 'F2', 'J1']",7.6,90,450.0,5.481057612426801,[6400|2000|0]
114,11398,0.6789296269416809,0.1444047689437866,0.0646511763334274,-2.604172945022583,5.342373371124268,-4.417628765106201,4.06640625,2,"['A1', 'F2', 'J1']",7.6,90,450.0,5.495251814703903,[6400|2100|0]
115,11498,0.6713825464248657,0.1367534101009369,0.004645035136491,-10.651917457580566,18.607223510742188,-4.692359447479248,4.06640625,2,"['A1', 'F2', 'J1']",7.6,90,450.0,5.556212775144303,[6400|2200|0]
116,11598,0.6710201501846313,0.1309958547353744,0.0,2.5771851539611816,-5.064242839813232,1.047595739364624,4.06640625,2,"['A1', 'F2', 'J1']",7.6,90,450.0,5.563619334820812,[6400|2300|0]
117,11698,0.6697705984115601,0.130995512008667,0.0,-1.9211369752883911,-3.396521806716919,3.518378973007202,4.0703125,2,"['A1', 'F2', 'J1']",7.6,90,450.0,5.564868886640885,[6400|2400|0]
118,11798,0.6700801849365234,0.1312496811151504,0.0,-1.6561810970306396,-3.193488121032715,3.599771499633789,4.07421875,2,"['A1', 'F2', 'J1']",7.6,90,450.0,5.565269443442262,[6400|2500|0]
119,11898,0.6699215173721313,0.131379947066307,0.0,-1.4400105476379397,-3.0145692825317383,3.662420749664306,4.07421875,2,"['A1', 'F2', 'J1']",7.6,90,450.0,5.565474734976479,[6400|2600|0]
120,11998,0.6695770621299744,0.131338819861412,0.0,-1.2381246089935305,-2.8514771461486816,3.709658622741699,4.07421875,2,"['A1', 'F2', 'J1']",7.6,90,450.0,5.565821636779345,[6400|2700|0]
121,12098,0.6697834134101868,0.1313091814517974,0.0,-1.0397377014160156,-2.690172910690308,3.742108583450317,4.07421875,2,"['A1', 'F2', 'J1']",7.6,90,450.0,5.566030105688705,[6400|2800|0]
122,12198,0.6698638796806335,0.1311274468898773,0.0,-0.9156953692436218,-2.631091356277466,3.718791484832764,4.08203125,2,"['A1', 'F2', 'J1']",7.6,90,450.0,5.566228857472788,[6400|2900|0]
123,12298,0.6702589988708496,0.1313590854406356,0.0,-0.8132659792900085,-2.467458724975586,3.431191921234131,4.08203125,2,"['A1', 'F2', 'J1']",7.6,90,450.0,5.566686870128371,[6400|3000|0]
124,12398,0.6702852249145508,0.1305423974990844,0.0,-0.7349937558174133,-2.3766767978668213,3.4289214611053467,4.08203125,2,"['A1', 'F2', 'J1']",7.6,90,450.0,5.567503979055775,[6400|3100|0]
125,12498,0.6730886697769165,0.1339673548936844,0.0,-0.6339951157569885,-2.3473660945892334,3.485179901123047,4.0859375,2,"['A1', 'F2', 'J1']",7.6,90,450.0,5.5719299971591205,[6400|3200|0]
126,12598,0.6736832857131958,0.1338343918323516,0.0,-0.3992778956890106,-2.2191452980041504,3.5988576412200928,4.0859375,2,"['A1', 'F2', 'J1']",7.6,90,450.0,5.572539297813441,[6400|3300|0]
127,12698,0.6767097115516663,0.1397747248411178,0.0,-0.4680560827255249,-2.310689210891724,3.654865980148315,4.0859375,2,"['A1', 'F2', 'J1']",7.6,90,450.0,5.579206141865225,[6400|3400|0]
128,12798,0.6750633120536804,0.1425797194242477,0.0,-0.1984786689281463,-2.3172638416290283,6.901722431182861,4.0859375,2,"['A1', 'F2', 'J1']",7.6,90,450.0,5.582458621829553,[6400|3500|0]
129,12898,0.6625981330871582,0.1373715251684188,0.0,0.0453528985381126,7.303800106048584,10.084094047546388,4.08984375,2,"['A1', 'F2', 'J1']",7.6,90,450.0,5.595968099024244,[6400|3600|0]
130,12998,0.6447717547416687,0.174340009689331,0.0278651937842369,2.9742767810821533,12.427218437194824,6.100941181182861,4.08984375,2,"['A1', 'F2', 'J1']",7.6,90,450.0,5.64557573590933,[6400|3700|0]
131,13098,0.6356605887413025,0.2621034383773803,0.059637114405632,13.77735424041748,5.454296588897705,-5.191340446472168,4.08984375,2,"['A1', 'F2', 'J1']",7.6,90,450.0,5.739356798501629,[6400|3800|0]
132,13198,0.6308363676071167,0.3491794168949127,0.0481158345937728,13.64889907836914,5.288152694702148,-14.115885734558104,4.08984375,2,"['A1', 'F2', 'J1']",7.6,90,450.0,5.827324059643718,[6400|3900|0]
133,13298,0.6173704266548157,0.3846333026885986,0.0201235953718423,10.65810775756836,8.049110412597656,-9.91195583343506,4.08984375,2,"['A1', 'F2', 'J1']",7.6,90,450.0,5.874460829158189,[6400|4000|0]
134,13398,0.6118737459182739,0.3950729966163635,0.0023178884293884,6.615390777587891,8.076272964477539,-7.235112190246582,4.08984375,2,"['A1', 'F2', 'J1']",7.6,90,450.0,5.895820695921477,[6400|4100|0]
135,13498,0.6088159084320068,0.3863887786865234,0.0,-1.6984467506408691,4.974646091461182,-7.736653804779053,4.08984375,2,"['A1', 'F2', 'J1']",7.6,90,450.0,5.905314831896724,[6400|4200|0]
136,13598,0.6151432394981384,0.393161416053772,0.0,-3.420217990875244,4.210785388946533,-4.738619327545166,4.08984375,2,"['A1', 'F2', 'J1']",7.6,90,450.0,5.914583258695738,[6400|4300|0]
137,13698,0.6209949851036072,0.3860574662685394,0.0,-1.3264484405517578,3.730916738510132,-5.098517417907715,4.09765625,2,"['A1', 'F2', 'J1']",7.6,90,450.0,5.923787009517128,[6400|4400|0]
138,13798,0.6199936866760254,0.3785794079303741,0.0,1.1332762241363523,1.7004255056381226,-3.478524923324585,4.09765625,2,"['A1', 'F2', 'J1']",7.6,90,450.0,5.931331806071713,[6400|4500|0]
139,13898,0.6232424974441528,0.3859404027462005,0.0,1.6655535697937012,0.636942446231842,-2.308825731277466,4.09765625,2,"['A1', 'F2', 'J1']",7.6,90,450.0,5.939377862005257,[6400|4600|0]
140,13998,0.6205964088439941,0.3807854056358337,0.0,2.723313570022583,0.0474270321428775,-2.071529626846313,4.09765625,2,"['A1', 'F2', 'J1']",7.6,90,450.0,5.945172323161204,[6400|4700|0]
141,14098,0.6212794780731201,0.3864272832870483,0.0,1.9822570085525515,0.7106485962867737,-0.683349609375,4.09765625,2,"['A1', 'F2', 'J1']",7.6,90,450.0,5.95085540040888,[6400|4800|0]
142,14198,0.6228225231170654,0.3909924328327179,0.0,1.179094672203064,1.5949184894561768,0.3046777546405792,4.1015625,2,"['A1', 'F2', 'J1']",7.6,90,450.0,5.9556742777036416,[6400|4900|0]
143,14298,0.6220849752426147,0.3911007344722748,0.0,0.5099804401397705,2.5397732257843018,1.078603744506836,4.1015625,2,"['A1', 'F2', 'J1']",7.6,90,450.0,5.9564197346857926,[6400|5000|0]
144,14398,0.6222172975540161,0.3907343447208404,0.0,0.7290665507316589,2.4493348598480225,1.5543758869171145,4.1015625,2,"['A1', 'F2', 'J1']",7.6,90,450.0,5.956809286536065,[6400|5100|0]
145,14498,0.6214351058006287,0.3910810053348541,0.0,0.5824047327041626,2.635050773620605,1.9389936923980715,4.19140625,2,"['A1', 'F2', 'J1']",7.6,90,450.0,5.957664855072405,[6400|5200|0]
146,14598,0.6212567090988159,0.3915022909641266,0.0,0.4092721045017242,2.8237435817718506,2.2098426818847656,4.19140625,2,"['A1', 'F2', 'J1']",7.6,90,450.0,5.958122355853442,[6400|5300|0]
147,14698,0.6213542222976685,0.3915550410747528,0.0,0.3972904682159424,2.843984603881836,2.417003631591797,4.1953125,2,"['A1', 'F2', 'J1']",7.6,90,450.0,5.958233222431461,[6400|5400|0]
148,14798,0.6209890842437744,0.3914336860179901,0.0,0.406719446182251,2.85020399093628,2.5618560314178467,4.1953125,2,"['A1', 'F2', 'J1']",7.6,90,450.0,5.958617998792746,[6400|5500|0]
149,14898,0.6212852001190186,0.3916167020797729,0.0,0.3553841412067413,2.8657777309417725,2.6786930561065674,4.1953125,2,"['A1', 'F2', 'J1']",7.6,90,450.0,5.958966107239127,[6400|5600|0]
150,14998,0.6212133765220642,0.3915212750434875,0.0,0.3599274158477783,2.8464534282684326,2.778724670410156,4.1953125,2,"['A1', 'F2', 'J1']",7.6,90,450.0,5.959085543198259,[6400|5700|0]
151,15098,0.620982825756073,0.3915876746177673,0.0,0.3837392330169678,2.837874174118042,2.821428060531616,4.1953125,2,"['A1', 'F2', 'J1']",7.6,90,450.0,5.959325465183837,[6400|5800|0]
152,15198,0.6210552453994751,0.3915583491325378,0.0,0.3937829136848449,2.839388132095337,2.895879030227661,4.1953125,2,"['A1', 'F2', 'J1']",7.6,90,450.0,5.959403597052075,[6400|5900|0]
153,15299,0.6207984089851379,0.391175627708435,0.0,0.432209700345993,2.8345298767089844,2.934382200241089,4.203125,2,"['A1', 'F2', 'J1']",7.6,90,450.0,5.959864509877018,[6400|6000|0]
154,15399,0.6210482120513916,0.39126917719841,0.0,0.4573836028575897,2.8298890590667725,2.964934825897217,4.203125,2,"['A1', 'F2', 'J1']",7.6,90,450.0,5.960131255221841,[6400|6100|0]
155,15498,0.6207973957061768,0.3913993835449219,0.0,0.4732286036014557,2.832669258117676,3.0239017009735107,4.203125,2,"['A1', 'F2', 'J1']",7.6,90,450.0,5.960413854817911,[6400|6200|0]
156,15598,0.6208041906356812,0.3910405039787292,0.0,0.5123273730278015,2.824448585510254,3.0168206691741943,4.203125,2,"['A1', 'F2', 'J1']",7.6,90,450.0,5.960772798705026,[6400|6300|0]
157,15699,0.6208102703094482,0.3914948999881744,0.0,0.521295964717865,2.8215556144714355,3.0107438564300537,4.203125,2,"['A1', 'F2', 'J1']",7.6,90,450.0,5.961227235384699,[6400|6400|0]
158,15799,0.6208006739616394,0.3909872770309448,0.0,0.5430283546447754,2.8220436573028564,3.0270466804504395,4.203125,2,"['A1', 'F2', 'J1']",7.6,90,450.0,5.961734949040807,[6400|6500|0]
159,15899,0.6212482452392578,0.3912713527679443,0.0,0.5507889986038208,2.8062634468078613,3.0342462062835693,4.20703125,2,"['A1', 'F2', 'J1']",7.6,90,450.0,5.96226506136183,[6400|6600|0]
160,15999,0.6206526160240173,0.3913651406764984,0.0,0.558793306350708,2.811640977859497,3.057823181152344,4.203125,2,"['A1', 'F2', 'J1']",7.6,90,450.0,5.962868029299484,[6400|6700|0]
161,16099,0.6208842992782593,0.3914449214935303,0.0,0.5674042701721191,2.796883344650269,3.0582516193389893,4.20703125,2,"['A1', 'F2', 'J1']",7.6,90,450.0,5.96311306421345,[6400|6800|0]
162,16199,0.6210435032844543,0.3912080526351928,0.0,0.5762580037117004,2.792976140975952,3.063100099563598,4.20703125,2,"['A1', 'F2', 'J1']",7.6,90,450.0,5.963398463533069,[6400|6900|0]
163,16299,0.6208374500274658,0.3911564648151397,0.0,0.5903791785240173,2.7831034660339355,3.062065601348877,4.20703125,2,"['A1', 'F2', 'J1']",7.6,90,450.0,5.963610876451446,[6400|7000|0]
164,16399,0.6210989356040955,0.3910826444625854,0.0,0.6036088466644287,2.781899929046631,3.0756959915161133,4.20703125,2,"['A1', 'F2', 'J1']",7.6,90,450.0,5.963882582452919,[6400|7100|0]
165,16500,0.620808482170105,0.3912140130996704,0.0,0.6136917471885681,2.77849555015564,3.066548109054565,4.20703125,2,"['A1', 'F2', 'J1']",7.6,90,450.0,5.964201362810103,[6400|7200|0]
166,16598,0.6208342909812927,0.3913373947143554,0.0,0.6110411882400513,2.787859439849853,3.0652756690979004,4.20703125,2,"['A1', 'F2', 'J1']",7.6,90,450.0,5.964327414853233,[6400|7300|0]
167,16698,0.6211877465248108,0.3918233811855316,0.0,0.5953962802886963,2.7640082836151123,3.0556118488311768,4.20703125,2,"['A1', 'F2', 'J1']",7.6,90,450.0,5.964928342196104,[6400|7400|0]
168,16800,0.6211152672767639,0.3915984332561493,0.0,0.6259937286376953,2.778290033340454,3.069442749023437,4.2109375,2,"['A1', 'F2', 'J1']",7.6,90,450.0,5.965164678423396,[6400|7500|0]
169,16900,0.6209002733230591,0.3914273977279663,0.0,0.6503139734268188,2.7846364974975586,3.0686349868774414,4.2109375,2,"['A1', 'F2', 'J1']",7.6,90,450.0,5.965439406565439,[6400|7600|0]
170,16998,0.6213043928146362,0.3915682435035705,0.0,0.6561822295188904,2.781157255172729,3.0921671390533447,4.2109375,2,"['A1', 'F2', 'J1']",7.6,90,450.0,5.965867366956104,[6400|7700|0]
171,17098,0.6208580732345581,0.3913286924362182,0.0,0.6655117273330688,2.7957773208618164,3.1048028469085693,4.2109375,2,"['A1', 'F2', 'J1']",7.6,90,450.0,5.966373910025774,[6400|7800|0]
172,17198,0.6210228800773621,0.3916739523410797,0.0,0.6620770692825317,2.804340362548828,3.103487491607666,4.2109375,2,"['A1', 'F2', 'J1']",7.6,90,450.0,5.966756487726823,[6400|7900|0]
173,17298,0.6210196614265442,0.3913767337799072,0.0,0.6698910593986511,2.8044419288635254,3.082587242126465,4.2109375,2,"['A1', 'F2', 'J1']",7.6,90,450.0,5.967053723715254,[6400|8000|0]
174,17398,0.6210836172103882,0.3913009166717529,0.0,0.6726921200752258,2.795433759689331,3.0665416717529297,4.2109375,2,"['E1B', 'F2', 'G1']",7.6,90,450.0,5.967152913312369,[6400|8000|0]
175,17498,0.6203415989875793,0.3912730515003204,0.0,0.8058872222900391,2.6474077701568604,3.066659927368164,3.05078125,2,"['E1B', 'F2', 'G1']",7.6,90,450.0,5.96789545456426,[6400|8000|0]
176,17598,0.6210707426071167,0.3902020156383514,0.0,1.5069125890731812,-1.9651120901107788,2.6964471340179443,3.478515625,2,"['E1B', 'F2', 'G1']",7.6,90,450.0,5.969191127453355,[6400|8000|0]
177,17698,0.6299029588699341,0.3941663205623626,0.0277243051677942,-2.054107427597046,-7.478645324707031,1.1630414724349976,3.59375,2,"['E1B', 'F2', 'G1']",7.6,90,450.0,5.998557108701744,[6400|8000|0]
178,17798,0.6518484354019165,0.4051938652992248,0.081847570836544,1.5798076391220093,-1.755069136619568,2.1092681884765625,3.62109375,2,"['E1B', 'F2', 'G1']",7.6,90,450.0,6.057992271440558,[6400|8000|0]
179,17898,0.6784413456916809,0.4185373485088348,0.1517314910888672,4.526394844055176,1.8697888851165767,1.777882695198059,3.6484375,2,"['E1B', 'F2', 'G1']",7.6,90,450.0,6.133946163583605,[6400|8000|0]
180,17998,0.7013912796974182,0.4253290593624115,0.2302627563476562,5.438546657562256,4.737831115722656,0.7968719005584717,3.65234375,2,"['E1B', 'F2', 'G1']",7.6,90,450.0,6.2160435839470525,[6400|8000|0]
181,18098,0.711340606212616,0.4293402135372162,0.308071881532669,4.187935829162598,5.000094890594482,1.259492039680481,3.65234375,2,"['E1B', 'F2', 'G1']",7.6,90,450.0,6.294588720129868,[6400|8000|0]
182,18198,0.7174656987190247,0.4245290458202362,0.3909687995910644,3.3704047203063965,5.060522079467773,0.4533580541610718,3.6484375,2,"['E1B', 'F2', 'G1']",7.6,90,450.0,6.377850734978137,[6400|8000|0]
183,18298,0.7144439816474915,0.4190765619277954,0.4791446924209595,2.6988210678100586,3.943859100341797,-2.064726591110229,3.658203125,2,"['E1B', 'F2', 'G1']",7.6,90,450.0,6.466246710175014,[6400|8000|0]
184,18398,0.7044967412948608,0.4101211726665497,0.5677997469902039,1.0820032358169556,1.0931177139282229,-3.7488934993743896,3.65234375,2,"['E1B', 'F2', 'G1']",7.6,90,450.0,6.555906429604248,[6400|8000|0]
185,18498,0.6922633051872253,0.4038803875446319,0.6567371487617493,0.3618426024913788,-0.1412938386201858,-2.954792022705078,3.630859375,2,"['E1B', 'F2', 'G1']",7.6,90,450.0,6.645897905821782,[6400|8000|0]
186,18598,0.6819813847541809,0.4001114964485168,0.7466407418251038,0.2066256403923034,-2.087160110473633,-2.851184844970703,3.63671875,2,"['E1B', 'F2', 'G1']",7.6,90,450.0,6.736465993322772,[6400|8000|0]
187,18698,0.6764559149742126,0.3977576196193695,0.8419864773750305,0.0092528732493519,-2.675422430038452,-2.1802358627319336,3.642578125,2,"['E1B', 'F2', 'G1']",7.6,90,450.0,6.832000703454602,[6400|8000|0]
188,18798,0.6759984493255615,0.3962839543819427,0.9411959648132324,1.4339371919631958,-0.6794856190681458,-1.421436429023743,3.6484375,2,"['E1B', 'F2', 'G1']",7.6,90,450.0,6.931222189846424,[6400|8000|0]
189,18898,0.6802337169647217,0.3915522396564483,1.0392626523971558,1.9218584299087524,-0.6034735441207886,-0.6913052201271057,3.6484375,2,"['E1B', 'F2', 'G1']",7.6,90,450.0,7.029494270469058,[6400|8000|0]
190,18998,0.6818735599517822,0.3834720551967621,1.1379257440567017,1.8705165386199951,0.2626128494739532,-0.4801384210586548,3.63671875,2,"['E1B', 'F2', 'G1']",7.6,90,450.0,7.128501260736134,[6400|8000|0]
191,19098,0.6823515892028809,0.3717818558216095,1.2370747327804563,0.9675672054290771,0.5840373039245605,-0.4836497902870178,3.63671875,2,"['E1B', 'F2', 'G1']",7.6,90,450.0,7.22833818395765,[6400|8000|0]
192,19198,0.6818731427192688,0.358201116323471,1.3369156122207642,-0.9126675128936768,0.3348611891269684,-0.6645762920379639,3.642578125,2,"['E1B', 'F2', 'G1']",7.6,90,450.0,7.329099618066976,[6400|8000|0]
193,19298,0.6801856160163879,0.3455666005611419,1.4368034601211548,-1.5538042783737185,0.4250028729438782,-0.9118692874908448,3.642578125,2,"['E1B', 'F2', 'G1']",7.6,90,450.0,7.429797487424242,[6400|8000|0]
194,19398,0.6794523000717163,0.3355274498462677,1.5365325212478638,-1.5998640060424805,0.2297596484422683,1.3521084785461426,3.705078125,2,"['E1B', 'F2', 'G1']",7.6,90,450.0,7.530033249169068,[6400|8000|0]
195,19498,0.6783316135406494,0.3289600312709808,1.631320595741272,-1.962765097618103,0.2010386437177658,6.985140800476074,3.720703125,2,"['E1B', 'F2', 'G1']",7.6,90,450.0,7.625055172908866,[6400|8000|0]
196,19598,0.6761267185211182,0.3215713798999786,1.711814045906067,-2.030881881713867,-0.3366696536540985,9.431955337524414,3.720703125,2,"['E1B', 'F2', 'G1']",7.6,90,450.0,7.705917087618831,[6400|8000|0]
197,19698,0.6757807731628418,0.3138976395130157,1.780293107032776,-2.2868752479553223,-0.1916069388389587,6.723642349243164,3.7265625,2,"['E1B', 'F2', 'G1']",7.6,90,450.0,7.774825634131676,[6400|8000|0]
198,19798,0.6739153265953064,0.3104183375835418,1.827187418937683,-2.520170927047729,-0.3546335399150848,7.844000339508057,3.716796875,2,"['E1B', 'F2', 'G1']",7.6,90,450.0,7.821885828796036,[6400|8000|0]
199,19898,0.6725175380706787,0.3077394366264343,1.854310393333435,-2.1951584815979004,0.1305762529373169,0.6439946889877319,3.6796875,2,"['E1B', 'F2', 'G1']",7.6,90,450.0,7.849176597623062,[6400|8000|0]
200,19998,0.6701892614364624,0.3109396398067474,1.8719829320907595,-1.8051077127456665,0.2164080440998077,0.0883186012506485,3.6796875,2,"['E1B', 'F2', 'G1']",7.6,90,450.0,7.867286837781874,[6400|8000|0]
201,20098,0.6676241159439087,0.3192420303821563,1.8820801973342896,-0.9835373759269714,0.008588614873588,-2.956984519958496,3.66796875,2,"['E1B', 'F2', 'G1']",7.6,90,450.0,7.880608415243376,[6400|8000|0]
202,20198,0.6655781269073486,0.3204584717750549,1.880356788635254,0.348025381565094,-0.0390491113066673,-3.8292720317840576,3.6484375,2,"['E1B', 'F2', 'G1']",7.6,90,450.0,7.883547111951781,[6400|8000|0]
203,20298,0.6643579602241516,0.324900358915329,1.8793699741363523,0.520721435546875,-0.1840307414531707,-5.453986167907715,3.658203125,2,"['E1B', 'F2', 'G1']",7.6,90,450.0,7.888258053572833,[6400|8000|0]
204,20398,0.6627917289733887,0.3262499868869781,1.8742969036102293,0.3364534974098205,-0.6600502133369446,-6.623279094696045,3.6484375,2,"['E1B', 'F2', 'G1']",7.6,90,450.0,7.893736248581751,[6400|8000|0]
205,20498,0.6625109910964966,0.3256796300411224,1.8677598237991333,0.069865196943283,-0.4044122099876404,-6.905949592590332,3.642578125,2,"['E1B', 'F2', 'G1']",7.6,90,178.0,7.900304165537969,[6400|8000|0]
206,20598,0.6618398427963257,0.3244156539440155,1.8560577630996704,7.195051670074463,-2.1743640899658203,-5.800837516784668,3.875,2,"['E1B', 'F2', 'G1']",7.6,90,178.0,7.912093410646491,[6400|8000|0]
207,20698,0.6664360761642456,0.314408928155899,1.820531129837036,15.33621597290039,-3.2108726501464844,-5.617920398712158,3.7890625,2,"['E1B', 'F2', 'G1']",7.6,90,178.0,7.949287517614513,[6400|8000|0]
208,20798,0.6669897437095642,0.2889660596847534,1.7528477907180786,17.581615447998047,-2.7023112773895264,-5.082096576690674,3.65234375,2,"['E1B', 'F2', 'G1']",7.6,90,178.0,8.021597133144416,[6400|8000|0]
209,20898,0.6677270531654358,0.2431166023015976,1.6592466831207275,16.88747215270996,-2.180957555770874,-3.994521141052246,3.5,2,"['E1B', 'F2', 'G1']",7.6,90,178.0,8.125827089064076,[6400|8000|0]
210,20998,0.6712341904640198,0.170203149318695,1.5620678663253784,12.49679946899414,-1.9883356094360352,-3.128009080886841,3.453125,2,"['E1B', 'F2', 'G1']",7.6,90,178.0,8.247368827045994,[6400|8000|0]
211,21098,0.6738384962081909,0.0775759890675544,1.4784352779388428,6.543383121490479,-1.1788254976272583,-2.613278865814209,3.462890625,2,"['E1B', 'F2', 'G1']",7.6,90,178.0,8.372192635130956,[6400|8000|0]
212,21198,0.6784369945526123,-0.0221673920750617,1.4151403903961182,2.507696390151977,0.1436684280633926,-0.0866491124033927,3.484375,2,"['E1B', 'F2', 'G1']",7.6,90,178.0,8.490413323074442,[6400|8000|0]
213,21298,0.6788381338119507,-0.1224108189344406,1.3722985982894895,0.6423523426055908,0.0269099790602922,1.3634742498397827,3.521484375,2,"['E1B', 'F2', 'G1']",7.6,90,178.0,8.599428572888973,[6400|8000|0]
214,21398,0.6751989722251892,-0.2199024111032486,1.3473955392837524,-0.1233873590826988,0.2336724996566772,2.402442693710327,3.59375,2,"['E1B', 'F2', 'G1']",7.6,90,178.0,8.700116290056991,[6400|8000|0]
215,21498,0.6670352220535278,-0.307797908782959,1.3348548412322998,-0.4403839111328125,-0.1112601906061172,1.709083080291748,3.611328125,2,"['E1B', 'F2', 'G1']",7.6,90,178.0,8.789276451770881,[6400|8000|0]
216,21598,0.6551863551139832,-0.4010903537273407,1.3250731229782104,-3.045515775680542,-0.9984673857688904,2.7152559757232666,3.62109375,2,"['E1B', 'F2', 'G1']",7.6,90,178.0,8.883825687322808,[6400|8000|0]
217,21698,0.6428655385971069,-0.4828512072563171,1.3206676244735718,-5.2241926193237305,-2.0585923194885254,2.3995141983032227,3.63671875,2,"['E1B', 'F2', 'G1']",7.6,90,178.0,8.966626943995058,[6400|8000|0]
218,21798,0.6325526237487793,-0.5544094443321228,1.3159663677215576,-6.521234512329102,-2.798320770263672,1.86531925201416,3.630859375,2,"['E1B', 'F2', 'G1']",7.6,90,178.0,9.039077198108584,[6400|8000|0]
219,21898,0.624034583568573,-0.6164451837539673,1.3112561702728271,-7.268739223480225,-3.110104322433472,0.6286108493804932,3.62109375,2,"['E1B', 'F2', 'G1']",7.6,90,178.0,9.101871910737374,[6400|8000|0]
220,21998,0.6203861832618713,-0.6666101217269897,1.3043475151062012,-7.257238864898682,-2.8199353218078613,-0.0111707728356122,3.615234375,2,"['E1B', 'F2', 'G1']",7.6,90,178.0,9.152641599950984,[6400|8000|0]
221,22098,0.6196879744529724,-0.7069512605667114,1.2965428829193115,-7.103957176208496,-2.8327677249908447,0.5330293774604797,3.611328125,2,"['E1B', 'F2', 'G1']",7.6,90,178.0,9.193736700169856,[6400|8000|0]
222,22198,0.6223836541175842,-0.737028956413269,1.2894757986068726,-6.200811386108398,-2.3927760124206543,1.7213197946548462,3.615234375,2,"['E1B', 'F2', 'G1']",7.6,90,178.0,9.224750860757744,[6400|8000|0]
223,22298,0.6289227604866028,-0.7591558694839478,1.284473538398743,-5.322951793670654,-1.9195317029953003,2.861579656600952,3.62109375,2,"['E1B', 'F2', 'G1']",7.6,90,178.0,9.248359816713748,[6400|8000|0]
224,22398,0.6373475193977356,-0.774434506893158,1.279984712600708,-4.037487506866455,-1.3284136056900024,3.839965343475342,3.626953125,2,"['E1B', 'F2', 'G1']",7.6,90,178.0,9.266375445507602,[6400|8000|0]
225,22498,0.646641731262207,-0.7856355905532837,1.275738000869751,-3.250309944152832,-0.620987594127655,4.38725471496582,3.62109375,2,"['E1B', 'F2', 'G1']",7.6,90,178.0,9.28153727949524,[6400|8000|0]
226,22598,0.657152533531189,-0.794138491153717,1.2714037895202637,-2.501272439956665,-0.1306215524673462,4.425436973571777,3.626953125,2,"['E1B', 'F2', 'G1']",7.6,90,178.0,9.295734521163272,[6400|8000|0]
227,22698,0.6655315160751343,-0.8002896308898926,1.2670202255249023,-2.2409098148345947,0.322142094373703,3.4375741481781006,3.626953125,2,"['E1B', 'F2', 'G1']",7.6,90,178.0,9.307015456489172,[6400|8000|0]
228,22798,0.6731230020523071,-0.8052907586097717,1.2625776529312134,-1.7129933834075928,0.7531669735908508,1.904258728027344,3.626953125,2,"['E1B', 'F2', 'G1']",7.6,90,178.0,9.31713367713622,[6400|8000|0]
229,22898,0.6788843870162964,-0.8100393414497375,1.257007360458374,-1.4670249223709106,0.7488272786140442,0.0183596238493919,3.615234375,2,"['E1B', 'F2', 'G1']",7.6,90,178.0,9.32644875920372,[6400|8000|0]
230,22998,0.6837600469589233,-0.8141698241233826,1.2513222694396973,-1.4548734426498413,0.4848323166370392,-1.8098258972167969,3.62109375,2,"['E1B', 'F2', 'G1']",7.6,90,178.0,9.335001724004538,[6400|8000|0]
231,23098,0.6869726181030273,-0.8175633549690247,1.2448115348815918,-1.3300050497055054,0.7432974576950073,-3.3903839588165283,3.615234375,2,"['E1B', 'F2', 'G1']",7.6,90,178.0,9.343015857110643,[6400|8000|0]
232,23198,0.6896317601203918,-0.8204963207244873,1.2389448881149292,-1.3328930139541626,0.5733206868171692,-4.627358436584473,3.615234375,2,"['E1B', 'F2', 'G1']",7.6,90,178.0,9.350093347391528,[6400|8000|0]
233,23298,0.6913669109344482,-0.8223884105682373,1.2340842485427856,-1.9587997198104856,0.1912475973367691,-4.760231971740723,3.615234375,2,"['E1B', 'F2', 'G1']",7.6,90,178.0,9.355590307403627,[6400|8000|0]
234,23398,0.6926628947257996,-0.8212279677391052,1.230274319648743,-2.165755271911621,0.1181708052754402,-4.399137496948242,3.615234375,2,"['E1B', 'F2', 'G1']",7.6,90,178.0,9.359778595804013,[6400|8000|0]
235,23498,0.693231999874115,-0.8167484998703003,1.2282754182815552,-2.0096349716186523,-0.0745750218629837,-4.238465309143066,3.626953125,2,"['E1B', 'F2', 'G1']",7.6,90,450.0,9.364716724977418,[6400|8000|0]
236,23598,0.6946240067481995,-0.8109447956085205,1.2183843851089478,-1.9466196298599243,-0.2319586873054504,-4.090620994567871,3.912109375,2,"['E1B', 'F2', 'G1']",7.6,90,450.0,9.376268919726352,[6400|8000|0]
237,23698,0.6978799104690552,-0.8042595386505127,1.1746740341186523,-1.3225387334823608,-0.556831955909729,-1.1042296886444092,3.826171875,2,"['E1B', 'F2', 'G1']",7.6,90,450.0,9.420607259268207,[6400|8000|0]
238,23798,0.7023059725761414,-0.7978886961936951,1.0914760828018188,-1.6285285949707031,-0.2153629958629608,2.4663472175598145,3.701171875,2,"['E1B', 'F2', 'G1']",7.6,90,450.0,9.5041660814398,[6400|8000|0]
239,23898,0.706126868724823,-0.7903920412063599,0.9801572561264038,-0.4329939484596252,-0.1041714549064636,1.6252899169921875,3.62109375,2,"['E1B', 'F2', 'G1']",7.6,90,450.0,9.615802456585936,[6400|8000|0]
240,23998,0.7080422639846802,-0.7819517254829407,0.8564906120300293,-0.6819900870323181,0.4218314886093139,3.1055495738983154,3.58984375,2,"['E1B', 'F2', 'G1']",7.6,90,450.0,9.739771591980888,[6400|8000|0]
241,24098,0.708660364151001,-0.7716301679611206,0.7312180399894714,-0.0686167404055595,-0.3982740044593811,0.7520283460617065,3.611328125,2,"['E1B', 'F2', 'G1']",7.6,90,450.0,9.865470175517652,[6400|8000|0]
242,24198,0.7075237035751343,-0.7609896063804626,0.6203724145889282,0.658691942691803,-0.4482662081718445,-1.9525513648986816,3.59375,2,"['E1B', 'F2', 'G1']",7.6,90,450.0,9.976831148117814,[6400|8000|0]
243,24298,0.709074854850769,-0.7522009611129761,0.5023984313011169,1.0197471380233765,-0.4714564085006714,-5.437953472137451,3.509765625,2,"['E1B', 'F2', 'G1']",7.6,90,450.0,10.095142208837894,[6400|8000|0]
244,24398,0.7111691832542419,-0.7449795007705688,0.3931609988212585,2.1014318466186523,1.656367540359497,-10.641583442687988,3.53125,2,"['E1B', 'F2', 'G1']",7.6,90,450.0,10.204638109928894,[6400|8000|0]
245,24498,0.7121108770370483,-0.7393972873687744,0.2957746088504791,0.120963804423809,-1.405658483505249,-17.385313034057617,3.541015625,2,"['E1B', 'F2', 'G1']",7.6,90,450.0,10.302188901033755,[6400|8000|0]
246,24598,0.7162037491798401,-0.7347413897514343,0.2092921733856201,-3.180166721343994,-3.806612730026245,-23.10289764404297,3.546875,2,"['E1B', 'F2', 'G1']",7.6,90,450.0,10.388893229812275,[6400|8000|0]
247,24698,0.728196382522583,-0.7274336814880371,0.1287314146757125,-4.5075531005859375,-3.947328329086304,-28.47746086120605,3.552734375,2,"['E1B', 'F2', 'G1']",7.6,90,450.0,10.470668908950223,[6400|8000|0]
248,24798,0.7479045391082764,-0.7181556224822998,0.0546456724405288,2.2603492736816406,3.077181100845337,-32.85345458984375,3.537109375,2,"['E1B', 'F2', 'G1']",7.6,90,450.0,10.547890609381245,[6400|8000|0]
249,24898,0.763351321220398,-0.7106284499168396,0.0063741211779415,-1.0482009649276731,0.6834089159965515,-33.73748016357422,3.509765625,2,"['E1B', 'F2', 'G1']",7.6,90,450.0,10.599129306337217,[6400|8000|0]
250,24998,0.7775961756706238,-0.7032458186149597,0.0250954069197177,-3.623701095581055,-5.9492034912109375,-27.794841766357425,3.578125,2,"['E1B', 'F2', 'G1']",7.6,90,450.0,10.623785049341086,[6400|8000|0]
251,25098,0.7966840267181396,-0.6985040903091431,0.0442936643958091,5.190897941589356,6.169891357421875,-17.716535568237305,3.552734375,2,"['E1B', 'F2', 'G1']",7.6,90,450.0,10.65126964748362,[6400|8000|0]
252,25198,0.8069389462471008,-0.6967594027519226,0.0684384182095527,4.720881462097168,7.712718486785889,-9.0206298828125,3.60546875,2,"['E1B', 'F2', 'G1']",7.6,90,450.0,10.677559882285616,[6400|8000|0]
253,25298,0.8022672533988953,-0.7003570795059204,0.0921499505639076,3.0080313682556152,7.792779445648193,-2.9115195274353027,3.626953125,2,"['E1B', 'F2', 'G1']",7.6,90,450.0,10.701993563111188,[6400|8000|0]
254,25398,0.7849899530410767,-0.707309365272522,0.1113486737012863,1.7640609741210938,4.635093688964844,1.0589195489883425,3.62109375,2,"['E1B', 'F2', 'G1']",7.6,90,450.0,10.728741092999767,[6400|8000|0]
255,25498,0.7610291838645935,-0.7154069542884827,0.1260592639446258,0.8770231604576111,1.049708604812622,3.633911371231079,3.611328125,2,"['E1B', 'F2', 'G1']",7.6,90,450.0,10.75800012361781,[6400|8000|0]
256,25598,0.7339664101600647,-0.7256402969360352,0.1365321576595306,0.2923506200313568,-1.5870035886764526,5.1722917556762695,3.60546875,2,"['E1B', 'F2', 'G1']",7.6,90,450.0,10.788770182523969,[6400|8000|0]
257,25698,0.7120926380157471,-0.7328792214393616,0.1419618725776672,-0.615725040435791,-4.155867576599121,6.180883884429932,3.59375,2,"['E1B', 'F2', 'G1']",7.6,90,450.0,10.812441805617423,[6400|8000|0]
258,25798,0.6957236528396606,-0.7381954789161682,0.1425074636936187,-0.856666624546051,-5.051980018615723,6.641664028167725,3.578125,2,"['E1B', 'F2', 'G1']",7.6,90,450.0,10.829661095350758,[6400|8000|0]
259,25898,0.6868690252304077,-0.7407932877540588,0.14164899289608,-0.9207717776298524,-4.134646415710449,6.913698196411133,3.568359375,2,"['E1B', 'F2', 'G1']",7.6,90,450.0,10.838928781845617,[6400|8000|0]
260,25998,0.682862401008606,-0.7404798269271851,0.1401680260896682,-1.5578255653381348,-3.235153913497925,6.959578514099121,3.5625,2,"['E1B', 'F2', 'G1']",7.6,90,450.0,10.843211836599693,[6400|8000|0]
261,26098,0.6850976943969727,-0.737501323223114,0.1403353959321975,-0.5582407712936401,-3.7690138816833496,4.927824020385742,3.57421875,2,"['E1B', 'F2', 'G1']",7.6,90,450.0,10.846939574990651,[6400|8000|0]
262,26198,0.6914775967597961,-0.7315495610237122,0.142916738986969,-1.1566567420959473,-1.625844955444336,2.5869240760803223,3.58984375,2,"['E1B', 'F2', 'G1']",7.6,90,450.0,10.856038473792363,[6400|8000|0]
263,26298,0.6993915438652039,-0.7233934998512268,0.1461828500032425,-0.4627006947994232,0.8745211362838745,1.715842366218567,3.60546875,2,"['E1B', 'F2', 'G1']",7.6,90,450.0,10.86786299804525,[6400|8000|0]
264,26398,0.7046112418174744,-0.7152228951454163,0.1491148024797439,1.3787753582000732,1.0074565410614014,2.113058567047119,3.599609375,2,"['E1B', 'F2', 'G1']",7.6,90,450.0,10.877992182281703,[6400|8000|0]
265,26498,0.7073794603347778,-0.7086405754089355,0.1508487462997436,1.703194499015808,1.0582401752471924,3.136349678039551,3.59375,2,"['E1B', 'F2', 'G1']",7.6,90,450.0,10.885340415269551,[6400|8000|100]
266,26598,0.7072579860687256,-0.7055429220199585,0.1507459431886673,2.1513900756835938,0.0328439995646476,4.09516191482544,3.58984375,2,"['E1B', 'F2', 'G1']",7.6,90,450.0,10.888442153652331,[6400|8000|200]
267,26698,0.7065224051475525,-0.7060951590538025,0.1504712849855423,1.2579861879348757,0.3475567102432251,4.101955890655518,3.58984375,2,"['E1B', 'F2', 'G1']",7.6,90,450.0,10.889402092276248,[6400|8000|300]
268,26798,0.7047281265258789,-0.708656370639801,0.1477677375078201,0.5816864371299744,-0.2297107726335525,3.4908390045166016,3.578125,2,"['E1B', 'F2', 'G1']",7.6,90,450.0,10.893535905228564,[6400|8000|400]
269,26898,0.7027455568313599,-0.712179958820343,0.1445086151361465,0.057564690709114,-0.2840200364589691,2.9583559036254883,3.568359375,2,"['E1B', 'F2', 'G1']",7.6,90,450.0,10.898728990524727,[6400|8000|500]
270,26998,0.700990617275238,-0.7164580821990967,0.1401711553335189,0.2398148328065872,-0.4447435736656189,2.443443298339844,3.55859375,2,"['E1B', 'F2', 'G1']",7.6,90,450.0,10.90506899920208,[6400|8000|600]
271,27098,0.7003978490829468,-0.7214466333389282,0.1365141421556472,0.0759615674614906,-0.8374640941619873,1.469476580619812,3.55859375,2,"['E1B', 'F2', 'G1']",7.6,90,450.0,10.911282755070122,[6400|8000|700]
272,27198,0.7013689875602722,-0.7278655767440796,0.1352325230836868,0.7830550074577332,-1.0608255863189695,0.3915228843688965,3.57421875,2,"['E1B', 'F2', 'G1']",7.6,90,450.0,10.917900042416631,[6400|8000|800]
273,27298,0.7036823034286499,-0.7351824045181274,0.1360535025596618,-0.2960785031318664,-0.3221242427825928,1.035193681716919,3.578125,2,"['E1B', 'F2', 'G1']",7.6,90,450.0,10.925617646078518,[6400|8000|900]
274,27398,0.705994725227356,-0.743069589138031,0.1365174651145935,-0.3408158421516418,-0.3631184995174408,2.2512991428375244,3.578125,2,"['E1B', 'F2', 'G1']",7.6,90,450.0,10.93384991411691,[6400|8000|1000]
275,27498,0.7076388597488403,-0.7508556842803955,0.1353796273469925,-0.4550849795341491,0.2225464582443237,3.5975875854492188,3.568359375,2,"['E1B', 'F2', 'G1']",7.6,90,450.0,10.941888641048214,[6400|8000|1100]
276,27598,0.7094669342041016,-0.7576336860656738,0.1326411217451095,-1.3495203256607056,-1.5667222738265991,2.772624015808105,3.568359375,2,"['E1B', 'F2', 'G1']",7.6,90,450.0,10.949424062559103,[6400|8000|1200]
277,27698,0.7134898900985718,-0.7611790299415588,0.1308715045452118,-1.478488564491272,0.0878938734531402,0.9930285811424256,3.5625,2,"['E1B', 'F2', 'G1']",7.6,90,450.0,10.95507075914749,[6400|8000|1300]
278,27798,0.7176044583320618,-0.7613112926483154,0.1299977749586105,-0.3480601906776428,-0.0537210404872894,0.3556993305683136,3.57421875,2,"['E1B', 'F2', 'G1']",7.6,90,450.0,10.95927915178152,[6400|8000|1400]
279,27898,0.7216240763664246,-0.7604671120643616,0.1304585635662078,-0.2930701971054077,0.1856718361377716,1.0696719884872437,3.578125,2,"['E1B', 'F2', 'G1']",7.6,90,450.0,10.963412225231313,[6400|8000|1500]
280,27998,0.7243106961250305,-0.7597289681434631,0.1304609924554824,0.0627242550253868,-0.20124351978302,1.9494556188583367,3.578125,2,"['E1B', 'F2', 'G1']",7.6,90,450.0,10.966198403272069,[6400|8000|1600]
281,28098,0.7271658182144165,-0.7596052885055542,0.1307568699121475,-0.0358550697565078,-0.2419507354497909,2.612762212753296,3.578125,2,"['E1B', 'F2', 'G1']",7.6,90,450.0,10.969071478674405,[6400|8000|1700]
282,28198,0.7302417159080505,-0.7602559328079224,0.1307289898395538,0.2278112918138504,-0.2005725651979446,3.1244056224823,3.57421875,2,"['E1B', 'F2', 'G1']",7.6,90,450.0,10.972215562313297,[6400|8000|1800]
283,28298,0.7332106828689575,-0.7618152499198914,0.1308856755495071,0.3129561841487884,-0.1801830530166626,3.5973687171936035,3.57421875,2,"['E1B', 'F2', 'G1']",7.6,90,450.0,10.975572761306854,[6400|8000|1900]
284,28398,0.7360197901725769,-0.7649999260902405,0.1316360831260681,0.1178255304694175,-0.2397086024284362,3.859537363052368,3.57421875,2,"['E1B', 'F2', 'G1']",7.6,90,450.0,10.979885110745872,[6400|8000|2000]
285,28498,0.7388304471969604,-0.7687435746192932,0.1259927451610565,2.0241072177886963,-0.906602680683136,3.327936887741089,4.02734375,2,"['E1B', 'F2', 'G1']",7.6,90,450.0,10.987217365556306,[6400|8000|2100]
286,28598,0.7407113313674927,-0.774624764919281,0.0732235610485076,5.506482601165772,1.359160542488098,2.342393636703491,4.03125,2,"['E1B', 'F2', 'G1']",7.6,90,450.0,11.040346575191982,[6400|8000|2200]
287,28698,0.7466307282447815,-0.7844221591949463,0.0080124754458665,-2.3858299255371094,-0.0808296203613281,0.130293920636177,4.0390625,2,"['E1B', 'F2', 'G1']",7.6,90,450.0,11.106554685567213,[6400|8000|2300]
288,28798,0.7475722432136536,-0.7863102555274963,0.0046902759931981,-0.7122983932495117,0.0939294248819351,-3.0341053009033203,4.0390625,2,"['E1B', 'F2', 'G1']",7.6,90,450.0,11.11049021188537,[6400|8000|2400]
289,28898,0.7468661665916443,-0.7853858470916748,0.0070414920337498,-0.5572569370269775,0.1182223632931709,-3.028349637985229,4.04296875,2,"['E1B', 'F2', 'G1']",7.6,90,450.0,11.11311343357286,[6400|8000|2500]
290,28998,0.7466176748275757,-0.785025954246521,0.0079755242913961,-0.5064835548400879,0.0239781755954027,-3.040987968444824,4.04296875,2,"['E1B', 'F2', 'G1']",7.6,90,450.0,11.114144785731495,[6400|8000|2600]
291,29098,0.7463730573654175,-0.784777820110321,0.0084247635677456,-0.4434466063976288,-0.035441443324089,-3.0224645137786865,4.04296875,2,"['E1B', 'F2', 'G1']",7.6,90,450.0,11.114713313813262,[6400|8000|2700]
292,29198,0.7463033199310303,-0.7850898504257202,0.0088795917108654,-0.3650799393653869,-0.0972104296088218,-3.0235984325408936,4.046875,2,"['E1B', 'F2', 'G1']",7.6,90,450.0,11.115269276822154,[6400|8000|2800]
293,29298,0.7463171482086182,-0.7849640250205994,0.0087702749297022,-0.3012429177761078,-0.1400499492883682,-3.0272696018218994,4.046875,2,"['E1B', 'F2', 'G1']",7.6,90,450.0,11.115436529363178,[6400|8000|2900]
294,29398,0.7463092803955078,-0.7849653363227844,0.0089102108031511,-0.2494532018899917,-0.1973896473646164,-3.016737937927246,4.046875,2,"['E1B', 'F2', 'G1']",7.6,90,450.0,11.115576692377823,[6400|8000|3000]
295,29498,0.7464529275894165,-0.7848901152610779,0.0089336298406124,-0.2195707708597183,-0.2469294965267181,-2.9821131229400635,4.046875,2,"['E1B', 'F2', 'G1']",7.6,90,450.0,11.11574052514548,[6400|8000|3100]
296,29598,0.7463670969009399,-0.7849075794219971,0.0089111356064677,-0.1917956620454788,-0.2780199944972992,-3.0242578983306885,4.0546875,2,"['E1B', 'F2', 'G1']",7.6,90,450.0,11.115830956857677,[6400|8000|3200]
297,29698,0.7467823028564453,-0.7850503921508789,0.0093796318396925,-0.1423839926719665,-0.3113187253475189,-2.997368574142456,4.0546875,2,"['E1B', 'F2', 'G1']",7.6,90,450.0,11.116473047335385,[6400|8000|3300]
298,29798,0.7465503811836243,-0.7850275635719299,0.009092029184103,-0.1208755150437355,-0.317161500453949,-2.978182554244995,4.0546875,2,"['E1B', 'F2', 'G1']",7.6,90,450.0,11.116843214991782,[6400|8000|3400]
299,29898,0.7467402815818787,-0.7848644852638245,0.0089375842362642,-0.1034454628825187,-0.3293874263763428,-3.009460687637329,4.0546875,2,"['E1B', 'F2', 'G1']",7.6,90,450.0,11.117137340709366,[6400|8000|3500]
