time.ms,stateEstimate.x,stateEstimate.y,stateEstimate.z,stabilizer.roll,stabilizer.pitch,stabilizer.yaw,pm.vbat,drone_id,node_name,wind_speed,global_wind_direction,relative_wind_direction,travel_dist,waiting_time,curr_node_role
0,0.7918402552604675,1.1747193336486816,0.0,0.8227600455284119,0.5189173221588135,1.26438570022583,4.10546875,2,E1B,7.6,0,270.0,0.0,[6200|0|0],start
100,0.7919924259185791,1.1744939088821411,0.0,0.8289201855659485,0.5188555121421814,1.2604036331176758,4.10546875,2,E1B,7.6,0,270.0,0.0002719783714929,[6300|0|0],start
200,0.7916972041130066,1.1748759746551514,0.0,0.8187003135681152,0.5206894278526306,1.2765623331069946,4.10546875,2,fly,7.6,0,270.0,0.0007548139225778,[6300|0|0],fly
300,0.7917210459709167,1.1742818355560305,0.0,0.834694504737854,0.520861029624939,1.2568011283874512,2.9296875,2,fly,7.6,0,270.0,0.0013494311972114,[6300|0|0],fly
400,0.7918596863746643,1.174585223197937,0.0,0.9896749258041382,0.4075378775596618,0.8971751928329468,3.27734375,2,fly,7.6,0,270.0,0.0016829956179953,[6300|0|0],fly
500,0.7940989136695862,1.1754112243652344,0.0,1.1565724611282349,0.1873784363269806,0.5992843508720398,3.521484375,2,fly,7.6,0,270.0,0.0040697123600281,[6300|0|0],fly
600,0.8003601431846619,1.1768828630447388,0.0437796153128147,0.8003454804420471,-0.978054940700531,0.305963933467865,3.568359375,2,fly,7.6,0,270.0,0.0483192709158093,[6300|0|0],fly
700,0.8119811415672302,1.1756848096847534,0.1242543756961822,1.589879274368286,0.3401830196380615,-0.1533361375331878,3.583984375,2,fly,7.6,0,270.0,0.1296375959970691,[6300|0|0],fly
800,0.8227084279060364,1.1774452924728394,0.2050527036190033,1.451288819313049,1.1361370086669922,-0.3358340561389923,3.55859375,2,fly,7.6,0,270.0,0.2111639338699652,[6300|0|0],fly
900,0.8324124217033386,1.1782671213150024,0.2870974242687225,1.8780728578567505,1.753636598587036,-0.4275326132774353,3.546875,2,fly,7.6,0,270.0,0.2937846279166407,[6300|0|0],fly
1000,0.8395682573318481,1.1768008470535278,0.3714709877967834,1.289533257484436,2.686401844024658,-0.5570428371429443,3.53125,2,fly,7.6,0,270.0,0.3784737899515542,[6300|0|0],fly
1100,0.8410999774932861,1.1747214794158936,0.4568162560462951,1.2707557678222656,2.374058961868286,-0.6285373568534851,3.521484375,2,fly,7.6,0,270.0,0.4638581254529008,[6300|0|0],fly
1200,0.8397383689880371,1.1708755493164062,0.5443945527076721,1.2234632968902588,1.1261682510375977,-1.0023595094680786,3.525390625,2,fly,7.6,0,270.0,0.5515314007547844,[6300|0|0],fly
1300,0.8356154561042786,1.1670979261398315,0.6348517537117004,-0.2496011406183242,0.495741605758667,-0.4311431646347046,3.525390625,2,fly,7.6,0,270.0,0.6421612747533421,[6300|0|0],fly
1400,0.8317201137542725,1.1636898517608645,0.7268731594085693,1.017908811569214,-0.1230503842234611,0.8160667419433594,3.525390625,2,fly,7.6,0,270.0,0.7343281222063393,[6300|0|0],fly
1500,0.8273468017578125,1.160705804824829,0.819295346736908,0.767765998840332,0.3564018011093139,1.6179662942886353,3.521484375,2,fly,7.6,0,270.0,0.826901828540748,[6300|0|0],fly
1600,0.8205395936965942,1.1595094203948977,0.911855399608612,0.05936836078763,0.0522548705339431,1.4926226139068604,3.515625,2,fly,7.6,0,270.0,0.9197195682509216,[6300|0|0],fly
1700,0.8165687918663025,1.1555519104003906,1.0052375793457031,-0.0096722291782498,-0.2431791871786117,1.2612316608428955,3.515625,2,fly,7.6,0,270.0,1.0132698790199537,[6300|0|0],fly
1800,0.8131218552589417,1.1517691612243652,1.1033509969711304,-0.2579958438873291,-0.5662376880645752,0.6428037881851196,3.505859375,2,fly,7.6,0,270.0,1.1115166768377216,[6300|0|0],fly
1900,0.8134104013442993,1.14259672164917,1.2063522338867188,0.4794904589653015,-0.64682936668396,-0.201762244105339,3.541015625,2,fly,7.6,0,270.0,1.2149259206834493,[6300|0|0],fly
2000,0.8116013407707214,1.139877438545227,1.30683171749115,-0.4965843260288238,-0.6169813275337219,-0.7937546968460083,3.552734375,2,fly,7.6,0,270.0,1.3154584717610551,[6300|0|0],fly
2100,0.810664713382721,1.1375755071640017,1.407240390777588,0.1974340379238128,-0.612434983253479,-0.7810431122779846,3.55859375,2,fly,7.6,0,270.0,1.4158978954456347,[6300|0|0],fly
2200,0.8104210495948792,1.1352509260177612,1.5085705518722534,0.1738886833190918,-0.1615231782197952,-1.0060768127441406,3.546875,2,fly,7.6,0,270.0,1.5172550096360942,[6300|0|0],fly
2300,0.8102463483810425,1.131687879562378,1.6094712018966677,0.8227306604385376,-0.5357041358947754,-0.788126528263092,3.578125,2,fly,7.6,0,270.0,1.6182187011093494,[6300|0|0],fly
2400,0.8105126619338989,1.127949595451355,1.7092493772506714,0.1847710460424423,-0.1300273537635803,1.120712161064148,3.673828125,2,fly,7.6,0,270.0,1.7180672362412053,[6300|0|0],fly
2500,0.8093070387840271,1.123904585838318,1.797324776649475,0.4872407019138336,-0.4376682639122009,2.029540538787842,3.6953125,2,fly,7.6,0,270.0,1.806243716150577,[6300|0|0],fly
2600,0.8094756603240967,1.1187318563461304,1.8718327283859253,-0.3257381618022918,-0.5275709629058838,3.865264415740967,3.6796875,2,fly,7.6,0,270.0,1.8809312012841943,[6300|0|0],fly
2700,0.810189962387085,1.113371729850769,1.9261292219161987,-0.2747901976108551,-0.4436328411102295,3.4900155067443848,3.68359375,2,fly,7.6,0,270.0,1.935496303622287,[6300|0|0],fly
2800,0.8140416741371155,1.1105130910873413,1.9660329818725584,-0.6897109746932983,-0.2182931154966354,4.502892971038818,3.6640625,2,fly,7.6,0,270.0,1.9756873170163265,[6300|0|0],fly
2900,0.8123071789741516,1.1080520153045654,1.9886101484298704,-0.432070255279541,0.6096285581588745,-2.5759074687957764,3.615234375,2,fly,7.6,0,270.0,1.998464362857162,[6300|0|0],fly
3000,0.8130185008049011,1.1030173301696775,1.9995763301849363,-0.1838551312685012,0.4194503128528595,-6.526164531707764,3.630859375,2,fly,7.6,0,270.0,2.010552008427723,[6300|0|0],fly
3100,0.8132651448249817,1.0972256660461426,1.9994187355041504,0.1928311437368393,0.5255464911460876,-5.141594409942627,3.578125,2,fly,7.6,0,270.0,2.016351063753885,[6300|0|0],fly
3200,0.8131689429283142,1.0914502143859863,1.9931014776229856,-1.142400860786438,0.1410274505615234,-3.335581064224243,3.515625,2,fly,7.6,0,99.0,2.024911019584429,[6300|0|0],fly
3300,0.8108704686164856,1.0894699096679688,1.9842376708984373,5.673152446746826,2.188097715377808,-3.466850757598877,3.626953125,2,fly,7.6,0,99.0,2.03427967266737,[6300|0|0],fly
3400,0.8092109560966492,1.072853684425354,1.968931674957276,13.835993766784668,2.771253824234009,-3.1787915229797363,3.583984375,2,fly,7.6,0,99.0,2.056931966919115,[6300|0|0],fly
3500,0.8003795146942139,1.03909170627594,1.9433553218841555,17.781335830688477,3.083248376846313,-1.772366642951965,3.505859375,2,fly,7.6,0,99.0,2.100198759755274,[6300|0|0],fly
3600,0.7861043214797974,0.9816117286682128,1.9156080484390257,15.22292709350586,1.7839014530181885,-1.552364945411682,3.45703125,2,fly,7.6,0,99.0,2.1656024305294177,[6300|0|0],fly
3700,0.77117520570755,0.8933345079421997,1.8888463973999023,12.13532829284668,1.0743286609649658,-2.98414945602417,3.45703125,2,fly,7.6,0,99.0,2.259047238641962,[6300|0|0],fly
3800,0.7534259557723999,0.793440043926239,1.868768215179444,5.597329139709473,-1.0892502069473269,-2.4052090644836426,3.447265625,2,fly,7.6,0,99.0,2.362473894855796,[6300|0|0],fly
3900,0.7358042597770691,0.6892734169960022,1.8570290803909304,-1.0678845643997192,-1.873619556427002,-2.4539644718170166,3.48828125,2,fly,7.6,0,99.0,2.468770732162264,[6300|0|0],fly
4000,0.7159347534179688,0.5956452488899231,1.849549412727356,-6.493819236755371,-2.6312031745910645,1.9795995950698853,3.509765625,2,fly,7.6,0,99.0,2.5647758183515488,[6300|0|0],fly
4100,0.7044203877449036,0.514438271522522,1.8441447019577024,-8.783424377441406,-2.6489334106445312,6.397916316986084,3.509765625,2,fly,7.6,0,99.0,2.646972927111567,[6300|0|0],fly
4200,0.6900461316108704,0.4502493739128113,1.834792971611023,-9.902871131896973,-1.5751333236694336,4.607459545135498,3.5,2,fly,7.6,0,99.0,2.7134130405689785,[6300|0|0],fly
4300,0.6720457077026367,0.4075208604335785,1.8350979089736936,-8.90732479095459,-1.5447224378585815,5.47454833984375,3.494140625,2,fly,7.6,0,99.0,2.759779344193661,[6300|0|0],fly
4400,0.6549102067947388,0.3787995874881744,1.8308868408203125,-6.941123962402344,-2.9328091144561768,7.132420539855957,3.48828125,2,fly,7.6,0,99.0,2.79348794852492,[6300|0|0],fly
4500,0.6391799449920654,0.3607103824615478,1.825493574142456,-4.870587348937988,-3.267740249633789,2.071118831634521,3.48828125,2,fly,7.6,0,99.0,2.8180592285146653,[6300|0|0],fly
4600,0.626337468624115,0.3449501693248749,1.8218551874160769,-3.002382516860962,-3.393359899520874,-1.674230933189392,3.478515625,2,fly,7.6,0,99.0,2.8387123487473422,[6300|0|0],fly
4700,0.6189004182815552,0.3331019580364227,1.819077610969544,-2.674586057662964,-3.8282315731048575,-10.124101638793944,3.494140625,2,fly,7.6,0,99.0,2.852974352794808,[6300|0|0],fly
4800,0.61571204662323,0.3207567036151886,1.8159394264221191,-2.168808698654175,-3.1286396980285645,-10.03921604156494,3.478515625,2,fly,7.6,0,99.0,2.866105202836229,[6300|0|0],fly
4900,0.6167262196540833,0.3098296523094177,1.8152583837509155,-2.2586376667022705,-2.341036081314087,-7.677196025848389,3.5,2,fly,7.6,0,99.0,2.87710032977026,[6300|0|0],fly
5000,0.6203182935714722,0.2999867796897888,1.813451647758484,-2.944957971572876,-1.6675188541412354,-6.1472673416137695,3.505859375,2,fly,7.6,0,99.0,2.8877328003853417,[6300|0|0],fly
5100,0.6258267164230347,0.2946649491786957,1.8122870922088623,-2.6855409145355225,-1.125176191329956,-5.288384914398193,3.505859375,2,fly,7.6,0,99.0,2.8954801090747235,[6300|0|0],fly
5200,0.633013129234314,0.2893183827400207,1.8082892894744875,-2.381448745727539,-0.3397643864154815,-4.431357383728027,3.509765625,2,fly,7.6,0,99.0,2.9052889177934342,[6300|0|0],fly
5300,0.6379562616348267,0.288721889257431,1.8009525537490845,-2.386435508728028,0.0421464368700981,-3.8933122158050537,3.5,2,fly,7.6,0,99.0,2.914155600008794,[6300|0|0],fly
5400,0.6438964605331421,0.2907471656799316,1.7940984964370728,-2.7489373683929443,0.0731614679098129,-3.3693642616271973,3.5,2,fly,7.6,0,99.0,2.923448920684173,[6300|0|0],fly
5500,0.648025631904602,0.2960436344146728,1.7845683097839355,-2.4378483295440674,0.7514010667800903,-2.621112823486328,3.484375,2,fly,7.6,0,99.0,2.9351076982751816,[6300|0|0],fly
5600,0.650175154209137,0.303860455751419,1.7725684642791748,-2.0208702087402344,1.426080584526062,-1.6670587062835691,3.478515625,2,fly,7.6,0,99.0,2.949589391342169,[6300|0|0],fly
5700,0.650262713432312,0.3133403062820434,1.7599745988845823,-0.1628086566925048,0.5702338814735413,-1.2174738645553589,3.462890625,2,fly,7.6,0,99.0,2.965352661252872,[6300|0|0],fly
5800,0.649884819984436,0.3216779232025146,1.7502927780151367,0.3280456364154815,-0.7522285580635071,0.0203291177749633,3.48828125,2,fly,7.6,0,99.0,2.97813531804708,[6300|0|0],fly
5900,0.6500170826911926,0.3284315466880798,1.7434887886047363,0.6208307147026062,-1.2111101150512695,0.8432701826095581,3.509765625,2,fly,7.6,0,99.0,2.987722976546693,[6300|0|0],fly
6000,0.6529677510261536,0.3338733315467834,1.741329312324524,0.4182415306568146,-1.238633394241333,1.532496690750122,3.537109375,2,fly,7.6,0,99.0,2.9942791037477283,[6300|0|0],fly
6100,0.6575732827186584,0.3396359086036682,1.7397085428237915,0.1957978904247284,-0.4014685750007629,2.1805849075317383,3.568359375,2,fly,7.6,0,99.0,3.001831925093537,[6300|0|0],fly
6200,0.6624364256858826,0.3432040512561798,1.737165451049805,0.2473323494195938,0.1436625570058822,1.9216291904449463,3.541015625,2,fly,7.6,0,99.0,3.0083778488082813,[6300|0|0],fly
6300,0.66518235206604,0.3474701941013336,1.7313125133514404,0.4699904024600982,0.3568753004074096,1.7755587100982666,3.869140625,2,fly,7.6,0,270.0,3.016123619664784,[6300|0|0],fly
6400,0.6662747263908386,0.3521271646022796,1.700239896774292,0.7621487379074097,-0.3995018899440765,4.181987285614014,3.7734375,2,fly,7.6,0,270.0,3.047562260806897,[6300|0|0],fly
6500,0.6675589084625244,0.3537699282169342,1.6213051080703735,1.4851527214050293,-0.4766115844249725,3.718995094299317,3.615234375,2,fly,7.6,0,270.0,3.126524585137043,[6300|0|0],fly
6600,0.6672910451889038,0.353721559047699,1.5162514448165894,1.1312845945358276,0.4654018580913543,3.137187957763672,3.46875,2,fly,7.6,0,270.0,3.231578601021013,[6300|0|0],fly
6700,0.6662837862968445,0.3535999655723572,1.39322829246521,0.3552135527133941,-0.2441407442092895,3.712335586547852,3.447265625,2,fly,7.6,0,270.0,3.354605936885525,[6300|0|0],fly
6800,0.6664683222770691,0.3520196676254272,1.2672334909439087,-0.3797952532768249,-1.181208848953247,3.6012203693389893,3.462890625,2,fly,7.6,0,270.0,3.480610783639613,[6300|0|0],fly
6900,0.6684131622314453,0.3530516624450683,1.1423717737197876,-1.5086814165115356,-0.07600849121809,6.973428249359131,3.462890625,2,fly,7.6,0,270.0,3.6054919104919616,[6300|0|0],fly
7000,0.6723231077194214,0.3573667407035827,1.019599199295044,-0.6154744029045105,-0.3559654355049133,5.195744037628174,3.46875,2,fly,7.6,0,270.0,3.728402498339288,[6300|0|0],fly
7100,0.6763491034507751,0.36426442861557,0.8985769748687744,0.3445849418640136,-0.0105837993323802,5.169947147369385,3.505859375,2,fly,7.6,0,270.0,3.84968796962601,[6300|0|0],fly
7200,0.679764986038208,0.3714741170406341,0.7782313227653503,1.1195995807647705,0.8172100186347961,7.049477577209473,3.509765625,2,fly,7.6,0,270.0,3.970297769564639,[6300|0|0],fly
7300,0.6849371194839478,0.3756898045539856,0.6567679047584534,1.9225679636001587,-0.3916631042957306,9.828120231628418,3.5,2,fly,7.6,0,270.0,4.091944326850527,[6300|0|0],fly
7400,0.6939425468444824,0.3760699927806854,0.5368936061859131,3.302743673324585,-0.94164377450943,11.823793411254885,3.45703125,2,fly,7.6,0,270.0,4.212157012218137,[6300|0|0],fly
7500,0.7063397765159607,0.3723135888576507,0.4218738079071045,0.7603515982627869,2.242487907409668,12.732115745544434,3.3828125,2,fly,7.6,0,270.0,4.327903959780732,[6300|0|0],fly
7600,0.7174062728881836,0.3663879036903381,0.3179089426994324,0.1208536252379417,2.5749940872192383,15.56841278076172,3.39453125,2,fly,7.6,0,270.0,4.432623940129794,[6300|0|0],fly
7700,0.7280803918838501,0.3582588136196136,0.227975457906723,3.007800817489624,-0.2535343766212463,16.689960479736328,3.388671875,2,fly,7.6,0,270.0,4.523552761790872,[6300|0|0],fly
7800,0.7426685690879822,0.3445565700531006,0.1533639878034591,4.136123180389404,-2.190407514572144,16.973297119140625,3.37890625,2,fly,7.6,0,270.0,4.600801955080287,[6300|0|0],fly
7900,0.7617766857147217,0.3271529078483581,0.0946969836950302,-1.628596544265747,3.811791658401489,17.919498443603516,3.3828125,2,fly,7.6,0,270.0,4.664909871519806,[6300|0|0],fly
8000,0.7715674638748169,0.3122137486934662,0.0510336868464946,-9.785444259643556,11.417949676513672,18.7420654296875,3.42578125,2,fly,7.6,0,270.0,4.712085302677547,[6300|0|0],fly
8100,0.7610635161399841,0.3050159215927124,0.0161908417940139,-7.441258430480957,8.560201644897461,15.835779190063477,3.3203125,2,fly,7.6,0,270.0,4.749182007171877,[6300|0|0],fly
8200,0.7333707809448242,0.3055659532546997,0.0037799717392772,-0.9238770604133606,2.0269808769226074,10.427717208862305,3.37890625,2,fly,7.6,0,270.0,4.779533610308021,[6300|0|0],fly
8300,0.7059321999549866,0.3054958879947662,0.0184918493032455,0.5072985291481018,-2.33912992477417,5.981772422790527,3.537109375,2,fly,7.6,0,270.0,4.810667514292804,[6300|0|0],fly
8400,0.6806260347366333,0.3029380440711975,0.0516566522419452,1.199069261550903,-5.211869239807129,2.4942917823791504,3.578125,2,fly,7.6,0,270.0,4.852462833618762,[6300|0|0],fly
8500,0.6647570133209229,0.297831118106842,0.0831595361232757,-0.1456052511930465,-7.187028408050537,-0.5716900825500488,3.583984375,2,fly,7.6,0,270.0,4.888104638095223,[6300|0|0],fly
8600,0.6597947478294373,0.2928715944290161,0.1047489419579505,-1.2381318807601929,-6.2292070388793945,-1.407523512840271,3.5625,2,fly,7.6,0,270.0,4.910805373726766,[6300|0|0],fly
8700,0.6647325754165649,0.2906450033187866,0.1172447651624679,-2.308023452758789,-4.156980514526367,-1.2478567361831665,3.525390625,2,fly,7.6,0,270.0,4.924424677923784,[6300|0|0],fly
8800,0.6768316626548767,0.2911402583122253,0.1250709444284439,-1.2837952375411987,-1.1396818161010742,-1.4826282262802124,3.505859375,2,fly,7.6,0,270.0,4.938842800943512,[6300|0|0],fly
8900,0.691941499710083,0.2935203015804291,0.1294424533843994,-0.344341516494751,0.9577260613441468,-2.369270086288452,3.478515625,2,fly,7.6,0,270.0,4.954751348091048,[6300|0|0],fly
9000,0.7062783241271973,0.2957408130168915,0.1303058415651321,-0.1545340567827224,2.267672538757324,-2.967413902282715,3.462890625,2,fly,7.6,0,270.0,4.969284780051781,[6300|0|0],fly
9100,0.7175167798995972,0.2981864511966705,0.1301752477884292,-0.4533597528934479,2.6316587924957275,-3.168030261993408,3.462890625,2,fly,7.6,0,270.0,4.9807870010976965,[6300|0|0],fly
9200,0.7239915728569031,0.3002266883850097,0.1301520019769668,0.1818462759256363,3.566737413406372,-3.006644487380981,3.45703125,2,fly,7.6,0,270.0,4.987575671953793,[6300|0|0],fly
9300,0.7260448336601257,0.3032652735710144,0.131213828921318,-0.4781536757946014,1.9872792959213257,-3.0574634075164795,3.462890625,2,F2,7.6,0,270.0,4.99139357141795,[6300|100|0],intermediate
9400,0.7253307104110718,0.3058711290359497,0.1325653493404388,-0.4112655818462372,2.2988390922546387,-2.847893476486206,3.447265625,2,F2,7.6,0,270.0,4.994414674223594,[6300|200|0],intermediate
9500,0.7222414016723633,0.3100124597549438,0.134596362709999,0.591690182685852,0.6670433282852173,-2.1115946769714355,3.453125,2,F2,7.6,0,270.0,4.999966202293818,[6300|300|0],intermediate
9600,0.7187530398368835,0.3124404549598694,0.1358745545148849,0.3666087090969085,-0.5158918499946594,-1.2874418497085571,3.453125,2,F2,7.6,0,270.0,5.004404400498095,[6300|400|0],intermediate
9700,0.71525639295578,0.3131498396396637,0.1358892321586609,0.1320259124040603,0.848568856716156,-1.2038471698760986,3.453125,2,F2,7.6,0,270.0,5.00797231045608,[6300|500|0],intermediate
9800,0.7120075225830078,0.3120490908622741,0.1346220523118972,0.6323258280754089,-0.8027870655059814,-1.7282888889312744,3.435546875,2,F2,7.6,0,270.0,5.0116291603756205,[6300|600|0],intermediate
9900,0.7090832591056824,0.3107245564460754,0.1359464675188064,-1.184340476989746,0.2513028085231781,-3.377441167831421,3.44140625,2,F2,7.6,0,270.0,5.015101880339108,[6300|700|0],intermediate
10000,0.7069290280342102,0.3123336434364319,0.1380628645420074,0.2962060570716858,-0.0670413374900817,-3.489691257476806,3.462890625,2,F2,7.6,0,270.0,5.018523723236092,[6300|800|0],intermediate
10100,0.7055731415748596,0.313964307308197,0.1396556794643402,0.5554378032684326,0.4045414924621582,-3.320718050003052,3.447265625,2,F2,7.6,0,270.0,5.021175996248084,[6300|900|0],intermediate
10200,0.7025141716003418,0.314829558134079,0.1413148194551468,0.9721786379814148,0.8907195329666138,-3.6447696685791016,3.46875,2,F2,7.6,0,270.0,5.024761899454499,[6300|1000|0],intermediate
10300,0.6989262700080872,0.3133876323699951,0.142778679728508,0.7120352387428284,0.6889445781707764,-4.034167289733887,3.45703125,2,F2,7.6,0,270.0,5.028896518499194,[6300|1100|0],intermediate
10400,0.6934522986412048,0.3108320236206054,0.1428878605365753,0.5448430776596069,0.1597978174686432,-5.023290634155273,3.447265625,2,F2,7.6,0,270.0,5.034938655460093,[6300|1200|0],intermediate
10500,0.6868888139724731,0.3072249293327331,0.1428095251321792,-0.5312254428863525,0.3246446549892425,-6.732532024383545,3.45703125,2,F2,7.6,0,270.0,5.042428421586872,[6300|1300|0],intermediate
10600,0.6797916293144226,0.3051476180553436,0.1431973278522491,-1.4991369247436523,0.7082842588424683,-7.596406936645508,3.46875,2,F2,7.6,0,270.0,5.049833530847601,[6300|1400|0],intermediate
10700,0.6720434427261353,0.3063265383243561,0.1452920287847519,0.3007608652114868,0.2405520975589752,-7.00529146194458,3.47265625,2,F2,7.6,0,270.0,5.0579459916582445,[6300|1500|0],intermediate
10800,0.6670223474502563,0.3137149214744568,0.1498630195856094,0.2003475427627563,0.0545236468315124,-6.417699813842773,3.46875,2,F2,7.6,0,270.0,5.067980609749815,[6300|1600|0],intermediate
10900,0.657528817653656,0.3137811422348022,0.1501287817955017,0.414665549993515,0.8771481513977051,-5.515407562255859,3.45703125,2,F2,7.6,0,270.0,5.077478089559756,[6300|1700|0],intermediate
11000,0.6426091194152832,0.3075368404388428,0.1457565575838089,-1.8674092292785645,-0.1037359908223152,-4.457138538360596,3.42578125,2,F2,7.6,0,270.0,5.094232344094066,[6300|1800|0],intermediate
11100,0.6340822577476501,0.3129162788391113,0.1470772325992584,-1.6451361179351809,0.3922303020954132,-2.616794347763061,3.419921875,2,F2,7.6,0,270.0,5.104400426995856,[6300|1900|0],intermediate
11200,0.6229122877120972,0.3181725442409515,0.1460918337106704,0.0645318776369094,0.3640677332878113,-0.5508192777633667,3.974609375,2,F2,7.6,0,270.0,5.116784592996817,[6300|2000|0],intermediate
11300,0.6119717359542847,0.3235780298709869,0.1149333789944648,4.224266529083252,4.755515575408936,2.7639589309692383,3.98046875,2,F2,7.6,0,270.0,5.15024747165308,[6300|2100|0],intermediate
11400,0.6001916527748108,0.3252638876438141,0.0176719911396503,11.948541641235352,5.0539960861206055,6.9172682762146,3.984375,2,F2,7.6,0,270.0,5.248234154644138,[6300|2200|0],intermediate
11500,0.5871729850769043,0.3285136520862579,0.026453174650669,-8.975419998168945,31.50145530700684,11.97626495361328,3.984375,2,F2,7.6,0,270.0,5.264270234633152,[6300|2300|0],intermediate
11600,0.5777226686477661,0.3333212733268738,0.0046040727756917,-49.32725524902344,62.4721565246582,40.047157287597656,3.990234375,2,F2,7.6,0,270.0,5.2885561349736205,[6300|2400|0],intermediate
11700,0.5797398090362549,0.3145757615566253,0.0,33.49833297729492,-6.885108470916748,-16.30848503112793,3.990234375,2,F2,7.6,0,270.0,5.307963879639069,[6300|2500|0],intermediate
11800,0.5792050361633301,0.3078250288963318,0.0,-1.402254939079285,-3.6188368797302246,-23.0693359375,3.99609375,2,F2,7.6,0,270.0,5.3147357607275385,[6300|2600|0],intermediate
11900,0.5812579393386841,0.3038314878940582,0.0,-1.1816927194595337,-2.641275882720948,-22.612716674804688,3.99609375,2,F2,7.6,0,270.0,5.3192260592904645,[6300|2700|0],intermediate
12000,0.5809611678123474,0.3045425415039062,0.0,-1.0448238849639893,-2.5100154876708984,-22.533206939697266,3.99609375,2,F2,7.6,0,270.0,5.319996559501316,[6300|2800|0],intermediate
12100,0.5806285738945007,0.3051204681396484,0.0,-1.0642480850219729,-2.072847366333008,-22.593992233276367,4.0,2,F2,7.6,0,270.0,5.320663356254824,[6300|2900|0],intermediate
12200,0.5800161957740784,0.3066864609718323,0.0,-1.0640705823898315,-1.6042546033859253,-21.612449645996094,4.0,2,F2,7.6,0,270.0,5.322344826002642,[6300|3000|0],intermediate
12301,0.5783439874649048,0.3133470416069031,0.0,-5.3256940841674805,-1.138554930686951,-20.509014129638672,4.0,2,F2,7.6,0,270.0,5.329212111858462,[6300|3100|0],intermediate
12400,0.5805603265762329,0.32103431224823,0.0,-18.66437339782715,-0.030379019677639,-8.454782485961914,4.0078125,2,F2,7.6,0,270.0,5.337212504909394,[6300|3200|0],intermediate
12500,0.5959773063659668,0.3368509411811828,0.0421849191188812,-0.142037495970726,-5.514511585235596,5.100719451904297,4.0078125,2,F2,7.6,0,270.0,5.384829901076198,[6300|3300|0],intermediate
12601,0.6207437515258789,0.3755843937397003,0.0372985415160656,2.008362054824829,1.0263049602508545,2.983333110809326,4.0078125,2,F2,7.6,0,270.0,5.431063372058152,[6300|3400|0],intermediate
12701,0.6342229843139648,0.3965887427330017,0.0093909911811351,0.3206354677677154,6.664217948913574,2.653963804244995,4.0078125,2,F2,7.6,0,270.0,5.468502706439048,[6300|3500|0],intermediate
12801,0.6416301131248474,0.3980273306369781,0.0,-1.882331132888794,4.946009159088135,4.143619060516357,4.01171875,2,F2,7.6,0,270.0,5.480549523767397,[6300|3600|0],intermediate
12901,0.6399402022361755,0.401337057352066,0.0,-8.40358829498291,0.6336747407913208,5.006227970123291,4.01171875,2,F2,7.6,0,270.0,5.484265716676844,[6300|3700|0],intermediate
13001,0.6422983407974243,0.4016093909740448,0.0,-3.383820056915283,-2.2169291973114014,7.944167613983154,4.01171875,2,F2,7.6,0,270.0,5.4866395286061485,[6300|3800|0],intermediate
13101,0.6420286297798157,0.4010740220546722,0.0,-3.3406684398651123,-2.1042041778564453,7.930302619934082,4.01171875,2,F2,7.6,0,270.0,5.487238998299168,[6300|3900|0],intermediate
13202,0.6421477794647217,0.40131676197052,0.0,-3.3216207027435303,-2.027409553527832,7.855200290679932,4.01171875,2,F2,7.6,0,270.0,5.4875094041315,[6300|4000|0],intermediate
13301,0.6420096158981323,0.4013236165046692,0.0,-3.2864432334899902,-1.943179488182068,7.791484832763672,4.015625,2,F2,7.6,0,270.0,5.487647737626255,[6300|4100|0],intermediate
13401,0.6417989730834961,0.4012682735919952,0.0,-3.2527308464050293,-1.868720889091492,7.753113746643066,4.015625,2,F2,7.6,0,270.0,5.487865529346348,[6300|4200|0],intermediate
13501,0.6417306065559387,0.4014233648777008,0.0,-3.2336535453796387,-1.7998143434524536,7.709117889404297,4.015625,2,F2,7.6,0,270.0,5.488035020611586,[6300|4300|0],intermediate
13602,0.6415318846702576,0.4014301300048828,0.0,-3.1980955600738525,-1.7276934385299685,7.658905982971191,4.015625,2,F2,7.6,0,270.0,5.488233857617183,[6300|4400|0],intermediate
13700,0.6416668891906738,0.401830643415451,0.0,-3.174488306045532,-1.64719557762146,7.618449687957764,4.1015625,2,F2,7.6,0,270.0,5.488656512574066,[6300|4500|0],intermediate
13802,0.6413741111755371,0.4015726447105407,0.0,-3.125562191009521,-1.5637967586517334,7.607750415802002,4.1015625,2,F2,7.6,0,270.0,5.489046746219312,[6300|4600|0],intermediate
13902,0.6410215497016907,0.4010849297046661,0.0,-3.095323324203491,-1.514815092086792,7.607006549835205,4.1015625,2,F2,7.6,0,270.0,5.489648548113457,[6300|4700|0],intermediate
14002,0.6412482261657715,0.4008512496948242,0.0,-3.070526123046875,-1.4940544366836548,7.601737976074219,4.10546875,2,F2,7.6,0,270.0,5.489974106965844,[6300|4800|0],intermediate
14100,0.6411699652671814,0.4006600379943847,0.0,-3.052217721939087,-1.4624606370925903,7.615607738494873,4.10546875,2,F2,7.6,0,270.0,5.490180714522902,[6300|4900|0],intermediate
14200,0.6411176323890686,0.4011433124542236,0.0,-3.055593490600586,-1.444679856300354,7.594700336456299,4.10546875,2,F2,7.6,0,270.0,5.490666814238664,[6300|5000|0],intermediate
14300,0.6410471796989441,0.4010855853557586,0.0,-3.0516977310180664,-1.431062936782837,7.573428630828857,4.10546875,2,F2,7.6,0,270.0,5.4907578966159,[6300|5100|0],intermediate
14400,0.6411025524139404,0.4011536538600921,0.0,-3.044400930404663,-1.418569803237915,7.570847511291504,4.10546875,2,F2,7.6,0,270.0,5.490845643176222,[6300|5200|0],intermediate
14500,0.6408659219741821,0.4008976221084595,0.0,-3.03776216506958,-1.4055298566818235,7.552443027496338,4.11328125,2,F2,7.6,0,270.0,5.491194277974921,[6300|5300|0],intermediate
14600,0.6410796046257019,0.4012982845306396,0.0,-3.047410249710083,-1.415819764137268,7.561646461486816,4.11328125,2,F2,7.6,0,270.0,5.491648360183456,[6300|5400|0],intermediate
14700,0.640967607498169,0.4010519981384277,0.0,-3.039024829864502,-1.406212568283081,7.582029342651367,4.11328125,2,F2,7.6,0,270.0,5.4919189158035495,[6300|5500|0],intermediate
14800,0.6408955454826355,0.4009146094322204,0.0,-3.031346082687378,-1.3942748308181765,7.594118118286133,4.11328125,2,F2,7.6,0,270.0,5.492074056354909,[6300|5600|0],intermediate
14900,0.640953779220581,0.4007183611392975,0.0,-3.028658390045166,-1.3886468410491943,7.606672763824463,4.1171875,2,F2,7.6,0,270.0,5.492278762389774,[6300|5700|0],intermediate
15000,0.6408252120018005,0.4011067748069763,0.0,-3.0355758666992188,-1.3857901096343994,7.603018760681152,4.1171875,2,F2,7.6,0,270.0,5.492687901372254,[6300|5800|0],intermediate
15100,0.641208291053772,0.4011183679103851,0.0,-3.037485122680664,-1.3869807720184326,7.603148460388184,4.1171875,2,F2,7.6,0,270.0,5.493071155804852,[6300|5900|0],intermediate
15200,0.6412764191627502,0.401056170463562,0.0,-3.036335229873657,-1.3890461921691897,7.606010437011719,4.1171875,2,F2,7.6,0,270.0,5.493163405258098,[6300|6000|0],intermediate
15300,0.6410850286483765,0.4006334841251373,0.0,-3.034184455871582,-1.3854141235351562,7.607573509216309,4.1171875,2,F2,7.6,0,270.0,5.493627403178011,[6300|6100|0],intermediate
15400,0.6410930156707764,0.4009910821914673,0.0,-3.04993200302124,-1.3871132135391235,7.5747151374816895,4.1171875,2,F2,7.6,0,270.0,5.49398509042907,[6300|6200|0],intermediate
15500,0.641048789024353,0.4013761579990387,0.0,-3.0611765384674072,-1.3871266841888428,7.569616317749023,4.12109375,2,F2,7.6,0,270.0,5.494372697670785,[6300|6300|0],intermediate
15600,0.6411198377609253,0.4010246098041534,0.0,-3.0534563064575195,-1.3950510025024414,7.582133769989014,4.1171875,2,F2,7.6,0,270.0,5.494731353573142,[6300|6400|0],intermediate
15700,0.6409183740615845,0.4009352326393127,0.0,-3.051985025405884,-1.389254093170166,7.606217861175537,4.12109375,2,F2,7.6,0,270.0,5.494951752982731,[6300|6500|0],intermediate
15800,0.6408431529998779,0.4009437263011932,0.0,-3.034459114074707,-1.3774882555007937,7.589564800262451,4.12109375,2,F2,7.6,0,270.0,5.495027452060772,[6300|6600|0],intermediate
15900,0.6408281922340393,0.4008386135101318,0.0,-3.0235211849212646,-1.3707846403121948,7.596115112304687,4.12109375,2,F2,7.6,0,270.0,5.495133624200994,[6300|6700|0],intermediate
16000,0.6409529447555542,0.4011921882629394,0.0,-3.038508653640747,-1.387629151344299,7.608715057373047,4.12109375,2,F2,7.6,0,270.0,5.495508561925753,[6300|6800|0],intermediate
16100,0.6410132050514221,0.4012200534343719,0.0,-3.013951063156128,-1.3757904767990112,7.595329761505127,4.12109375,2,F2,7.6,0,270.0,5.495574952972115,[6300|6900|0],intermediate
16200,0.6409188508987427,0.4009330570697784,0.0,-2.988276720046997,-1.3660171031951904,7.59848690032959,4.12890625,2,F2,7.6,0,270.0,5.495877061594001,[6300|7000|0],intermediate
16300,0.6409563422203064,0.4007886350154876,0.0,-2.9837567806243896,-1.355318546295166,7.610057830810547,4.12890625,2,F2,7.6,0,270.0,5.496026270604983,[6300|7100|0],intermediate
16400,0.64124596118927,0.4008394777774811,0.0,-2.974846839904785,-1.358733057975769,7.586986541748047,4.12890625,2,F2,7.6,0,270.0,5.496320318447401,[6300|7200|0],intermediate
16500,0.6412516832351685,0.4010516107082367,0.0,-2.980802536010742,-1.3604631423950195,7.612653732299805,4.12890625,2,F2,7.6,0,270.0,5.496532528536982,[6300|7300|0],intermediate
16600,0.6409463286399841,0.4009729027748108,0.0,-3.0760040283203125,-1.4386717081069946,7.6056809425354,4.12890625,2,F2,7.6,0,270.0,5.496847863862604,[6300|7400|0],intermediate
16700,0.6408873200416565,0.4009923040866852,0.0,-3.0516574382781982,-1.4154984951019287,7.578826904296875,4.12890625,2,F2,7.6,0,270.0,5.4969099800889785,[6300|7500|0],intermediate
16800,0.6412179470062256,0.4011150598526001,0.0,-3.0488500595092773,-1.417432427406311,7.580375671386719,4.12890625,2,F2,7.6,0,270.0,5.497262660068231,[6300|7600|0],intermediate
16900,0.6411433219909668,0.4010527729988098,0.0,-3.0387680530548096,-1.4044235944747925,7.580006122589111,4.1328125,2,F2,7.6,0,270.0,5.497359863695002,[6300|7700|0],intermediate
17000,0.6411394476890564,0.400981992483139,0.0,-3.0303726196289062,-1.399711012840271,7.60726261138916,4.12890625,2,F2,7.6,0,270.0,5.497430750164895,[6300|7800|0],intermediate
17100,0.6410430073738098,0.4010396599769592,0.0,-3.0229806900024414,-1.3931193351745603,7.585687160491943,4.12890625,2,F2,7.6,0,270.0,5.497543116860354,[6300|7900|0],intermediate
17200,0.6411568522453308,0.4008292257785797,0.0,-3.015254020690918,-1.3914878368377686,7.600516319274902,4.1328125,2,F2,7.6,0,270.0,5.49778237238614,[6300|8000|0],intermediate
17300,0.6410161256790161,0.4013203084468841,0.0,-3.0199806690216064,-1.3815255165100098,7.57427978515625,4.1328125,2,F2,7.6,0,270.0,5.498293220850536,[6300|8100|0],intermediate
17400,0.6410772204399109,0.4006721377372741,0.0,-2.9912233352661133,-1.3757193088531494,7.5676069259643555,4.1328125,2,F2,7.6,0,270.0,5.498944264503915,[6300|8200|0],intermediate
17500,0.6410512924194336,0.4010683596134186,0.0,-2.995222568511963,-1.3771628141403198,7.598055839538574,4.1328125,2,F2,7.6,0,270.0,5.499341333814465,[6300|8300|0],intermediate
17600,0.6410634517669678,0.4008126258850097,0.0,-2.9841089248657227,-1.369978904724121,7.598451614379883,4.1328125,2,F2,7.6,0,270.0,5.499597356449359,[6300|8400|0],intermediate
17700,0.6409260630607605,0.4011333286762237,0.0,-2.9943764209747314,-1.3718347549438477,7.632518291473389,4.1328125,2,F2,7.6,0,270.0,5.499946248892507,[6300|8500|0],intermediate
17800,0.6408984065055847,0.4007980823516845,0.0,-2.98760199546814,-1.3642809391021729,7.579525470733643,4.1328125,2,F2,7.6,0,270.0,5.500282634063347,[6300|8600|0],intermediate
17900,0.6409465074539185,0.4007384777069092,0.0,-3.0099236965179443,-1.378137707710266,7.58475399017334,4.13671875,2,F2,7.6,0,270.0,5.5003592265885,[6300|8700|0],intermediate
18000,0.6410569548606873,0.4007892906665802,0.0,-2.999048948287964,-1.3648488521575928,7.557976245880127,4.13671875,2,F2,7.6,0,270.0,5.500480802024064,[6300|8800|0],intermediate
18100,0.6414749622344971,0.4006101191043854,0.0,-2.991398572921753,-1.373967528343201,7.562129974365234,4.1328125,2,F2,7.6,0,270.0,5.500935590560923,[6300|8900|0],intermediate
18200,0.641387403011322,0.4007690250873565,0.0,-2.9969630241394043,-1.3627477884292605,7.541430950164795,4.13671875,2,F2,7.6,0,270.0,5.501117022997348,[6300|9000|0],intermediate
18300,0.6409717798233032,0.4009608328342438,0.0,-3.001114845275879,-1.3492437601089478,7.5282816886901855,4.13671875,2,F2,7.6,0,270.0,5.501574770576462,[6300|9100|0],intermediate
18400,0.6410104632377625,0.4010534286499023,0.0,-2.992511987686157,-1.3520410060882568,7.508053302764893,4.13671875,2,F2,7.6,0,270.0,5.501675121917418,[6300|9200|0],intermediate
18500,0.6409139037132263,0.4011480212211609,0.0,-3.0890703201293945,-1.4387292861938477,7.492816925048828,4.13671875,2,F2,7.6,0,270.0,5.501810294016299,[6300|9300|0],intermediate
18600,0.6411544680595398,0.4011161923408508,0.0,-3.0710036754608154,-1.4293310642242432,7.521281719207764,4.13671875,2,F2,7.6,0,270.0,5.502052954854382,[6300|9400|0],intermediate
18700,0.6410950422286987,0.4009813070297241,0.0,-3.064291954040528,-1.4255255460739136,7.533757209777832,4.13671875,2,F2,7.6,0,270.0,5.502200350500616,[6300|9500|0],intermediate
18800,0.641257643699646,0.4007380306720733,0.0,-3.0483460426330566,-1.4208656549453735,7.558870792388916,4.13671875,2,F2,7.6,0,270.0,5.502492963939382,[6300|9600|0],intermediate
18900,0.6410536170005798,0.4006782472133636,0.0,-3.040292739868164,-1.4057520627975464,7.575606346130371,4.14453125,2,F2,7.6,0,270.0,5.502705569103635,[6300|9700|0],intermediate
19000,0.6411756277084351,0.4012758731842041,0.0,-3.0537328720092773,-1.4070595502853394,7.578530788421631,4.14453125,2,F2,7.6,0,270.0,5.503315522719785,[6300|9800|0],intermediate
19100,0.6409188508987427,0.401057630777359,0.0,-3.043176412582397,-1.3917032480239868,7.569620132446289,4.13671875,2,F2,7.6,0,270.0,5.5036525154172455,[6300|9900|0],intermediate
19200,0.640893280506134,0.4010166227817535,0.0,-3.03579330444336,-1.3906351327896118,7.5796637535095215,4.14453125,2,F2,7.6,0,270.0,5.50370084243538,[6300|10000|0],intermediate
19300,0.641192615032196,0.4012107849121094,0.0,-3.0423057079315186,-1.3980408906936646,7.561824798583984,4.14453125,2,F2,7.6,0,270.0,5.504057633818904,[6300|10100|0],intermediate
19400,0.640884518623352,0.4009387791156769,0.0,-3.03923773765564,-1.3829867839813232,7.560622215270996,4.14453125,2,F2,7.6,0,270.0,5.504468621106342,[6300|10200|0],intermediate
19500,0.6410534977912903,0.4008328318595886,0.0,-3.0404164791107178,-1.385946273803711,7.564508438110352,4.14453125,2,F2,7.6,0,270.0,5.504668067290235,[6300|10300|0],intermediate
19600,0.6408095359802246,0.4009499251842499,0.0,-3.045710802078247,-1.382188320159912,7.573845386505127,4.14453125,2,F2,7.6,0,270.0,5.504938674407545,[6300|10400|0],intermediate
19700,0.641044557094574,0.4010049402713775,0.0,-3.0533571243286133,-1.396100997924805,7.585782051086426,4.14453125,2,F2,7.6,0,270.0,5.5051800487723845,[6300|10500|0],intermediate
19800,0.6411024928092957,0.401095300912857,0.0,-3.0596814155578613,-1.3937854766845703,7.580048084259033,4.14453125,2,F2,7.6,0,270.0,5.505287387453991,[6300|10600|0],intermediate
19900,0.6411927938461304,0.400942862033844,0.0,-3.0563669204711914,-1.395756483078003,7.583500385284424,4.14453125,2,F2,7.6,0,270.0,5.505464565017718,[6300|10700|0],intermediate
20000,0.6409650444984436,0.4010685086250305,0.0,-3.0598304271698,-1.382019281387329,7.579932689666748,4.14453125,2,F2,7.6,0,270.0,5.50572467428562,[6300|10800|0],intermediate
20100,0.6407692432403564,0.4010793268680572,0.0,-3.060772180557251,-1.3730133771896362,7.566252708435059,4.14453125,2,F2,7.6,0,270.0,5.505920774176111,[6300|10900|0],intermediate
20200,0.6407884955406189,0.4011695384979248,0.0,-3.063199758529663,-1.376017451286316,7.5601396560668945,4.1484375,2,F2,7.6,0,270.0,5.506013017274654,[6300|11000|0],intermediate
20300,0.6411803960800171,0.4011741280555725,0.0,-3.0618555545806885,-1.388291358947754,7.559278964996338,4.1484375,2,F2,7.6,0,270.0,5.506404944687347,[6300|11100|0],intermediate
20400,0.6410590410232544,0.4009599089622497,0.0,-3.05527138710022,-1.390837550163269,7.575301647186279,4.1484375,2,F2,7.6,0,270.0,5.506651149621794,[6300|11200|0],intermediate
20500,0.6415086388587952,0.4007925689220428,0.0,-3.040572166442871,-1.39202880859375,7.592620372772217,4.1484375,2,F2,7.6,0,270.0,5.507130879652936,[6300|11300|0],intermediate
20600,0.6410988569259644,0.4008179605007171,0.0,-3.032098293304444,-1.3693649768829346,7.58483076095581,4.1484375,2,F2,7.6,0,270.0,5.507541447509376,[6300|11400|0],intermediate
20700,0.6411095857620239,0.4007191658020019,0.0,-2.9538021087646484,-1.3016915321350098,7.565881252288818,4.1484375,2,F2,7.6,0,270.0,5.507640823061789,[6300|11500|0],intermediate
20800,0.6410797834396362,0.4007423222064972,0.0,-2.96128797531128,-1.3060837984085083,7.541399955749512,4.1484375,2,F2,7.6,0,270.0,5.507678564252666,[6300|11600|0],intermediate
20900,0.6410304307937622,0.4004708230495453,0.0,-2.959197759628296,-1.3135247230529783,7.567341327667236,4.1484375,2,F2,7.6,0,270.0,5.507954512573698,[6300|11700|0],intermediate
21000,0.6410188674926758,0.400761067867279,0.0,-2.973316192626953,-1.3183050155639648,7.558690547943115,4.1484375,2,F2,7.6,0,270.0,5.508244987640017,[6300|11800|0],intermediate
21100,0.6412215828895569,0.4007840752601623,0.0,-2.9746618270874023,-1.328862547874451,7.579188346862793,4.1484375,2,F2,7.6,0,270.0,5.508449004483096,[6300|11900|0],intermediate
21200,0.6411219239234924,0.4009093940258026,0.0,-2.982971429824829,-1.3324627876281738,7.5818562507629395,4.1484375,2,F2,7.6,0,270.0,5.508609119137449,[6300|12000|0],intermediate
21300,0.6410313844680786,0.400729775428772,0.0,-2.985750198364258,-1.339133620262146,7.59740686416626,4.15234375,2,F2,7.6,0,270.0,5.5088102664302125,[6300|12100|0],intermediate
21400,0.6410627961158752,0.4007879793643951,0.0,-3.011765956878662,-1.3682585954666138,7.619673252105713,3.435546875,2,fly,7.6,0,270.0,5.508876405599692,[6300|12100|0],fly
21500,0.6414399147033691,0.4023837149143219,0.0,-2.969388961791992,-1.5616799592971802,6.952771663665772,3.23046875,2,fly,7.6,0,270.0,5.510516097758096,[6300|12100|0],fly
21600,0.643096923828125,0.4011949002742767,0.0086971092969179,2.2019646167755127,-2.2842659950256348,2.6802823543548584,3.39453125,2,fly,7.6,0,270.0,5.519449107867261,[6300|12100|0],fly
21700,0.650012195110321,0.3981626033782959,0.0547882504761219,1.9548598527908323,-1.4100126028060913,1.304113507270813,3.419921875,2,fly,7.6,0,270.0,5.5661546653157385,[6300|12100|0],fly
21800,0.6640521883964539,0.3976916372776031,0.1237047091126442,1.8014014959335327,-0.2195688188076019,1.8525290489196773,3.462890625,2,fly,7.6,0,270.0,5.636488309409743,[6300|12100|0],fly
21900,0.6813867688179016,0.3980452716350555,0.2027060240507125,2.91204571723938,1.372841715812683,2.9895172119140625,3.478515625,2,fly,7.6,0,270.0,5.7173698307702505,[6300|12100|0],fly
22000,0.6971647143363953,0.3965114951133728,0.2772329449653625,2.7228662967681885,3.545201539993286,2.810194492340088,3.453125,2,fly,7.6,0,270.0,5.793564042992843,[6300|12100|0],fly
22100,0.709000289440155,0.392228215932846,0.360727459192276,2.4991588592529297,2.4457430839538574,2.41398024559021,3.45703125,2,fly,7.6,0,270.0,5.878001956423738,[6300|12100|0],fly
22200,0.7189604043960571,0.3852274417877197,0.4474480450153351,2.3200814723968506,3.16233777999878,3.0640883445739746,3.462890625,2,fly,7.6,0,270.0,5.965572926122951,[6300|12100|0],fly
22300,0.7270508408546448,0.3746843039989471,0.5370200872421265,1.7140105962753296,2.326495885848999,1.6583629846572876,3.46875,2,fly,7.6,0,270.0,6.0561254725542994,[6300|12100|0],fly
22400,0.7338433265686035,0.362292468547821,0.6273196935653687,-0.6890631914138794,2.083820104598999,-0.050574142485857,3.447265625,2,fly,7.6,0,270.0,6.147524128726886,[6300|12100|0],fly
22500,0.7391623258590698,0.3524737358093261,0.7197897434234619,-2.178264141082764,1.9636496305465696,-1.7198920249938965,3.47265625,2,fly,7.6,0,270.0,6.240666006455436,[6300|12100|0],fly
22600,0.7449724674224854,0.3490243852138519,0.8151127099990845,-2.501375198364258,1.781614065170288,-2.2088117599487305,3.462890625,2,fly,7.6,0,270.0,6.336228152315053,[6300|12100|0],fly
22700,0.7518580555915833,0.3513173460960388,0.9173615574836732,-1.3803329467773438,2.8514480590820312,-2.292524576187134,3.45703125,2,fly,7.6,0,270.0,6.4387342292371965,[6300|12100|0],fly
22800,0.7543207406997681,0.3606002330780029,1.0133056640625,-0.7524461150169373,3.224780797958374,-3.368753433227539,3.47265625,2,fly,7.6,0,270.0,6.5351578176161365,[6300|12100|0],fly
22900,0.7512893080711365,0.3738564848899841,1.1097970008850098,0.6777602434158325,2.110384225845337,-4.1107177734375,3.45703125,2,fly,7.6,0,270.0,6.632602652664894,[6300|12100|0],fly
23000,0.7389782071113586,0.3921476602554321,1.210441827774048,2.478431224822998,2.2135543823242188,-3.913984537124634,3.431640625,2,fly,7.6,0,270.0,6.735634256955112,[6300|12100|0],fly
23100,0.7273340821266174,0.4048925936222076,1.311262130737305,3.8649208545684814,1.5190982818603516,-3.415452480316162,3.447265625,2,fly,7.6,0,270.0,6.837921853773038,[6300|12100|0],fly
23200,0.7149211764335632,0.4128371179103851,1.4069260358810425,4.455987453460693,0.1650987565517425,-2.91202163696289,3.494140625,2,fly,7.6,0,270.0,6.934714304104973,[6300|12100|0],fly
23300,0.702384889125824,0.4141392707824707,1.5104011297225952,4.751236438751221,0.4040058851242065,-3.071817636489868,3.546875,2,fly,7.6,0,270.0,7.038954167626961,[6300|12100|0],fly
23400,0.6890390515327454,0.4067903459072113,1.6087409257888794,3.415661334991455,-0.3555481731891632,4.6276021003723145,3.62109375,2,fly,7.6,0,270.0,7.1384671495350585,[6300|12100|0],fly
23500,0.6709202527999878,0.3961971402168274,1.6948978900909424,2.261587381362915,-0.840733528137207,8.458433151245117,3.611328125,2,fly,7.6,0,270.0,7.227143693063006,[6300|12100|0],fly
23600,0.6567437052726746,0.378701388835907,1.7683165073394775,0.7292457818984985,-2.226912021636963,9.94423007965088,3.599609375,2,fly,7.6,0,270.0,7.303938023419251,[6300|12100|0],fly
23700,0.640878438949585,0.3671844601631164,1.8183915615081787,-0.7316103577613831,-2.713428020477295,9.742422103881836,3.583984375,2,fly,7.6,0,270.0,7.35771401593966,[6300|12100|0],fly
23800,0.6264181733131409,0.353074163198471,1.8524057865142824,-1.6472854614257812,-3.118160963058472,7.901566028594971,3.552734375,2,fly,7.6,0,270.0,7.397276210841774,[6300|12100|0],fly
23900,0.6149270534515381,0.3388518393039703,1.8673380613327024,-2.15461540222168,-3.103914260864258,4.075245380401611,3.521484375,2,fly,7.6,0,270.0,7.420883268343433,[6300|12100|0],fly
24000,0.6093461513519287,0.3282052874565124,1.8735523223876955,-2.08487868309021,-3.4276199340820312,0.3614788353443146,3.48828125,2,fly,7.6,0,270.0,7.4344151778519105,[6300|12100|0],fly
24100,0.6107285022735596,0.3192013502120971,1.872995376586914,-1.7937647104263306,-3.0206117630004883,-0.3059954941272735,3.462890625,2,fly,7.6,0,270.0,7.4435416212225185,[6300|12100|0],fly
24200,0.615382730960846,0.3053297102451324,1.8676445484161377,-1.4098697900772097,-1.981722712516785,-0.5989601016044617,3.453125,2,fly,7.6,0,270.0,7.45912095375507,[6300|12100|0],fly
24300,0.622338593006134,0.3017989993095398,1.8619636297225952,-1.997135877609253,-1.0231283903121948,-1.1173982620239258,3.462890625,2,fly,7.6,0,270.0,7.46877096793674,[6300|12100|0],fly
24400,0.6356701254844666,0.2937207221984863,1.8563358783721924,-1.5005221366882324,-0.1993984431028366,-6.731215000152588,3.47265625,2,fly,7.6,0,88.0,7.485343834452999,[6300|12100|0],fly
24500,0.6475520133972168,0.2864843606948852,1.843531847000122,9.595343589782717,-1.0029377937316897,-11.3287992477417,3.7578125,2,fly,7.6,0,88.0,7.5042511718530385,[6300|12100|0],fly
24600,0.6610309481620789,0.2691338062286377,1.801570534706116,15.309191703796388,-3.5116326808929443,-12.486859321594238,3.53125,2,fly,7.6,0,88.0,7.551616508884635,[6300|12100|0],fly
24700,0.6645511984825134,0.2369588166475296,1.7293184995651243,18.19743156433105,-4.430895805358887,-16.54487419128418,3.431640625,2,fly,7.6,0,88.0,7.630787076009533,[6300|12100|0],fly
24800,0.6578634977340698,0.1827279925346374,1.6415694952011108,13.811586380004885,-3.688304901123047,-17.709043502807617,3.3515625,2,fly,7.6,0,88.0,7.734158229587985,[6300|12100|0],fly
24900,0.6382361650466919,0.1084860563278198,1.552225112915039,10.397735595703123,-1.6590991020202637,-10.071049690246582,3.345703125,2,fly,7.6,0,88.0,7.851969586961703,[6300|12100|0],fly
25000,0.6097908616065979,0.0241114236414432,1.479260802268982,4.364318370819092,-2.967335224151612,-5.454662322998047,3.3515625,2,fly,7.6,0,88.0,7.96708693820301,[6300|12100|0],fly
25100,0.5790473222732544,-0.0582488775253295,1.426910638809204,2.749342679977417,-6.12390661239624,-1.7683385610580444,3.3671875,2,fly,7.6,0,88.0,8.069404698309883,[6300|12100|0],fly
25200,0.5473499894142151,-0.1384574323892593,1.390140414237976,0.8496320247650146,-7.715213298797607,-3.424818754196167,3.42578125,2,fly,7.6,0,88.0,8.163160671979593,[6300|12100|0],fly
25300,0.5238205194473267,-0.2146852165460586,1.3673285245895386,1.740933537483215,-9.338696479797363,-2.79380202293396,3.44140625,2,fly,7.6,0,88.0,8.246134724211064,[6300|12100|0],fly
25400,0.5105646848678589,-0.2862740457057953,1.3505451679229736,1.9362099170684808,-8.655611991882324,-2.157366991043091,3.44140625,2,fly,7.6,0,88.0,8.32084990788786,[6300|12100|0],fly
25500,0.5092102289199829,-0.3559415936470032,1.3399125337600708,0.4736776351928711,-7.922695636749268,-1.404637098312378,3.453125,2,fly,7.6,0,88.0,8.39133717408749,[6300|12100|0],fly
25600,0.5149733424186707,-0.4203804135322571,1.3318899869918823,-0.3348145186901092,-6.301392555236816,1.9909684658050537,3.447265625,2,fly,7.6,0,88.0,8.456528709136533,[6300|12100|0],fly
25700,0.5276367664337158,-0.4788700342178345,1.3255963325500488,-2.591671705245972,-4.602025985717773,3.2851245403289795,3.48828125,2,fly,7.6,0,88.0,8.516703522156273,[6300|12100|0],fly
25800,0.5444648265838623,-0.5292146801948547,1.3200275897979736,-3.5091419219970703,-2.90494966506958,3.182248115539551,3.494140625,2,fly,7.6,0,88.0,8.57007746601287,[6300|12100|0],fly
25900,0.562228798866272,-0.5726099610328674,1.3142647743225098,-3.7439231872558594,-1.51858389377594,2.901092767715454,3.494140625,2,fly,7.6,0,88.0,8.61732065761192,[6300|12100|0],fly
26000,0.5785386562347412,-0.6096440553665161,1.307237982749939,-3.790305614471436,-0.4180738925933838,2.2931199073791504,3.48828125,2,fly,7.6,0,88.0,8.658392684470815,[6300|12100|0],fly
26100,0.5950720906257629,-0.6407288908958435,1.3000273704528809,-3.3498871326446533,-0.1572380065917968,1.6358429193496704,3.484375,2,fly,7.6,0,88.0,8.694331721496674,[6300|12100|0],fly
26200,0.6098094582557678,-0.6673639416694641,1.2938311100006104,-3.0479986667633057,-0.2568482756614685,0.9647117853164672,3.494140625,2,fly,7.6,0,88.0,8.725396324793154,[6300|12100|0],fly
26300,0.6235881447792053,-0.6906841397285461,1.287275314331055,-2.528414964675904,0.1380097270011901,0.3468467891216278,3.5,2,fly,7.6,0,88.0,8.753264986344922,[6300|12100|0],fly
26400,0.6364519596099854,-0.7122378349304199,1.2810962200164795,-2.4305405616760254,0.0115203047171235,1.232285499572754,3.5,2,fly,7.6,0,88.0,8.779114951826607,[6300|12100|0],fly
26500,0.6497430205345154,-0.7303352952003479,1.2748894691467283,-2.6232495307922363,0.0983230769634246,1.7783406972885132,3.484375,2,fly,7.6,0,88.0,8.802410748122941,[6300|12100|0],fly
26600,0.662529468536377,-0.7459746599197388,1.2684876918792725,-2.4673779010772705,0.3779428601264953,1.8350518941879272,3.47265625,2,fly,7.6,0,88.0,8.823601919244721,[6300|12100|0],fly
26700,0.6743686199188232,-0.7584447264671326,1.2618415355682373,-2.7601206302642822,0.7239359021186829,1.1815943717956543,3.478515625,2,fly,7.6,0,88.0,8.842036654362525,[6300|12100|0],fly
26800,0.685019850730896,-0.7681260704994202,1.2550101280212402,-2.5467777252197266,0.8196200132369995,0.0615129880607128,3.484375,2,fly,7.6,0,88.0,8.85796917673523,[6300|12100|0],fly
26900,0.6946631073951721,-0.7750555276870728,1.2482410669326782,-2.2208590507507324,1.1201624870300293,-0.83782958984375,3.47265625,2,fly,7.6,0,88.0,8.871637752521657,[6300|12100|0],fly
27000,0.7030625939369202,-0.7797986268997192,1.2422878742218018,-2.1085922718048096,1.2264825105667114,-1.7663463354110718,3.478515625,2,fly,7.6,0,88.0,8.88297304553767,[6300|12100|0],fly
27100,0.7094033360481262,-0.7816316485404968,1.23624587059021,-1.910553216934204,1.2286677360534668,-1.3113672733306885,3.484375,2,fly,7.6,0,88.0,8.891921273671805,[6300|12100|0],fly
27200,0.7137717604637146,-0.7817049622535706,1.2319942712783811,-1.685399293899536,1.0181485414505005,-1.2619580030441284,3.478515625,2,fly,7.6,0,88.0,8.898017551510256,[6300|12100|0],fly
27300,0.7169163823127747,-0.7801988124847412,1.2277857065200806,-1.2282280921936035,0.974369466304779,-1.1008150577545166,3.478515625,2,fly,7.6,0,88.0,8.903482819209513,[6300|12100|0],fly
27400,0.7195588946342468,-0.7769815921783447,1.2245994806289673,-1.065568208694458,0.7843194603919983,-0.7261467576026917,3.484375,2,fly,7.6,0,270.0,8.908725472478443,[6300|12100|0],fly
27500,0.720439612865448,-0.7724132537841797,1.2151631116867063,-0.4730540215969085,0.7108466029167175,-1.1818857192993164,3.794921875,2,fly,7.6,0,270.0,8.91924642486408,[6300|12100|0],fly
27600,0.7209706902503967,-0.7680468559265137,1.173880100250244,-0.2334619909524917,0.0382378175854682,3.1405298709869385,3.65234375,2,fly,7.6,0,270.0,8.96076310231668,[6300|12100|0],fly
27700,0.7233755588531494,-0.7688183784484863,1.0952123403549194,0.0435305312275886,-0.2411036044359207,1.7333372831344604,3.48828125,2,fly,7.6,0,270.0,9.039471393410738,[6300|12100|0],fly
27800,0.7250717878341675,-0.7690434455871582,0.984363317489624,-0.1602828949689865,0.6090627908706665,4.517980575561523,3.3984375,2,fly,7.6,0,270.0,9.15033362195664,[6300|12100|0],fly
27900,0.7274108529090881,-0.7696390748023987,0.8618788123130798,-0.3547492027282715,0.5622885227203369,2.507523775100708,3.404296875,2,fly,7.6,0,270.0,9.272841907423093,[6300|12100|0],fly
28000,0.7287927865982056,-0.7699159383773804,0.7381149530410767,-0.5322301387786865,0.9451908469200134,0.7157610058784485,3.447265625,2,fly,7.6,0,270.0,9.396613791371186,[6300|12100|0],fly
28101,0.7297138571739197,-0.7694617509841919,0.6176286339759827,-0.8455358147621155,0.93882554769516,-0.3955107629299164,3.357421875,2,fly,7.6,0,270.0,9.517104487024625,[6300|12100|0],fly
28201,0.7300871014595032,-0.7677462100982666,0.5038838982582092,-1.6091810464859009,0.3421232402324676,-1.4459292888641355,3.310546875,2,fly,7.6,0,270.0,9.630862771537595,[6300|12100|0],fly
28300,0.7311841249465942,-0.762482762336731,0.4049923419952392,-1.8295425176620483,-0.3236018717288971,-3.743321180343628,3.341796875,2,fly,7.6,0,270.0,9.729900376733712,[6300|12100|0],fly
28400,0.7343339920043945,-0.7541254758834839,0.3230865001678467,-0.9114587306976318,0.2985611259937286,-6.922870635986328,3.330078125,2,fly,7.6,0,270.0,9.812291716234885,[6300|12100|0],fly
28500,0.7383525371551514,-0.7438056468963623,0.2586190104484558,0.2074974477291107,0.2977202534675598,-10.556206703186035,3.41015625,2,fly,7.6,0,270.0,9.877703525613404,[6300|12100|0],fly
28601,0.7450522780418396,-0.7330014705657959,0.2084622830152511,-1.9292856454849243,-3.447774887084961,-13.873983383178713,3.431640625,2,fly,7.6,0,270.0,9.92944629381283,[6300|12100|0],fly
28700,0.7588900923728943,-0.7208446860313416,0.1650894433259964,-0.2834728062152862,-3.2139992713928223,-16.503416061401367,3.36328125,2,fly,7.6,0,270.0,9.976568217992428,[6300|12100|0],fly
28801,0.7809620499610901,-0.7099504470825195,0.126675397157669,3.643840789794922,1.8374828100204468,-18.16461181640625,3.3671875,2,fly,7.6,0,270.0,10.022191618754224,[6300|12100|0],fly
28901,0.8078439831733704,-0.6892971992492676,0.0991618111729621,2.218681573867798,1.7238034009933472,-18.88775634765625,3.388671875,2,fly,7.6,0,270.0,10.06585158202756,[6300|12100|0],fly
29001,0.8117481470108032,-0.7002653479576111,0.0782011523842811,0.2679287791252136,-0.0163719672709703,-19.231401443481445,3.41015625,2,fly,7.6,0,270.0,10.08982848754544,[6300|12100|0],fly
29101,0.8379506468772888,-0.6818579435348511,0.0680948197841644,1.517334222793579,2.6286075115203857,-17.27330207824707,3.357421875,2,fly,7.6,0,270.0,10.123407372212156,[6300|12100|0],fly
29201,0.8367547392845154,-0.6944612264633179,0.0649031624197959,5.438035488128662,8.16341495513916,-13.468660354614258,3.330078125,2,fly,7.6,0,270.0,10.136463390451915,[6300|12100|0],fly
29301,0.8313971757888794,-0.6973575949668884,0.0757524296641349,5.795169830322266,10.075801849365234,-8.594592094421387,3.3671875,2,fly,7.6,0,270.0,10.148905216558132,[6300|12100|0],fly
29401,0.808265745639801,-0.7071159482002258,0.0971982553601265,4.568220615386963,7.171302318572998,-4.09544038772583,3.431640625,2,fly,7.6,0,270.0,10.181923574457205,[6300|12100|0],fly
29501,0.7740328907966614,-0.7223487496376038,0.1255450099706649,2.3965208530426025,3.047729969024658,-0.4692237675189972,3.46875,2,fly,7.6,0,270.0,10.228907242761116,[6300|12100|0],fly
29602,0.7361674904823303,-0.7415029406547546,0.1541800051927566,0.3448051512241363,-0.6133862733840942,2.574169635772705,3.5,2,fly,7.6,0,270.0,10.280099376198349,[6300|12100|0],fly
29701,0.6994087100028992,-0.7599988579750061,0.177193209528923,-0.4419771432876587,-3.3166894912719727,5.54374361038208,3.484375,2,fly,7.6,0,270.0,10.327247170141126,[6300|12100|0],fly
29801,0.6684374213218689,-0.7791985869407654,0.1933125257492065,-0.4284676313400268,-6.114291667938232,6.923971176147461,3.45703125,2,fly,7.6,0,270.0,10.367092906052662,[6300|12100|0],fly
29902,0.6461030840873718,-0.7969763875007629,0.202638640999794,-2.1150176525115967,-6.661946296691895,6.3537702560424805,3.447265625,2,fly,7.6,0,270.0,10.397123710872425,[6300|12100|0],fly
30000,0.6333330273628235,-0.8114739060401917,0.207444965839386,-3.1496376991271973,-6.779296398162842,5.240674018859863,3.419921875,2,fly,7.6,0,270.0,10.417032330890216,[6300|12100|0],fly
30100,0.6294347643852234,-0.8197623491287231,0.2087484449148178,-3.519841432571411,-5.532191276550293,5.0749359130859375,3.41015625,2,fly,7.6,0,270.0,10.42628402266926,[6300|12100|0],fly
30202,0.6330273747444153,-0.8217501640319824,0.2089987993240356,-3.4281606674194336,-3.8205199241638175,5.129716873168945,3.431640625,2,fly,7.6,0,270.0,10.430397529034009,[6300|12100|0],fly
30302,0.6412389874458313,-0.8191332221031189,0.2075953334569931,-1.5031126737594604,-2.657212257385254,5.233112812042236,3.39453125,2,fly,7.6,0,270.0,10.43912957831565,[6300|12100|0],fly
30400,0.6524325609207153,-0.8134318590164185,0.2061518281698227,-1.987202882766724,-0.6851527094841003,5.138880729675293,3.3984375,2,G1,7.6,0,270.0,10.451774155639471,[6300|12100|100],destination
30500,0.6647410988807678,-0.8062223196029663,0.2073165476322174,-1.801039218902588,-0.6020742058753967,4.365979671478272,3.435546875,2,G1,7.6,0,270.0,10.46608618333279,[6300|12100|200],destination
30602,0.6779186725616455,-0.7969124913215637,0.2103339880704879,-1.268530011177063,0.4018502533435821,3.4212868213653564,3.41015625,2,G1,7.6,0,270.0,10.482500393564862,[6300|12100|300],destination
30700,0.6926792860031128,-0.7864886522293091,0.2126976400613784,-0.6545339822769165,1.1901172399520874,2.256202459335327,3.416015625,2,G1,7.6,0,270.0,10.500724525404916,[6300|12100|400],destination
30800,0.7059302926063538,-0.7741595506668091,0.2128631323575973,-0.5138130784034729,1.0467703342437744,2.287076711654663,3.447265625,2,G1,7.6,0,270.0,10.518824893054155,[6300|12100|500],destination
30900,0.7192869782447815,-0.7621563673019409,0.2129344046115875,0.5403439998626709,0.5523183941841125,3.749176025390625,3.404296875,2,G1,7.6,0,270.0,10.536782691969076,[6300|12100|600],destination
31000,0.7329676151275635,-0.7511583566665649,0.2137876451015472,1.131210207939148,0.977864384651184,4.830624580383301,3.3984375,2,G1,7.6,0,270.0,10.55435665233059,[6300|12100|700],destination
31100,0.7457308769226074,-0.7422267198562622,0.2155682891607284,0.7414880990982056,0.250601053237915,4.6150102615356445,3.419921875,2,G1,7.6,0,270.0,10.57003611919096,[6300|12100|800],destination
31200,0.7576456069946289,-0.736141562461853,0.2166534215211868,-0.0156524386256933,0.7909511923789978,4.665621757507324,3.416015625,2,G1,7.6,0,270.0,10.583458765928604,[6300|12100|900],destination
31300,0.7694810032844543,-0.7304821610450745,0.2163658738136291,-1.1804183721542358,-0.2407974302768707,6.112158298492432,3.404296875,2,G1,7.6,0,270.0,10.596580812774183,[6300|12100|1000],destination
31400,0.7809364199638367,-0.723030686378479,0.2150135338306427,-1.6411209106445312,0.3779062032699585,7.762537002563477,3.416015625,2,G1,7.6,0,270.0,10.610313251357145,[6300|12100|1100],destination
31500,0.7918940186500549,-0.7114078998565674,0.2108034789562225,-0.4644418060779571,0.712783694267273,8.727408409118652,3.3984375,2,G1,7.6,0,270.0,10.62683241288392,[6300|12100|1200],destination
31600,0.8012310862541199,-0.6981278657913208,0.2027834504842758,0.2545179426670074,-0.0877026841044426,8.777713775634766,3.3828125,2,G1,7.6,0,270.0,10.644939345062172,[6300|12100|1300],destination
31700,0.8097706437110901,-0.6843162775039673,0.1946685463190078,0.4646519422531128,-0.0999816209077835,9.162163734436035,3.39453125,2,G1,7.6,0,270.0,10.66309246276112,[6300|12100|1400],destination
31800,0.8186110854148865,-0.6724121570587158,0.1910318285226822,0.9795806407928468,0.4597991406917572,8.389460563659668,3.388671875,2,G1,7.6,0,270.0,10.678359656655983,[6300|12100|1500],destination
31900,0.8269091844558716,-0.6627083420753479,0.1904260218143463,1.349652647972107,-0.0389326103031635,6.726752281188965,3.3828125,2,G1,7.6,0,270.0,10.691142045896392,[6300|12100|1600],destination
32000,0.8359771370887756,-0.6555916666984558,0.1901706755161285,2.2734367847442627,-0.5555805563926697,4.856423854827881,3.3984375,2,G1,7.6,0,270.0,10.702672008390028,[6300|12100|1700],destination
32100,0.845111072063446,-0.6524819135665894,0.1911082565784454,0.0118200331926345,0.1698802560567855,2.425944328308105,3.404296875,2,G1,7.6,0,270.0,10.712366253637136,[6300|12100|1800],destination
32200,0.8554659485816956,-0.6505720019340515,0.1940103620290756,-1.0318480730056765,0.4310544729232788,0.8955683708190918,3.416015625,2,G1,7.6,0,270.0,10.723288407554696,[6300|12100|1900],destination
32300,0.8661385774612427,-0.6481708288192749,0.1970261931419372,-0.4543721079826355,0.8157568573951721,-0.2274341136217117,3.41015625,2,G1,7.6,0,270.0,10.734635912867716,[6300|12100|2000],destination
32400,0.8786458969116211,-0.6430635452270508,0.1949510127305984,-1.7943546772003174,-2.0456082820892334,-2.7557802200317383,3.94921875,2,G1,7.6,0,270.0,10.748304261680383,[6300|12100|2100],destination
32500,0.8935577273368835,-0.6362224817276001,0.1491933017969131,-4.549201488494873,-6.520435333251953,-7.899249076843262,3.953125,2,G1,7.6,0,270.0,10.796914249813751,[6300|12100|2200],destination
32600,0.9130747318267822,-0.6296290755271912,0.0334260575473308,-9.992690086364746,-13.80911922454834,-14.478142738342283,3.953125,2,G1,7.6,0,270.0,10.914500138893713,[6300|12100|2300],destination
