,time.ms,stateEstimate.x,stateEstimate.y,stateEstimate.z,stabilizer.roll,stabilizer.pitch,stabilizer.yaw,pm.vbat,drone_id,node_name,wind_speed,global_wind_direction,relative_wind_direction,travel_dist,waiting_time
0,0,1.6900795698165894,1.1848772764205933,0.0,-0.068952165544033,0.6892107725143433,-48.89934539794922,4.08984375,0,A1,6.1,180,450.0,0.0,[6200|0|0|0]
1,100,1.689218521118164,1.1851955652236938,0.0,-0.0503535009920597,0.6977774500846863,-48.89451599121094,4.08984375,0,A1,6.1,180,450.0,0.0009179938034862,[6300|0|0|0]
2,200,1.6889605522155762,1.18555748462677,0.0,-0.0458685159683227,0.6870210766792297,-48.82125473022461,4.08984375,0,A1,6.1,180,450.0,0.0013624413358513,[6400|0|0|0]
3,300,1.6889088153839111,1.1851285696029663,0.0,-0.0280732903629541,0.6653809547424316,-48.74245834350586,4.08984375,0,A1,6.1,180,450.0,0.00179446540624,[6500|0|0|0]
4,400,1.6897140741348269,1.1848055124282837,0.0,-0.0475300960242748,0.642902672290802,-48.77157974243164,4.09765625,0,A1,6.1,180,450.0,0.0026621102610281,[6600|0|0|0]
5,500,1.690570831298828,1.1840903759002686,0.0,-0.0611807145178318,0.6292871236801147,-48.78598403930664,4.08984375,0,A1,6.1,180,450.0,0.0037781089580563,[6700|0|0|0]
6,600,1.6903630495071411,1.1844289302825928,0.0,-0.0639361515641212,0.6675788760185242,-48.78063201904297,4.08984375,0,A1,6.1,180,450.0,0.0041753398012036,[6800|0|0|0]
7,700,1.6897478103637695,1.1848334074020386,0.0,-0.057038526982069,0.6873743534088135,-48.84788513183594,4.08984375,0,A1,6.1,180,450.0,0.004911628429183,[6900|0|0|0]
8,800,1.688859462738037,1.185447096824646,0.0,-0.0463588684797287,0.7044918537139893,-48.81517791748047,4.08984375,0,A1,6.1,180,450.0,0.0059913395996192,[7000|0|0|0]
9,900,1.6887151002883911,1.1853543519973757,0.0,-0.0294294320046901,0.6780573129653931,-48.74928283691406,4.08984375,0,A1,6.1,180,450.0,0.0061629266616407,[7100|0|0|0]
10,1000,1.6882271766662598,1.1828479766845703,0.0,0.0188776701688766,0.6366601586341858,-48.64978790283203,4.08984375,0,A1,6.1,180,450.0,0.0087163531183209,[7200|0|0|0]
11,1100,1.690017580986023,1.1846166849136353,0.0,-0.0662377327680587,0.657264769077301,-48.730560302734375,4.08984375,0,A1,6.1,180,450.0,0.0112330724963582,[7300|0|0|0]
12,1200,1.689876675605774,1.1836025714874268,0.0,-0.0580022819340229,0.6529416441917419,-48.72454452514648,4.08984375,0,A1,6.1,180,450.0,0.0122569281343265,[7400|0|0|0]
13,1300,1.689674973487854,1.1840155124664309,0.0,-0.0489898696541786,0.6818239688873291,-48.71990203857422,4.08984375,0,A1,6.1,180,450.0,0.012716497494178,[7500|0|0|0]
14,1400,1.689133882522583,1.184533715248108,0.0,-0.0424349829554557,0.6897754073143005,-48.77248764038086,4.08984375,0,A1,6.1,180,450.0,0.0134657061137465,[7600|0|0|0]
15,1500,1.6884430646896362,1.1850773096084597,0.0,-0.0339048653841018,0.6877142190933228,-48.74713516235352,4.08984375,0,A1,6.1,180,450.0,0.0143447533860382,[7700|0|0|0]
16,1600,1.6885377168655396,1.1848021745681765,0.0,-0.014163140207529,0.6624704599380493,-48.69796371459961,4.08984375,0,A1,6.1,180,450.0,0.0146357144225961,[7800|0|0|0]
17,1700,1.6891822814941406,1.18432354927063,0.0,-0.0145796397700905,0.6391298174858093,-48.73274230957031,4.08984375,0,A1,6.1,180,450.0,0.0154385504805152,[7900|0|0|0]
18,1800,1.6901832818984983,1.1846216917037964,0.0,-0.0869006291031837,0.6718696355819702,-48.84178924560547,4.08984375,0,A1,6.1,180,450.0,0.0164830076217989,[8000|0|0|0]
19,1900,1.6901750564575195,1.184167742729187,0.0,-0.0363950058817863,0.6637460589408875,-48.82765197753906,4.08984375,0,A1,6.1,180,450.0,0.0169370311117509,[8100|0|0|0]
20,2000,1.6897995471954346,1.1844465732574463,0.0,-0.0294142011553049,0.6866616606712341,-48.85209274291992,4.08984375,0,A1,6.1,180,450.0,0.0174047422078358,[8200|0|0|0]
21,2100,1.6889859437942505,1.185404896736145,0.0,-0.0266748946160078,0.7153548002243042,-48.883583068847656,4.08984375,0,A1,6.1,180,450.0,0.0186618557207071,[8300|0|0|0]
22,2200,1.6887516975402832,1.1852164268493652,0.0,-0.0241425521671772,0.7043107151985168,-48.78527069091797,4.08984375,0,A1,6.1,180,450.0,0.0189625086863011,[8400|0|0|0]
23,2300,1.6888535022735596,1.1850768327713013,0.0,-0.0326013267040252,0.6869865655899048,-48.72130584716797,4.08984375,0,A1,6.1,180,450.0,0.0191352822674645,[8500|0|0|0]
24,2400,1.6896629333496094,1.184430718421936,0.0,-0.0224540308117866,0.6681401133537292,-48.72777557373047,4.08984375,0,A1,6.1,180,450.0,0.0201709667847432,[8600|0|0|0]
25,2500,1.6901330947875977,1.1841719150543213,0.0,-0.0246560405939817,0.6680359244346619,-48.74484252929688,4.08984375,0,A1,6.1,180,450.0,0.020707651944646,[8700|0|0|0]
26,2600,1.689886450767517,1.183867335319519,0.0,-0.0095643112435936,0.6887438297271729,-48.72338485717773,4.08984375,0,A1,6.1,180,450.0,0.0210995729666564,[8800|0|0|0]
27,2700,1.68952214717865,1.184059739112854,0.0,-0.0113271055743098,0.7013186812400818,-48.71614837646485,4.08984375,0,A1,6.1,180,450.0,0.0215115636516861,[8900|0|0|0]
28,2800,1.6887109279632568,1.185147762298584,0.0,-0.0469966456294059,0.7516641020774841,-48.78466796875,4.08984375,0,A1,6.1,180,450.0,0.0228687191579229,[9000|0|0|0]
29,2900,1.6890051364898682,1.1857445240020752,0.0,-0.0456043407320976,0.7325701117515564,-48.7634162902832,4.08984375,0,A1,6.1,180,450.0,0.0235340635709035,[9100|0|0|0]
30,3000,1.6889106035232544,1.1854305267333984,0.0,-0.0278836414217948,0.7115361094474792,-48.727272033691406,4.08984375,0,A1,6.1,180,450.0,0.023861982412255,[9200|0|0|0]
31,3100,1.6897401809692385,1.1850039958953855,0.0,-0.0388630889356136,0.6892563104629517,-48.74121475219727,4.08984375,0,A1,6.1,180,450.0,0.0247947885521691,[9300|0|0|0]
32,3200,1.6902514696121216,1.1847411394119265,0.0,-0.0534599646925926,0.6861464381217957,-48.7553939819336,4.08984375,0,A1,6.1,180,450.0,0.02536968820188,[9400|0|0|0]
33,3300,1.6898322105407717,1.184421420097351,0.0,-0.0379957519471645,0.7020645141601562,-48.7734489440918,4.08984375,0,A1,6.1,180,450.0,0.0258969439358666,[9500|0|0|0]
34,3400,1.689533233642578,1.1848081350326538,0.0,-0.0294503159821033,0.7168071866035461,-48.83806228637695,4.08984375,0,A1,6.1,180,450.0,0.026385754356009,[9600|0|0|0]
35,3500,1.6891400814056396,1.1853471994400024,0.0,-0.0222922135144472,0.7232146859169006,-48.828887939453125,4.08984375,0,A1,6.1,180,450.0,0.0270529568115498,[9700|0|0|0]
36,3600,1.6890615224838257,1.1854339838027954,0.0,-0.0111644407734274,0.7163704633712769,-48.80634307861328,4.08984375,0,A1,6.1,180,450.0,0.0271700167526994,[9800|0|0|0]
37,3700,1.6893996000289917,1.1852656602859497,0.0,-0.0146116046234965,0.6925984025001526,-48.74576568603516,4.08984375,0,A1,6.1,180,450.0,0.0275476796087877,[9900|0|0|0]
38,3800,1.690086007118225,1.1845815181732178,0.0,-0.0155506152659654,0.6640227437019348,-48.77217102050781,4.08984375,0,A1,6.1,180,450.0,0.0285168055668361,[10000|0|0|0]
39,3900,1.6899315118789673,1.184004306793213,0.0,-0.1189351826906204,0.7328736186027527,-39.24037170410156,4.08984375,0,A1,6.1,180,450.0,0.0291143352783655,[10100|0|0|0]
40,4000,1.68902850151062,1.1836836338043213,0.0,-0.3135084807872772,0.7751016616821289,-32.11335372924805,4.08984375,0,A1,6.1,180,450.0,0.0300725935374729,[10200|0|0|0]
41,4100,1.6883479356765747,1.1833826303482056,0.0,-0.4916075766086578,0.7443855404853821,-26.758621215820312,4.08984375,0,A1,6.1,180,450.0,0.0308167527509906,[10300|0|0|0]
42,4200,1.6882404088974,1.1836179494857788,0.0,-0.6433363556861877,0.669309139251709,-22.700584411621094,4.08984375,0,A1,6.1,180,450.0,0.031075474811797,[10400|0|0|0]
43,4300,1.6885353326797483,1.1834315061569214,0.0,-0.7343541979789734,0.5780671834945679,-19.647441864013672,4.08984375,0,A1,6.1,180,450.0,0.0314243890595287,[10500|0|0|0]
44,4400,1.6889301538467407,1.1831573247909546,0.0,-0.7766785621643066,0.5185367465019226,-17.38511085510254,4.08984375,0,A1,6.1,180,450.0,0.0319050752100975,[10600|0|0|0]
45,4500,1.6898354291915894,1.18248450756073,0.0,-0.7807018756866455,0.4631962478160858,-15.700454711914062,4.08984375,0,A1,6.1,180,450.0,0.0330329965173162,[10700|0|0|0]
46,4600,1.6899724006652832,1.1827729940414429,0.0,-0.7890173196792603,0.4628340303897857,-14.389985084533691,4.08984375,0,A1,6.1,180,450.0,0.0333523484143827,[10800|0|0|0]
47,4700,1.6896711587905884,1.1828641891479492,0.0,-0.7578829526901245,0.4824527204036712,-13.405523300170898,4.08984375,0,A1,6.1,180,450.0,0.0336670915072701,[10900|0|0|0]
48,4800,1.6888988018035889,1.1831886768341064,0.0,-0.7153500914573669,0.5045504570007324,-12.67041015625,4.08984375,0,A1,6.1,180,450.0,0.0345048430061256,[11000|0|0|0]
49,4900,1.6890320777893066,1.182990550994873,0.0,-0.640965461730957,0.500215470790863,-12.099165916442873,4.08984375,0,A1,6.1,180,450.0,0.034743623944521,[11100|0|0|0]
50,5000,1.687578201293945,1.1817474365234375,0.0,-0.5317596793174744,0.53814697265625,-11.724532127380373,4.08984375,0,A1,6.1,180,450.0,0.0366564988627677,[11200|0|0|0]
51,5100,1.6880522966384888,1.1808624267578125,0.0,-0.4480901062488556,0.5439056754112244,-11.384124755859377,4.08984375,0,A1,6.1,180,450.0,0.0376604952178256,[11300|0|0|0]
52,5200,1.6882033348083496,1.1804615259170532,0.0,-0.3806858658790588,0.5626386404037476,-11.094091415405272,4.08984375,0,A1,6.1,180,450.0,0.0380889039162392,[11400|0|0|0]
53,5300,1.6880842447280884,1.180686116218567,0.0,-0.3444360792636871,0.6038733720779419,-10.884376525878906,4.08984375,0,A1,6.1,180,450.0,0.0383431149520945,[11500|0|0|0]
54,5400,1.6873760223388672,1.1808533668518066,0.0,-0.2990144193172455,0.6455150842666626,-10.74757957458496,4.08984375,0,A1,6.1,180,450.0,0.0390708180006749,[11600|0|0|0]
55,5500,1.6874655485153198,1.1815203428268433,0.0,-0.2665714919567108,0.6621045470237732,-10.656461715698242,4.09765625,0,A1,6.1,180,450.0,0.0397437755680938,[11700|0|0|0]
56,5600,1.6874253749847412,1.1815543174743652,0.0,-0.217461884021759,0.6751452088356018,-10.569351196289062,4.08984375,0,A1,6.1,180,450.0,0.0397963891522085,[11800|0|0|0]
57,5700,1.687813639640808,1.181023359298706,0.0,-0.1663462966680526,0.66990727186203,-10.48923110961914,4.08984375,0,A1,6.1,180,450.0,0.0404541626903278,[11900|0|0|0]
58,5800,1.689815640449524,1.1824209690093994,0.0,-0.1915795654058456,0.6422306299209595,-10.399234771728516,4.08984375,0,A1,6.1,180,450.0,0.042895744174023,[12000|0|0|0]
59,5900,1.688276767730713,1.1807410717010498,0.0,-0.0991493985056877,0.6897071003913879,-10.427868843078612,4.08984375,0,A1,6.1,180,450.0,0.0451739417535365,[12100|0|0|0]
60,6000,1.6896816492080688,1.182403802871704,0.0,-0.1313560903072357,0.6742868423461914,-10.344451904296877,4.08984375,0,A1,6.1,180,450.0,0.047350720775689,[12200|0|0|0]
61,6100,1.6875159740447998,1.1803405284881592,0.0,-0.0371198207139968,0.7352824211120605,-10.379698753356934,4.08984375,0,A1,6.1,180,450.0,0.0503419162047095,[12300|0|0|0]
62,6201,1.6870051622390747,1.1812137365341189,0.0,-0.0379092879593372,0.7523924708366394,-10.39572048187256,4.08984375,0,A1,6.1,180,450.0,0.0513535589244465,[12400|0|0|0]
63,6301,1.687233805656433,1.1809368133544922,0.0,-0.0124948062002658,0.7417314648628235,-10.347349166870115,4.08984375,0,A1,6.1,180,450.0,0.0517126748663314,[12500|0|0|0]
64,6401,1.6877753734588623,1.1804256439208984,0.0,0.0075010270811617,0.7356020212173462,-10.30059814453125,4.08984375,0,A1,6.1,180,450.0,0.0524573827785148,[12600|0|0|0]
65,6501,1.6876472234725952,1.1804924011230469,0.0,0.014568343758583,0.7389219999313354,-10.293295860290527,4.08984375,0,A1,6.1,180,450.0,0.0526018782560182,[12700|0|0|0]
66,6601,1.6875466108322144,1.180499792098999,0.0,0.0221303235739469,0.7393454909324646,-10.299234390258787,4.08984375,0,A1,6.1,180,450.0,0.0527027620006451,[12800|0|0|0]
67,6701,1.68731689453125,1.1807780265808103,0.0,0.0240898765623569,0.7425042986869812,-10.317927360534668,4.08984375,0,A1,6.1,180,450.0,0.0530635722080915,[12900|0|0|0]
68,6801,1.6870030164718628,1.180557370185852,0.0,0.0406635105609893,0.7491999864578247,-10.298419952392578,4.08984375,0,A1,6.1,180,450.0,0.0534472500427401,[13000|0|0|0]
69,6901,1.687368392944336,1.1809102296829224,0.0,0.0388995967805385,0.7429602146148682,-10.311724662780762,4.08984375,0,A1,6.1,180,450.0,0.0539551966849277,[13100|0|0|0]
70,7001,1.6875638961791992,1.1803165674209597,0.0,0.0576105862855911,0.7383634448051453,-10.305530548095703,4.08984375,0,A1,6.1,180,450.0,0.0545802218013196,[13200|0|0|0]
71,7101,1.6879037618637085,1.180424690246582,0.0,0.0542163327336311,0.744992733001709,-10.307941436767578,4.08984375,0,A1,6.1,180,450.0,0.0549368718103305,[13300|0|0|0]
72,7200,1.688052773475647,1.180195927619934,0.0,0.0572252310812473,0.7468121647834778,-10.330659866333008,4.08984375,0,A1,6.1,180,450.0,0.0552098860953842,[13400|0|0|0]
73,7300,1.6879215240478516,1.1805925369262695,0.0,0.044943306595087,0.7564225792884827,-10.358643531799316,4.08984375,0,A1,6.1,180,450.0,0.0556276484131781,[13500|0|0|0]
74,7400,1.6874620914459229,1.1808315515518188,0.0,0.0493621826171875,0.769623875617981,-10.34125804901123,4.08984375,0,A1,6.1,180,450.0,0.0561455347973797,[13600|0|0|0]
75,7500,1.687413215637207,1.1809076070785522,0.0,0.0517529025673866,0.7687055468559265,-10.317834854125977,4.08984375,0,A1,6.1,180,450.0,0.0562359410351309,[13700|0|0|0]
76,7600,1.6874841451644895,1.1806864738464355,0.0,0.0521422028541564,0.753648042678833,-10.302623748779297,4.08984375,0,A1,6.1,180,450.0,0.0564681713177964,[13800|0|0|0]
77,7700,1.687885046005249,1.1804357767105105,0.0,0.0533652640879154,0.7458699345588684,-10.27783203125,4.08984375,0,A1,6.1,180,450.0,0.0569410037808134,[13900|0|0|0]
78,7800,1.6877533197402954,1.179983139038086,0.0,0.0618292428553104,0.7562410831451416,-10.266594886779783,4.08984375,0,A1,6.1,180,450.0,0.0574124193844759,[14000|0|0|0]
79,7900,1.6878163814544678,1.18025803565979,0.0,0.0509878173470497,0.7524455785751343,-10.288272857666016,4.08984375,0,A1,6.1,180,450.0,0.0576944564962515,[14100|0|0|0]
80,8000,1.6879117488861084,1.180551052093506,0.0,0.0438471026718616,0.7490019202232361,-10.284467697143556,4.08984375,0,A1,6.1,180,450.0,0.05800260187987,[14200|0|0|0]
81,8100,1.6876707077026367,1.1806360483169556,0.0,0.0484359785914421,0.7515011429786682,-10.25049877166748,4.08984375,0,A1,6.1,180,450.0,0.0582581898493249,[14300|0|0|0]
82,8200,1.6875687837600708,1.1810733079910278,0.0,0.0390290580689907,0.7546501159667969,-10.250171661376951,4.08984375,0,A1,6.1,180,450.0,0.0587071714888582,[14400|0|0|0]
83,8300,1.687534213066101,1.1806632280349731,0.0,0.0514821745455265,0.7474818825721741,-10.196809768676758,4.08984375,0,A1,6.1,180,450.0,0.0591187060599933,[14500|0|0|0]
84,8400,1.687732815742493,1.1803545951843262,0.0,0.0517584718763828,0.7390328645706177,-10.204350471496582,4.08984375,0,A1,6.1,180,450.0,0.0594857173126389,[14600|0|0|0]
85,8500,1.6881355047225952,1.180063247680664,0.0,0.0514895766973495,0.7384227514266968,-10.254413604736328,4.08984375,0,A1,6.1,180,450.0,0.0599827502920135,[14700|0|0|0]
86,8600,1.6879498958587646,1.180080533027649,0.0,0.0464560203254222,0.7510137557983398,-10.298717498779297,4.08984375,0,A1,6.1,180,450.0,0.0601691622915008,[14800|0|0|0]
87,8700,1.6874550580978394,1.1805388927459717,0.0,0.0352266505360603,0.7637813687324524,-10.299077987670898,4.08984375,0,A1,6.1,180,450.0,0.0608436680668789,[14900|0|0|0]
88,8800,1.6873908042907717,1.1805636882781982,0.0,0.0345821343362331,0.7585679888725281,-10.268364906311035,4.08984375,0,A1,6.1,180,450.0,0.0609125401957925,[15000|0|0|0]
89,8900,1.6875572204589844,1.1807841062545776,0.0,0.0288357436656951,0.7470130920410156,-10.26262092590332,4.08984375,0,A1,6.1,180,450.0,0.0611887256866383,[15100|0|0|0]
90,9000,1.687553882598877,1.1804341077804563,0.0,0.0367179289460182,0.7449396252632141,-10.290118217468262,4.08984375,0,A1,6.1,180,450.0,0.0615387400766245,[15200|0|0|0]
91,9100,1.6879993677139282,1.180219054222107,0.0,0.03926258161664,0.7288550734519958,-10.277230262756348,4.08984375,0,A1,6.1,180,450.0,0.0620334167596114,[15300|0|0|0]
92,9200,1.6880115270614624,1.1805424690246582,0.0,0.0301370583474636,0.7395756840705872,-10.310454368591309,4.08984375,0,A1,6.1,180,450.0,0.0623570600574591,[15400|0|0|0]
93,9300,1.6875089406967163,1.1802221536636353,0.0,0.0410781279206275,0.7615811824798584,-10.322932243347168,4.08984375,0,A1,6.1,180,450.0,0.0629530424267755,[15500|0|0|0]
94,9400,1.6875145435333252,1.1807193756103516,0.0,0.0306334793567657,0.7583749890327454,-10.289607048034668,4.08984375,0,A1,6.1,180,450.0,0.0634502959396584,[15600|0|0|0]
95,9500,1.687280774116516,1.181019902229309,0.0,0.028709877282381,0.7544865012168884,-10.262206077575684,4.08984375,0,A1,6.1,180,450.0,0.0638310378324643,[15700|0|0|0]
96,9600,1.6878881454467771,1.1806843280792236,0.0,0.0143477991223335,0.7203876376152039,-10.233559608459473,4.08984375,0,A1,6.1,180,450.0,0.0645249470073776,[15800|0|0|0]
97,9700,1.6879949569702148,1.1805918216705322,0.0,0.0150214815512299,0.713570237159729,-10.271923065185549,4.08984375,0,A1,6.1,180,450.0,0.0646662485897752,[15900|0|0|0]
98,9800,1.6881245374679563,1.1798210144042969,0.0,0.0366444997489452,0.7107586860656738,-10.270447731018066,4.08984375,0,A1,6.1,180,450.0,0.0654478718667291,[16000|0|0|0]
99,9900,1.6881457567214966,1.180390477180481,0.0,0.0218093581497669,0.7168666124343872,-10.306968688964844,4.08984375,0,A1,6.1,180,450.0,0.0660177298404209,[16100|0|0|0]
100,10000,1.6878340244293213,1.1807695627212524,0.0,0.0175270028412342,0.7262058854103088,-10.344775199890137,4.08984375,0,A1,6.1,180,450.0,0.0665085280364311,[16200|0|0|0]
101,10100,1.688978672027588,1.1834871768951416,0.0,-0.0504682213068008,0.6785080432891846,-10.273536682128906,4.08984375,0,A1,6.1,180,450.0,0.0694573659299649,[16300|0|0|0]
102,10200,1.6886444091796875,1.185010313987732,0.0,-0.02891038171947,0.647567093372345,-10.038395881652832,4.08984375,0,A1,6.1,180,450.0,0.0710167498641873,[16400|0|0|0]
103,10300,1.687021255493164,1.185262680053711,0.0,0.014990116469562,0.6695093512535095,-9.824657440185549,4.08984375,0,A1,6.1,180,450.0,0.0726594051905819,[16500|0|0|0]
104,10400,1.6854547262191772,1.1846414804458618,0.0,0.0644127801060676,0.6759489178657532,-9.624488830566406,4.08984375,0,A1,6.1,180,450.0,0.0743446063414981,[16600|0|0|0]
105,10500,1.6844483613967896,1.184730052947998,0.0,0.0511536709964275,0.6724091172218323,-9.522141456604004,4.08984375,0,A1,6.1,180,450.0,0.0753548613805225,[16700|0|0|0]
106,10600,1.6879613399505615,1.1799499988555908,0.0,0.1471431255340576,0.6641674637794495,-9.693248748779297,4.08984375,0,A1,6.1,180,450.0,0.0812869719194117,[16800|0|0|0]
107,10700,1.6877433061599731,1.180000066757202,0.0,0.1119351983070373,0.7148099541664124,-9.93024444580078,4.08984375,0,A1,6.1,180,450.0,0.0815106804990641,[16900|0|0|0]
108,10800,1.687791109085083,1.180634617805481,0.0,0.0624343156814575,0.7552914619445801,-10.017013549804688,4.08984375,0,A1,6.1,180,450.0,0.0821470295797746,[17000|0|0|0]
109,10900,1.6875957250595093,1.1807352304458618,0.0,0.028691055253148,0.7799965143203735,-10.081979751586914,4.08984375,0,A1,6.1,180,450.0,0.0823667972317478,[17100|0|0|0]
110,11000,1.6879560947418213,1.180597901344299,0.0,0.0094789452850818,0.7851670980453491,-10.148030281066896,4.08984375,0,A1,6.1,180,450.0,0.0827524468007423,[17200|0|0|0]
111,11100,1.6878185272216797,1.180337905883789,0.0,-0.0053782286122441,0.7989601492881775,-10.200934410095217,4.08984375,0,A1,6.1,180,450.0,0.0830465938083486,[17300|0|0|0]
112,11200,1.6876872777938845,1.1802045106887815,0.0,-0.0206509474664926,0.8059256076812744,-10.233511924743652,4.08984375,0,A1,6.1,180,450.0,0.0832337319667975,[17400|0|0|0]
113,11300,1.687852144241333,1.1803226470947266,0.0,-0.0296378526836633,0.8036479353904724,-10.284384727478027,4.08984375,0,A1,6.1,180,450.0,0.0834365549337019,[17500|0|0|0]
114,11400,1.6876760721206665,1.1809377670288086,0.0,-0.036500196903944,0.8049806952476501,-10.304278373718262,4.08984375,0,A1,6.1,180,450.0,0.0840763782882156,[17600|0|0|0]
115,11500,1.6877894401550293,1.180776834487915,0.0,-0.0341571383178234,0.7866803407669067,-10.313639640808104,4.08984375,0,A1,6.1,180,450.0,0.08427323253362,[17700|0|0|0]
116,11600,1.6875206232070925,1.1807236671447754,0.0,-0.0221190955489873,0.788811445236206,-10.304591178894045,4.08984375,0,A1,6.1,180,450.0,0.0845472568352332,[17800|0|0|0]
117,11700,1.6877275705337524,1.1803823709487915,0.0,-0.0184546317905187,0.7729268074035645,-10.261335372924805,4.08984375,0,A1,6.1,180,450.0,0.0849463937658782,[17900|0|0|0]
118,11800,1.6878104209899902,1.1803617477416992,0.0,-0.0192058458924293,0.7664323449134827,-10.309944152832031,4.08984375,0,A1,6.1,180,450.0,0.0850317724211123,[18000|0|0|0]
119,11900,1.6877549886703491,1.18072772026062,0.0,-0.0224626846611499,0.7694335579872131,-10.332537651062012,4.08984375,0,A1,6.1,180,450.0,0.0854019191847966,[18100|0|0|0]
120,12000,1.687606692314148,1.1804875135421753,0.0,-0.0077632316388189,0.7718947529792786,-10.317279815673828,4.08984375,0,A1,6.1,180,450.0,0.0856842152649119,[18200|0|0|0]
121,12100,1.6872767210006714,1.1808454990386963,0.0,-0.0036278325133025,0.7767964005470276,-10.344395637512209,4.08984375,0,A1,6.1,180,450.0,0.0861710773433662,[18300|0|0|0]
122,12200,1.6878008842468262,1.1807458400726318,0.0,0.0028786207549273,0.7495360970497131,-10.284229278564451,4.08984375,0,A1,6.1,180,450.0,0.0867046305442155,[18400|0|0|0]
123,12300,1.6876144409179688,1.1805068254470823,0.0,0.014632498845458,0.7484626770019531,-10.260210990905762,4.08984375,0,A1,6.1,180,450.0,0.0870077627036807,[18500|0|0|0]
124,12400,1.687905192375183,1.1805857419967651,0.0,0.0086672632023692,0.7284334301948547,-10.301514625549316,4.08984375,0,A1,6.1,180,450.0,0.0873090337306417,[18600|0|0|0]
125,12500,1.6881061792373655,1.1805815696716309,0.0,0.0088846804574131,0.7271859049797058,-10.338475227355955,4.08984375,0,A1,6.1,180,450.0,0.0875100638952114,[18700|0|0|0]
126,12600,1.6878399848937988,1.1806422472000122,0.0,0.0084202783182263,0.731849193572998,-10.373228073120115,4.08984375,0,A1,6.1,180,450.0,0.0877830862221324,[18800|0|0|0]
127,12700,1.6874966621398926,1.1804300546646118,0.0,0.0174103938043117,0.7400404214859009,-10.376696586608888,4.08984375,0,A1,6.1,180,450.0,0.088186690217937,[18900|0|0|0]
128,12800,1.6875485181808472,1.180884599685669,0.0,0.0083503033965826,0.7403306365013123,-10.356672286987305,4.08984375,0,A1,6.1,180,450.0,0.0886441836333555,[19000|0|0|0]
129,12900,1.687512993812561,1.180823564529419,0.0,0.0176964420825243,0.7419421672821045,-10.290956497192385,4.08984375,0,A1,6.1,180,450.0,0.088714804246781,[19100|0|0|0]
130,13000,1.6876729726791382,1.1807931661605835,0.0,0.0231054630130529,0.7315651178359985,-10.268440246582031,4.08984375,0,A1,6.1,180,450.0,0.0888776455762375,[19200|0|0|0]
131,13100,1.6878291368484497,1.1803497076034546,0.0,0.0312212593853473,0.722594141960144,-10.319366455078123,4.08984375,0,A1,6.1,180,450.0,0.0893477974024252,[19300|0|0|0]
132,13200,1.6881531476974487,1.1803058385849,0.0,0.0333869867026805,0.7181089520454407,-10.360055923461914,4.08984375,0,A1,6.1,180,450.0,0.0896747645583568,[19400|0|0|0]
133,13300,1.6877373456954956,1.1805357933044434,0.0,0.0241050198674201,0.7371025681495667,-10.375049591064451,4.08984375,0,A1,6.1,180,450.0,0.0901499176682788,[19500|0|0|0]
134,13400,1.6877411603927612,1.1802977323532104,0.0,0.033158041536808,0.7318593263626099,-10.374290466308594,4.08984375,0,A1,6.1,180,450.0,0.0903880091809733,[19600|0|0|0]
135,13500,1.6876299381256104,1.1807087659835815,0.0,0.0232571754604578,0.7331575155258179,-10.31645965576172,4.08984375,0,A1,6.1,180,450.0,0.0908138249134283,[19700|0|0|0]
136,13600,1.6877139806747437,1.180687427520752,0.0,0.0266226101666688,0.7281342148780823,-10.302470207214355,4.08984375,0,A1,6.1,180,450.0,0.090900534082844,[19800|0|0|0]
137,13700,1.6879185438156128,1.180680513381958,0.0,0.0263959504663944,0.7250365018844604,-10.305747985839844,4.08984375,0,A1,6.1,180,450.0,0.0911052140376942,[19900|0|0|0]
138,13800,1.6879074573516846,1.1804592609405518,0.0,0.0295782331377267,0.719968855381012,-10.336583137512209,4.08984375,0,A1,6.1,180,450.0,0.0913267440638998,[20000|0|0|0]
139,13900,1.6879216432571411,1.1802968978881836,0.0,0.031317438930273,0.72531658411026,-10.33383846282959,4.08984375,0,A1,6.1,180,450.0,0.0914897256600631,[20100|0|0|0]
140,14000,1.6877750158309937,1.1803317070007324,0.0,0.0316933132708072,0.7235512137413025,-10.331110000610352,4.08984375,0,A1,6.1,180,450.0,0.0916404282692478,[20200|0|0|0]
141,14100,1.6873514652252195,1.180689573287964,0.0,0.0265497248619794,0.7346048355102539,-10.347393989562988,4.08984375,0,A1,6.1,180,450.0,0.0921949220881391,[20300|0|0|0]
142,14200,1.6877890825271606,1.180545449256897,0.0,0.0277999453246593,0.7156853675842285,-10.317105293273926,4.08984375,0,A1,6.1,180,450.0,0.092655661319472,[20400|0|0|0]
143,14300,1.6878267526626587,1.180427074432373,0.0,0.0360561124980449,0.725835919380188,-10.323378562927246,4.08984375,0,A1,6.1,180,450.0,0.0927798854644258,[20500|0|0|0]
144,14400,1.6878854036331177,1.1805918216705322,0.0,0.0294882468879222,0.7312617301940918,-10.318224906921388,4.08984375,0,A1,6.1,180,450.0,0.0929547613884888,[20600|0|0|0]
145,14500,1.68800687789917,1.180309176445007,0.0,0.030255552381277,0.7358745336532593,-10.33827018737793,4.08984375,0,A1,6.1,180,450.0,0.0932624045597523,[20700|0|0|0]
146,14600,1.6880112886428833,1.1805158853530884,0.0,0.0202962420880794,0.7306334972381592,-10.338929176330566,4.08984375,0,A1,6.1,180,450.0,0.093469160520586,[20800|0|0|0]
147,14700,1.687788724899292,1.180708646774292,0.0,0.0156085388734936,0.7396147847175598,-10.286810874938965,4.08984375,0,A1,6.1,180,450.0,0.0937635948688978,[20900|0|0|0]
148,14800,1.6875793933868408,1.1807268857955933,0.0,0.0251360926777124,0.7407636642456055,-10.33848762512207,4.08984375,0,A1,6.1,180,450.0,0.093973719460517,[21000|0|0|0]
149,14900,1.6877437829971311,1.1805857419967651,0.0,0.0367176942527294,0.733198344707489,-10.340764045715332,4.08984375,0,A1,6.1,180,450.0,0.0941903885998032,[21100|0|0|0]
150,15000,1.6878546476364136,1.1803312301635742,0.0,0.0363176167011261,0.73139888048172,-10.342267990112305,4.08984375,0,A1,6.1,180,450.0,0.0944679984726057,[21200|0|0|0]
151,15100,1.68876314163208,1.1803603172302246,0.0,0.0524646155536174,0.7122447490692139,-10.2510986328125,4.08984375,0,A1,6.1,180,450.0,0.0953769579863402,[21300|0|0|0]
152,15200,1.688173770904541,1.1803313493728638,0.0,0.0431159436702728,0.7294663786888123,-10.263446807861328,4.08984375,0,A1,6.1,180,450.0,0.0959670401765815,[21400|0|0|0]
153,15300,1.6880247592926023,1.1803321838378906,0.0,0.0327235199511051,0.7376900315284729,-10.278536796569824,4.08984375,0,A1,6.1,180,450.0,0.096116054125004,[21500|0|0|0]
154,15400,1.6876716613769531,1.180702567100525,0.0,0.0210241023451089,0.748927891254425,-10.313807487487791,4.08984375,0,A1,6.1,180,450.0,0.0966277785618598,[21600|0|0|0]
155,15500,1.6879571676254272,1.1807010173797607,0.0,0.0193856973201036,0.7378430962562561,-10.31591796875,4.08984375,0,A1,6.1,180,450.0,0.0969132890162257,[21700|0|0|0]
156,15600,1.689852952957153,1.1832411289215088,0.0,-0.0851979404687881,0.6547510623931885,-10.197820663452148,4.08984375,0,A1,6.1,180,450.0,0.1000828581775643,[21800|0|0|0]
157,15700,1.690080642700195,1.1853103637695312,0.0,-0.075788713991642,0.6412988305091858,-9.975274085998535,4.08984375,0,A1,6.1,180,450.0,0.1021645823368508,[21900|0|0|0]
158,15800,1.6887428760528564,1.1849863529205322,0.0,-0.0003752853663172,0.6712178587913513,-9.821049690246582,4.08984375,0,A1,6.1,180,450.0,0.1035410279888838,[22000|0|0|0]
159,15900,1.6875503063201904,1.1846383810043335,0.0,0.0436212308704853,0.6769878268241882,-9.694665908813477,4.08984375,0,A1,6.1,180,450.0,0.1047833270759535,[22100|0|0|0]
160,16000,1.6873308420181274,1.1845581531524658,0.0,0.0529850050806999,0.6607642769813538,-9.54392910003662,4.08984375,0,A1,6.1,180,450.0,0.1050169958331619,[22200|0|0|0]
161,16100,1.6871657371520996,1.1843963861465454,0.0,0.0573650747537612,0.6521932482719421,-9.420312881469728,4.08984375,0,A1,6.1,180,450.0,0.1052481412008215,[22300|0|0|0]
162,16200,1.6876747608184814,1.1845879554748535,0.0,0.0272268205881118,0.6408210396766663,-9.30726718902588,4.08984375,0,A1,6.1,180,450.0,0.105792019772274,[22400|0|0|0]
163,16300,1.688178300857544,1.184205412864685,0.0,0.0315798707306385,0.6374504566192627,-9.208044052124023,4.08984375,0,A1,6.1,180,450.0,0.1064243894580857,[22500|0|0|0]
164,16400,1.690824031829834,1.1829712390899658,0.0,0.0631764531135559,0.6389535069465637,-9.547778129577637,4.08984375,0,A1,6.1,180,450.0,0.109343820444415,[22600|0|0|0]
165,16500,1.6882137060165403,1.180145025253296,0.0,0.0964520201086998,0.7531421780586243,-9.774553298950195,4.08984375,0,A1,6.1,180,450.0,0.1131910643283054,[22700|0|0|0]
166,16600,1.687977313995361,1.180709719657898,0.0,0.0641210675239563,0.8083641529083252,-9.943063735961914,4.08984375,0,A1,6.1,180,450.0,0.1138032415561292,[22800|0|0|0]
167,16700,1.6877514123916626,1.1805518865585327,0.0,0.0441532619297504,0.8216155171394348,-10.04364776611328,4.08984375,0,A1,6.1,180,450.0,0.1140788188081091,[22900|0|0|0]
168,16800,1.6879417896270752,1.1808137893676758,0.0,0.0156136732548475,0.8179500102996826,-10.12071704864502,4.08984375,0,A1,6.1,180,450.0,0.1144026035718031,[23000|0|0|0]
169,16900,1.688018798828125,1.1806763410568235,0.0,0.0047957287169992,0.8031646609306335,-10.15877914428711,4.08984375,0,A1,6.1,180,450.0,0.1145601550084911,[23100|0|0|0]
170,17000,1.6879377365112305,1.1803967952728271,0.0,0.002924372209236,0.797779381275177,-10.176298141479492,4.08984375,0,A1,6.1,180,450.0,0.114851216762369,[23200|0|0|0]
171,17100,1.688073992729187,1.1804815530776978,0.0,-0.0035644781310111,0.7912608981132507,-10.21754264831543,4.08984375,0,A1,6.1,180,450.0,0.1150116837135406,[23300|0|0|0]
172,17200,1.688001275062561,1.180403470993042,0.0,0.0004160429234616,0.7942820191383362,-10.241532325744627,4.08984375,0,A1,6.1,180,450.0,0.1151183826872175,[23400|0|0|0]
173,17300,1.687774658203125,1.1804019212722778,0.0,-0.0054382663220167,0.7935254573822021,-10.253395080566406,4.08984375,0,A1,6.1,180,450.0,0.115345004845479,[23500|0|0|0]
174,17400,1.6880308389663696,1.180807113647461,0.0,-0.0098123224452137,0.7881531715393066,-10.26929759979248,4.08984375,0,A1,6.1,180,450.0,0.1158243892886592,[23600|0|0|0]
175,17500,1.6877726316452026,1.1810407638549805,0.0,-0.0065873740240931,0.7883878946304321,-10.336328506469728,4.08984375,0,A1,6.1,180,450.0,0.1161726182940251,[23700|0|0|0]
176,17600,1.6878575086593628,1.1811248064041138,0.0,-0.0002577000996097,0.7840480804443359,-10.375880241394045,4.08984375,0,A1,6.1,180,450.0,0.1162920639201383,[23800|0|0|0]
177,17700,1.687872052192688,1.1806601285934448,0.0,0.0159736424684524,0.7741633057594299,-10.39035987854004,4.08984375,0,A1,6.1,180,450.0,0.1167569692675905,[23900|0|0|0]
178,17800,1.6880168914794922,1.180530667304993,0.0,0.0194887593388557,0.7558993697166443,-10.41033172607422,4.08984375,0,A1,6.1,180,450.0,0.116951233634394,[24000|0|0|0]
179,17900,1.6880757808685305,1.180576205253601,0.0,0.0225688237696886,0.751712441444397,-10.402898788452148,4.08984375,0,A1,6.1,180,450.0,0.117025675994007,[24100|0|0|0]
180,18000,1.6878321170806885,1.1805307865142822,0.0,0.0272504184395074,0.7452046871185303,-10.405965805053713,4.08984375,0,A1,6.1,180,450.0,0.1172735366471709,[24200|0|0|0]
181,18100,1.6878551244735718,1.1808338165283203,0.0,0.0207091066986322,0.7498831152915955,-10.427650451660156,4.08984375,0,A1,6.1,180,450.0,0.1175774388181655,[24300|0|0|0]
182,18200,1.6877912282943726,1.1805212497711182,0.0,0.0295162536203861,0.7474795579910278,-10.388404846191406,4.08984375,0,A1,6.1,180,450.0,0.1178964696935116,[24400|0|0|0]
183,18300,1.687975287437439,1.180436372756958,0.0,0.0299179069697856,0.7320351600646973,-10.354402542114258,4.08984375,0,A1,6.1,180,450.0,0.1180991563375686,[24500|0|0|0]
184,18400,1.6880661249160769,1.1805444955825806,0.0,0.0240394324064254,0.7247129678726196,-10.376664161682127,4.08984375,0,A1,6.1,180,450.0,0.1182403724589779,[24600|0|0|0]
185,18500,1.6879876852035522,1.1806200742721558,0.0,0.0213325265794992,0.7299929261207581,-10.417495727539062,4.08984375,0,A1,6.1,180,450.0,0.1183492987038359,[24700|0|0|0]
186,18600,1.6879490613937378,1.1804211139678955,0.0,0.0291835684329271,0.7308672070503235,-10.403151512145996,4.08984375,0,A1,6.1,180,450.0,0.1185519733232531,[24800|0|0|0]
187,18700,1.68790864944458,1.1805717945098877,0.0,0.02057078294456,0.725866973400116,-10.40199375152588,4.08984375,0,A1,6.1,180,450.0,0.1187079789365168,[24900|0|0|0]
188,18800,1.6880135536193848,1.1806726455688477,0.0,0.0166911445558071,0.7209495306015015,-10.36606502532959,4.08984375,0,A1,6.1,180,450.0,0.1188534980829711,[25000|0|0|0]
189,18900,1.6880031824111938,1.180706024169922,0.0,0.0119226677343249,0.7328295111656189,-10.30733585357666,4.08984375,0,A1,6.1,180,450.0,0.1188884508077437,[25100|0|0|0]
190,19000,1.6878584623336792,1.180591344833374,0.0,0.0152475675567984,0.7367385029792786,-10.341897010803224,4.08984375,0,A1,6.1,180,450.0,0.119073099801965,[25200|0|0|0]
191,19100,1.6882234811782837,1.1807788610458374,0.0,0.0168273281306028,0.7292053699493408,-10.338577270507812,4.08984375,0,A1,6.1,180,450.0,0.1194834668167859,[25300|0|0|0]
192,19200,1.6878224611282349,1.1807008981704712,0.0,0.0217598583549261,0.742812991142273,-10.350210189819336,4.08984375,0,A1,6.1,180,450.0,0.1198919950171302,[25400|0|0|0]
193,19300,1.6878286600112915,1.1808019876480105,0.0,0.0146146779879927,0.7466999888420105,-10.355072975158691,4.08984375,0,A1,6.1,180,450.0,0.1199932743764307,[25500|0|0|0]
194,19400,1.6879782676696775,1.1807013750076294,0.0,0.0177075676620006,0.7370094656944275,-10.281622886657717,4.08984375,0,A1,6.1,180,450.0,0.12017356679128,[25600|0|0|0]
195,19500,1.6879963874816897,1.1803346872329712,0.0,0.0274972952902317,0.7352973818778992,-10.232614517211914,4.08984375,0,A1,6.1,180,450.0,0.1205407019866388,[25700|0|0|0]
196,19600,1.6878997087478638,1.1805808544158936,0.0,0.0232318490743637,0.7405563592910767,-10.28919506072998,4.08984375,0,A1,6.1,180,450.0,0.1208051732696207,[25800|0|0|0]
197,19700,1.688186526298523,1.1805464029312134,0.0,0.0241007208824157,0.7294861674308777,-10.307345390319824,4.08984375,0,A1,6.1,180,450.0,0.1210940525041856,[25900|0|0|0]
198,19800,1.688157558441162,1.1805375814437866,0.0,0.0201344583183527,0.7280285358428955,-10.322357177734377,4.08984375,0,A1,6.1,180,450.0,0.1211243337756335,[26000|0|0|0]
199,19900,1.6880351305007937,1.1805088520050049,0.0,0.0248357970267534,0.7349461913108826,-10.332637786865234,4.08984375,0,A1,6.1,180,450.0,0.1212500874286045,[26100|0|0|0]
200,20000,1.6877574920654297,1.1803878545761108,0.0,0.0287285987287759,0.7363502979278564,-10.329195976257324,4.08984375,0,A1,6.1,180,450.0,0.121552946271286,[26200|0|0|0]
201,20100,1.68799889087677,1.180780053138733,0.0,0.0193302854895591,0.7275815606117249,-10.284725189208984,4.08984375,0,A1,6.1,180,450.0,0.12201348193618,[26300|0|0|0]
202,20200,1.687721610069275,1.1806786060333252,0.0,0.0282464195042848,0.7362814545631409,-10.291040420532228,4.0859375,0,A1,6.1,180,450.0,0.1223087380307839,[26400|0|0|0]
203,20300,1.6881004571914673,1.1807109117507937,0.0,0.0309474188834428,0.7284494638442993,-10.327713012695312,4.08984375,0,A1,6.1,180,450.0,0.1226889600729837,[26500|0|0|0]
204,20400,1.6880947351455688,1.1802611351013184,0.0,0.0347057469189167,0.7234437465667725,-10.322975158691406,4.08984375,0,A1,6.1,180,450.0,0.12313877311884,[26600|0|0|0]
205,20500,1.6878951787948608,1.1804343461990356,0.0,0.0244325660169124,0.7334625720977783,-10.329706192016602,4.08984375,0,A1,6.1,180,450.0,0.1234030169862813,[26700|0|0|0]
206,20600,1.6882244348526,1.1804530620574951,0.0,0.0261738654226064,0.7291569709777832,-10.303899765014648,4.08984375,0,A1,6.1,180,450.0,0.1237328045465619,[26800|0|0|0]
207,20700,1.6879609823226929,1.180364727973938,0.0,0.0360508188605308,0.7390688061714172,-10.25205135345459,4.08984375,0,A1,6.1,180,450.0,0.124010671683576,[26900|0|0|0]
208,20800,1.6880899667739868,1.18094003200531,0.0,0.0244164913892745,0.73818439245224,-10.29066276550293,4.08984375,0,A1,6.1,180,450.0,0.1246002577393715,[27000|0|0|0]
209,20900,1.6878937482833862,1.18102765083313,0.0,0.0226109027862548,0.7429371476173401,-10.31529426574707,4.08984375,0,A1,6.1,180,450.0,0.1248151501660462,[27100|0|0|0]
210,21000,1.6877983808517456,1.180575966835022,0.0,0.0351748988032341,0.7395951747894287,-10.321593284606934,4.08984375,0,A1,6.1,180,450.0,0.125276792214786,[27200|0|0|0]
211,21100,1.6879630088806152,1.1801433563232422,0.0,0.0485533401370048,0.7405547499656677,-10.26992416381836,4.08984375,0,A1,6.1,180,450.0,0.1257396682703256,[27300|0|0|0]
212,21200,1.6881247758865356,1.1804076433181765,0.0,0.0353966727852821,0.7371737957000732,-10.250787734985352,4.08984375,0,A1,6.1,180,450.0,0.1260495330471168,[27400|0|0|0]
213,21300,1.6879020929336548,1.1805651187896729,0.0,0.0326967425644397,0.7468676567077637,-10.287361145019531,4.08984375,0,A1,6.1,180,450.0,0.1263222714229034,[27500|0|0|0]
214,21400,1.6881179809570312,1.1808232069015503,0.0,0.0229731556028127,0.736594021320343,-10.284847259521484,4.08984375,0,A1,6.1,180,450.0,0.1266587489290311,[27600|0|0|0]
215,21500,1.6877866983413696,1.1806153059005735,0.0,0.0392557866871356,0.7488576769828796,-10.353772163391112,4.08984375,0,A1,6.1,180,450.0,0.1270498639986036,[27700|0|0|0]
216,21600,1.6881333589553833,1.1806076765060425,0.0,0.0346119552850723,0.734912633895874,-10.353891372680664,4.08984375,0,A1,6.1,180,450.0,0.1273966085572765,[27800|0|0|0]
217,21700,1.6878539323806765,1.1804462671279907,0.0,0.0330343507230281,0.7421283721923828,-10.365432739257812,4.0859375,0,A1,6.1,180,450.0,0.1277193037663755,[27900|0|0|0]
218,21800,1.6882104873657229,1.181072473526001,0.0,0.0101527730002999,0.7406653761863708,-10.388968467712402,4.08984375,0,A1,6.1,180,450.0,0.1284399048420549,[28000|0|0|0]
219,21900,1.6891398429870603,1.1824519634246826,0.0,-0.0199647992849349,0.7130604386329651,-10.359522819519045,4.08984375,0,A1,6.1,180,450.0,0.1301032431273945,[28100|0|0|0]
220,22000,1.6892189979553225,1.1828467845916748,0.0,-0.0346201360225677,0.705046534538269,-10.359475135803224,4.08984375,0,A1,6.1,180,450.0,0.1305059207439882,[28200|0|0|0]
221,22100,1.6891183853149414,1.182658314704895,0.0,-0.035985842347145,0.7024537324905396,-10.329526901245115,4.08984375,0,A1,6.1,180,450.0,0.1307195648443684,[28300|0|0|0]
222,22200,1.6890980005264282,1.1827908754348757,0.0,-0.0430613420903682,0.7008669376373291,-10.31474494934082,4.08984375,0,A1,6.1,180,450.0,0.1308536837719504,[28400|0|0|0]
223,22300,1.689246416091919,1.1826435327529907,0.0,-0.0350443460047245,0.7023545503616333,-10.273560523986816,4.08984375,0,A1,6.1,180,450.0,0.1310628178102726,[28500|0|0|0]
224,22400,1.6894079446792605,1.1826393604278564,0.0,-0.0540722906589508,0.7043381333351135,-10.291391372680664,4.08984375,0,A1,6.1,180,450.0,0.1312244002747469,[28600|0|0|0]
225,22500,1.6892714500427246,1.1825461387634275,0.0,-0.0510086454451084,0.7103594541549683,-10.359139442443848,4.08984375,0,A1,6.1,180,450.0,0.1313896911230173,[28700|0|0|0]
226,22600,1.6892393827438354,1.1824631690979004,0.0,-0.0386642925441265,0.7143208384513855,-10.352182388305664,4.08984375,0,A1,6.1,180,450.0,0.1314786421042133,[28800|0|0|0]
227,22700,1.6889342069625854,1.1829875707626345,0.0,-0.056975707411766,0.728035032749176,-10.395024299621582,4.08984375,0,A1,6.1,180,450.0,0.1320853787550244,[28900|0|0|0]
228,22800,1.6889700889587402,1.18247652053833,0.0,-0.0377784259617328,0.7139351963996887,-10.380444526672363,4.08984375,0,A1,6.1,180,450.0,0.1325976871088599,[29000|0|0|0]
229,22901,1.6892212629318235,1.1828445196151731,0.0,-0.0519149042665958,0.7109813690185547,-10.36357593536377,4.08984375,0,A1,6.1,180,450.0,0.133043233610711,[29100|0|0|0]
230,23001,1.6891616582870483,1.1822960376739502,0.0,-0.0420429185032844,0.7159380912780762,-10.323487281799316,4.08984375,0,A1,6.1,180,450.0,0.1335949447249062,[29200|0|0|0]
231,23101,1.689245343208313,1.18250572681427,0.0,-0.0461031012237072,0.720472514629364,-10.334598541259766,4.08984375,0,A1,6.1,180,450.0,0.133820716072989,[29300|0|0|0]
232,23201,1.689115047454834,1.1824109554290771,0.0,-0.030655151233077,0.7257325053215027,-10.313652992248535,4.0859375,0,A1,6.1,180,450.0,0.1339818327972172,[29400|0|0|0]
233,23301,1.6892309188842771,1.1827493906021118,0.0,-0.0331274569034576,0.7280126810073853,-10.315733909606934,4.08984375,0,A1,6.1,180,450.0,0.1343395541336066,[29500|0|0|0]
234,23401,1.6890443563461304,1.1827303171157837,0.0,-0.0251321401447057,0.7316296100616455,-10.314705848693848,4.08984375,0,A1,6.1,180,450.0,0.1345270891397267,[29600|0|0|0]
235,23501,1.688923478126526,1.18245530128479,0.0,-0.0151138491928577,0.7283555865287781,-10.294570922851562,4.08984375,0,A1,6.1,180,450.0,0.1348274976137613,[29700|0|0|0]
236,23601,1.6889796257019043,1.1828490495681765,0.0,-0.0291010234504938,0.7297682762145996,-10.297327041625977,4.08984375,0,A1,6.1,180,450.0,0.1352252290066518,[29800|0|0|0]
237,23701,1.6891645193099976,1.1828655004501345,0.0,-0.0291975289583206,0.7218035459518433,-10.317503929138184,4.08984375,0,A1,6.1,180,450.0,0.1354108530294262,[29900|0|0|0]
238,23802,1.689308524131775,1.182783842086792,0.0,-0.028282044455409,0.7140021920204163,-10.299901962280272,4.08984375,0,A1,6.1,180,450.0,0.1355763990260522,[30000|0|0|0]
239,23902,1.6889196634292605,1.1824003458023071,0.0,-0.0175152830779552,0.7201500535011292,-10.344624519348145,3.01953125,0,F2,6.1,180,450.0,0.1361225510618204,[30000|0|0|0]
240,24002,1.688724160194397,1.183246612548828,0.0,-0.0660148561000824,1.201616644859314,-9.901089668273926,3.208984375,0,F2,6.1,180,450.0,0.1369911067141012,[30000|0|0|0]
241,24102,1.6853432655334473,1.1840938329696655,0.0,2.945286273956299,3.1735095977783203,-6.077098369598389,3.494140625,0,F2,6.1,180,450.0,0.1404765379858268,[30000|0|0|0]
242,24202,1.67404305934906,1.184880018234253,0.0292122047394514,-1.367377519607544,2.6008687019348145,-3.4749677181243896,3.583984375,0,F2,6.1,180,450.0,0.1718080820400151,[30000|0|0|0]
243,24302,1.6590237617492676,1.1879603862762451,0.1020821183919906,-0.9814196825027466,0.3540163040161133,-2.0204756259918213,3.615234375,0,F2,6.1,180,450.0,0.2462734584467303,[30000|0|0|0]
244,24402,1.638161301612854,1.1954081058502195,0.1833617538213729,-0.2210209667682647,-2.3360421657562256,-0.9765104055404664,3.642578125,0,F2,6.1,180,450.0,0.3305176861737936,[30000|0|0|0]
245,24502,1.617881178855896,1.2025247812271118,0.2694782018661499,-0.171638548374176,-2.903597116470337,-1.2358916997909546,3.6640625,0,F2,6.1,180,450.0,0.4192756326986323,[30000|0|0|0]
246,24602,1.5949368476867676,1.2127504348754885,0.34359872341156,-0.6071257591247559,-4.576816558837891,-2.022747755050659,3.68359375,0,F2,6.1,180,450.0,0.497537104953496,[30000|0|0|0]
247,24702,1.571919560432434,1.2221909761428833,0.404435396194458,2.375532627105713,-6.603929996490479,-4.533796787261963,3.68359375,0,F2,6.1,180,450.0,0.5632639646629275,[30000|0|0|0]
248,24802,1.5583000183105469,1.2240537405014038,0.4577499032020569,2.7808618545532227,-5.892545223236084,-5.305959224700928,3.673828125,0,F2,6.1,180,450.0,0.6183221019010192,[30000|0|0|0]
249,24900,1.5509108304977417,1.2216006517410278,0.4996698498725891,0.676037073135376,-6.022076606750488,-5.583791732788086,3.658203125,0,F2,6.1,180,450.0,0.6609589365614329,[30000|0|0|0]
250,25000,1.5488191843032837,1.2155274152755735,0.5301717519760132,-0.3470435440540313,-6.159323692321777,-4.02039098739624,3.6484375,0,F2,6.1,180,450.0,0.6921298399313223,[30000|0|0|0]
251,25100,1.5523306131362915,1.2094032764434814,0.5508653521537781,-1.7374907732009888,-3.1421902179718018,-0.9748862981796264,3.62109375,0,F2,6.1,180,450.0,0.7139944299618078,[30000|0|0|0]
252,25200,1.560350775718689,1.2071133852005005,0.5648102164268494,0.6503506302833557,-3.4330921173095703,1.4781417846679688,3.615234375,0,F2,6.1,180,450.0,0.7302433022102794,[30000|0|0|0]
253,25300,1.5710747241973877,1.204013466835022,0.5787551403045654,-1.7612160444259644,-0.6381195187568665,2.586064577102661,3.611328125,0,F2,6.1,180,450.0,0.7481059298669741,[30000|0|0|0]
254,25400,1.5843174457550049,1.2022181749343872,0.5916735529899597,0.4569221138954162,-0.7326948046684265,2.9103519916534424,3.62109375,0,F2,6.1,180,450.0,0.7666929719547088,[30000|0|0|0]
255,25500,1.5981967449188232,1.2024565935134888,0.6054615378379822,-0.2692998647689819,-0.6703684329986572,5.099312782287598,3.63671875,0,F2,6.1,180,450.0,0.7862582553635155,[30000|0|0|0]
256,25600,1.6121127605438232,1.20123291015625,0.614375114440918,-0.0728899538516998,0.1697970926761627,6.097017765045166,3.626953125,0,F2,6.1,180,450.0,0.8028294574831697,[30000|0|0|0]
257,25700,1.6251052618026731,1.2016212940216064,0.6189882159233093,-0.9480735063552856,1.569494128227234,7.5078935623168945,3.60546875,0,F2,6.1,180,450.0,0.8166220872641407,[30000|0|0|0]
258,25800,1.635509729385376,1.2031478881835938,0.6212096810340881,-1.1035079956054688,0.9466772079467772,7.883856296539307,3.599609375,0,F2,6.1,180,450.0,0.8273700332378295,[30000|0|0|0]
259,25900,1.6442420482635498,1.2100669145584106,0.6206048130989075,-0.3805351257324219,1.09800124168396,8.10781478881836,3.59375,0,F2,6.1,180,450.0,0.8385276397994776,[30000|0|0|0]
260,26000,1.651843786239624,1.2145967483520508,0.6206884384155273,1.064306139945984,0.9758032560348512,8.923864364624023,3.578125,0,F2,6.1,180,450.0,0.8473770921920538,[30000|0|0|0]
261,26100,1.6582008600234983,1.2196837663650513,0.6214863657951355,0.9840176105499268,1.0434297323226929,8.290022850036621,3.583984375,0,F2,6.1,180,450.0,0.8555579740186873,[30000|0|0|0]
262,26200,1.6652733087539673,1.2201348543167114,0.6243695020675659,2.1778666973114014,0.570891261100769,7.856306076049805,3.583984375,0,F2,6.1,180,450.0,0.8632088227396233,[30000|0|0|0]
263,26300,1.6738295555114746,1.216360330581665,0.6282585859298706,1.866737723350525,1.559529185295105,6.8515706062316895,3.578125,0,F2,6.1,180,450.0,0.8733370684559268,[30000|0|0|0]
264,26400,1.6815614700317385,1.2086925506591797,0.6340013146400452,-1.2174301147460938,1.2630008459091189,4.472854137420654,3.58984375,0,F2,6.1,180,450.0,0.885647888255071,[30000|0|0|0]
265,26500,1.6881908178329468,1.2016279697418213,0.6378490328788757,-0.481126993894577,0.4438321590423584,2.894671678543091,3.599609375,0,F2,6.1,180,450.0,0.8960719705385489,[30000|0|0|0]
266,26600,1.694776177406311,1.1967720985412598,0.6430548429489136,-2.291996717453003,2.260309934616089,1.66896390914917,3.58984375,0,F2,6.1,180,450.0,0.9057697488569192,[30000|0|0|0]
267,26700,1.6992820501327517,1.1946698427200315,0.6477047801017761,-0.0678621754050254,1.2453715801239014,-1.8326374292373653,3.58984375,0,F2,6.1,180,450.0,0.9125774124862666,[30000|0|0|0]
268,26800,1.7016189098358154,1.1919041872024536,0.6490883827209473,-1.0797864198684692,2.3649933338165283,-4.370845317840576,3.578125,0,F2,6.1,180,450.0,0.916453508450183,[30000|0|0|0]
269,26900,1.7033662796020508,1.1889179944992063,0.6505944728851318,0.0379714183509349,-0.5471673607826233,-5.796794414520264,3.5,0,F2,6.1,180,292.0,0.920226962510263,[30000|0|0|0]
270,27000,1.7028064727783203,1.1871848106384275,0.6555012464523315,3.5269126892089844,9.316176414489746,-7.032719612121582,3.431640625,0,F2,6.1,180,292.0,0.9254608651473905,[30000|0|0|0]
271,27100,1.6860120296478271,1.1727840900421145,0.6759409308433533,19.78982734680176,10.751287460327148,-7.958784580230713,3.478515625,0,F2,6.1,180,292.0,0.9555808713187216,[30000|0|0|0]
272,27200,1.649557113647461,1.1265708208084106,0.7103019952774048,17.5823974609375,5.676397323608398,-5.2706379890441895,3.47265625,0,F2,6.1,180,292.0,1.023737381667342,[30000|0|0|0]
273,27300,1.604021668434143,1.046597242355347,0.759437620639801,13.497967720031738,1.5294387340545654,-2.8438596725463867,3.55859375,0,F2,6.1,180,292.0,1.1280616822934049,[30000|0|0|0]
274,27400,1.5616943836212158,0.945904552936554,0.8176245093345642,8.591087341308594,-1.748422622680664,-1.7719881534576416,3.626953125,0,F2,6.1,180,292.0,1.2518208466328626,[30000|0|0|0]
275,27500,1.5207581520080566,0.835321307182312,0.8769307732582092,1.060846924781799,-3.682887315750122,-1.2217298746109009,3.65234375,0,F2,6.1,180,292.0,1.3838119911873756,[30000|0|0|0]
276,27600,1.485284447669983,0.7257803678512573,0.9276940226554872,-5.312399864196777,-4.100289344787598,-0.9831236004829408,3.65234375,0,F2,6.1,180,292.0,1.5096472349721164,[30000|0|0|0]
277,27700,1.4530450105667114,0.6302428841590881,0.9648599624633788,-10.640127182006836,-3.8821558952331534,-0.6584817171096802,3.63671875,0,F2,6.1,180,292.0,1.6171093174792552,[30000|0|0|0]
278,27800,1.432841181755066,0.551174521446228,0.9885542392730712,-13.262374877929688,-3.1357338428497314,-0.1828553974628448,3.60546875,0,F2,6.1,180,292.0,1.7020882527178014,[30000|0|0|0]
279,27900,1.4154452085494995,0.4935908615589142,0.9998406171798706,-13.058490753173828,-2.0151329040527344,-0.1223898455500602,3.58984375,0,F2,6.1,180,292.0,1.7632918481680828,[30000|0|0|0]
280,28000,1.4008510112762451,0.4563263356685638,1.0032966136932373,-11.513826370239258,-1.3184549808502195,-0.3196349740028381,3.568359375,0,F2,6.1,180,292.0,1.8034612319794343,[30000|0|0|0]
281,28100,1.387060284614563,0.4375277161598205,1.0026741027832031,-8.637834548950195,-0.2123786807060241,-0.2980298101902008,3.5625,0,F2,6.1,180,292.0,1.8267841768433413,[30000|0|0|0]
282,28200,1.3735826015472412,0.431864470243454,1.0028579235076904,-5.3672590255737305,-0.0688481479883194,-0.5151962041854858,3.5625,0,F2,6.1,180,292.0,1.841404508071845,[30000|0|0|0]
283,28300,1.3600612878799438,0.4332963824272156,1.0049171447753906,-2.463673591613769,-0.5081405639648438,-0.8816805481910706,3.568359375,0,F2,6.1,180,292.0,1.8551564784041572,[30000|0|0|0]
284,28400,1.3471640348434448,0.4371110200881958,1.0093735456466677,-0.5466558337211609,-1.2630654573440552,-1.3010013103485107,3.58984375,0,F2,6.1,180,292.0,1.8693251094282743,[30000|0|0|0]
285,28500,1.336085557937622,0.4401592910289764,1.0122411251068115,0.5559099912643433,-1.9668045043945312,-1.3202191591262815,3.578125,0,F2,6.1,180,292.0,1.8811677281522516,[30000|0|0|0]
286,28600,1.327879548072815,0.4400694668292999,1.0153857469558716,0.736472487449646,-2.146746635437012,-1.1588959693908691,3.578125,0,F2,6.1,180,292.0,1.8899560905060544,[30000|0|0|0]
287,28700,1.3239033222198486,0.4376516938209533,1.018036961555481,0.2846401333808899,-1.924355745315552,-1.15886127948761,3.58984375,0,F2,6.1,180,292.0,1.89531192258024,[30000|0|0|0]
288,28800,1.3218977451324463,0.4339217841625213,1.0176033973693848,-0.3931342959403991,-1.4595481157302856,-0.9479013681411744,3.57421875,0,F2,6.1,180,292.0,1.899568980650908,[30000|0|0|0]
289,28900,1.3229584693908691,0.4292762279510498,1.0165172815322876,-1.0117088556289673,-0.917431890964508,-0.8469626307487488,3.568359375,0,F2,6.1,180,292.0,1.904456308763276,[30000|0|0|0]
290,29000,1.3247488737106323,0.4267797768115997,1.0145031213760376,-1.5120675563812256,-0.366992324590683,-0.9794712662696838,3.57421875,0,F2,6.1,180,292.0,1.908129816222764,[30000|0|0|0]
291,29100,1.3267959356307983,0.4261163771152496,1.0120043754577637,-1.5837019681930542,0.0043172962032258,-1.216645121574402,3.57421875,0,F2,6.1,180,292.0,1.9114274354891745,[30000|0|0|0]
292,29200,1.329096436500549,0.4263044893741607,1.008126974105835,-1.3149049282073977,0.2082830816507339,-1.778174638748169,3.568359375,0,F2,6.1,180,292.0,1.915939855207864,[30000|0|0|0]
293,29300,1.330918550491333,0.4287464618682861,1.0039875507354736,-1.1704976558685305,0.3051882982254028,-1.610166072845459,3.5625,0,F2,6.1,180,292.0,1.9210797146316776,[30000|0|0|0]
294,29400,1.331823468208313,0.4320622980594635,1.0001665353775024,-0.8349806070327759,0.3194174468517303,-1.1848461627960205,3.568359375,0,F2,6.1,180,292.0,1.9262191507959932,[30000|0|0|0]
295,29500,1.3328514099121094,0.4360399544239044,0.9956666827201844,-0.5604869723320007,0.2476819902658462,-0.9667675495147704,3.568359375,0,F2,6.1,180,292.0,1.93231235095991,[30000|0|0|0]
296,29600,1.3338295221328735,0.4411627948284149,0.9916501045227052,-0.3309617936611175,0.1552772372961044,-1.0609570741653442,3.5625,0,F2,6.1,180,292.0,1.938895138951556,[30000|0|0|0]
297,29700,1.3340833187103271,0.445799320936203,0.9868527054786682,0.0071220826357603,0.1865374445915222,-0.8612217307090759,3.5625,0,F2,6.1,180,292.0,1.9455717267506236,[30000|0|0|0]
298,29800,1.3341621160507202,0.450975239276886,0.980457365512848,0.1049560084939003,0.0561138689517974,-0.7032371163368225,3.546875,0,F2,6.1,180,292.0,1.9537995279738356,[30000|0|0|0]
299,29900,1.3341752290725708,0.4550369679927826,0.9751369953155518,0.182654783129692,0.0092472750693559,-0.5363470911979675,3.552734375,0,F2,6.1,180,450.0,1.9604931182771896,[30000|0|0|0]
300,30000,1.3349229097366333,0.4591217935085296,0.9623069167137146,0.4974812865257263,-0.0681457370519638,-0.749285876750946,3.853515625,0,F2,6.1,180,450.0,1.973978508252968,[30000|0|0|0]
301,30100,1.335792899131775,0.4623557031154632,0.9140622615814208,0.579259991645813,-0.5172017216682434,-0.5832797288894653,3.76953125,0,F2,6.1,180,450.0,2.022339254749765,[30000|0|0|0]
302,30200,1.336212158203125,0.4647352993488312,0.8247196078300476,0.6322857737541199,-0.0747711136937141,0.0691588819026947,3.626953125,0,F2,6.1,180,450.0,2.111714575928156,[30000|0|0|0]
303,30300,1.3361274003982544,0.4669010043144226,0.707751452922821,0.1634960770606994,0.0319559201598167,1.1603636741638184,3.552734375,0,F2,6.1,180,450.0,2.228702809200928,[30000|0|0|0]
304,30400,1.3360896110534668,0.4678354263305664,0.5809589624404907,0.7797170877456665,-0.2305333316326141,2.1783013343811035,3.53125,0,F2,6.1,180,450.0,2.3554987484704903,[30000|0|0|0]
305,30500,1.3359897136688232,0.4688368737697601,0.4555602073669433,0.0726412236690521,-0.2491101920604705,2.455169439315796,3.453125,0,F2,6.1,180,450.0,2.4809015421014795,[30000|0|0|0]
306,30600,1.3365614414215088,0.4698384404182434,0.3419941067695617,-0.3057168126106262,0.4449566602706909,2.4097769260406494,3.42578125,0,F2,6.1,180,450.0,2.5944734982053923,[30000|0|0|0]
307,30700,1.3368074893951416,0.4717764258384704,0.2496351450681686,-0.9447929263114928,0.2512301802635193,1.787381887435913,3.435546875,0,F2,6.1,180,450.0,2.6868531178931447,[30000|0|0|0]
308,30800,1.3369088172912598,0.4763692617416382,0.1792217046022415,-0.0818973332643508,0.8742048740386963,0.6869784593582153,3.453125,0,F2,6.1,180,450.0,2.757416259881187,[30000|0|0|0]
309,30900,1.336697697639465,0.4822351336479187,0.1300377249717712,0.672419548034668,-0.6611586213111877,-0.4392700791358948,3.478515625,0,F2,6.1,180,450.0,2.8069492476471067,[30000|0|0|0]
310,31000,1.337287187576294,0.4864585995674133,0.0970628857612609,1.6335779428482056,-0.9430641531944276,-0.9061112999916076,3.5,0,F2,6.1,180,450.0,2.8401986864952704,[30000|0|0|0]
311,31100,1.339377999305725,0.4883632361888885,0.0784407705068588,2.011649370193481,-0.6518939137458801,-1.2593460083007812,3.525390625,0,F2,6.1,180,450.0,2.8590343524218054,[30000|0|0|0]
312,31200,1.342864155769348,0.4871111214160919,0.0683594197034835,1.5163984298706057,-0.2488209158182144,-1.3235540390014648,3.541015625,0,F2,6.1,180,450.0,2.869774683530008,[30000|0|0|0]
313,31300,1.3468244075775146,0.482012003660202,0.0645915642380714,1.262518048286438,-0.3081417083740234,-0.1421125680208206,3.552734375,0,F2,6.1,180,450.0,2.8772500651979067,[30000|0|0|0]
314,31400,1.3509275913238523,0.4758854210376739,0.0647187605500221,0.4098590016365051,-0.2478720843791961,1.228398323059082,3.5625,0,F2,6.1,180,450.0,2.884624840475069,[30000|0|0|0]
315,31500,1.3550904989242554,0.4687701761722564,0.0644034966826438,-1.2570573091506958,1.2147167921066284,1.4993044137954712,3.541015625,0,F2,6.1,180,450.0,2.8928744404950955,[30000|0|0|0]
316,31600,1.3583121299743652,0.4638463258743286,0.0631213337182998,-0.2397853881120681,-0.4338878691196441,1.6160815954208374,3.552734375,0,F2,6.1,180,450.0,2.8988966618665306,[30000|0|0|0]
317,31700,1.360283374786377,0.4587249159812927,0.0627142339944839,-0.7075427174568176,0.6764609813690186,1.5520230531692505,3.546875,0,F2,6.1,180,450.0,2.9043994225906125,[30000|0|0|0]
318,31800,1.3624794483184814,0.453609824180603,0.0618923716247081,-0.0050425054505467,0.709096372127533,1.664611577987671,3.537109375,0,F2,6.1,180,450.0,2.9100263543338225,[30000|0|0|0]
319,31900,1.36312997341156,0.4483302533626556,0.0596161596477031,-0.6819255352020264,0.3234487175941467,1.6504775285720823,3.537109375,0,F2,6.1,180,450.0,2.915812388544118,[30000|0|0|0]
320,32000,1.3631227016448977,0.4425952434539795,0.0592719502747058,-0.6679377555847168,-0.3294418752193451,1.530936360359192,3.537109375,0,F2,6.1,180,450.0,2.921557723314492,[30000|0|0|0]
321,32100,1.3629860877990725,0.4365470111370086,0.0593716949224472,-0.6438045501708984,-0.4513909518718719,1.4201289415359497,3.541015625,0,F2,6.1,180,450.0,2.927608320516229,[30000|0|0|0]
322,32200,1.3626940250396729,0.4305971562862396,0.0614827461540699,-1.0643030405044556,-0.0137208709493279,1.5435491800308228,3.552734375,0,F2,6.1,180,450.0,2.9339283371857627,[30000|0|0|0]
323,32300,1.3626552820205688,0.4249929785728454,0.0613685995340347,-1.6018630266189575,-0.1275819987058639,1.2334764003753662,3.537109375,0,F2,6.1,180,450.0,2.9395338111457145,[30000|0|0|0]
324,32400,1.3622814416885376,0.4212950766086578,0.0620331019163131,-1.7861675024032593,0.1260239630937576,0.6229289770126343,3.541015625,0,F2,6.1,180,450.0,2.943309496374471,[30000|0|0|0]
325,32500,1.3601555824279783,0.420445442199707,0.0613706856966018,-2.6210412979125977,0.4574729204177856,0.2377678900957107,3.541015625,0,F2,6.1,180,450.0,2.945692761251214,[30000|0|0|0]
326,32600,1.358035922050476,0.4233101904392242,0.0617178045213222,-1.8670908212661743,0.3099741041660309,0.688694179058075,3.541015625,0,F2,6.1,180,450.0,2.949273296695843,[30000|0|0|0]
327,32700,1.3560123443603516,0.4287158548831939,0.0620187371969223,-0.2894255220890045,-0.1283052265644073,0.8018573522567749,3.53125,0,F2,6.1,180,450.0,2.955053144031544,[30000|0|0|0]
328,32800,1.3540555238723757,0.43333300948143,0.0634987354278564,0.7955141067504883,-0.6152494549751282,0.4518507719039917,3.537109375,0,F2,6.1,180,450.0,2.9602816866362995,[30000|0|0|0]
329,32900,1.3527932167053225,0.4360437989234924,0.0656942352652549,0.0233316123485565,-1.3376851081848145,-0.4922674894332886,3.537109375,0,B2,6.1,180,450.0,2.9639914060757198,[30000|100|0|0]
330,33000,1.3534198999404907,0.437508761882782,0.068223126232624,0.2753097712993622,0.4006151556968689,-1.477473258972168,3.541015625,0,B2,6.1,180,450.0,2.96698040889843,[30000|200|0|0]
331,33100,1.3546831607818604,0.4381379783153534,0.0693778544664383,0.0245847199112176,-0.6238389611244202,-2.486733675003052,3.541015625,0,B2,6.1,180,450.0,2.96880390514639,[30000|300|0|0]
332,33200,1.357024908065796,0.4378131330013275,0.0707055404782295,-0.0870811119675636,-0.4059610366821289,-3.3716673851013184,3.541015625,0,B2,6.1,180,450.0,2.9715153724550203,[30000|400|0|0]
333,33300,1.359791874885559,0.4370820522308349,0.0715127438306808,-0.4819808602333069,0.3945004940032959,-4.010466575622559,3.537109375,0,B2,6.1,180,450.0,2.9744889497159743,[30000|500|0|0]
334,33400,1.3625370264053345,0.4373301565647125,0.073149062693119,-0.0692163035273552,-0.1977225244045257,-3.984923839569092,3.541015625,0,B2,6.1,180,450.0,2.977694406320982,[30000|600|0|0]
335,33500,1.3655240535736084,0.4370836913585663,0.0742470994591713,-0.4124030470848083,-0.4318737983703613,-3.385554313659668,3.537109375,0,B2,6.1,180,450.0,2.980886390209013,[30000|700|0|0]
336,33600,1.3688477277755735,0.4372355043888092,0.0755859389901161,0.1169703602790832,-0.2822112441062927,-2.3149983882904053,3.541015625,0,B2,6.1,180,450.0,2.984472801881783,[30000|800|0|0]
337,33700,1.372632384300232,0.4371830821037292,0.0750488117337226,-0.6410323977470398,0.5976946353912354,-0.933141589164734,3.53125,0,B2,6.1,180,450.0,2.9882957430002377,[30000|900|0|0]
338,33800,1.3761711120605469,0.4371433556079864,0.0733572542667388,-0.3584709763526916,-0.3992974460124969,0.6141127347946167,3.521484375,0,B2,6.1,180,450.0,2.99221818344213,[30000|1000|0|0]
339,33900,1.3793636560440063,0.4377325177192688,0.0728838890790939,-0.4711031913757324,0.2702116370201111,1.4215431213378906,3.525390625,0,B2,6.1,180,450.0,2.9954989643980263,[30000|1100|0|0]
