time.ms,stateEstimate.x,stateEstimate.y,stateEstimate.z,stabilizer.roll,stabilizer.pitch,stabilizer.yaw,pm.vbat,drone_id,node_name,wind_speed,global_wind_direction,relative_wind_direction,travel_dist,waiting_time
0,1.2393029928207397,1.0978343486785889,-0.045149385929107666,-0.05808108299970627,0.7785748243331909,4.281927585601807,4.1171875,2,A/E1,6.1,180,0,0.07043130163045268,[100|0|0|0]
100,1.2396353483200073,1.0977028608322144,-0.045016832649707794,-0.04657398909330368,0.7740641236305237,4.280637741088867,4.1171875,2,A/E1,6.1,180,0,0.07081250971472854,[200|0|0|0]
200,1.2394689321517944,1.097878336906433,-0.0451519601047039,-0.048249464482069016,0.779144287109375,4.304295063018799,4.1171875,2,A/E1,6.1,180,0,0.07108953971808488,[300|0|0|0]
300,1.239681601524353,1.09738028049469,-0.04529194533824921,-0.039027176797389984,0.7779204845428467,4.254945278167725,4.1171875,2,A/E1,6.1,180,0,0.07164890035033716,[400|0|0|0]
400,1.2395412921905518,1.0973492860794067,-0.045016638934612274,-0.025304429233074188,0.7837857604026794,4.266931056976318,4.1171875,2,A/E1,6.1,180,0,0.07195944982918716,[500|0|0|0]
500,1.239856243133545,1.0975172519683838,-0.04497680068016052,-0.027922071516513824,0.7773822546005249,4.2525858879089355,4.1171875,2,A/E1,6.1,180,0,0.07231860679051451,[600|0|0|0]
600,1.2393473386764526,1.0978201627731323,-0.045039787888526917,-0.018925907090306282,0.7947646379470825,4.256596088409424,4.1171875,2,A/E1,6.1,180,0,0.07291417886046037,[700|0|0|0]
700,1.2399860620498657,1.0978446006774902,-0.045057304203510284,-0.036400772631168365,0.7747305631637573,4.263451099395752,4.1171875,2,A/E1,6.1,180,0,0.07355360952926207,[800|0|0|0]
800,1.2397782802581787,1.0977587699890137,-0.04518942907452583,-0.022415515035390854,0.7892810106277466,4.214474678039551,4.1171875,2,A/E1,6.1,180,0,0.07381437218299512,[900|0|0|0]
900,1.239575743675232,1.0974805355072021,-0.04532770439982414,-0.006502013653516769,0.7932482957839966,4.222989559173584,4.1171875,2,A/E1,6.1,180,0,0.07418525701671988,[1000|0|0|0]
1000,1.2399624586105347,1.09771728515625,-0.045387525111436844,-0.012399565428495407,0.7825072407722473,4.22075891494751,4.1171875,2,A/E1,6.1,180,0,0.07464261612622611,[1100|0|0|0]
1100,1.2397350072860718,1.0973188877105713,-0.04554274305701256,-0.001428299117833376,0.7885754704475403,4.209789752960205,4.1171875,2,A/E1,6.1,180,0,0.07512691690090233,[1200|0|0|0]
1200,1.2398326396942139,1.097678303718567,-0.04541223496198654,-0.008893894031643867,0.7868013381958008,4.2421698570251465,4.1171875,2,A/E1,6.1,180,0,0.07552156144576573,[1300|0|0|0]
1300,1.2396100759506226,1.0974570512771606,-0.044891905039548874,-0.060263436287641525,0.7458756566047668,4.256097793579102,4.1171875,2,A/E1,6.1,180,0,0.07612920483705177,[1400|0|0|0]
1400,1.2396126985549927,1.0973387956619263,-0.045141588896512985,-0.040072981268167496,0.7616697549819946,4.279052257537842,4.1171875,2,A/E1,6.1,180,0,0.07640548964846314,[1500|0|0|0]
1500,1.2394216060638428,1.0973821878433228,-0.04496423900127411,-0.0422317236661911,0.7736450433731079,4.226187705993652,4.1171875,2,A/E1,6.1,180,0,0.07666978532932353,[1600|0|0|0]
1600,1.2397419214248657,1.0976426601409912,-0.04497484862804413,-0.04120370373129845,0.7669246792793274,4.221049785614014,4.1171875,2,A/E1,6.1,180,0,0.07708277481168373,[1700|0|0|0]
1700,1.2393797636032104,1.097385287284851,-0.04491546377539635,-0.03523549064993858,0.7834560871124268,4.183229446411133,4.1171875,2,A/E1,6.1,180,0,0.07753102210457886,[1800|0|0|0]
1800,1.239811658859253,1.0977110862731934,-0.045177437365055084,-0.03745904564857483,0.7749002575874329,4.214919090270996,4.1171875,2,A/E1,6.1,180,0,0.0781321116608644,[1900|0|0|0]
1900,1.2395468950271606,1.0973351001739502,-0.0451485849916935,-0.03118235059082508,0.7867771983146667,4.232797622680664,4.1171875,2,A/E1,6.1,180,0,0.07859286961582218,[2000|0|0|0]
2000,1.2393497228622437,1.097333312034607,-0.04514539614319801,-0.03711303323507309,0.792231023311615,4.239230632781982,4.1171875,2,A/E1,6.1,180,0,0.07879007567256256,[2100|0|0|0]
2100,1.239716649055481,1.097467303276062,-0.04484676942229271,-0.0484476163983345,0.779312252998352,4.23806095123291,4.1171875,2,A/E1,6.1,180,0,0.07928177314307563,[2200|0|0|0]
2200,1.2396272420883179,1.0977439880371094,-0.045151595026254654,-0.061967674642801285,0.7831096649169922,4.268622875213623,4.1171875,2,A/E1,6.1,180,0,0.07970304112382412,[2300|0|0|0]
2300,1.2394758462905884,1.0973740816116333,-0.04522350803017616,-0.03591613471508026,0.7919648885726929,4.23940372467041,4.1171875,2,A/E1,6.1,180,0,0.0801091481679783,[2400|0|0|0]
2400,1.2398595809936523,1.0977492332458496,-0.04505584388971329,-0.036974191665649414,0.7905053496360779,4.242916107177734,4.1171875,2,A/E1,6.1,180,0,0.0806713779563993,[2500|0|0|0]
2500,1.2396348714828491,1.0975463390350342,-0.045395128428936005,-0.01752443052828312,0.7971944808959961,4.262913703918457,4.1171875,2,A/E1,6.1,180,0,0.08112610251432795,[2600|0|0|0]
2600,1.2395617961883545,1.0975110530853271,-0.04489271342754364,-0.010553304105997086,0.8071680068969727,4.2631330490112305,4.1171875,2,A/E1,6.1,180,0,0.08163502876687963,[2700|0|0|0]
2700,1.2395758628845215,1.097344994544983,-0.045370880514383316,-0.00529077835381031,0.8063495755195618,4.261715888977051,4.1171875,2,A/E1,6.1,180,0,0.08214140518191004,[2800|0|0|0]
2800,1.2396199703216553,1.097611904144287,-0.04532837122678757,-0.01736302115023136,0.8007730841636658,4.2608442306518555,4.1171875,2,A/E1,6.1,180,0,0.08241525411790056,[2900|0|0|0]
2900,1.2398834228515625,1.0979297161102295,-0.04503917694091797,-0.009786946699023247,0.7926700115203857,4.24301290512085,4.1171875,2,A/E1,6.1,180,0,0.08291928290298163,[3000|0|0|0]
3000,1.2396756410598755,1.097276210784912,-0.045474573969841,0.009093175642192364,0.8030747771263123,4.256533145904541,4.1171875,2,A/E1,6.1,180,0,0.0837315716791997,[3100|0|0|0]
3100,1.2396434545516968,1.0973178148269653,-0.045305170118808746,0.004254838917404413,0.8026281595230103,4.26425313949585,4.1171875,2,A/E1,6.1,180,0,0.08390895412581847,[3200|0|0|0]
3200,1.2396700382232666,1.0977779626846313,-0.04521194472908974,-0.006525225937366486,0.7977133989334106,4.270076274871826,4.1171875,2,A/E1,6.1,180,0,0.08437920269391519,[3300|0|0|0]
3300,1.2396469116210938,1.097342610359192,-0.0453631617128849,0.008709315210580826,0.8027217984199524,4.269101142883301,4.1171875,2,A/E1,6.1,180,0,0.08484064940067743,[3400|0|0|0]
3400,1.2395497560501099,1.0978485345840454,-0.044823553413152695,-0.056607846170663834,0.7584762573242188,4.2263288497924805,4.1171875,2,A/E1,6.1,180,0,0.08558668937508009,[3500|0|0|0]
3500,1.2396332025527954,1.0978238582611084,-0.04504413157701492,-0.045300330966711044,0.774648129940033,4.230973243713379,4.1171875,2,A/E1,6.1,180,0,0.08582381163488918,[3600|0|0|0]
3600,1.2397501468658447,1.097673773765564,-0.044932398945093155,-0.035157375037670135,0.7811881303787231,4.216831684112549,4.1171875,2,A/E1,6.1,180,0,0.08604445956529772,[3700|0|0|0]
3700,1.2396248579025269,1.0974279642105103,-0.04491538181900978,-0.027892043814063072,0.7897997498512268,4.260447978973389,4.1171875,2,A/E1,6.1,180,0,0.0863208817863023,[3800|0|0|0]
3800,1.2395296096801758,1.097062587738037,-0.04554567486047745,-0.016089841723442078,0.8080441951751709,4.252547264099121,4.1171875,2,A/E1,6.1,180,0,0.08705562086149875,[3900|0|0|0]
3900,1.2394381761550903,1.0971479415893555,-0.045187029987573624,-0.007245965767651796,0.817882239818573,4.2457733154296875,4.1171875,2,A/E1,6.1,180,0,0.0874354517637495,[4000|0|0|0]
4000,1.2397648096084595,1.0972243547439575,-0.04540719836950302,0.012461879290640354,0.8078993558883667,4.270474433898926,4.1171875,2,A/E1,6.1,180,0,0.08783670293129608,[4100|0|0|0]
4100,1.2396597862243652,1.0973998308181763,-0.045355670154094696,-0.001214180956594646,0.8119327425956726,4.260754585266113,4.1171875,2,A/E1,6.1,180,0,0.08804759845237939,[4200|0|0|0]
4200,1.2396280765533447,1.0972318649291992,-0.04496147856116295,0.00598426628857851,0.8173365592956543,4.273216247558594,4.1171875,2,A/E1,6.1,180,0,0.0884772553562389,[4300|0|0|0]
4300,1.2394286394119263,1.0974609851837158,-0.04519331827759743,0.002511406084522605,0.8145095705986023,4.255768299102783,4.1171875,2,A/E1,6.1,180,0,0.08885938219188819,[4400|0|0|0]
4400,1.239599347114563,1.0973851680755615,-0.0453190915286541,-0.0023762460332363844,0.8128418326377869,4.255767822265625,4.1171875,2,A/E1,6.1,180,0,0.08908456714766844,[4500|0|0|0]
4500,1.2396984100341797,1.0970654487609863,-0.04545096680521965,9.39283418119885e-05,0.8135719895362854,4.291390895843506,4.1171875,2,A/E1,6.1,180,0,0.08944432399711631,[4600|0|0|0]
4600,1.2394369840621948,1.0972974300384521,-0.045454997569322586,-0.005717368796467781,0.8213436603546143,4.2915120124816895,4.1171875,2,A/E1,6.1,180,0,0.08979385954463925,[4700|0|0|0]
4700,0.8065645694732666,1.1750209331512451,0.24072472751140594,0.0011331354035064578,-0.0028316620737314224,2.1934452056884766,4.1171875,2,A/E1,6.1,180,0,0.6145016880506132,[4800|0|0|0]
4800,1.2416576147079468,1.0973525047302246,-0.04576805606484413,-0.46625232696533203,-1.2661529779434204,4.1254401206970215,4.1171875,2,A/E1,6.1,180,0,1.141205075002175,[4900|0|0|0]
4900,1.2416387796401978,1.097478985786438,-0.0458187460899353,-0.3750954568386078,0.30545008182525635,4.552415370941162,4.1171875,2,A/E1,6.1,180,0,1.1413426311579866,[5000|0|0|0]
5000,1.2402456998825073,1.0972044467926025,-0.045322999358177185,-0.24846847355365753,1.3333920240402222,4.516571998596191,4.1171875,2,A/E1,6.1,180,0,1.1428465619052193,[5100|0|0|0]
5100,1.2397109270095825,1.097625970840454,-0.0451856330037117,-0.1940055638551712,1.6059283018112183,4.405930042266846,4.1171875,2,A/E1,6.1,180,0,1.143541208623971,[5200|0|0|0]
5200,1.2398643493652344,1.0975433588027954,-0.045253489166498184,-0.0728563740849495,1.614018440246582,4.312601566314697,4.1171875,2,A/E1,6.1,180,0,1.1437282049522985,[5300|0|0|0]
5300,1.2393040657043457,1.0978050231933594,-0.045059334486722946,-0.15039175748825073,1.4918643236160278,4.214763641357422,4.1171875,2,A/E1,6.1,180,0,1.1443763423402238,[5400|0|0|0]
5400,1.2388262748718262,1.0976026058197021,-0.04465923830866814,-0.07873720675706863,1.4489859342575073,4.166929721832275,4.1171875,2,A/E1,6.1,180,0,1.1450315780417024,[5500|0|0|0]
5500,1.239080786705017,1.097856879234314,-0.04475375637412071,-0.05648437887430191,1.3589911460876465,4.142173767089844,4.1171875,2,A/E1,6.1,180,0,1.1454035523785988,[5600|0|0|0]
5600,1.23871648311615,1.0978267192840576,-0.044920824468135834,-0.04217781871557236,1.2895742654800415,4.114706993103027,4.1171875,2,A/E1,6.1,180,0,1.1458054708722003,[5700|0|0|0]
5700,1.239019513130188,1.0977715253829956,-0.04493894800543785,-0.024031931534409523,1.2087823152542114,4.094659805297852,4.1171875,2,A/E1,6.1,180,0,1.1461140191159591,[5800|0|0|0]
5800,1.2391278743743896,1.0973820686340332,-0.04495709016919136,-0.02174658514559269,1.1533437967300415,4.103193283081055,4.1171875,2,A/E1,6.1,180,0,1.1465186768190403,[5900|0|0|0]
5900,1.2394124269485474,1.097247838973999,-0.04524208977818489,-0.009949635714292526,1.088098168373108,4.106204986572266,4.1171875,2,A/E1,6.1,180,0,1.1469431913019725,[6000|0|0|0]
6000,1.2390432357788086,1.097606897354126,-0.04530787095427513,-0.0271020345389843,1.0435500144958496,4.132204532623291,4.1171875,2,A/E1,6.1,180,0,1.1474623754728408,[6100|0|0|0]
6100,1.2395412921905518,1.097517967224121,-0.04512650519609451,-0.005405481904745102,0.9939998388290405,4.129763603210449,4.1171875,2,A/E1,6.1,180,0,1.1479998345834173,[6200|0|0|0]
6200,1.2395546436309814,1.097215175628662,-0.04529067873954773,0.0024362378753721714,0.9631513953208923,4.112281799316406,4.1171875,2,A/E1,6.1,180,0,1.1483445285978882,[6300|0|0|0]
6300,1.2393072843551636,1.097277045249939,-0.04525328427553177,0.001910690451040864,0.9394652843475342,4.128131866455078,4.1171875,2,A/E1,6.1,180,0,1.1486022354222238,[6400|0|0|0]
6400,1.2390514612197876,1.0978363752365112,-0.04488598555326462,-0.07303104549646378,0.8686961531639099,4.135198593139648,4.1171875,2,A/E1,6.1,180,0,1.1493186179051558,[6500|0|0|0]
6500,1.2395410537719727,1.097810983657837,-0.045049864798784256,-0.05523218587040901,0.8417495489120483,4.178842067718506,4.1171875,2,A/E1,6.1,180,0,1.1498355337653638,[6600|0|0|0]
6600,1.2394235134124756,1.0977813005447388,-0.04478226602077484,-0.047228921204805374,0.837457537651062,4.1581196784973145,4.1171875,2,A/E1,6.1,180,0,1.1501293124734182,[6700|0|0|0]
6700,1.239609718322754,1.0975260734558105,-0.04530154913663864,-0.03846204653382301,0.829974353313446,4.195680618286133,4.1171875,2,A/E1,6.1,180,0,1.150737151341833,[6800|0|0|0]
6800,1.2393592596054077,1.0974222421646118,-0.045095305889844894,-0.03363386541604996,0.8297732472419739,4.204654693603516,4.1171875,2,C1,6.1,180,0,1.1510778077419999,[6800|0|0|0]
6900,1.2393215894699097,1.097425103187561,-0.04494252800941467,0.02546178363263607,0.9063884615898132,4.480696678161621,3.134765625,2,C1,6.1,180,0,1.1512351872365647,[6800|0|0|0]
7000,1.237661600112915,1.1000005006790161,-0.03688323125243187,-1.4654773473739624,2.04260516166687,4.935030937194824,3.537109375,2,C1,6.1,180,0,1.159857281014844,[6800|0|0|0]
7100,1.2311880588531494,1.1118720769882202,0.003526207758113742,-7.806656360626221,4.745231628417969,5.856448650360107,3.6953125,2,C1,6.1,180,0,1.2024690613303173,[6800|0|0|0]
7200,1.2194708585739136,1.1386860609054565,0.06074455752968788,-0.8249542117118835,1.4712233543395996,5.429084300994873,3.6640625,2,C1,6.1,180,0,1.2667358650977347,[6800|0|0|0]
7300,1.2098878622055054,1.1718857288360596,0.13182808458805084,5.2300214767456055,-1.7493658065795898,3.4969735145568848,3.6796875,2,C1,6.1,180,0,1.3457733219720311,[6800|0|0|0]
7400,1.2018322944641113,1.1993348598480225,0.20964975655078888,6.711856842041016,-1.8369860649108887,1.7762432098388672,3.705078125,2,C1,6.1,180,0,1.4286862859283638,[6800|0|0|0]
7500,1.203073501586914,1.2184805870056152,0.2807742953300476,7.3992509841918945,-2.174435615539551,0.8133103847503662,3.736328125,2,C1,6.1,180,0,1.5023530998955563,[6800|0|0|0]
7600,1.2071901559829712,1.2304612398147583,0.35686448216438293,7.8590474128723145,-0.46203088760375977,0.4540078341960907,3.75390625,2,C1,6.1,180,0,1.5794906356199614,[6800|0|0|0]
7700,1.2132580280303955,1.2350106239318848,0.4232392907142639,6.659465789794922,0.0029098193626850843,1.1465383768081665,3.75390625,2,C1,6.1,180,0,1.6462973057739394,[6800|0|0|0]
7800,1.2196614742279053,1.2332313060760498,0.4798661172389984,6.172939300537109,1.171696424484253,1.9575239419937134,3.748046875,2,C1,6.1,180,0,1.7033128087314584,[6800|0|0|0]
7900,1.2244532108306885,1.2228933572769165,0.5252601504325867,4.18994665145874,1.6960514783859253,0.7369802594184875,3.7421875,2,C1,6.1,180,0,1.7501150754994745,[6800|0|0|0]
8000,1.225129246711731,1.207768440246582,0.5601673126220703,2.6035189628601074,1.5737367868423462,-1.095030665397644,3.732421875,2,C1,6.1,180,0,1.7881641242630097,[6800|0|0|0]
8100,1.2228585481643677,1.188485860824585,0.5883350968360901,1.0724058151245117,1.4904214143753052,-2.161799669265747,3.732421875,2,C1,6.1,180,0,1.8223752044649881,[6800|0|0|0]
8200,1.2177871465682983,1.1682915687561035,0.6088228225708008,-0.3690910041332245,0.6601545810699463,-2.309816598892212,3.7265625,2,C1,6.1,180,0,1.8515860834671078,[6800|0|0|0]
8300,1.2106890678405762,1.148699402809143,0.6244428157806396,-1.1874332427978516,-0.20100253820419312,-2.330458164215088,3.716796875,2,C1,6.1,180,0,1.877628738400766,[6800|0|0|0]
8400,1.203526258468628,1.1283631324768066,0.6365278959274292,-1.9567095041275024,-0.4626982808113098,-2.3298282623291016,3.716796875,2,C1,6.1,180,0,1.9023455118811994,[6800|0|0|0]
8500,1.1966317892074585,1.1125439405441284,0.6447068452835083,-2.7083897590637207,-1.1977266073226929,-2.2531256675720215,3.7109375,2,C1,6.1,180,0,1.9214419972218433,[6800|0|0|0]
8600,1.1924574375152588,1.0998096466064453,0.6513676047325134,-2.801903247833252,-1.3670628070831299,-2.1948297023773193,3.7109375,2,C1,6.1,180,0,1.9364070622260119,[6800|0|0|0]
8700,1.1898547410964966,1.08958899974823,0.657674252986908,-2.4954934120178223,-1.0291396379470825,-1.9479600191116333,3.7109375,2,C1,6.1,180,0,1.9486956529935997,[6800|0|0|0]
8800,1.188480257987976,1.0841742753982544,0.6619120836257935,-2.313746213912964,-1.0590099096298218,-1.6703035831451416,3.7109375,2,C1,6.1,180,0,1.95570761791976,[6800|0|0|0]
8900,1.18997323513031,1.080397605895996,0.6658856868743896,-1.4451587200164795,-0.5439391136169434,-1.3672071695327759,3.705078125,2,C1,6.1,180,0,1.961389319782237,[6800|0|0|0]
9000,1.1914509534835815,1.0775443315505981,0.6687943339347839,-1.2029619216918945,-0.5693727731704712,-1.0399192571640015,3.705078125,2,C1,6.1,180,0,1.9657234925687836,[6800|0|0|0]
9100,1.1946834325790405,1.0754890441894531,0.6716504693031311,-0.8764992952346802,-0.04121388494968414,-0.7145013809204102,3.701171875,2,C1,6.1,180,0,1.9705016340988961,[6800|0|0|0]
9200,1.197361707687378,1.0741512775421143,0.6749786734580994,-1.2727164030075073,0.4491921067237854,-0.2315358817577362,3.705078125,2,C1,6.1,180,0,1.9749782086884478,[6800|0|0|0]
9300,1.198750615119934,1.0744603872299194,0.6782069206237793,-1.5069727897644043,0.4797121286392212,0.2663024067878723,3.705078125,2,C1,6.1,180,0,1.9785061248464686,[6800|0|0|0]
9400,1.1986570358276367,1.0770525932312012,0.680979311466217,-0.9392719864845276,0.8603159189224243,0.6213343739509583,3.701171875,2,C1,6.1,180,0,1.9823027602016563,[6800|0|0|0]
9500,1.1974221467971802,1.0807405710220337,0.682889461517334,-0.8422186970710754,0.466521680355072,0.4660203158855438,3.701171875,2,C1,6.1,180,0,1.9866357504302394,[6800|0|0|0]
9600,1.1956919431686401,1.083688735961914,0.6850700378417969,-0.6466447710990906,0.13468845188617706,0.4465530216693878,3.6953125,2,C1,6.1,180,0,1.9906904013666038,[6800|0|0|0]
9700,1.1915332078933716,1.0902283191680908,0.6867400407791138,-0.7447267174720764,0.046834301203489304,0.46654197573661804,3.701171875,2,C1,6.1,180,0,1.9986182092231881,[6800|0|0|0]
9800,1.1884738206863403,1.0969969034194946,0.6900248527526855,-0.40392768383026123,-0.8741392493247986,-0.17442461848258972,3.701171875,2,C1,6.1,180,257.19573393471325,2.0067400053639823,[6800|0|0|0]
9900,1.1856741905212402,1.1044344902038574,0.6928779482841492,5.0780768394470215,-2.2352335453033447,0.3369187116622925,3.541015625,2,C1,6.1,180,257.19573393471325,2.015183688230358,[6800|0|0|0]
10000,1.1888575553894043,1.0986071825027466,0.7086179256439209,14.80882740020752,-5.738680362701416,3.423248529434204,3.59375,2,C1,6.1,180,257.19573393471325,2.0322669611665787,[6800|0|0|0]
10100,1.2035421133041382,1.0692471265792847,0.7427878975868225,16.83041763305664,-2.100153923034668,7.224782466888428,3.6640625,2,C1,6.1,180,257.19573393471325,2.079650883625137,[6800|0|0|0]
10200,1.2254152297973633,1.002905249595642,0.7835301160812378,15.731938362121582,-2.436671018600464,5.7929301261901855,3.6796875,2,C1,6.1,180,257.19573393471325,2.1605187155157326,[6800|0|0|0]
10300,1.2573922872543335,0.9278374314308167,0.8335884809494019,11.393054962158203,-0.4608837962150574,3.8861136436462402,3.7109375,2,C1,6.1,180,257.19573393471325,2.256245145622093,[6800|0|0|0]
10400,1.288443684577942,0.8299894332885742,0.8797664642333984,4.371390342712402,1.1568766832351685,2.919965982437134,3.720703125,2,C1,6.1,180,257.19573393471325,2.368809909897464,[6800|0|0|0]
10500,1.317543625831604,0.7287576198577881,0.9192062020301819,-2.4473984241485596,2.2860329151153564,1.3252472877502441,3.732421875,2,C1,6.1,180,257.19573393471325,2.48128292687901,[6800|0|0|0]
10600,1.342868447303772,0.6333250403404236,0.9509974122047424,-8.781593322753906,3.5791475772857666,0.5148112177848816,3.732421875,2,C1,6.1,180,257.19573393471325,2.5850104779939302,[6800|0|0|0]
10700,1.3609894514083862,0.5541839599609375,0.9712600708007812,-11.165281295776367,3.9536736011505127,0.12591053545475006,3.720703125,2,C1,6.1,180,257.19573393471325,2.6686899660825376,[6800|0|0|0]
10800,1.3773244619369507,0.4927392601966858,0.984308660030365,-12.360669136047363,4.1324968338012695,-0.37309184670448303,3.705078125,2,C1,6.1,180,257.19573393471325,2.7335941214115285,[6800|0|0|0]
10900,1.389078140258789,0.4498293995857239,0.9896535873413086,-11.323580741882324,3.7124884128570557,0.056627582758665085,3.68359375,2,C1,6.1,180,257.19573393471325,2.778404536938554,[6800|0|0|0]
11000,1.3966771364212036,0.4243677258491516,0.9903450608253479,-9.210723876953125,3.267646312713623,0.0833626389503479,3.6796875,2,C1,6.1,180,257.19573393471325,2.804984975379693,[6800|0|0|0]
11100,1.3999265432357788,0.4115952253341675,0.9902356863021851,-6.384796142578125,2.65889573097229,0.07484486699104309,3.6796875,2,C1,6.1,180,257.19573393471325,2.8181647848183076,[6800|0|0|0]
11200,1.4002259969711304,0.40832117199897766,0.9922142028808594,-3.8003203868865967,2.257294178009033,-0.25161561369895935,3.689453125,2,C1,6.1,180,257.19573393471325,2.822001922505878,[6800|0|0|0]
11300,1.3977904319763184,0.4088374972343445,0.9943738579750061,-2.0281131267547607,1.4856046438217163,-0.4807407557964325,3.689453125,2,C1,6.1,180,257.19573393471325,2.825297780318088,[6800|0|0|0]
11400,1.3943750858306885,0.41056448221206665,0.9957926869392395,-0.8417237997055054,0.9443501234054565,-0.5961679220199585,3.689453125,2,C1,6.1,180,257.19573393471325,2.829379464043892,[6800|0|0|0]
11500,1.389751672744751,0.41088399291038513,0.9975181221961975,-0.3915126323699951,0.7317799925804138,-0.6806795597076416,3.689453125,2,C1,6.1,180,257.19573393471325,2.834324680164095,[6800|0|0|0]
11600,1.385251522064209,0.4105108976364136,0.99738609790802,-0.336109459400177,0.4838681221008301,-0.790562093257904,3.689453125,2,C1,6.1,180,257.19573393471325,2.8388422001301503,[6800|0|0|0]
11700,1.3812404870986938,0.4093320071697235,0.9970462322235107,-0.8531666398048401,0.2868080735206604,-0.9761441946029663,3.68359375,2,C1,6.1,180,257.19573393471325,2.8430366837587444,[6800|0|0|0]
11800,1.3765579462051392,0.4087446928024292,0.996078372001648,-0.9439975023269653,0.11051512509584427,-0.6280980706214905,3.673828125,2,C1,6.1,180,257.19573393471325,2.847854139601293,[6800|0|0|0]
11901,1.3726122379302979,0.40887704491615295,0.9966685175895691,-1.2432959079742432,0.11505048722028732,-0.2806091010570526,3.6796875,2,C1,6.1,180,257.19573393471325,2.851845931515597,[6800|0|0|0]
12000,1.3685420751571655,0.4093898832798004,0.9982674717903137,-1.318995714187622,0.08453500270843506,0.17953816056251526,3.68359375,2,C1,6.1,180,257.19573393471325,2.8562488717517462,[6800|0|0|0]
12100,1.3652900457382202,0.41198909282684326,0.9999243021011353,-0.9198938608169556,0.04474710673093796,0.44057342410087585,3.68359375,2,C1,6.1,180,257.19573393471325,2.860729571729426,[6800|0|0|0]
12200,1.3620426654815674,0.414506196975708,1.0010979175567627,-0.5518683195114136,-0.2849021553993225,0.5058157444000244,3.689453125,2,C1,6.1,180,257.19573393471325,2.8650025876509058,[6800|0|0|0]
12301,1.3591684103012085,0.41834884881973267,1.000563383102417,-0.2086247205734253,-0.015290752053260803,0.44531553983688354,3.689453125,2,C1,6.1,180,257.19573393471325,2.869830945872816,[6800|0|0|0]
12401,1.3562439680099487,0.4210321009159088,1.0002789497375488,-0.08454712480306625,0.16518500447273254,0.3289867341518402,3.68359375,2,C1,6.1,180,257.19573393471325,2.873810029544416,[6800|0|0|0]
12501,1.3531315326690674,0.4226072132587433,0.9986897706985474,-0.4713669717311859,-0.019379055127501488,0.10800126940011978,3.68359375,2,C1,6.1,180,257.19573393471325,2.87764326873102,[6800|0|0|0]
12601,1.34943687915802,0.4250306189060211,0.996383011341095,-0.5432709455490112,-0.09887104481458664,-0.0925191193819046,3.6796875,2,C1,6.1,180,257.19573393471325,2.8826276942978377,[6800|0|0|0]
12701,1.3456388711929321,0.4279188811779022,0.9940263628959656,-0.5782178640365601,-0.0916687473654747,-0.43674856424331665,3.68359375,2,C1,6.1,180,257.19573393471325,2.887949415386731,[6800|0|0|0]
12801,1.3418833017349243,0.4310346245765686,0.9911805987358093,-0.47707709670066833,-0.45992496609687805,-0.4687689244747162,3.68359375,2,C1,6.1,180,0,2.8935983562197976,[6800|0|0|0]
12901,1.3382885456085205,0.4350464940071106,0.9855021238327026,-0.18939988315105438,-0.6410084366798401,-0.20770680904388428,3.927734375,2,C1,6.1,180,0,2.9014253891928496,[6800|0|0|0]
13001,1.3358285427093506,0.4395008385181427,0.9554477334022522,-0.031076915562152863,-1.5397719144821167,0.3670364022254944,3.869140625,2,C1,6.1,180,0,2.9319075017087637,[6800|0|0|0]
13101,1.3337340354919434,0.44404539465904236,0.8852893710136414,0.2740098237991333,-1.4355895519256592,0.7960938811302185,3.779296875,2,C1,6.1,180,0,3.0022440907933445,[6800|0|0|0]
13201,1.3329477310180664,0.447532057762146,0.7790457606315613,0.515106201171875,-1.3561656475067139,1.0413455963134766,3.6953125,2,C1,6.1,180,0,3.108547805880539,[6800|0|0|0]
13301,1.336670994758606,0.4447803795337677,0.6475595831871033,1.2867681980133057,-0.9477429389953613,1.0414141416549683,3.658203125,2,C1,6.1,180,0,3.2401154663633096,[6800|0|0|0]
13401,1.3389766216278076,0.44845449924468994,0.5204336643218994,-0.7153803110122681,0.3962685465812683,-0.14808230102062225,3.630859375,2,C1,6.1,180,0,3.3673153654129258,[6800|0|0|0]
13502,1.3432708978652954,0.45384636521339417,0.4012003242969513,-1.1278588771820068,-1.3407485485076904,-2.660353899002075,3.59375,2,C1,6.1,180,0,3.486747783124924,[6800|0|0|0]
13601,1.3522504568099976,0.4648972451686859,0.29368284344673157,-3.6118597984313965,-3.5163514614105225,-4.540024757385254,3.611328125,2,C1,6.1,180,0,3.5952040559495284,[6800|0|0|0]
13702,1.3700175285339355,0.4832727909088135,0.2008567601442337,-1.519698977470398,-2.0880563259124756,-4.3238301277160645,3.57421875,2,C1,6.1,180,0,3.691484953640469,[6800|0|0|0]
13802,1.394526720046997,0.5082800984382629,0.1265181452035904,2.4210305213928223,1.8775174617767334,-1.1974347829818726,3.552734375,2,C1,6.1,180,0,3.773657306471513,[6800|0|0|0]
13900,1.4153368473052979,0.5307886004447937,0.07152889668941498,5.526802062988281,7.169398307800293,0.865013837814331,3.583984375,2,C1,6.1,180,0,3.836613731967553,[6800|0|0|0]
14000,1.4259932041168213,0.544086217880249,0.03751813620328903,6.840904235839844,6.081952095031738,1.1659656763076782,3.58984375,2,C1,6.1,180,0,3.874654715114665,[6800|0|0|0]
14102,1.4265793561935425,0.5472546815872192,0.022822367027401924,6.299920082092285,6.858794689178467,0.8302634954452515,3.615234375,2,C1,6.1,180,0,3.8896995935851075,[6800|0|0|0]
14200,1.4190468788146973,0.5406875610351562,0.022395851090550423,5.309082984924316,4.928478717803955,-0.3177677094936371,3.65234375,2,C1,6.1,180,0,3.8997019534892767,[6800|0|0|0]
14300,1.4026278257369995,0.527228593826294,0.03155073523521423,3.788551092147827,1.9581540822982788,-1.7892515659332275,3.673828125,2,C1,6.1,180,0,3.9228220963521507,[6800|0|0|0]
14400,1.3836787939071655,0.5100910067558289,0.043611910194158554,1.2020530700683594,-0.312751442193985,-2.457944631576538,3.6796875,2,C1,6.1,180,0,3.9510751429007285,[6800|0|0|0]
14500,1.366094946861267,0.4917476177215576,0.054346635937690735,1.1628422737121582,-2.8752949237823486,-2.4073760509490967,3.6796875,2,C1,6.1,180,0,3.978659666369243,[6800|0|0|0]
14600,1.352476716041565,0.4737900495529175,0.06372568011283875,-0.0179805438965559,-2.2176144123077393,0.236703023314476,3.6796875,2,C1,6.1,180,0,4.003070666652505,[6800|0|0|0]
14700,1.3455219268798828,0.45394444465637207,0.07226761430501938,-1.7681610584259033,-3.103020429611206,1.0774725675582886,3.673828125,2,C1,6.1,180,0,4.025768282512695,[6800|0|0|0]
14800,1.344122290611267,0.43763136863708496,0.07622746378183365,-2.648106098175049,-3.094290256500244,1.0407629013061523,3.673828125,2,C1,6.1,180,0,4.0426133363497865,[6800|0|0|0]
14900,1.3485499620437622,0.4270315170288086,0.07732072472572327,-3.3438663482666016,-0.48784640431404114,1.462945580482483,3.6640625,2,C1,6.1,180,0,4.054152675495641,[6800|0|0|0]
15000,1.3533707857131958,0.4223472476005554,0.075901098549366,-1.642987608909607,0.00860667321830988,0.6413845419883728,3.658203125,2,C1,6.1,180,0,4.061022759877134,[6800|0|0|0]
15100,1.3570057153701782,0.42065975069999695,0.07377377897500992,-2.376777410507202,1.5896856784820557,-1.5914989709854126,3.658203125,2,C1,6.1,180,0,4.065559922864293,[6800|0|0|0]
15200,1.3574206829071045,0.42093130946159363,0.07070428878068924,0.3605474829673767,1.7808151245117188,-3.199540138244629,3.65234375,2,C1,6.1,180,0,4.06866921736156,[6800|0|0|0]
15300,1.3531569242477417,0.4215403199195862,0.06884743273258209,-0.5259813070297241,1.4297816753387451,-4.178074359893799,3.658203125,2,C1,6.1,180,0,4.07335946746434,[6800|0|0|0]
15400,1.345023274421692,0.42238378524780273,0.06849357485771179,-1.0416690111160278,-0.6949518918991089,-5.59970760345459,3.6640625,2,C1,6.1,180,0,4.081544387051502,[6800|0|0|0]
15500,1.3384225368499756,0.4232344329357147,0.06876134127378464,-0.13466601073741913,-0.912875771522522,-6.338667869567871,3.658203125,2,C1,6.1,180,0,4.088205095484784,[6800|0|0|0]
15600,1.3331354856491089,0.4257390797138214,0.0685102567076683,-0.7056088447570801,-1.3589056730270386,-5.576435565948486,3.65234375,2,C1,6.1,180,0,4.094060794362203,[6800|0|0|0]
15700,1.3306593894958496,0.4293029308319092,0.06904399394989014,0.8080949783325195,-1.2573084831237793,-4.677964687347412,3.658203125,2,C1,6.1,180,0,4.098433089228268,[6800|0|0|0]
15800,1.3312700986862183,0.43259114027023315,0.0686793327331543,0.5451749563217163,-0.8568231463432312,-4.362639427185059,3.65234375,2,C1,6.1,180,0,4.101797352123536,[6800|0|0|0]
15900,1.334906816482544,0.43423378467559814,0.06746175140142441,1.6932562589645386,-2.0052318572998047,-3.907806396484375,3.642578125,2,B2,6.1,180,0,4.105969462054011,[6800|100|0|0]
16000,1.3394335508346558,0.43441736698150635,0.06611539423465729,0.7587568759918213,0.7749689221382141,-2.7185773849487305,3.65234375,2,B2,6.1,180,0,4.1106957400799145,[6800|200|0|0]
16100,1.3433812856674194,0.43210551142692566,0.06500326097011566,0.392782986164093,0.6597870588302612,-1.888514518737793,3.6484375,2,B2,6.1,180,0,4.115403831711687,[6800|300|0|0]
16200,1.345407247543335,0.4304724931716919,0.06500918418169022,-0.9946416616439819,0.45481741428375244,-1.0979684591293335,3.642578125,2,B2,6.1,180,0,4.118006004885983,[6800|400|0|0]
16300,1.3467262983322144,0.43007251620292664,0.06655536592006683,0.03058857098221779,0.462787389755249,1.1576323509216309,3.65234375,2,B2,6.1,180,0,4.120077370263523,[6800|500|0|0]
16400,1.3483083248138428,0.4284764230251312,0.0701846182346344,0.06320700794458389,-0.4743504822254181,1.9993910789489746,3.658203125,2,B2,6.1,180,0,4.124346069548267,[6800|600|0|0]
16500,1.3530551195144653,0.4258517622947693,0.07454480975866318,-0.8877385258674622,-0.8216304183006287,0.9450879693031311,3.658203125,2,B2,6.1,180,0,4.1313053923605505,[6800|700|0|0]
16600,1.3594399690628052,0.42622727155685425,0.07669271528720856,-0.4123785197734833,0.2424200475215912,0.20482341945171356,3.658203125,2,B2,6.1,180,0,4.138052303440475,[6800|800|0|0]
16700,1.3665266036987305,0.42774057388305664,0.07703761756420135,-0.9441696405410767,-0.5408903360366821,0.03414246812462807,3.658203125,2,B2,6.1,180,0,4.145306917970156,[6800|900|0|0]
16800,1.3746678829193115,0.4323500990867615,0.07631966471672058,-0.3388127386569977,-1.049842119216919,0.6919916272163391,3.6484375,2,B2,6.1,180,0,4.154690073422468,[6800|1000|0|0]
16900,1.383894681930542,0.437488853931427,0.07444272190332413,-0.5468869805335999,-0.4575408399105072,1.188778281211853,3.6484375,2,B2,6.1,180,0,4.16541684067416,[6800|1100|0|0]
17000,1.3957042694091797,0.4457603693008423,0.07237110286951065,0.20763525366783142,-0.12561920285224915,1.294378638267517,3.6484375,2,B2,6.1,180,0,4.179983100603988,[6800|1200|0|0]
17100,1.4085285663604736,0.45540815591812134,0.07065849006175995,-0.32147184014320374,1.0002374649047852,1.504400372505188,3.63671875,2,B2,6.1,180,0,4.1961223515635835,[6800|1300|0|0]
17200,1.4213320016860962,0.46735912561416626,0.06978267431259155,0.3416505455970764,0.44776108860969543,2.1448731422424316,3.642578125,2,B2,6.1,180,0,4.213658619297616,[6800|1400|0|0]
17300,1.4337037801742554,0.48661214113235474,0.07818258553743362,0.5683762431144714,0.7501586079597473,2.2186968326568604,3.6484375,2,B2,6.1,180,0,4.238036847660008,[6800|1500|0|0]
17400,1.4428263902664185,0.48593801259994507,0.06856273859739304,1.4712659120559692,-0.32086601853370667,2.3217475414276123,3.642578125,2,B2,6.1,180,0,4.251311557424129,[6800|1600|0|0]
17500,1.4524149894714355,0.49100062251091003,0.06607703119516373,0.4377133548259735,0.473970502614975,2.0393638610839844,3.626953125,2,B2,6.1,180,0,4.262435854935188,[6800|1700|0|0]
17600,1.461319088935852,0.4979724586009979,0.07255606353282928,0.054189808666706085,-0.2928931713104248,1.4655447006225586,3.6484375,2,B2,6.1,180,0,4.275469171695391,[6800|1800|0|0]
17700,1.4686315059661865,0.5012869834899902,0.07881546765565872,-0.14046263694763184,0.17334216833114624,1.1291983127593994,3.6640625,2,B2,6.1,180,0,4.2856494299454635,[6800|1900|0|0]
17800,1.4688224792480469,0.49163809418678284,0.06904430687427521,-1.123639464378357,1.113416314125061,1.403650164604187,4.015625,2,B2,6.1,180,0,4.29938307908164,[6800|2000|0|0]
17900,1.4730448722839355,0.49585503339767456,0.03457491099834442,-7.770270347595215,3.3587753772735596,-1.117863655090332,4.0234375,2,B2,6.1,180,0,4.334365223545773,[6800|2100|0|0]
18000,1.4731991291046143,0.5026582479476929,-0.027144698426127434,-3.4732284545898438,-1.5848345756530762,-7.2034807205200195,4.0234375,2,B2,6.1,180,0,4.396458844078721,[6800|2200|0|0]
18100,1.4734810590744019,0.5026605725288391,-0.025620969012379646,-2.2666847705841064,-0.672800600528717,-8.64120864868164,4.0234375,2,B2,6.1,180,0,4.398008437973218,[6800|2300|0|0]
18200,1.4731253385543823,0.5031924843788147,-0.025973401963710785,-2.0431125164031982,-0.5456245541572571,-8.594934463500977,4.02734375,2,B2,6.1,180,0,4.398738969484989,[6800|2400|0|0]
18300,1.47306227684021,0.5038794875144958,-0.026117611676454544,-1.7539397478103638,-0.41731971502304077,-8.570208549499512,4.02734375,2,B2,6.1,180,0,4.399443771960495,[6800|2500|0|0]
18400,1.4729540348052979,0.5037803649902344,-0.026529064401984215,-1.4694150686264038,-0.3187394440174103,-8.554633140563965,4.02734375,2,B2,6.1,180,0,4.3998806185677655,[6800|2600|0|0]
18500,1.4729700088500977,0.5037656426429749,-0.02658168040215969,-1.2136509418487549,-0.23726998269557953,-8.518913269042969,4.03125,2,B2,6.1,180,0,4.399937542737417,[6800|2700|0|0]
18600,1.4731603860855103,0.5031997561454773,-0.02628619596362114,-0.9432460069656372,-0.1527014523744583,-8.487778663635254,4.03125,2,B2,6.1,180,0,4.400603712440445,[6800|2800|0|0]
18700,1.4728336334228516,0.5031528472900391,-0.025981517508625984,-0.7313817143440247,-0.07609299570322037,-8.4878568649292,4.03125,2,B2,6.1,180,0,4.401052930321001,[6800|2900|0|0]
18800,1.4728541374206543,0.5029478669166565,-0.02591794542968273,-0.5465289950370789,-0.05266106501221657,-8.476944923400879,4.03125,2,B2,6.1,180,0,4.401268519691377,[6800|3000|0|0]
18900,1.4728189706802368,0.5027259588241577,-0.02618812397122383,-0.3796864151954651,-0.0014704861678183079,-8.47819995880127,4.0390625,2,B2,6.1,180,0,4.401619911702467,[6800|3100|0|0]
19000,1.4728152751922607,0.5028253197669983,-0.026078689843416214,-0.24409453570842743,0.04121886566281319,-8.462482452392578,4.0390625,2,B2,6.1,180,0,4.401767770019522,[6800|3200|0|0]
19100,1.4729809761047363,0.5028138160705566,-0.025843199342489243,-0.2140497863292694,0.028156796470284462,-8.439897537231445,4.0390625,2,B2,6.1,180,0,4.402055945145885,[6800|3300|0|0]
19200,1.472915530204773,0.5025285482406616,-0.02589503675699234,-0.09725137799978256,0.07852412015199661,-8.42990779876709,4.04296875,2,B2,6.1,180,0,4.402353179091015,[6800|3400|0|0]
19300,1.4729423522949219,0.5024831295013428,-0.025974296033382416,0.006223150994628668,0.12736938893795013,-8.407733917236328,4.04296875,2,B2,6.1,180,0,4.402448385809764,[6800|3500|0|0]
19400,1.4729033708572388,0.5026979446411133,-0.025818439200520515,0.07348515093326569,0.16046836972236633,-8.41656494140625,4.04296875,2,B2,6.1,180,0,4.402716632802494,[6800|3600|0|0]
19500,1.4727774858474731,0.5020042061805725,-0.02531917206943035,0.15122036635875702,0.18689067661762238,-8.421531677246094,4.04296875,2,B2,6.1,180,0,4.4035805701587325,[6800|3700|0|0]
19600,1.4733247756958008,0.5017128586769104,-0.025673607364296913,0.19980044662952423,0.20295535027980804,-8.419732093811035,4.04296875,2,B2,6.1,180,0,4.404294736752896,[6800|3800|0|0]
19700,1.4728477001190186,0.5057075619697571,-0.024123089388012886,0.16939634084701538,0.19920915365219116,-8.347396850585938,4.04296875,2,B2,6.1,180,0,4.408606274935335,[6800|3900|0|0]
19800,1.475555181503296,0.5088196992874146,-0.01970669813454151,0.07315097004175186,-0.14283093810081482,-8.190690994262695,4.04296875,2,B2,6.1,180,0,4.414649483175491,[6800|4000|0|0]
19900,1.483205795288086,0.5164744853973389,-0.012863218784332275,-0.037289440631866455,-0.014355646446347237,-10.285163879394531,4.04296875,2,B2,6.1,180,0,4.427454203058779,[6800|4100|0|0]
20000,1.4788633584976196,0.5182971358299255,0.0005587353371083736,4.291416645050049,4.769320487976074,-11.777981758117676,4.046875,2,B2,6.1,180,0,4.441678395981987,[6800|4200|0|0]
20100,1.4424711465835571,0.5306560397148132,0.043832480907440186,13.463438034057617,-0.14589986205101013,-15.500896453857422,4.046875,2,B2,6.1,180,0,4.499555443668611,[6800|4300|0|0]
20200,1.3628257513046265,0.539078950881958,0.06488616019487381,9.69018840789795,-10.149663925170898,-12.36092472076416,4.046875,2,B2,6.1,180,0,4.582366021695846,[6800|4400|0|0]
20300,1.3277249336242676,0.5457691550254822,0.04714023321866989,8.269615173339844,-7.74376916885376,-11.243921279907227,4.046875,2,B2,6.1,180,0,4.6222626901978225,[6800|4500|0|0]
20400,1.3251841068267822,0.55999356508255,0.0349879190325737,1.4601138830184937,1.6226152181625366,-14.935056686401367,4.046875,2,B2,6.1,180,0,4.641143060489849,[6800|4600|0|0]
20500,1.3262733221054077,0.5732520818710327,0.042220525443553925,-1.1188390254974365,2.6177096366882324,-15.912158012390137,4.046875,2,B2,6.1,180,0,4.656285228526489,[6800|4700|0|0]
20600,1.3288642168045044,0.5827083587646484,0.04750863090157509,-3.642712116241455,-2.28214693069458,-16.323911666870117,4.046875,2,B2,6.1,180,0,4.667425155248226,[6800|4800|0|0]
20700,1.3177944421768188,0.5192067623138428,-0.009865567088127136,-2.8615810871124268,-2.0133955478668213,-19.75371551513672,4.046875,2,B2,6.1,180,0,4.753719948005787,[6800|4900|0|0]
20800,1.3147356510162354,0.5167014002799988,-0.012131448835134506,-2.864819288253784,-1.7079746723175049,-23.19745445251465,4.046875,2,B2,6.1,180,0,4.758277059193383,[6800|5000|0|0]
20900,1.3148186206817627,0.5170714855194092,-0.011902598664164543,-2.90236759185791,-1.7181196212768555,-21.58802032470703,4.0546875,2,B2,6.1,180,0,4.758720025840638,[6800|5100|0|0]
21000,1.3148207664489746,0.5168991684913635,-0.01167665608227253,-2.917292594909668,-1.744942307472229,-20.574949264526367,4.0546875,2,B2,6.1,180,0,4.759004187436888,[6800|5200|0|0]
21100,1.314685583114624,0.5171653628349304,-0.011682683601975441,-2.9471898078918457,-1.78359854221344,-19.904211044311523,4.0546875,2,B2,6.1,180,0,4.759302801390726,[6800|5300|0|0]
21200,1.3143938779830933,0.5175420641899109,-0.01207037828862667,-2.9308876991271973,-1.8052549362182617,-19.39798355102539,4.0546875,2,B2,6.1,180,0,4.759917051311087,[6800|5400|0|0]
21300,1.3144969940185547,0.5176424980163574,-0.011724630370736122,-2.910832405090332,-1.8343136310577393,-19.12528419494629,4.0546875,2,B2,6.1,180,0,4.760291566321453,[6800|5500|0|0]
21400,1.3150817155838013,0.5176369547843933,-0.010873244144022465,-2.8172805309295654,-1.9770512580871582,-18.849077224731445,4.1328125,2,B2,6.1,180,0,4.761324420882039,[6800|5600|0|0]
21500,1.3150455951690674,0.5170377492904663,-0.011792520061135292,-2.842839241027832,-2.1602182388305664,-18.654504776000977,4.1328125,2,B2,6.1,180,0,4.7624223371448275,[6800|5700|0|0]
21600,1.3161979913711548,0.5172178149223328,-0.011663843877613544,-2.9055447578430176,-2.167520761489868,-18.506784439086914,4.1328125,2,B2,6.1,180,0,4.7635957928101895,[6800|5800|0|0]
21700,1.3160995244979858,0.5170217156410217,-0.011817660182714462,-2.852872371673584,-2.169732093811035,-18.347515106201172,4.1328125,2,B2,6.1,180,0,4.763863766892812,[6800|5900|0|0]
21800,1.3198333978652954,0.5248680710792542,-0.0049681891687214375,-3.0304923057556152,-2.25974702835083,-18.161664962768555,4.1328125,2,B2,6.1,180,0,4.774928230601358,[6800|6000|0|0]
21900,1.3159993886947632,0.5170484781265259,-0.011774552054703236,-2.7687957286834717,-2.201467990875244,-18.057252883911133,4.13671875,2,B2,6.1,180,0,4.785981385626135,[6800|6100|0|0]
22000,1.3160566091537476,0.5172136425971985,-0.011989166028797626,-2.7715768814086914,-2.1757795810699463,-18.002534866333008,4.13671875,2,B2,6.1,180,0,4.786258175512467,[6800|6200|0|0]
22100,1.316171646118164,0.517507791519165,-0.011798887513577938,-2.7784924507141113,-2.169064521789551,-17.941452026367188,4.13671875,2,B2,6.1,180,0,4.786626907128728,[6800|6300|0|0]
22200,1.3163814544677734,0.517577588558197,-0.011474569328129292,-2.7989587783813477,-2.0924482345581055,-17.87684440612793,4.13671875,2,B2,6.1,180,0,4.787019429046124,[6800|6400|0|0]
22300,1.3161505460739136,0.5177028179168701,-0.011347788386046886,-2.7744710445404053,-2.08890438079834,-17.779306411743164,4.13671875,2,B2,6.1,180,0,4.787311104355164,[6800|6500|0|0]
22400,1.3162004947662354,0.5176663398742676,-0.011747483164072037,-2.7674012184143066,-2.0951790809631348,-17.73786163330078,4.13671875,2,B2,6.1,180,0,4.787715556373378,[6800|6600|0|0]
22500,1.3161965608596802,0.5176126956939697,-0.011746176518499851,-2.7504358291625977,-2.091201066970825,-17.712818145751953,4.14453125,2,B2,6.1,180,0,4.787769360471951,[6800|6700|0|0]
22600,1.3161343336105347,0.5177243947982788,-0.01166729535907507,-2.7538130283355713,-2.0890746116638184,-17.68162727355957,4.14453125,2,B2,6.1,180,0,4.787919597477218,[6800|6800|0|0]
22700,1.3160104751586914,0.5174394249916077,-0.011384661309421062,-2.7399275302886963,-2.097721576690674,-17.645740509033203,4.14453125,2,B2,6.1,180,0,4.788339634038521,[6800|6900|0|0]
22800,1.3159948587417603,0.5176010727882385,-0.011489758267998695,-2.716308355331421,-2.0880188941955566,-17.621559143066406,4.14453125,2,B2,6.1,180,0,4.788533074606488,[6800|7000|0|0]
22900,1.3154475688934326,0.5178481936454773,-0.0117521146312356,-2.6813559532165527,-2.0494258403778076,-17.64838981628418,4.14453125,2,B2,6.1,180,0,4.7891883804568325,[6800|7100|0|0]
23000,1.3154164552688599,0.5178278088569641,-0.01211205031722784,-2.667736530303955,-2.034259796142578,-17.67852020263672,4.14453125,2,B2,6.1,180,0,4.7895502330446185,[6800|7200|0|0]
23100,1.3162530660629272,0.5174319744110107,-0.011702439747750759,-2.650529623031616,-2.0400710105895996,-17.709218978881836,4.14453125,2,B2,6.1,180,0,4.790562351292642,[6800|7300|0|0]
23200,1.3161683082580566,0.5173697471618652,-0.011753964237868786,-2.6328206062316895,-2.026756763458252,-17.71021842956543,4.14453125,2,B2,6.1,180,0,4.790679444798459,[6800|7400|0|0]
23300,1.3161016702651978,0.5175345540046692,-0.011803797446191311,-2.6295816898345947,-2.020761489868164,-17.69698715209961,4.14453125,2,B2,6.1,180,0,4.790864066753218,[6800|7500|0|0]
23400,1.3162550926208496,0.517314612865448,-0.011565438471734524,-2.6243605613708496,-2.0300538539886475,-17.69265365600586,4.1484375,2,B2,6.1,180,0,4.791222852935561,[6800|7600|0|0]
23500,1.3162931203842163,0.5176661610603333,-0.011614271439611912,-2.739251136779785,-2.064751386642456,-17.699020385742188,4.1484375,2,B2,6.1,180,0,4.79157980797876,[6800|7700|0|0]
23600,1.3163715600967407,0.5175155997276306,-0.011537863872945309,-2.709879159927368,-2.0498971939086914,-17.718013763427734,4.1484375,2,B2,6.1,180,0,4.791765978920773,[6800|7800|0|0]
23700,1.316324234008789,0.5174791216850281,-0.011664318852126598,-2.6920061111450195,-2.040074586868286,-17.727266311645508,4.1484375,2,B2,6.1,180,0,4.791905840523626,[6800|7900|0|0]
23800,1.3161897659301758,0.5174400806427002,-0.011676323600113392,-2.677373170852661,-2.03031849861145,-17.74620819091797,4.1484375,2,B2,6.1,180,0,4.7920463751497016,[6800|8000|0|0]
23900,1.3162875175476074,0.5176420211791992,-0.011583537794649601,-2.6682662963867188,-2.027815580368042,-17.747745513916016,4.1484375,2,B2,6.1,180,0,4.79228916016713,[6800|8100|0|0]
24000,1.3162078857421875,0.5173621773719788,-0.011386429890990257,-2.6604502201080322,-2.028388023376465,-17.74883270263672,4.1484375,2,B2,6.1,180,0,4.79264059338491,[6800|8200|0|0]
24100,1.316150426864624,0.5176300406455994,-0.01171441562473774,-2.6660852432250977,-2.0222842693328857,-17.761415481567383,4.1484375,2,B2,6.1,180,0,4.7930679420686655,[6800|8300|0|0]
24200,1.3164334297180176,0.5175760984420776,-0.01169015746563673,-2.66402268409729,-2.0269267559051514,-17.75293731689453,4.1484375,2,B2,6.1,180,0,4.7933570594058015,[6800|8400|0|0]
24300,1.316195011138916,0.5175709128379822,-0.011719219386577606,-2.6543455123901367,-2.025470733642578,-17.734140396118164,4.15234375,2,B2,6.1,180,0,4.793597298671117,[6800|8500|0|0]
24400,1.315682291984558,0.5174683928489685,-0.011616882868111134,-2.72489070892334,-2.0322766304016113,-17.746028900146484,4.15234375,2,B2,6.1,180,0,4.794130087599686,[6800|8600|0|0]
24500,1.3157843351364136,0.5174078941345215,-0.011239862069487572,-2.697324275970459,-2.032895803451538,-17.74623680114746,4.15234375,2,B2,6.1,180,0,4.794525331299047,[6800|8700|0|0]
24600,1.316372036933899,0.5175632238388062,-0.011726254597306252,-2.673839569091797,-2.026761293411255,-17.755281448364258,4.15234375,2,B2,6.1,180,0,4.795303854523439,[6800|8800|0|0]
24700,1.3160622119903564,0.5175321698188782,-0.011880427598953247,-2.650631904602051,-2.0047450065612793,-17.759679794311523,4.15234375,2,B2,6.1,180,0,4.795651309789958,[6800|8900|0|0]
24800,1.3162975311279297,0.5173253417015076,-0.011689542792737484,-2.630603790283203,-2.0051445960998535,-17.75143814086914,4.15234375,2,B2,6.1,180,0,4.796018174854916,[6800|9000|0|0]
24900,1.3162633180618286,0.5172196626663208,-0.011605807580053806,-2.6168882846832275,-2.000566244125366,-17.767349243164062,4.15234375,2,B2,6.1,180,0,4.796157279772921,[6800|9100|0|0]
25000,1.3161619901657104,0.517332911491394,-0.011714923195540905,-2.610564708709717,-1.9978464841842651,-17.761140823364258,4.15234375,2,B2,6.1,180,0,4.796344359585984,[6800|9200|0|0]
25100,1.3162164688110352,0.5176446437835693,-0.012145308777689934,-2.6109721660614014,-1.9985435009002686,-17.757278442382812,4.15234375,2,B2,6.1,180,0,4.796878566188435,[6800|9300|0|0]
25200,1.3160769939422607,0.5177655220031738,-0.011972764506936073,-2.604579448699951,-2.0014307498931885,-17.76913833618164,4.15234375,2,B2,6.1,180,0,4.797131224670114,[6800|9400|0|0]
25300,1.3164819478988647,0.5172799825668335,-0.011356161907315254,-2.7026255130767822,-2.061326026916504,-17.755657196044922,4.15234375,2,B2,6.1,180,0,4.798014363966641,[6800|9500|0|0]
25400,1.3163310289382935,0.5175299644470215,-0.011909382417798042,-2.687227487564087,-2.0437514781951904,-17.750165939331055,4.15234375,2,B2,6.1,180,0,4.798639920044304,[6800|9600|0|0]
25500,1.3160295486450195,0.5174782872200012,-0.011692223139107227,-2.6708664894104004,-2.0313720703125,-17.748153686523438,4.16015625,2,B2,6.1,180,0,4.799015045430471,[6800|9700|0|0]
25600,1.3162665367126465,0.5174458622932434,-0.01164245419204235,-2.660217523574829,-2.0370032787323,-17.737497329711914,4.16015625,2,B2,6.1,180,0,4.799259364214367,[6800|9800|0|0]
25700,1.3162086009979248,0.517219066619873,-0.011441245675086975,-2.65183687210083,-2.031426191329956,-17.74919891357422,4.16015625,2,B2,6.1,180,0,4.799568035061379,[6800|9900|0|0]
25800,1.316260576248169,0.5176756978034973,-0.011662965640425682,-2.6584227085113525,-2.0254013538360596,-17.760629653930664,4.16015625,2,B2,6.1,180,0,4.8000783028415945,[6800|10000|0|0]
25900,1.3161814212799072,0.5175707340240479,-0.01157611608505249,-2.6494758129119873,-2.032711982727051,-17.861522674560547,3.2890625,2,C1,6.1,180,0,4.800235864731865,[6800|10000|0|0]
26000,1.3168545961380005,0.5187733173370361,-0.011354353278875351,-1.8731067180633545,-2.0522425174713135,-17.2674560546875,3.48828125,2,C1,6.1,180,0,4.80163176936917,[6800|10000|0|0]
26100,1.3203752040863037,0.5190520286560059,0.0032805176451802254,2.2766032218933105,-2.5070629119873047,-16.69423484802246,3.611328125,2,C1,6.1,180,0,4.816686728927028,[6800|10000|0|0]
26200,1.3272465467453003,0.5193893313407898,0.04245857149362564,-2.805781602859497,-4.698026180267334,-15.1350679397583,3.6796875,2,C1,6.1,180,0,4.856464222895228,[6800|10000|0|0]
26300,1.3460685014724731,0.5282681584358215,0.09453701227903366,-0.5969099402427673,-3.266733407974243,-12.311259269714355,3.62109375,2,C1,6.1,180,0,4.9125468721280745,[6800|10000|0|0]
26400,1.3752772808074951,0.5431957244873047,0.15661628544330597,4.961989879608154,4.445162296295166,-8.392088890075684,3.642578125,2,C1,6.1,180,0,4.982759557414052,[6800|10000|0|0]
26500,1.4001538753509521,0.5566703081130981,0.22917304933071136,8.541523933410645,7.136911392211914,-4.72517204284668,3.65234375,2,C1,6.1,180,0,5.060636982549844,[6800|10000|0|0]
26600,1.4120347499847412,0.5602819919586182,0.30995509028434753,8.008166313171387,8.203695297241211,-1.4587538242340088,3.6640625,2,C1,6.1,180,0,5.1423678676722915,[6800|10000|0|0]
26700,1.4103068113327026,0.551405668258667,0.39660248160362244,5.326723098754883,6.295538425445557,1.045444369316101,3.673828125,2,C1,6.1,180,0,5.229485864187633,[6800|10000|0|0]
26800,1.3931339979171753,0.5371205806732178,0.49076446890830994,3.204026222229004,3.3054704666137695,2.2455384731292725,3.66796875,2,C1,6.1,180,0,5.326261114645054,[6800|10000|0|0]
26900,1.3757907152175903,0.5164685249328613,0.5820646286010742,0.653344452381134,-0.19814381003379822,2.5091092586517334,3.68359375,2,C1,6.1,180,0,5.4214609887049745,[6800|10000|0|0]
27000,1.3614336252212524,0.49917665123939514,0.6643721461296082,-0.5475850105285645,-2.3434319496154785,2.7045509815216064,3.7265625,2,C1,6.1,180,0,5.5067819261746465,[6800|10000|0|0]
27100,1.3494242429733276,0.48151764273643494,0.7509157061576843,-1.923365592956543,-3.341972827911377,2.395982265472412,3.748046875,2,C1,6.1,180,0,5.595921443929779,[6800|10000|0|0]
27200,1.3435981273651123,0.46868208050727844,0.8257940411567688,-2.2287960052490234,-3.2422194480895996,2.750645875930786,3.748046875,2,C1,6.1,180,0,5.67211501539781,[6800|10000|0|0]
27300,1.3446086645126343,0.455750972032547,0.8890384435653687,-1.1703834533691406,-2.6343061923980713,3.2792844772338867,3.7421875,2,C1,6.1,180,0,5.736675755695089,[6800|10000|0|0]
27400,1.3467587232589722,0.44949471950531006,0.9336773157119751,-1.408009648323059,-0.9906838536262512,4.253774642944336,3.720703125,2,C1,6.1,180,0,5.781802159881755,[6800|10000|0|0]
27500,1.3509650230407715,0.44687801599502563,0.9673588275909424,-0.9562061429023743,-0.3440517783164978,3.0985026359558105,3.7109375,2,C1,6.1,180,0,5.815846018910486,[6800|10000|0|0]
27600,1.3539351224899292,0.4419000446796417,0.9898821711540222,-1.0049113035202026,0.5370965600013733,2.4416844844818115,3.705078125,2,C1,6.1,180,0,5.8391033337687235,[6800|10000|0|0]
27700,1.3567801713943481,0.4386761486530304,1.0072963237762451,-0.4785163104534149,0.9291427135467529,2.008955478668213,3.6953125,2,C1,6.1,180,0,5.857040460640355,[6800|10000|0|0]
27800,1.358305811882019,0.4362833499908447,1.0209237337112427,-0.6600319147109985,1.0527799129486084,1.7462284564971924,3.689453125,2,C1,6.1,180,0,5.870960207975412,[6800|10000|0|0]
27900,1.3571215867996216,0.4333605468273163,1.0291789770126343,-0.8663179278373718,0.781484842300415,1.773112177848816,3.689453125,2,C1,6.1,180,0,5.879797300786042,[6800|10000|0|0]
28000,1.353968620300293,0.43010708689689636,1.0337393283843994,-0.777396023273468,0.8456048369407654,1.7580437660217285,3.6796875,2,C1,6.1,180,0,5.886225597908819,[6800|10000|0|0]
28100,1.3489958047866821,0.42768731713294983,1.0366270542144775,-0.9098644852638245,0.21565045416355133,1.5810797214508057,3.673828125,2,C1,6.1,180,0,5.892464439172437,[6800|10000|0|0]
28200,1.3444021940231323,0.4267062842845917,1.0386234521865845,-1.0379040241241455,-0.4003801941871643,1.3890962600708008,3.673828125,2,C1,6.1,180,0,5.897568289695286,[6800|10000|0|0]
28300,1.3403149843215942,0.4259359836578369,1.0407118797302246,-1.1335512399673462,-1.0783954858779907,1.1065391302108765,3.66796875,2,C1,6.1,180,0,5.902222339093924,[6800|10000|0|0]
28400,1.3384015560150146,0.4259890913963318,1.040220856666565,-0.9570963382720947,-1.39414644241333,0.9644200801849365,3.66796875,2,C1,6.1,180,0,5.904198479768409,[6800|10000|0|0]
28500,1.3398089408874512,0.4289311468601227,1.0412383079528809,-0.7877058386802673,-1.0914270877838135,1.048735499382019,3.6640625,2,C1,6.1,180,0,5.907614856453028,[6800|10000|0|0]
28600,1.3419725894927979,0.4320778548717499,1.0404188632965088,-0.4567519724369049,-0.5533630847930908,1.0339537858963013,3.658203125,2,C1,6.1,180,0,5.911520574843122,[6800|10000|0|0]
28700,1.3460599184036255,0.43471667170524597,1.0398271083831787,-0.21843373775482178,0.07890288531780243,0.8538578748703003,3.65234375,2,C1,6.1,180,0,5.916421573290732,[6800|10000|0|0]
28801,1.3504756689071655,0.4370122253894806,1.039299726486206,-0.10597240179777145,0.38335320353507996,0.6159672737121582,3.6484375,2,C1,6.1,180,0,5.921426226214959,[6800|10000|0|0]
28900,1.3552671670913696,0.43817830085754395,1.0378384590148926,0.21071502566337585,0.785211443901062,0.8276722431182861,3.435546875,2,C1,6.1,180,273.48932490579637,5.926569521799423,[6800|10000|0|0]
29000,1.3586593866348267,0.4387926757335663,1.0443522930145264,5.88171911239624,3.5589640140533447,0.6447756886482239,3.330078125,2,C1,6.1,180,273.48932490579637,5.9339393686970245,[6800|10000|0|0]
29101,1.3539793491363525,0.4236852824687958,1.0718084573745728,14.220026016235352,8.1801176071167,-0.06634107977151871,3.453125,2,C1,6.1,180,273.48932490579637,5.965624965481832,[6800|10000|0|0]
29201,1.3359166383743286,0.3785404860973358,1.1225745677947998,16.95865249633789,4.726840496063232,3.381936550140381,3.447265625,2,C1,6.1,180,273.48932490579637,6.0359208553097,[6800|10000|0|0]
29301,1.3132123947143555,0.29869192838668823,1.1942099332809448,13.146647453308105,-0.4430471360683441,10.837204933166504,3.541015625,2,C1,6.1,180,273.48932490579637,6.145569842705735,[6800|10000|0|0]
29402,1.2958077192306519,0.2005593329668045,1.2802025079727173,7.309752464294434,-4.488801956176758,6.842292308807373,3.521484375,2,C1,6.1,180,273.48932490579637,6.277204381921913,[6800|10000|0|0]
29501,1.2961934804916382,0.08347451686859131,1.3728110790252686,3.867000102996826,-4.935717582702637,13.748931884765625,3.552734375,2,C1,6.1,180,273.48932490579637,6.426487168621848,[6800|10000|0|0]
29601,1.3001798391342163,-0.021893713623285294,1.447418212890625,-3.9496002197265625,-2.5779342651367188,13.980737686157227,3.546875,2,C1,6.1,180,273.48932490579637,6.555655970876184,[6800|10000|0|0]
29702,1.3094186782836914,-0.11856243759393692,1.5080230236053467,-8.302095413208008,-1.0860852003097534,11.892542839050293,3.568359375,2,C1,6.1,180,273.48932490579637,6.670124924853719,[6800|10000|0|0]
29802,1.32595694065094,-0.2029111683368683,1.5528103113174438,-10.50886058807373,2.7377803325653076,2.7816903591156006,3.546875,2,C1,6.1,180,273.48932490579637,6.767048212255033,[6800|10000|0|0]
29901,1.3473851680755615,-0.26799556612968445,1.5821219682693481,-11.0383939743042,4.297084808349609,-1.9379198551177979,3.505859375,2,C1,6.1,180,273.48932490579637,6.841575529393657,[6800|10000|0|0]
30001,1.3685877323150635,-0.313419908285141,1.5976706743240356,-10.582871437072754,5.7755537033081055,-3.3210878372192383,3.484375,2,C1,6.1,180,273.48932490579637,6.894060592512236,[6800|10000|0|0]
30102,1.3903203010559082,-0.34028321504592896,1.603286862373352,-8.39837646484375,6.504213809967041,-3.5758402347564697,3.47265625,2,C1,6.1,180,273.48932490579637,6.929067497008421,[6800|10000|0|0]
30202,1.4086002111434937,-0.3515116572380066,1.6039093732833862,-5.659648418426514,7.007284641265869,-3.1819067001342773,3.46875,2,C1,6.1,180,273.48932490579637,6.950529569291967,[6800|10000|0|0]
30300,1.4201308488845825,-0.35243722796440125,1.6028248071670532,-2.941032648086548,7.1216888427734375,-2.0810203552246094,3.462890625,2,C1,6.1,180,273.48932490579637,6.962148027517845,[6800|10000|0|0]
30402,1.4241957664489746,-0.3492569625377655,1.6029877662658691,-0.6267433166503906,6.257560729980469,-1.292546272277832,3.478515625,2,C1,6.1,180,273.48932490579637,6.967311766343255,[6800|10000|0|0]
30502,1.4206231832504272,-0.3431285321712494,1.6037086248397827,1.0195895433425903,5.498658657073975,-1.1400518417358398,3.484375,2,C1,6.1,180,273.48932490579637,6.974442029069927,[6800|10000|0|0]
30602,1.4110593795776367,-0.33854976296424866,1.6066526174545288,1.6082042455673218,4.203863143920898,-0.9373125433921814,3.494140625,2,C1,6.1,180,273.48932490579637,6.98544650818792,[6800|10000|0|0]
30700,1.3929752111434937,-0.34017670154571533,1.6048651933670044,1.5985190868377686,2.396777391433716,-0.744449257850647,3.48828125,2,C1,6.1,180,273.48932490579637,7.003691479055832,[6800|10000|0|0]
30800,1.372125267982483,-0.3436269462108612,1.6046725511550903,1.468591570854187,1.1892584562301636,-0.7198347449302673,3.494140625,2,C1,6.1,180,273.48932490579637,7.024825845123651,[6800|10000|0|0]
30900,1.35377836227417,-0.3477078080177307,1.6069709062576294,0.15123894810676575,-0.4996729791164398,-0.41852208971977234,3.478515625,2,C1,6.1,180,273.48932490579637,7.043761124850496,[6800|10000|0|0]
31000,1.3348160982131958,-0.35255593061447144,1.6058262586593628,-0.3220062255859375,-1.220475673675537,-0.3130815327167511,3.478515625,2,C1,6.1,180,273.48932490579637,7.063366786511235,[6800|10000|0|0]
31100,1.32380211353302,-0.3560003638267517,1.6111831665039062,-0.7016697525978088,-2.1732466220855713,-0.5280666351318359,3.494140625,2,C1,6.1,180,273.48932490579637,7.076089539371522,[6800|10000|0|0]
31200,1.3111777305603027,-0.3583202064037323,1.608999490737915,-0.595343828201294,-1.581620454788208,-0.3581211268901825,3.48828125,2,C1,6.1,180,273.48932490579637,7.08910972196912,[6800|10000|0|0]
31300,1.305579662322998,-0.35876789689064026,1.6100248098373413,-0.4925138056278229,-1.5572293996810913,-0.6977375149726868,3.48828125,2,C1,6.1,180,273.48932490579637,7.0948184936423635,[6800|10000|0|0]
31400,1.2999695539474487,-0.36008045077323914,1.6058465242385864,-0.020874345675110817,-1.1869478225708008,-0.7764933109283447,3.478515625,2,C1,6.1,180,273.48932490579637,7.101935668940534,[6800|10000|0|0]
31500,1.2974284887313843,-0.3613400161266327,1.6013120412826538,0.12726518511772156,-0.5837599039077759,-0.6678423881530762,3.48828125,2,C1,6.1,180,273.48932490579637,7.107284038130241,[6800|10000|0|0]
31600,1.2968814373016357,-0.3636927604675293,1.5978379249572754,0.20720089972019196,-0.4385705590248108,-0.8895150423049927,3.48828125,2,C1,6.1,180,273.48932490579637,7.111515368351657,[6800|10000|0|0]
31700,1.2998746633529663,-0.3642686903476715,1.5982764959335327,-0.2733612656593323,-0.1773376166820526,-1.0331697463989258,3.5,2,C1,6.1,180,273.48932490579637,7.114594888106818,[6800|10000|0|0]
31800,1.2976739406585693,-0.3668706715106964,1.5926517248153687,-0.33649778366088867,0.3046134412288666,-0.7009535431861877,3.505859375,2,C1,6.1,180,273.48932490579637,7.121171478141334,[6800|10000|0|0]
31900,1.2991007566452026,-0.36773550510406494,1.5920536518096924,-0.6353465914726257,0.04233912006020546,-0.4921188950538635,3.494140625,2,C1,6.1,180,0,7.122943886763534,[6800|10000|0|0]
32000,1.2974982261657715,-0.3713305592536926,1.5803003311157227,-0.34896472096443176,0.08808831870555878,-0.342121422290802,3.84375,2,C1,6.1,180,0,7.135338767384644,[6800|10000|0|0]
32100,1.2992193698883057,-0.3717314302921295,1.5368614196777344,-0.44711509346961975,0.04645562171936035,-0.7697792053222656,3.736328125,2,C1,6.1,180,0,7.178813611377699,[6800|10000|0|0]
