time.ms,stateEstimate.x,stateEstimate.y,stateEstimate.z,stabilizer.roll,stabilizer.pitch,stabilizer.yaw,pm.vbat,drone_id,node_name,wind_speed,global_wind_direction,relative_wind_direction,travel_dist,waiting_time
0,0.0038610994815826416,0.5166884064674377,-0.030148684978485107,-0.45861101150512695,-0.09844820946455002,1.5406147241592407,4.12109375,1,J1,6.1,180,0,0.3975074467632634,[100|0|0|0]
100,0.003945362288504839,0.5167426466941833,-0.029935214668512344,-0.46424728631973267,-0.11202379316091537,1.5307666063308716,4.12109375,1,J1,6.1,180,0,0.3977432682976229,[200|0|0|0]
200,0.0036683017387986183,0.5166773200035095,-0.0300307460129261,-0.4670361578464508,-0.10080628097057343,1.5319159030914307,4.12109375,1,J1,6.1,180,0,0.3980435287886693,[300|0|0|0]
300,0.003797692246735096,0.5165678262710571,-0.029914550483226776,-0.4643785059452057,-0.10825345665216446,1.5242289304733276,4.12109375,1,J1,6.1,180,0,0.3982490334896192,[400|0|0|0]
400,0.00379956909455359,0.5164404511451721,-0.029755370691418648,-0.45420220494270325,-0.10720427334308624,1.530456781387329,4.12109375,1,J1,6.1,180,0,0.39845291127500065,[500|0|0|0]
500,0.003985824529081583,0.5163344740867615,-0.029704933986067772,-0.45219483971595764,-0.10876476764678955,1.516508936882019,4.12109375,1,J1,6.1,180,0,0.39867306141705655,[600|0|0|0]
600,0.003835952840745449,0.516502320766449,-0.030216945335268974,-0.45662716031074524,-0.09909151494503021,1.5206469297409058,4.12109375,1,J1,6.1,180,0,0.3992323374245499,[700|0|0|0]
700,0.0037961965426802635,0.5164673328399658,-0.029926210641860962,-0.4564066529273987,-0.09394726157188416,1.5151922702789307,4.12109375,1,J1,6.1,180,0,0.39952785625675263,[800|0|0|0]
800,0.004109729081392288,0.516582190990448,-0.03020647168159485,-0.46186232566833496,-0.10984663665294647,1.5002868175506592,4.12109375,1,J1,6.1,180,0,0.39996379352053735,[900|0|0|0]
900,0.003774699056521058,0.5163864493370056,-0.03018219955265522,-0.46058252453804016,-0.09568556398153305,1.5199474096298218,4.12109375,1,J1,6.1,180,0,0.4003525724406203,[1000|0|0|0]
1000,0.003862619400024414,0.5164437890052795,-0.030138330534100533,-0.4625887870788574,-0.0991348847746849,1.5244075059890747,4.12109375,1,J1,6.1,180,0,0.40046633673707777,[1100|0|0|0]
1100,0.0037884237244725227,0.516426146030426,-0.030200280249118805,-0.46005958318710327,-0.09615112096071243,1.5109976530075073,4.12109375,1,J1,6.1,180,0,0.40056459171162423,[1200|0|0|0]
1200,0.003938734531402588,0.5167776942253113,-0.029998203739523888,-0.46514424681663513,-0.10104815661907196,1.5106723308563232,4.12109375,1,J1,6.1,180,0,0.4009970433132366,[1300|0|0|0]
1300,0.003803761675953865,0.5164807438850403,-0.029878690838813782,-0.45733407139778137,-0.09701912105083466,1.527004361152649,4.12109375,1,J1,6.1,180,0,0.40134443431733885,[1400|0|0|0]
1400,0.0038252177182585,0.5164319276809692,-0.029917346313595772,-0.44816645979881287,-0.10671596229076385,1.5314027070999146,4.12109375,1,J1,6.1,180,0,0.4014102949980361,[1500|0|0|0]
1500,0.0038198477122932673,0.516272783279419,-0.03013119474053383,-0.43891075253486633,-0.10933046787977219,1.5478876829147339,4.12109375,1,J1,6.1,180,0,0.4016769163160374,[1600|0|0|0]
1600,0.003998823929578066,0.5165597796440125,-0.029976585879921913,-0.44737228751182556,-0.12128599733114243,1.5417083501815796,4.12109375,1,J1,6.1,180,0,0.4020488078317018,[1700|0|0|0]
1700,0.00402627419680357,0.5164093375205994,-0.030079761520028114,-0.44321346282958984,-0.1240902841091156,1.5320827960968018,4.12109375,1,J1,6.1,180,0,0.4022332842865114,[1800|0|0|0]
1800,0.00404098117724061,0.5166303515434265,-0.030090199783444405,-0.45424917340278625,-0.12413035333156586,1.5357692241668701,4.12109375,1,J1,6.1,180,0,0.40245503290748336,[1900|0|0|0]
1900,0.004089175257831812,0.5166034698486328,-0.029936769977211952,-0.45689475536346436,-0.11506661772727966,1.5465599298477173,4.12109375,1,J1,6.1,180,0,0.4026180850474863,[2000|0|0|0]
2000,0.0038103624247014523,0.5165000557899475,-0.0300349909812212,-0.45029327273368835,-0.10821083933115005,1.5498502254486084,4.12109375,1,J1,6.1,180,0,0.4029312598055377,[2100|0|0|0]
2100,0.003952001221477985,0.5164541602134705,-0.02976214326918125,-0.4355291724205017,-0.09148052334785461,1.5438700914382935,4.12109375,1,J1,6.1,180,0,0.4032420874533715,[2200|0|0|0]
2200,0.004065510351210833,0.5167860984802246,-0.03003225289285183,-0.4368172883987427,-0.09091184288263321,1.5457158088684082,4.12109375,1,J1,6.1,180,0,0.4036848363034749,[2300|0|0|0]
2300,0.003909245599061251,0.5163373947143555,-0.030193835496902466,-0.4219074249267578,-0.08057019114494324,1.5518460273742676,4.12109375,1,J1,6.1,180,0,0.40418669552696423,[2400|0|0|0]
2400,0.00427356967702508,0.5161634683609009,-0.030338753014802933,-0.4165011942386627,-0.08887773007154465,1.5422334671020508,4.12109375,1,J1,6.1,180,0,0.40461562850215343,[2500|0|0|0]
2500,0.005909982603043318,0.5196802616119385,-0.029161037877202034,-0.507282555103302,-0.15458427369594574,1.608687400817871,4.12109375,1,J1,6.1,180,0,0.40866935456348485,[2600|0|0|0]
2600,0.007322080433368683,0.5159103274345398,-0.02982238121330738,-0.0005590819055214524,-0.002269939286634326,0.5229796171188354,4.12109375,1,J1,6.1,180,0,0.41274903580011835,[2700|0|0|0]
2700,0.0058608390390872955,0.5197857022285461,-0.02914683148264885,-0.13741382956504822,0.0023507773876190186,1.2645885944366455,4.12109375,1,J1,6.1,180,0,0.4169454775839364,[2800|0|0|0]
2800,0.005620679818093777,0.5196524262428284,-0.029144521802663803,-0.20103853940963745,0.01774091087281704,1.40830397605896,4.12109375,1,J1,6.1,180,0,0.41722014879542185,[2900|0|0|0]
2900,0.005740493070334196,0.5198025107383728,-0.028814241290092468,-0.30564185976982117,-0.0302167646586895,1.4793353080749512,4.12109375,1,J1,6.1,180,0,0.41760220348810295,[3000|0|0|0]
3000,0.005638458300381899,0.5192607641220093,-0.02920018509030342,-0.3449520170688629,-0.04451204836368561,1.5080186128616333,4.12109375,1,J1,6.1,180,0,0.41827514710204233,[3100|0|0|0]
3100,0.005597274750471115,0.5193728804588318,-0.029104091227054596,-0.3991187512874603,-0.06286996603012085,1.5252312421798706,4.12109375,1,J1,6.1,180,0,0.4184284448134402,[3200|0|0|0]
3200,0.005586464423686266,0.5198971629142761,-0.028965434059500694,-0.4559757113456726,-0.08672990649938583,1.5442750453948975,4.12109375,1,J1,6.1,180,0,0.41897086049017346,[3300|0|0|0]
3300,0.0055419448763132095,0.5194988250732422,-0.028969794511795044,-0.44826775789260864,-0.09739495068788528,1.5681649446487427,4.12109375,1,J1,6.1,180,0,0.41937170215372915,[3400|0|0|0]
3400,0.005598533432930708,0.5197498202323914,-0.028801757842302322,-0.4655543565750122,-0.11658766865730286,1.56428861618042,4.12109375,1,J1,6.1,180,0,0.4196790084454815,[3500|0|0|0]
3500,0.005691343918442726,0.5199326276779175,-0.028906820341944695,-0.4716552793979645,-0.12056160718202591,1.5658600330352783,4.12109375,1,J1,6.1,180,0,0.4199093787499738,[3600|0|0|0]
3600,0.005767029244452715,0.5197239518165588,-0.028879439458251,-0.4685766100883484,-0.1256394386291504,1.5561165809631348,4.12109375,1,J1,6.1,180,0,0.42013303830483084,[3700|0|0|0]
3700,0.005851869937032461,0.5195091962814331,-0.028776906430721283,-0.4659889340400696,-0.13444480299949646,1.5568346977233887,4.12109375,1,J1,6.1,180,0,0.4203856860927075,[3800|0|0|0]
3801,0.005609540268778801,0.51949143409729,-0.029199371114373207,-0.4735827147960663,-0.13375988602638245,1.567192554473877,4.12109375,1,J1,6.1,180,0,0.4208730417864616,[3900|0|0|0]
3901,0.005513096693903208,0.5195643305778503,-0.028801310807466507,-0.4783473610877991,-0.13337436318397522,1.5508348941802979,4.12109375,1,J1,6.1,180,0,0.4212890553294473,[4000|0|0|0]
4001,0.005876095965504646,0.519295871257782,-0.029306676238775253,-0.47542643547058105,-0.14460091292858124,1.546820044517517,4.12109375,1,J1,6.1,180,0,0.4219667227234369,[4100|0|0|0]
4101,0.005804353393614292,0.5198891162872314,-0.028954438865184784,-0.49097463488578796,-0.14805996417999268,1.556510090827942,4.12109375,1,J1,6.1,180,0,0.4226603781342439,[4200|0|0|0]
4202,0.005670905578881502,0.5196642875671387,-0.028620462864637375,-0.484281450510025,-0.14418698847293854,1.5648572444915771,4.12109375,1,J1,6.1,180,0,0.423084519904855,[4300|0|0|0]
4302,0.005583429243415594,0.5199027061462402,-0.02898682840168476,-0.49313050508499146,-0.14609885215759277,1.566313624382019,4.12109375,1,J1,6.1,180,0,0.42353029926155894,[4400|0|0|0]
4402,0.005837474949657917,0.5198468565940857,-0.02898871898651123,-0.4904400110244751,-0.1558535248041153,1.5742005109786987,4.12109375,1,J1,6.1,180,0,0.4237904184028135,[4500|0|0|0]
4502,0.005862622521817684,0.5195228457450867,-0.029087446630001068,-0.485690712928772,-0.15109871327877045,1.5940459966659546,4.12109375,1,J1,6.1,180,0,0.42413006907371475,[4600|0|0|0]
4602,0.0056211375631392,0.5197227597236633,-0.029152540490031242,-0.49848952889442444,-0.14726775884628296,1.603715419769287,4.12109375,1,J1,6.1,180,0,0.42445025307505135,[4700|0|0|0]
4702,0.005879499949514866,0.5196248888969421,-0.02894735336303711,-0.4973818063735962,-0.1517176628112793,1.5955404043197632,4.12109375,1,J1,6.1,180,0,0.42479439196925095,[4800|0|0|0]
4802,0.00540640065446496,0.5198375582695007,-0.028986411169171333,-0.5087528824806213,-0.13861852884292603,1.580504059791565,4.12109375,1,J1,6.1,180,0,0.4253145618619026,[4900|0|0|0]
4902,0.00592404929921031,0.5198013186454773,-0.02902238443493843,-0.507014274597168,-0.15749973058700562,1.6101068258285522,4.12109375,1,J1,6.1,180,0,0.4258347229000494,[5000|0|0|0]
5002,0.0057436139322817326,0.5196473598480225,-0.02881704829633236,-0.5012715458869934,-0.14968781173229218,1.6133347749710083,4.12109375,1,J1,6.1,180,0,0.4261484475608111,[5100|0|0|0]
5102,0.0055904025211930275,0.5195478200912476,-0.028941089287400246,-0.4991675913333893,-0.1479099541902542,1.6051243543624878,4.12109375,1,J1,6.1,180,0,0.42636928249267586,[5200|0|0|0]
5202,0.006166997365653515,0.5195652842521667,-0.029126832261681557,-0.499552845954895,-0.1636512726545334,1.5842645168304443,4.12109375,1,J1,6.1,180,0,0.4269753081225546,[5300|0|0|0]
5302,0.006093426141887903,0.519669771194458,-0.0293625108897686,-0.5040733814239502,-0.1654280424118042,1.5870461463928223,4.12109375,1,J1,6.1,180,0,0.4272434026242004,[5400|0|0|0]
5400,0.005709666758775711,0.5195270776748657,-0.028867699205875397,-0.4977291524410248,-0.1533154845237732,1.5744338035583496,4.12109375,1,J1,6.1,180,0,0.42788564191541323,[5500|0|0|0]
5500,0.005934890825301409,0.5197688937187195,-0.02898208610713482,-0.5004943609237671,-0.15724089741706848,1.6020925045013428,4.12109375,1,J1,6.1,180,0,0.42823533498424243,[5600|0|0|0]
5600,0.005645998287945986,0.5199120044708252,-0.029075272381305695,-0.5035490989685059,-0.1442563384771347,1.5881762504577637,4.12109375,1,J1,6.1,180,0,0.42857092888645426,[5700|0|0|0]
5700,0.005797221790999174,0.5198407173156738,-0.028960086405277252,-0.4988549053668976,-0.1487407684326172,1.5921753644943237,4.12109375,1,J1,6.1,180,0,0.4287739515833107,[5800|0|0|0]
5800,0.0058922916650772095,0.5196769833564758,-0.028812525793910027,-0.4990151524543762,-0.15082493424415588,1.6046512126922607,4.12109375,1,J1,6.1,180,0,0.4290139957966943,[5900|0|0|0]
5900,0.0058533507399261,0.5197442173957825,-0.029010511934757233,-0.4983542263507843,-0.1549186408519745,1.5924814939498901,4.12109375,1,J1,6.1,180,0,0.42922668177098666,[6000|0|0|0]
6000,0.005408146884292364,0.5196648240089417,-0.029146432876586914,-0.49583178758621216,-0.14064228534698486,1.5874091386795044,4.12109375,1,J1,6.1,180,0,0.42969889389003174,[6100|0|0|0]
6100,0.00574090238660574,0.5196518898010254,-0.028900854289531708,-0.49428874254226685,-0.16085553169250488,1.5729378461837769,4.12109375,1,J1,6.1,180,0,0.4301126599597792,[6200|0|0|0]
6200,0.005757170729339123,0.5194321274757385,-0.028981247916817665,-0.4901299774646759,-0.16408798098564148,1.5504274368286133,4.12109375,1,J1,6.1,180,0,0.4303472303626415,[6300|0|0|0]
6300,0.005611659958958626,0.5194483995437622,-0.029035640880465508,-0.4947260916233063,-0.15778355300426483,1.54622483253479,4.12109375,1,J1,6.1,180,0,0.43050342498159133,[6400|0|0|0]
6400,0.005530977621674538,0.5198779106140137,-0.028954792767763138,-0.5054371953010559,-0.15891589224338531,1.5542680025100708,4.12109375,1,J1,6.1,180,0,0.4309478637471662,[6500|0|0|0]
6500,0.005929615814238787,0.5196065306663513,-0.029201822355389595,-0.49771901965141296,-0.17032037675380707,1.548631191253662,4.12109375,1,J1,6.1,180,0,0.43148969684114163,[6600|0|0|0]
6600,0.00582054303959012,0.5197867155075073,-0.02869291417300701,-0.5025291442871094,-0.17069187760353088,1.552489995956421,4.12109375,1,J1,6.1,180,0,0.43204046992077416,[6700|0|0|0]
6700,0.005885883700102568,0.5199270844459534,-0.029105693101882935,-0.5003310441970825,-0.1673610508441925,1.578449010848999,4.12109375,1,J1,6.1,180,0,0.4324813319002197,[6800|0|0|0]
6800,0.005657447502017021,0.5198785066604614,-0.02884727157652378,-0.4982733130455017,-0.16304394602775574,1.5717272758483887,4.12109375,1,B1,6.1,180,0,0.4328296486850694,[6800|0|0|0]
6900,0.005829477217048407,0.520007312297821,-0.028719376772642136,-0.5999183654785156,-0.20367023348808289,1.3097660541534424,3.3671875,1,B1,6.1,180,0,0.4330797330626889,[6800|0|0|0]
7000,0.00815370213240385,0.5215404629707336,-0.021654490381479263,-0.9208493828773499,-6.577215671539307,1.1047680377960205,3.568359375,1,B1,6.1,180,0,0.44067349314337684,[6800|0|0|0]
7100,0.025962956249713898,0.5235432386398315,0.006779328919947147,0.8841702938079834,-18.950387954711914,1.4311379194259644,3.673828125,1,B1,6.1,180,0,0.4742839486990789,[6800|0|0|0]
7200,0.07625337690114975,0.5274626016616821,0.05640686675906181,0.9889747500419617,-12.536800384521484,1.8980027437210083,3.673828125,1,B1,6.1,180,0,0.5450467943722722,[6800|0|0|0]
7300,0.14913812279701233,0.5325936079025269,0.11982756108045578,-0.5205350518226624,-5.263664722442627,2.460160255432129,3.701171875,1,B1,6.1,180,0,0.6417974939953537,[6800|0|0|0]
7400,0.22965244948863983,0.5385711789131165,0.19480186700820923,0.6613031029701233,2.6759042739868164,2.2506837844848633,3.716796875,1,B1,6.1,180,0,0.7519765968558377,[6800|0|0|0]
7500,0.30296608805656433,0.5455734133720398,0.27777358889579773,0.8539988398551941,7.525347709655762,1.8312876224517822,3.7265625,1,B1,6.1,180,0,0.8629190482460848,[6800|0|0|0]
7600,0.36204808950424194,0.5499164462089539,0.36435648798942566,1.2231857776641846,9.592562675476074,1.5147477388381958,3.7265625,1,B1,6.1,180,0,0.9678292157454423,[6800|0|0|0]
7700,0.40112146735191345,0.553579568862915,0.4554009437561035,1.6779422760009766,9.699727058410645,0.9847838878631592,3.720703125,1,B1,6.1,180,0,1.0669717406772568,[6800|0|0|0]
7800,0.425779789686203,0.5524373650550842,0.5431342720985413,1.3991328477859497,8.21770191192627,0.7715238332748413,3.716796875,1,B1,6.1,180,0,1.1581116023839892,[6800|0|0|0]
7900,0.4381472170352936,0.5481746792793274,0.6306102871894836,0.4811420738697052,5.743907928466797,2.385873556137085,3.720703125,1,B1,6.1,180,0,1.2465603274479982,[6800|0|0|0]
8000,0.43976113200187683,0.5438006520271301,0.7209557890892029,-0.08674119412899017,3.1521193981170654,2.7481935024261475,3.716796875,1,B1,6.1,180,0,1.3370260477482008,[6800|0|0|0]
8100,0.43886590003967285,0.5388621687889099,0.8138564229011536,-0.8609218597412109,1.3961479663848877,2.2667300701141357,3.7109375,1,B1,6.1,180,0,1.4300621580474953,[6800|0|0|0]
8200,0.43753552436828613,0.534935712814331,0.9092907309532166,-0.3479808270931244,0.49188655614852905,1.1233972311019897,3.720703125,1,B1,6.1,180,0,1.525586469661468,[6800|0|0|0]
8300,0.436739981174469,0.5322088599205017,1.0061157941818237,-0.5899229049682617,-0.34283342957496643,0.23973850905895233,3.716796875,1,B1,6.1,180,0,1.6224531898748704,[6800|0|0|0]
8400,0.4370162785053253,0.5301145911216736,1.1045299768447876,-0.4770086407661438,0.7376977205276489,-0.41661304235458374,3.7109375,1,B1,6.1,180,0,1.7208900409583747,[6800|0|0|0]
8500,0.4376756250858307,0.5289283394813538,1.2037044763565063,-0.4360871911048889,0.7188445925712585,-0.6286184191703796,3.732421875,1,B1,6.1,180,0,1.8200738263482623,[6800|0|0|0]
8600,0.4383560121059418,0.5281646847724915,1.3017381429672241,-0.8268191814422607,0.5553823113441467,-0.913776159286499,3.76953125,1,B1,6.1,180,0,1.918112828200346,[6800|0|0|0]
8700,0.43794313073158264,0.5282281637191772,1.393850326538086,-0.4679228961467743,0.9239950776100159,-1.2685635089874268,3.794921875,1,B1,6.1,180,0,2.0102259589841713,[6800|0|0|0]
8800,0.43639129400253296,0.5295301079750061,1.473183512687683,-0.22501841187477112,0.9638561606407166,-1.4212212562561035,3.806640625,1,B1,6.1,180,0,2.0895850018257125,[6800|0|0|0]
8900,0.43414968252182007,0.531508207321167,1.5359498262405396,0.24999520182609558,0.5743338465690613,0.601329505443573,3.7890625,1,B1,6.1,180,0,2.1524224732585227,[6800|0|0|0]
9000,0.4294411540031433,0.5315659046173096,1.5796831846237183,-0.283203125,0.8927619457244873,-0.3764722943305969,3.76953125,1,B1,6.1,180,0,2.1964086097706184,[6800|0|0|0]
9100,0.4239426851272583,0.5321710705757141,1.6106038093566895,-0.6027065515518188,0.4754840135574341,0.1835378110408783,3.76953125,1,B1,6.1,180,0,2.227820142997978,[6800|0|0|0]
9200,0.41739869117736816,0.5342323780059814,1.6306078433990479,-0.2631276845932007,0.28788861632347107,3.5833795070648193,3.75390625,1,B1,6.1,180,0,2.248968055970801,[6800|0|0|0]
9300,0.40987610816955566,0.535873293876648,1.6415635347366333,-0.4191139042377472,0.47868332266807556,6.574927806854248,3.7421875,1,B1,6.1,180,0,2.2623586882444644,[6800|0|0|0]
9400,0.4013117849826813,0.5379778146743774,1.6466697454452515,-0.09341423213481903,-0.14630210399627686,7.877325057983398,3.7421875,1,B1,6.1,180,0,2.27254937159928,[6800|0|0|0]
9500,0.39469048380851746,0.5369589924812317,1.6462247371673584,0.10325900465250015,-0.47678595781326294,1.3370540142059326,3.720703125,1,B1,6.1,180,0,2.279263361491112,[6800|0|0|0]
9600,0.38859236240386963,0.5369077920913696,1.643827199935913,0.3942485451698303,-0.30271798372268677,-1.9783940315246582,3.7265625,1,B1,6.1,180,0,2.2858160625312873,[6800|0|0|0]
9700,0.38265156745910645,0.5362668633460999,1.6403874158859253,-0.020353250205516815,-1.2158660888671875,-2.9383955001831055,3.732421875,1,B1,6.1,180,0,2.2927106943954834,[6800|0|0|0]
9800,0.37754860520362854,0.5357443690299988,1.635282039642334,-0.06963902711868286,-0.9555501341819763,-2.7016563415527344,3.720703125,1,B1,6.1,180,142.5238204386386,2.2999479653369237,[6800|0|0|0]
9900,0.3775370419025421,0.5420498251914978,1.6374739408493042,-6.391761302947998,-8.805932998657227,-2.4258885383605957,3.748046875,1,B1,6.1,180,142.5238204386386,2.306623543365502,[6800|0|0|0]
10000,0.3912287950515747,0.5504668354988098,1.624255657196045,-7.358360290527344,-10.483099937438965,-0.04868829995393753,3.736328125,1,B1,6.1,180,142.5238204386386,2.327432992890789,[6800|0|0|0]
10100,0.4173920154571533,0.5637804269790649,1.600413203239441,-7.764769554138184,-10.336207389831543,2.678784132003784,3.7109375,1,B1,6.1,180,142.5238204386386,2.3652513539177664,[6800|0|0|0]
10200,0.4548519551753998,0.5939913392066956,1.5716875791549683,-5.354945659637451,-6.4268798828125,2.210820436477661,3.689453125,1,B1,6.1,180,142.5238204386386,2.42129694054475,[6800|0|0|0]
10300,0.4921071529388428,0.6287113428115845,1.541703462600708,-2.6539435386657715,-2.1270413398742676,-1.6779954433441162,3.68359375,1,B1,6.1,180,142.5238204386386,2.4803941118497814,[6800|0|0|0]
10400,0.5433821678161621,0.6680981516838074,1.5216537714004517,1.6729415655136108,1.471140742301941,-3.599949598312378,3.689453125,1,B1,6.1,180,142.5238204386386,2.5480878189504566,[6800|0|0|0]
10500,0.5923104286193848,0.7051559090614319,1.5069364309310913,4.417940616607666,4.2534027099609375,-4.385374069213867,3.6953125,1,B1,6.1,180,142.5238204386386,2.6112055834670973,[6800|0|0|0]
10600,0.6329119801521301,0.7339169979095459,1.495666742324829,5.802037715911865,4.782347202301025,-5.571011066436768,3.705078125,1,B1,6.1,180,142.5238204386386,2.6622221699843998,[6800|0|0|0]
10700,0.6663061380386353,0.7528291344642639,1.4858587980270386,4.665340900421143,5.483280181884766,-4.917209148406982,3.701171875,1,B1,6.1,180,142.5238204386386,2.7018332096244,[6800|0|0|0]
10800,0.6899343132972717,0.7634828686714172,1.476933479309082,2.963715076446533,4.744789123535156,-2.8145220279693604,3.6953125,1,B1,6.1,180,142.5238204386386,2.729245871531384,[6800|0|0|0]
10900,0.7063926458358765,0.769022524356842,1.46909761428833,1.992167592048645,4.292666435241699,-2.2904906272888184,3.701171875,1,B1,6.1,180,142.5238204386386,2.7482975191159844,[6800|0|0|0]
11000,0.7159079313278198,0.7723413705825806,1.4619050025939941,0.6075173616409302,2.5672268867492676,-2.1276957988739014,3.701171875,1,B1,6.1,180,142.5238204386386,2.760678515087585,[6800|0|0|0]
11100,0.7220052480697632,0.7750058770179749,1.4563618898391724,0.12969984114170074,1.920383095741272,-2.0088601112365723,3.705078125,1,B1,6.1,180,142.5238204386386,2.7693389403085837,[6800|0|0|0]
11200,0.7252770662307739,0.7784584760665894,1.4508976936340332,-0.10820285975933075,0.931416392326355,-2.216994285583496,3.6953125,1,B1,6.1,180,142.5238204386386,2.7765834330056243,[6800|0|0|0]
11300,0.7268586754798889,0.7831624150276184,1.446366310119629,0.5921050906181335,1.3482986688613892,-2.369807004928589,3.701171875,1,B1,6.1,180,142.5238204386386,2.7833036983367396,[6800|0|0|0]
11400,0.7275118827819824,0.7879682183265686,1.4424107074737549,0.4769096076488495,0.594437301158905,-2.4874463081359863,3.701171875,1,B1,6.1,180,142.5238204386386,2.7895622299073044,[6800|0|0|0]
11500,0.727544903755188,0.7927972674369812,1.4387627840042114,0.7295163869857788,0.4430493116378784,-2.5655431747436523,3.701171875,1,B1,6.1,180,142.5238204386386,2.795614349481065,[6800|0|0|0]
11600,0.7272661924362183,0.7981618642807007,1.434682846069336,1.0924023389816284,0.5111960172653198,-2.6663804054260254,3.701171875,1,B1,6.1,180,142.5238204386386,2.8023599015598353,[6800|0|0|0]
11700,0.7269420623779297,0.8020340800285339,1.430281639099121,1.1681362390518188,0.15618638694286346,-2.632953643798828,3.701171875,1,B1,6.1,180,142.5238204386386,2.8082309949747897,[6800|0|0|0]
11800,0.7257868647575378,0.8045744299888611,1.4255529642105103,1.6500458717346191,0.7512988448143005,-3.0822970867156982,3.701171875,1,B1,6.1,180,142.5238204386386,2.8137217349672925,[6800|0|0|0]
11900,0.7239345908164978,0.8051542639732361,1.421000599861145,1.1377986669540405,0.43638530373573303,-3.3540587425231934,3.6953125,1,B1,6.1,180,142.5238204386386,2.818670588104279,[6800|0|0|0]
12000,0.7217759490013123,0.8052157163619995,1.4164483547210693,1.167925477027893,0.5369024276733398,-3.5800774097442627,3.6953125,1,B1,6.1,180,142.5238204386386,2.8237090845762136,[6800|0|0|0]
12100,0.7186269760131836,0.8036925792694092,1.412125587463379,0.8233681321144104,0.04872953146696091,-3.601029634475708,3.6953125,1,B1,6.1,180,142.5238204386386,2.8292698663779885,[6800|0|0|0]
12200,0.7157496809959412,0.8014734387397766,1.4069733619689941,0.7327248454093933,-0.2294369488954544,-3.4607183933258057,3.689453125,1,B1,6.1,180,142.5238204386386,2.835574534398709,[6800|0|0|0]
12300,0.713331401348114,0.7984999418258667,1.402609944343567,0.8518531322479248,-0.0634751170873642,-2.83400821685791,3.689453125,1,B1,6.1,180,142.5238204386386,2.841382216701144,[6800|0|0|0]
12400,0.7107482552528381,0.7943577170372009,1.4009599685668945,0.6988087296485901,-0.18020422756671906,-2.2155542373657227,3.6953125,1,B1,6.1,180,142.5238204386386,2.8465351857494676,[6800|0|0|0]
12500,0.7089496850967407,0.7894923090934753,1.398490071296692,-0.19556143879890442,0.21804498136043549,-1.485107183456421,3.6953125,1,B1,6.1,180,142.5238204386386,2.852280396066821,[6800|0|0|0]
12600,0.7065925002098083,0.7855437397956848,1.3967792987823486,-0.5152323842048645,-0.0410599559545517,-1.021705150604248,3.6953125,1,B1,6.1,180,142.5238204386386,2.8571869491019433,[6800|0|0|0]
12700,0.7040311098098755,0.7818204760551453,1.3941446542739868,-0.7023739814758301,-0.11470483988523483,-0.5917624235153198,3.6953125,1,B1,6.1,180,142.5238204386386,2.8624180833334387,[6800|0|0|0]
12800,0.7021613121032715,0.7796526551246643,1.3910393714904785,-0.3971405327320099,-0.591448962688446,-0.4792768061161041,3.689453125,1,B1,6.1,180,0,2.8666416330508926,[6800|0|0|0]
12900,0.7008259892463684,0.7781683802604675,1.3820778131484985,0.19645920395851135,-0.16060487926006317,-0.7115007042884827,3.927734375,1,B1,6.1,180,0,2.875822901314121,[6800|0|0|0]
13000,0.7005183696746826,0.7774709463119507,1.3416401147842407,0.17812781035900116,-0.9049913883209229,-0.5166404843330383,3.84765625,1,B1,6.1,180,0,2.916267783473822,[6800|0|0|0]
13100,0.6980835199356079,0.7753375768661499,1.2624584436416626,0.1451452225446701,0.09535278379917145,-0.18786832690238953,3.763671875,1,B1,6.1,180,0,2.99551560239255,[6800|0|0|0]
13200,0.6959093809127808,0.7727069854736328,1.153328776359558,0.2682189643383026,0.7970380783081055,-0.1522061675786972,3.689453125,1,B1,6.1,180,0,3.104698619261786,[6800|0|0|0]
13300,0.6920077204704285,0.7684561610221863,1.030362606048584,-0.09333033114671707,-0.8026981949806213,-1.251181721687317,3.6796875,1,B1,6.1,180,0,3.2278000875863837,[6800|0|0|0]
13400,0.6891947388648987,0.7635636925697327,0.904099702835083,-0.368756502866745,0.048994407057762146,-2.6728031635284424,3.68359375,1,B1,6.1,180,0,3.3541890500830083,[6800|0|0|0]
13500,0.6865544319152832,0.7585641145706177,0.7791852355003357,-0.42687225341796875,0.29660746455192566,-3.3235161304473877,3.689453125,1,B1,6.1,180,0,3.4792314075083266,[6800|0|0|0]
13600,0.6838791370391846,0.7545603513717651,0.6558546423912048,-0.32059770822525024,0.3852187991142273,-1.3259702920913696,3.6953125,1,B1,6.1,180,0,3.60265596956579,[6800|0|0|0]
13700,0.681713879108429,0.7499959468841553,0.5338083505630493,-1.1595085859298706,-0.6575103402137756,0.39485621452331543,3.68359375,1,B1,6.1,180,0,3.7248067758637284,[6800|0|0|0]
13800,0.6813820600509644,0.749534010887146,0.4114675223827362,-2.3417835235595703,0.025921592488884926,2.046921491622925,3.626953125,1,B1,6.1,180,0,3.8471489261170126,[6800|0|0|0]
13900,0.6809360384941101,0.7555445432662964,0.29595887660980225,-2.7014670372009277,-0.673566460609436,3.698648452758789,3.60546875,1,B1,6.1,180,0,3.962814706203463,[6800|0|0|0]
14000,0.6784399747848511,0.76986163854599,0.19554153084754944,-5.718937397003174,2.8229823112487793,7.028448104858398,3.63671875,1,B1,6.1,180,0,4.064278260651474,[6800|0|0|0]
14100,0.6701070666313171,0.7969337105751038,0.1084405705332756,-3.7860512733459473,1.532502293586731,9.307029724121094,3.60546875,1,B1,6.1,180,0,4.155869263102115,[6800|0|0|0]
14200,0.6574051976203918,0.8320404887199402,0.037077825516462326,0.22076083719730377,2.422010660171509,12.824996948242188,3.630859375,1,B1,6.1,180,0,4.236407854624542,[6800|0|0|0]
14300,0.6423413157463074,0.866009533405304,-0.0165368914604187,4.156606674194336,3.9157848358154297,16.17418098449707,3.6484375,1,B1,6.1,180,0,4.301640932203816,[6800|0|0|0]
14400,0.6264459490776062,0.89145427942276,-0.04664124175906181,-4.376120567321777,-0.7064181566238403,17.943126678466797,3.630859375,1,B1,6.1,180,0,4.344142340278475,[6800|0|0|0]
14500,0.6049335598945618,0.91056227684021,-0.026267262175679207,4.179324150085449,6.775715351104736,18.64038848876953,3.736328125,1,B1,6.1,180,0,4.3793985099191515,[6800|0|0|0]
14600,0.5848715305328369,0.9176879525184631,-0.006370888091623783,17.887264251708984,-8.45710277557373,17.663192749023438,3.701171875,1,B1,6.1,180,0,4.4085382761789385,[6800|0|0|0]
14700,0.5842479467391968,0.9049170017242432,0.004919771105051041,16.54068946838379,-12.715174674987793,11.744455337524414,3.673828125,1,B1,6.1,180,0,4.425595973152197,[6800|0|0|0]
14800,0.605000376701355,0.8725423812866211,0.00862019881606102,10.056974411010742,-12.63963794708252,5.357244968414307,3.658203125,1,B1,6.1,180,0,4.464228505596483,[6800|0|0|0]
14900,0.6467661261558533,0.827950656414032,0.012238575145602226,4.261340141296387,-6.274405002593994,0.4536546766757965,3.658203125,1,B1,6.1,180,0,4.525432201578595,[6800|0|0|0]
15000,0.6963940262794495,0.7800527215003967,0.020383043214678764,-1.22287118434906,0.03456457331776619,-0.6291571259498596,3.6796875,1,B1,6.1,180,0,4.594883429068084,[6800|0|0|0]
15100,0.741626501083374,0.7374423146247864,0.02978460304439068,-5.233304977416992,6.8631205558776855,-0.154316246509552,3.6953125,1,B1,6.1,180,0,4.657732556971535,[6800|0|0|0]
15200,0.7750115990638733,0.7052199840545654,0.036758389323949814,-6.93712854385376,9.183672904968262,-2.040332555770874,3.689453125,1,B1,6.1,180,0,4.704652457329668,[6800|0|0|0]
15300,0.7912710905075073,0.6855137944221497,0.03836784511804581,-5.726987361907959,9.053943634033203,-3.5329103469848633,3.6796875,1,B1,6.1,180,0,4.730251194013096,[6800|0|0|0]
15400,0.7923994660377502,0.6762595176696777,0.035959865897893906,-4.458261966705322,8.153369903564453,-4.700078010559082,3.66796875,1,B1,6.1,180,0,4.7398799651430625,[6800|0|0|0]
15500,0.7793833017349243,0.6757773756980896,0.030649695545434952,-4.689146041870117,5.1101250648498535,-6.3741374015808105,3.658203125,1,B1,6.1,180,0,4.753945913501103,[6800|0|0|0]
15600,0.760875940322876,0.6822316646575928,0.029465854167938232,-2.144141674041748,0.6022326350212097,-6.395559787750244,3.66796875,1,B1,6.1,180,0,4.773582149210017,[6800|0|0|0]
15700,0.7410182356834412,0.6932152509689331,0.03171317279338837,-0.9232533574104309,-1.6418278217315674,-5.410184383392334,3.6796875,1,B1,6.1,180,0,4.7963860533233476,[6800|0|0|0]
15800,0.724574089050293,0.7047415971755981,0.03581710904836655,0.6861535310745239,-2.598132848739624,-3.8957579135894775,3.68359375,1,B1,6.1,180,0,4.816882611769909,[6800|0|0|0]
15900,0.71495521068573,0.7142209410667419,0.04024515300989151,1.1266980171203613,-3.0298640727996826,-3.016037940979004,3.68359375,1,F1,6.1,180,0,4.831094872495213,[6800|0|100|0]
16000,0.7089213728904724,0.7209601998329163,0.04403398558497429,1.7278624773025513,-3.006622552871704,-1.7063497304916382,3.6796875,1,F1,6.1,180,0,4.840902015786659,[6800|0|200|0]
16100,0.7075766324996948,0.7245638370513916,0.04536096006631851,0.3959527015686035,-2.36030912399292,-1.6622897386550903,3.673828125,1,F1,6.1,180,0,4.84497084721535,[6800|0|300|0]
16200,0.7099579572677612,0.7263806462287903,0.0445515513420105,-0.22552795708179474,-0.4622572660446167,-0.8631294369697571,3.658203125,1,F1,6.1,180,0,4.848073530847478,[6800|0|400|0]
16300,0.7122406959533691,0.7285512685775757,0.04616865888237953,-0.21771736443042755,-0.06501036137342453,-0.2099936455488205,3.673828125,1,F1,6.1,180,0,4.85161436889587,[6800|0|500|0]
16400,0.714218020439148,0.7312523722648621,0.050805408507585526,0.0382130965590477,0.35176798701286316,0.5471698641777039,3.6796875,1,F1,6.1,180,0,4.8573332167115035,[6800|0|600|0]
16500,0.7155372500419617,0.7337151765823364,0.05473382771015167,0.2640369236469269,1.146036148071289,1.8955016136169434,3.6796875,1,F1,6.1,180,0,4.862153823445329,[6800|0|700|0]
16600,0.7138704657554626,0.7331798076629639,0.054660115391016006,-0.2835780382156372,-0.20183123648166656,1.6609598398208618,3.673828125,1,F1,6.1,180,0,4.863906028696874,[6800|0|800|0]
16700,0.7151916027069092,0.7348195910453796,0.053649526089429855,-0.4184536933898926,0.2497071921825409,1.1803841590881348,3.66796875,1,F1,6.1,180,0,4.866241747670168,[6800|0|900|0]
16800,0.7173675298690796,0.7370758652687073,0.05030504986643791,-0.5246556401252747,-0.13969053328037262,-0.48634934425354004,3.658203125,1,F1,6.1,180,0,4.870825518344196,[6800|0|1000|0]
16900,0.7204759120941162,0.740912675857544,0.047266654670238495,-0.25694581866264343,0.3073838949203491,-1.5990992784500122,3.658203125,1,F1,6.1,180,0,4.876623362850546,[6800|0|1100|0]
17000,0.7242870926856995,0.7457205653190613,0.045569393783807755,-0.593148410320282,-0.15266355872154236,-2.3410325050354004,3.6640625,1,F1,6.1,180,0,4.882989020168722,[6800|0|1200|0]
17100,0.7285455465316772,0.7528097629547119,0.04599342122673988,0.6826157569885254,1.7330042123794556,-2.9502267837524414,3.6640625,1,F1,6.1,180,0,4.8912697780777545,[6800|0|1300|0]
17200,0.7294144630432129,0.7593485116958618,0.047752898186445236,0.8450005054473877,-0.5818061828613281,-3.0060501098632812,3.6640625,1,F1,6.1,180,0,4.898096637544277,[6800|0|1400|0]
17300,0.7285206317901611,0.7659327983856201,0.05030067637562752,-0.28991150856018066,1.1469404697418213,-2.6383566856384277,3.66796875,1,F1,6.1,180,0,4.905213022808098,[6800|0|1500|0]
17400,0.725301206111908,0.7731277346611023,0.05201774090528488,-0.5045207738876343,-0.03313731402158737,-2.37446665763855,3.66796875,1,F1,6.1,180,0,4.91328024787655,[6800|0|1600|0]
17500,0.7225314378738403,0.7810233235359192,0.05288021266460419,0.12579786777496338,0.09423082321882248,-2.2380924224853516,3.66796875,1,F1,6.1,180,0,4.921691894404333,[6800|0|1700|0]
17600,0.7179603576660156,0.7904666662216187,0.05225973203778267,-0.3447597920894623,0.04417018964886665,-1.4013819694519043,3.658203125,1,F1,6.1,180,0,4.9322017227356705,[6800|0|1800|0]
17701,0.7133811116218567,0.8031539916992188,0.05077812820672989,-0.5119174718856812,0.991235613822937,-0.22692827880382538,3.658203125,1,F1,6.1,180,0,4.945771279545666,[6800|0|1900|0]
17801,0.707885205745697,0.8172556757926941,0.04670966416597366,1.9951353073120117,-0.4764980971813202,0.3764772117137909,4.015625,1,F1,6.1,180,0,4.961443384551782,[6800|0|2000|0]
17901,0.7033235430717468,0.8365501165390015,0.007605212740600109,2.3266260623931885,-7.02477502822876,1.2211699485778809,4.0234375,1,F1,6.1,180,0,5.005286768674623,[6800|0|2100|0]
18001,0.6963207721710205,0.8456748127937317,-0.04357180744409561,-1.79310941696167,-3.2361598014831543,4.944179534912109,4.02734375,1,F1,6.1,180,0,5.057740427050507,[6800|0|2200|0]
18101,0.6959079504013062,0.8520287275314331,-0.046116288751363754,-2.4188032150268555,-0.10599762946367264,10.391429901123047,4.02734375,1,F1,6.1,180,0,5.064597324266491,[6800|0|2300|0]
18201,0.6969245076179504,0.8505622148513794,-0.040670957416296005,-2.1031854152679443,-0.13143476843833923,10.870118141174316,4.02734375,1,F1,6.1,180,0,5.070327566963283,[6800|0|2400|0]
18301,0.6956517696380615,0.850501537322998,-0.03869350999593735,-1.8083330392837524,-0.0912754014134407,11.262077331542969,4.03125,1,F1,6.1,180,0,5.072679978922993,[6800|0|2500|0]
18401,0.6930230855941772,0.8504706025123596,-0.03701622411608696,-1.5628647804260254,0.04566480964422226,11.725519180297852,4.03125,1,F1,6.1,180,0,5.0757983478376385,[6800|0|2600|0]
18501,0.6900538206100464,0.8506817817687988,-0.03521118313074112,-1.4558334350585938,0.1338772028684616,12.203231811523438,4.0390625,1,F1,6.1,180,0,5.079279626939221,[6800|0|2700|0]
18600,0.6879792213439941,0.8518349528312683,-0.03288488835096359,-1.3724439144134521,0.14129501581192017,12.3864107131958,4.0390625,1,F1,6.1,180,0,5.082603090947819,[6800|0|2800|0]
18700,0.6859791874885559,0.8527660965919495,-0.030069228261709213,-1.3102846145629883,0.021228007972240448,13.016407012939453,4.0390625,1,F1,6.1,180,0,5.0861801156701505,[6800|0|2900|0]
18800,0.6893276572227478,0.8441067337989807,-0.023721009492874146,-3.272604465484619,-0.3507157564163208,19.280929565429688,4.0390625,1,F1,6.1,180,0,5.097427190626691,[6800|0|3000|0]
18900,0.6935794949531555,0.8179827928543091,0.017066167667508125,-1.029695987701416,9.235925674438477,10.42140007019043,4.04296875,1,F1,6.1,180,0,5.146049533590382,[6800|0|3100|0]
19000,0.697844922542572,0.7824082970619202,0.0409984327852726,2.508000612258911,8.238533973693848,3.690157651901245,4.04296875,1,F1,6.1,180,0,5.189136561070474,[6800|0|3200|0]
19100,0.6990969181060791,0.7700376510620117,0.03505751118063927,-2.055318832397461,4.679611682891846,5.522192001342773,4.04296875,1,F1,6.1,180,0,5.202916797819474,[6800|0|3300|0]
19200,0.6887111067771912,0.7740103006362915,0.017227454110980034,-5.809309005737305,-3.6795828342437744,8.461355209350586,4.04296875,1,F1,6.1,180,0,5.223930078303648,[6800|0|3400|0]
19300,0.6825376749038696,0.7833796739578247,0.015199257992208004,-0.35779282450675964,2.06286883354187,13.558640480041504,4.04296875,1,F1,6.1,180,0,5.235332270944935,[6800|0|3500|0]
19400,0.6800863742828369,0.7938744425773621,0.019233833998441696,-0.8090070486068726,-0.46015024185180664,9.361900329589844,4.046875,1,F1,6.1,180,0,5.246839957361516,[6800|0|3600|0]
19500,0.6782410740852356,0.8014543056488037,0.02255508117377758,-4.105265140533447,-2.02498722076416,9.439065933227539,4.046875,1,F1,6.1,180,0,5.255318762690143,[6800|0|3700|0]
19600,0.67685467004776,0.8095024228096008,0.027057191357016563,-4.071243762969971,-2.0073983669281006,9.349431037902832,4.046875,1,F1,6.1,180,0,5.2646441743213295,[6800|0|3800|0]
19700,0.6763300895690918,0.8186628222465515,0.031872883439064026,-4.032227993011475,-1.9832420349121094,9.259695053100586,4.046875,1,F1,6.1,180,0,5.275006557867222,[6800|0|3900|0]
19800,0.6766265034675598,0.8288199305534363,0.03693458065390587,-3.9886655807495117,-1.9622820615768433,9.171089172363281,4.046875,1,F1,6.1,180,0,5.286358891946684,[6800|0|4000|0]
19900,0.677750825881958,0.8399205207824707,0.042211856693029404,-3.9520671367645264,-1.9432528018951416,9.083046913146973,4.046875,1,F1,6.1,180,0,5.298701373330813,[6800|0|4100|0]
20000,0.6797245144844055,0.851933479309082,0.04769891873002052,-3.9110612869262695,-1.9243236780166626,8.994565963745117,4.0546875,1,F1,6.1,180,0,5.312054817420608,[6800|0|4200|0]
20100,0.6825050115585327,0.8647603392601013,0.0534629262983799,-3.876464605331421,-1.90359628200531,8.905951499938965,4.07421875,1,F1,6.1,180,0,5.326389505538262,[6800|0|4300|0]
20200,0.6860543489456177,0.8783153891563416,0.05952654406428337,-3.83691143989563,-1.8880281448364258,8.81617546081543,4.12109375,1,F1,6.1,180,0,5.341657270076265,[6800|0|4400|0]
20300,0.6903548836708069,0.8925620317459106,0.06583401560783386,-3.799079179763794,-1.869992733001709,8.730965614318848,4.12109375,1,F1,6.1,180,0,5.357820364497513,[6800|0|4500|0]
20400,0.6953230500221252,0.9075048565864563,0.07237324863672256,-3.762810707092285,-1.8512778282165527,8.645658493041992,4.12890625,1,F1,6.1,180,0,5.374871237194115,[6800|0|4600|0]
20500,0.7009673118591309,0.9230383038520813,0.07918199151754379,-3.7157230377197266,-1.8265578746795654,8.564634323120117,4.12890625,1,F1,6.1,180,0,5.392745930345488,[6800|0|4700|0]
20600,0.7072767615318298,0.9390535950660706,0.08630573004484177,-3.6777915954589844,-1.80049729347229,8.483846664428711,4.12890625,1,F1,6.1,180,0,5.411375110640029,[6800|0|4800|0]
20700,0.7141960263252258,0.9554455280303955,0.09372780472040176,-3.643144130706787,-1.7823694944381714,8.401185989379883,4.12890625,1,F1,6.1,180,0,5.4306535671155265,[6800|0|4900|0]
20800,0.7216814160346985,0.9721717834472656,0.10146778076887131,-3.6161229610443115,-1.7704747915267944,8.32255744934082,4.1328125,1,F1,6.1,180,0,5.450545925160865,[6800|0|5000|0]
20900,0.6360594034194946,0.7795053720474243,0.037387531250715256,-3.2449517250061035,-1.4769713878631592,9.797940254211426,4.1328125,1,F1,6.1,180,0,5.670904164181511,[6800|0|5100|0]
21000,0.6379612684249878,0.7784573435783386,0.03483859822154045,-3.2355589866638184,-1.4441741704940796,10.76148509979248,4.1328125,1,F1,6.1,180,0,5.674252673365962,[6800|0|5200|0]
21100,0.7126255035400391,0.7490912079811096,-0.028320375829935074,-3.155852794647217,-1.2798042297363281,10.78128719329834,4.1328125,1,F1,6.1,180,0,5.776361311239873,[6800|0|5300|0]
21200,0.7117257118225098,0.7494872212409973,-0.028052521869540215,-3.224135160446167,-1.1623107194900513,10.737407684326172,4.1328125,1,F1,6.1,180,0,5.777380230952628,[6800|0|5400|0]
21300,0.7116435170173645,0.7494370937347412,-0.02742462046444416,-3.247526168823242,-1.1683436632156372,10.706384658813477,4.1328125,1,F1,6.1,180,0,5.778015470220462,[6800|0|5500|0]
21400,0.7130193710327148,0.7508475184440613,-0.026992911472916603,-3.2931103706359863,-1.2305874824523926,10.740687370300293,4.13671875,1,F1,6.1,180,0,5.7800325584152565,[6800|0|5600|0]
21500,0.7146435379981995,0.7547252774238586,-0.022147126495838165,-3.5148744583129883,-1.4150453805923462,10.898274421691895,4.13671875,1,F1,6.1,180,0,5.786447896682351,[6800|0|5700|0]
21600,0.7119362950325012,0.7497105002403259,-0.02686476521193981,-3.445882558822632,-1.3109394311904907,10.882438659667969,4.13671875,1,F1,6.1,180,0,5.793846090362667,[6800|0|5800|0]
21700,0.7115402817726135,0.7498437762260437,-0.02718127705156803,-3.4851975440979004,-1.3130855560302734,10.786946296691895,4.13671875,1,F1,6.1,180,0,5.794370274237849,[6800|0|5900|0]
21800,0.7116485834121704,0.7496600151062012,-0.027224374935030937,-3.5080487728118896,-1.312811255455017,10.718544006347656,4.13671875,1,F1,6.1,180,0,5.79458788586864,[6800|0|6000|0]
21900,0.7115311622619629,0.7502104640007019,-0.026971139013767242,-3.5336804389953613,-1.3173695802688599,10.6508150100708,4.13671875,1,F1,6.1,180,0,5.795205065051529,[6800|0|6100|0]
22000,0.7116380929946899,0.7504746913909912,-0.027071505784988403,-3.542222023010254,-1.3264704942703247,10.620244026184082,4.14453125,1,F1,6.1,180,0,5.795507263304578,[6800|0|6200|0]
22100,0.7119235396385193,0.7507292628288269,-0.02700354903936386,-3.541728973388672,-1.3372843265533447,10.579278945922852,4.14453125,1,F1,6.1,180,0,5.795895727617882,[6800|0|6300|0]
22200,0.7119243741035461,0.7501989006996155,-0.02710684761404991,-3.51820707321167,-1.3420504331588745,10.566162109375,4.14453125,1,F1,6.1,180,0,5.796436056480674,[6800|0|6400|0]
22300,0.7115471959114075,0.7504146695137024,-0.026926903054118156,-3.510438919067383,-1.3344416618347168,10.545762062072754,4.14453125,1,F1,6.1,180,0,5.796906375111399,[6800|0|6500|0]
22400,0.7117606401443481,0.7505229711532593,-0.02731350064277649,-3.490079164505005,-1.3472892045974731,10.546727180480957,4.14453125,1,F1,6.1,180,0,5.797361067734236,[6800|0|6600|0]
22500,0.7119594216346741,0.7502222061157227,-0.027335137128829956,-3.4696969985961914,-1.3496320247650146,10.543643951416016,4.14453125,1,F1,6.1,180,0,5.797722235044813,[6800|0|6700|0]
22600,0.7118253111839294,0.7503268718719482,-0.027061115950345993,-3.4626846313476562,-1.349003791809082,10.51535415649414,4.14453125,1,F1,6.1,180,0,5.798044768980676,[6800|0|6800|0]
22700,0.7117809057235718,0.7502329349517822,-0.02691575698554516,-3.4456980228424072,-1.3530687093734741,10.508254051208496,4.14453125,1,F1,6.1,180,0,5.798223445276047,[6800|0|6900|0]
22800,0.711786687374115,0.7503814101219177,-0.026908734813332558,-3.4381446838378906,-1.3597869873046875,10.525035858154297,4.1484375,1,F1,6.1,180,0,5.798372198812248,[6800|0|7000|0]
22900,0.7117036581039429,0.7504662871360779,-0.026884565129876137,-3.4262259006500244,-1.3611384630203247,10.532118797302246,4.1484375,1,F1,6.1,180,0,5.7984933686964455,[6800|0|7100|0]
23000,0.7117350101470947,0.7504066228866577,-0.027145730331540108,-3.416451930999756,-1.3671034574508667,10.508124351501465,4.1484375,1,F1,6.1,180,0,5.798763090842049,[6800|0|7200|0]
23100,0.7120437026023865,0.7503831386566162,-0.026868876069784164,-3.409365653991699,-1.3773348331451416,10.512572288513184,4.1484375,1,F1,6.1,180,0,5.799178410987559,[6800|0|7300|0]
23200,0.7119468450546265,0.7502298355102539,-0.02710535190999508,-3.3973913192749023,-1.3767902851104736,10.524163246154785,4.1484375,1,F1,6.1,180,0,5.799476411091999,[6800|0|7400|0]
23300,0.7118269205093384,0.7503756880760193,-0.026916828006505966,-3.390479564666748,-1.3715983629226685,10.519552230834961,4.1484375,1,F1,6.1,180,0,5.799743237120882,[6800|0|7500|0]
23400,0.7120382785797119,0.7501116394996643,-0.026996923610568047,-3.376793146133423,-1.3722327947616577,10.511445999145508,4.1484375,1,F1,6.1,180,0,5.80009081328574,[6800|0|7600|0]
23500,0.711875319480896,0.7504739165306091,-0.026916319504380226,-3.383230447769165,-1.3670573234558105,10.50501537322998,4.1484375,1,F1,6.1,180,0,5.80049614936478,[6800|0|7700|0]
23600,0.7121835350990295,0.7502267956733704,-0.02711624652147293,-3.375255823135376,-1.3664586544036865,10.503738403320312,4.1484375,1,F1,6.1,180,0,5.80093890934209,[6800|0|7800|0]
23700,0.7121157050132751,0.7503845691680908,-0.026941338554024696,-3.3733317852020264,-1.3667311668395996,10.512117385864258,4.15234375,1,F1,6.1,180,0,5.8011840341944545,[6800|0|7900|0]
23800,0.7119484543800354,0.7501797080039978,-0.027047382667660713,-3.3693153858184814,-1.3703638315200806,10.525094985961914,4.15234375,1,F1,6.1,180,0,5.8014689661598595,[6800|0|8000|0]
23900,0.7120314836502075,0.7504515647888184,-0.026875773444771767,-3.355604410171509,-1.3657151460647583,10.545450210571289,4.15234375,1,F1,6.1,180,0,5.801801004857211,[6800|0|8100|0]
24000,0.7119050621986389,0.7502720952033997,-0.026769982650876045,-3.344120740890503,-1.343754529953003,10.537836074829102,4.15234375,1,F1,6.1,180,0,5.802044691967211,[6800|0|8200|0]
24100,0.711758553981781,0.7504163980484009,-0.02698274701833725,-3.341667413711548,-1.3342455625534058,10.540360450744629,4.15234375,1,F1,6.1,180,0,5.802340591687967,[6800|0|8300|0]
24200,0.7121407389640808,0.7503028512001038,-0.027062365785241127,-3.326733350753784,-1.340155005455017,10.538399696350098,4.15234375,1,F1,6.1,180,0,5.802747159511949,[6800|0|8400|0]
24300,0.7120056748390198,0.7505641579627991,-0.02684955671429634,-3.3845012187957764,-1.3842120170593262,10.545740127563477,4.15234375,1,F1,6.1,180,0,5.80311021769294,[6800|0|8500|0]
24400,0.7117361426353455,0.7502918243408203,-0.027172598987817764,-3.361745834350586,-1.3536944389343262,10.549439430236816,4.15234375,1,F1,6.1,180,0,5.803611385849311,[6800|0|8600|0]
24500,0.7118810415267944,0.7502650022506714,-0.02678152546286583,-3.3602945804595947,-1.3600778579711914,10.556221008300781,4.15234375,1,F1,6.1,180,0,5.804029301648463,[6800|0|8700|0]
24600,0.7120791673660278,0.7503286600112915,-0.02696884796023369,-3.3678054809570312,-1.3662283420562744,10.54019832611084,4.15234375,1,F1,6.1,180,0,5.804309294285294,[6800|0|8800|0]
24700,0.7117322683334351,0.7502968311309814,-0.02711467444896698,-3.3695778846740723,-1.3486634492874146,10.5223388671875,4.15234375,1,F1,6.1,180,0,5.80468694145032,[6800|0|8900|0]
24800,0.7122328281402588,0.7502265572547913,-0.026944056153297424,-3.370089530944824,-1.3656206130981445,10.542346954345703,4.15234375,1,F1,6.1,180,0,5.805220429164049,[6800|0|9000|0]
24900,0.7119612097740173,0.7501780986785889,-0.026793599128723145,-3.371502637863159,-1.3535758256912231,10.518056869506836,4.16015625,1,F1,6.1,180,0,5.805534693522083,[6800|0|9100|0]
25000,0.7118188142776489,0.750220775604248,-0.02696041576564312,-3.372387170791626,-1.3583089113235474,10.53159236907959,4.16015625,1,F1,6.1,180,0,5.80575813386697,[6800|0|9200|0]
25100,0.7118431329727173,0.750514805316925,-0.027363181114196777,-3.381593704223633,-1.3546103239059448,10.528668403625488,4.16015625,1,F1,6.1,180,0,5.806257398122512,[6800|0|9300|0]
25200,0.711764395236969,0.7506586313247681,-0.027092088013887405,-3.3851921558380127,-1.3496229648590088,10.52384090423584,4.16015625,1,F1,6.1,180,0,5.806574221449618,[6800|0|9400|0]
25300,0.71218341588974,0.7502014636993408,-0.02673124335706234,-3.369671583175659,-1.3558366298675537,10.51394271850586,4.16015625,1,F1,6.1,180,0,5.807291709715408,[6800|0|9500|0]
25400,0.7120476961135864,0.7503412961959839,-0.027218660339713097,-3.366468906402588,-1.3461593389511108,10.507787704467773,4.16015625,1,F1,6.1,180,0,5.807816636662452,[6800|0|9600|0]
25500,0.7116190791130066,0.7503352165222168,-0.027042383328080177,-3.363891363143921,-1.334397554397583,10.513091087341309,4.16015625,1,F1,6.1,180,0,5.808280126770707,[6800|0|9700|0]
25600,0.7119547724723816,0.7503477931022644,-0.026994431391358376,-3.3618760108947754,-1.3474829196929932,10.494220733642578,4.16015625,1,F1,6.1,180,0,5.8086194608098625,[6800|0|9800|0]
25700,0.7118933200836182,0.7501108050346375,-0.026762939989566803,-3.36156964302063,-1.3437927961349487,10.473130226135254,4.16015625,1,F1,6.1,180,0,5.808956399987439,[6800|0|9900|0]
25800,0.7119070887565613,0.7504407167434692,-0.02684968337416649,-3.3723649978637695,-1.3486417531967163,10.483766555786133,4.16015625,1,F1,6.1,180,0,5.809297802574937,[6800|0|10000|0]
25900,0.7117465734481812,0.7506158947944641,-0.02693382278084755,-3.3863601684570312,-1.3499035835266113,10.510522842407227,3.505859375,1,B1,6.1,180,0,5.809549858032191,[6800|0|10000|0]
26000,0.7120073437690735,0.7524887919425964,-0.027281777933239937,-3.6483616828918457,-1.8424626588821411,10.120304107666016,3.494140625,1,B1,6.1,180,0,5.811472569054632,[6800|0|10000|0]
26100,0.7100860476493835,0.7549876570701599,-0.016595669090747833,-2.355295419692993,2.2677981853485107,6.338132381439209,3.599609375,1,B1,6.1,180,0,5.822613871846446,[6800|0|10000|0]
26200,0.7048957347869873,0.7612702250480652,0.021950608119368553,3.360471248626709,5.833571434020996,2.8883492946624756,3.6484375,1,B1,6.1,180,0,5.8620121648902535,[6800|0|10000|0]
26300,0.6931165456771851,0.7676248550415039,0.07992421835660934,1.128617763519287,0.17474839091300964,1.9432915449142456,3.66796875,1,B1,6.1,180,0,5.9215106531263215,[6800|0|10000|0]
26400,0.6813814043998718,0.7768998742103577,0.15088702738285065,1.8455703258514404,-1.3259198665618896,1.44037926197052,3.68359375,1,B1,6.1,180,0,5.994032786204961,[6800|0|10000|0]
26500,0.6742185354232788,0.7902136445045471,0.22772084176540375,0.7120459675788879,-3.9901351928710938,2.68437123298645,3.6953125,1,B1,6.1,180,0,6.072339862539064,[6800|0|10000|0]
26600,0.6751313209533691,0.8062474131584167,0.3086296319961548,2.598764419555664,-3.4533474445343018,3.518728256225586,3.6953125,1,B1,6.1,180,0,6.154827117622946,[6800|0|10000|0]
26700,0.6827916502952576,0.8230977058410645,0.39155328273773193,2.2845935821533203,-1.4660468101501465,4.3095526695251465,3.6953125,1,B1,6.1,180,0,6.239791491694836,[6800|0|10000|0]
26800,0.6931813359260559,0.8383336663246155,0.4748891592025757,5.1359944343566895,0.3758588135242462,4.482403755187988,3.68359375,1,B1,6.1,180,0,6.325143400668958,[6800|0|10000|0]
26900,0.7031652927398682,0.8490315675735474,0.5599099397659302,4.750759601593018,0.7002317905426025,4.749936103820801,3.68359375,1,B1,6.1,180,0,6.411414239382825,[6800|0|10000|0]
27000,0.7124830484390259,0.8520409464836121,0.647331714630127,4.894047260284424,1.8754955530166626,4.390308856964111,3.6796875,1,B1,6.1,180,0,6.499382663565028,[6800|0|10000|0]
27100,0.7191631197929382,0.8472694158554077,0.7359484434127808,3.3595290184020996,2.036853551864624,3.369856834411621,3.68359375,1,B1,6.1,180,0,6.588378817852545,[6800|0|10000|0]
27200,0.7219753861427307,0.8379846811294556,0.826797604560852,2.5464096069335938,2.065345287322998,2.0811569690704346,3.673828125,1,B1,6.1,180,0,6.6797444854868475,[6800|0|10000|0]
27300,0.7251224517822266,0.8195555210113525,0.9168950319290161,1.591823935508728,1.4361459016799927,1.313623070716858,3.6796875,1,B1,6.1,180,0,6.771761246911924,[6800|0|10000|0]
27400,0.7184719443321228,0.8064748644828796,1.0108352899551392,0.2417031228542328,0.8051824569702148,0.33967551589012146,3.6796875,1,B1,6.1,180,0,6.8668407131629206,[6800|0|10000|0]
27500,0.7136595249176025,0.7883909940719604,1.1086983680725098,-0.9766034483909607,-0.43595007061958313,-1.1486839056015015,3.6953125,1,B1,6.1,180,0,6.966476890369128,[6800|0|10000|0]
27600,0.7086701393127441,0.7706008553504944,1.205859661102295,-1.7774887084960938,-0.8314154744148254,-2.299240827560425,3.7421875,1,B1,6.1,180,0,7.065379366918822,[6800|0|10000|0]
27700,0.705376923084259,0.7539842128753662,1.2948302030563354,-2.2169551849365234,-0.9845199584960938,-2.500187635421753,3.763671875,1,B1,6.1,180,0,7.155948210435064,[6800|0|10000|0]
27800,0.7034778594970703,0.7383594512939453,1.3698430061340332,-2.696535110473633,-0.9788025617599487,-2.225156307220459,3.763671875,1,B1,6.1,180,0,7.232594542653624,[6800|0|10000|0]
27900,0.7012335062026978,0.7251813411712646,1.4265245199203491,-3.010500907897949,-0.34712380170822144,-0.030820906162261963,3.748046875,1,B1,6.1,180,0,7.290831075115849,[6800|0|10000|0]
28000,0.7001652121543884,0.7156709432601929,1.4659477472305298,-4.419834613800049,-0.8048192858695984,-0.9887791275978088,3.732421875,1,B1,6.1,180,0,7.331399286466003,[6800|0|10000|0]
28100,0.6981998682022095,0.711519181728363,1.4910110235214233,-3.7864906787872314,0.09408546984195709,-1.2901843786239624,3.720703125,1,B1,6.1,180,0,7.356880014852398,[6800|0|10000|0]
28200,0.6966208219528198,0.713397741317749,1.506238579750061,-3.511425018310547,-0.006044316571205854,-1.0467501878738403,3.705078125,1,B1,6.1,180,0,7.372304049405163,[6800|0|10000|0]
28300,0.6951422691345215,0.7192888259887695,1.5142204761505127,-2.3261523246765137,0.031857822090387344,-1.0847769975662231,3.701171875,1,B1,6.1,180,0,7.382334087649616,[6800|0|10000|0]
28400,0.6934455633163452,0.728079617023468,1.5178207159042358,-1.2833759784698486,-0.1272539645433426,-1.0787204504013062,3.701171875,1,B1,6.1,180,0,7.391983882669898,[6800|0|10000|0]
28500,0.6918050050735474,0.7385163903236389,1.518567681312561,-0.18182475864887238,-0.03562004491686821,-1.4473490715026855,3.6953125,1,B1,6.1,180,0,7.402575182193016,[6800|0|10000|0]
28600,0.6896197199821472,0.7493012547492981,1.5172317028045654,0.8310835361480713,-0.187679260969162,-1.6435778141021729,3.689453125,1,B1,6.1,180,0,7.413660019141946,[6800|0|10000|0]
28700,0.689037561416626,0.7574071288108826,1.5156769752502441,1.217052936553955,-0.4347154498100281,-1.6632177829742432,3.6953125,1,B1,6.1,180,0,7.421934152369412,[6800|0|10000|0]
28800,0.6887313723564148,0.7637773752212524,1.5129202604293823,1.2216534614562988,-0.7230134010314941,-1.78336501121521,3.689453125,1,B1,6.1,180,0,7.4288820490060195,[6800|0|10000|0]
28900,0.6894650459289551,0.7680032253265381,1.5085844993591309,1.3765051364898682,-0.9341237545013428,-2.063958168029785,3.806640625,1,B1,6.1,180,218.17884763521565,7.4349808120020455,[6800|0|10000|0]
29000,0.6948610544204712,0.7679543495178223,1.4930245876312256,13.3386869430542,-12.699864387512207,-1.1374636888504028,3.84765625,1,B1,6.1,180,218.17884763521565,7.451449878443875,[6800|0|10000|0]
29100,0.7128191590309143,0.7537580132484436,1.4444187879562378,14.511296272277832,-16.05547523498535,-0.8898065090179443,3.7421875,1,B1,6.1,180,218.17884763521565,7.505176531482362,[6800|0|10000|0]
29200,0.7477499842643738,0.7228841185569763,1.3699262142181396,18.48594093322754,-17.757356643676758,-1.1276179552078247,3.6484375,1,B1,6.1,180,218.17884763521565,7.593054307211133,[6800|0|10000|0]
29300,0.8043798804283142,0.6693165302276611,1.278908133506775,15.885499000549316,-14.531400680541992,-2.5684561729431152,3.599609375,1,B1,6.1,180,218.17884763521565,7.712890539942883,[6800|0|10000|0]
29400,0.8823780417442322,0.5916419625282288,1.1916513442993164,10.829992294311523,-8.264411926269531,-3.266188144683838,3.59375,1,B1,6.1,180,218.17884763521565,7.853356902103909,[6800|0|10000|0]
29500,0.9745796322822571,0.49570634961128235,1.1217886209487915,3.6847872734069824,-2.837334632873535,-0.45899173617362976,3.642578125,1,B1,6.1,180,218.17884763521565,8.003641882183237,[6800|0|10000|0]
29600,1.075995922088623,0.3864295184612274,1.0749040842056274,-2.4632251262664795,0.6391036510467529,4.652591705322266,3.65234375,1,B1,6.1,180,218.17884763521565,8.159926396610954,[6800|0|10000|0]
29700,1.171128273010254,0.29478058218955994,1.0240046977996826,-5.134149551391602,-2.1295742988586426,8.103331565856934,3.6484375,1,B1,6.1,180,218.17884763521565,8.301490654981865,[6800|0|10000|0]
29800,1.265588641166687,0.21359960734844208,0.9785639047622681,-3.854391574859619,-0.679498553276062,9.211938858032227,3.62109375,1,B1,6.1,180,218.17884763521565,8.434072620196869,[6800|0|10000|0]
29900,1.358956217765808,0.14166662096977234,0.9439883828163147,-5.652047634124756,-2.1409480571746826,8.694852828979492,3.626953125,1,B1,6.1,180,218.17884763521565,8.556903095271997,[6800|0|10000|0]
30000,1.450976848602295,0.08048922568559647,0.9221147298812866,-4.91929292678833,-0.8200342059135437,9.364738464355469,3.63671875,1,B1,6.1,180,218.17884763521565,8.66954823225546,[6800|0|10000|0]
30100,1.5421777963638306,0.028398219496011734,0.9134634137153625,-3.107167959213257,0.9477366209030151,7.248411655426025,3.615234375,1,B1,6.1,180,218.17884763521565,8.774932913636809,[6800|0|10000|0]
30200,1.63067626953125,-0.018379032611846924,0.91547030210495,-0.02734566107392311,1.4389675855636597,6.615499973297119,3.630859375,1,B1,6.1,180,218.17884763521565,8.875053434354266,[6800|0|10000|0]
30300,1.7175941467285156,-0.06645632535219193,0.9279636740684509,-0.4780934154987335,3.6590402126312256,3.5617270469665527,3.66796875,1,B1,6.1,180,218.17884763521565,8.975164511647131,[6800|0|10000|0]
30400,1.7986514568328857,-0.11460530012845993,0.9449877738952637,-0.9215479493141174,6.550690174102783,-0.31378424167633057,3.6796875,1,B1,6.1,180,218.17884763521565,9.070968641350788,[6800|0|10000|0]
30500,1.8699231147766113,-0.16083727777004242,0.9617409110069275,-3.0815846920013428,9.23929214477539,-2.541699171066284,3.68359375,1,B1,6.1,180,218.17884763521565,9.15755797432998,[6800|0|10000|0]
30600,1.92857825756073,-0.2016802281141281,0.9740809202194214,-4.187747001647949,10.252791404724121,-3.613522529602051,3.68359375,1,B1,6.1,180,218.17884763521565,9.230089679088653,[6800|0|10000|0]
30700,1.9733017683029175,-0.23564501106739044,0.9809054732322693,-5.749996662139893,10.693881034851074,-4.0853705406188965,3.66796875,1,B1,6.1,180,218.17884763521565,9.286661522067241,[6800|0|10000|0]
30800,2.0046989917755127,-0.2603696882724762,0.9818968772888184,-6.425222396850586,10.185876846313477,-4.470214366912842,3.66796875,1,B1,6.1,180,218.17884763521565,9.326637492182888,[6800|0|10000|0]
30900,2.0198733806610107,-0.2742687165737152,0.9807621836662292,-6.1124372482299805,8.411162376403809,-4.911353588104248,3.6640625,1,B1,6.1,180,218.17884763521565,9.34724653377594,[6800|0|10000|0]
31000,2.0249640941619873,-0.2780502140522003,0.9773170948028564,-4.928695201873779,6.667381286621094,-4.9957804679870605,3.658203125,1,B1,6.1,180,218.17884763521565,9.354463439235023,[6800|0|10000|0]
31100,2.023808717727661,-0.27603644132614136,0.9752229452133179,-3.867133855819702,4.840924263000488,-4.903409957885742,3.658203125,1,B1,6.1,180,218.17884763521565,9.357590040872676,[6800|0|10000|0]
31200,2.017009735107422,-0.26797372102737427,0.9743810296058655,-2.5765557289123535,2.963496685028076,-5.0545454025268555,3.6640625,1,B1,6.1,180,218.17884763521565,9.368170326557692,[6800|0|10000|0]
31300,2.0079994201660156,-0.2575232684612274,0.9753603935241699,-1.4473899602890015,1.9573092460632324,-5.220447540283203,3.66796875,1,B1,6.1,180,218.17884763521565,9.382003507242736,[6800|0|10000|0]
31400,1.9981359243392944,-0.244487464427948,0.9754213690757751,-0.2508646845817566,1.4107739925384521,-5.635840892791748,3.6640625,1,B1,6.1,180,218.17884763521565,9.398350508641638,[6800|0|10000|0]
31500,1.9878029823303223,-0.23253582417964935,0.9751593470573425,0.5133272409439087,0.5689045786857605,-5.104018211364746,3.6640625,1,B1,6.1,180,218.17884763521565,9.414151776018771,[6800|0|10000|0]
31600,1.9775903224945068,-0.21970149874687195,0.9720364809036255,0.26655811071395874,0.4771672487258911,-4.57455587387085,3.658203125,1,B1,6.1,180,218.17884763521565,9.430848201482043,[6800|0|10000|0]
31700,1.96843421459198,-0.21411269903182983,0.9752050042152405,0.2501887083053589,0.7309441566467285,-4.534636974334717,3.66796875,1,B1,6.1,180,218.17884763521565,9.44203339411131,[6800|0|10000|0]
31800,1.9588464498519897,-0.20570693910121918,0.9750025272369385,0.46157926321029663,0.5263415575027466,-4.665332317352295,3.66796875,1,B1,6.1,180,218.17884763521565,9.454785767602043,[6800|0|10000|0]
31900,1.9493675231933594,-0.197306826710701,0.97440105676651,0.26785340905189514,0.29752644896507263,-4.4810709953308105,3.7734375,1,B1,6.1,180,218.17884763521565,9.467465424754343,[6800|0|10000|0]
32000,1.9391793012619019,-0.19145698845386505,0.9620354771614075,0.9314599633216858,-0.28169792890548706,-3.9650864601135254,3.87890625,1,B1,6.1,180,218.17884763521565,9.484522037334978,[6800|0|10000|0]
