time.ms,stateEstimate.x,stateEstimate.y,stateEstimate.z,stabilizer.roll,stabilizer.pitch,stabilizer.yaw,pm.vbat,drone_id,node_name,wind_speed,global_wind_direction,relative_wind_direction,travel_dist,waiting_time
0,-0.31843289732933044,-0.37818485498428345,0.014641671441495419,0.5396381616592407,0.09560195356607437,-7.826808929443359,4.07421875,2,K1,6.1,270,0,0.04410779203794683,[100|0|0|0]
100,-0.318368524312973,-0.37860623002052307,0.014865235425531864,0.5448952317237854,0.09188568592071533,-7.807132720947266,4.07421875,2,K1,6.1,270,0,0.04458912525034667,[200|0|0|0]
200,-0.3186076283454895,-0.37838122248649597,0.014908219687640667,0.5376561284065247,0.09697464853525162,-7.820966720581055,4.07421875,2,K1,6.1,270,0,0.04492025479527378,[300|0|0|0]
300,-0.3185403048992157,-0.3781653344631195,0.015004153363406658,0.535279393196106,0.09584090113639832,-7.832874298095703,4.07421875,2,K1,6.1,270,0,0.04516590364058259,[400|0|0|0]
400,-0.3184894621372223,-0.37839633226394653,0.014874533750116825,0.5401894450187683,0.09007775038480759,-7.8551740646362305,4.07421875,2,K1,6.1,270,0,0.045435618702422756,[500|0|0|0]
500,-0.3183214068412781,-0.3785605728626251,0.015060323290526867,0.5448686480522156,0.08186183124780655,-7.838079452514648,4.07421875,2,K1,6.1,270,0,0.045735177227714516,[600|0|0|0]
600,-0.31854358315467834,-0.37850096821784973,0.015083923935890198,0.5414985418319702,0.09031689912080765,-7.843749523162842,4.07421875,2,K1,6.1,270,0,0.045966417402373894,[700|0|0|0]
700,-0.3181930482387543,-0.37851470708847046,0.014823767356574535,0.4971676170825958,0.05953936278820038,-7.840167045593262,4.07421875,2,K1,6.1,270,0,0.04640316095368181,[800|0|0|0]
800,-0.31845325231552124,-0.3783814013004303,0.015009201131761074,0.4783044159412384,0.058784179389476776,-7.831420421600342,4.07421875,2,K1,6.1,270,0,0.04674937227595636,[900|0|0|0]
900,-0.3186827003955841,-0.3786064386367798,0.015205979347229004,0.6135556697845459,0.11940321326255798,-7.841524600982666,4.07421875,2,K1,6.1,270,0,0.04712621427239326,[1000|0|0|0]
1000,-0.3186555504798889,-0.37860241532325745,0.015321350656449795,0.5809215903282166,0.09031623601913452,-7.843331336975098,4.07421875,2,K1,6.1,270,0,0.04724480535116934,[1100|0|0|0]
1100,-0.3187136948108673,-0.3785926401615143,0.014821805991232395,0.5473058223724365,0.07545329630374908,-7.829906463623047,4.07421875,2,K1,6.1,270,0,0.04774781746788145,[1200|0|0|0]
1200,-0.318418949842453,-0.3787679076194763,0.014898324385285378,0.5250962972640991,0.052058082073926926,-7.834673881530762,4.07421875,2,K1,6.1,270,0,0.04809916963146447,[1300|0|0|0]
1300,-0.31836432218551636,-0.37844574451446533,0.0150943947955966,0.5067553520202637,0.049049731343984604,-7.853615760803223,4.07421875,2,K1,6.1,270,0,0.04848024292222665,[1400|0|0|0]
1400,-0.31818991899490356,-0.3786347806453705,0.014970257878303528,0.5047050714492798,0.04255275800824165,-7.827510833740234,4.07421875,2,K1,6.1,270,0,0.0487658319729946,[1500|0|0|0]
1500,-0.3183451294898987,-0.37823256850242615,0.014871262945234776,0.4577391445636749,0.0291636623442173,-7.8504509925842285,4.07421875,2,K1,6.1,270,0,0.04920817222942825,[1600|0|0|0]
1600,-0.31821468472480774,-0.3784673810005188,0.014832835644483566,0.48709774017333984,0.04007144272327423,-7.816515922546387,4.07421875,2,K1,6.1,270,0,0.04947951961460667,[1700|0|0|0]
1700,-0.31877318024635315,-0.3780779242515564,0.01470000110566616,0.4970076382160187,0.06243329495191574,-7.81288480758667,4.07421875,2,K1,6.1,270,0,0.05017323340400506,[1800|0|0|0]
1800,-0.3184680640697479,-0.37829259037971497,0.014739644713699818,0.5245710611343384,0.058110952377319336,-7.801679611206055,4.07421875,2,K1,6.1,270,0,0.05054839875883238,[1900|0|0|0]
1900,-0.31825894117355347,-0.3784809112548828,0.015039491467177868,0.5428449511528015,0.05256979539990425,-7.822604179382324,4.07421875,2,K1,6.1,270,0,0.05095962280154884,[2000|0|0|0]
2000,-0.3185776472091675,-0.3786238729953766,0.015113758854568005,0.5614479780197144,0.07509580999612808,-7.847527503967285,4.07421875,2,K1,6.1,270,0,0.05131673236626472,[2100|0|0|0]
2100,-0.31829023361206055,-0.3784126341342926,0.014919291250407696,0.5594927668571472,0.07154452055692673,-7.863887310028076,4.07421875,2,K1,6.1,270,0,0.05172299100469824,[2200|0|0|0]
2200,-0.3183002471923828,-0.37859708070755005,0.015097449533641338,0.5636338591575623,0.07554227113723755,-7.8606276512146,4.07421875,2,K1,6.1,270,0,0.051979625343908806,[2300|0|0|0]
2300,-0.3184978663921356,-0.3782126009464264,0.014910664409399033,0.5633351802825928,0.08726025372743607,-7.874264240264893,4.07421875,2,K1,6.1,270,0,0.05245054648110999,[2400|0|0|0]
2400,-0.3184382915496826,-0.3785132169723511,0.015030193142592907,0.5264493227005005,0.06753887236118317,-7.839077472686768,4.07421875,2,K1,6.1,270,0,0.05277949370325206,[2500|0|0|0]
2500,-0.31839871406555176,-0.37834402918815613,0.01481799129396677,0.48478904366493225,0.042439572513103485,-7.851412296295166,4.07421875,2,K1,6.1,270,0,0.05305375727744899,[2600|0|0|0]
2600,-0.3183264136314392,-0.37832388281822205,0.015131859108805656,0.4735162854194641,0.039904579520225525,-7.861297130584717,4.07421875,2,K1,6.1,270,0,0.0533764742342178,[2700|0|0|0]
2700,-0.3182753026485443,-0.3782735764980316,0.015305520966649055,0.4677446782588959,0.03972654417157173,-7.857479095458984,4.07421875,2,K1,6.1,270,0,0.05356436116642226,[2800|0|0|0]
2800,-0.3179016411304474,-0.3786678910255432,0.014711597934365273,0.46344196796417236,0.024393560364842415,-7.8557329177856445,4.07421875,2,K1,6.1,270,0,0.05436925336106099,[2900|0|0|0]
2900,-0.31826838850975037,-0.37838080525398254,0.014502751640975475,0.44523659348487854,0.030019156634807587,-7.841231822967529,4.07421875,2,K1,6.1,270,0,0.05487968323354187,[3000|0|0|0]
3000,-0.3183702230453491,-0.37825995683670044,0.014823000878095627,0.4332060217857361,0.030257726088166237,-7.865391731262207,4.07421875,2,K1,6.1,270,0,0.055236802522402394,[3100|0|0|0]
3100,-0.31851497292518616,-0.3784661889076233,0.014649132266640663,0.4358927607536316,0.027526909485459328,-7.868318557739258,4.07421875,2,K1,6.1,270,0,0.055542930745275165,[3200|0|0|0]
3200,-0.31867098808288574,-0.3784938156604767,0.014626655727624893,0.43903377652168274,0.02847660519182682,-7.8708319664001465,4.07421875,2,K1,6.1,270,0,0.05570295937306212,[3300|0|0|0]
3300,-0.31854870915412903,-0.37826523184776306,0.014692717231810093,0.4409821331501007,0.031156443059444427,-7.851126194000244,4.07421875,2,K1,6.1,270,0,0.05597047912595487,[3400|0|0|0]
3400,-0.3188725411891937,-0.3786417841911316,0.014829556457698345,0.5955491065979004,0.10615254193544388,-7.845752716064453,4.07421875,2,K1,6.1,270,0,0.056485633304790846,[3500|0|0|0]
3500,-0.31880754232406616,-0.3784467875957489,0.01488601416349411,0.558242678642273,0.08884565532207489,-7.833800315856934,4.07421875,2,K1,6.1,270,0,0.056698790517247834,[3600|0|0|0]
3600,-0.3184625506401062,-0.37858250737190247,0.01505510974675417,0.5411584973335266,0.06643853336572647,-7.837308883666992,4.07421875,2,K1,6.1,270,0,0.057106261296468584,[3700|0|0|0]
3700,-0.31878548860549927,-0.3786489963531494,0.01505252718925476,0.5221595168113708,0.0639929324388504,-7.853631973266602,4.07421875,2,K1,6.1,270,0,0.05743598297261789,[3800|0|0|0]
3800,-0.3186342716217041,-0.3784654438495636,0.01480439119040966,0.5047643184661865,0.055153124034404755,-7.849416255950928,4.07421875,2,K1,6.1,270,0,0.05777968280049621,[3900|0|0|0]
3900,-0.3190080523490906,-0.3787538707256317,0.014717315323650837,0.5137214064598083,0.06023155152797699,-7.8423237800598145,4.07421875,2,K1,6.1,270,0,0.05825977060660648,[4000|0|0|0]
4000,-0.318759948015213,-0.37867212295532227,0.015041118487715721,0.4995856285095215,0.03876134753227234,-7.8679633140563965,4.07421875,2,K1,6.1,270,0,0.05867580780145548,[4100|0|0|0]
4100,-0.31849974393844604,-0.3785702586174011,0.01494213193655014,0.49417948722839355,0.033398184925317764,-7.881319046020508,4.07421875,2,K1,6.1,270,0,0.05897225483250474,[4200|0|0|0]
4200,-0.318829745054245,-0.3784501254558563,0.01488146185874939,0.4963839650154114,0.05029644817113876,-7.880692958831787,4.07421875,2,K1,6.1,270,0,0.05932864446657348,[4300|0|0|0]
4300,-0.3186136484146118,-0.3787667751312256,0.014986734837293625,0.5021777749061584,0.04674642160534859,-7.881309509277344,4.07421875,2,K1,6.1,270,0,0.05972619594070455,[4400|0|0|0]
4400,-0.31872785091400146,-0.37876948714256287,0.014713512733578682,0.49611860513687134,0.04336845874786377,-7.887820243835449,4.07421875,2,K1,6.1,270,0,0.06002233760246587,[4500|0|0|0]
4500,-0.3188425898551941,-0.37854716181755066,0.01487759780138731,0.5039134621620178,0.0499914288520813,-7.885255813598633,4.07421875,2,K1,6.1,270,0,0.06032153232876557,[4600|0|0|0]
4600,-0.3186061978340149,-0.37861379981040955,0.014772617258131504,0.5123699307441711,0.042336203157901764,-7.870415687561035,4.07421875,2,K1,6.1,270,0,0.06058863291699355,[4700|0|0|0]
4700,-0.31902629137039185,-0.3786214292049408,0.015044120140373707,-0.08151079714298248,-0.11604689806699753,-6.58113431930542,4.07421875,2,K1,6.1,270,0,0.06108888345625606,[4800|0|0|0]
4800,-0.3186072111129761,-0.377940833568573,0.015022991225123405,-0.36894822120666504,-0.4099881052970886,-7.319813251495361,4.07421875,2,K1,6.1,270,0,0.06188843652732652,[4900|0|0|0]
4900,-0.3182988166809082,-0.378215491771698,0.014980622567236423,-0.08633588254451752,-0.3904334604740143,-7.487954139709473,4.07421875,2,K1,6.1,270,0,0.06230357428451739,[5000|0|0|0]
5000,-0.3183375895023346,-0.37816092371940613,0.015238724648952484,0.16604971885681152,-0.27209916710853577,-7.5625200271606445,4.07421875,2,K1,6.1,270,0,0.06257021578278511,[5100|0|0|0]
5100,-0.3185473382472992,-0.3781763017177582,0.014905150979757309,0.30547040700912476,-0.17103613913059235,-7.615412712097168,4.07421875,2,K1,6.1,270,0,0.06296455372367829,[5200|0|0|0]
5200,-0.31855082511901855,-0.37841111421585083,0.014655825681984425,0.39899739623069763,-0.11841194331645966,-7.68026876449585,4.07421875,2,K1,6.1,270,0,0.0633070623683056,[5300|0|0|0]
5300,-0.3180498778820038,-0.3785422742366791,0.01472999807447195,0.4465583860874176,-0.10432157665491104,-7.729004859924316,4.07421875,2,K1,6.1,270,0,0.06383018054725155,[5400|0|0|0]
5400,-0.31847426295280457,-0.3785606920719147,0.014864548109471798,0.4733952581882477,-0.05166707560420036,-7.764708042144775,4.07421875,2,K1,6.1,270,0,0.06427576512608234,[5500|0|0|0]
5500,-0.31830307841300964,-0.37844908237457275,0.014815657399594784,0.439403235912323,-0.05797046050429344,-7.782879829406738,4.07421875,2,K1,6.1,270,0,0.0644858869305621,[5600|0|0|0]
5600,-0.31838300824165344,-0.37850871682167053,0.014981219545006752,0.43944495916366577,-0.04384502023458481,-7.779184818267822,4.07421875,2,K1,6.1,270,0,0.0646791635943917,[5700|0|0|0]
5700,-0.3184126317501068,-0.37861013412475586,0.014879005961120129,0.44832152128219604,-0.032710328698158264,-7.767003059387207,4.07421875,2,K1,6.1,270,0,0.06482616916690219,[5800|0|0|0]
5800,-0.3182883858680725,-0.37861892580986023,0.014853096567094326,0.44388797879219055,-0.027529722079634666,-7.794798374176025,4.07421875,2,K1,6.1,270,0,0.06495339192283933,[5900|0|0|0]
5900,-0.31840574741363525,-0.378111332654953,0.015007167123258114,0.42780402302742004,-0.014762694016098976,-7.810922145843506,4.07421875,2,K1,6.1,270,0,0.065496680317306,[6000|0|0|0]
6000,-0.3184887170791626,-0.3787981867790222,0.014687923714518547,0.43405672907829285,-0.019008535891771317,-7.837828636169434,4.07421875,2,K1,6.1,270,0,0.0662586310422038,[6100|0|0|0]
6100,-0.31866973638534546,-0.37866780161857605,0.014891347847878933,0.43264055252075195,-0.00020382714865263551,-7.851400375366211,4.07421875,2,K1,6.1,270,0,0.0665605410574549,[6200|0|0|0]
6200,-0.31857314705848694,-0.3783147931098938,0.015098152682185173,0.4288848042488098,0.0019943134393543005,-7.843695640563965,4.07421875,2,K1,6.1,270,0,0.06698091320776636,[6300|0|0|0]
6300,-0.318878710269928,-0.37859228253364563,0.01477328035980463,0.4429421126842499,0.015619379468262196,-7.848755836486816,4.07421875,2,K1,6.1,270,0,0.06750618578684242,[6400|0|0|0]
6400,-0.31860578060150146,-0.3784850537776947,0.014892006292939186,0.44459041953086853,0.01212132815271616,-7.842396259307861,4.07421875,2,K1,6.1,270,0,0.06782254706324783,[6500|0|0|0]
6500,-0.31876882910728455,-0.3786777853965759,0.015047409571707249,0.5970031023025513,0.0950431078672409,-7.83219051361084,4.07421875,2,K1,6.1,270,0,0.06811899346853306,[6600|0|0|0]
6600,-0.31883862614631653,-0.3785221576690674,0.014747564680874348,0.5683037042617798,0.08571522682905197,-7.833319664001465,4.07421875,2,K1,6.1,270,0,0.06846395516899516,[6700|0|0|0]
6700,-0.31847622990608215,-0.3785896301269531,0.014890365302562714,0.5463584065437317,0.06906513124704361,-7.841466426849365,4.07421875,2,J2,6.1,270,0,0.0688592722380217,[6700|0|0|0]
6800,-0.3183201551437378,-0.37878844141960144,0.014727065339684486,0.5546295642852783,0.08189840614795685,-7.8878607749938965,2.861328125,2,J2,6.1,270,0,0.06916019106329087,[6700|0|0|0]
6900,-0.31827235221862793,-0.3782237768173218,0.017729640007019043,-1.0723977088928223,-0.4154570996761322,-7.850593566894531,3.2578125,2,J2,6.1,270,0,0.07221577380077908,[6700|0|0|0]
7000,-0.31599628925323486,-0.3722522258758545,0.050362590700387955,-2.345069169998169,-1.1532206535339355,-6.472437381744385,3.53125,2,J2,6.1,270,0,0.10546858352003166,[6700|0|0|0]
7100,-0.3108808994293213,-0.35981807112693787,0.11478830128908157,0.05582927167415619,3.284695863723755,-3.9436194896698,3.599609375,2,J2,6.1,270,0,0.17128231766594315,[6700|0|0|0]
7200,-0.3103732764720917,-0.3447495996952057,0.19281283020973206,1.1517658233642578,3.821779727935791,-2.2573885917663574,3.615234375,2,J2,6.1,270,0,0.2507501956144895,[6700|0|0|0]
7300,-0.3173364996910095,-0.328478068113327,0.2779857814311981,2.5908308029174805,3.2294676303863525,-1.0327494144439697,3.60546875,2,J2,6.1,270,0,0.33774261388982424,[6700|0|0|0]
7400,-0.3284239172935486,-0.31578537821769714,0.36472198367118835,3.781291961669922,1.3368420600891113,0.26858916878700256,3.578125,2,J2,6.1,270,0,0.42610099767368603,[6700|0|0|0]
7500,-0.34132447838783264,-0.3074544668197632,0.453635036945343,4.382012844085693,-0.546757161617279,0.8308717012405396,3.552734375,2,J2,6.1,270,0,0.5163304806811834,[6700|0|0|0]
7600,-0.351140558719635,-0.305685430765152,0.543412446975708,3.7197694778442383,-1.487548589706421,0.7726132869720459,3.552734375,2,J2,6.1,270,0,0.6066602558021433,[6700|0|0|0]
7700,-0.3568744659423828,-0.3090899586677551,0.6348815560340881,2.823350667953491,-1.8060017824172974,0.19491004943847656,3.552734375,2,J2,6.1,270,0,0.698372122069342,[6700|0|0|0]
7800,-0.35798317193984985,-0.3162887394428253,0.7280745506286621,1.5580939054489136,-1.7497256994247437,-0.31584951281547546,3.552734375,2,J2,6.1,270,0,0.7918493166953074,[6700|0|0|0]
7900,-0.3548734188079834,-0.3244234621524811,0.823097825050354,0.8650646209716797,-0.8018196821212769,-0.7073659300804138,3.55859375,2,J2,6.1,270,0,0.8872708392147282,[6700|0|0|0]
8000,-0.3496973216533661,-0.33209702372550964,0.9196538329124451,0.23127099871635437,0.2178143411874771,-0.7209151387214661,3.55859375,2,J2,6.1,270,0,0.9842694896343772,[6700|0|0|0]
8100,-0.3428165912628174,-0.3411693871021271,1.024999737739563,0.10733738541603088,0.7874048948287964,-0.7168195843696594,3.5625,2,J2,6.1,270,0,1.0902289719461977,[6700|0|0|0]
8200,-0.33862340450286865,-0.3469196557998657,1.1229223012924194,-0.15267139673233032,1.3326873779296875,-0.7271832823753357,3.552734375,2,J2,6.1,270,0,1.1884098094760498,[6700|0|0|0]
8300,-0.3369118273258209,-0.35080286860466003,1.2231682538986206,0.1866581290960312,1.365251898765564,-0.7892324924468994,3.552734375,2,J2,6.1,270,0,1.288745545144081,[6700|0|0|0]
8400,-0.34252023696899414,-0.3480757176876068,1.315321445465088,0.5824188590049744,1.5697081089019775,-0.865601658821106,3.541015625,2,J2,6.1,270,0,1.3811095117476004,[6700|0|0|0]
8500,-0.34256160259246826,-0.35285502672195435,1.4154783487319946,0.5813429951667786,1.0210046768188477,-1.2730536460876465,3.578125,2,J2,6.1,270,0,1.4813803887656913,[6700|0|0|0]
8600,-0.34566351771354675,-0.35825303196907043,1.515059471130371,0.6750218868255615,0.6242069005966187,-1.1066776514053345,3.658203125,2,J2,6.1,270,0,1.5811559382564695,[6700|0|0|0]
8700,-0.34964844584465027,-0.3643990159034729,1.6059582233428955,0.45392507314682007,0.4342986047267914,-1.4961518049240112,3.673828125,2,J2,6.1,270,0,1.6723493367265665,[6700|0|0|0]
8800,-0.35355547070503235,-0.37343454360961914,1.6812293529510498,0.36067861318588257,-0.0850512683391571,-1.0220400094985962,3.673828125,2,J2,6.1,270,0,1.7482614474644174,[6700|0|0|0]
8900,-0.3581922948360443,-0.3818385899066925,1.7396427392959595,-0.1484660655260086,-0.30515414476394653,0.4964284300804138,3.65234375,2,J2,6.1,270,0,1.8074581689654006,[6700|0|0|0]
9000,-0.3600179851055145,-0.38963034749031067,1.7774993181228638,-0.49568501114845276,-0.7656650543212891,7.874408721923828,3.63671875,2,J2,6.1,270,0,1.8461513879020506,[6700|0|0|0]
9100,-0.3610721826553345,-0.4028022289276123,1.8096110820770264,-1.1098737716674805,-0.8638614416122437,14.092432022094727,3.62109375,2,J2,6.1,270,0,1.8808756615059754,[6700|0|0|0]
9200,-0.36133724451065063,-0.41314417123794556,1.827462911605835,-1.629910945892334,-0.7783344388008118,16.97620964050293,3.59375,2,J2,6.1,270,0,1.9015084956802484,[6700|0|0|0]
9300,-0.3625452220439911,-0.4189589321613312,1.8370822668075562,-2.3536503314971924,-0.5761048197746277,10.220699310302734,3.578125,2,J2,6.1,270,0,1.912813479042203,[6700|0|0|0]
9400,-0.358268141746521,-0.42413529753685,1.842368483543396,-1.8915292024612427,-0.5776101350784302,6.223548889160156,3.57421875,2,J2,6.1,270,0,1.9213593705550966,[6700|0|0|0]
9500,-0.3527074158191681,-0.4277111291885376,1.8428398370742798,-1.5856164693832397,-0.04702752083539963,3.947955846786499,3.53125,2,J2,6.1,270,0,1.9279873731947628,[6700|0|0|0]
9600,-0.34594807028770447,-0.4310813844203949,1.8394575119018555,-1.2058131694793701,0.6047771573066711,2.9190595149993896,3.521484375,2,J2,6.1,270,0,1.9362630904394247,[6700|0|0|0]
9700,-0.34210994839668274,-0.4323306977748871,1.833513617515564,-0.9067651629447937,1.1372073888778687,2.4172112941741943,3.515625,2,J2,6.1,270,0,1.943447924743947,[6700|0|0|0]
9800,-0.3385002911090851,-0.4321010112762451,1.827345609664917,-2.788341760635376,-0.9154689908027649,1.3056379556655884,3.673828125,2,J2,6.1,270,203.72839107595252,1.9505982186167334,[6700|0|0|0]
9900,-0.32273000478744507,-0.42501384019851685,1.8083492517471313,-14.459444999694824,-13.870929718017578,-0.23290807008743286,3.568359375,2,J2,6.1,270,203.72839107595252,1.976284626280946,[6700|0|0|0]
10000,-0.29148930311203003,-0.4130997955799103,1.7812674045562744,-15.167431831359863,-11.16889762878418,0.5298102498054504,3.48828125,2,J2,6.1,270,203.72839107595252,2.0193119704659566,[6700|0|0|0]
10100,-0.2341231107711792,-0.3909427225589752,1.7376658916473389,-15.900768280029297,-8.761564254760742,2.219301700592041,3.44140625,2,J2,6.1,270,203.72839107595252,2.094697034215287,[6700|0|0|0]
10200,-0.15777917206287384,-0.3446975648403168,1.6877853870391846,-14.576831817626953,-2.3479397296905518,0.5431222915649414,3.42578125,2,J2,6.1,270,203.72839107595252,2.1969471018430653,[6700|0|0|0]
10300,-0.06230570375919342,-0.28107067942619324,1.65159010887146,-10.499415397644043,5.6873626708984375,-4.831735134124756,3.447265625,2,J2,6.1,270,203.72839107595252,2.317253634745792,[6700|0|0|0]
10401,0.03445257619023323,-0.20563554763793945,1.6256356239318848,-4.453057765960693,12.792205810546875,-16.449932098388672,3.435546875,2,J2,6.1,270,203.72839107595252,2.4426580171858068,[6700|0|0|0]
10500,0.12088397890329361,-0.11099516600370407,1.5970163345336914,-0.0682462602853775,16.722707748413086,-19.5316162109375,3.431640625,2,J2,6.1,270,203.72839107595252,2.573983006949669,[6700|0|0|0]
10600,0.20669223368167877,-0.009062382392585278,1.5646874904632568,3.7786295413970947,18.307357788085938,-22.68922996520996,3.419921875,2,J2,6.1,270,203.72839107595252,2.7110906402957156,[6700|0|0|0]
10701,0.24130655825138092,0.12642337381839752,1.540733814239502,4.736083030700684,20.13927459716797,-15.74061107635498,3.388671875,2,J2,6.1,270,203.72839107595252,2.8529649515931137,[6700|0|0|0]
10801,0.16507954895496368,0.30985379219055176,1.5534974336624146,9.652052879333496,16.137041091918945,-9.581335067749023,3.44140625,2,J2,6.1,270,203.72839107595252,3.052013150055779,[6700|0|0|0]
10900,0.13596993684768677,0.441790908575058,1.559442400932312,14.441134452819824,2.6731960773468018,0.4370196759700775,3.45703125,2,J2,6.1,270,203.72839107595252,3.1872541010755606,[6700|0|0|0]
11000,0.1259208470582962,0.5497115254402161,1.5656651258468628,16.558530807495117,-3.2736153602600098,1.1169191598892212,3.453125,2,J2,6.1,270,203.72839107595252,3.295820053636728,[6700|0|0|0]
11100,0.13863679766654968,0.6451287865638733,1.5730177164077759,17.412187576293945,-3.6283316612243652,-3.3797333240509033,3.462890625,2,J2,6.1,270,203.72839107595252,3.3923612868387547,[6700|0|0|0]
11200,0.16155606508255005,0.7164080142974854,1.5807358026504517,17.72698211669922,-0.2773256003856659,-3.6659040451049805,3.484375,2,J2,6.1,270,203.72839107595252,3.4676314002997803,[6700|0|0|0]
11300,0.18458537757396698,0.7891324758529663,1.5821343660354614,17.563854217529297,4.551244258880615,-3.620654582977295,3.47265625,2,J2,6.1,270,203.72839107595252,3.5439278780815484,[6700|0|0|0]
11400,0.2092510461807251,0.8225788474082947,1.584112524986267,18.10451889038086,7.521193981170654,-1.668866515159607,3.462890625,2,J2,6.1,270,203.72839107595252,3.5855327827307617,[6700|0|0|0]
11501,0.23278790712356567,0.8307478427886963,1.5825111865997314,15.949934005737305,8.747542381286621,-0.9136359095573425,3.45703125,2,J2,6.1,270,203.72839107595252,3.6104983709112117,[6700|0|0|0]
11602,0.2476222664117813,0.8192762732505798,1.5790327787399292,10.949685096740723,9.169342994689941,3.0154316425323486,3.447265625,2,J2,6.1,270,203.72839107595252,3.6295707185485333,[6700|0|0|0]
11701,0.25438833236694336,0.7881062030792236,1.5762765407562256,5.941249370574951,8.165461540222168,4.8396220207214355,3.462890625,2,J2,6.1,270,203.72839107595252,3.6615855552780823,[6700|0|0|0]
11801,0.2502898871898651,0.7475690841674805,1.5734797716140747,1.980650544166565,7.1820902824401855,5.270599365234375,3.453125,2,J2,6.1,270,203.72839107595252,3.702425207335474,[6700|0|0|0]
11902,0.2348223477602005,0.7051575779914856,1.5691014528274536,-1.083100438117981,5.545043468475342,5.6368584632873535,3.44140625,2,J2,6.1,270,203.72839107595252,3.7477810262292164,[6700|0|0|0]
12000,0.20808686316013336,0.6656138300895691,1.5619215965270996,-3.3335416316986084,3.8276360034942627,5.616487503051758,3.447265625,2,J2,6.1,270,203.72839107595252,3.796051560423738,[6700|0|0|0]
12102,0.17473477125167847,0.6325799822807312,1.5539549589157104,-4.167076110839844,1.1499361991882324,4.770421981811523,3.42578125,2,J2,6.1,270,203.72839107595252,3.843665260663886,[6700|0|0|0]
12202,0.13774245977401733,0.6084505319595337,1.5453904867172241,-4.138700008392334,-0.8090964555740356,2.9510984420776367,3.419921875,2,J2,6.1,270,203.72839107595252,3.88865427782699,[6700|0|0|0]
12300,0.10103519260883331,0.5911800861358643,1.535326361656189,-3.1840293407440186,-2.8704025745391846,1.5589169263839722,3.42578125,2,J2,6.1,270,203.72839107595252,3.930451148223333,[6700|0|0|0]
12402,0.06834273785352707,0.5796361565589905,1.5260624885559082,-2.4650356769561768,-4.011072158813477,0.26350897550582886,3.419921875,2,J2,6.1,270,203.72839107595252,3.9663381688968533,[6700|0|0|0]
12501,0.04152679070830345,0.5721187591552734,1.5175583362579346,-1.601567268371582,-4.617750644683838,-0.6992533802986145,3.42578125,2,J2,6.1,270,203.72839107595252,3.9954573531458664,[6700|0|0|0]
12600,0.02196759730577469,0.567264974117279,1.5108503103256226,-0.7836868762969971,-4.241512298583984,-1.507353663444519,3.453125,2,J2,6.1,270,203.72839107595252,4.016696912643679,[6700|0|0|0]
12701,0.008379017934203148,0.5625049471855164,1.5043399333953857,-0.12766893208026886,-3.712284803390503,-1.584605097770691,3.462890625,2,J2,6.1,270,203.72839107595252,4.032498569313231,[6700|0|0|0]
12800,2.555237733758986e-05,0.5569671392440796,1.4977697134017944,0.40847527980804443,-3.1836483478546143,-1.1422739028930664,3.81640625,2,J2,6.1,270,0,4.0444825375362425,[6700|0|0|0]
12902,-0.004248807206749916,0.5496699810028076,1.4744043350219727,0.5264797806739807,-1.8877649307250977,-0.26275160908699036,3.7734375,2,J2,6.1,270,0,4.069331271409108,[6700|0|0|0]
13000,-0.008249104954302311,0.5430704355239868,1.4119610786437988,-0.24683064222335815,-2.4668173789978027,0.9733118414878845,3.642578125,2,J2,6.1,270,0,4.132249604585587,[6700|0|0|0]
13100,-0.011473015882074833,0.535950779914856,1.3143256902694702,-0.6853824257850647,-2.6060550212860107,2.1291418075561523,3.48828125,2,J2,6.1,270,0,4.230197305736093,[6700|0|0|0]
13202,-0.013082753866910934,0.5311490893363953,1.195957064628601,-1.7129110097885132,-2.1929080486297607,3.3602283000946045,3.431640625,2,J2,6.1,270,0,4.3486742192040735,[6700|0|0|0]
13300,-0.013287304900586605,0.528569757938385,1.0734614133834839,-1.9293791055679321,-1.7947057485580444,2.8466908931732178,3.3984375,2,J2,6.1,270,0,4.471197194051861,[6700|0|0|0]
13400,-0.010643841698765755,0.5289254784584045,0.9522634744644165,-1.330858588218689,-0.4951300323009491,1.4582055807113647,3.404296875,2,J2,6.1,270,0,4.592424479895509,[6700|0|0|0]
13500,-0.0076135313138365746,0.5308755040168762,0.8334591388702393,-1.828282356262207,-0.9368650913238525,-0.2016495317220688,3.41015625,2,J2,6.1,270,0,4.711283453207084,[6700|0|0|0]
13600,-0.004438300151377916,0.5346776843070984,0.7158836126327515,-0.03128262236714363,-0.22113622725009918,-0.8519113063812256,3.447265625,2,J2,6.1,270,0,4.828963285964939,[6700|0|0|0]
13700,-0.0013038518372923136,0.5387401580810547,0.5988463759422302,0.35199764370918274,0.2211102396249771,-0.8850259780883789,3.453125,2,J2,6.1,270,0,4.946112947644138,[6700|0|0|0]
13800,-0.0002798533532768488,0.5426812767982483,0.48119568824768066,-0.07243578881025314,-0.6440628170967102,-1.774645209312439,3.3515625,2,J2,6.1,270,0,5.063834081280536,[6700|0|0|0]
13900,-0.006169992499053478,0.5503630638122559,0.3764026165008545,2.7812485694885254,1.5035934448242188,-4.852413177490234,3.3046875,2,J2,6.1,270,0,5.169073292019788,[6700|0|0|0]
14000,-0.008571667596697807,0.5446743369102478,0.2783089578151703,7.311506271362305,4.345627307891846,-10.438661575317383,3.37890625,2,J2,6.1,270,0,5.267361111872422,[6700|0|0|0]
14100,-0.022445835173130035,0.5266361236572266,0.18872413039207458,6.552591323852539,4.645697116851807,-14.981184005737305,3.326171875,2,J2,6.1,270,0,5.359791144695776,[6700|0|0|0]
14200,-0.04561097174882889,0.49799826741218567,0.10964743793010712,2.8673272132873535,1.9219914674758911,-17.126741409301758,3.27734375,2,J2,6.1,270,0,5.447025734473037,[6700|0|0|0]
14300,-0.07219915837049484,0.4663478434085846,0.048399511724710464,-5.998385906219482,-3.738374948501587,-17.56432342529297,3.26171875,2,J2,6.1,270,0,5.520917476040671,[6700|0|0|0]
14400,-0.08378057926893234,0.44464418292045593,0.007221980951726437,-17.82546043395996,-14.816494941711426,-17.810983657836914,3.357421875,2,J2,6.1,270,0,5.568883789523893,[6700|0|0|0]
14500,-0.059774141758680344,0.44608551263809204,-0.015044530853629112,-5.263860702514648,-3.369439125061035,-11.745294570922852,3.357421875,2,J2,6.1,270,0,5.601658536224159,[6700|0|0|0]
14600,-0.029705489054322243,0.45771536231040955,-0.012827442958950996,3.225688934326172,11.079306602478027,-9.359636306762695,3.373046875,2,J2,6.1,270,0,5.633974055059368,[6700|0|0|0]
14700,-0.009295414201915264,0.4705325961112976,0.008386874571442604,-5.397459506988525,-1.7549924850463867,-5.421598434448242,3.416015625,2,J2,6.1,270,0,5.6660816850881925,[6700|0|0|0]
14800,0.012174373492598534,0.4913262128829956,0.0403452143073082,-4.978804111480713,-2.8866236209869385,-0.02172423154115677,3.47265625,2,J2,6.1,270,0,5.709838533246724,[6700|0|0|0]
14900,0.038048986345529556,0.521186351776123,0.07220343500375748,-1.3180220127105713,-1.1233433485031128,4.115191459655762,3.509765625,2,J2,6.1,270,0,5.760593530152936,[6700|0|0|0]
15000,0.06558313220739365,0.5590184330940247,0.1041591688990593,0.04473158344626427,2.9888134002685547,6.408289909362793,3.515625,2,J2,6.1,270,0,5.817255373521944,[6700|0|0|0]
15100,0.08452881872653961,0.5916914939880371,0.128134623169899,3.87825083732605,4.849315166473389,7.180068492889404,3.515625,2,J2,6.1,270,0,5.8619911573348915,[6700|0|0|0]
15200,0.0930163562297821,0.6177730560302734,0.14752914011478424,5.705965995788574,5.808575630187988,7.208881855010986,3.515625,2,J2,6.1,270,0,5.895583320988896,[6700|0|0|0]
15300,0.0896298885345459,0.6339729428291321,0.1621488332748413,7.032970905303955,4.23844575881958,6.865257740020752,3.509765625,2,J2,6.1,270,0,5.9176658915784115,[6700|0|0|0]
15400,0.07942065596580505,0.6394734978675842,0.1683102250099182,5.591165542602539,2.938405990600586,6.952077865600586,3.484375,2,J2,6.1,270,0,5.930797810078263,[6700|0|0|0]
15500,0.06368081271648407,0.6370408535003662,0.1708623319864273,4.4838056564331055,1.0719878673553467,7.748270511627197,3.478515625,2,J2,6.1,270,0,5.946927710082606,[6700|0|0|0]
15600,0.04487133398652077,0.6263043284416199,0.17075961828231812,3.3260245323181152,-1.0728063583374023,7.896212100982666,3.46875,2,J2,6.1,270,0,5.968585965103152,[6700|0|0|0]
15700,0.029625754803419113,0.6164000034332275,0.1705472320318222,1.3098176717758179,-2.9997894763946533,7.735961437225342,3.478515625,2,J2,6.1,270,0,5.98676750646849,[6700|0|0|0]
15800,0.017611365765333176,0.6039853096008301,0.16974981129169464,-0.18411900103092194,-3.05751633644104,7.916475772857666,3.484375,2,J1,6.1,270,0,6.004062189083312,[6700|100|0|0]
15900,0.010150251910090446,0.5928580164909363,0.16829247772693634,-0.544379711151123,-3.618678331375122,8.520918846130371,3.47265625,2,J1,6.1,270,0,6.017538416041677,[6700|200|0|0]
16000,0.00779317319393158,0.5884898900985718,0.16619478166103363,-0.42884355783462524,-2.6160900592803955,8.959510803222656,3.47265625,2,J1,6.1,270,0,6.022926985150331,[6700|300|0|0]
16100,0.008787590079009533,0.5841831564903259,0.16407914459705353,0.20048639178276062,-1.439050316810608,9.525291442871094,3.47265625,2,J1,6.1,270,0,6.027827264683196,[6700|400|0|0]
16200,0.011223141103982925,0.5814386010169983,0.16453981399536133,0.1089768260717392,-0.48648664355278015,9.599637031555176,3.478515625,2,J1,6.1,270,0,6.031525468278992,[6700|500|0|0]
16300,0.013158074580132961,0.5792436003684998,0.16647997498512268,-0.3085181713104248,-0.3511940836906433,9.149313926696777,3.478515625,2,J1,6.1,270,0,6.035036339975626,[6700|600|0|0]
16400,0.015317152254283428,0.5772272944450378,0.16837090253829956,-0.7670471668243408,-0.3634573221206665,8.046226501464844,3.478515625,2,J1,6.1,270,0,6.038543862319299,[6700|700|0|0]
16500,0.016616340726614,0.5781211853027344,0.1680312603712082,-0.4099651873111725,-0.046878524124622345,6.584147930145264,3.462890625,2,J1,6.1,270,0,6.040157023301277,[6700|800|0|0]
16600,0.018090397119522095,0.5805309414863586,0.16687004268169403,-0.5342796444892883,0.5629081130027771,4.726434230804443,3.45703125,2,J1,6.1,270,0,6.043211232468383,[6700|900|0|0]
16700,0.01951480470597744,0.5841608047485352,0.16582396626472473,-0.4274701178073883,0.06986214965581894,2.8851211071014404,3.462890625,2,J1,6.1,270,0,6.047248449349427,[6700|1000|0|0]
16800,0.02128656767308712,0.5896844863891602,0.1654394268989563,1.0082907676696777,-1.0024057626724243,1.6078768968582153,3.453125,2,J1,6.1,270,0,6.053062060396137,[6700|1100|0|0]
16900,0.025475960224866867,0.5930153727531433,0.16228993237018585,0.8644232153892517,-0.40445396304130554,1.2331432104110718,3.447265625,2,J1,6.1,270,0,6.059272143302945,[6700|1200|0|0]
17000,0.0326974093914032,0.5938090682029724,0.1573510318994522,1.640147089958191,-0.5999392867088318,1.6022568941116333,3.431640625,2,J1,6.1,270,0,6.068056903879748,[6700|1300|0|0]
17100,0.04126598313450813,0.5915868282318115,0.1530349999666214,0.8042556047439575,0.0852978527545929,2.236039876937866,3.419921875,2,J1,6.1,270,0,6.0779050985430185,[6700|1400|0|0]
17200,0.05038725212216377,0.587205708026886,0.1498185694217682,0.2281446009874344,-0.11719374358654022,1.9863224029541016,3.416015625,2,J1,6.1,270,0,6.0885228755064436,[6700|1500|0|0]
17300,0.0596633180975914,0.581556499004364,0.15012216567993164,0.4663941562175751,0.3788626492023468,1.347057580947876,3.435546875,2,J1,6.1,270,0,6.099388009341266,[6700|1600|0|0]
17400,0.0682089626789093,0.5749276280403137,0.15084922313690186,0.6868069171905518,0.40046757459640503,0.507739245891571,3.435546875,2,J1,6.1,270,0,6.110227685725456,[6700|1700|0|0]
17500,0.07689400017261505,0.5667253136634827,0.15073129534721375,0.7784202098846436,0.07116773724555969,-0.6735944747924805,3.416015625,2,J1,6.1,270,0,6.122174306350847,[6700|1800|0|0]
17600,0.08479472994804382,0.5555548071861267,0.1487680971622467,1.2661019563674927,0.3862163722515106,-1.6713634729385376,3.37890625,2,J1,6.1,270,0,6.135996603303903,[6700|1900|0|0]
17700,0.09264828264713287,0.541327714920044,0.1475709080696106,1.1185959577560425,0.18399649858474731,-2.4571011066436768,3.927734375,2,J1,6.1,270,0,6.152291440095615,[6700|2000|0|0]
17800,0.0990554466843605,0.524568498134613,0.1276504397392273,1.9676990509033203,5.924674987792969,-4.318904876708984,3.96484375,2,J1,6.1,270,0,6.179100918955951,[6700|2100|0|0]
17900,0.09993836283683777,0.5066744089126587,0.04610981419682503,-2.3606390953063965,14.568941116333008,-7.798619747161865,3.96484375,2,J1,6.1,270,0,6.2625865559473635,[6700|2200|0|0]
18000,0.09802650660276413,0.4910162687301636,-0.03299988433718681,5.926989555358887,-0.7197347283363342,-15.127446174621582,3.96875,2,J1,6.1,270,0,6.343253630707619,[6700|2300|0|0]
18100,0.09109412133693695,0.48729538917541504,-0.03517948091030121,-0.6336253881454468,1.7754591703414917,-12.911619186401367,3.96875,2,J1,6.1,270,0,6.3514177933319385,[6700|2400|0|0]
18200,0.09163112193346024,0.490121990442276,-0.03541819006204605,-0.05300770699977875,1.210984468460083,-14.007678031921387,3.974609375,2,J1,6.1,270,0,6.354304837914485,[6700|2500|0|0]
18300,0.09139696508646011,0.49036893248558044,-0.03435155749320984,-0.9656620025634766,2.04601788520813,-13.815947532653809,3.974609375,2,J1,6.1,270,0,6.355424442683433,[6700|2600|0|0]
18400,0.09159237146377563,0.490074098110199,-0.03366835415363312,-0.5637750625610352,1.451285719871521,-13.650782585144043,3.974609375,2,J1,6.1,270,0,6.356193778607728,[6700|2700|0|0]
18500,0.09160532802343369,0.48990094661712646,-0.03342448174953461,-0.5160480737686157,1.2454283237457275,-13.522862434387207,3.98046875,2,J1,6.1,270,0,6.356493149717677,[6700|2800|0|0]
18600,0.09182851016521454,0.4895174205303192,-0.03335164487361908,-0.3534179925918579,0.9262745380401611,-13.400519371032715,3.98046875,2,J1,6.1,270,0,6.356942824865049,[6700|2900|0|0]
18700,0.09176771342754364,0.48944103717803955,-0.032928112894296646,-0.44279882311820984,0.8889105916023254,-13.339305877685547,3.98046875,2,J1,6.1,270,0,6.357377462642199,[6700|3000|0|0]
18800,0.09205297380685806,0.48919641971588135,-0.03304474055767059,-0.37481850385665894,0.6867788434028625,-13.260477066040039,3.98046875,2,J1,6.1,270,0,6.357770925726443,[6700|3100|0|0]
18900,0.09225299954414368,0.4891853332519531,-0.03304556757211685,-0.2457507997751236,0.44814422726631165,-13.206700325012207,3.98046875,2,J1,6.1,270,0,6.357971260169842,[6700|3200|0|0]
19000,0.09276977926492691,0.4893070459365845,-0.03288155421614647,-0.22461862862110138,0.3125283122062683,-13.106658935546875,3.984375,2,J1,6.1,270,0,6.358526936009113,[6700|3300|0|0]
19100,0.09275716543197632,0.4889658987522125,-0.03267335519194603,-0.16793735325336456,0.1811271756887436,-13.057300567626953,3.984375,2,J1,6.1,270,0,6.358926795164147,[6700|3400|0|0]
19200,0.09230691939592361,0.48926976323127747,-0.032763540744781494,-0.1093914732336998,0.07847364246845245,-13.164451599121094,3.984375,2,J1,6.1,270,0,6.35947742076159,[6700|3500|0|0]
19300,0.09127127379179001,0.49083447456359863,-0.03313498944044113,0.16767792403697968,-0.2657337486743927,-13.15544605255127,3.990234375,2,J1,6.1,270,0,6.361390234789237,[6700|3600|0|0]
19400,0.08624126762151718,0.4914971888065338,-0.033360302448272705,-0.1251419633626938,-0.04632595553994179,-14.149227142333984,3.984375,2,J1,6.1,270,0,6.366468710760655,[6700|3700|0|0]
19500,0.07302938401699066,0.4950290322303772,-0.013944704085588455,-6.469205379486084,-0.23480220139026642,-15.457886695861816,3.990234375,2,J1,6.1,270,0,6.390217252739715,[6700|3800|0|0]
19600,0.0886356383562088,0.4761715233325958,0.02699761837720871,-14.103490829467773,6.665289878845215,-16.6436767578125,3.990234375,2,J1,6.1,270,0,6.437918768281445,[6700|3900|0|0]
19700,0.13261187076568604,0.44780197739601135,0.024674948304891586,-14.927879333496094,7.236128330230713,-11.021440505981445,3.990234375,2,J1,6.1,270,0,6.490303259782701,[6700|4000|0|0]
19800,0.14874574542045593,0.42955660820007324,-0.006020001135766506,-11.878864288330078,3.3732519149780273,-4.920994281768799,3.99609375,2,J1,6.1,270,0,6.529487125462806,[6700|4100|0|0]
19900,0.14714761078357697,0.432711660861969,-0.0308449137955904,-6.138709545135498,-0.8736702799797058,-5.477074146270752,3.990234375,2,J1,6.1,270,0,6.554562704821713,[6700|4200|0|0]
20000,0.13607478141784668,0.4431737959384918,-0.042257145047187805,-2.391390085220337,-2.142989158630371,-4.605437755584717,3.99609375,2,J1,6.1,270,0,6.573596959276824,[6700|4300|0|0]
20100,0.12765318155288696,0.4497043490409851,-0.05050862580537796,-1.1330604553222656,-4.0543107986450195,-6.446323871612549,3.99609375,2,J1,6.1,270,0,6.587075030459777,[6700|4400|0|0]
20200,0.12085885554552078,0.4537576735019684,-0.05466657131910324,-0.8764806389808655,-4.079806327819824,-6.532356262207031,3.99609375,2,J1,6.1,270,0,6.596012637296928,[6700|4500|0|0]
20300,0.12400249391794205,0.45765331387519836,-0.06263061612844467,-4.312841415405273,-5.748781204223633,-7.753359794616699,3.99609375,2,J1,6.1,270,0,6.605419256554626,[6700|4600|0|0]
20400,0.1223856657743454,0.459293007850647,-0.06409700959920883,-4.375231742858887,-5.845428943634033,-7.891712188720703,3.990234375,2,J1,6.1,270,0,6.608149282083838,[6700|4700|0|0]
20500,0.10906141996383667,0.4753955602645874,-0.08113379031419754,-4.384420394897461,-5.86903715133667,-7.433016777038574,3.99609375,2,J1,6.1,270,0,6.635113695999093,[6700|4800|0|0]
20600,0.10963770747184753,0.47488054633140564,-0.08055941015481949,-4.296483516693115,-5.900976657867432,-7.199768543243408,3.99609375,2,J1,6.1,270,0,6.63607663899364,[6700|4900|0|0]
20700,0.1071401983499527,0.4774571359157562,-0.0838334783911705,-4.244496822357178,-5.9076972007751465,-7.185884475708008,3.99609375,2,J1,6.1,270,0,6.640934198928053,[6700|5000|0|0]
20800,0.1061922013759613,0.47840309143066406,-0.08514344692230225,-4.177268981933594,-5.945728778839111,-7.03520393371582,4.04296875,2,J1,6.1,270,0,6.642807577600783,[6700|5100|0|0]
20900,0.10510771721601486,0.4794028103351593,-0.08637961745262146,-4.131091117858887,-5.972914695739746,-6.924744606018066,4.1015625,2,J1,6.1,270,0,6.644732067497148,[6700|5200|0|0]
21000,0.10616748034954071,0.4782862663269043,-0.08526178449392319,-4.0819783210754395,-6.023747444152832,-6.8710808753967285,4.1015625,2,J1,6.1,270,0,6.6466345182705195,[6700|5300|0|0]
21100,0.10721731185913086,0.4774467349052429,-0.08400111645460129,-4.0436296463012695,-6.0681915283203125,-6.784612655639648,4.1015625,2,J1,6.1,270,0,6.6484774081510745,[6700|5400|0|0]
21200,0.10865794867277145,0.4756915271282196,-0.08229164779186249,-3.9859163761138916,-6.087503433227539,-6.755839824676514,4.1015625,2,J1,6.1,270,0,6.651319673423393,[6700|5500|0|0]
21300,0.10868160426616669,0.47550690174102783,-0.08195020258426666,-3.962501049041748,-6.082037448883057,-6.718116283416748,4.10546875,2,J1,6.1,270,0,6.65170855766129,[6700|5600|0|0]
21400,0.10904238373041153,0.475157767534256,-0.08169490098953247,-3.9525957107543945,-6.097196102142334,-6.692931652069092,4.10546875,2,J1,6.1,270,0,6.652271794219437,[6700|5700|0|0]
21500,0.10976318269968033,0.47463372349739075,-0.08113507181406021,-3.947521209716797,-6.10335111618042,-6.690701484680176,4.10546875,2,J1,6.1,270,0,6.653324211442967,[6700|5800|0|0]
21600,0.11182891577482224,0.4722875654697418,-0.07810892164707184,-3.9220426082611084,-6.097169876098633,-6.6734700202941895,4.10546875,2,J1,6.1,270,0,6.657674992460393,[6700|5900|0|0]
21700,0.11185679584741592,0.472407728433609,-0.07843408733606339,-3.933173179626465,-6.100061416625977,-6.649315357208252,4.10546875,2,J1,6.1,270,0,6.658022769920316,[6700|6000|0|0]
21800,0.11253207176923752,0.47147998213768005,-0.07724250853061676,-3.9338698387145996,-6.075543403625488,-6.6449127197265625,4.10546875,2,J1,6.1,270,0,6.659677028306962,[6700|6100|0|0]
21900,0.11210169643163681,0.4718589186668396,-0.07734966278076172,-3.951882839202881,-6.052962779998779,-6.639909267425537,4.11328125,2,J1,6.1,270,0,6.660260378851379,[6700|6200|0|0]
22000,0.11296922713518143,0.4708508253097534,-0.07647546380758286,-3.952281951904297,-6.060175895690918,-6.651879787445068,4.11328125,2,J1,6.1,270,0,6.661851945872557,[6700|6300|0|0]
22100,0.1139846071600914,0.46974894404411316,-0.07548154890537262,-3.957463026046753,-6.072430610656738,-6.6444411277771,4.11328125,2,J1,6.1,270,0,6.663650001976072,[6700|6400|0|0]
22200,0.1135164424777031,0.47066107392311096,-0.07635743170976639,-3.9894065856933594,-6.063424587249756,-6.640709400177002,4.11328125,2,J1,6.1,270,0,6.6649984565630085,[6700|6500|0|0]
22300,0.11397328227758408,0.46984827518463135,-0.07581707835197449,-3.971785545349121,-6.040210723876953,-6.645637512207031,4.11328125,2,J1,6.1,270,0,6.666076104995154,[6700|6600|0|0]
22400,0.11418560892343521,0.46954110264778137,-0.0753595381975174,-3.979447603225708,-6.020432472229004,-6.650134086608887,4.11328125,2,J1,6.1,270,0,6.666666681463424,[6700|6700|0|0]
22500,0.11478060483932495,0.4687260389328003,-0.074262335896492,-3.9820947647094727,-6.01246452331543,-6.662814140319824,4.1171875,2,J1,6.1,270,0,6.668157386628364,[6700|6800|0|0]
22600,0.1143488809466362,0.46941816806793213,-0.07477457821369171,-4.005046844482422,-6.016822814941406,-6.645581245422363,4.1171875,2,J1,6.1,270,0,6.669120620997948,[6700|6900|0|0]
22700,0.11340226978063583,0.47033751010894775,-0.07585977017879486,-4.030771732330322,-5.97528076171875,-6.654214382171631,4.1171875,2,J1,6.1,270,0,6.670829101050246,[6700|7000|0|0]
22800,0.11413011699914932,0.4694935381412506,-0.0753258466720581,-3.998795986175537,-6.016568660736084,-6.63759183883667,4.12109375,2,J1,6.1,270,0,6.672064869866329,[6700|7100|0|0]
22900,0.11371702700853348,0.47016334533691406,-0.07595126330852509,-4.040539264678955,-6.004100322723389,-6.621554374694824,4.12109375,2,J1,6.1,270,0,6.673070071830552,[6700|7200|0|0]
23000,0.11364194005727768,0.47016191482543945,-0.07573773711919785,-4.045047760009766,-5.991851806640625,-6.605735778808594,4.12109375,2,J1,6.1,270,0,6.6732964200802485,[6700|7300|0|0]
23100,0.1130485013127327,0.4710143804550171,-0.07681955397129059,-4.053876876831055,-5.989395618438721,-6.631165504455566,4.12109375,2,J1,6.1,270,0,6.674796151687774,[6700|7400|0|0]
23200,0.11279404908418655,0.4712616801261902,-0.07685527205467224,-4.045846939086914,-5.966009616851807,-6.6098856925964355,4.12109375,2,J1,6.1,270,0,6.675152773119343,[6700|7500|0|0]
23300,0.11231473833322525,0.47143322229385376,-0.07724246382713318,-4.024837493896484,-5.949697017669678,-6.60239315032959,4.12109375,2,J1,6.1,270,0,6.675792369069874,[6700|7600|0|0]
23400,0.11358632147312164,0.4700872302055359,-0.07581371814012527,-4.025249481201172,-5.973994731903076,-6.614043712615967,4.12109375,2,J1,6.1,270,0,6.678131157778078,[6700|7700|0|0]
23500,0.11355738341808319,0.470488578081131,-0.07632975280284882,-4.038331508636475,-5.986613750457764,-6.631416320800781,4.12109375,2,J1,6.1,270,0,6.678785534811146,[6700|7800|0|0]
23600,0.11221998184919357,0.4717903733253479,-0.07750237733125687,-4.044917583465576,-5.948038101196289,-6.604139804840088,4.12890625,2,J1,6.1,270,0,6.680989704064847,[6700|7900|0|0]
23700,0.11338189989328384,0.4704751968383789,-0.07619839161634445,-4.02726936340332,-5.967176914215088,-6.610654354095459,4.12890625,2,J1,6.1,270,0,6.6831760529568935,[6700|8000|0|0]
23800,0.11328118294477463,0.4704749286174774,-0.07594216614961624,-4.0327677726745605,-5.963120460510254,-6.591315746307373,4.12890625,2,J1,6.1,270,0,6.683451362719633,[6700|8100|0|0]
23900,0.11271078139543533,0.47116604447364807,-0.07671601325273514,-4.050384521484375,-5.971726417541504,-6.601352691650391,4.12890625,2,J1,6.1,270,0,6.684635355284282,[6700|8200|0|0]
24000,0.11298810690641403,0.47089123725891113,-0.076291024684906,-4.045533657073975,-5.97065544128418,-6.6052327156066895,4.12890625,2,J1,6.1,270,0,6.685212454692613,[6700|8300|0|0]
24100,0.11257491260766983,0.47137317061424255,-0.07696599513292313,-4.049305438995361,-5.97064733505249,-6.586875915527344,4.12890625,2,J1,6.1,270,0,6.686139047587682,[6700|8400|0|0]
24200,0.11245424300432205,0.47120201587677,-0.0772339329123497,-4.030403137207031,-5.97007942199707,-6.572804927825928,4.12890625,2,J1,6.1,270,0,6.686479114861872,[6700|8500|0|0]
24300,0.112733855843544,0.4713756740093231,-0.07714347541332245,-4.054048538208008,-5.981652736663818,-6.587510585784912,4.12890625,2,J1,6.1,270,0,6.686820469583518,[6700|8600|0|0]
24400,0.1131085753440857,0.47102707624435425,-0.0766233578324318,-4.055303573608398,-5.9851884841918945,-6.58282995223999,4.12890625,2,J1,6.1,270,0,6.687550166372451,[6700|8700|0|0]
24500,0.11246292293071747,0.4713018536567688,-0.07715357840061188,-4.039516448974609,-5.9651994705200195,-6.581762790679932,4.1328125,2,J1,6.1,270,0,6.688429656859143,[6700|8800|0|0]
24600,0.11282104253768921,0.4710698425769806,-0.07668928056955338,-4.0564703941345215,-5.987289905548096,-6.581360816955566,4.1328125,2,J1,6.1,270,0,6.689060252823266,[6700|8900|0|0]
24700,0.1133277639746666,0.470472127199173,-0.07603828608989716,-4.0478315353393555,-5.987766265869141,-6.575110912322998,4.1328125,2,J1,6.1,270,0,6.690078989344699,[6700|9000|0|0]
24800,0.11274641752243042,0.47132277488708496,-0.07697686553001404,-4.058164119720459,-5.993083477020264,-6.586063861846924,4.1328125,2,J1,6.1,270,0,6.691472724094172,[6700|9100|0|0]
24900,0.11239306628704071,0.4715675115585327,-0.07724083214998245,-4.052647113800049,-5.978988170623779,-6.586659908294678,4.1328125,2,J1,6.1,270,0,6.691977136138398,[6700|9200|0|0]
25000,0.11273648589849472,0.4710991084575653,-0.07677721977233887,-4.036823749542236,-5.984704494476318,-6.596287250518799,4.1328125,2,J1,6.1,270,0,6.692720288162705,[6700|9300|0|0]
25100,0.11319281905889511,0.4704742729663849,-0.07600747048854828,-4.0295257568359375,-5.978982448577881,-6.599015712738037,4.1328125,2,J1,6.1,270,0,6.693811697024779,[6700|9400|0|0]
25200,0.1125807911157608,0.47115543484687805,-0.07687394320964813,-4.033253192901611,-5.972621440887451,-6.590902805328369,4.1328125,2,J1,6.1,270,0,6.695072385204713,[6700|9500|0|0]
25300,0.11259022355079651,0.47138115763664246,-0.07709027081727982,-4.041823863983154,-5.985235214233398,-6.580936431884766,4.1328125,2,J1,6.1,270,0,6.69538517488241,[6700|9600|0|0]
25400,0.11187151819467545,0.47197309136390686,-0.07782044261693954,-4.040109157562256,-5.964578151702881,-6.571295738220215,4.1328125,2,J1,6.1,270,0,6.6965684220177994,[6700|9700|0|0]
25500,0.11161832511425018,0.47235411405563354,-0.07813705503940582,-4.040220737457275,-5.973088264465332,-6.555586814880371,4.1328125,2,J1,6.1,270,0,6.697124774831799,[6700|9800|0|0]
25600,0.11083246022462845,0.4732656180858612,-0.07941312342882156,-4.042159080505371,-5.971869468688965,-6.585351943969727,4.13671875,2,J1,6.1,270,0,6.698878848306978,[6700|9900|0|0]
25700,0.11016932874917984,0.47392621636390686,-0.0801740437746048,-4.037657260894775,-5.957663059234619,-6.570041179656982,4.13671875,2,J1,6.1,270,0,6.7000851373317625,[6700|10000|0|0]
25800,0.11104382574558258,0.4728270471096039,-0.0790274366736412,-4.022471904754639,-5.968020915985107,-6.5781989097595215,4.13671875,2,J1,6.1,270,0,6.701898318483854,[6700|10100|0|0]
25900,0.11195927858352661,0.4721023440361023,-0.07801968604326248,-4.023792266845703,-5.992043495178223,-6.5707106590271,4.13671875,2,J1,6.1,270,0,6.703440657543942,[6700|10200|0|0]
26000,0.11133362352848053,0.4727104604244232,-0.07843979448080063,-4.035708904266357,-5.973418712615967,-6.587425708770752,4.13671875,2,J1,6.1,270,0,6.704409027767017,[6700|10300|0|0]
26100,0.11180739849805832,0.47191640734672546,-0.07761859893798828,-4.018968105316162,-5.9694504737854,-6.566606044769287,4.13671875,2,J1,6.1,270,0,6.705645694711483,[6700|10400|0|0]
26200,0.11146502941846848,0.47244590520858765,-0.07846784591674805,-4.035111904144287,-5.989070892333984,-6.55751371383667,4.13671875,2,J1,6.1,270,0,6.706703430502363,[6700|10500|0|0]
26300,0.10994484275579453,0.47402074933052063,-0.08030111342668533,-4.044353008270264,-5.966154098510742,-6.479970932006836,4.13671875,2,J1,6.1,270,0,6.709558596217475,[6700|10600|0|0]
26400,0.11170145869255066,0.4723924696445465,-0.07838913798332214,-4.047245025634766,-5.985122203826904,-6.564803600311279,4.13671875,2,J1,6.1,270,0,6.71262333835688,[6700|10700|0|0]
26500,0.11274807900190353,0.4712373912334442,-0.07684481889009476,-4.039974212646484,-5.9906415939331055,-6.585402965545654,4.13671875,2,J1,6.1,270,0,6.714817544744039,[6700|10800|0|0]
26600,0.1121157854795456,0.471645325422287,-0.07708550989627838,-4.025604724884033,-5.9665398597717285,-6.500819206237793,4.14453125,2,J1,6.1,270,0,6.715607568516656,[6700|10900|0|0]
26700,0.11253628134727478,0.470984548330307,-0.07653233408927917,-4.015614032745361,-5.962270736694336,-6.508725166320801,4.13671875,2,J1,6.1,270,0,6.716566446305278,[6700|11000|0|0]
26800,0.11231614649295807,0.4715704619884491,-0.07741746306419373,-4.045888423919678,-5.974374294281006,-6.601081371307373,4.13671875,2,J1,6.1,270,0,6.717650516169778,[6700|11100|0|0]
26900,0.11271286755800247,0.47129297256469727,-0.07712166011333466,-4.041680812835693,-5.977325439453125,-6.553301811218262,4.13671875,2,J1,6.1,270,0,6.7182178673568576,[6700|11200|0|0]
27000,0.11197676509618759,0.4719538688659668,-0.07757479697465897,-4.049561500549316,-5.956272125244141,-6.5393757820129395,4.13671875,2,J1,6.1,270,0,6.719305968349603,[6700|11300|0|0]
27100,0.1113174706697464,0.4727266728878021,-0.07838641852140427,-4.051900386810303,-5.956756114959717,-6.533514022827148,4.14453125,2,J1,6.1,270,0,6.720606208608956,[6700|11400|0|0]
27200,0.11131211370229721,0.47259521484375,-0.07827728241682053,-4.032612323760986,-5.9441657066345215,-6.522747993469238,4.14453125,2,J1,6.1,270,0,6.720777148960453,[6700|11500|0|0]
27300,0.11070858687162399,0.47327807545661926,-0.07922061532735825,-4.035036087036133,-5.944733142852783,-6.499256610870361,4.14453125,2,J1,6.1,270,0,6.722088796867498,[6700|11600|0|0]
27400,0.11082113534212112,0.4728303849697113,-0.0786026120185852,-4.034237384796143,-5.941269874572754,-6.5184783935546875,4.14453125,2,J1,6.1,270,0,6.722860173571796,[6700|11700|0|0]
27500,0.11236514151096344,0.4711746871471405,-0.07653796672821045,-4.0247344970703125,-5.963291645050049,-6.520547389984131,4.14453125,2,J1,6.1,270,0,6.72592416614753,[6700|11800|0|0]
27600,0.11261384189128876,0.47123026847839355,-0.07722242176532745,-4.026140213012695,-5.980953693389893,-6.504031658172607,4.14453125,2,J1,6.1,270,0,6.726654522130181,[6700|11900|0|0]
27700,0.11204294860363007,0.47186189889907837,-0.0775909498333931,-4.034398078918457,-5.964254856109619,-6.503112316131592,4.14453125,2,J1,6.1,270,0,6.727582255427621,[6700|12000|0|0]
27800,0.11251320689916611,0.4714636504650116,-0.07705143839120865,-4.033458232879639,-5.97105598449707,-6.521676540374756,4.14453125,2,J1,6.1,270,0,6.728401289783436,[6700|12100|0|0]
27901,0.11151353269815445,0.472222238779068,-0.07797867804765701,-4.03149938583374,-5.944647312164307,-6.5167717933654785,4.14453125,2,J1,6.1,270,0,6.729961603251583,[6700|12200|0|0]
28001,0.1123032197356224,0.4715588092803955,-0.07717715203762054,-4.045567512512207,-5.975052356719971,-6.599384784698486,4.14453125,2,J1,6.1,270,0,6.731267814666944,[6700|12300|0|0]
28101,0.11206430941820145,0.47204285860061646,-0.07770869135856628,-4.0431976318359375,-5.975368022918701,-6.517020225524902,4.1484375,2,J1,6.1,270,0,6.73202538706209,[6700|12400|0|0]
28201,0.11245143413543701,0.47170040011405945,-0.07725305110216141,-4.0330586433410645,-5.960283279418945,-6.523067951202393,4.14453125,2,J1,6.1,270,0,6.732714409126299,[6700|12500|0|0]
28301,0.1117149144411087,0.4720931649208069,-0.07780184596776962,-4.021724700927734,-5.942504405975342,-6.5054497718811035,4.1484375,2,J1,6.1,270,0,6.733713359204166,[6700|12600|0|0]
28401,0.1124589592218399,0.47141143679618835,-0.07760576903820038,-4.016119480133057,-5.969287872314453,-6.5069661140441895,4.1484375,2,J1,6.1,270,0,6.7347413679754995,[6700|12700|0|0]
28501,0.11268579214811325,0.47084370255470276,-0.07654222846031189,-4.016599655151367,-5.96405553817749,-6.514406681060791,4.1484375,2,J1,6.1,270,0,6.735968109148776,[6700|12800|0|0]
28601,0.11259403824806213,0.471077561378479,-0.07646593451499939,-4.0399861335754395,-5.967048645019531,-6.502909183502197,4.1484375,2,J1,6.1,270,0,6.736230653418803,[6700|12900|0|0]
28701,0.11234421283006668,0.4716280400753021,-0.07731208950281143,-4.0490803718566895,-5.979848861694336,-6.5213751792907715,4.1484375,2,J1,6.1,270,0,6.737270565818253,[6700|13000|0|0]
28801,0.11273681372404099,0.4708937704563141,-0.07707429677248001,-4.023275852203369,-5.971009254455566,-6.518552303314209,4.1484375,2,J1,6.1,270,0,6.738136494636296,[6700|13100|0|0]
28902,0.11225906759500504,0.4714149534702301,-0.07704786956310272,-4.03737211227417,-5.9529032707214355,-6.519085884094238,4.1484375,2,J1,6.1,270,0,6.738844005410207,[6700|13200|0|0]
29001,0.11285939812660217,0.4710315763950348,-0.07669360190629959,-4.038741588592529,-5.973865509033203,-6.512969017028809,4.1484375,2,J1,6.1,270,0,6.7396395431538805,[6700|13300|0|0]
29102,0.11241060495376587,0.4711676239967346,-0.07721535116434097,-4.0324883460998535,-5.966808319091797,-6.528182029724121,4.1484375,2,J1,6.1,270,0,6.7403410747284935,[6700|13400|0|0]
29202,0.11199876666069031,0.4719281792640686,-0.07763609290122986,-4.050561428070068,-5.967583656311035,-6.519590854644775,4.1484375,2,J1,6.1,270,0,6.741302884846694,[6700|13500|0|0]
29300,0.11239293962717056,0.47171396017074585,-0.07717640697956085,-4.045903205871582,-5.973620891571045,-6.508074760437012,4.1484375,2,J1,6.1,270,0,6.741945203532416,[6700|13600|0|0]
29401,0.11328661441802979,0.47041863203048706,-0.07589581608772278,-4.015322208404541,-5.969995498657227,-6.512701511383057,4.1484375,2,J1,6.1,270,0,6.743974105367159,[6700|13700|0|0]
29502,0.11205819249153137,0.47147849202156067,-0.07709640264511108,-4.030892372131348,-5.9637603759765625,-6.4856977462768555,4.1484375,2,J1,6.1,270,0,6.745992454125913,[6700|13800|0|0]
29602,0.11327489465475082,0.47041451930999756,-0.0756884440779686,-4.03553581237793,-5.988089561462402,-6.491791725158691,4.1484375,2,J1,6.1,270,0,6.748135990785671,[6700|13900|0|0]
29700,0.11225461959838867,0.4714641571044922,-0.07728182524442673,-4.0334391593933105,-5.974874496459961,-6.499843120574951,4.1484375,2,J1,6.1,270,0,6.750299683053968,[6700|14000|0|0]
29802,0.11237260699272156,0.4712536036968231,-0.0770757868885994,-4.0272369384765625,-5.970421314239502,-6.5108418464660645,4.1484375,2,J1,6.1,270,0,6.750617024458097,[6700|14100|0|0]
29900,0.1127501130104065,0.47109827399253845,-0.07677976042032242,-4.032941818237305,-5.986161231994629,-6.528470516204834,4.1484375,2,J1,6.1,270,0,6.751121276161458,[6700|14200|0|0]
30000,0.11322090774774551,0.47051092982292175,-0.07622230052947998,-4.021304607391357,-5.984025955200195,-6.5299973487854,4.1484375,2,J1,6.1,270,0,6.752057963082572,[6700|14300|0|0]
30100,0.11260002851486206,0.47100409865379333,-0.07677347213029861,-4.027019023895264,-5.97573184967041,-6.501774787902832,4.15234375,2,J1,6.1,270,0,6.753023621744377,[6700|14400|0|0]
30200,0.11305072158575058,0.47097739577293396,-0.07644964009523392,-4.034108638763428,-5.990437984466553,-6.530503273010254,4.15234375,2,J2,6.1,270,0,6.753579233546741,[6700|14400|0|0]
30300,0.1163148283958435,0.4707827866077423,-0.07613681256771088,-3.902738332748413,-5.973490238189697,-6.506766319274902,3.00390625,2,J2,6.1,270,0,6.756864066427855,[6700|14400|0|0]
30400,0.12159024178981781,0.47276121377944946,-0.07459330558776855,-2.948019504547119,-3.2966535091400146,-6.570348262786865,3.267578125,2,J2,6.1,270,0,6.762705861900842,[6700|14400|0|0]
30500,0.12496126443147659,0.4697089195251465,-0.039938412606716156,-0.13591605424880981,7.686432361602783,-7.975797653198242,3.5,2,J2,6.1,270,0,6.797657856141423,[6700|14400|0|0]
30600,0.11500906944274902,0.472604900598526,0.028639689087867737,0.9108346104621887,8.693286895751953,-8.024996757507324,3.541015625,2,J2,6.1,270,0,6.867014823516761,[6700|14400|0|0]
30700,0.13028250634670258,0.4580557644367218,0.1417984515428543,-1.7488640546798706,3.1877400875091553,-6.514416217803955,3.583984375,2,J2,6.1,270,0,6.982122863019907,[6700|14400|0|0]
30800,0.10565537214279175,0.4876927137374878,0.21499928832054138,-2.3315320014953613,1.9678480625152588,-4.811557292938232,3.568359375,2,J2,6.1,270,0,7.064846541660954,[6700|14400|0|0]
30900,0.08252866566181183,0.5252931118011475,0.2899801731109619,0.4912746250629425,-0.39023640751838684,-3.4558534622192383,3.53125,2,J2,6.1,270,0,7.15185669952288,[6700|14400|0|0]
31000,0.06423889100551605,0.5643884539604187,0.36762115359306335,3.411487102508545,-2.0073084831237793,-1.9897067546844482,3.525390625,2,J2,6.1,270,0,7.24068847022318,[6700|14400|0|0]
31100,0.052393969148397446,0.5983349680900574,0.4494366943836212,6.141684055328369,-2.600250482559204,-0.46968087553977966,3.525390625,2,J2,6.1,270,0,7.3300554143927465,[6700|14400|0|0]
31200,0.04543048143386841,0.6230703592300415,0.5362129807472229,7.339357376098633,-0.6752614378929138,-0.5490542650222778,3.537109375,2,J2,6.1,270,0,7.420556539308718,[6700|14400|0|0]
31300,0.0410517118871212,0.6368621587753296,0.6281906962394714,6.65404748916626,-1.4558258056640625,0.013762978836894035,3.552734375,2,J2,6.1,270,0,7.513665548027606,[6700|14400|0|0]
31400,0.03919224068522453,0.639970064163208,0.7243576049804688,6.4173808097839355,-0.7637221217155457,1.1553488969802856,3.546875,2,J2,6.1,270,0,7.609900630226615,[6700|14400|0|0]
31500,0.03791451454162598,0.6347944140434265,0.8219780921936035,3.475823402404785,0.06765002012252808,1.7535041570663452,3.552734375,2,J2,6.1,270,0,7.707666572466181,[6700|14400|0|0]
31600,0.03754056245088577,0.6260424256324768,0.9206936359405518,1.493338704109192,-0.25735804438591003,1.6142271757125854,3.537109375,2,J2,6.1,270,0,7.806770032136201,[6700|14400|0|0]
31700,0.03780785948038101,0.6170002222061157,1.022403597831726,0.2543533444404602,0.012274238280951977,0.8513895869255066,3.541015625,2,J2,6.1,270,0,7.908881487117558,[6700|14400|0|0]
31800,0.04350325092673302,0.6078000068664551,1.1248959302902222,0.3744349181652069,0.1498517394065857,0.730855405330658,3.568359375,2,J2,6.1,270,0,8.011943408595892,[6700|14400|0|0]
31900,0.045993655920028687,0.601019561290741,1.2287296056747437,0.009360399097204208,0.38403066992759705,0.24776333570480347,3.59375,2,J2,6.1,270,0,8.116028031394334,[6700|14400|0|0]
32000,0.05097360908985138,0.5954030752182007,1.3287038803100586,0.12538674473762512,0.637323796749115,0.28003358840942383,3.630859375,2,J2,6.1,270,0,8.216283706736103,[6700|14400|0|0]
32100,0.055651117116212845,0.5904871225357056,1.4186029434204102,0.2995833158493042,1.1402902603149414,0.12123101204633713,3.65234375,2,J2,6.1,270,0,8.306438502616478,[6700|14400|0|0]
