time.ms,stateEstimate.x,stateEstimate.y,stateEstimate.z,stabilizer.roll,stabilizer.pitch,stabilizer.yaw,pm.vbat,drone_id,node_name,wind_speed,global_wind_direction,relative_wind_direction,travel_dist,waiting_time
0,0.7751450538635254,-0.7821322083473206,0.007972964085638523,-0.3295055031776428,0.010587151162326336,-26.68857765197754,4.07421875,1,G1,6.1,270,0,0.08651861219809903,[100|0|0|0]
100,0.7752659916877747,-0.7823266386985779,0.008276240900158882,-0.33233749866485596,0.008935660123825073,-26.694854736328125,4.07421875,1,G1,6.1,270,0,0.08689862002045248,[200|0|0|0]
200,0.7748557925224304,-0.7821618318557739,0.00832109060138464,-0.329018771648407,0.010836231522262096,-26.673053741455078,4.07421875,1,G1,6.1,270,0,0.08734295789457999,[300|0|0|0]
300,0.7748730778694153,-0.7819831967353821,0.008273189887404442,-0.33315348625183105,0.019364718347787857,-26.66223907470703,4.07421875,1,G1,6.1,270,0,0.08752870979324487,[400|0|0|0]
400,0.7753695845603943,-0.782081663608551,0.008321503177285194,-0.33968016505241394,0.013246490620076656,-26.65389060974121,4.07421875,1,G1,6.1,270,0,0.08803718672809806,[500|0|0|0]
500,0.775269627571106,-0.7821890115737915,0.00869416631758213,-0.33767586946487427,0.017294757068157196,-26.658397674560547,4.07421875,1,G1,6.1,270,0,0.08843767742896992,[600|0|0|0]
600,0.7750659584999084,-0.7823629379272461,0.008515335619449615,-0.3357502520084381,0.02712295576930046,-26.656160354614258,4.07421875,1,G1,6.1,270,0,0.08875972072665368,[700|0|0|0]
700,0.7750042080879211,-0.7823348045349121,0.008201039396226406,-0.32972124218940735,0.024672942236065865,-26.65182876586914,4.07421875,1,G1,6.1,270,0,0.08908125877584412,[800|0|0|0]
800,0.7750138640403748,-0.7822892665863037,0.008381888270378113,-0.3372015655040741,0.02085529826581478,-26.65519905090332,4.07421875,1,G1,6.1,270,0,0.0892680026042915,[900|0|0|0]
901,0.7749627232551575,-0.7822838425636292,0.008511578664183617,-0.34020137786865234,0.022013457491993904,-26.654443740844727,4.07421875,1,G1,6.1,270,0,0.08940751747152809,[1000|0|0|0]
1001,0.7749618887901306,-0.7822245955467224,0.008637546561658382,-0.3401513397693634,0.023832330480217934,-26.645376205444336,4.07421875,1,G1,6.1,270,0,0.08954672528933456,[1100|0|0|0]
1101,0.7748326063156128,-0.7820560336112976,0.008054942823946476,-0.33818021416664124,0.02145528793334961,-26.65397834777832,4.07421875,1,G1,6.1,270,0,0.09016684963129147,[1200|0|0|0]
1201,0.7751594185829163,-0.7823139429092407,0.008435679599642754,-0.3386887013912201,0.00877968780696392,-26.67150115966797,4.07421875,1,G1,6.1,270,0,0.09073101623469258,[1300|0|0|0]
1301,0.7750582695007324,-0.7821418046951294,0.008597908541560173,-0.34025418758392334,0.008766895160079002,-26.673744201660156,4.07421875,1,G1,6.1,270,0,0.0909882727820917,[1400|0|0|0]
1401,0.7753623127937317,-0.7822378277778625,0.008438550867140293,-0.3381635546684265,-0.0008722710190340877,-26.680307388305664,4.07421875,1,G1,6.1,270,0,0.09134472421613557,[1500|0|0|0]
1501,0.7752494215965271,-0.7820634245872498,0.008456805720925331,-0.33509862422943115,0.000895857170689851,-26.67588233947754,4.07421875,1,G1,6.1,270,0,0.09155327669151987,[1600|0|0|0]
1601,0.7752650380134583,-0.7823275327682495,0.008258120156824589,-0.33417919278144836,0.002689926652237773,-26.688722610473633,4.07421875,1,G1,6.1,270,0,0.09188414366951979,[1700|0|0|0]
1702,0.7749291658401489,-0.7819420695304871,0.008150296285748482,-0.3408454358577728,0.008490019477903843,-26.692554473876953,4.07421875,1,G1,6.1,270,0,0.09240665492455999,[1800|0|0|0]
1802,0.7749460339546204,-0.7822480797767639,0.007973217405378819,-0.32942843437194824,0.0023633225355297327,-26.688692092895508,4.07421875,1,G1,6.1,270,0,0.09276060934815887,[1900|0|0|0]
1902,0.7751298546791077,-0.7825339436531067,0.008486217819154263,-0.3208102285861969,-0.006210405845195055,-26.67229652404785,4.07421875,1,G1,6.1,270,0,0.09337597723737842,[2000|0|0|0]
2002,0.7751510739326477,-0.7823220491409302,0.008544784039258957,-0.3293309211730957,0.0007960613584145904,-26.66841697692871,4.07421875,1,G1,6.1,270,0,0.09359683815096131,[2100|0|0|0]
2100,0.7751746773719788,-0.7822449803352356,0.008241335861384869,-0.32774272561073303,0.005263669416308403,-26.65314483642578,4.07421875,1,G1,6.1,270,0,0.09391080872253539,[2200|0|0|0]
2200,0.7751815915107727,-0.7825126647949219,0.00862077996134758,-0.3265484571456909,0.00714475940912962,-26.703115463256836,4.07421875,1,G1,6.1,270,0,0.0943752229775592,[2300|0|0|0]
2300,0.7751216888427734,-0.7820450067520142,0.008332636207342148,-0.33644887804985046,0.017478954046964645,-26.708904266357422,4.07421875,1,G1,6.1,270,0,0.0949277799408689,[2400|0|0|0]
2400,0.7750883102416992,-0.7822420001029968,0.0085617545992136,-0.33248773217201233,0.020361026749014854,-26.72421646118164,4.07421875,1,G1,6.1,270,0,0.09523177952776798,[2500|0|0|0]
2500,0.7749673128128052,-0.7822719216346741,0.00831799115985632,-0.32954689860343933,0.02681313268840313,-26.734317779541016,4.07421875,1,G1,6.1,270,0,0.09550556099212262,[2600|0|0|0]
2600,0.8115811347961426,-0.7759750485420227,-0.00991891324520111,-4.230484485626221,27.51372718811035,-16.57396125793457,4.07421875,1,G1,6.1,270,0,0.13689163658829,[2700|0|0|0]
2700,0.8252575397491455,-0.7919504642486572,-0.00045594945549964905,-10.649374008178711,37.766929626464844,-19.110904693603516,4.07421875,1,G1,6.1,270,0,0.15995254817312354,[2800|0|0|0]
2800,0.7665182948112488,-0.7974196672439575,-0.006891503930091858,-8.778142929077148,40.524925231933594,-21.499948501586914,4.07421875,1,G1,6.1,270,0,0.21929584972160054,[2900|0|0|0]
2900,0.7576605677604675,-0.782399594783783,-0.003190375864505768,-10.3150053024292,33.739654541015625,-23.515256881713867,4.07421875,1,G1,6.1,270,0,0.23712168081507007,[3000|0|0|0]
3000,0.7561593055725098,-0.7750145196914673,0.00012764381244778633,-9.891548156738281,27.638092041015625,-25.176441192626953,4.07421875,1,G1,6.1,270,0,0.24535590068417631,[3100|0|0|0]
3100,0.7566428184509277,-0.7715484499931335,0.0017658136785030365,-8.956273078918457,22.636051177978516,-26.139291763305664,4.07421875,1,G1,6.1,270,0,0.24921996905408839,[3200|0|0|0]
3200,0.7572632431983948,-0.769805371761322,0.003182381857186556,-7.894018173217773,18.482255935668945,-26.67032241821289,4.07421875,1,G1,6.1,270,0,0.2515501866392815,[3300|0|0|0]
3300,0.758707582950592,-0.7692362666130066,0.00416715769097209,-6.856807231903076,14.973146438598633,-26.96935272216797,4.07421875,1,G1,6.1,270,0,0.2533886048268614,[3400|0|0|0]
3400,0.7603878974914551,-0.7696059346199036,0.005411440506577492,-5.899408340454102,12.030016899108887,-27.094072341918945,4.07421875,1,G1,6.1,270,0,0.2555118926351365,[3500|0|0|0]
3500,0.7620368599891663,-0.770429253578186,0.006179623305797577,-5.028992176055908,9.601067543029785,-27.11435890197754,4.07421875,1,G1,6.1,270,0,0.2575086490646849,[3600|0|0|0]
3600,0.7640925049781799,-0.7715410590171814,0.007311757188290358,-4.266723155975342,7.608482837677002,-27.096765518188477,4.07421875,1,G1,6.1,270,0,0.26010547689550556,[3700|0|0|0]
3700,0.7656651139259338,-0.7728654146194458,0.007894394919276237,-3.608211040496826,6.001905918121338,-27.030345916748047,4.07421875,1,G1,6.1,270,0,0.26224241006932575,[3800|0|0|0]
3800,0.7673627734184265,-0.7740449905395508,0.007956582121551037,-3.047257423400879,4.702634334564209,-26.96018409729004,4.07421875,1,G1,6.1,270,0,0.26431057697551796,[3900|0|0|0]
3900,0.7686900496482849,-0.7752327919006348,0.00830209068953991,-2.569524049758911,3.6619057655334473,-26.912561416625977,4.07421875,1,G1,6.1,270,0,0.26612493924207165,[4000|0|0|0]
4000,0.7700143456459045,-0.7762681841850281,0.008823354728519917,-2.168792486190796,2.8219287395477295,-26.844541549682617,4.07421875,1,G1,6.1,270,0,0.26788491460275893,[4100|0|0|0]
4100,0.771311342716217,-0.7772493362426758,0.008745378814637661,-1.833065390586853,2.1510233879089355,-26.810579299926758,4.07421875,1,G1,6.1,270,0,0.2695130856637262,[4200|0|0|0]
4200,0.7718448042869568,-0.7777990102767944,0.008682767860591412,-1.5525357723236084,1.6430003643035889,-26.797311782836914,4.07421875,1,G1,6.1,270,0,0.27028161863166383,[4300|0|0|0]
4300,0.772727906703949,-0.778938353061676,0.008882693946361542,-1.3100676536560059,1.2275092601776123,-26.763364791870117,4.07421875,1,G1,6.1,270,0,0.27173693382093744,[4400|0|0|0]
4400,0.7732342481613159,-0.7795218229293823,0.008509509265422821,-1.116520881652832,0.9025095701217651,-26.733964920043945,4.07421875,1,G1,6.1,270,0,0.27259488811112836,[4500|0|0|0]
4500,0.7733836770057678,-0.7798721194267273,0.008474428206682205,-0.9496147036552429,0.6550508141517639,-26.69260025024414,4.07421875,1,G1,6.1,270,0,0.2729773371878546,[4600|0|0|0]
4600,0.7741191983222961,-0.7803864479064941,0.008391493931412697,-0.8193106055259705,0.4580247700214386,-26.67859649658203,4.07421875,1,G1,6.1,270,0,0.2738786714688965,[4700|0|0|0]
4700,0.7746871709823608,-0.7808094024658203,0.0087377754971385,-0.7159823775291443,0.30219200253486633,-26.67493438720703,4.07421875,1,G1,6.1,270,0,0.2746669572194954,[4800|0|0|0]
4800,0.774617612361908,-0.7808921337127686,0.008638770319521427,-0.631334662437439,0.20228175818920135,-26.66327476501465,4.07421875,1,G1,6.1,270,0,0.2748135344554357,[4900|0|0|0]
4900,0.7749012112617493,-0.7813345193862915,0.008583782240748405,-0.5603930950164795,0.11829493194818497,-26.676156997680664,4.07421875,1,G1,6.1,270,0,0.2753418876601546,[5000|0|0|0]
5000,0.7749186754226685,-0.7815773487091064,0.008765680715441704,-0.5065045952796936,0.06112845614552498,-26.682804107666016,4.07421875,1,G1,6.1,270,0,0.27564579246767024,[5100|0|0|0]
5100,0.7749366760253906,-0.7814266681671143,0.008437986485660076,-0.46796783804893494,0.01579754613339901,-26.698617935180664,4.07421875,1,G1,6.1,270,0,0.2760069186999846,[5200|0|0|0]
5200,0.77488112449646,-0.7817347645759583,0.008202679455280304,-0.4319474995136261,-0.00956572126597166,-26.682537078857422,4.07421875,1,G1,6.1,270,0,0.2763985547147423,[5300|0|0|0]
5300,0.775337815284729,-0.7821962237358093,0.008335649967193604,-0.4048421084880829,-0.03360270708799362,-26.687925338745117,4.07421875,1,G1,6.1,270,0,0.27706127048288026,[5400|0|0|0]
5400,0.7751787304878235,-0.7822684645652771,0.00828846450895071,-0.3803033232688904,-0.03725200518965721,-26.666048049926758,4.07421875,1,G1,6.1,270,0,0.2772422488725246,[5500|0|0|0]
5500,0.7752268314361572,-0.7819236516952515,0.008344382047653198,-0.37140437960624695,-0.03825332969427109,-26.6768741607666,4.07421875,1,G1,6.1,270,0,0.27759486252469995,[5600|0|0|0]
5600,0.7752033472061157,-0.78226238489151,0.008452218025922775,-0.3522719740867615,-0.048364076763391495,-26.701675415039062,4.07421875,1,G1,6.1,270,0,0.27795112125865257,[5700|0|0|0]
5700,0.7752742171287537,-0.7823356986045837,0.008417151868343353,-0.34087347984313965,-0.054217662662267685,-26.711345672607422,4.07421875,1,G1,6.1,270,0,0.2780589502059105,[5800|0|0|0]
5800,0.7754562497138977,-0.7823770642280579,0.008428878150880337,-0.3333531618118286,-0.05538671836256981,-26.71473503112793,4.07421875,1,G1,6.1,270,0,0.2782459915985533,[5900|0|0|0]
5900,0.7752623558044434,-0.781998336315155,0.00858507864177227,-0.33219584822654724,-0.03952530026435852,-26.695173263549805,4.07421875,1,G1,6.1,270,0,0.27869923355765475,[6000|0|0|0]
6000,0.7753263711929321,-0.7825952172279358,0.008234690874814987,-0.31741535663604736,-0.03726240247488022,-26.686309814453125,4.07421875,1,G1,6.1,270,0,0.2793943136834235,[6100|0|0|0]
6100,0.7752245664596558,-0.7824498414993286,0.008362554013729095,-0.320680171251297,-0.02770252339541912,-26.68559455871582,4.07421875,1,G1,6.1,270,0,0.27961305391401337,[6200|0|0|0]
6200,0.7750458121299744,-0.7822703719139099,0.00847917702049017,-0.3242884576320648,-0.01791481114923954,-26.703096389770508,4.07421875,1,G1,6.1,270,0,0.27989191475417596,[6300|0|0|0]
6300,0.7753037214279175,-0.7822572588920593,0.008186722174286842,-0.32814788818359375,-0.023811232298612595,-26.703149795532227,4.07421875,1,G1,6.1,270,0,0.28028206728124117,[6400|0|0|0]
6400,0.7753431797027588,-0.7821506857872009,0.008538881316781044,-0.3314588665962219,-0.008907551877200603,-26.713056564331055,4.07421875,1,G1,6.1,270,0,0.2806521089596706,[6500|0|0|0]
6500,0.775241494178772,-0.7822636961936951,0.00857874471694231,-0.3322570323944092,-0.002893164288252592,-26.716711044311523,4.07421875,1,G1,6.1,270,0,0.280809272531903,[6600|0|0|0]
6600,0.7750805616378784,-0.7821252942085266,0.008114146068692207,-0.3270457983016968,0.00290248217061162,-26.736122131347656,4.07421875,1,G1,6.1,270,0,0.28132006240667823,[6700|0|0|0]
6700,0.7752977609634399,-0.7824527025222778,0.008320474997162819,-0.32691702246665955,-0.00030923690064810216,-26.764892578125,4.07421875,1,E2,6.1,270,0,0.281763845436617,[6700|0|0|0]
6800,0.7754341959953308,-0.7822953462600708,0.008261877112090588,-0.3311178684234619,0.001817908720113337,-26.949037551879883,3.27734375,1,E2,6.1,270,0,0.28198019982949535,[6700|0|0|0]
6900,0.7755500674247742,-0.7815656065940857,0.009387164376676083,-1.0967472791671753,0.5595647692680359,-25.06399154663086,3.505859375,1,E2,6.1,270,0,0.28332638614502215,[6700|0|0|0]
7000,0.773489773273468,-0.775726318359375,0.025724394246935844,0.2147461175918579,10.165311813354492,-18.69643211364746,3.599609375,1,E2,6.1,270,0,0.30079771062004823,[6700|0|0|0]
7100,0.7518436908721924,-0.7641707062721252,0.06330765783786774,2.3377490043640137,16.513683319091797,-12.659703254699707,3.62109375,1,E2,6.1,270,0,0.3456818587815013,[6700|0|0|0]
7200,0.7074796557426453,-0.7491618990898132,0.1119215115904808,-1.150604009628296,0.575564444065094,-6.4858832359313965,3.57421875,1,E2,6.1,270,0,0.4131854785562361,[6700|0|0|0]
7300,0.662010908126831,-0.7331494688987732,0.17561209201812744,0.5736721754074097,-6.8442559242248535,-1.8602160215377808,3.611328125,1,E2,6.1,270,0,0.4930622271479512,[6700|0|0|0]
7400,0.6525869369506836,-0.6972954869270325,0.25443780422210693,0.6055344343185425,-11.338024139404297,1.1894304752349854,3.58984375,1,E2,6.1,270,0,0.5801702759174155,[6700|0|0|0]
7500,0.642673909664154,-0.688254177570343,0.3330192267894745,4.421187400817871,-10.57947063446045,1.8810656070709229,3.615234375,1,E2,6.1,270,0,0.6598888644496896,[6700|0|0|0]
7600,0.6487139463424683,-0.6863729357719421,0.4153996706008911,2.817410945892334,-7.687200546264648,1.9585167169570923,3.62109375,1,E2,6.1,270,0,0.7425118554167649,[6700|0|0|0]
7700,0.6674537062644958,-0.6878893971443176,0.5014218688011169,2.866981029510498,-3.155439615249634,1.739121913909912,3.615234375,1,E2,6.1,270,0,0.8305646625283389,[6700|0|0|0]
7800,0.6920385956764221,-0.6940791606903076,0.5920299291610718,1.5698591470718384,-1.1308366060256958,1.5425974130630493,3.615234375,1,E2,6.1,270,0,0.9246526562488192,[6700|0|0|0]
7900,0.7163735628128052,-0.7009032964706421,0.6862586736679077,-0.6064172387123108,2.2015140056610107,1.673553705215454,3.62109375,1,E2,6.1,270,0,1.0222119497375066,[6700|0|0|0]
8000,0.7370057106018066,-0.70607590675354,0.7832875847816467,-1.1977664232254028,3.061812162399292,1.8056633472442627,3.630859375,1,E2,6.1,270,0,1.1215449805552755,[6700|0|0|0]
8100,0.7508928775787354,-0.7087928652763367,0.8820146322250366,-0.7327091693878174,3.0685372352600098,1.7611956596374512,3.66796875,1,E2,6.1,270,0,1.221280957851079,[6700|0|0|0]
8200,0.7597517371177673,-0.7099639773368835,0.9792612195014954,-0.23800860345363617,2.6441826820373535,1.7156481742858887,3.705078125,1,E2,6.1,270,0,1.3189372409705413,[6700|0|0|0]
8300,0.7627632021903992,-0.7137424945831299,1.0670415163040161,0.42584338784217834,2.040458917617798,1.8289660215377808,3.7265625,1,E2,6.1,270,0,1.4068504175779333,[6700|0|0|0]
8400,0.7676761150360107,-0.711979866027832,1.1407917737960815,0.6723069548606873,2.016251564025879,1.0649535655975342,3.720703125,1,E2,6.1,270,0,1.4807851459009513,[6700|0|0|0]
8500,0.7653319835662842,-0.718869686126709,1.194293737411499,0.8734803199768066,1.8598253726959229,5.759868621826172,3.7109375,1,E2,6.1,270,0,1.534779818638618,[6700|0|0|0]
8600,0.7618661522865295,-0.7268842458724976,1.2285908460617065,-0.060716744512319565,1.3823044300079346,8.165468215942383,3.6796875,1,E2,6.1,270,0,1.5701710155121722,[6700|0|0|0]
8700,0.7624993920326233,-0.7294806838035583,1.2515417337417603,-0.7020920515060425,0.6453639268875122,9.203842163085938,3.6640625,1,E2,6.1,270,0,1.5932769828757847,[6700|0|0|0]
8800,0.7596079111099243,-0.7361393570899963,1.2651423215866089,-0.6382872462272644,1.3769477605819702,9.079313278198242,3.658203125,1,E2,6.1,270,0,1.6086936810173227,[6700|0|0|0]
8900,0.7533243894577026,-0.7459726929664612,1.2726938724517822,-1.2701983451843262,0.589033842086792,8.309268951416016,3.658203125,1,E2,6.1,270,0,1.6225934313489874,[6700|0|0|0]
9000,0.752086341381073,-0.7474962472915649,1.2760564088821411,-0.48838305473327637,1.07418692111969,7.580793380737305,3.65234375,1,E2,6.1,270,0,1.6264870969826903,[6700|0|0|0]
9100,0.7455338835716248,-0.7541767358779907,1.2759145498275757,-0.06419160217046738,1.4839293956756592,6.8862624168396,3.630859375,1,E2,6.1,270,0,1.6358457162766529,[6700|0|0|0]
9200,0.7339265942573547,-0.7664400935173035,1.27363920211792,0.1687542349100113,1.4056284427642822,5.968264102935791,3.626953125,1,E2,6.1,270,0,1.6528838004710302,[6700|0|0|0]
9300,0.7238930463790894,-0.7748198509216309,1.27152419090271,-0.10834766179323196,0.53956538438797,-2.0773589611053467,3.626953125,1,E2,6.1,270,0,1.6661263715817054,[6700|0|0|0]
9400,0.7114660143852234,-0.7852169275283813,1.2710968255996704,0.035828426480293274,-0.10477960854768753,-5.7731757164001465,3.630859375,1,E2,6.1,270,0,1.6823347943071112,[6700|0|0|0]
9500,0.701514482498169,-0.7934975624084473,1.2726919651031494,-0.7796567678451538,-1.0923480987548828,-6.295567989349365,3.63671875,1,E2,6.1,270,0,1.6953788109795778,[6700|0|0|0]
9600,0.6885756850242615,-0.8110452890396118,1.2740648984909058,-1.5219131708145142,-1.1794695854187012,-4.555356025695801,3.63671875,1,E2,6.1,270,0,1.7172241797354513,[6700|0|0|0]
9700,0.6827224493026733,-0.8187158703804016,1.2744001150131226,-2.2471084594726562,-1.8007041215896606,-1.9237719774246216,3.630859375,1,E2,6.1,270,0,1.726878741177325,[6700|0|0|0]
9800,0.6780520081520081,-0.8287594318389893,1.2764381170272827,-5.3689985275268555,-1.851015567779541,0.6088919043540955,3.44140625,1,E2,6.1,270,178.93908830973578,1.7381410499780983,[6700|0|0|0]
9900,0.6782388091087341,-0.8216288089752197,1.291326880455017,-17.337125778198242,2.159865140914917,-0.7825574278831482,3.5,1,E2,6.1,270,178.93908830973578,1.7546503186908482,[6700|0|0|0]
10000,0.6773428320884705,-0.7846717834472656,1.3241546154022217,-19.429140090942383,3.725825309753418,-0.42887818813323975,3.525390625,1,E2,6.1,270,178.93908830973578,1.8040900263402528,[6700|0|0|0]
10100,0.6780139803886414,-0.7105051875114441,1.370943307876587,-15.024772644042969,1.368059515953064,-0.6231870055198669,3.541015625,1,E2,6.1,270,178.93908830973578,1.8917844739193839,[6700|0|0|0]
10200,0.677228569984436,-0.6037798523902893,1.4332592487335205,-6.247211456298828,-1.8967944383621216,1.497834324836731,3.59375,1,E2,6.1,270,178.93908830973578,2.015373269977565,[6700|0|0|0]
10300,0.6835817694664001,-0.5148349404335022,1.4871389865875244,-0.4240496754646301,-1.9859403371810913,1.657702922821045,3.630859375,1,E2,6.1,270,178.93908830973578,2.1195586175936016,[6700|0|0|0]
10400,0.6919595003128052,-0.3995680809020996,1.5434731245040894,0.9910926222801208,-1.8874260187149048,-0.7333504557609558,3.63671875,1,E2,6.1,270,178.93908830973578,2.248128327771269,[6700|0|0|0]
10500,0.7066513299942017,-0.28723210096359253,1.6010890007019043,1.9110187292099,-0.08498701453208923,-2.0156619548797607,3.658203125,1,E2,6.1,270,178.93908830973578,2.3752299069832277,[6700|0|0|0]
10600,0.7597222924232483,-0.2224111706018448,1.6781600713729858,2.829522132873535,0.5442931652069092,-2.1830358505249023,3.673828125,1,E2,6.1,270,178.93908830973578,2.489064128553433,[6700|0|0|0]
10700,0.786719560623169,-0.13810637593269348,1.726484775543213,1.0008825063705444,5.2677321434021,-1.472177267074585,3.701171875,1,E2,6.1,270,178.93908830973578,2.589917625902837,[6700|0|0|0]
10800,0.802175760269165,-0.05234468728303909,1.7550227642059326,1.5644676685333252,7.277920246124268,-3.545827865600586,3.6796875,1,E2,6.1,270,178.93908830973578,2.681614834935886,[6700|0|0|0]
10900,0.8072906732559204,0.02960916981101036,1.763279914855957,2.7865564823150635,7.7397027015686035,-3.966495990753174,3.642578125,1,E2,6.1,270,178.93908830973578,2.7641422701578238,[6700|0|0|0]
11000,0.802688479423523,0.10425742715597153,1.7556548118591309,5.049427032470703,5.717546463012695,-4.812955856323242,3.611328125,1,E2,6.1,270,178.93908830973578,2.8393199577281574,[6700|0|0|0]
11100,0.7878256440162659,0.17351648211479187,1.7383521795272827,6.451976299285889,3.9408955574035645,-5.152474403381348,3.599609375,1,E2,6.1,270,178.93908830973578,2.912238416678846,[6700|0|0|0]
11200,0.7662598490715027,0.23623967170715332,1.7270582914352417,7.343619346618652,1.657487154006958,-2.767867088317871,3.58984375,1,E2,6.1,270,178.93908830973578,2.9795201670460476,[6700|0|0|0]
11300,0.7449526190757751,0.2899991273880005,1.7204301357269287,7.653613090515137,-0.0013782469322904944,-1.1214693784713745,3.599609375,1,E2,6.1,270,178.93908830973578,3.0377267781249055,[6700|0|0|0]
11400,0.7256472110748291,0.3318672478199005,1.7168830633163452,7.649747371673584,-1.0866663455963135,-0.11550412327051163,3.611328125,1,E2,6.1,270,178.93908830973578,3.0839676692200064,[6700|0|0|0]
11500,0.710686445236206,0.3613623380661011,1.7143244743347168,7.180868625640869,-1.810503363609314,0.48365697264671326,3.611328125,1,E2,6.1,270,178.93908830973578,3.117138910388925,[6700|0|0|0]
11600,0.6999718546867371,0.3806286156177521,1.7128634452819824,6.146563529968262,-2.107114791870117,0.8197185397148132,3.615234375,1,E2,6.1,270,178.93908830973578,3.139232495594431,[6700|0|0|0]
11700,0.6942387223243713,0.38934415578842163,1.712549090385437,5.041895389556885,-1.7071068286895752,0.7787659168243408,3.626953125,1,E2,6.1,270,178.93908830973578,3.149669366109674,[6700|0|0|0]
11800,0.6916795969009399,0.39150112867355347,1.7117164134979248,3.3756496906280518,-1.5319126844406128,0.5600084066390991,3.626953125,1,E2,6.1,270,178.93908830973578,3.153118279816777,[6700|0|0|0]
11900,0.6912611722946167,0.38992926478385925,1.7094351053237915,2.251302480697632,-0.22466689348220825,0.2585642635822296,3.62109375,1,E2,6.1,270,178.93908830973578,3.155920101050237,[6700|0|0|0]
12000,0.6913627982139587,0.38546350598335266,1.70470130443573,1.3419839143753052,0.6129143834114075,0.3681608736515045,3.615234375,1,E2,6.1,270,178.93908830973578,3.1624287261231383,[6700|0|0|0]
12100,0.6714353561401367,0.41150668263435364,1.6885915994644165,1.0657073259353638,0.30780869722366333,-4.945376873016357,3.615234375,1,E2,6.1,270,178.93908830973578,3.1989646343771225,[6700|0|0|0]
12200,0.6626970171928406,0.4169221520423889,1.6778159141540527,1.6717334985733032,-0.5934470891952515,-7.376347064971924,3.59375,1,E2,6.1,270,178.93908830973578,3.213857628380183,[6700|0|0|0]
12300,0.6522781848907471,0.4255679249763489,1.6714329719543457,1.7333775758743286,-1.1348791122436523,-4.776479721069336,3.59375,1,E2,6.1,270,178.93908830973578,3.228825707992797,[6700|0|0|0]
12400,0.6483120322227478,0.4290339946746826,1.6641713380813599,2.8330435752868652,-1.9308233261108398,-7.229979515075684,3.60546875,1,E2,6.1,270,178.93908830973578,3.237796512451979,[6700|0|0|0]
12500,0.6445792317390442,0.4265326261520386,1.655078411102295,3.1254289150238037,-1.5551482439041138,-5.3343119621276855,3.583984375,1,E2,6.1,270,178.93908830973578,3.247939094223097,[6700|0|0|0]
12600,0.6440277099609375,0.41691744327545166,1.644534945487976,2.6830978393554688,-1.4811598062515259,-1.4064332246780396,3.578125,1,E2,6.1,270,178.93908830973578,3.262219170734876,[6700|0|0|0]
12700,0.6487725377082825,0.40834543108940125,1.6428691148757935,1.007087230682373,-1.7317651510238647,-1.3895608186721802,3.59375,1,E2,6.1,270,178.93908830973578,3.272157368504002,[6700|0|0|0]
12800,0.6546218991279602,0.3989156186580658,1.6411372423171997,0.27443063259124756,-1.2750402688980103,1.933709740638733,3.859375,1,E2,6.1,270,0,3.283388386893596,[6700|0|0|0]
12900,0.6628373265266418,0.3904685974121094,1.6233482360839844,0.9616360664367676,-1.3164087533950806,4.025730609893799,3.83203125,1,E2,6.1,270,0,3.3047260099579865,[6700|0|0|0]
13000,0.6723114252090454,0.3767150342464447,1.5621931552886963,0.061396755278110504,-1.5090510845184326,3.0490524768829346,3.7421875,1,E2,6.1,270,0,3.3681205125009837,[6700|0|0|0]
13100,0.6829591989517212,0.3659445643424988,1.4664065837860107,-0.2953192889690399,-0.6536645889282227,2.9522464275360107,3.63671875,1,E2,6.1,270,0,3.4650970322769896,[6700|0|0|0]
13200,0.6924138069152832,0.3546726107597351,1.3495196104049683,-1.273437738418579,1.1859248876571655,3.9084560871124268,3.59375,1,E2,6.1,270,0,3.5829062470927124,[6700|0|0|0]
13300,0.7002981305122375,0.3445429503917694,1.223078966140747,-2.135678291320801,2.163104772567749,4.892115592956543,3.583984375,1,E2,6.1,270,0,3.709996801815332,[6700|0|0|0]
13400,0.7039978504180908,0.3380320370197296,1.0932193994522095,-3.5619311332702637,1.694604516029358,5.395791530609131,3.583984375,1,E2,6.1,270,0,3.8400721145416705,[6700|0|0|0]
13500,0.7035474181175232,0.3359055817127228,0.9633579850196838,-3.7314701080322266,1.6227589845657349,6.189245700836182,3.58984375,1,E2,6.1,270,0,3.969951719021536,[6700|0|0|0]
13600,0.6992528438568115,0.33792397379875183,0.8331974148750305,-1.213796854019165,1.5188653469085693,7.870648384094238,3.583984375,1,E2,6.1,270,0,4.1001987585083315,[6700|0|0|0]
13700,0.6943551301956177,0.34004729986190796,0.7032521367073059,1.6975187063217163,-0.2651694416999817,9.12576961517334,3.583984375,1,E2,6.1,270,0,4.230253637043375,[6700|0|0|0]
13800,0.6919443607330322,0.3380313813686371,0.5777963995933533,0.9252325296401978,-1.2113549709320068,9.786369323730469,3.59375,1,E2,6.1,270,0,4.355748727431718,[6700|0|0|0]
13900,0.6924598813056946,0.3343895971775055,0.4537343382835388,0.4055156707763672,-1.1045494079589844,8.424320220947266,3.515625,1,E2,6.1,270,0,4.479865299290578,[6700|0|0|0]
14000,0.6869039535522461,0.323835164308548,0.3367963135242462,1.202947735786438,0.7128670811653137,5.128861904144287,3.484375,1,E2,6.1,270,0,4.597410039798148,[6700|0|0|0]
14100,0.6978831887245178,0.323959618806839,0.23544740676879883,-0.9742071032524109,1.4432953596115112,3.244943857192993,3.478515625,1,E2,6.1,270,0,4.699351984033161,[6700|0|0|0]
14200,0.6898321509361267,0.3122571110725403,0.15561777353286743,-1.8523098230361938,1.4692944288253784,3.117863893508911,3.484375,1,E2,6.1,270,0,4.780435510345999,[6700|0|0|0]
14300,0.6943984031677246,0.3218831419944763,0.09503943473100662,-4.699041843414307,3.791499376296997,4.90698766708374,3.521484375,1,E2,6.1,270,0,4.841943609509814,[6700|0|0|0]
14400,0.6753246188163757,0.321288138628006,0.0393952839076519,-1.3587777614593506,1.5960781574249268,5.290278434753418,3.462890625,1,E2,6.1,270,0,4.900769069978391,[6700|0|0|0]
14500,0.6657510995864868,0.32801181077957153,0.014616062864661217,5.134889602661133,-4.661835193634033,4.52488374710083,3.5,1,E2,6.1,270,0,4.928171074159549,[6700|0|0|0]
14600,0.6645222306251526,0.325853556394577,0.015087516978383064,4.39524507522583,-3.5529966354370117,3.492298126220703,3.568359375,1,E2,6.1,270,0,4.930699008077954,[6700|0|0|0]
14700,0.6734251379966736,0.31400808691978455,0.033786553889513016,2.1333274841308594,-4.563753604888916,3.3034629821777344,3.611328125,1,E2,6.1,270,0,4.954557568138191,[6700|0|0|0]
14800,0.6887238621711731,0.2998216152191162,0.05647734925150871,0.4993892014026642,-1.8650298118591309,3.6045382022857666,3.62109375,1,E2,6.1,270,0,4.985382543966912,[6700|0|0|0]
14900,0.705191433429718,0.286574125289917,0.07159248739480972,-1.2817089557647705,0.25397422909736633,2.700728178024292,3.60546875,1,E2,6.1,270,0,5.011366082865041,[6700|0|0|0]
15000,0.7229639887809753,0.2747047543525696,0.08029092848300934,-2.8815455436706543,2.1154944896698,1.3872722387313843,3.58984375,1,E2,6.1,270,0,5.034440063178951,[6700|0|0|0]
15100,0.7376409769058228,0.2671532928943634,0.0821617916226387,-3.3749001026153564,3.6182548999786377,0.7281358242034912,3.57421875,1,E2,6.1,270,0,5.051051465270855,[6700|0|0|0]
15201,0.7470707297325134,0.26469236612319946,0.07867402583360672,-2.613931179046631,4.3911004066467285,-0.04236361011862755,3.55859375,1,E2,6.1,270,0,5.06140235456331,[6700|0|0|0]
15301,0.750217616558075,0.26669880747795105,0.07486344128847122,-1.7281302213668823,3.627103567123413,-0.746195375919342,3.55859375,1,E2,6.1,270,0,5.066736139165126,[6700|0|0|0]
15401,0.7484675645828247,0.2709563076496124,0.07307261228561401,-1.3976566791534424,2.6640138626098633,-0.2155310958623886,3.552734375,1,E2,6.1,270,0,5.071675375760517,[6700|0|0|0]
15501,0.7427842617034912,0.27672550082206726,0.07458414882421494,-1.5054852962493896,2.045050621032715,1.0008989572525024,3.55859375,1,E2,6.1,270,0,5.079913595482451,[6700|0|0|0]
15601,0.7346768975257874,0.28341343998908997,0.07655570656061172,-1.1234384775161743,1.1093379259109497,2.1191680431365967,3.5625,1,E2,6.1,270,0,5.090606814086766,[6700|0|0|0]
15701,0.7255929708480835,0.29207658767700195,0.07910306006669998,-0.4152494966983795,-0.3408008813858032,2.886000633239746,3.5625,1,E2,6.1,270,0,5.103415282443032,[6700|0|0|0]
15801,0.7165331244468689,0.30008256435394287,0.08092541247606277,1.3238675594329834,-0.031482797116041183,2.926396608352661,3.55859375,1,F2,6.1,270,0,5.115642197330657,[6700|0|100|0]
15901,0.7083153128623962,0.3069419264793396,0.08434831351041794,0.4332684278488159,-0.9194897413253784,3.6361422538757324,3.568359375,1,F2,6.1,270,0,5.126880503586326,[6700|0|200|0]
16002,0.7017394304275513,0.31287479400634766,0.08853055536746979,0.8229401707649231,-1.6172499656677246,3.84972882270813,3.568359375,1,F2,6.1,270,0,5.136675006832577,[6700|0|300|0]
16101,0.6968815326690674,0.3170071542263031,0.0923909842967987,2.0899605751037598,-1.3259129524230957,3.091935873031616,3.5625,1,F2,6.1,270,0,5.144130104627894,[6700|0|400|0]
16202,0.6941061019897461,0.3193260431289673,0.09677273780107498,1.4933127164840698,-1.2644869089126587,1.9098119735717773,3.5625,1,F2,6.1,270,0,5.14981165590997,[6700|0|500|0]
16300,0.6931992769241333,0.3190953731536865,0.10242067277431488,0.945470929145813,-1.2621197700500488,1.0456650257110596,3.568359375,1,F2,6.1,270,0,5.155536575979199,[6700|0|600|0]
16400,0.694587230682373,0.31706342101097107,0.10942623764276505,0.28083762526512146,-0.6436998248100281,0.4042232632637024,3.57421875,1,F2,6.1,270,0,5.162961748318705,[6700|0|700|0]
16500,0.6970860958099365,0.314869225025177,0.1149253249168396,0.17596545815467834,-1.6418440341949463,-0.2761419713497162,3.583984375,1,F2,6.1,270,0,5.169388161299343,[6700|0|800|0]
16600,0.7025097608566284,0.3120449185371399,0.11918042600154877,0.5806927680969238,-0.26764973998069763,-1.2236801385879517,3.57421875,1,F2,6.1,270,0,5.176837908605002,[6700|0|900|0]
16700,0.7090882658958435,0.3083060681819916,0.1197003647685051,0.2393566071987152,-0.40633338689804077,-1.8040671348571777,3.5625,1,F2,6.1,270,0,5.184422502651525,[6700|0|1000|0]
16800,0.716856062412262,0.30324941873550415,0.12101105600595474,0.4498605728149414,-0.7357475757598877,-0.5946793556213379,3.568359375,1,F2,6.1,270,0,5.193783393520725,[6700|0|1100|0]
16900,0.7253559231758118,0.2966552972793579,0.12257891893386841,-1.0885158777236938,0.12686268985271454,1.5518739223480225,3.568359375,1,F2,6.1,270,0,5.204654836154472,[6700|0|1200|0]
17000,0.7342836260795593,0.2911778390407562,0.12076885998249054,0.054215241223573685,0.10379151254892349,2.725747585296631,3.546875,1,F2,6.1,270,0,5.215284170155278,[6700|0|1300|0]
17100,0.7430242300033569,0.2868260145187378,0.11771056056022644,-0.5781219005584717,0.6611450910568237,2.7458720207214355,3.541015625,1,F2,6.1,270,0,5.225515970044807,[6700|0|1400|0]
17200,0.7521793246269226,0.28361278772354126,0.11367584764957428,-0.18992246687412262,0.19898058474063873,1.892525315284729,3.53125,1,F2,6.1,270,0,5.236024038005912,[6700|0|1500|0]
17300,0.7619031667709351,0.28155118227005005,0.11093742400407791,-0.5281871557235718,0.34920090436935425,1.008501648902893,3.53125,1,F2,6.1,270,0,5.246334338057305,[6700|0|1600|0]
17400,0.7712757587432861,0.2807450592517853,0.10933976620435715,-0.1552882045507431,0.6292445063591003,0.022084251046180725,3.541015625,1,F2,6.1,270,0,5.255876236455725,[6700|0|1700|0]
17500,0.7809712290763855,0.2811814546585083,0.10826316475868225,0.40999338030815125,-0.20929266512393951,-1.2208906412124634,3.525390625,1,F2,6.1,270,0,5.265641053740439,[6700|0|1800|0]
17600,0.790526807308197,0.28071650862693787,0.10860927402973175,1.5519201755523682,1.0407706499099731,-2.1688249111175537,3.537109375,1,F2,6.1,270,0,5.2752141954287275,[6700|0|1900|0]
17700,0.7996336221694946,0.27763432264328003,0.1097148060798645,2.428697109222412,0.5849336385726929,-1.79042649269104,3.853515625,1,F2,6.1,270,0,5.284891806108522,[6700|0|2000|0]
17800,0.8067976832389832,0.27054983377456665,0.09292886406183243,3.0458216667175293,5.734243869781494,0.05405329540371895,3.94921875,1,F2,6.1,270,0,5.304469385197138,[6700|0|2100|0]
17900,0.8082103133201599,0.25981512665748596,0.014578676782548428,3.801436424255371,18.318429946899414,4.151244163513184,3.953125,1,F2,6.1,270,0,5.3835641467641,[6700|0|2200|0]
18000,0.8091561198234558,0.2514648735523224,-0.014332456514239311,-15.479482650756836,5.493311405181885,-9.509211540222168,3.958984375,1,F2,6.1,270,0,5.413671868454168,[6700|0|2300|0]
18100,0.8066880106925964,0.24975872039794922,-0.027802724391222,-0.6601018905639648,2.612198829650879,-31.943359375,3.958984375,1,F2,6.1,270,0,5.4274722538816,[6700|0|2400|0]
18200,0.8069242835044861,0.24978169798851013,-0.028562059625983238,-1.0596094131469727,2.8247230052948,-31.7820987701416,3.96484375,1,F2,6.1,270,0,5.428267830911218,[6700|0|2500|0]
18300,0.8069937825202942,0.25001025199890137,-0.028883514925837517,-1.074995517730713,2.6846771240234375,-31.767549514770508,3.96484375,1,F2,6.1,270,0,5.428668331296572,[6700|0|2600|0]
18400,0.8071427941322327,0.2501732110977173,-0.02894257754087448,-1.1430282592773438,2.4754464626312256,-31.746004104614258,3.96484375,1,F2,6.1,270,0,5.428896910650133,[6700|0|2700|0]
18500,0.8070245385169983,0.25014516711235046,-0.0291863065212965,-1.1226768493652344,2.3498942852020264,-31.726701736450195,3.96875,1,F2,6.1,270,0,5.429169260923765,[6700|0|2800|0]
18600,0.8080099821090698,0.24986325204372406,-0.029852204024791718,-1.6727962493896484,1.8030405044555664,-31.72989845275879,3.96875,1,F2,6.1,270,0,5.4303915516683245,[6700|0|2900|0]
18700,0.8075650334358215,0.2495678812265396,-0.029883159324526787,-1.1959636211395264,2.275552272796631,-31.7059268951416,3.96875,1,F2,6.1,270,0,5.430926510986452,[6700|0|3000|0]
18800,0.8072659969329834,0.2500292658805847,-0.02930787205696106,-1.2012128829956055,2.367624282836914,-31.72351837158203,3.974609375,1,F2,6.1,270,0,5.431722283610536,[6700|0|3100|0]
18900,0.8074914813041687,0.24996785819530487,-0.0296542439609766,-1.084276795387268,2.3365285396575928,-31.76276206970215,3.974609375,1,F2,6.1,270,0,5.432140120422403,[6700|0|3200|0]
19000,0.8079295754432678,0.25006550550460815,-0.02948540821671486,-1.0275417566299438,2.2803196907043457,-31.736896514892578,3.974609375,1,F2,6.1,270,0,5.432619669148048,[6700|0|3300|0]
19100,0.8078656196594238,0.24967801570892334,-0.029412629082798958,-1.0720360279083252,2.1436963081359863,-31.711368560791016,3.98046875,1,F2,6.1,270,0,5.433019088083979,[6700|0|3400|0]
19200,0.802105724811554,0.2481682300567627,-0.03690287470817566,-0.8263735771179199,1.9915190935134888,-31.79575538635254,3.98046875,1,F2,6.1,270,0,5.442587767245831,[6700|0|3500|0]
19300,0.8002342581748962,0.2519274353981018,-0.04211515933275223,-1.0729416608810425,1.838662028312683,-31.841066360473633,3.98046875,1,F2,6.1,270,0,5.449281191121402,[6700|0|3600|0]
19400,0.7984392642974854,0.2560212314128876,-0.04632766917347908,-1.1552162170410156,1.842047095298767,-31.900793075561523,3.98046875,1,F2,6.1,270,0,5.45542337379443,[6700|0|3700|0]
19500,0.7963482141494751,0.25979965925216675,-0.050505682826042175,-1.175289273262024,1.8455713987350464,-31.944124221801758,3.984375,1,F2,6.1,270,0,5.461432101258638,[6700|0|3800|0]
19600,0.7940521240234375,0.2633008062839508,-0.05453294515609741,-1.1592447757720947,1.844302773475647,-31.988567352294922,3.984375,1,F2,6.1,270,0,5.467241481800498,[6700|0|3900|0]
19700,0.7918081283569336,0.2665524184703827,-0.05845566838979721,-1.1545584201812744,1.8405301570892334,-32.02204895019531,3.984375,1,F2,6.1,270,0,5.472808909925804,[6700|0|4000|0]
19800,0.7898955345153809,0.26958003640174866,-0.062138788402080536,-1.139706015586853,1.8494956493377686,-32.10177230834961,3.984375,1,F2,6.1,270,0,5.477946015975513,[6700|0|4100|0]
19900,0.788034975528717,0.2728401720523834,-0.06599026173353195,-1.1520473957061768,1.8369425535202026,-32.10585403442383,3.984375,1,F2,6.1,270,0,5.483324120755663,[6700|0|4200|0]
20000,0.7857146263122559,0.27655482292175293,-0.07018141448497772,-1.1567432880401611,1.8369182348251343,-32.13251876831055,3.984375,1,F2,6.1,270,0,5.489386167683359,[6700|0|4300|0]
20100,0.7839867472648621,0.2795833647251129,-0.07359229028224945,-1.1479750871658325,1.83462393283844,-32.160213470458984,3.990234375,1,F2,6.1,270,0,5.494263841838276,[6700|0|4400|0]
20200,0.7822630405426025,0.28197628259658813,-0.07665334641933441,-1.124966025352478,1.8309006690979004,-32.192100524902344,3.990234375,1,F2,6.1,270,0,5.498514404798446,[6700|0|4500|0]
20300,0.7804586291313171,0.2843993902206421,-0.07995155453681946,-1.1162554025650024,1.8336986303329468,-32.20208740234375,3.990234375,1,F2,6.1,270,0,5.502987158747097,[6700|0|4600|0]
20400,0.779175341129303,0.286155104637146,-0.08239701390266418,-1.1171839237213135,1.8203693628311157,-31.99224281311035,3.990234375,1,F2,6.1,270,0,5.506259716266596,[6700|0|4700|0]
20500,0.777337372303009,0.28939488530158997,-0.08553849905729294,-1.1384859085083008,1.8223400115966797,-32.05406188964844,3.990234375,1,F2,6.1,270,0,5.511132419534484,[6700|0|4800|0]
20600,0.7766585946083069,0.29103249311447144,-0.08723225444555283,-1.1523027420043945,1.804636001586914,-32.108306884765625,3.99609375,1,F2,6.1,270,0,5.51358421598258,[6700|0|4900|0]
20700,0.7762652039527893,0.29141315817832947,-0.08828365057706833,-1.1298279762268066,1.7885279655456543,-32.016048431396484,3.99609375,1,F2,6.1,270,0,5.5147695834041235,[6700|0|5000|0]
20800,0.7760043144226074,0.2918410301208496,-0.0897354930639267,-1.1502331495285034,1.7388501167297363,-31.696908950805664,3.99609375,1,F2,6.1,270,0,5.516305481953117,[6700|0|5100|0]
20900,0.771738588809967,0.2972465753555298,-0.09459342062473297,-0.2588091492652893,2.6767971515655518,-31.531639099121094,3.99609375,1,F2,6.1,270,0,5.524732568903692,[6700|0|5200|0]
21000,0.7710337042808533,0.28677910566329956,-0.0473124124109745,-1.373052954673767,2.991425037384033,-26.464736938476562,3.99609375,1,F2,6.1,270,0,5.573163535460913,[6700|0|5300|0]
21100,0.7053779363632202,0.33991679549217224,-0.024071360006928444,-4.233640670776367,1.1625251770019531,-20.33646011352539,3.99609375,1,F2,6.1,270,0,5.6607674192678035,[6700|0|5400|0]
21200,0.6315686106681824,0.4239334166049957,-0.05866142362356186,2.9933323860168457,-0.028314977884292603,-14.033682823181152,3.99609375,1,F2,6.1,270,0,5.777827581935445,[6700|0|5500|0]
21300,0.6504455804824829,0.3980639576911926,-0.03439123556017876,8.481122016906738,3.1208877563476562,-7.377572059631348,4.0,1,F2,6.1,270,0,5.818009803408317,[6700|0|5600|0]
21400,0.630476176738739,0.4318523406982422,-0.0836542546749115,7.26546049118042,4.670044898986816,-8.0911283493042,4.0,1,F2,6.1,270,0,5.880996127038215,[6700|0|5700|0]
21500,0.6304735541343689,0.4411645829677582,-0.09176719933748245,3.276078939437866,2.1986372470855713,-6.942078113555908,4.0,1,F2,6.1,270,0,5.8933467437864655,[6700|0|5800|0]
21600,0.6292614340782166,0.44030365347862244,-0.09115961194038391,0.38442856073379517,-3.4842329025268555,-6.284753799438477,4.0,1,F2,6.1,270,0,5.894952856192527,[6700|0|5900|0]
21700,0.6275896430015564,0.4429726302623749,-0.09283250570297241,-0.8283430337905884,-3.525524616241455,-6.753622531890869,4.0,1,F2,6.1,270,0,5.8985189319092095,[6700|0|6000|0]
21800,0.6283283829689026,0.44586989283561707,-0.0944163128733635,-0.8469161987304688,-3.7728042602539062,-6.711616516113281,4.0,1,F2,6.1,270,0,5.901902467384219,[6700|0|6100|0]
21900,0.629478931427002,0.44915345311164856,-0.09578144550323486,-0.8208500742912292,-3.776106595993042,-6.64144229888916,4.0,1,F2,6.1,270,0,5.905639995569786,[6700|0|6200|0]
22000,0.6312700510025024,0.45269039273262024,-0.0970863625407219,-0.7925008535385132,-3.7542505264282227,-6.578322887420654,4.0,1,F2,6.1,270,0,5.90981382590784,[6700|0|6300|0]
22100,0.6273031234741211,0.44162940979003906,-0.09160918742418289,-0.662841260433197,-3.5476624965667725,-7.133365154266357,4.0,1,F2,6.1,270,0,5.922778443330993,[6700|0|6400|0]
22200,0.6366128921508789,0.42750516533851624,-0.07580593973398209,-0.5520250797271729,-3.543842315673828,-7.193552494049072,4.0,1,F2,6.1,270,0,5.9459281455256,[6700|0|6500|0]
22300,0.6174224019050598,0.45593881607055664,-0.1069025918841362,-0.45379674434661865,-3.509629249572754,-6.971826076507568,4.0,1,F2,6.1,270,0,5.992228784665619,[6700|0|6600|0]
22400,0.6168814897537231,0.4565529525279999,-0.10757584124803543,-0.41763821244239807,-3.484147310256958,-6.863790512084961,4.0703125,1,F2,6.1,270,0,5.993288508332343,[6700|0|6700|0]
22500,0.6173972487449646,0.4557143449783325,-0.10646215081214905,-0.3827660381793976,-3.474550724029541,-6.794486045837402,4.07421875,1,F2,6.1,270,0,5.9947749727101165,[6700|0|6800|0]
22600,0.6171034574508667,0.45623713731765747,-0.10693265497684479,-0.39384642243385315,-3.4536538124084473,-6.743916034698486,4.07421875,1,F2,6.1,270,0,5.995537205826388,[6700|0|6900|0]
22700,0.6166412234306335,0.4567076861858368,-0.1072426289319992,-0.3651990294456482,-3.4815990924835205,-6.7114739418029785,4.07421875,1,F2,6.1,270,0,5.996266013331618,[6700|0|7000|0]
22800,0.6173186898231506,0.4557875692844391,-0.10603604465723038,-0.2663506865501404,-3.5658764839172363,-6.649984359741211,4.07421875,1,F2,6.1,270,0,5.997927765851504,[6700|0|7100|0]
22900,0.6174473762512207,0.45585668087005615,-0.10599879175424576,-0.2842262387275696,-3.533452272415161,-6.649640083312988,4.07421875,1,F2,6.1,270,0,5.998078511952007,[6700|0|7200|0]
23000,0.6173491477966309,0.45576098561286926,-0.10582239180803299,-0.28917884826660156,-3.5124104022979736,-6.644567489624023,4.08203125,1,F2,6.1,270,0,5.998301947295144,[6700|0|7300|0]
23100,0.6172140836715698,0.4562389552593231,-0.10646156221628189,-0.3085547685623169,-3.49564528465271,-6.6405439376831055,4.08203125,1,F2,6.1,270,0,5.999111413855041,[6700|0|7400|0]
23200,0.6171237826347351,0.4561254680156708,-0.1060263141989708,-0.2980564832687378,-3.4565987586975098,-6.650217056274414,4.08203125,1,F2,6.1,270,0,5.99957018881981,[6700|0|7500|0]
23300,0.6168367862701416,0.4561571180820465,-0.10643627494573593,-0.2957608997821808,-3.4364218711853027,-6.659249782562256,4.08203125,1,F2,6.1,270,0,6.000071623216196,[6700|0|7600|0]
23400,0.6174489259719849,0.4554617702960968,-0.10550949722528458,-0.30375292897224426,-3.4579341411590576,-6.6448445320129395,4.08203125,1,F2,6.1,270,0,6.00138202029385,[6700|0|7700|0]
23500,0.6174750924110413,0.45587506890296936,-0.10614651441574097,-0.3259882628917694,-3.4562628269195557,-6.662819862365723,4.08203125,1,F2,6.1,270,0,6.002141817189021,[6700|0|7800|0]
23600,0.6169525980949402,0.4562707841396332,-0.10631552338600159,-0.32924890518188477,-3.4106853008270264,-6.65963888168335,4.0859375,1,F2,6.1,270,0,6.002818688588118,[6700|0|7900|0]
23700,0.6175589561462402,0.4555201232433319,-0.10560689121484756,-0.312221497297287,-3.4249651432037354,-6.634065628051758,4.0859375,1,F2,6.1,270,0,6.004015902613097,[6700|0|8000|0]
23800,0.6174015998840332,0.4556542932987213,-0.1054471880197525,-0.3263511657714844,-3.3976945877075195,-6.652852535247803,4.0859375,1,F2,6.1,270,0,6.004277183510873,[6700|0|8100|0]
23900,0.6170699000358582,0.4561115503311157,-0.10593001544475555,-0.34799695014953613,-3.3871543407440186,-6.648437976837158,4.0859375,1,F2,6.1,270,0,6.00502030604807,[6700|0|8200|0]
24000,0.6170688271522522,0.4561375081539154,-0.10591715574264526,-0.35170701146125793,-3.384420394897461,-6.639615058898926,4.0859375,1,F2,6.1,270,0,6.005049294521332,[6700|0|8300|0]
24100,0.6167696118354797,0.4564240574836731,-0.10638011991977692,-0.3631080687046051,-3.3702878952026367,-6.654111385345459,4.0859375,1,F2,6.1,270,0,6.0056705643125525,[6700|0|8400|0]
24200,0.6165911555290222,0.4564500153064728,-0.10688352584838867,-0.35652709007263184,-3.3694822788238525,-6.660044193267822,4.0859375,1,F2,6.1,270,0,6.006205296012418,[6700|0|8500|0]
24300,0.6168844699859619,0.4566122591495514,-0.10674549639225006,-0.3785094916820526,-3.3871757984161377,-6.665883541107178,4.0859375,1,F2,6.1,270,0,6.006567799206926,[6700|0|8600|0]
24400,0.6171581745147705,0.4563540518283844,-0.10624320805072784,-0.36922937631607056,-3.384693145751953,-6.683139324188232,4.0859375,1,F2,6.1,270,0,6.007195396823097,[6700|0|8700|0]
24500,0.6167214512825012,0.4564025402069092,-0.10659908503293991,-0.34989985823631287,-3.365762948989868,-6.667917728424072,4.08984375,1,F2,6.1,270,0,6.007760840658437,[6700|0|8800|0]
24600,0.6168310046195984,0.4565441906452179,-0.10642228275537491,-0.36394602060317993,-3.3817312717437744,-6.677366733551025,4.08984375,1,F2,6.1,270,0,6.008012486889672,[6700|0|8900|0]
24700,0.6170035004615784,0.4562443494796753,-0.10615404695272446,-0.349631667137146,-3.381168842315674,-6.673671722412109,4.08984375,1,F2,6.1,270,0,6.008450219668748,[6700|0|9000|0]
24800,0.6168338060379028,0.45655500888824463,-0.1067119836807251,-0.3558467924594879,-3.3886685371398926,-6.66651725769043,4.08984375,1,F2,6.1,270,0,6.009110975946063,[6700|0|9100|0]
24900,0.6165769696235657,0.45670902729034424,-0.10675160586833954,-0.3523723781108856,-3.359550714492798,-6.667476177215576,4.08984375,1,F2,6.1,270,0,6.0094130629031905,[6700|0|9200|0]
25000,0.616747260093689,0.45645618438720703,-0.1065305843949318,-0.34594789147377014,-3.3617236614227295,-6.663156986236572,4.08984375,1,F2,6.1,270,0,6.009789598252911,[6700|0|9300|0]
25100,0.6169193983078003,0.4560389518737793,-0.10599182546138763,-0.3435555100440979,-3.3658294677734375,-6.667214393615723,4.09765625,1,F2,6.1,270,0,6.010492432318315,[6700|0|9400|0]
25200,0.6166184544563293,0.4565121531486511,-0.10660424083471298,-0.3570239543914795,-3.368400812149048,-6.66718053817749,4.09765625,1,F2,6.1,270,0,6.011322817312015,[6700|0|9500|0]
25300,0.6167289018630981,0.4564734101295471,-0.10653727501630783,-0.3641926050186157,-3.377744674682617,-6.670609951019287,4.08984375,1,F2,6.1,270,0,6.011457665641727,[6700|0|9600|0]
25400,0.6164832711219788,0.45652636885643005,-0.10674375295639038,-0.3581770062446594,-3.3670711517333984,-6.670719623565674,4.08984375,1,F2,6.1,270,0,6.0117828920666625,[6700|0|9700|0]
25500,0.6164693236351013,0.4567720592021942,-0.10706263780593872,-0.3615308701992035,-3.3704833984375,-6.679192066192627,4.09765625,1,F2,6.1,270,0,6.012185689566237,[6700|0|9800|0]
25600,0.6159634590148926,0.45749637484550476,-0.10809196531772614,-0.3649287819862366,-3.359849452972412,-6.662723541259766,4.09765625,1,F2,6.1,270,0,6.013542172994682,[6700|0|9900|0]
25700,0.6156516671180725,0.4577811360359192,-0.10850048810243607,-0.3606073558330536,-3.3578274250030518,-6.659741401672363,4.09765625,1,F2,6.1,270,0,6.014129705111349,[6700|0|10000|0]
25800,0.6160877346992493,0.45709070563316345,-0.10760704427957535,-0.34349802136421204,-3.3820908069610596,-6.664636611938477,4.09765625,1,F2,6.1,270,0,6.015340114521843,[6700|0|10100|0]
25900,0.6166536808013916,0.45671719312667847,-0.10692265629768372,-0.3416122496128082,-3.4074018001556396,-6.671192646026611,4.09765625,1,F2,6.1,270,0,6.016303542512296,[6700|0|10200|0]
26000,0.6164482235908508,0.457119882106781,-0.1071736142039299,-0.3543691635131836,-3.3998968601226807,-6.674099922180176,4.09765625,1,F2,6.1,270,0,6.016820602422526,[6700|0|10300|0]
26100,0.6164560317993164,0.45678120851516724,-0.10675501078367233,-0.3307478427886963,-3.388683795928955,-6.67665433883667,4.1015625,1,F2,6.1,270,0,6.017359109240707,[6700|0|10400|0]
26200,0.6161990761756897,0.4570838212966919,-0.10756644606590271,-0.3340490460395813,-3.396998405456543,-6.681679725646973,4.1015625,1,F2,6.1,270,0,6.0182624518696715,[6700|0|10500|0]
26300,0.61609947681427,0.4572840631008148,-0.10798957198858261,-0.3422457277774811,-3.4006712436676025,-6.682380676269531,4.1015625,1,F2,6.1,270,0,6.018741046018567,[6700|0|10600|0]
26400,0.6167238354682922,0.4567479193210602,-0.10701191425323486,-0.3431306481361389,-3.4187352657318115,-6.668222904205322,4.1015625,1,F2,6.1,270,0,6.0200189695408906,[6700|0|10700|0]
26500,0.6171989440917969,0.4560632109642029,-0.10595838725566864,-0.33119824528694153,-3.4146063327789307,-6.665209770202637,4.1015625,1,F2,6.1,270,0,6.021362276234345,[6700|0|10800|0]
26600,0.6171150803565979,0.4562036395072937,-0.1061246395111084,-0.3333478569984436,-3.4089715480804443,-6.6484503746032715,4.1015625,1,F2,6.1,270,0,6.021595499548434,[6700|0|10900|0]
26700,0.6168967485427856,0.4561183750629425,-0.10622034966945648,-0.33180612325668335,-3.3891241550445557,-6.646658420562744,4.1015625,1,F2,6.1,270,0,6.021848677827132,[6700|0|11000|0]
26800,0.6165655255317688,0.4566020369529724,-0.10682861506938934,-0.36010074615478516,-3.380124568939209,-6.657176494598389,4.1015625,1,F2,6.1,270,0,6.022693440695426,[6700|0|11100|0]
26900,0.6170657277107239,0.45636314153671265,-0.10648195445537567,-0.35891979932785034,-3.395932674407959,-6.669694423675537,4.1015625,1,F2,6.1,270,0,6.023347234868733,[6700|0|11200|0]
27000,0.616571843624115,0.4568234384059906,-0.10678719729185104,-0.3614501655101776,-3.366711378097534,-6.668815612792969,4.1015625,1,F2,6.1,270,0,6.024088158540977,[6700|0|11300|0]
27100,0.6168556809425354,0.4567742645740509,-0.10687796771526337,-0.3601202666759491,-3.3865749835968018,-6.655974388122559,4.1015625,1,F2,6.1,270,0,6.024390186617225,[6700|0|11400|0]
27200,0.6168370842933655,0.45656177401542664,-0.10640491545200348,-0.34863701462745667,-3.3714864253997803,-6.670027732849121,4.1015625,1,F2,6.1,270,0,6.024909105220322,[6700|0|11500|0]
27300,0.6164206266403198,0.45686542987823486,-0.10714694112539291,-0.33934828639030457,-3.359893560409546,-6.6763715744018555,4.10546875,1,F2,6.1,270,0,6.025812568534335,[6700|0|11600|0]
27400,0.6167652606964111,0.45641252398490906,-0.10635145753622055,-0.3465447425842285,-3.3742833137512207,-6.6790056228637695,4.1015625,1,F2,6.1,270,0,6.02679067411221,[6700|0|11700|0]
27500,0.6172156929969788,0.45607322454452515,-0.10596071183681488,-0.3485800325870514,-3.4055051803588867,-6.708069801330566,4.10546875,1,F2,6.1,270,0,6.027476746680707,[6700|0|11800|0]
27600,0.6167718768119812,0.45647311210632324,-0.10663773119449615,-0.35113847255706787,-3.3693580627441406,-6.720373630523682,4.10546875,1,F2,6.1,270,0,6.028379652035006,[6700|0|11900|0]
27700,0.616696298122406,0.456695556640625,-0.10657795518636703,-0.3534826636314392,-3.3704447746276855,-6.720229625701904,4.10546875,1,F2,6.1,270,0,6.028622070846789,[6700|0|12000|0]
27800,0.616601288318634,0.45667096972465515,-0.10678283125162125,-0.34362947940826416,-3.369741439819336,-6.697868347167969,4.10546875,1,F2,6.1,270,0,6.028849239465581,[6700|0|12100|0]
27900,0.6164301037788391,0.4566173553466797,-0.10678359121084213,-0.3496904969215393,-3.3705666065216064,-6.67665958404541,4.10546875,1,F2,6.1,270,0,6.029028625155446,[6700|0|12200|0]
28000,0.616689145565033,0.45647600293159485,-0.10637754201889038,-0.3560439944267273,-3.3852901458740234,-6.6756062507629395,4.10546875,1,F2,6.1,270,0,6.029530580430873,[6700|0|12300|0]
28100,0.6171346306800842,0.4563913345336914,-0.10631313174962997,-0.35607627034187317,-3.402979850769043,-6.684950351715088,4.10546875,1,F2,6.1,270,0,6.029988591793311,[6700|0|12400|0]
28200,0.6168029308319092,0.4566124677658081,-0.10646653920412064,-0.3568861186504364,-3.373943328857422,-6.6884846687316895,4.10546875,1,F2,6.1,270,0,6.030415743455744,[6700|0|12500|0]
28300,0.61663818359375,0.4564685821533203,-0.10674124956130981,-0.3453371226787567,-3.37312388420105,-6.67995548248291,4.10546875,1,F2,6.1,270,0,6.030766899407294,[6700|0|12600|0]
28400,0.6170526742935181,0.456178218126297,-0.10665993392467499,-0.344511479139328,-3.3938260078430176,-6.612462520599365,4.10546875,1,F2,6.1,270,0,6.031279467491694,[6700|0|12700|0]
28500,0.6170653700828552,0.45594850182533264,-0.10587754845619202,-0.3451014757156372,-3.385550022125244,-6.599743843078613,4.11328125,1,F2,6.1,270,0,6.032094978241647,[6700|0|12800|0]
28600,0.6168273687362671,0.4563179612159729,-0.10611326992511749,-0.3567424416542053,-3.3719980716705322,-6.621266841888428,4.10546875,1,F2,6.1,270,0,6.032593686065149,[6700|0|12900|0]
28700,0.6165792942047119,0.4568580389022827,-0.10700979828834534,-0.3677663803100586,-3.3760688304901123,-6.61400842666626,4.11328125,1,F2,6.1,270,0,6.033669319825556,[6700|0|13000|0]
28800,0.6168299317359924,0.4563591182231903,-0.10686344653367996,-0.3386654853820801,-3.374293088912964,-6.611151218414307,4.11328125,1,F2,6.1,270,0,6.034246519836129,[6700|0|13100|0]
28900,0.6164525151252747,0.45663291215896606,-0.10666117072105408,-0.34428149461746216,-3.3536667823791504,-6.599894046783447,4.10546875,1,F2,6.1,270,0,6.034754773632659,[6700|0|13200|0]
29000,0.6169067025184631,0.45642101764678955,-0.10640455037355423,-0.3438442051410675,-3.372546911239624,-6.616269111633301,4.11328125,1,F2,6.1,270,0,6.035317836218144,[6700|0|13300|0]
29100,0.6167171597480774,0.456350177526474,-0.10668038576841354,-0.33434146642684937,-3.3633475303649902,-6.611287593841553,4.11328125,1,F2,6.1,270,0,6.035659932621967,[6700|0|13400|0]
29200,0.6167693138122559,0.45643138885498047,-0.106461301445961,-0.33730125427246094,-3.3640971183776855,-6.603970050811768,4.11328125,1,F2,6.1,270,0,6.035899334515512,[6700|0|13500|0]
29300,0.6170332431793213,0.45644134283065796,-0.10625649988651276,-0.33588892221450806,-3.375089168548584,-6.611249923706055,4.11328125,1,F2,6.1,270,0,6.036233552215797,[6700|0|13600|0]
29400,0.6172740459442139,0.45592591166496277,-0.10570511966943741,-0.3150821626186371,-3.3693253993988037,-6.614607810974121,4.11328125,1,F2,6.1,270,0,6.037025811896666,[6700|0|13700|0]
29501,0.6164215207099915,0.45665663480758667,-0.10665260255336761,-0.32854539155960083,-3.343034029006958,-6.615824222564697,4.11328125,1,F2,6.1,270,0,6.038494988333141,[6700|0|13800|0]
29601,0.6170623898506165,0.45609626173973083,-0.10571100562810898,-0.3235698342323303,-3.368107795715332,-6.610991954803467,4.11328125,1,F2,6.1,270,0,6.039764372435862,[6700|0|13900|0]
29701,0.6170171499252319,0.45626798272132874,-0.1064964160323143,-0.32699117064476013,-3.381239414215088,-6.649657249450684,4.11328125,1,F2,6.1,270,0,6.040569607960043,[6700|0|14000|0]
29801,0.6165158748626709,0.456449031829834,-0.10681210458278656,-0.31526660919189453,-3.3519673347473145,-6.5854082107543945,4.11328125,1,F2,6.1,270,0,6.04118905507557,[6700|0|14100|0]
29901,0.616815984249115,0.4563474655151367,-0.10642775893211365,-0.32766175270080566,-3.3727338314056396,-6.6355462074279785,4.11328125,1,F2,6.1,270,0,6.041687154402315,[6700|0|14200|0]
30001,0.6170726418495178,0.4559432566165924,-0.10632037371397018,-0.3090215027332306,-3.3817832469940186,-6.6439924240112305,4.11328125,1,F2,6.1,270,0,6.042177857512742,[6700|0|14300|0]
30101,0.6167433261871338,0.45618417859077454,-0.10630697757005692,-0.32288220524787903,-3.365468740463257,-6.593175888061523,4.11328125,1,F2,6.1,270,0,6.042586111918483,[6700|0|14400|0]
30201,0.6169572472572327,0.4563845694065094,-0.1062166690826416,-0.3355688750743866,-3.378891944885254,-6.563385486602783,4.11328125,1,F2,6.1,270,0,6.042892827301473,[6700|0|14500|0]
30301,0.6165249943733215,0.45679354667663574,-0.10705811530351639,-0.33489108085632324,-3.363449811935425,-6.566977024078369,4.1171875,1,F2,6.1,270,0,6.043923427469217,[6700|0|14600|0]
30401,0.6161498427391052,0.45727649331092834,-0.10746566206216812,-0.3438238799571991,-3.3594868183135986,-6.614538192749023,4.11328125,1,F2,6.1,270,0,6.044658322400971,[6700|0|14700|0]
30501,0.616200864315033,0.45689570903778076,-0.10735593736171722,-0.32044219970703125,-3.3634748458862305,-6.567807674407959,4.11328125,1,F2,6.1,270,0,6.045057871363897,[6700|0|14800|0]
30601,0.6164246201515198,0.4566521644592285,-0.10660427808761597,-0.3269505798816681,-3.3694941997528076,-6.57556676864624,4.1171875,1,F2,6.1,270,0,6.045879073105522,[6700|0|14900|0]
30702,0.6168283224105835,0.45635902881622314,-0.10601428151130676,-0.3319006860256195,-3.385237693786621,-6.593376636505127,4.1171875,1,F2,6.1,270,0,6.046651730842965,[6700|0|15000|0]
30802,0.6165200471878052,0.45665982365608215,-0.10658324509859085,-0.3398977518081665,-3.381556272506714,-6.598669528961182,4.1171875,1,F2,6.1,270,0,6.047365334873446,[6700|0|15100|0]
30902,0.6167325377464294,0.4565756022930145,-0.10678833723068237,-0.3449161648750305,-3.396468162536621,-6.5878424644470215,4.1171875,1,F2,6.1,270,0,6.0476724313699215,[6700|0|15200|0]
31002,0.6165193319320679,0.45670008659362793,-0.10685261338949203,-0.34655651450157166,-3.3901584148406982,-6.5933637619018555,4.1171875,1,F2,6.1,270,0,6.047927547980451,[6700|0|15300|0]
31102,0.6161313652992249,0.4571259319782257,-0.10736960917711258,-0.35038241744041443,-3.3753974437713623,-6.580358028411865,4.1171875,1,F2,6.1,270,0,6.048701593873276,[6700|0|15400|0]
31202,0.616216242313385,0.4569028615951538,-0.10741587728261948,-0.34484410285949707,-3.3833751678466797,-6.5808820724487305,4.1171875,1,F2,6.1,270,0,6.0489447095678,[6700|0|15500|0]
31302,0.6169009208679199,0.45620572566986084,-0.10681194067001343,-0.34189724922180176,-3.404318332672119,-6.561435699462891,4.1171875,1,F2,6.1,270,0,6.050093414339889,[6700|0|15600|0]
31402,0.616538941860199,0.4565110206604004,-0.10646124929189682,-0.3533920347690582,-3.374591112136841,-6.566659450531006,4.1171875,1,F2,6.1,270,0,6.050682666642357,[6700|0|15700|0]
31502,0.6163360476493835,0.45666244626045227,-0.1068422943353653,-0.35092687606811523,-3.375720739364624,-6.591458320617676,4.1171875,1,F2,6.1,270,0,6.051140150082807,[6700|0|15800|0]
31602,0.6167489886283875,0.4566494822502136,-0.10676126182079315,-0.3545781373977661,-3.4005517959594727,-6.599010944366455,4.1171875,1,F2,6.1,270,0,6.051561166218032,[6700|0|15900|0]
31702,0.6161350607872009,0.4572409987449646,-0.10709507763385773,-0.35815441608428955,-3.37477707862854,-6.6021246910095215,4.1171875,1,F2,6.1,270,0,6.052476716410429,[6700|0|16000|0]
31800,0.6161720752716064,0.457184761762619,-0.1072457954287529,-0.3461219370365143,-3.3740360736846924,-6.626563549041748,4.1171875,1,F2,6.1,270,0,6.052641787679695,[6700|0|16100|0]
31900,0.6164982914924622,0.4566415250301361,-0.10699420422315598,-0.32039180397987366,-3.3807246685028076,-6.598855972290039,4.1171875,1,F2,6.1,270,0,6.053323565726425,[6700|0|16200|0]
32000,0.6164819002151489,0.45686426758766174,-0.10700109601020813,-0.3377748131752014,-3.381568670272827,-6.597485542297363,4.1171875,1,F2,6.1,270,0,6.053547016879104,[6700|0|16300|0]
32100,0.6161715984344482,0.45724964141845703,-0.1071494072675705,-0.3459341824054718,-3.372495651245117,-6.606271743774414,4.12109375,1,F2,6.1,270,0,6.054063540270277,[6700|0|16400|0]
32200,0.616658627986908,0.4563274085521698,-0.10647379606962204,-0.307645320892334,-3.3907039165496826,-6.622882843017578,4.12109375,1,F2,6.1,270,0,6.055306183314527,[6700|0|16500|0]
32300,0.6163780093193054,0.456847608089447,-0.10730227828025818,-0.33763548731803894,-3.3929452896118164,-6.6285319328308105,4.12109375,1,F2,6.1,270,0,6.056323895046075,[6700|0|16600|0]
