,time.ms,stateEstimate.x,stateEstimate.y,stateEstimate.z,stabilizer.roll,stabilizer.pitch,stabilizer.yaw,pm.vbat,drone_id,node_name,wind_speed,global_wind_direction,relative_wind_direction,travel_dist,waiting_time
0,0,1.6538591384887695,1.1279155015945437,-0.0294426269829273,0.0051988172344863,0.2291785478591919,4.7655348777771,4.07421875,0,"['A1', 'B2', 'F2']",6.1,270,0.0,0.0779611194371756,[100|0|0]
1,100,1.6541659832000732,1.1280745267868042,-0.0296131465584039,-0.1585398465394973,0.324563592672348,4.9818644523620605,4.07421875,0,"['A1', 'B2', 'F2']",6.1,270,0.0,0.0783465018631493,[200|0|0]
2,200,1.6539981365203855,1.128258466720581,-0.0300408639013767,-0.3393462002277374,0.4965338110923767,5.074949741363525,4.07421875,0,"['A1', 'B2', 'F2']",6.1,270,0.0,0.0788414246173237,[300|0|0]
3,300,1.6539479494094849,1.127990961074829,-0.0297519620507955,-0.3810345530509949,0.6302441358566284,5.080782413482666,4.07421875,0,"['A1', 'B2', 'F2']",6.1,270,0.0,0.079238340598205,[400|0|0]
4,400,1.6538337469100952,1.1281864643096924,-0.0298915021121501,-0.4245786368846893,0.7018141150474548,5.048472881317139,4.07421875,0,"['A1', 'B2', 'F2']",6.1,270,0.0,0.0795043014119196,[500|0|0]
5,500,1.6540333032608032,1.1285051107406616,-0.030172687023878,-0.4412468373775482,0.7441741228103638,5.053347587585449,4.08203125,0,"['A1', 'B2', 'F2']",6.1,270,0.0,0.0799737939461102,[600|0|0]
6,600,1.6539287567138672,1.1285017728805542,-0.0300725027918815,-0.4381492733955383,0.7850215435028076,5.061611175537109,4.07421875,0,"['A1', 'B2', 'F2']",6.1,270,0.0,0.0801186317938127,[700|0|0]
7,700,1.654049515724182,1.1283718347549438,-0.0299473255872726,-0.4219156205654144,0.7950947284698486,5.030942916870117,4.07421875,0,"['A1', 'B2', 'F2']",6.1,270,0.0,0.0803357400332074,[800|0|0]
8,800,1.6537022590637207,1.1284778118133545,-0.029974665492773,-0.4195959270000458,0.8205109238624573,5.056459903717041,4.07421875,0,"['A1', 'B2', 'F2']",6.1,270,0.0,0.0806998358936301,[900|0|0]
9,900,1.654102802276611,1.1283055543899536,-0.0301869008690118,-0.4115360379219055,0.8079885244369507,5.048576831817627,4.07421875,0,"['A1', 'B2', 'F2']",6.1,270,0.0,0.081184759949784,[1000|0|0]
10,1000,1.654132604598999,1.1283446550369265,-0.0298915319144725,-0.4035191535949707,0.8203697800636292,5.048075199127197,4.07421875,0,"['A1', 'B2', 'F2']",6.1,270,0.0,0.0814841925103365,[1100|0|0]
11,1100,1.6541048288345337,1.1282987594604492,-0.030114023014903,-0.3972465693950653,0.8303014039993286,5.027841091156006,4.07421875,0,"['A1', 'B2', 'F2']",6.1,270,0.0,0.0817130596919125,[1200|0|0]
12,1200,1.6539545059204102,1.1282410621643066,-0.0298772472888231,-0.3906432688236236,0.8422017693519592,5.004447937011719,4.07421875,0,"['A1', 'B2', 'F2']",6.1,270,0.0,0.0819993963835073,[1300|0|0]
13,1300,1.653779149055481,1.128425359725952,-0.0302239004522562,-0.4015044569969177,0.8469233512878418,4.985769748687744,4.07421875,0,"['A1', 'B2', 'F2']",6.1,270,0.0,0.0824293778215072,[1400|0|0]
14,1400,1.6539928913116455,1.1285613775253296,-0.0301156193017959,-0.3923140168190002,0.8423781394958496,4.963851451873779,4.07421875,0,"['A1', 'B2', 'F2']",6.1,270,0.0,0.0827048980591718,[1500|0|0]
15,1500,1.6539058685302734,1.1283011436462402,-0.0302039198577404,-0.3752534687519073,0.8514053821563721,4.935770034790039,4.07421875,0,"['A1', 'B2', 'F2']",6.1,270,0.0,0.0829931542377417,[1600|0|0]
16,1600,1.6538355350494385,1.1280980110168457,-0.0299411211162805,-0.3617257177829742,0.8513655662536621,4.948907375335693,4.07421875,0,"['A1', 'B2', 'F2']",6.1,270,0.0,0.0833326727823957,[1700|0|0]
17,1700,1.6538572311401367,1.1284900903701782,-0.0300708469003438,-0.366128146648407,0.8559039831161499,4.974123001098633,4.07421875,0,"['A1', 'B2', 'F2']",6.1,270,0.0,0.0837462253409806,[1800|0|0]
18,1800,1.6542303562164309,1.1281744241714478,-0.0301448423415422,-0.3609817326068878,0.8419792652130127,4.978634834289551,4.07421875,0,"['A1', 'B2', 'F2']",6.1,270,0.0,0.0842405357666226,[1900|0|0]
19,1900,1.6541608572006226,1.128298282623291,-0.0300432164222002,-0.3682938814163208,0.8488156199455261,4.990088939666748,4.07421875,0,"['A1', 'B2', 'F2']",6.1,270,0.0,0.0844151749855095,[2000|0|0]
20,2000,1.6541759967803955,1.128651142120361,-0.0300672408193349,-0.3751260340213775,0.8515254259109497,4.97094202041626,4.07421875,0,"['A1', 'B2', 'F2']",6.1,270,0.0,0.0847691752725237,[2100|0|0]
21,2100,1.654084086418152,1.128298044204712,-0.029828380793333,-0.3626869916915893,0.8569856882095337,4.966905117034912,4.07421875,0,"['A1', 'B2', 'F2']",6.1,270,0.0,0.0852052713224317,[2200|0|0]
22,2200,1.6538527011871338,1.1281704902648926,-0.0303138270974159,-0.359996885061264,0.8664860725402832,4.986794948577881,4.07421875,0,"['A1', 'B2', 'F2']",6.1,270,0.0,0.0857579622368173,[2300|0|0]
23,2300,1.6541898250579834,1.128377079963684,-0.0303730797022581,-0.3679029941558838,0.8581579327583313,4.984280586242676,4.07421875,0,"['A1', 'B2', 'F2']",6.1,270,0.0,0.086157765537359,[2400|0|0]
24,2400,1.6538963317871094,1.1285085678100586,-0.0300396885722875,-0.372386485338211,0.8684756755828857,4.983001232147217,4.07421875,0,"['A1', 'B2', 'F2']",6.1,270,0.0,0.0866209901042113,[2500|0|0]
25,2500,1.653894543647766,1.128410816192627,-0.0304495859891176,-0.3694497346878052,0.8681780695915222,4.954680919647217,4.07421875,0,"['A1', 'B2', 'F2']",6.1,270,0.0,0.0870423859614249,[2600|0|0]
26,2600,1.653883695602417,1.1283482313156128,-0.0303269606083631,-0.3659864068031311,0.8719642758369446,4.944166660308838,4.07421875,0,"['A1', 'B2', 'F2']",6.1,270,0.0,0.0871804856751247,[2700|0|0]
27,2700,1.654050350189209,1.1283910274505615,-0.030041079968214,-0.3667615354061126,0.8651171922683716,4.930402755737305,4.07421875,0,"['A1', 'B2', 'F2']",6.1,270,0.0,0.0875141516771048,[2800|0|0]
28,2800,1.6542162895202637,1.128945231437683,-0.0295907743275165,-0.3776814043521881,0.8581127524375916,4.956133842468262,4.07421875,0,"['A1', 'B2', 'F2']",6.1,270,0.0,0.0882472635996489,[2900|0|0]
29,2900,1.6538894176483154,1.1283265352249146,-0.030506270006299,-0.3669731020927429,0.8675664663314819,4.949943065643311,4.07421875,0,"['A1', 'B2', 'F2']",6.1,270,0.0,0.0893995493985003,[3000|0|0]
30,3000,1.653793454170227,1.1285099983215332,-0.0303312055766582,-0.3684739172458648,0.8615151643753052,4.943838119506836,4.07421875,0,"['A1', 'B2', 'F2']",6.1,270,0.0,0.0896706863592289,[3100|0|0]
31,3100,1.6540342569351196,1.1284725666046145,-0.0303070563822984,-0.367345929145813,0.857316255569458,4.933250427246094,4.07421875,0,"['A1', 'B2', 'F2']",6.1,270,0.0,0.0899155746778553,[3200|0|0]
32,3200,1.6539405584335327,1.1281652450561523,-0.0301183778792619,-0.3574292361736297,0.8642373085021973,4.929220676422119,4.07421875,0,"['A1', 'B2', 'F2']",6.1,270,0.0,0.0902881676472693,[3300|0|0]
33,3300,1.6540305614471436,1.128259301185608,-0.0300907120108604,-0.3565559387207031,0.864573061466217,4.944878101348877,4.07421875,0,"['A1', 'B2', 'F2']",6.1,270,0.0,0.0904212559571301,[3400|0|0]
34,3400,1.6541050672531128,1.1283994913101196,-0.0300366766750812,-0.3597318828105926,0.8634655475616455,4.951683521270752,4.07421875,0,"['A1', 'B2', 'F2']",6.1,270,0.0,0.0905889586811584,[3500|0|0]
35,3500,1.654637098312378,1.1291898488998413,-0.0294497776776552,-0.3726165890693664,0.847552478313446,4.9656524658203125,4.07421875,0,"['A1', 'B2', 'F2']",6.1,270,0.0,0.0917079638647179,[3600|0|0]
36,3600,1.6544559001922607,1.1291862726211548,-0.0293093267828226,-0.3821511268615722,0.8394721150398254,4.9690775871276855,4.07421875,0,"['A1', 'B2', 'F2']",6.1,270,0.0,0.0919372497176669,[3700|0|0]
37,3700,1.654609441757202,1.1291016340255735,-0.0291991401463747,-0.3786663711071014,0.8341771960258484,4.98253870010376,4.07421875,0,"['A1', 'B2', 'F2']",6.1,270,0.0,0.0921443240977294,[3800|0|0]
38,3800,1.6546393632888794,1.128807783126831,-0.0294850915670394,-0.3665662705898285,0.83680659532547,4.9931254386901855,4.07421875,0,"['A1', 'B2', 'F2']",6.1,270,0.0,0.0925554346226859,[3900|0|0]
39,3900,1.654024362564087,1.1282795667648315,-0.029749721288681,-0.3549632132053375,0.8591437935829163,4.962827205657959,4.07421875,0,"['A1', 'B2', 'F2']",6.1,270,0.0,0.0934082343096906,[4000|0|0]
40,4000,1.654495120048523,1.1286133527755735,-0.0295428428798913,-0.3548778295516968,0.8413498997688293,4.98778772354126,4.07421875,0,"['A1', 'B2', 'F2']",6.1,270,0.0,0.0940212794843255,[4100|0|0]
41,4100,1.6545695066452026,1.1290665864944458,-0.0295632760971784,-0.3650398254394531,0.8414755463600159,4.978270053863525,4.07421875,0,"['A1', 'B2', 'F2']",6.1,270,0.0,0.0944810312500174,[4200|0|0]
42,4200,1.654364824295044,1.129029631614685,-0.0296927243471145,-0.368098646402359,0.8462785482406616,4.987832069396973,4.07421875,0,"['A1', 'B2', 'F2']",6.1,270,0.0,0.0947260156924136,[4300|0|0]
43,4300,1.6545894145965576,1.1288535594940186,-0.0294846631586551,-0.3655639290809631,0.8469055891036987,4.940767288208008,4.07421875,0,"['A1', 'B2', 'F2']",6.1,270,0.0,0.0950791893796457,[4400|0|0]
44,4400,1.6543298959732056,1.1287436485290527,-0.0297645330429077,-0.3684267997741699,0.8587250113487244,4.955447196960449,4.07421875,0,"['A1', 'B2', 'F2']",6.1,270,0.0,0.0954763763484624,[4500|0|0]
45,4500,1.6544013023376465,1.1289570331573486,-0.0292154941707849,-0.3751676678657532,0.8594405651092529,4.973356246948242,4.07421875,0,"['A1', 'B2', 'F2']",6.1,270,0.0,0.0960697358950928,[4600|0|0]
46,4600,1.654298186302185,1.1291735172271729,-0.0297472905367612,-0.3728830516338348,0.860118567943573,4.979709148406982,4.07421875,0,"['A1', 'B2', 'F2']",6.1,270,0.0,0.0966530931133756,[4700|0|0]
47,4700,1.6542609930038452,1.1292766332626345,-0.0296277403831481,-0.3709681332111358,0.8651214838027954,4.98839282989502,4.07421875,0,"['A1', 'B2', 'F2']",6.1,270,0.0,0.0968152920573906,[4800|0|0]
48,4801,1.65429949760437,1.128793478012085,-0.0296739283949136,-0.3534131646156311,0.8663920760154724,5.003467082977295,4.07421875,0,"['A1', 'B2', 'F2']",6.1,270,0.0,0.0973021749312173,[4900|0|0]
49,4901,1.6542513370513916,1.1288819313049316,-0.0295012071728706,-0.3551522493362427,0.867602527141571,5.020756721496582,4.07421875,0,"['A1', 'B2', 'F2']",6.1,270,0.0,0.0975021150333046,[5000|0|0]
50,5000,1.6544989347457886,1.1286908388137815,-0.0293946713209152,-0.3634169697761535,0.854587972164154,4.987540721893311,4.07421875,0,"['A1', 'B2', 'F2']",6.1,270,0.0,0.0978325251514857,[5100|0|0]
51,5100,1.6545591354370115,1.1290104389190674,-0.0294733960181474,-0.3779168725013733,0.8547168374061584,4.98622989654541,4.07421875,0,"['A1', 'B2', 'F2']",6.1,270,0.0,0.098167138254153,[5200|0|0]
52,5201,1.6544898748397827,1.1291548013687134,-0.0291586089879274,-0.3765798211097717,0.8505462408065796,4.985421657562256,4.07421875,0,"['A1', 'B2', 'F2']",6.1,270,0.0,0.09852030736604,[5300|0|0]
53,5301,1.6542973518371582,1.1285433769226074,-0.0294724553823471,-0.361682265996933,0.8532858490943909,5.0010247230529785,4.07421875,0,"['A1', 'B2', 'F2']",6.1,270,0.0,0.0992340331671189,[5400|0|0]
54,5401,1.654641032218933,1.1288304328918457,-0.0292069222778081,-0.375184565782547,0.8406962752342224,4.971695899963379,4.07421875,0,"['A1', 'B2', 'F2']",6.1,270,0.0,0.0997546339392067,[5500|0|0]
55,5501,1.6543660163879397,1.1290751695632937,-0.0293031390756368,-0.3752157390117645,0.8482149839401245,4.978491306304932,4.07421875,0,"['A1', 'B2', 'F2']",6.1,270,0.0,0.1001351433580557,[5600|0|0]
56,5601,1.6543645858764648,1.129200458526611,-0.0296710971742868,-0.3750542104244232,0.8540220856666565,4.9848222732543945,4.07421875,0,"['A1', 'B2', 'F2']",6.1,270,0.0,0.100523849587816,[5700|0|0]
57,5701,1.6542967557907104,1.1286293268203735,-0.0296458378434181,-0.3549262881278991,0.8600579500198364,4.9776763916015625,4.07421875,0,"['A1', 'B2', 'F2']",6.1,270,0.0,0.1010995494924534,[5800|0|0]
58,5802,1.6543349027633667,1.128965973854065,-0.0291894227266311,-0.364563375711441,0.8560705780982971,4.967809677124023,4.07421875,0,"['A1', 'B2', 'F2']",6.1,270,0.0,0.1016679693862359,[5900|0|0]
59,5902,1.6543635129928589,1.1290931701660156,-0.0295921359211206,-0.3689902126789093,0.8612222075462341,4.958006858825684,4.07421875,0,"['A1', 'B2', 'F2']",6.1,270,0.0,0.1020912604964914,[6000|0|0]
60,6001,1.6542277336120603,1.128717064857483,-0.0295460298657417,-0.3513417243957519,0.8624725341796875,5.002718925476074,4.07421875,0,"['A1', 'B2', 'F2']",6.1,270,0.0,0.1024937738648397,[6100|0|0]
61,6101,1.6544618606567385,1.128848433494568,-0.0292062610387802,-0.3598287403583526,0.8642885088920593,5.004105567932129,4.07421875,0,"['A1', 'B2', 'F2']",6.1,270,0.0,0.1029268050965469,[6200|0|0]
62,6202,1.654537320137024,1.1290135383605957,-0.0294372346252203,-0.3639632165431976,0.868378758430481,5.009117126464844,4.07421875,0,"['A1', 'B2', 'F2']",6.1,270,0.0,0.1032205780489848,[6300|0|0]
63,6302,1.654493808746338,1.1286379098892212,-0.0294448565691709,-0.3587577939033508,0.8685896396636963,5.001858711242676,4.07421875,0,"['A1', 'B2', 'F2']",6.1,270,0.0,0.1035987950285827,[6400|0|0]
64,6402,1.6546982526779177,1.129047155380249,-0.0298516061156988,-0.3685276806354522,0.860511839389801,4.989675045013428,4.07421875,0,"['A1', 'B2', 'F2']",6.1,270,0.0,0.1042109423855867,[6500|0|0]
65,6502,1.6544952392578125,1.1292343139648438,-0.0297172795981168,-0.3744516968727112,0.8581061363220215,4.990081310272217,4.07421875,0,"['A1', 'B2', 'F2']",6.1,270,0.0,0.1045180032881059,[6600|0|0]
66,6600,1.6542999744415283,1.1288572549819946,-0.029087409377098,-0.3843444883823395,0.8558778762817383,4.978267192840576,4.07421875,0,"['A1', 'B2', 'F2']",6.1,270,0.0,0.1052776336721427,[6700|0|0]
67,6700,1.6541707515716553,1.1285806894302368,-0.0293695051223039,-0.3787139058113098,0.8570722937583923,4.979888439178467,4.07421875,0,"['A1', 'B2', 'F2']",6.1,270,0.0,0.1056932838423347,[6800|0|0]
68,6800,1.6546580791473389,1.1289564371109009,-0.029137797653675,-0.389640063047409,0.8442729711532593,4.959931373596191,4.07421875,0,"['A1', 'B2', 'F2']",6.1,270,0.0,0.1063508268725346,[6900|0|0]
69,6900,1.6544181108474731,1.1287922859191897,-0.0291912611573934,-0.3886278569698334,0.8557626008987427,4.972743988037109,4.07421875,0,"['A1', 'B2', 'F2']",6.1,270,0.0,0.1066464427464497,[7000|0|0]
70,7002,1.654462456703186,1.1286078691482544,-0.0292659234255552,-0.3842447698116302,0.8546102046966553,4.972631931304932,4.07421875,0,"['A1', 'B2', 'F2']",6.1,270,0.0,0.1068502822779642,[7100|0|0]
71,7102,1.6545724868774414,1.1289446353912354,-0.029198121279478,-0.3945246636867523,0.849534809589386,4.961005687713623,4.07421875,0,"['A1', 'B2', 'F2']",6.1,270,0.0,0.1072109972245229,[7200|0|0]
72,7200,1.6545885801315308,1.1287391185760498,-0.0297031477093696,-0.3838416039943695,0.8472182154655457,4.949956893920898,4.07421875,0,"['A1', 'B2', 'F2']",6.1,270,0.0,0.1077564766916344,[7300|0|0]
73,7300,1.6544147729873655,1.1287444829940796,-0.0292981136590242,-0.3826669156551361,0.8561974763870239,4.968389987945557,4.07421875,0,"['A1', 'B2', 'F2']",6.1,270,0.0,0.1081972604053567,[7400|0|0]
74,7400,1.6547120809555054,1.1287680864334106,-0.029228925704956,-0.3855018019676208,0.8483441472053528,4.977406978607178,4.07421875,0,"['A1', 'B2', 'F2']",6.1,270,0.0,0.1085034239617375,[7500|0|0]
75,7500,1.6543385982513428,1.1285966634750366,-0.0293068345636129,-0.384228765964508,0.8652434945106506,4.986609935760498,4.07421875,0,"['A1', 'B2', 'F2']",6.1,270,0.0,0.1089216881739569,[7600|0|0]
76,7600,1.6546297073364258,1.128874659538269,-0.0298115238547325,-0.3932787775993347,0.8583411574363708,4.991226196289063,4.07421875,0,"['A1', 'B2', 'F2']",6.1,270,0.0,0.1095672403338645,[7700|0|0]
77,7700,1.654468297958374,1.128805160522461,-0.0297309290617704,-0.3893627524375915,0.8629963397979736,4.987624645233154,4.07421875,0,"['A1', 'B2', 'F2']",6.1,270,0.0,0.1097605758483826,[7800|0|0]
78,7800,1.654227614402771,1.1288772821426392,-0.0296289790421724,-0.3970305621623993,0.8718816041946411,4.988739967346191,4.07421875,0,"['A1', 'B2', 'F2']",6.1,270,0.0,0.1100317287730042,[7900|0|0]
79,7900,1.6546605825424194,1.12869393825531,-0.0291075725108385,-0.3968189358711242,0.8643520474433899,4.956976890563965,4.07421875,0,"['A1', 'B2', 'F2']",6.1,270,0.0,0.1107338264598607,[8000|0|0]
80,8000,1.654402732849121,1.1287659406661987,-0.0292901992797851,-0.3965216875076294,0.8757917284965515,4.977351665496826,4.07421875,0,"['A1', 'B2', 'F2']",6.1,270,0.0,0.1110578995199008,[8100|0|0]
81,8100,1.654386281967163,1.128612756729126,-0.0294022355228662,-0.3964630663394928,0.8693822622299194,4.960079193115234,4.07421875,0,"['A1', 'B2', 'F2']",6.1,270,0.0,0.1112483937976574,[8200|0|0]
82,8200,1.6543241739273071,1.128536581993103,-0.029584564268589,-0.3911410272121429,0.865710437297821,4.980091571807861,4.07421875,0,"['A1', 'B2', 'F2']",6.1,270,0.0,0.1114555260513983,[8300|0|0]
83,8300,1.6542940139770508,1.1286873817443848,-0.0292555578052997,-0.3929148316383362,0.8602906465530396,4.9488372802734375,4.07421875,0,"['A1', 'B2', 'F2']",6.1,270,0.0,0.1118187001700689,[8400|0|0]
84,8400,1.6548010110855105,1.128814458847046,-0.0295275598764419,-0.3934314250946045,0.8455509543418884,4.933699131011963,4.07421875,0,"['A1', 'B2', 'F2']",6.1,270,0.0,0.1124079198105364,[8500|0|0]
85,8500,1.6548296213150024,1.1288130283355713,-0.0293441917747259,-0.3887233734130859,0.849723219871521,4.936963081359863,4.07421875,0,"['A1', 'B2', 'F2']",6.1,270,0.0,0.1125935119771858,[8600|0|0]
86,8600,1.654603123664856,1.1289186477661133,-0.0293530970811843,-0.3897559642791748,0.8597868084907532,4.939539909362793,4.07421875,0,"['A1', 'B2', 'F2']",6.1,270,0.0,0.1128435838750732,[8700|0|0]
87,8700,1.6543313264846802,1.129195213317871,-0.0294606648385524,-0.3952049016952514,0.8616036772727966,4.924878120422363,4.07421875,0,"['A1', 'B2', 'F2']",6.1,270,0.0,0.1132459929132369,[8800|0|0]
88,8800,1.6545199155807495,1.1291186809539795,-0.0295125879347324,-0.3976175487041473,0.8579902648925781,4.911165237426758,4.07421875,0,"['A1', 'B2', 'F2']",6.1,270,0.0,0.1134560382840405,[8900|0|0]
89,8900,1.6547414064407349,1.1287025213241575,-0.0294771529734134,-0.3860443830490112,0.8570525050163269,4.899177074432373,4.07421875,0,"['A1', 'B2', 'F2']",6.1,270,0.0,0.1139287989793548,[9000|0|0]
90,9000,1.654208064079285,1.12890362739563,-0.0293267369270324,-0.4025070667266845,0.8596121072769165,4.932393550872803,4.07421875,0,"['A1', 'B2', 'F2']",6.1,270,0.0,0.1145183095505146,[9100|0|0]
91,9100,1.654478907585144,1.1290122270584106,-0.0297812484204769,-0.3979023098945617,0.8557265996932983,4.937265396118164,4.07421875,0,"['A1', 'B2', 'F2']",6.1,270,0.0,0.1150584306379528,[9200|0|0]
92,9200,1.6541796922683716,1.1288774013519287,-0.0297645721584558,-0.3893787562847137,0.8599620461463928,4.967079639434815,4.07421875,0,"['A1', 'B2', 'F2']",6.1,270,0.0,0.1153870426806941,[9300|0|0]
93,9300,1.654607892036438,1.129008412361145,-0.0295711867511272,-0.3839577734470367,0.8516130447387695,4.9186530113220215,4.07421875,0,"['A1', 'B2', 'F2']",6.1,270,0.0,0.1158748098809809,[9400|0|0]
94,9400,1.6546332836151123,1.1286828517913818,-0.0293579660356044,-0.3766224682331085,0.8579431176185608,4.930233955383301,4.07421875,0,"['A1', 'B2', 'F2']",6.1,270,0.0,0.1162648066635062,[9500|0|0]
95,9500,1.6546528339385986,1.1289739608764648,-0.0296478066593408,-0.3827342987060547,0.854404628276825,4.946857929229736,4.07421875,0,"['A1', 'B2', 'F2']",6.1,270,0.0,0.1166760660728019,[9600|0|0]
96,9600,1.6542351245880127,1.1287806034088137,-0.0297911185771226,-0.3767199218273163,0.8685864806175232,4.950453281402588,4.07421875,0,"['A1', 'B2', 'F2']",6.1,270,0.0,0.1171581516644158,[9700|0|0]
97,9700,1.6542795896530151,1.128769874572754,-0.0292255952954292,-0.3728164136409759,0.8612567782402039,4.958872318267822,4.07421875,0,"['A1', 'B2', 'F2']",6.1,270,0.0,0.1177255217659071,[9800|0|0]
98,9800,1.654422640800476,1.1289019584655762,-0.029198070988059,-0.3735577166080475,0.8603522777557373,4.96704626083374,4.07421875,0,"['A1', 'B2', 'F2']",6.1,270,0.0,0.1179221619780438,[9900|0|0]
99,9900,1.6544578075408936,1.1289712190628052,-0.0293582174926996,-0.3773762881755829,0.8636910319328308,4.9801554679870605,4.07421875,0,"['A1', 'B2', 'F2']",6.1,270,0.0,0.1181001525196709,[10000|0|0]
100,10000,1.6542268991470337,1.1287734508514404,-0.0293234139680862,-0.3695288598537445,0.8711501955986023,4.957260608673096,4.07421875,0,"['A1', 'B2', 'F2']",6.1,270,0.0,0.1184061627108523,[10100|0|0]
101,10100,1.654272198677063,1.129322171211243,-0.0294226631522178,-0.3776540756225586,0.8710287809371948,4.982287406921387,4.07421875,0,"['A1', 'B2', 'F2']",6.1,270,0.0,0.1189656235953055,[10200|0|0]
102,10200,1.6544605493545532,1.1289823055267334,-0.029834808781743,-0.3652041256427765,0.8697003722190857,4.965714454650879,4.07421875,0,"['A1', 'B2', 'F2']",6.1,270,0.0,0.1195320586587989,[10300|0|0]
103,10300,1.6544173955917358,1.1289507150650024,-0.0292500965297222,-0.3620966672897339,0.8712972402572632,4.9805216789245605,4.07421875,0,"['A1', 'B2', 'F2']",6.1,270,0.0,0.1201192116390186,[10400|0|0]
104,10400,1.6543794870376587,1.128963589668274,-0.0295960251241922,-0.3641007244586944,0.8692971467971802,4.965099334716797,4.07421875,0,"['A1', 'B2', 'F2']",6.1,270,0.0,0.1204674492107331,[10500|0|0]
105,10500,1.6544766426086426,1.1290404796600342,-0.0295606274157762,-0.3709390461444855,0.8718897104263306,4.970790863037109,4.07421875,0,"['A1', 'B2', 'F2']",6.1,270,0.0,0.1205963067815903,[10600|0|0]
106,10600,1.6541537046432495,1.1287633180618286,-0.0296048987656831,-0.3663900196552276,0.8769435882568359,4.9813995361328125,4.07421875,0,"['A1', 'B2', 'F2']",6.1,270,0.0,0.1210241705840259,[10700|0|0]
107,10700,1.6542967557907104,1.1290645599365234,-0.0294027924537658,-0.3691345453262329,0.8730064630508423,5.031344890594482,4.07421875,0,"['A1', 'B2', 'F2']",6.1,270,0.0,0.1214141157842481,[10800|0|0]
108,10800,1.6545262336730957,1.1287450790405271,-0.0293875019997358,-0.3638629913330078,0.8714735507965088,5.006641864776611,4.07421875,0,"['A1', 'B2', 'F2']",6.1,270,0.0,0.1218077678379642,[10900|0|0]
109,10900,1.6544249057769775,1.128915786743164,-0.0297633558511734,-0.3703630268573761,0.8688792586326599,5.019010543823242,4.07421875,0,"['A1', 'B2', 'F2']",6.1,270,0.0,0.12223282616327,[11000|0|0]
110,11000,1.6545023918151855,1.1288819313049316,-0.0296996515244245,-0.3726115226745605,0.8700000643730164,4.985701560974121,4.07421875,0,"['A1', 'B2', 'F2']",6.1,270,0.0,0.122338696452122,[11100|0|0]
111,11100,1.6546297073364258,1.1288756132125854,-0.0296023432165384,-0.3755503892898559,0.8656426072120667,4.962196826934815,4.07421875,0,"['A1', 'B2', 'F2']",6.1,270,0.0,0.1224990649871381,[11200|0|0]
112,11200,1.6544665098190308,1.128981113433838,-0.0294057521969079,-0.3821475207805633,0.8742225170135498,4.990861892700195,4.07421875,0,"['A1', 'B2', 'F2']",6.1,270,0.0,0.1227754917502555,[11300|0|0]
113,11300,1.654308199882507,1.1289889812469482,-0.0296901706606149,-0.3921929895877838,0.8678334951400757,4.952502250671387,4.07421875,0,"['A1', 'B2', 'F2']",6.1,270,0.0,0.1231010954986716,[11400|0|0]
114,11400,1.654523253440857,1.129172682762146,-0.0293335486203432,-0.396750658750534,0.8671601414680481,4.976213455200195,4.07421875,0,"['A1', 'B2', 'F2']",6.1,270,0.0,0.1235562587213208,[11500|0|0]
115,11500,1.6543471813201904,1.129132866859436,-0.0296910125762224,-0.399828165769577,0.8713211417198181,4.9620280265808105,4.07421875,0,"['A1', 'B2', 'F2']",6.1,270,0.0,0.1239567174302252,[11600|0|0]
116,11600,1.6546413898468018,1.1286920309066772,-0.0292554106563329,-0.3882529139518738,0.8590242266654968,4.948227882385254,4.07421875,0,"['A1', 'B2', 'F2']",6.1,270,0.0,0.1246427524344247,[11700|0|0]
117,11700,1.6545262336730957,1.1289013624191284,-0.0292605627328157,-0.39127317070961,0.8593043684959412,4.947534561157227,4.07421875,0,"['A1', 'B2', 'F2']",6.1,270,0.0,0.1248817235003297,[11800|0|0]
118,11800,1.6545041799545288,1.128951072692871,-0.0292509328573942,-0.3865869641304016,0.8641123175621033,4.971863269805908,4.07421875,0,"['A1', 'B2', 'F2']",6.1,270,0.0,0.1249369522276266,[11900|0|0]
119,11900,1.6544198989868164,1.12871253490448,-0.0297651384025812,-0.3731149435043335,0.8580164313316345,5.004899978637695,4.07421875,0,"['A1', 'B2', 'F2']",6.1,270,0.0,0.1255100236897586,[12000|0|0]
120,12000,1.654631733894348,1.1291751861572266,-0.0295720063149929,-0.3876136243343353,0.8450204730033875,4.994831085205078,4.07421875,0,"['A1', 'B2', 'F2']",6.1,270,0.0,0.1260542848522286,[12100|0|0]
121,12100,1.6545289754867554,1.1287685632705688,-0.029357461258769,-0.3764599561691284,0.8500563502311707,4.973260402679443,4.07421875,0,"['A1', 'B2', 'F2']",6.1,270,0.0,0.1265253804300416,[12200|0|0]
122,12200,1.6546697616577148,1.1287754774093628,-0.0293798502534627,-0.3748035728931427,0.8440920114517212,4.945623874664307,4.07421875,0,"['A1', 'B2', 'F2']",6.1,270,0.0,0.1266681033025326,[12300|0|0]
123,12300,1.6544231176376345,1.1286368370056152,-0.0292567517608404,-0.3700067698955536,0.8505708575248718,4.935939788818359,4.07421875,0,"['A1', 'B2', 'F2']",6.1,270,0.0,0.1269766607089884,[12400|0|0]
124,12400,1.654617190361023,1.1291016340255735,-0.0293171405792236,-0.3832232058048248,0.8469523787498474,4.9373626708984375,4.07421875,0,"['A1', 'B2', 'F2']",6.1,270,0.0,0.1274839548062451,[12500|0|0]
125,12500,1.654422163963318,1.1289139986038208,-0.0294240582734346,-0.3839915990829468,0.8474594354629517,4.944959163665772,4.07421875,0,"['A1', 'B2', 'F2']",6.1,270,0.0,0.1277749423328396,[12600|0|0]
126,12600,1.654460072517395,1.1288557052612305,-0.0291937999427318,-0.3821355104446411,0.8479689955711365,4.944823265075684,4.07421875,0,"['A1', 'B2', 'F2']",6.1,270,0.0,0.1280154710652618,[12700|0|0]
127,12700,1.6544041633605957,1.1285125017166138,-0.0293899793177843,-0.3744011521339416,0.8553667664527893,4.985437393188477,4.07421875,0,"['A1', 'B2', 'F2']",6.1,270,0.0,0.1284147214303805,[12800|0|0]
128,12800,1.6547834873199463,1.1285730600357056,-0.0295145884156227,-0.3788416087627411,0.8388659358024597,4.976667881011963,4.07421875,0,"['A1', 'B2', 'F2']",6.1,270,0.0,0.1288185548160889,[12900|0|0]
129,12900,1.6545956134796145,1.1292853355407717,-0.0294717028737068,-0.3948771059513092,0.8449656367301941,4.97826099395752,4.07421875,0,"['A1', 'B2', 'F2']",6.1,270,0.0,0.129556438373775,[13000|0|0]
130,13000,1.6544508934020996,1.1287447214126587,-0.0291923582553863,-0.3773481249809265,0.8502805233001709,4.988057613372803,4.07421875,0,"['A1', 'B2', 'F2']",6.1,270,0.0,0.1301819309413852,[13100|0|0]
131,13100,1.6541509628295898,1.128577709197998,-0.0294855553656816,-0.3726831674575805,0.8570919036865234,4.992588520050049,4.07421875,0,"['A1', 'B2', 'F2']",6.1,270,0.0,0.1306333907664609,[13200|0|0]
132,13200,1.6545683145523071,1.128675937652588,-0.029362691566348,-0.3796315789222717,0.8486793637275696,5.001709938049316,4.07421875,0,"['A1', 'B2', 'F2']",6.1,270,0.0,0.1310794028772078,[13300|0|0]
133,13300,1.6546047925949097,1.1288880109786987,-0.0292110666632652,-0.3866715729236603,0.8486427664756775,4.984419822692871,4.07421875,0,"['A1', 'B2', 'F2']",6.1,270,0.0,0.1313426439349376,[13400|0|0]
134,13400,1.6542574167251587,1.1288182735443115,-0.0295035969465971,-0.3872345089912414,0.8624452352523804,4.996011257171631,4.07421875,0,"['A1', 'B2', 'F2']",6.1,270,0.0,0.1318021080481243,[13500|0|0]
135,13500,1.6544734239578247,1.128633737564087,-0.0295533835887908,-0.3828836679458618,0.8556366562843323,4.9580078125,4.07421875,0,"['A1', 'B2', 'F2']",6.1,270,0.0,0.1320905371768586,[13600|0|0]
136,13600,1.654578685760498,1.1289236545562744,-0.0296792145818471,-0.3877697587013244,0.8525912761688232,4.961009502410889,4.07421875,0,"['A1', 'B2', 'F2']",6.1,270,0.0,0.1324236517941821,[13700|0|0]
137,13700,1.6544817686080933,1.1287353038787842,-0.0292930528521537,-0.38235804438591,0.8596117496490479,4.959679126739502,4.07421875,0,"['A1', 'B2', 'F2']",6.1,270,0.0,0.1328640945187458,[13800|0|0]
138,13800,1.6543219089508057,1.1289654970169067,-0.0294191557914018,-0.3877655267715454,0.8651716709136963,4.957197666168213,4.07421875,0,"['A1', 'B2', 'F2']",6.1,270,0.0,0.1331714151040534,[13900|0|0]
139,13900,1.6543141603469849,1.1290504932403564,-0.0292751044034957,-0.3903869092464447,0.8651254773139954,4.966591358184815,4.07421875,0,"['A1', 'B2', 'F2']",6.1,270,0.0,0.1333388522600838,[14000|0|0]
140,14000,1.654370665550232,1.1285473108291626,-0.0294689051806926,-0.375906229019165,0.8551967740058899,5.0125250816345215,4.07421875,0,"['A1', 'B2', 'F2']",6.1,270,0.0,0.1338810183952961,[14100|0|0]
141,14100,1.6541157960891724,1.1289087533950806,-0.0296674855053424,-0.3871642649173736,0.8533114790916443,5.024492263793945,4.07421875,0,"['A1', 'B2', 'F2']",6.1,270,0.0,0.1343658207426256,[14200|0|0]
142,14200,1.6543021202087402,1.1286308765411377,-0.0296500883996486,-0.3780496418476105,0.8551225066184998,4.963638782501221,4.07421875,0,"['A1', 'B2', 'F2']",6.1,270,0.0,0.1347008354927135,[14300|0|0]
143,14300,1.6546037197113037,1.128825545310974,-0.0294155981391668,-0.3941533863544464,0.8429563641548157,4.942534446716309,4.07421875,0,"['A1', 'B2', 'F2']",6.1,270,0.0,0.1351296056784272,[14400|0|0]
144,14400,1.6544245481491089,1.129199743270874,-0.0294052306562662,-0.3957829177379608,0.8562301993370056,4.967922687530518,4.07421875,0,"['A1', 'B2', 'F2']",6.1,270,0.0,0.1355446165777953,[14500|0|0]
145,14500,1.654401421546936,1.1289023160934448,-0.0294525399804115,-0.3803381621837616,0.8619328737258911,4.971059322357178,4.07421875,0,"['A1', 'B2', 'F2']",6.1,270,0.0,0.1358466694502409,[14600|0|0]
146,14600,1.654483199119568,1.1291418075561523,-0.0293429717421531,-0.3867999613285064,0.8579968810081482,4.979800701141357,4.07421875,0,"['A1', 'B2', 'F2']",6.1,270,0.0,0.1361224391565728,[14700|0|0]
147,14700,1.654310941696167,1.1286262273788452,-0.0293152742087841,-0.3736215233802795,0.8750491142272949,4.963714122772217,4.07421875,0,"['A1', 'B2', 'F2']",6.1,270,0.0,0.1366667393425947,[14800|0|0]
148,14800,1.6542669534683228,1.128433108329773,-0.0297823213040828,-0.3683615922927856,0.8755421042442322,4.964332580566406,4.07421875,0,"['A1', 'B2', 'F2']",6.1,270,0.0,0.1371740488344539,[14900|0|0]
149,14900,1.654387593269348,1.1289860010147097,-0.029577799141407,-0.3789780437946319,0.8745575547218323,4.996302127838135,4.07421875,0,"['A1', 'B2', 'F2']",6.1,270,0.0,0.1377757743513413,[15000|0|0]
150,15000,1.6540626287460327,1.1288387775421145,-0.0297379381954669,-0.3779440820217132,0.8784981369972229,4.990538120269775,4.07421875,0,"['A1', 'B2', 'F2']",6.1,270,0.0,0.1381668257660323,[15100|0|0]
151,15100,1.654598355293274,1.1292121410369873,-0.0293828323483467,-0.3839258849620819,0.8602373600006104,5.004371643066406,4.07421875,0,"['A1', 'B2', 'F2']",6.1,270,0.0,0.1389101314873757,[15200|0|0]
152,15200,1.6542725563049316,1.1289125680923462,-0.0294027645140886,-0.3752304017543793,0.8683071732521057,5.013270378112793,4.07421875,0,"['A1', 'B2', 'F2']",6.1,270,0.0,0.1393531734957643,[15300|0|0]
153,15300,1.654794216156006,1.129206299781799,-0.0295728743076324,-0.3852892816066742,0.8601738810539246,4.983912467956543,4.07421875,0,"['A1', 'B2', 'F2']",6.1,270,0.0,0.1399755436810007,[15400|0|0]
154,15400,1.6548553705215454,1.1289196014404297,-0.0292565859854221,-0.3762708604335785,0.8689238429069519,4.978994846343994,4.07421875,0,"['A1', 'B2', 'F2']",6.1,270,0.0,0.1404067908237568,[15500|0|0]
155,15500,1.6543854475021362,1.1289288997650146,-0.0297017190605402,-0.3890147805213928,0.8750487565994263,4.967365264892578,4.07421875,0,"['A1', 'B2', 'F2']",6.1,270,0.0,0.14105413737513,[15600|0|0]
156,15600,1.6543155908584597,1.128878474235535,-0.0296382866799831,-0.3868800401687622,0.8711197972297668,5.000535488128662,4.07421875,0,"['A1', 'B2', 'F2']",6.1,270,0.0,0.1411611249986771,[15700|0|0]
157,15700,1.6543011665344238,1.1288853883743286,-0.0294377356767654,-0.3820432722568512,0.8726296424865723,5.029553413391113,4.07421875,0,"['A1', 'B2', 'F2']",6.1,270,0.0,0.1413623128992347,[15800|0|0]
158,15800,1.6541846990585327,1.1287763118743896,-0.0298149529844522,-0.3753964900970459,0.875632107257843,5.007016658782959,4.07421875,0,"['A1', 'B2', 'F2']",6.1,270,0.0,0.1417718922602844,[15900|0|0]
159,15900,1.6543048620224,1.1287517547607422,-0.0295991245657205,-0.3718965351581573,0.875694751739502,4.997015476226807,4.07421875,0,"['A1', 'B2', 'F2']",6.1,270,0.0,0.1420201342713306,[16000|0|0]
160,16000,1.6544653177261353,1.1287654638290403,-0.0292538274079561,-0.3722038865089416,0.8726979494094849,4.976881980895996,4.07421875,0,"['A1', 'B2', 'F2']",6.1,270,0.0,0.1424011383376802,[16100|0|0]
161,16100,1.6546647548675537,1.12871253490448,-0.0295935571193695,-0.3636139631271362,0.866461992263794,4.977432727813721,4.07421875,0,"['A1', 'B2', 'F2']",6.1,270,0.0,0.1427986215716025,[16200|0|0]
162,16200,1.6546528339385986,1.1286687850952148,-0.0293729547411203,-0.365167886018753,0.8653594255447388,4.971327304840088,4.07421875,0,"['A1', 'B2', 'F2']",6.1,270,0.0,0.1430238360552555,[16300|0|0]
163,16300,1.6543160676956177,1.1285642385482788,-0.0293969213962554,-0.3606694042682647,0.8857554793357849,4.971099376678467,4.07421875,0,"['A1', 'B2', 'F2']",6.1,270,0.0,0.1433772704670579,[16400|0|0]
164,16400,1.654236078262329,1.1285251379013062,-0.0294000338762998,-0.3608446717262268,0.8826581239700317,4.97752046585083,4.07421875,0,"['A1', 'B2', 'F2']",6.1,270,0.0,0.1434663595099506,[16500|0|0]
165,16500,1.654295802116394,1.1287734508514404,-0.0294390358030796,-0.3691510558128357,0.8831102252006531,4.978213787078857,4.07421875,0,"['A1', 'B2', 'F2']",6.1,270,0.0,0.1437247147116426,[16600|0|0]
166,16600,1.6543620824813845,1.1289427280426023,-0.029140155762434,-0.3772948384284973,0.8796259760856628,4.960517883300781,4.07421875,0,"['A1', 'B2', 'F2']",6.1,270,0.0,0.1440745391432183,[16700|0|0]
167,16700,1.654464840888977,1.1288658380508425,-0.0295993890613317,-0.3801561594009399,0.8730027675628662,4.975690841674805,4.07421875,0,"['A1', 'B2', 'F2']",6.1,270,0.0,0.1445513688654257,[16800|0|0]
168,16800,1.6544052362442017,1.128834247589111,-0.0294303093105554,-0.3765872120857239,0.8685027360916138,5.006109237670898,4.07421875,0,"['A1', 'B2', 'F2']",6.1,270,0.0,0.1447334090617389,[16900|0|0]
169,16900,1.654443860054016,1.1290401220321655,-0.0293388124555349,-0.3841616511344909,0.8695470094680786,5.022975444793701,4.07421875,0,"['A1', 'B2', 'F2']",6.1,270,0.0,0.1449619867497711,[17000|0|0]
170,17000,1.654288411140442,1.1285314559936523,-0.029619738459587,-0.3789827823638916,0.8699943423271179,5.003180027008057,4.07421875,0,"['A1', 'B2', 'F2']",6.1,270,0.0,0.1455635055967084,[17100|0|0]
171,17100,1.654479742050171,1.1284981966018677,-0.0296997595578432,-0.3778122663497925,0.8678224682807922,5.011004447937012,4.07421875,0,"['A1', 'B2', 'F2']",6.1,270,0.0,0.1457735462602136,[17200|0|0]
172,17200,1.654631733894348,1.128787398338318,-0.0293900892138481,-0.3928685188293457,0.8639395236968994,5.008604049682617,4.07421875,0,"['A1', 'B2', 'F2']",6.1,270,0.0,0.1462236961097218,[17300|0|0]
173,17300,1.6543492078781128,1.128831148147583,-0.0293747503310441,-0.3943339884281158,0.8706822991371155,5.032815456390381,4.07421875,0,"['A1', 'B2', 'F2']",6.1,270,0.0,0.1465100006276502,[17400|0|0]
174,17400,1.6544514894485474,1.12856924533844,-0.0296868495643138,-0.3792122602462768,0.8600985407829285,5.043583869934082,4.07421875,0,"['A1', 'B2', 'F2']",6.1,270,0.0,0.1469300726839633,[17500|0|0]
175,17500,1.6544702053070068,1.1288975477218628,-0.0293674003332853,-0.3903577625751495,0.854181170463562,5.023929595947266,4.07421875,0,"['A1', 'B2', 'F2']",6.1,270,0.0,0.1473885272068157,[17600|0|0]
176,17600,1.6545753479003906,1.1288166046142578,-0.0298938173800706,-0.3909745812416076,0.8489482402801514,5.024249076843262,4.07421875,0,"['A1', 'B2', 'F2']",6.1,270,0.0,0.147931409937024,[17700|0|0]
177,17700,1.654522180557251,1.1286729574203491,-0.029971919953823,-0.3860347270965576,0.850178062915802,5.018741607666016,4.07421875,0,"['A1', 'B2', 'F2']",6.1,270,0.0,0.1481033439206372,[17800|0|0]
178,17800,1.654342770576477,1.1287081241607666,-0.0298058409243822,-0.3847193717956543,0.8530242443084717,5.030398368835449,4.07421875,0,"['A1', 'B2', 'F2']",6.1,270,0.0,0.1483503396389258,[17900|0|0]
179,17900,1.654407024383545,1.1289217472076416,-0.0295123327523469,-0.3885905146598816,0.8509284257888794,5.010301113128662,4.07421875,0,"['A1', 'B2', 'F2']",6.1,270,0.0,0.1487189999228328,[18000|0|0]
180,18000,1.654460072517395,1.1289154291152954,-0.0295261479914188,-0.3911366164684295,0.8460319638252258,5.000596523284912,4.07421875,0,"['A1', 'B2', 'F2']",6.1,270,0.0,0.148774180387007,[18100|0|0]
181,18100,1.6544779539108276,1.1289995908737185,-0.0293545760214328,-0.388061910867691,0.8478628993034363,5.012603759765625,4.07421875,0,"['A1', 'B2', 'F2']",6.1,270,0.0,0.1489661175816744,[18200|0|0]
182,18200,1.6546504497528076,1.1291637420654297,-0.0293171238154172,-0.3834806680679321,0.8466153144836426,5.042117118835449,4.07421875,0,"['A1', 'B2', 'F2']",6.1,270,0.0,0.1492071634216636,[18300|0|0]
183,18300,1.654524803161621,1.128737449645996,-0.0294046159833669,-0.3684718608856201,0.8525465726852417,5.037088871002197,4.07421875,0,"['A1', 'B2', 'F2']",6.1,270,0.0,0.1496601172517565,[18400|0|0]
184,18400,1.6545872688293457,1.12912917137146,-0.0296243019402027,-0.3772898018360138,0.8501930236816406,5.040961265563965,4.07421875,0,"['A1', 'B2', 'F2']",6.1,270,0.0,0.1501135594084595,[18500|0|0]
185,18500,1.6545381546020508,1.1285017728805542,-0.0297791771590709,-0.3632042407989502,0.8521892428398132,5.016769886016846,4.07421875,0,"['A1', 'B2', 'F2']",6.1,270,0.0,0.1507616546230176,[18600|0|0]
186,18600,1.6541897058486938,1.1285828351974487,-0.029539056122303,-0.3642789125442505,0.8626671433448792,5.009766578674316,4.07421875,0,"['A1', 'B2', 'F2']",6.1,270,0.0,0.1511925208960477,[18700|0|0]
187,18700,1.6544133424758911,1.1284459829330444,-0.029478395357728,-0.3664129078388214,0.8598118424415588,5.001402378082275,4.07421875,0,"['A1', 'B2', 'F2']",6.1,270,0.0,0.1514616335335354,[18800|0|0]
188,18800,1.6549336910247805,1.1293257474899292,-0.0293791592121124,-0.3874502182006836,0.8418869972229004,5.01048755645752,4.07421875,0,"['A1', 'B2', 'F2']",6.1,270,0.0,0.1524885688287114,[18900|0|0]
189,18900,1.6550313234329224,1.1292517185211182,-0.029364975169301,-0.3607186079025268,0.8348073959350586,5.039392471313477,4.07421875,0,"['A1', 'B2', 'F2']",6.1,270,0.0,0.1526119120993561,[19000|0|0]
190,19000,1.6551673412322998,1.1287907361984253,-0.0294017270207405,-0.3267608880996704,0.8376995921134949,5.036193370819092,4.07421875,0,"['A1', 'B2', 'F2']",6.1,270,0.0,0.1530939455444271,[19100|0|0]
191,19100,1.6555076837539673,1.1289575099945068,-0.0295223873108625,-0.3254763484001159,0.8258819580078125,4.987735748291016,4.07421875,0,"['A1', 'B2', 'F2']",6.1,270,0.0,0.1534916960148565,[19200|0|0]
192,19200,1.6544545888900757,1.128590703010559,-0.0293815191835165,-0.3190347254276275,0.8600291609764099,4.992902755737305,4.07421875,0,"['A1', 'B2', 'F2']",6.1,270,0.0,0.1546157066843475,[19300|0|0]
193,19300,1.6545120477676392,1.128772258758545,-0.0293938163667917,-0.3334764838218689,0.8592274785041809,5.005832195281982,4.07421875,0,"['A1', 'B2', 'F2']",6.1,270,0.0,0.154806534441642,[19400|0|0]
194,19400,1.6544395685195925,1.1290452480316162,-0.029468772932887,-0.3546885550022125,0.8659467697143555,4.99925422668457,4.07421875,0,"['A1', 'B2', 'F2']",6.1,270,0.0,0.1550987584505979,[19500|0|0]
195,19500,1.654659390449524,1.1287297010421753,-0.0297456495463848,-0.3603156208992004,0.8593122363090515,4.986032485961914,4.07421875,0,"['A1', 'B2', 'F2']",6.1,270,0.0,0.1555726278867573,[19600|0|0]
196,19600,1.654657244682312,1.1287803649902344,-0.0297609139233827,-0.3760683238506317,0.861020565032959,4.960716247558594,4.07421875,0,"['A1', 'B2', 'F2']",6.1,270,0.0,0.1556255848613216,[19700|0|0]
197,19700,1.6541999578475952,1.128622055053711,-0.0296367388218641,-0.3957507610321045,0.8665947914123535,4.979931831359863,4.07421875,0,"['A1', 'B2', 'F2']",6.1,270,0.0,0.156125177436371,[19800|0|0]
198,19800,1.654078722000122,1.1281183958053589,-0.0300591029226779,-0.3783766329288482,0.8731387853622437,4.941164493560791,4.07421875,0,"['A1', 'B2', 'F2']",6.1,270,0.0,0.1567935801613949,[19900|0|0]
199,19900,1.6538050174713137,1.1284431219100952,-0.0299806054681539,-0.3851933479309082,0.8804799318313599,4.964022636413574,4.07421875,0,"['A1', 'B2', 'F2']",6.1,270,0.0,0.1572254633198468,[20000|0|0]
200,20000,1.6537487506866455,1.1283342838287354,-0.0304383318871259,-0.3837675452232361,0.8810288310050964,4.965795993804932,4.07421875,0,"['A1', 'B2', 'F2']",6.1,270,0.0,0.1576993041724924,[20100|0|0]
201,20100,1.6539690494537354,1.12846577167511,-0.0301636457443237,-0.3908953666687011,0.877739429473877,4.9688639640808105,4.07421875,0,"['A1', 'B2', 'F2']",6.1,270,0.0,0.1580751672826443,[20200|0|0]
202,20200,1.6544954776763916,1.1287736892700195,-0.0295973010361194,-0.3983322978019714,0.8654077053070068,4.972703456878662,4.07421875,0,"['A1', 'B2', 'F2']",6.1,270,0.0,0.1589074450291778,[20300|0|0]
203,20300,1.653902530670166,1.1286797523498535,-0.0300562642514705,-0.3817724287509918,0.875605046749115,4.956981658935547,4.07421875,0,"['A1', 'B2', 'F2']",6.1,270,0.0,0.1596631285146449,[20400|0|0]
204,20400,1.6539087295532229,1.1283634901046753,-0.0303553380072116,-0.3654728531837463,0.8728518486022949,4.943234920501709,4.07421875,0,"['A1', 'B2', 'F2']",6.1,270,0.0,0.1600984506313004,[20500|0|0]
205,20500,1.6538587808609009,1.1284382343292236,-0.0299003608524799,-0.3656013309955597,0.8820672035217285,4.952146530151367,4.07421875,0,"['A1', 'B2', 'F2']",6.1,270,0.0,0.1605622240482787,[20600|0|0]
206,20600,1.6540731191635132,1.1281216144561768,-0.0301945973187685,-0.3558568656444549,0.8802734613418579,4.930953979492188,4.07421875,0,"['A1', 'B2', 'F2']",6.1,270,0.0,0.1610446804194346,[20700|0|0]
207,20700,1.6538140773773191,1.1289410591125488,-0.0300337597727775,-0.3689958155155182,0.8853115439414978,4.824640274047852,4.07421875,0,"['A1', 'B2', 'F2']",6.1,270,0.0,0.1619190149709946,[20800|0|0]
208,20800,1.654893159866333,1.129847288131714,-0.0295392777770757,-0.3724486231803894,0.842673659324646,4.749934196472168,4.07421875,0,"['A1', 'B2', 'F2']",6.1,270,0.0,0.1634123945266823,[20900|0|0]
209,20900,1.6552239656448364,1.130842924118042,-0.0295837316662073,-0.3701040148735046,0.833709716796875,4.701059818267822,4.07421875,0,"['A1', 'B2', 'F2']",6.1,270,0.0,0.164462489583628,[21000|0|0]
210,21000,1.655465602874756,1.1293312311172483,-0.0296325869858264,-0.314371109008789,0.8382627964019775,4.743627071380615,4.07421875,0,"['A1', 'B2', 'F2']",6.1,270,0.0,0.1659941524452872,[21100|0|0]
211,21101,1.6546142101287842,1.1283018589019775,-0.0296102426946163,-0.289558857679367,0.8781401515007019,4.842414379119873,4.07421875,0,"['A1', 'B2', 'F2']",6.1,270,0.0,0.1673301823973522,[21200|0|0]
212,21200,1.6539093255996704,1.1282609701156616,-0.0300699565559625,-0.3111999034881592,0.8889776468276978,4.870020866394043,4.0703125,0,"['A1', 'B2', 'F2']",6.1,270,0.0,0.1681727207801837,[21300|0|0]
213,21300,1.6539533138275146,1.1280597448349,-0.030183732509613,-0.3250906765460968,0.8893205523490906,4.894054889678955,4.07421875,0,"['A1', 'B2', 'F2']",6.1,270,0.0,0.1684080323724089,[21400|0|0]
214,21401,1.653987169265747,1.1280511617660522,-0.029963107779622,-0.3503688871860504,0.8806993961334229,4.925762176513672,4.07421875,0,"['A1', 'B2', 'F2']",6.1,270,0.0,0.168631404553426,[21500|0|0]
215,21500,1.6539493799209597,1.1284139156341553,-0.0300354622304439,-0.3742868304252624,0.8907398581504822,4.890648365020752,4.07421875,0,"['A1', 'B2', 'F2']",6.1,270,0.0,0.1690032292029006,[21600|0|0]
216,21601,1.6536872386932373,1.1283626556396484,-0.030268769711256,-0.3818840980529785,0.8881585001945496,4.910977840423584,4.07421875,0,"['A1', 'B2', 'F2']",6.1,270,0.0,0.1693578811321375,[21700|0|0]
217,21701,1.6542108058929443,1.1281763315200806,-0.0298273470252752,-0.382894903421402,0.8743507266044617,4.893826007843018,4.07421875,0,"['A1', 'B2', 'F2']",6.1,270,0.0,0.1700675946502843,[21800|0|0]
218,21801,1.653971791267395,1.1285680532455444,-0.0300010237842798,-0.3945832848548889,0.8848608136177063,4.8893022537231445,4.07421875,0,"['A1', 'B2', 'F2']",6.1,270,0.0,0.1705582447476502,[21900|0|0]
219,21901,1.6538065671920776,1.1285488605499268,-0.0302762389183044,-0.3947539329528808,0.8863016963005066,4.916123867034912,4.07421875,0,"['A1', 'B2', 'F2']",6.1,270,0.0,0.1708798201270339,[22000|0|0]
220,22001,1.654000163078308,1.1283471584320068,-0.0300661697983741,-0.3856314718723297,0.8792558312416077,4.919489860534668,4.07421875,0,"['A1', 'B2', 'F2']",6.1,270,0.0,0.1712295230676664,[22100|0|0]
221,22102,1.6536420583724976,1.128543257713318,-0.0300741754472255,-0.386917769908905,0.8890929222106934,4.917730808258057,4.07421875,0,"['A1', 'B2', 'F2']",6.1,270,0.0,0.171637883201455,[22200|0|0]
222,22201,1.6537929773330688,1.128305435180664,-0.0299858096987009,-0.3757452964782715,0.881140947341919,4.941330909729004,4.0703125,0,"['A1', 'B2', 'F2']",6.1,270,0.0,0.1719330858356068,[22300|0|0]
223,22301,1.653984785079956,1.1285125017166138,-0.0302201807498931,-0.3779832422733307,0.8738270401954651,4.930916786193848,4.07421875,0,"['A1', 'B2', 'F2']",6.1,270,0.0,0.1722999598626421,[22400|0|0]
224,22401,1.6540895700454712,1.128590106964111,-0.0305225029587745,-0.3745349943637848,0.8717273473739624,4.944327831268311,4.07421875,0,"['A1', 'B2', 'F2']",6.1,270,0.0,0.1726292032094543,[22500|0|0]
225,22501,1.653883695602417,1.1283252239227295,-0.0302226450294256,-0.3647464215755462,0.8795433640480042,4.9205498695373535,4.07421875,0,"['A1', 'B2', 'F2']",6.1,270,0.0,0.1730791610849359,[22600|0|0]
226,22601,1.6537911891937256,1.1289149522781372,-0.0304342042654752,-0.3755030632019043,0.8801378011703491,4.931334972381592,4.07421875,0,"['A1', 'B2', 'F2']",6.1,270,0.0,0.1737124811297623,[22700|0|0]
227,22702,1.6538077592849731,1.1285252571105957,-0.0301310382783412,-0.3672466576099396,0.887184739112854,4.946081161499023,4.07421875,0,"['A1', 'B2', 'F2']",6.1,270,0.0,0.1742064917645507,[22800|0|0]
228,22802,1.654069185256958,1.1286237239837646,-0.0303315203636884,-0.3775088191032409,0.8763656616210938,4.914071559906006,4.07421875,0,"['A1', 'B2', 'F2']",6.1,270,0.0,0.1745503410491,[22900|0|0]
229,22900,1.6538796424865725,1.1285403966903689,-0.0302016977220773,-0.3720678687095642,0.8889986276626587,4.948192119598389,4.07421875,0,"['A1', 'B2', 'F2']",6.1,270,0.0,0.1747947256187951,[23000|0|0]
230,23000,1.6541699171066284,1.1285250186920166,-0.0299425330013036,-0.3757044374942779,0.8789582252502441,4.938603401184082,4.07421875,0,"['A1', 'B2', 'F2']",6.1,270,0.0,0.1751841639199107,[23100|0|0]
231,23100,1.6537823677062988,1.1286370754241943,-0.0301938075572252,-0.3821918666362762,0.884684145450592,4.955230712890625,4.07421875,0,"['A1', 'B2', 'F2']",6.1,270,0.0,0.1756594429446696,[23200|0|0]
232,23200,1.653989315032959,1.128435492515564,-0.029953010380268,-0.3751027882099151,0.871403694152832,4.936992168426514,4.07421875,0,"['A1', 'B2', 'F2']",6.1,270,0.0,0.1760355362116848,[23300|0|0]
233,23302,1.654021143913269,1.1283984184265137,-0.0298540815711021,-0.3778374493122101,0.8688194751739502,4.9412102699279785,4.07421875,0,"['A1', 'B2', 'F2']",6.1,270,0.0,0.1761458742150367,[23400|0|0]
234,23400,1.6539679765701294,1.128395438194275,-0.0303374417126178,-0.3769054710865021,0.8747797608375549,4.942679405212402,4.07421875,0,"['A1', 'B2', 'F2']",6.1,270,0.0,0.1766321587763451,[23500|0|0]
235,23500,1.6536967754364014,1.1283283233642578,-0.029858348891139,-0.3736189603805542,0.8794314861297607,4.973544120788574,4.07421875,0,"['A1', 'B2', 'F2']",6.1,270,0.0,0.1771867616855839,[23600|0|0]
236,23600,1.653786063194275,1.128526210784912,-0.0300669781863689,-0.3846014738082886,0.8754123449325562,4.9993205070495605,4.07421875,0,"['A1', 'B2', 'F2']",6.1,270,0.0,0.1774878562185589,[23700|0|0]
237,23700,1.6539088487625122,1.1284829378128052,-0.0305624399334192,-0.3833522498607635,0.8738811016082764,4.965188026428223,4.07421875,0,"['A1', 'B2', 'F2']",6.1,270,0.0,0.1780001365994758,[23800|0|0]
238,23800,1.654196858406067,1.1281988620758057,-0.0298414472490549,-0.385909229516983,0.8629936575889587,4.958799362182617,4.07421875,0,"['A1', 'B2', 'F2']",6.1,270,0.0,0.1788268645051614,[23900|0|0]
239,23900,1.6537872552871704,1.1284445524215698,-0.0302416030317544,-0.3835238218307495,0.8711866140365601,4.98416805267334,4.07421875,0,"['A1', 'B2', 'F2']",6.1,270,0.0,0.1794499721294442,[24000|0|0]
240,24000,1.6540677547454834,1.1284523010253906,-0.0301812309771776,-0.3749987781047821,0.8657892346382141,5.006412506103516,4.07421875,0,"['A1', 'B2', 'F2']",6.1,270,0.0,0.1797369996053918,[24100|0|0]
241,24100,1.6540392637252808,1.1285690069198608,-0.0303976759314537,-0.382214605808258,0.8712209463119507,5.000985622406006,4.07421875,0,"['A1', 'B2', 'F2']",6.1,270,0.0,0.1799845484334397,[24200|0|0]
242,24200,1.6537837982177734,1.1284167766571045,-0.0298939682543277,-0.3770359754562378,0.8824307918548584,4.989331245422363,4.07421875,0,"['A1', 'B2', 'F2']",6.1,270,0.0,0.1805694912532267,[24300|0|0]
243,24300,1.653686285018921,1.1283975839614868,-0.0300907064229249,-0.3749908208847046,0.8855892419815063,4.988131523132324,4.0703125,0,"['A1', 'B2', 'F2']",6.1,270,0.0,0.1807899069752125,[24400|0|0]
244,24400,1.6540080308914185,1.1282247304916382,-0.0300972275435924,-0.3765154182910919,0.8681575655937195,4.968459606170654,4.07421875,0,"['A1', 'B2', 'F2']",6.1,270,0.0,0.1811552030927975,[24500|0|0]
245,24500,1.6537195444107056,1.1287823915481567,-0.0300561431795358,-0.391028493642807,0.8757010698318481,4.937692165374756,4.07421875,0,"['A1', 'B2', 'F2']",6.1,270,0.0,0.1817844075337239,[24600|0|0]
246,24600,1.6540241241455078,1.1282474994659424,-0.0302283354103565,-0.3733142912387848,0.8736469149589539,4.928869247436523,4.07421875,0,"['A1', 'B2', 'F2']",6.1,270,0.0,0.1824235698908936,[24700|0|0]
247,24700,1.6539077758789062,1.128348469734192,-0.0301617793738842,-0.3801030814647674,0.8775836825370789,4.9474053382873535,4.07421875,0,"['A1', 'B2', 'F2']",6.1,270,0.0,0.1825913841340391,[24800|0|0]
248,24800,1.6540589332580566,1.128270387649536,-0.030112724751234,-0.3734984695911407,0.8684369921684265,4.9490275382995605,4.07421875,0,"['A1', 'B2', 'F2']",6.1,270,0.0,0.1827684483066408,[24900|0|0]
249,24900,1.653788685798645,1.1282247304916382,-0.0300095416605472,-0.369547963142395,0.8795872926712036,4.955790519714356,4.07421875,0,"['A1', 'B2', 'F2']",6.1,270,0.0,0.1830613049534656,[25000|0|0]
250,25000,1.6539554595947266,1.1281044483184814,-0.0301099549978971,-0.364812821149826,0.8713768124580383,4.962818145751953,4.07421875,0,"['A1', 'B2', 'F2']",6.1,270,0.0,0.1832901370721825,[25100|0|0]
251,25100,1.6537328958511353,1.128653049468994,-0.0301249753683805,-0.378537505865097,0.8808884620666504,4.974895000457764,4.07421875,0,"['A1', 'B2', 'F2']",6.1,270,0.0,0.183882356164947,[25200|0|0]
252,25200,1.6541346311569214,1.1282954216003418,-0.030091818422079,-0.3684972822666168,0.8737673163414001,4.938858509063721,4.0703125,0,"['A1', 'B2', 'F2']",6.1,270,0.0,0.1844212330817285,[25300|0|0]
253,25300,1.6540015935897827,1.1280145645141602,-0.030070211738348,-0.3673044741153717,0.8824975490570068,4.938361644744873,4.07421875,0,"['A1', 'B2', 'F2']",6.1,270,0.0,0.1847327560277701,[25400|0|0]
254,25400,1.6539239883422852,1.1287895441055298,-0.0299932938069105,-0.37799271941185,0.8893117904663086,4.967265129089356,4.07421875,0,"['A1', 'B2', 'F2']",6.1,270,0.0,0.1855154004615044,[25500|0|0]
255,25500,1.654102087020874,1.128656983375549,-0.0304141566157341,-0.3702438473701477,0.8906775712966919,4.93918514251709,4.07421875,0,"['A1', 'B2', 'F2']",6.1,270,0.0,0.1859912334051926,[25600|0|0]
256,25600,1.6537175178527832,1.1283762454986572,-0.0302014127373695,-0.3569793701171875,0.9006213545799255,4.96114444732666,4.07421875,0,"['A1', 'B2', 'F2']",6.1,270,0.0,0.1865127381111632,[25700|0|0]
257,25700,1.654080152511597,1.1284160614013672,-0.030537636950612,-0.3569483757019043,0.8913779258728027,4.92652702331543,4.07421875,0,"['A1', 'B2', 'F2']",6.1,270,0.0,0.187008858987011,[25800|0|0]
258,25800,1.653857946395874,1.1285748481750488,-0.0303907953202724,-0.3598210513591766,0.9013543725013732,4.954555034637451,4.07421875,0,"['A1', 'B2', 'F2']",6.1,270,0.0,0.1873189416562486,[25900|0|0]
259,25900,1.653962016105652,1.128324270248413,-0.0302050001919269,-0.3551504909992218,0.9031437039375304,4.954859733581543,4.07421875,0,"['A1', 'B2', 'F2']",6.1,270,0.0,0.1876477875647335,[26000|0|0]
260,26000,1.6538796424865725,1.1285182237625122,-0.0301633272320032,-0.3662331998348236,0.8997216820716858,4.940038681030273,4.07421875,0,"['A1', 'B2', 'F2']",6.1,270,0.0,0.1878625898327394,[26100|0|0]
261,26100,1.6540091037750244,1.1282702684402466,-0.0298989750444889,-0.3638785779476166,0.8938516974449158,4.9474778175354,4.07421875,0,"['A1', 'B2', 'F2']",6.1,270,0.0,0.1882474588313495,[26200|0|0]
262,26200,1.6539125442504885,1.128246188163757,-0.0300666466355323,-0.3683528304100036,0.8924797177314758,4.912796497344971,4.07421875,0,"['A1', 'B2', 'F2']",6.1,270,0.0,0.1884424392507189,[26300|0|0]
263,26300,1.6540110111236572,1.1283553838729858,-0.0302970577031373,-0.3655167818069458,0.8967005610466003,4.899394989013672,4.07421875,0,"['A1', 'B2', 'F2']",6.1,270,0.0,0.1887157681516798,[26400|0|0]
264,26400,1.653939723968506,1.1282360553741455,-0.0304849445819854,-0.35857954621315,0.8923922181129456,4.951717853546143,4.07421875,0,"['A1', 'B2', 'F2']",6.1,270,0.0,0.1889494829958133,[26500|0|0]
265,26500,1.6538724899291992,1.1285711526870728,-0.0301194339990615,-0.3665480315685272,0.8897385597229004,4.943164825439453,4.07421875,0,"['A1', 'B2', 'F2']",6.1,270,0.0,0.1894498914403882,[26600|0|0]
266,26600,1.653817653656006,1.1286250352859497,-0.0301690194755792,-0.3657640814781189,0.8821549415588379,4.955390930175781,4.0703125,0,"['A1', 'B2', 'F2']",6.1,270,0.0,0.1895413740660663,[26700|0|0]
267,26700,1.6540066003799438,1.1286677122116089,-0.0302659180015325,-0.3601333796977997,0.8716228008270264,4.971760272979736,4.07421875,0,"['A1', 'B2', 'F2']",6.1,270,0.0,0.1897579647140697,[26800|0|0]
268,26800,1.653847575187683,1.1284024715423584,-0.0302244015038013,-0.35441455245018,0.8738109469413757,4.994596481323242,4.07421875,0,"['A1', 'B2', 'F2']",6.1,270,0.0,0.1900699987570552,[26900|0|0]
269,26900,1.653846025466919,1.1283365488052368,-0.0299517102539539,-0.3530179858207702,0.8748728036880493,4.9910807609558105,4.07421875,0,"['A1', 'B2', 'F2']",6.1,270,0.0,0.1903505495129754,[27000|0|0]
270,27000,1.6541454792022705,1.128284931182861,-0.0301040299236774,-0.343735933303833,0.8602559566497803,4.984769344329834,4.0703125,0,"['A1', 'B2', 'F2']",6.1,270,0.0,0.1906904586189735,[27100|0|0]
271,27100,1.6540178060531616,1.1280912160873413,-0.0298391226679086,-0.3410431742668152,0.8696778416633606,5.025810241699219,4.07421875,0,"['A1', 'B2', 'F2']",6.1,270,0.0,0.1910425975480833,[27200|0|0]
272,27200,1.653949737548828,1.128342866897583,-0.0300986766815185,-0.353612333536148,0.8657395243644714,5.011106967926025,4.0703125,0,"['A1', 'B2', 'F2']",6.1,270,0.0,0.1914104694518195,[27300|0|0]
273,27300,1.654133677482605,1.1286085844039917,-0.0302822291851043,-0.3635774254798889,0.8606477379798889,5.009096145629883,4.07421875,0,"['A1', 'B2', 'F2']",6.1,270,0.0,0.1917821295304163,[27400|0|0]
274,27400,1.6537002325057983,1.1284092664718628,-0.0302938651293516,-0.3560975193977356,0.8724656105041504,5.034582614898682,4.0703125,0,"['A1', 'B2', 'F2']",6.1,270,0.0,0.1922593481188907,[27500|0|0]
275,27500,1.6538541316986084,1.1280980110168457,-0.0301317889243364,-0.35028076171875,0.8703791499137878,5.044889450073242,4.07421875,0,"['A1', 'B2', 'F2']",6.1,270,0.0,0.1926425368661911,[27600|0|0]
276,27600,1.6538552045822144,1.128429651260376,-0.0303150787949562,-0.3638336956501007,0.877524197101593,5.035707473754883,4.0703125,0,"['A1', 'B2', 'F2']",6.1,270,0.0,0.1930214584661031,[27700|0|0]
277,27700,1.653875470161438,1.1284313201904297,-0.0300490353256464,-0.3621076345443725,0.8751701712608337,5.046111106872559,4.0703125,0,"['A1', 'B2', 'F2']",6.1,270,0.0,0.1932882778930404,[27800|0|0]
278,27800,1.653975009918213,1.128796935081482,-0.0302416570484638,-0.3710949122905731,0.8712218403816223,5.0531182289123535,4.07421875,0,"['A1', 'B2', 'F2']",6.1,270,0.0,0.1937133491104136,[27900|0|0]
279,27900,1.6539281606674194,1.1285734176635742,-0.0299799516797065,-0.3694221377372741,0.8772740960121155,5.01963996887207,4.0703125,0,"['A1', 'B2', 'F2']",6.1,270,0.0,0.1940606884091467,[28000|0|0]
280,28000,1.6540658473968506,1.1284703016281128,-0.0302259046584367,-0.3650494813919067,0.8765304684638977,4.998799800872803,4.0703125,0,"['A1', 'B2', 'F2']",6.1,270,0.0,0.1943608274102395,[28100|0|0]
281,28100,1.6539636850357056,1.1286286115646362,-0.0302559081465005,-0.3727533221244812,0.8724461793899536,4.96787691116333,4.07421875,0,"['A1', 'B2', 'F2']",6.1,270,0.0,0.1945516136606161,[28200|0|0]
282,28200,1.653825759887695,1.1285452842712402,-0.0302799008786678,-0.3630611002445221,0.8752639293670654,4.9811787605285645,4.07421875,0,"['A1', 'B2', 'F2']",6.1,270,0.0,0.1947145321539654,[28300|0|0]
283,28300,1.653788924217224,1.128473162651062,-0.0304560344666242,-0.3595098257064819,0.8676620125770569,4.99978494644165,4.0703125,0,"['A1', 'B2', 'F2']",6.1,270,0.0,0.1949083914728609,[28400|0|0]
284,28400,1.653972864151001,1.1284061670303345,-0.0300303772091865,-0.36665940284729,0.8606874346733093,4.983575344085693,4.07421875,0,"['A1', 'B2', 'F2']",6.1,270,0.0,0.1953769065881388,[28500|0|0]
285,28500,1.6541218757629397,1.128118872642517,-0.0303524956107139,-0.3622430562973022,0.8596159815788269,4.96592378616333,4.0703125,0,"['A1', 'B2', 'F2']",6.1,270,0.0,0.1958335276458732,[28600|0|0]
286,28600,1.653809905052185,1.1282411813735962,-0.0297501850873231,-0.3779204189777374,0.8684972524642944,4.9568610191345215,4.07421875,0,"['A1', 'B2', 'F2']",6.1,270,0.0,0.1965227758715902,[28700|0|0]
287,28700,1.6540536880493164,1.127971887588501,-0.0300661381334066,-0.3726776242256164,0.8608835339546204,4.968862056732178,4.07421875,0,"['A1', 'B2', 'F2']",6.1,270,0.0,0.1970042066762866,[28800|0|0]
288,28800,1.6540130376815796,1.1285529136657717,-0.0303802713751792,-0.3881299197673797,0.8616728186607361,4.959789276123047,4.0703125,0,"['A1', 'B2', 'F2']",6.1,270,0.0,0.1976659645235783,[28900|0|0]
289,28900,1.6540549993515017,1.128283143043518,-0.030073408037424,-0.3769916296005249,0.8640794157981873,4.934247970581055,4.07421875,0,"['A1', 'B2', 'F2']",6.1,270,0.0,0.1980766981092903,[29000|0|0]
290,29000,1.653998613357544,1.1282901763916016,-0.0297903418540954,-0.3728446066379547,0.8656439781188965,4.964091777801514,4.07421875,0,"['A1', 'B2', 'F2']",6.1,270,0.0,0.1983654113103118,[29100|0|0]
291,29100,1.6541059017181396,1.1284525394439695,-0.030245367437601,-0.3726422786712646,0.8703815340995789,4.939184665679932,4.0703125,0,"['A1', 'B2', 'F2']",6.1,270,0.0,0.1988603060816908,[29200|0|0]
292,29200,1.6541879177093506,1.1282445192337036,-0.0300359111279249,-0.3600322902202606,0.8746210336685181,4.945236682891846,4.07421875,0,"['A1', 'B2', 'F2']",6.1,270,0.0,0.1991666897894115,[29300|0|0]
293,29300,1.6539034843444824,1.1282405853271484,-0.0299165397882461,-0.3597155213356018,0.8847192525863647,4.955337524414063,4.07421875,0,"['A1', 'B2', 'F2']",6.1,270,0.0,0.1994751818175219,[29400|0|0]
294,29400,1.6538175344467163,1.128310203552246,-0.0300720557570457,-0.3631003499031067,0.883934497833252,4.942949771881104,4.07421875,0,"['A1', 'B2', 'F2']",6.1,270,0.0,0.1996660202275536,[29500|0|0]
295,29500,1.6542311906814575,1.1285629272460938,-0.0300752744078636,-0.3685676455497741,0.8696150183677673,4.959049224853516,4.07421875,0,"['A1', 'B2', 'F2']",6.1,270,0.0,0.2001507790394234,[29600|0|0]
296,29600,1.6543065309524536,1.1285302639007568,-0.0302310399711132,-0.3603340983390808,0.8597397804260254,4.966110706329346,4.07421875,0,"['A1', 'B2', 'F2']",6.1,270,0.0,0.200326864136058,[29700|0|0]
297,29700,1.6541017293930054,1.1287065744400024,-0.030451787635684,-0.3640336096286773,0.8721941709518433,4.949365615844727,4.07421875,0,"['A1', 'B2', 'F2']",6.1,270,0.0,0.2006758034093062,[29800|0|0]
298,29800,1.6540677547454834,1.1285653114318848,-0.0304696653038263,-0.3622176051139831,0.8830888271331787,4.935818195343018,4.0703125,0,"['A1', 'B2', 'F2']",6.1,270,0.0,0.2008221903115717,[29900|0|0]
