,time.ms,stateEstimate.x,stateEstimate.y,stateEstimate.z,stabilizer.roll,stabilizer.pitch,stabilizer.yaw,pm.vbat,drone_id,node_name,wind_speed,global_wind_direction,relative_wind_direction,travel_dist,waiting_time
0,0,1.6542277336120603,1.128717064857483,0.0,-0.3513417243957519,0.8624725341796875,5.002718925476074,4.07421875,0,"['A1', 'B2', 'F2']",6.1,180,450.0,0.0,[6100|0|0]
1,100,1.6544618606567385,1.128848433494568,0.0,-0.3598287403583526,0.8642885088920593,5.004105567932129,4.07421875,0,"['A1', 'B2', 'F2']",6.1,180,450.0,0.0002684645076343,[6200|0|0]
2,201,1.654537320137024,1.1290135383605957,0.0,-0.3639632165431976,0.868378758430481,5.009117126464844,4.07421875,0,"['A1', 'B2', 'F2']",6.1,180,450.0,0.0004499961851756,[6300|0|0]
3,301,1.654493808746338,1.1286379098892212,0.0,-0.3587577939033508,0.8685896396636963,5.001858711242676,4.07421875,0,"['A1', 'B2', 'F2']",6.1,180,450.0,0.0008281363571047,[6400|0|0]
4,401,1.6546982526779177,1.129047155380249,0.0,-0.3685276806354522,0.860511839389801,4.989675045013428,4.07421875,0,"['A1', 'B2', 'F2']",6.1,180,450.0,0.0012856067857516,[6500|0|0]
5,501,1.6544952392578125,1.1292343139648438,0.0,-0.3744516968727112,0.8581061363220215,4.990081310272217,4.07421875,0,"['A1', 'B2', 'F2']",6.1,180,450.0,0.0015617277457136,[6600|0|0]
6,599,1.6542999744415283,1.1288572549819946,0.0,-0.3843444883823395,0.8558778762817383,4.978267192840576,4.07421875,0,"['A1', 'B2', 'F2']",6.1,180,450.0,0.0019863473696427,[6700|0|0]
7,699,1.6541707515716553,1.1285806894302368,0.0,-0.3787139058113098,0.8570722937583923,4.979888439178467,4.07421875,0,"['A1', 'B2', 'F2']",6.1,180,450.0,0.0022916129171867,[6800|0|0]
8,799,1.6546580791473389,1.1289564371109009,0.0,-0.389640063047409,0.8442729711532593,4.959931373596191,4.07421875,0,"['A1', 'B2', 'F2']",6.1,180,450.0,0.0029069782440829,[6900|0|0]
9,899,1.6544181108474731,1.1287922859191897,0.0,-0.3886278569698334,0.8557626008987427,4.972743988037109,4.07421875,0,"['A1', 'B2', 'F2']",6.1,180,450.0,0.0031977193637764,[7000|0|0]
10,1001,1.654462456703186,1.1286078691482544,0.0,-0.3842447698116302,0.8546102046966553,4.972631931304932,4.07421875,0,"['A1', 'B2', 'F2']",6.1,180,450.0,0.0033873930317462,[7100|0|0]
11,1101,1.6545724868774414,1.1289446353912354,0.0,-0.3945246636867523,0.849534809589386,4.961005687713623,4.07421875,0,"['A1', 'B2', 'F2']",6.1,180,450.0,0.0037416784275194,[7200|0|0]
12,1199,1.6545885801315308,1.1287391185760498,0.0,-0.3838416039943695,0.8472182154655457,4.949956893920898,4.07421875,0,"['A1', 'B2', 'F2']",6.1,180,450.0,0.0039478243810358,[7300|0|0]
13,1299,1.6544147729873655,1.1287444829940796,0.0,-0.3826669156551361,0.8561974763870239,4.968389987945557,4.07421875,0,"['A1', 'B2', 'F2']",6.1,180,450.0,0.0041217142897243,[7400|0|0]
14,1399,1.6547120809555054,1.1287680864334106,0.0,-0.3855018019676208,0.8483441472053528,4.977406978607178,4.07421875,0,"['A1', 'B2', 'F2']",6.1,180,450.0,0.0044199577310063,[7500|0|0]
15,1499,1.6543385982513428,1.1285966634750366,0.0,-0.384228765964508,0.8652434945106506,4.986609935760498,4.07421875,0,"['A1', 'B2', 'F2']",6.1,180,450.0,0.0048309019619748,[7600|0|0]
16,1599,1.6546297073364258,1.128874659538269,0.0,-0.3932787775993347,0.8583411574363708,4.991226196289063,4.07421875,0,"['A1', 'B2', 'F2']",6.1,180,450.0,0.0052334268811917,[7700|0|0]
17,1699,1.654468297958374,1.128805160522461,0.0,-0.3893627524375915,0.8629963397979736,4.987624645233154,4.07421875,0,"['A1', 'B2', 'F2']",6.1,180,450.0,0.0054091627640425,[7800|0|0]
18,1799,1.654227614402771,1.1288772821426392,0.0,-0.3970305621623993,0.8718816041946411,4.988739967346191,4.07421875,0,"['A1', 'B2', 'F2']",6.1,180,450.0,0.0056604198077942,[7900|0|0]
19,1899,1.6546605825424194,1.12869393825531,0.0,-0.3968189358711242,0.8643520474433899,4.956976890563965,4.07421875,0,"['A1', 'B2', 'F2']",6.1,180,450.0,0.0061306074203188,[8000|0|0]
20,1999,1.654402732849121,1.1287659406661987,0.0,-0.3965216875076294,0.8757917284965515,4.977351665496826,4.07421875,0,"['A1', 'B2', 'F2']",6.1,180,450.0,0.0063983214683399,[8100|0|0]
21,2099,1.654386281967163,1.128612756729126,0.0,-0.3964630663394928,0.8693822622299194,4.960079193115234,4.07421875,0,"['A1', 'B2', 'F2']",6.1,180,450.0,0.0065523862277572,[8200|0|0]
22,2199,1.6543241739273071,1.128536581993103,0.0,-0.3911410272121429,0.865710437297821,4.980091571807861,4.07421875,0,"['A1', 'B2', 'F2']",6.1,180,450.0,0.0066506715217889,[8300|0|0]
23,2299,1.6542940139770508,1.1286873817443848,0.0,-0.3929148316383362,0.8602906465530396,4.9488372802734375,4.07421875,0,"['A1', 'B2', 'F2']",6.1,180,450.0,0.0068044576966751,[8400|0|0]
24,2399,1.6548010110855105,1.128814458847046,0.0,-0.3934314250946045,0.8455509543418884,4.933699131011963,4.07421875,0,"['A1', 'B2', 'F2']",6.1,180,450.0,0.0073271379603231,[8500|0|0]
25,2499,1.6548296213150024,1.1288130283355713,0.0,-0.3887233734130859,0.849723219871521,4.936963081359863,4.07421875,0,"['A1', 'B2', 'F2']",6.1,180,450.0,0.0073557839302781,[8600|0|0]
26,2599,1.654603123664856,1.1289186477661133,0.0,-0.3897559642791748,0.8597868084907532,4.939539909362793,4.07421875,0,"['A1', 'B2', 'F2']",6.1,180,450.0,0.0076056972144987,[8700|0|0]
27,2699,1.6543313264846802,1.129195213317871,0.0,-0.3952049016952514,0.8616036772727966,4.924878120422363,4.07421875,0,"['A1', 'B2', 'F2']",6.1,180,450.0,0.0079934628802952,[8800|0|0]
28,2799,1.6545199155807495,1.1291186809539795,0.0,-0.3976175487041473,0.8579902648925781,4.911165237426758,4.07421875,0,"['A1', 'B2', 'F2']",6.1,180,450.0,0.0081969894138948,[8900|0|0]
29,2899,1.6547414064407349,1.1287025213241575,0.0,-0.3860443830490112,0.8570525050163269,4.899177074432373,4.07421875,0,"['A1', 'B2', 'F2']",6.1,180,450.0,0.0086684202556422,[9000|0|0]
30,2999,1.654208064079285,1.12890362739563,0.0,-0.4025070667266845,0.8596121072769165,4.932393550872803,4.07421875,0,"['A1', 'B2', 'F2']",6.1,180,450.0,0.0092384182613406,[9100|0|0]
31,3099,1.654478907585144,1.1290122270584106,0.0,-0.3979023098945617,0.8557265996932983,4.937265396118164,4.07421875,0,"['A1', 'B2', 'F2']",6.1,180,450.0,0.0095302231472184,[9200|0|0]
32,3199,1.6541796922683716,1.1288774013519287,0.0,-0.3893787562847137,0.8599620461463928,4.967079639434815,4.07421875,0,"['A1', 'B2', 'F2']",6.1,180,450.0,0.0098584117773072,[9300|0|0]
33,3299,1.654607892036438,1.129008412361145,0.0,-0.3839577734470367,0.8516130447387695,4.9186530113220215,4.07421875,0,"['A1', 'B2', 'F2']",6.1,180,450.0,0.0103062051737614,[9400|0|0]
34,3399,1.6546332836151123,1.1286828517913818,0.0,-0.3766224682331085,0.8579431176185608,4.930233955383301,4.07421875,0,"['A1', 'B2', 'F2']",6.1,180,450.0,0.0106327544301564,[9500|0|0]
35,3499,1.6546528339385986,1.1289739608764648,0.0,-0.3827342987060547,0.854404628276825,4.946857929229736,4.07421875,0,"['A1', 'B2', 'F2']",6.1,180,450.0,0.0109245192576567,[9600|0|0]
36,3599,1.6542351245880127,1.1287806034088137,0.0,-0.3767199218273163,0.8685864806175232,4.950453281402588,4.07421875,0,"['A1', 'B2', 'F2']",6.1,180,450.0,0.0113848106999662,[9700|0|0]
37,3699,1.6542795896530151,1.128769874572754,0.0,-0.3728164136409759,0.8612567782402039,4.958872318267822,4.07421875,0,"['A1', 'B2', 'F2']",6.1,180,450.0,0.0114305518185453,[9800|0|0]
38,3799,1.654422640800476,1.1289019584655762,0.0,-0.3735577166080475,0.8603522777557373,4.96704626083374,4.07421875,0,"['A1', 'B2', 'F2']",6.1,180,450.0,0.0116252561727159,[9900|0|0]
39,3899,1.6544578075408936,1.1289712190628052,0.0,-0.3773762881755829,0.8636910319328308,4.9801554679870605,4.07421875,0,"['A1', 'B2', 'F2']",6.1,180,450.0,0.0117029332604581,[10000|0|0]
40,3999,1.6542268991470337,1.1287734508514404,0.0,-0.3695288598537445,0.8711501955986023,4.957260608673096,4.07421875,0,"['A1', 'B2', 'F2']",6.1,180,450.0,0.0120069578512092,[10100|0|0]
41,4099,1.654272198677063,1.129322171211243,0.0,-0.3776540756225586,0.8710287809371948,4.982287406921387,4.07421875,0,"['A1', 'B2', 'F2']",6.1,180,450.0,0.0125575448840047,[10200|0|0]
42,4199,1.6544605493545532,1.1289823055267334,0.0,-0.3652041256427765,0.8697003722190857,4.965714454650879,4.07421875,0,"['A1', 'B2', 'F2']",6.1,180,450.0,0.0129461123314552,[10300|0|0]
43,4299,1.6544173955917358,1.1289507150650024,0.0,-0.3620966672897339,0.8712972402572632,4.9805216789245605,4.07421875,0,"['A1', 'B2', 'F2']",6.1,180,450.0,0.0129995932113813,[10400|0|0]
44,4399,1.6543794870376587,1.128963589668274,0.0,-0.3641007244586944,0.8692971467971802,4.965099334716797,4.07421875,0,"['A1', 'B2', 'F2']",6.1,180,450.0,0.0130396283694504,[10500|0|0]
45,4499,1.6544766426086426,1.1290404796600342,0.0,-0.3709390461444855,0.8718897104263306,4.970790863037109,4.07421875,0,"['A1', 'B2', 'F2']",6.1,180,450.0,0.0131635286350114,[10600|0|0]
46,4599,1.6541537046432495,1.1287633180618286,0.0,-0.3663900196552276,0.8769435882568359,4.9813995361328125,4.07421875,0,"['A1', 'B2', 'F2']",6.1,180,450.0,0.0135890958811807,[10700|0|0]
47,4699,1.6542967557907104,1.1290645599365234,0.0,-0.3691345453262329,0.8730064630508423,5.031344890594482,4.07421875,0,"['A1', 'B2', 'F2']",6.1,180,450.0,0.0139225779614482,[10800|0|0]
48,4799,1.6545262336730957,1.1287450790405271,0.0,-0.3638629913330078,0.8714735507965088,5.006641864776611,4.07421875,0,"['A1', 'B2', 'F2']",6.1,180,450.0,0.0143159329428716,[10900|0|0]
49,4899,1.6544249057769775,1.128915786743164,0.0,-0.3703630268573761,0.8688792586326599,5.019010543823242,4.07421875,0,"['A1', 'B2', 'F2']",6.1,180,450.0,0.0145144485902935,[11000|0|0]
50,4999,1.6545023918151855,1.1288819313049316,0.0,-0.3726115226745605,0.8700000643730164,4.985701560974121,4.07421875,0,"['A1', 'B2', 'F2']",6.1,180,450.0,0.014599007899746,[11100|0|0]
51,5099,1.6546297073364258,1.1288756132125854,0.0,-0.3755503892898559,0.8656426072120667,4.962196826934815,4.07421875,0,"['A1', 'B2', 'F2']",6.1,180,450.0,0.0147264800937318,[11200|0|0]
52,5199,1.6544665098190308,1.128981113433838,0.0,-0.3821475207805633,0.8742225170135498,4.990861892700195,4.07421875,0,"['A1', 'B2', 'F2']",6.1,180,450.0,0.0149208090065786,[11300|0|0]
53,5299,1.654308199882507,1.1289889812469482,0.0,-0.3921929895877838,0.8678334951400757,4.952502250671387,4.07421875,0,"['A1', 'B2', 'F2']",6.1,180,450.0,0.015079314332941,[11400|0|0]
54,5399,1.654523253440857,1.129172682762146,0.0,-0.396750658750534,0.8671601414680481,4.976213455200195,4.07421875,0,"['A1', 'B2', 'F2']",6.1,180,450.0,0.0153621469329801,[11500|0|0]
55,5499,1.6543471813201904,1.129132866859436,0.0,-0.399828165769577,0.8713211417198181,4.9620280265808105,4.07421875,0,"['A1', 'B2', 'F2']",6.1,180,450.0,0.0155426647929957,[11600|0|0]
56,5599,1.6546413898468018,1.1286920309066772,0.0,-0.3882529139518738,0.8590242266654968,4.948227882385254,4.07421875,0,"['A1', 'B2', 'F2']",6.1,180,450.0,0.0160726600706875,[11700|0|0]
57,5699,1.6545262336730957,1.1289013624191284,0.0,-0.39127317070961,0.8593043684959412,4.947534561157227,4.07421875,0,"['A1', 'B2', 'F2']",6.1,180,450.0,0.0163115755922588,[11800|0|0]
58,5799,1.6545041799545288,1.128951072692871,0.0,-0.3865869641304016,0.8641123175621033,4.971863269805908,4.07421875,0,"['A1', 'B2', 'F2']",6.1,180,450.0,0.0163659582900422,[11900|0|0]
59,5899,1.6544198989868164,1.12871253490448,0.0,-0.3731149435043335,0.8580164313316345,5.004899978637695,4.07421875,0,"['A1', 'B2', 'F2']",6.1,180,450.0,0.0166189475348908,[12000|0|0]
60,5999,1.654631733894348,1.1291751861572266,0.0,-0.3876136243343353,0.8450204730033875,4.994831085205078,4.07421875,0,"['A1', 'B2', 'F2']",6.1,180,450.0,0.0171277895631441,[12100|0|0]
61,6099,1.6545289754867554,1.1287685632705688,0.0,-0.3764599561691284,0.8500563502311707,4.973260402679443,4.07421875,0,"['A1', 'B2', 'F2']",6.1,180,450.0,0.0175471956459383,[12200|0|0]
62,6199,1.6546697616577148,1.1287754774093628,0.0,-0.3748035728931427,0.8440920114517212,4.945623874664307,4.07421875,0,"['A1', 'B2', 'F2']",6.1,180,450.0,0.0176881514945175,[12300|0|0]
63,6299,1.6544231176376345,1.1286368370056152,0.0,-0.3700067698955536,0.8505708575248718,4.935939788818359,4.07421875,0,"['A1', 'B2', 'F2']",6.1,180,450.0,0.0179710904175958,[12400|0|0]
64,6399,1.654617190361023,1.1291016340255735,0.0,-0.3832232058048248,0.8469523787498474,4.9373626708984375,4.07421875,0,"['A1', 'B2', 'F2']",6.1,180,450.0,0.0184747773161007,[12500|0|0]
65,6499,1.654422163963318,1.1289139986038208,0.0,-0.3839915990829468,0.8474594354629517,4.944959163665772,4.07421875,0,"['A1', 'B2', 'F2']",6.1,180,450.0,0.0187454105500134,[12600|0|0]
66,6599,1.654460072517395,1.1288557052612305,0.0,-0.3821355104446411,0.8479689955711365,4.944823265075684,4.07421875,0,"['A1', 'B2', 'F2']",6.1,180,450.0,0.0188149459529572,[12700|0|0]
67,6699,1.6544041633605957,1.1285125017166138,0.0,-0.3744011521339416,0.8553667664527893,4.985437393188477,4.07421875,0,"['A1', 'B2', 'F2']",6.1,180,450.0,0.0191626735861006,[12800|0|0]
68,6799,1.6547834873199463,1.1285730600357056,0.0,-0.3788416087627411,0.8388659358024597,4.976667881011963,4.07421875,0,"['A1', 'B2', 'F2']",6.1,180,450.0,0.0195468011380265,[12900|0|0]
69,6899,1.6545956134796145,1.1292853355407717,0.0,-0.3948771059513092,0.8449656367301941,4.97826099395752,4.07421875,0,"['A1', 'B2', 'F2']",6.1,180,450.0,0.0202834373949392,[13000|0|0]
70,6999,1.6544508934020996,1.1287447214126587,0.0,-0.3773481249809265,0.8502805233001709,4.988057613372803,4.07421875,0,"['A1', 'B2', 'F2']",6.1,180,450.0,0.0208430868712646,[13100|0|0]
71,7099,1.6541509628295898,1.128577709197998,0.0,-0.3726831674575805,0.8570919036865234,4.992588520050049,4.07421875,0,"['A1', 'B2', 'F2']",6.1,180,450.0,0.0211863818292408,[13200|0|0]
72,7199,1.6545683145523071,1.128675937652588,0.0,-0.3796315789222717,0.8486793637275696,5.001709938049316,4.07421875,0,"['A1', 'B2', 'F2']",6.1,180,450.0,0.0216151373420289,[13300|0|0]
73,7299,1.6546047925949097,1.1288880109786987,0.0,-0.3866715729236603,0.8486427664756775,4.984419822692871,4.07421875,0,"['A1', 'B2', 'F2']",6.1,180,450.0,0.0218303250350781,[13400|0|0]
74,7399,1.6542574167251587,1.1288182735443115,0.0,-0.3872345089912414,0.8624452352523804,4.996011257171631,4.07421875,0,"['A1', 'B2', 'F2']",6.1,180,450.0,0.022184631829594,[13500|0|0]
75,7499,1.6544734239578247,1.128633737564087,0.0,-0.3828836679458618,0.8556366562843323,4.9580078125,4.07421875,0,"['A1', 'B2', 'F2']",6.1,180,450.0,0.0224687315525109,[13600|0|0]
76,7599,1.654578685760498,1.1289236545562744,0.0,-0.3877697587013244,0.8525912761688232,4.961009502410889,4.07421875,0,"['A1', 'B2', 'F2']",6.1,180,450.0,0.0227771661638325,[13700|0|0]
77,7699,1.6544817686080933,1.1287353038787842,0.0,-0.38235804438591,0.8596117496490479,4.959679126739502,4.07421875,0,"['A1', 'B2', 'F2']",6.1,180,450.0,0.0229889889957966,[13800|0|0]
78,7799,1.6543219089508057,1.1289654970169067,0.0,-0.3877655267715454,0.8651716709136963,4.957197666168213,4.07421875,0,"['A1', 'B2', 'F2']",6.1,180,450.0,0.023269246004392,[13900|0|0]
79,7899,1.6543141603469849,1.1290504932403564,0.0,-0.3903869092464447,0.8651254773139954,4.966591358184815,4.07421875,0,"['A1', 'B2', 'F2']",6.1,180,450.0,0.0233545946942582,[14000|0|0]
80,7999,1.654370665550232,1.1285473108291626,0.0,-0.375906229019165,0.8551967740058899,5.0125250816345215,4.07421875,0,"['A1', 'B2', 'F2']",6.1,180,450.0,0.0238609398106846,[14100|0|0]
81,8099,1.6541157960891724,1.1289087533950806,0.0,-0.3871642649173736,0.8533114790916443,5.024492263793945,4.07421875,0,"['A1', 'B2', 'F2']",6.1,180,450.0,0.0243032057608075,[14200|0|0]
82,8199,1.6543021202087402,1.1286308765411377,0.0,-0.3780496418476105,0.8551225066184998,4.963638782501221,4.07421875,0,"['A1', 'B2', 'F2']",6.1,180,450.0,0.0246377684955673,[14300|0|0]
83,8299,1.6546037197113037,1.128825545310974,0.0,-0.3941533863544464,0.8429563641548157,4.942534446716309,4.07421875,0,"['A1', 'B2', 'F2']",6.1,180,450.0,0.0249967367252145,[14400|0|0]
84,8399,1.6544245481491089,1.129199743270874,0.0,-0.3957829177379608,0.8562301993370056,4.967922687530518,4.07421875,0,"['A1', 'B2', 'F2']",6.1,180,450.0,0.0254116181081335,[14500|0|0]
85,8499,1.654401421546936,1.1289023160934448,0.0,-0.3803381621837616,0.8619328737258911,4.971059322357178,4.07421875,0,"['A1', 'B2', 'F2']",6.1,180,450.0,0.0257099430410532,[14600|0|0]
86,8599,1.654483199119568,1.1291418075561523,0.0,-0.3867999613285064,0.8579968810081482,4.979800701141357,4.07421875,0,"['A1', 'B2', 'F2']",6.1,180,450.0,0.0259630116722492,[14700|0|0]
87,8699,1.654310941696167,1.1286262273788452,0.0,-0.3736215233802795,0.8750491142272949,4.963714122772217,4.07421875,0,"['A1', 'B2', 'F2']",6.1,180,450.0,0.0265066066861601,[14800|0|0]
88,8799,1.6542669534683228,1.128433108329773,0.0,-0.3683615922927856,0.8755421042442322,4.964332580566406,4.07421875,0,"['A1', 'B2', 'F2']",6.1,180,450.0,0.0267046721584248,[14900|0|0]
89,8899,1.654387593269348,1.1289860010147097,0.0,-0.3789780437946319,0.8745575547218323,4.996302127838135,4.07421875,0,"['A1', 'B2', 'F2']",6.1,180,450.0,0.027270573459579,[15000|0|0]
90,8999,1.6540626287460327,1.1288387775421145,0.0,-0.3779440820217132,0.8784981369972229,4.990538120269775,4.07421875,0,"['A1', 'B2', 'F2']",6.1,180,450.0,0.0276273320506409,[15100|0|0]
91,9099,1.654598355293274,1.1292121410369873,0.0,-0.3839258849620819,0.8602373600006104,5.004371643066406,4.07421875,0,"['A1', 'B2', 'F2']",6.1,180,450.0,0.0282803276346402,[15200|0|0]
92,9199,1.6542725563049316,1.1289125680923462,0.0,-0.3752304017543793,0.8683071732521057,5.013270378112793,4.07421875,0,"['A1', 'B2', 'F2']",6.1,180,450.0,0.0287229210484704,[15300|0|0]
93,9299,1.654794216156006,1.129206299781799,0.0,-0.3852892816066742,0.8601738810539246,4.983912467956543,4.07421875,0,"['A1', 'B2', 'F2']",6.1,180,450.0,0.0293215923319072,[15400|0|0]
94,9399,1.6548553705215454,1.1289196014404297,0.0,-0.3762708604335785,0.8689238429069519,4.978994846343994,4.07421875,0,"['A1', 'B2', 'F2']",6.1,180,450.0,0.0296147404094524,[15500|0|0]
95,9499,1.6543854475021362,1.1289288997650146,0.0,-0.3890147805213928,0.8750487565994263,4.967365264892578,4.07421875,0,"['A1', 'B2', 'F2']",6.1,180,450.0,0.0300847554124159,[15600|0|0]
96,9599,1.6543155908584597,1.128878474235535,0.0,-0.3868800401687622,0.8711197972297668,5.000535488128662,4.07421875,0,"['A1', 'B2', 'F2']",6.1,180,450.0,0.0301709104162698,[15700|0|0]
97,9699,1.6543011665344238,1.1288853883743286,0.0,-0.3820432722568512,0.8726296424865723,5.029553413391113,4.07421875,0,"['A1', 'B2', 'F2']",6.1,180,450.0,0.0301869062419487,[15800|0|0]
98,9799,1.6541846990585327,1.1287763118743896,0.0,-0.3753964900970459,0.875632107257843,5.007016658782959,4.07421875,0,"['A1', 'B2', 'F2']",6.1,180,450.0,0.0303464755240157,[15900|0|0]
99,9899,1.6543048620224,1.1287517547607422,0.0,-0.3718965351581573,0.875694751739502,4.997015476226807,4.07421875,0,"['A1', 'B2', 'F2']",6.1,180,450.0,0.0304691221290076,[16000|0|0]
100,9999,1.6544653177261353,1.1287654638290403,0.0,-0.3722038865089416,0.8726979494094849,4.976881980895996,4.07421875,0,"['A1', 'B2', 'F2']",6.1,180,450.0,0.0306301624078661,[16100|0|0]
101,10099,1.6546647548675537,1.12871253490448,0.0,-0.3636139631271362,0.866461992263794,4.977432727813721,4.07421875,0,"['A1', 'B2', 'F2']",6.1,180,450.0,0.0308365034954669,[16200|0|0]
102,10199,1.6546528339385986,1.1286687850952148,0.0,-0.365167886018753,0.8653594255447388,4.971327304840088,4.07421875,0,"['A1', 'B2', 'F2']",6.1,180,450.0,0.0308818483337386,[16300|0|0]
103,10299,1.6543160676956177,1.1285642385482788,0.0,-0.3606694042682647,0.8857554793357849,4.971099376678467,4.07421875,0,"['A1', 'B2', 'F2']",6.1,180,450.0,0.0312344692107265,[16400|0|0]
104,10399,1.654236078262329,1.1285251379013062,0.0,-0.3608446717262268,0.8826581239700317,4.97752046585083,4.07421875,0,"['A1', 'B2', 'F2']",6.1,180,450.0,0.0313235038670774,[16500|0|0]
105,10499,1.654295802116394,1.1287734508514404,0.0,-0.3691510558128357,0.8831102252006531,4.978213787078857,4.07421875,0,"['A1', 'B2', 'F2']",6.1,180,450.0,0.0315788981895451,[16600|0|0]
106,10599,1.6543620824813845,1.1289427280426023,0.0,-0.3772948384284973,0.8796259760856628,4.960517883300781,4.07421875,0,"['A1', 'B2', 'F2']",6.1,180,450.0,0.0317606888775105,[16700|0|0]
107,10699,1.654464840888977,1.1288658380508425,0.0,-0.3801561594009399,0.8730027675628662,4.975690841674805,4.07421875,0,"['A1', 'B2', 'F2']",6.1,180,450.0,0.0318890296783642,[16800|0|0]
108,10799,1.6544052362442017,1.128834247589111,0.0,-0.3765872120857239,0.8685027360916138,5.006109237670898,4.07421875,0,"['A1', 'B2', 'F2']",6.1,180,450.0,0.0319564883394183,[16900|0|0]
109,10899,1.654443860054016,1.1290401220321655,0.0,-0.3841616511344909,0.8695470094680786,5.022975444793701,4.07421875,0,"['A1', 'B2', 'F2']",6.1,180,450.0,0.0321659545299778,[17000|0|0]
110,10999,1.654288411140442,1.1285314559936523,0.0,-0.3789827823638916,0.8699943423271179,5.003180027008057,4.07421875,0,"['A1', 'B2', 'F2']",6.1,180,450.0,0.0326978431493974,[17100|0|0]
111,11099,1.654479742050171,1.1284981966018677,0.0,-0.3778122663497925,0.8678224682807922,5.011004447937012,4.07421875,0,"['A1', 'B2', 'F2']",6.1,180,450.0,0.0328920433145868,[17200|0|0]
112,11199,1.654631733894348,1.128787398338318,0.0,-0.3928685188293457,0.8639395236968994,5.008604049682617,4.07421875,0,"['A1', 'B2', 'F2']",6.1,180,450.0,0.0332187529181529,[17300|0|0]
113,11299,1.6543492078781128,1.128831148147583,0.0,-0.3943339884281158,0.8706822991371155,5.032815456390381,4.07421875,0,"['A1', 'B2', 'F2']",6.1,180,450.0,0.0335046462473167,[17400|0|0]
114,11399,1.6544514894485474,1.12856924533844,0.0,-0.3792122602462768,0.8600985407829285,5.043583869934082,4.07421875,0,"['A1', 'B2', 'F2']",6.1,180,450.0,0.0337858127479664,[17500|0|0]
115,11499,1.6544702053070068,1.1288975477218628,0.0,-0.3903577625751495,0.854181170463562,5.023929595947266,4.07421875,0,"['A1', 'B2', 'F2']",6.1,180,450.0,0.034114648175375,[17600|0|0]
116,11599,1.6545753479003906,1.1288166046142578,0.0,-0.3909745812416076,0.8489482402801514,5.024249076843262,4.07421875,0,"['A1', 'B2', 'F2']",6.1,180,450.0,0.0342473386106453,[17700|0|0]
117,11699,1.654522180557251,1.1286729574203491,0.0,-0.3860347270965576,0.850178062915802,5.018741607666016,4.07421875,0,"['A1', 'B2', 'F2']",6.1,180,450.0,0.0344005093738293,[17800|0|0]
118,11799,1.654342770576477,1.1287081241607666,0.0,-0.3847193717956543,0.8530242443084717,5.030398368835449,4.07421875,0,"['A1', 'B2', 'F2']",6.1,180,450.0,0.0345833334445446,[17900|0|0]
119,11899,1.654407024383545,1.1289217472076416,0.0,-0.3885905146598816,0.8509284257888794,5.010301113128662,4.07421875,0,"['A1', 'B2', 'F2']",6.1,180,450.0,0.034806410466846,[18000|0|0]
120,11999,1.654460072517395,1.1289154291152954,0.0,-0.3911366164684295,0.8460319638252258,5.000596523284912,4.07421875,0,"['A1', 'B2', 'F2']",6.1,180,450.0,0.0348598335217556,[18100|0|0]
121,12099,1.6544779539108276,1.1289995908737185,0.0,-0.388061910867691,0.8478628993034363,5.012603759765625,4.07421875,0,"['A1', 'B2', 'F2']",6.1,180,450.0,0.0349458738949065,[18200|0|0]
122,12199,1.6546504497528076,1.1291637420654297,0.0,-0.3834806680679321,0.8466153144836426,5.042117118835449,4.07421875,0,"['A1', 'B2', 'F2']",6.1,180,450.0,0.0351839924142212,[18300|0|0]
123,12299,1.654524803161621,1.128737449645996,0.0,-0.3684718608856201,0.8525465726852417,5.037088871002197,4.07421875,0,"['A1', 'B2', 'F2']",6.1,180,450.0,0.0356284159652886,[18400|0|0]
124,12399,1.6545872688293457,1.12912917137146,0.0,-0.3772898018360138,0.8501930236816406,5.040961265563965,4.07421875,0,"['A1', 'B2', 'F2']",6.1,180,450.0,0.0360250869496631,[18500|0|0]
125,12499,1.6545381546020508,1.1285017728805542,0.0,-0.3632042407989502,0.8521892428398132,5.016769886016846,4.07421875,0,"['A1', 'B2', 'F2']",6.1,180,450.0,0.0366544048929268,[18600|0|0]
126,12599,1.6541897058486938,1.1285828351974487,0.0,-0.3642789125442505,0.8626671433448792,5.009766578674316,4.07421875,0,"['A1', 'B2', 'F2']",6.1,180,450.0,0.0370121584854123,[18700|0|0]
127,12699,1.6544133424758911,1.1284459829330444,0.0,-0.3664129078388214,0.8598118424415588,5.001402378082275,4.07421875,0,"['A1', 'B2', 'F2']",6.1,180,450.0,0.0372743452190522,[18800|0|0]
128,12799,1.6549336910247805,1.1293257474899292,0.0,-0.3874502182006836,0.8418869972229004,5.01048755645752,4.07421875,0,"['A1', 'B2', 'F2']",6.1,180,450.0,0.0382964745102291,[18900|0|0]
129,12899,1.6550313234329224,1.1292517185211182,0.0,-0.3607186079025268,0.8348073959350586,5.039392471313477,4.07421875,0,"['A1', 'B2', 'F2']",6.1,180,450.0,0.0384189995090776,[19000|0|0]
130,12999,1.6551673412322998,1.1287907361984253,0.0,-0.3267608880996704,0.8376995921134949,5.036193370819092,4.07421875,0,"['A1', 'B2', 'F2']",6.1,180,450.0,0.038899629869732,[19100|0|0]
131,13099,1.6555076837539673,1.1289575099945068,0.0,-0.3254763484001159,0.8258819580078125,4.987735748291016,4.07421875,0,"['A1', 'B2', 'F2']",6.1,180,450.0,0.0392786371666465,[19200|0|0]
132,13199,1.6544545888900757,1.128590703010559,0.0,-0.3190347254276275,0.8600291609764099,4.992902755737305,4.07421875,0,"['A1', 'B2', 'F2']",6.1,180,450.0,0.04039378565713,[19300|0|0]
133,13299,1.6545120477676392,1.128772258758545,0.0,-0.3334764838218689,0.8592274785041809,5.005832195281982,4.07421875,0,"['A1', 'B2', 'F2']",6.1,180,450.0,0.0405842167791599,[19400|0|0]
134,13399,1.6544395685195925,1.1290452480316162,0.0,-0.3546885550022125,0.8659467697143555,4.99925422668457,4.07421875,0,"['A1', 'B2', 'F2']",6.1,180,450.0,0.0408666639151153,[19500|0|0]
135,13499,1.654659390449524,1.1287297010421753,0.0,-0.3603156208992004,0.8593122363090515,4.986032485961914,4.07421875,0,"['A1', 'B2', 'F2']",6.1,180,450.0,0.0412512306627989,[19600|0|0]
136,13599,1.654657244682312,1.1287803649902344,0.0,-0.3760683238506317,0.861020565032959,4.960716247558594,4.07421875,0,"['A1', 'B2', 'F2']",6.1,180,450.0,0.0413019400302754,[19700|0|0]
137,13699,1.6541999578475952,1.128622055053711,0.0,-0.3957507610321045,0.8665947914123535,4.979931831359863,4.07421875,0,"['A1', 'B2', 'F2']",6.1,180,450.0,0.0417858545735652,[19800|0|0]
138,13799,1.654078722000122,1.1281183958053589,0.0,-0.3783766329288482,0.8731387853622437,4.941164493560791,4.07421875,0,"['A1', 'B2', 'F2']",6.1,180,450.0,0.042303899715578,[19900|0|0]
139,13899,1.6538050174713137,1.1284431219100952,0.0,-0.3851933479309082,0.8804799318313599,4.964022636413574,4.07421875,0,"['A1', 'B2', 'F2']",6.1,180,450.0,0.0427285892635862,[20000|0|0]
140,13999,1.6537487506866455,1.1283342838287354,0.0,-0.3837675452232361,0.8810288310050964,4.965795993804932,4.07421875,0,"['A1', 'B2', 'F2']",6.1,180,450.0,0.0428511114208109,[20100|0|0]
141,14099,1.6539690494537354,1.12846577167511,0.0,-0.3908953666687011,0.877739429473877,4.9688639640808105,4.07421875,0,"['A1', 'B2', 'F2']",6.1,180,450.0,0.0431076666790411,[20200|0|0]
142,14199,1.6544954776763916,1.1287736892700195,0.0,-0.3983322978019714,0.8654077053070068,4.972703456878662,4.07421875,0,"['A1', 'B2', 'F2']",6.1,180,450.0,0.0437175354508796,[20300|0|0]
143,14299,1.653902530670166,1.1286797523498535,0.0,-0.3817724287509918,0.875605046749115,4.956981658935547,4.07421875,0,"['A1', 'B2', 'F2']",6.1,180,450.0,0.0443178772678158,[20400|0|0]
144,14399,1.6539087295532229,1.1283634901046753,0.0,-0.3654728531837463,0.8728518486022949,4.943234920501709,4.07421875,0,"['A1', 'B2', 'F2']",6.1,180,450.0,0.0446342002576163,[20500|0|0]
145,14499,1.6538587808609009,1.1284382343292236,0.0,-0.3656013309955597,0.8820672035217285,4.952146530151367,4.07421875,0,"['A1', 'B2', 'F2']",6.1,180,450.0,0.0447240978158034,[20600|0|0]
146,14599,1.6540731191635132,1.1281216144561768,0.0,-0.3558568656444549,0.8802734613418579,4.930953979492188,4.07421875,0,"['A1', 'B2', 'F2']",6.1,180,450.0,0.0451064445850783,[20700|0|0]
147,14699,1.6538140773773191,1.1289410591125488,0.0,-0.3689958155155182,0.8853115439414978,4.824640274047852,4.07421875,0,"['A1', 'B2', 'F2']",6.1,180,450.0,0.0459658584503675,[20800|0|0]
148,14799,1.654893159866333,1.129847288131714,0.0,-0.3724486231803894,0.842673659324646,4.749934196472168,4.07421875,0,"['A1', 'B2', 'F2']",6.1,180,450.0,0.047374996503673,[20900|0|0]
149,14899,1.6552239656448364,1.130842924118042,0.0,-0.3701040148735046,0.833709716796875,4.701059818267822,4.07421875,0,"['A1', 'B2', 'F2']",6.1,180,450.0,0.0484241502008797,[21000|0|0]
150,14999,1.655465602874756,1.1293312311172483,0.0,-0.314371109008789,0.8382627964019775,4.743627071380615,4.07421875,0,"['A1', 'B2', 'F2']",6.1,180,450.0,0.0499550336972738,[21100|0|0]
151,15100,1.6546142101287842,1.1283018589019775,0.0,-0.289558857679367,0.8781401515007019,4.842414379119873,4.07421875,0,"['A1', 'B2', 'F2']",6.1,180,450.0,0.0512908767889073,[21200|0|0]
152,15199,1.6539093255996704,1.1282609701156616,0.0,-0.3111999034881592,0.8889776468276978,4.870020866394043,4.0703125,0,"['A1', 'B2', 'F2']",6.1,180,450.0,0.0519969462559078,[21300|0|0]
153,15299,1.6539533138275146,1.1280597448349,0.0,-0.3250906765460968,0.8893205523490906,4.894054889678955,4.07421875,0,"['A1', 'B2', 'F2']",6.1,180,450.0,0.0522029233852365,[21400|0|0]
154,15400,1.653987169265747,1.1280511617660522,0.0,-0.3503688871860504,0.8806993961334229,4.925762176513672,4.07421875,0,"['A1', 'B2', 'F2']",6.1,180,450.0,0.0522378498761675,[21500|0|0]
155,15499,1.6539493799209597,1.1284139156341553,0.0,-0.3742868304252624,0.8907398581504822,4.890648365020752,4.07421875,0,"['A1', 'B2', 'F2']",6.1,180,450.0,0.0526025667573276,[21600|0|0]
156,15600,1.6536872386932373,1.1283626556396484,0.0,-0.3818840980529785,0.8881585001945496,4.910977840423584,4.07421875,0,"['A1', 'B2', 'F2']",6.1,180,450.0,0.052869672748104,[21700|0|0]
157,15700,1.6542108058929443,1.1281763315200806,0.0,-0.382894903421402,0.8743507266044617,4.893826007843018,4.07421875,0,"['A1', 'B2', 'F2']",6.1,180,450.0,0.0534254058586362,[21800|0|0]
158,15800,1.653971791267395,1.1285680532455444,0.0,-0.3945832848548889,0.8848608136177063,4.8893022537231445,4.07421875,0,"['A1', 'B2', 'F2']",6.1,180,450.0,0.0538842891786936,[21900|0|0]
159,15900,1.6538065671920776,1.1285488605499268,0.0,-0.3947539329528808,0.8863016963005066,4.916123867034912,4.07421875,0,"['A1', 'B2', 'F2']",6.1,180,450.0,0.0540506242460413,[22000|0|0]
160,16000,1.654000163078308,1.1283471584320068,0.0,-0.3856314718723297,0.8792558312416077,4.919489860534668,4.07421875,0,"['A1', 'B2', 'F2']",6.1,180,450.0,0.0543302009109093,[22100|0|0]
161,16101,1.6536420583724976,1.128543257713318,0.0,-0.386917769908905,0.8890929222106934,4.917730808258057,4.07421875,0,"['A1', 'B2', 'F2']",6.1,180,450.0,0.0547384825642498,[22200|0|0]
162,16200,1.6537929773330688,1.128305435180664,0.0,-0.3757452964782715,0.881140947341919,4.941330909729004,4.0703125,0,"['A1', 'B2', 'F2']",6.1,180,450.0,0.0550201491929049,[22300|0|0]
163,16300,1.653984785079956,1.1285125017166138,0.0,-0.3779832422733307,0.8738270401954651,4.930916786193848,4.07421875,0,"['A1', 'B2', 'F2']",6.1,180,450.0,0.0553024022036526,[22400|0|0]
164,16400,1.6540895700454712,1.128590106964111,0.0,-0.3745349943637848,0.8717273473739624,4.944327831268311,4.07421875,0,"['A1', 'B2', 'F2']",6.1,180,450.0,0.0554327956982646,[22500|0|0]
165,16500,1.653883695602417,1.1283252239227295,0.0,-0.3647464215755462,0.8795433640480042,4.9205498695373535,4.07421875,0,"['A1', 'B2', 'F2']",6.1,180,450.0,0.0557682764159139,[22600|0|0]
166,16600,1.6537911891937256,1.1289149522781372,0.0,-0.3755030632019043,0.8801378011703491,4.931334972381592,4.07421875,0,"['A1', 'B2', 'F2']",6.1,180,450.0,0.0563652160852447,[22700|0|0]
167,16701,1.6538077592849731,1.1285252571105957,0.0,-0.3672466576099396,0.887184739112854,4.946081161499023,4.07421875,0,"['A1', 'B2', 'F2']",6.1,180,450.0,0.0567552633792094,[22800|0|0]
168,16801,1.654069185256958,1.1286237239837646,0.0,-0.3775088191032409,0.8763656616210938,4.914071559906006,4.07421875,0,"['A1', 'B2', 'F2']",6.1,180,450.0,0.0570346184649693,[22900|0|0]
169,16899,1.6538796424865725,1.1285403966903689,0.0,-0.3720678687095642,0.8889986276626587,4.948192119598389,4.07421875,0,"['A1', 'B2', 'F2']",6.1,180,450.0,0.0572416689410133,[23000|0|0]
170,16999,1.6541699171066284,1.1285250186920166,0.0,-0.3757044374942779,0.8789582252502441,4.938603401184082,4.07421875,0,"['A1', 'B2', 'F2']",6.1,180,450.0,0.0575323506189394,[23100|0|0]
171,17099,1.6537823677062988,1.1286370754241943,0.0,-0.3821918666362762,0.884684145450592,4.955230712890625,4.07421875,0,"['A1', 'B2', 'F2']",6.1,180,450.0,0.0579357750219224,[23200|0|0]
172,17199,1.653989315032959,1.128435492515564,0.0,-0.3751027882099151,0.871403694152832,4.936992168426514,4.07421875,0,"['A1', 'B2', 'F2']",6.1,180,450.0,0.0582246744249396,[23300|0|0]
173,17301,1.654021143913269,1.1283984184265137,0.0,-0.3778374493122101,0.8688194751739502,4.9412102699279785,4.07421875,0,"['A1', 'B2', 'F2']",6.1,180,450.0,0.0582735371479572,[23400|0|0]
174,17399,1.6539679765701294,1.128395438194275,0.0,-0.3769054710865021,0.8747797608375549,4.942679405212402,4.07421875,0,"['A1', 'B2', 'F2']",6.1,180,450.0,0.0583267879522772,[23500|0|0]
175,17499,1.6536967754364014,1.1283283233642578,0.0,-0.3736189603805542,0.8794314861297607,4.973544120788574,4.07421875,0,"['A1', 'B2', 'F2']",6.1,180,450.0,0.0586061702268467,[23600|0|0]
176,17599,1.653786063194275,1.128526210784912,0.0,-0.3846014738082886,0.8754123449325562,4.9993205070495605,4.07421875,0,"['A1', 'B2', 'F2']",6.1,180,450.0,0.0588232686721642,[23700|0|0]
177,17699,1.6539088487625122,1.1284829378128052,0.0,-0.3833522498607635,0.8738811016082764,4.965188026428223,4.07421875,0,"['A1', 'B2', 'F2']",6.1,180,450.0,0.0589534564053894,[23800|0|0]
178,17799,1.654196858406067,1.1281988620758057,0.0,-0.385909229516983,0.8629936575889587,4.958799362182617,4.07421875,0,"['A1', 'B2', 'F2']",6.1,180,450.0,0.0593579914213427,[23900|0|0]
179,17899,1.6537872552871704,1.1284445524215698,0.0,-0.3835238218307495,0.8711866140365601,4.98416805267334,4.07421875,0,"['A1', 'B2', 'F2']",6.1,180,450.0,0.0598356298421292,[24000|0|0]
180,17999,1.6540677547454834,1.1284523010253906,0.0,-0.3749987781047821,0.8657892346382141,5.006412506103516,4.07421875,0,"['A1', 'B2', 'F2']",6.1,180,450.0,0.0601162363049469,[24100|0|0]
181,18099,1.6540392637252808,1.1285690069198608,0.0,-0.382214605808258,0.8712209463119507,5.000985622406006,4.07421875,0,"['A1', 'B2', 'F2']",6.1,180,450.0,0.0602363695810875,[24200|0|0]
182,18199,1.6537837982177734,1.1284167766571045,0.0,-0.3770359754562378,0.8824307918548584,4.989331245422363,4.07421875,0,"['A1', 'B2', 'F2']",6.1,180,450.0,0.0605337526310834,[24300|0|0]
183,18299,1.653686285018921,1.1283975839614868,0.0,-0.3749908208847046,0.8855892419815063,4.988131523132324,4.0703125,0,"['A1', 'B2', 'F2']",6.1,180,450.0,0.0606331366515068,[24400|0|0]
184,18399,1.6540080308914185,1.1282247304916382,0.0,-0.3765154182910919,0.8681575655937195,4.968459606170654,4.07421875,0,"['A1', 'B2', 'F2']",6.1,180,450.0,0.0609983745582306,[24500|0|0]
185,18499,1.6537195444107056,1.1287823915481567,0.0,-0.391028493642807,0.8757010698318481,4.937692165374756,4.07421875,0,"['A1', 'B2', 'F2']",6.1,180,450.0,0.0616262362496177,[24600|0|0]
186,18599,1.6540241241455078,1.1282474994659424,0.0,-0.3733142912387848,0.8736469149589539,4.928869247436523,4.07421875,0,"['A1', 'B2', 'F2']",6.1,180,450.0,0.0622417672029156,[24700|0|0]
187,18699,1.6539077758789062,1.128348469734192,0.0,-0.3801030814647674,0.8775836825370789,4.9474053382873535,4.07421875,0,"['A1', 'B2', 'F2']",6.1,180,450.0,0.0623958188637686,[24800|0|0]
188,18799,1.6540589332580566,1.128270387649536,0.0,-0.3734984695911407,0.8684369921684265,4.9490275382995605,4.07421875,0,"['A1', 'B2', 'F2']",6.1,180,450.0,0.0625659522385539,[24900|0|0]
189,18899,1.653788685798645,1.1282247304916382,0.0,-0.369547963142395,0.8795872926712036,4.955790519714356,4.07421875,0,"['A1', 'B2', 'F2']",6.1,180,450.0,0.0628400293543183,[25000|0|0]
190,18999,1.6539554595947266,1.1281044483184814,0.0,-0.364812821149826,0.8713768124580383,4.962818145751953,4.07421875,0,"['A1', 'B2', 'F2']",6.1,180,450.0,0.0630456535266297,[25100|0|0]
191,19099,1.6537328958511353,1.128653049468994,0.0,-0.378537505865097,0.8808884620666504,4.974895000457764,4.07421875,0,"['A1', 'B2', 'F2']",6.1,180,450.0,0.0636376821089676,[25200|0|0]
192,19199,1.6541346311569214,1.1282954216003418,0.0,-0.3684972822666168,0.8737673163414001,4.938858509063721,4.0703125,0,"['A1', 'B2', 'F2']",6.1,180,450.0,0.0641755379896194,[25300|0|0]
193,19299,1.6540015935897827,1.1280145645141602,0.0,-0.3673044741153717,0.8824975490570068,4.938361644744873,4.07421875,0,"['A1', 'B2', 'F2']",6.1,180,450.0,0.0644863107315525,[25400|0|0]
194,19399,1.6539239883422852,1.1287895441055298,0.0,-0.37799271941185,0.8893117904663086,4.967265129089356,4.07421875,0,"['A1', 'B2', 'F2']",6.1,180,450.0,0.065265166264677,[25500|0|0]
195,19499,1.654102087020874,1.128656983375549,0.0,-0.3702438473701477,0.8906775712966919,4.93918514251709,4.07421875,0,"['A1', 'B2', 'F2']",6.1,180,450.0,0.0654871831254063,[25600|0|0]
196,19599,1.6537175178527832,1.1283762454986572,0.0,-0.3569793701171875,0.9006213545799255,4.96114444732666,4.07421875,0,"['A1', 'B2', 'F2']",6.1,180,450.0,0.0659633209211838,[25700|0|0]
197,19699,1.654080152511597,1.1284160614013672,0.0,-0.3569483757019043,0.8913779258728027,4.92652702331543,4.07421875,0,"['A1', 'B2', 'F2']",6.1,180,450.0,0.0663281348489353,[25800|0|0]
198,19799,1.653857946395874,1.1285748481750488,0.0,-0.3598210513591766,0.9013543725013732,4.954555034637451,4.07421875,0,"['A1', 'B2', 'F2']",6.1,180,450.0,0.0666012443459523,[25900|0|0]
199,19899,1.653962016105652,1.128324270248413,0.0,-0.3551504909992218,0.9031437039375304,4.954859733581543,4.07421875,0,"['A1', 'B2', 'F2']",6.1,180,450.0,0.0668725740380436,[26000|0|0]
200,19999,1.6538796424865725,1.1285182237625122,0.0,-0.3662331998348236,0.8997216820716858,4.940038681030273,4.07421875,0,"['A1', 'B2', 'F2']",6.1,180,450.0,0.0670832951303711,[26100|0|0]
201,20099,1.6540091037750244,1.1282702684402466,0.0,-0.3638785779476166,0.8938516974449158,4.9474778175354,4.07421875,0,"['A1', 'B2', 'F2']",6.1,180,450.0,0.0673630129650679,[26200|0|0]
202,20199,1.6539125442504885,1.128246188163757,0.0,-0.3683528304100036,0.8924797177314758,4.912796497344971,4.07421875,0,"['A1', 'B2', 'F2']",6.1,180,450.0,0.0674625298053232,[26300|0|0]
203,20299,1.6540110111236572,1.1283553838729858,0.0,-0.3655167818069458,0.8967005610466003,4.899394989013672,4.07421875,0,"['A1', 'B2', 'F2']",6.1,180,450.0,0.0676095652705199,[26400|0|0]
204,20399,1.653939723968506,1.1282360553741455,0.0,-0.35857954621315,0.8923922181129456,4.951717853546143,4.07421875,0,"['A1', 'B2', 'F2']",6.1,180,450.0,0.0677485658069398,[26500|0|0]
205,20499,1.6538724899291992,1.1285711526870728,0.0,-0.3665480315685272,0.8897385597229004,4.943164825439453,4.07421875,0,"['A1', 'B2', 'F2']",6.1,180,450.0,0.0680903415011789,[26600|0|0]
206,20599,1.653817653656006,1.1286250352859497,0.0,-0.3657640814781189,0.8821549415588379,4.955390930175781,4.0703125,0,"['A1', 'B2', 'F2']",6.1,180,450.0,0.0681672203104793,[26700|0|0]
207,20699,1.6540066003799438,1.1286677122116089,0.0,-0.3601333796977997,0.8716228008270264,4.971760272979736,4.07421875,0,"['A1', 'B2', 'F2']",6.1,180,450.0,0.0683609267493772,[26800|0|0]
208,20799,1.653847575187683,1.1284024715423584,0.0,-0.35441455245018,0.8738109469413757,4.994596481323242,4.07421875,0,"['A1', 'B2', 'F2']",6.1,180,450.0,0.0686701865501888,[26900|0|0]
209,20899,1.653846025466919,1.1283365488052368,0.0,-0.3530179858207702,0.8748728036880493,4.9910807609558105,4.07421875,0,"['A1', 'B2', 'F2']",6.1,180,450.0,0.0687361275003188,[27000|0|0]
210,20999,1.6541454792022705,1.128284931182861,0.0,-0.343735933303833,0.8602559566497803,4.984769344329834,4.0703125,0,"['A1', 'B2', 'F2']",6.1,180,450.0,0.0690399974043168,[27100|0|0]
211,21099,1.6540178060531616,1.1280912160873413,0.0,-0.3410431742668152,0.8696778416633606,5.025810241699219,4.07421875,0,"['A1', 'B2', 'F2']",6.1,180,450.0,0.0692720016526305,[27200|0|0]
212,21199,1.653949737548828,1.128342866897583,0.0,-0.353612333536148,0.8657395243644714,5.011106967926025,4.0703125,0,"['A1', 'B2', 'F2']",6.1,180,450.0,0.0695326958251345,[27300|0|0]
213,21299,1.654133677482605,1.1286085844039917,0.0,-0.3635774254798889,0.8606477379798889,5.009096145629883,4.07421875,0,"['A1', 'B2', 'F2']",6.1,180,450.0,0.0698558671302498,[27400|0|0]
214,21399,1.6537002325057983,1.1284092664718628,0.0,-0.3560975193977356,0.8724656105041504,5.034582614898682,4.0703125,0,"['A1', 'B2', 'F2']",6.1,180,450.0,0.070332943838953,[27500|0|0]
215,21499,1.6538541316986084,1.1280980110168457,0.0,-0.35028076171875,0.8703791499137878,5.044889450073242,4.07421875,0,"['A1', 'B2', 'F2']",6.1,180,450.0,0.0706801684346047,[27600|0|0]
216,21599,1.6538552045822144,1.128429651260376,0.0,-0.3638336956501007,0.877524197101593,5.035707473754883,4.0703125,0,"['A1', 'B2', 'F2']",6.1,180,450.0,0.071011810413564,[27700|0|0]
217,21699,1.653875470161438,1.1284313201904297,0.0,-0.3621076345443725,0.8751701712608337,5.046111106872559,4.0703125,0,"['A1', 'B2', 'F2']",6.1,180,450.0,0.0710321445973144,[27800|0|0]
218,21799,1.653975009918213,1.128796935081482,0.0,-0.3710949122905731,0.8712218403816223,5.0531182289123535,4.07421875,0,"['A1', 'B2', 'F2']",6.1,180,450.0,0.0714110672962095,[27900|0|0]
219,21899,1.6539281606674194,1.1285734176635742,0.0,-0.3694221377372741,0.8772740960121155,5.01963996887207,4.0703125,0,"['A1', 'B2', 'F2']",6.1,180,450.0,0.0716394417440097,[28000|0|0]
220,21999,1.6540658473968506,1.1284703016281128,0.0,-0.3650494813919067,0.8765304684638977,4.998799800872803,4.0703125,0,"['A1', 'B2', 'F2']",6.1,180,450.0,0.0718114607901375,[28100|0|0]
221,22099,1.6539636850357056,1.1286286115646362,0.0,-0.3727533221244812,0.8724461793899536,4.96787691116333,4.07421875,0,"['A1', 'B2', 'F2']",6.1,180,450.0,0.0719998730615977,[28200|0|0]
222,22199,1.653825759887695,1.1285452842712402,0.0,-0.3630611002445221,0.8752639293670654,4.9811787605285645,4.07421875,0,"['A1', 'B2', 'F2']",6.1,180,450.0,0.0721610151860668,[28300|0|0]
223,22299,1.653788924217224,1.128473162651062,0.0,-0.3595098257064819,0.8676620125770569,4.99978494644165,4.0703125,0,"['A1', 'B2', 'F2']",6.1,180,450.0,0.0722419991024712,[28400|0|0]
224,22399,1.653972864151001,1.1284061670303345,0.0,-0.36665940284729,0.8606874346733093,4.983575344085693,4.07421875,0,"['A1', 'B2', 'F2']",6.1,180,450.0,0.0724377599576864,[28500|0|0]
225,22499,1.6541218757629397,1.128118872642517,0.0,-0.3622430562973022,0.8596159815788269,4.96592378616333,4.0703125,0,"['A1', 'B2', 'F2']",6.1,180,450.0,0.0727613994573831,[28600|0|0]
226,22599,1.653809905052185,1.1282411813735962,0.0,-0.3779204189777374,0.8684972524642944,4.9568610191345215,4.07421875,0,"['A1', 'B2', 'F2']",6.1,180,450.0,0.0730964892215761,[28700|0|0]
227,22699,1.6540536880493164,1.127971887588501,0.0,-0.3726776242256164,0.8608835339546204,4.968862056732178,4.07421875,0,"['A1', 'B2', 'F2']",6.1,180,450.0,0.073459737473301,[28800|0|0]
228,22799,1.6540130376815796,1.1285529136657717,0.0,-0.3881299197673797,0.8616728186607361,4.959789276123047,4.0703125,0,"['A1', 'B2', 'F2']",6.1,180,450.0,0.0740421838269386,[28900|0|0]
229,22899,1.6540549993515017,1.128283143043518,0.0,-0.3769916296005249,0.8640794157981873,4.934247970581055,4.07421875,0,"['A1', 'B2', 'F2']",6.1,180,450.0,0.0743151984243025,[29000|0|0]
230,22999,1.653998613357544,1.1282901763916016,0.0,-0.3728446066379547,0.8656439781188965,4.964091777801514,4.07421875,0,"['A1', 'B2', 'F2']",6.1,180,450.0,0.0743720213800499,[29100|0|0]
231,23099,1.6541059017181396,1.1284525394439695,0.0,-0.3726422786712646,0.8703815340995789,4.939184665679932,4.0703125,0,"['A1', 'B2', 'F2']",6.1,180,450.0,0.0745666300979778,[29200|0|0]
232,23199,1.6541879177093506,1.1282445192337036,0.0,-0.3600322902202606,0.8746210336685181,4.945236682891846,4.07421875,0,"['A1', 'B2', 'F2']",6.1,180,450.0,0.0747902347282818,[29300|0|0]
233,23299,1.6539034843444824,1.1282405853271484,0.0,-0.3597155213356018,0.8847192525863647,4.955337524414063,4.07421875,0,"['A1', 'B2', 'F2']",6.1,180,450.0,0.0750746952961484,[29400|0|0]
234,23399,1.6538175344467163,1.128310203552246,0.0,-0.3631003499031067,0.883934497833252,4.942949771881104,4.07421875,0,"['A1', 'B2', 'F2']",6.1,180,450.0,0.0751853030815514,[29500|0|0]
235,23499,1.6542311906814575,1.1285629272460938,0.0,-0.3685676455497741,0.8696150183677673,4.959049224853516,4.07421875,0,"['A1', 'B2', 'F2']",6.1,180,450.0,0.075670051207873,[29600|0|0]
236,23599,1.6543065309524536,1.1285302639007568,0.0,-0.3603340983390808,0.8597397804260254,4.966110706329346,4.07421875,0,"['A1', 'B2', 'F2']",6.1,180,450.0,0.0757521672876769,[29700|0|0]
237,23699,1.6541017293930054,1.1287065744400024,0.0,-0.3640336096286773,0.8721941709518433,4.949365615844727,4.07421875,0,"['A1', 'B2', 'F2']",6.1,180,450.0,0.076022406228249,[29800|0|0]
238,23799,1.6540677547454834,1.1285653114318848,0.0,-0.3622176051139831,0.8830888271331787,4.935818195343018,4.0703125,0,"['A1', 'B2', 'F2']",6.1,180,450.0,0.0761676973640305,[29900|0|0]
239,23899,1.6538479328155518,1.128366470336914,0.0,-0.3617134392261505,0.8830568194389343,4.957962989807129,4.07421875,0,"['A1', 'B2', 'F2']",6.1,180,450.0,0.0764641083319923,[30000|0|0]
240,23999,1.65392804145813,1.1283071041107178,0.0,-0.3576025068759918,0.8851717114448547,4.944554328918457,4.07421875,0,"['A1', 'B2', 'F2']",6.1,180,450.0,0.0765638166236662,[30100|0|0]
241,24099,1.6539889574050903,1.128459930419922,0.0,-0.3594911098480224,0.8841606974601746,4.943521499633789,4.07421875,0,"['A1', 'B2', 'F2']",6.1,180,450.0,0.0767283360248901,[30200|0|0]
242,24199,1.6537503004074097,1.128185153007507,0.0,-0.3578994870185852,0.8828890919685364,4.967307090759277,4.07421875,0,"['A1', 'B2', 'F2']",6.1,180,450.0,0.0770922862809904,[30300|0|0]
243,24299,1.653778314590454,1.12847101688385,0.0,-0.3623477816581726,0.8750694990158081,5.002921581268311,4.07421875,0,"['A1', 'B2', 'F2']",6.1,180,450.0,0.0773795195489965,[30400|0|0]
244,24399,1.653894305229187,1.1284013986587524,0.0,-0.3601103723049164,0.8723765015602112,4.987663745880127,4.0703125,0,"['A1', 'B2', 'F2']",6.1,180,450.0,0.0775147989840168,[30500|0|0]
245,24499,1.6536332368850708,1.128392457962036,0.0,-0.361824631690979,0.8809760808944702,5.027253150939941,4.07421875,0,"['A1', 'B2', 'F2']",6.1,180,450.0,0.077776020377393,[30600|0|0]
246,24599,1.6539651155471802,1.1285665035247805,0.0,-0.3612400889396667,0.8700214624404907,5.043807506561279,4.0703125,0,"['A1', 'B2', 'F2']",6.1,180,450.0,0.078150767364405,[30700|0|0]
247,24699,1.6540290117263794,1.128311276435852,0.0,-0.3550075888633728,0.8716853857040405,5.034317493438721,4.0703125,0,"['A1', 'B2', 'F2']",6.1,180,450.0,0.0784138711246197,[30800|0|0]
248,24799,1.654011845588684,1.1283326148986816,0.0,-0.3612582087516784,0.8733708262443542,5.027217864990234,4.07421875,0,"['A1', 'B2', 'F2']",6.1,180,450.0,0.0784412573671386,[30900|0|0]
249,24899,1.6541422605514526,1.1283625364303589,0.0,-0.3601402342319488,0.8725365400314331,5.0069260597229,4.0703125,0,"['A1', 'B2', 'F2']",6.1,180,450.0,0.0785750608071984,[31000|0|0]
250,24999,1.6543912887573242,1.1284801959991455,0.0,-0.3586154580116272,0.8666897416114807,5.000195503234863,4.0703125,0,"['A1', 'B2', 'F2']",6.1,180,450.0,0.0788504856089986,[31100|0|0]
251,25099,1.6540939807891846,1.1282280683517456,0.0,-0.3500076234340668,0.8755750060081482,4.993530750274658,4.07421875,0,"['A1', 'B2', 'F2']",6.1,180,450.0,0.0792403065659811,[31200|0|0]
252,25199,1.6541917324066162,1.128286838531494,0.0,-0.3547717630863189,0.8701099157333374,4.985931396484375,4.07421875,0,"['A1', 'B2', 'F2']",6.1,180,450.0,0.0793543649402381,[31300|0|0]
253,25299,1.653883457183838,1.128504514694214,0.0,-0.359382301568985,0.8756993412971497,5.004305839538574,4.0703125,0,"['A1', 'B2', 'F2']",6.1,180,450.0,0.0797317460801956,[31400|0|0]
254,25399,1.6537238359451294,1.1284759044647217,0.0,-0.3552526235580444,0.8820306062698364,5.000353813171387,4.07421875,0,"['A1', 'B2', 'F2']",6.1,180,450.0,0.0798939110735771,[31500|0|0]
255,25499,1.6538186073303225,1.1284468173980713,0.0,-0.3535631895065307,0.8788663744926453,4.98991584777832,4.0703125,0,"['A1', 'B2', 'F2']",6.1,180,450.0,0.0799930456936538,[31600|0|0]
256,25599,1.6540511846542358,1.1284799575805664,0.0,-0.3518817126750946,0.8689571022987366,4.991998672485352,4.07421875,0,"['A1', 'B2', 'F2']",6.1,180,450.0,0.080227972242376,[31700|0|0]
257,25699,1.653935790061951,1.1285167932510376,0.0,-0.352613240480423,0.8747491240501404,4.964147090911865,4.0703125,0,"['A1', 'B2', 'F2']",6.1,180,450.0,0.0803491034875098,[31800|0|0]
258,25799,1.6541646718978882,1.1284016370773315,0.0,-0.3474508225917816,0.872348964214325,4.992393970489502,4.0703125,0,"['A1', 'B2', 'F2']",6.1,180,450.0,0.0806053218302658,[31900|0|0]
259,25899,1.653778314590454,1.1285988092422483,0.0,-0.3552772104740143,0.8785255551338196,4.996576309204102,4.0703125,0,"['A1', 'B2', 'F2']",6.1,180,450.0,0.0810390830913596,[32000|0|0]
260,25999,1.654173731803894,1.12843120098114,0.0,-0.359942078590393,0.8590792417526245,4.993637561798096,4.0703125,0,"['A1', 'B2', 'F2']",6.1,180,450.0,0.0814685563756002,[32100|0|0]
261,26099,1.6539511680603027,1.1280317306518557,0.0,-0.3474023044109344,0.8713381886482239,4.980310440063477,4.0703125,0,"['A1', 'B2', 'F2']",6.1,180,450.0,0.0819258431170872,[32200|0|0]
262,26199,1.653815984725952,1.128570795059204,0.0,-0.3695613145828247,0.8694655299186707,4.940549850463867,4.0703125,0,"['A1', 'B2', 'F2']",6.1,180,450.0,0.0824815993308681,[32300|0|0]
263,26299,1.6541670560836792,1.1280479431152344,0.0,-0.3564924299716949,0.8698252439498901,4.950003623962402,4.07421875,0,"['A1', 'B2', 'F2']",6.1,180,450.0,0.0831113812403649,[32400|0|0]
264,26399,1.654030680656433,1.128448247909546,0.0,-0.3664472699165344,0.8687266707420349,4.966166496276856,4.0703125,0,"['A1', 'B2', 'F2']",6.1,180,450.0,0.0835342786103086,[32500|0|0]
265,26499,1.653796911239624,1.128159523010254,0.0,-0.3584412336349487,0.8806561827659607,4.966075897216797,4.0703125,0,"['A1', 'B2', 'F2']",6.1,180,450.0,0.0839057758615857,[32600|0|0]
266,26599,1.6538432836532593,1.128381848335266,0.0,-0.3621546030044555,0.874186098575592,4.948483943939209,4.07421875,0,"['A1', 'B2', 'F2']",6.1,180,450.0,0.0841328858589175,[32700|0|0]
267,26699,1.6539219617843628,1.1282989978790283,0.0,-0.3586164116859436,0.8706016540527344,4.949865818023682,4.0703125,0,"['A1', 'B2', 'F2']",6.1,180,450.0,0.0842471419152678,[32800|0|0]
268,26799,1.6539554595947266,1.128508448600769,0.0,-0.3621697723865509,0.8682147264480591,4.938494682312012,4.0703125,0,"['A1', 'B2', 'F2']",6.1,180,450.0,0.0844592544046145,[32900|0|0]
269,26899,1.653956651687622,1.1283189058303833,0.0,-0.359745055437088,0.8603435158729553,4.924027919769287,4.0703125,0,"['A1', 'B2', 'F2']",6.1,180,450.0,0.084648800923683,[33000|0|0]
270,26999,1.6541858911514282,1.1282843351364136,0.0,-0.3615718185901642,0.8547910451889038,4.943226337432861,4.0703125,0,"['A1', 'B2', 'F2']",6.1,180,450.0,0.0848806324673687,[33100|0|0]
271,27099,1.653815507888794,1.1285024881362915,0.0,-0.3669605255126953,0.8611434102058411,4.978736877441406,4.0703125,0,"['A1', 'B2', 'F2']",6.1,180,450.0,0.0853104865037523,[33200|0|0]
272,27199,1.6539114713668823,1.1287411451339722,0.0,-0.374966949224472,0.8626725673675537,4.962330341339111,4.0703125,0,"['A1', 'B2', 'F2']",6.1,180,450.0,0.0855677143243099,[33300|0|0]
273,27299,1.653775930404663,1.1284151077270508,0.0,-0.3650668263435364,0.8664626479148865,4.918629169464111,4.0703125,0,"['A1', 'B2', 'F2']",6.1,180,450.0,0.0859208031844447,[33400|0|0]
274,27399,1.653899908065796,1.1285793781280518,0.0,-0.3722152411937713,0.8593887686729431,4.943387031555176,4.0703125,0,"['A1', 'B2', 'F2']",6.1,180,450.0,0.0861266070354898,[33500|0|0]
275,27499,1.6538201570510864,1.1284421682357788,0.0,-0.3644295036792755,0.8618086576461792,4.970076560974121,4.07421875,0,"['A1', 'B2', 'F2']",6.1,180,450.0,0.0862853104660915,[33600|0|0]
276,27599,1.6537586450576782,1.1284353733062744,0.0,-0.362241119146347,0.8712742328643799,4.987327098846436,4.07421875,0,"['A1', 'B2', 'F2']",6.1,180,450.0,0.0863471966228636,[33700|0|0]
277,27699,1.6537154912948608,1.1284692287445068,0.0,-0.3599788546562195,0.8782789707183838,4.992297649383545,4.0703125,0,"['A1', 'B2', 'F2']",6.1,180,450.0,0.0864020458520579,[33800|0|0]
278,27799,1.6539239883422852,1.1281688213348389,0.0,-0.3497534096240997,0.8747897148132324,5.024081230163574,4.0703125,0,"['A1', 'B2', 'F2']",6.1,180,450.0,0.0867677173310771,[33900|0|0]
279,27899,1.6540910005569458,1.1286635398864746,0.0,-0.3673953711986542,0.8669739365577698,5.033085346221924,4.0703125,0,"['A1', 'B2', 'F2']",6.1,180,450.0,0.0872898662803036,[34000|0|0]
280,27999,1.6541441679000854,1.128328561782837,0.0,-0.359128326177597,0.8715134859085083,5.03038215637207,4.0703125,0,"['A1', 'B2', 'F2']",6.1,180,450.0,0.0876290374705501,[34100|0|0]
281,28099,1.6539005041122437,1.128398060798645,0.0,-0.3578979969024658,0.8773640990257263,5.009819030761719,4.0703125,0,"['A1', 'B2', 'F2']",6.1,180,450.0,0.0878824189116695,[34200|0|0]
282,28199,1.653918743133545,1.128495216369629,0.0,-0.3539585769176483,0.8760782480239868,4.9986090660095215,4.0703125,0,"['A1', 'B2', 'F2']",6.1,180,450.0,0.0879812716651528,[34300|0|0]
283,28299,1.6539782285690308,1.1280629634857178,0.0,-0.3475841879844665,0.8741774559020996,4.98779296875,4.0703125,0,"['A1', 'B2', 'F2']",6.1,180,450.0,0.088417598460897,[34400|0|0]
284,28399,1.653893232345581,1.128554105758667,0.0,-0.3631552457809448,0.8737244009971619,4.967461109161377,4.07421875,0,"['A1', 'B2', 'F2']",6.1,180,450.0,0.0889160411258831,[34500|0|0]
285,28499,1.6539947986602783,1.128292202949524,0.0,-0.3486141860485077,0.8765081763267517,4.988532066345215,4.0703125,0,"['A1', 'B2', 'F2']",6.1,180,450.0,0.0891969482239035,[34600|0|0]
286,28599,1.6539682149887085,1.1283681392669678,0.0,-0.3479728102684021,0.88193279504776,4.9852681159973145,4.0703125,0,"['A1', 'B2', 'F2']",6.1,180,450.0,0.0892774032790651,[34700|0|0]
287,28699,1.6539779901504517,1.1281801462173462,0.0,-0.3403163552284241,0.8804343938827515,4.9927659034729,4.0703125,0,"['A1', 'B2', 'F2']",6.1,180,450.0,0.0894656502989436,[34800|0|0]
288,28799,1.6539385318756104,1.1279853582382202,0.0,-0.340319812297821,0.8888568878173828,4.975553512573242,4.0703125,0,"['A1', 'B2', 'F2']",6.1,180,450.0,0.0896643946378955,[34900|0|0]
289,28899,1.653858304023743,1.12817120552063,0.0,-0.3579920530319214,0.8860379457473755,4.944738864898682,4.0703125,0,"['A1', 'B2', 'F2']",6.1,180,450.0,0.0898668192426115,[35000|0|0]
290,28999,1.6539467573165894,1.128468036651611,0.0,-0.3615206480026245,0.8843061923980713,4.945689678192139,4.0703125,0,"['A1', 'B2', 'F2']",6.1,180,450.0,0.0901765492949713,[35100|0|0]
291,29099,1.6540621519088743,1.128665566444397,0.0,-0.3647942841053009,0.8782616257667542,4.941812992095947,4.0703125,0,"['A1', 'B2', 'F2']",6.1,180,450.0,0.0904053154003424,[35200|0|0]
292,29199,1.6537024974822998,1.1284202337265017,0.0,-0.3607357144355774,0.8902745842933655,4.943857669830322,4.0703125,0,"['A1', 'B2', 'F2']",6.1,180,450.0,0.0908406766859714,[35300|0|0]
293,29299,1.6538571119308472,1.1280704736709597,0.0,-0.3582088351249695,0.8775697350502014,4.949573993682861,4.0703125,0,"['A1', 'B2', 'F2']",6.1,180,450.0,0.0912230870992087,[35400|0|0]
294,29399,1.6538299322128296,1.1283648014068604,0.0,-0.3713702261447906,0.8807471394538879,4.952432155609131,4.0703125,0,"['A1', 'B2', 'F2']",6.1,180,450.0,0.0915186671276137,[35500|0|0]
295,29499,1.6536821126937866,1.1284304857254028,0.0,-0.3626990020275116,0.8833385109901428,4.952917575836182,4.0703125,0,"['A1', 'B2', 'F2']",6.1,180,450.0,0.0916804232400561,[35600|0|0]
296,29599,1.6538506746292114,1.128134846687317,0.0,-0.3504441678524017,0.8842443227767944,4.949944972991943,4.0703125,0,"['A1', 'B2', 'F2']",6.1,180,450.0,0.0920207401025748,[35700|0|0]
297,29699,1.6540285348892212,1.1282285451889038,0.0,-0.3479543030261993,0.8837629556655884,4.976175785064697,4.0703125,0,"['A1', 'B2', 'F2']",6.1,180,450.0,0.0922217716455982,[35800|0|0]
298,29799,1.6539331674575806,1.128032684326172,0.0,-0.3543336987495422,0.8896054625511169,4.953017711639404,4.0703125,0,"['A1', 'B2', 'F2']",6.1,180,450.0,0.0924396166009397,[35900|0|0]
299,29899,1.6539825201034546,1.1280044317245483,0.0,-0.3481992483139038,0.883961021900177,4.968230724334717,4.0703125,0,"['A1', 'B2', 'F2']",6.1,180,450.0,0.0924964839303413,[36000|0|0]
300,29999,1.6539756059646606,1.1282309293746948,0.0,-0.353008359670639,0.8848275542259216,4.9504499435424805,4.0703125,0,"['A1', 'B2', 'F2']",6.1,180,450.0,0.0927230870875063,[36100|0|0]
301,30099,1.6540744304656982,1.128345251083374,0.0,-0.3599497675895691,0.8825501203536987,4.935292720794678,4.0703125,0,"['A1', 'B2', 'F2']",6.1,180,450.0,0.0928742020605589,[36200|0|0]
302,30199,1.6540729999542236,1.128484845161438,0.0,-0.3696047961711883,0.8876714706420898,4.92403507232666,4.0703125,0,"['A1', 'B2', 'F2']",6.1,180,450.0,0.093013803468122,[36300|0|0]
303,30299,1.6542965173721311,1.128326416015625,0.0,-0.3646988570690155,0.8770062923431396,4.932186126708984,4.0703125,0,"['A1', 'B2', 'F2']",6.1,180,450.0,0.0932877739598744,[36400|0|0]
304,30399,1.6539738178253174,1.1282589435577393,0.0,-0.367418885231018,0.8949456810951233,4.923556804656982,4.0703125,0,"['A1', 'B2', 'F2']",6.1,180,450.0,0.0936174518785874,[36500|0|0]
305,30499,1.6540300846099854,1.1282320022583008,0.0,-0.3644318878650665,0.8936392664909363,4.934073925018311,4.0703125,0,"['A1', 'B2', 'F2']",6.1,180,450.0,0.0936798360486332,[36600|0|0]
306,30599,1.653972625732422,1.128088116645813,0.0,-0.3590458333492279,0.8929620981216431,4.941979885101318,4.0703125,0,"['A1', 'B2', 'F2']",6.1,180,450.0,0.0938347702026853,[36700|0|0]
307,30699,1.654011368751526,1.128231406211853,0.0,-0.3622669577598572,0.8903487324714661,4.938129901885986,4.0703125,0,"['A1', 'B2', 'F2']",6.1,180,450.0,0.0939832051085034,[36800|0|0]
308,30799,1.6537333726882937,1.1281861066818235,0.0,-0.3602911829948425,0.8950835466384888,4.928377151489258,4.0703125,0,"['A1', 'B2', 'F2']",6.1,180,450.0,0.0942648677765899,[36900|0|0]
309,30899,1.6538182497024536,1.128511905670166,0.0,-0.3680044114589691,0.8838191032409668,4.940226078033447,4.0703125,0,"['A1', 'B2', 'F2']",6.1,180,450.0,0.0946015413400571,[37000|0|0]
310,30999,1.6537643671035769,1.1283576488494873,0.0,-0.3672090768814087,0.8885465860366821,4.92199182510376,4.0703125,0,"['A1', 'B2', 'F2']",6.1,180,450.0,0.094764938100085,[37100|0|0]
311,31099,1.6537597179412842,1.1283658742904663,0.0,-0.3647418320178985,0.8845061659812927,4.917412281036377,4.0703125,0,"['A1', 'B2', 'F2']",6.1,180,450.0,0.094774386517377,[37200|0|0]
312,31199,1.6538939476013184,1.1282941102981567,0.0,-0.3657132685184479,0.8825404047966003,4.915831565856934,4.0703125,0,"['A1', 'B2', 'F2']",6.1,180,450.0,0.09492659582138,[37300|0|0]
313,31299,1.6542150974273682,1.1283276081085205,0.0,-0.3696087002754211,0.8686715960502625,4.912199020385742,4.0703125,0,"['A1', 'B2', 'F2']",6.1,180,450.0,0.0952494879304056,[37400|0|0]
314,31399,1.6540369987487793,1.1283299922943115,0.0,-0.3619680106639862,0.8707495927810669,4.9369096755981445,4.0703125,0,"['A1', 'B2', 'F2']",6.1,180,450.0,0.0954276025666852,[37500|0|0]
315,31499,1.653908610343933,1.12839937210083,0.0,-0.3619172275066376,0.8737028241157532,4.941763877868652,4.0703125,0,"['A1', 'B2', 'F2']",6.1,180,450.0,0.0955735379635274,[37600|0|0]
316,31599,1.654175043106079,1.1282494068145752,0.0,-0.3518935143947601,0.8672698140144348,4.943024635314941,4.0703125,0,"['A1', 'B2', 'F2']",6.1,180,450.0,0.0958792764200981,[37700|0|0]
317,31699,1.6539348363876345,1.128416657447815,0.0,-0.3520412445068359,0.8706751465797424,4.965155124664307,4.0703125,0,"['A1', 'B2', 'F2']",6.1,180,450.0,0.0961719742880525,[37800|0|0]
318,31799,1.6538810729980469,1.12807297706604,0.0,-0.3412492871284485,0.8786306381225586,4.968751907348633,4.0703125,0,"['A1', 'B2', 'F2']",6.1,180,450.0,0.0965198344709951,[37900|0|0]
319,31899,1.653892159461975,1.1283401250839231,0.0,-0.3580066561698913,0.876907467842102,4.979856967926025,4.0703125,0,"['A1', 'B2', 'F2']",6.1,180,450.0,0.096787212430336,[38000|0|0]
320,31999,1.654317855834961,1.12912118434906,0.0,-0.3778794407844543,0.8679254055023193,4.972947120666504,4.0703125,0,"['A1', 'B2', 'F2']",6.1,180,450.0,0.0976767465655043,[38100|0|0]
